"lineid","car","time","location","longitude","latitude","cityid","cityname"
"234046","148-BY","2017/06/23 18:38:46","新北市永和區林森路65號","121.524121666667","25.0041233333333","6500400","永和區"
"234013","149-BY","2017/06/23 18:38:52","新北市永和區保福路二段144號","121.509685","25.0145616666667","6500400","永和區"
"234007","207-UY","2017/06/23 18:38:56","新北市永和區文化路170號","121.51179","25.0155066666667","6500400","永和區"
"234081","298-R6","2017/06/23 18:39:01","新北市永和區林森路81號","121.523893333333","25.0038533333333","6500400","永和區"
"234038","336-UY","2017/06/23 18:38:50","新北市永和區福和路1號","121.526471666667","25.01007","6500400","永和區"
"234064","337-UY","2017/06/23 18:38:47","新北市永和區福和路1號","121.52646","25.01026","6500400","永和區"
"234086","338-UY","2017/06/23 18:38:51","新北市永和區永貞路111號","121.517776666667","25.0043566666667","6500400","永和區"
"234070","552-UM","2017/06/23 18:38:48","新北市永和區豫溪街217巷7號","121.525078333333","25.009955","6500400","永和區"
"234054","553-UM","2017/06/23 18:38:57","新北市永和區福和路1號","121.525915","25.0096866666667","6500400","永和區"
"234017","745-BX","2017/06/23 18:39:07","新北市永和區福和路1號","121.526561666667","25.010215","6500400","永和區"
"234030","746-BX","2017/06/23 18:39:02","新北市永和區得和路345號","121.523906666667","24.9994916666667","6500400","永和區"
"234061","AAD-866","2017/06/23 18:38:54","新北市永和區環河東路二段92號","121.524163333333","25.0105183333333","6500400","永和區"
"234042","862-TW","2017/06/23 18:38:52","新北市永和區永貞路308號","121.51192","25.0049333333333","6500400","永和區"
"234050","863-TW","2017/06/23 18:38:56","新北市永和區環河西路一段73號","121.512885","25.01964","6500400","永和區"
"234026","9371-KE","2017/06/23 18:38:47","新北市永和區中山路一段214號","121.508288333333","25.00851","6500400","永和區"
"234011","9373-KE","2017/06/23 18:39:01","新北市永和區仁愛路24號","121.514675","25.0135633333333","6500400","永和區"
"249005","172-UM","2017/06/23 18:38:58","新北市八里區中華路三段228號","121.388821666667","25.125035","6502300","八里區"
"249001","173-UM","2017/06/23 18:38:58","新北市八里區龍米路一段205號","121.451471666667","25.1314333333333","6502300","八里區"
"249004","303-UY","2017/06/23 18:39:02","新北市八里區龍米路三段50號","121.424725","25.1591683333333","6502300","八里區"
"249002","305-UY","2017/06/23 18:38:47","新北市八里區龍形一街12巷8號","121.449876666667","25.1307483333333","6502300","八里區"
"248016","026-BX","2017/06/23 18:38:53","新北市五股區凌雲路一段133巷27-3號","121.44864","25.1008866666667","6501500","五股區"
"248008","095-VK","2017/06/23 18:38:54","新北市五股區中興路一段154號","121.464591666667","25.073985","6501500","五股區"
"248018","225-UY","2017/06/23 18:38:50","新北市五股區民義路二段3-2號","121.41094","25.1054233333333","6501500","五股區"
"248012","247-BX","2017/06/23 18:16:18","新北市五股區御史路2巷9號","121.442681666667","25.0904016666667","6501500","五股區"
"248014","261-SL","2017/06/23 18:38:50","新北市五股區中興路四段67-2號","121.436933333333","25.08338","6501500","五股區"
"248002","655-BX","2017/06/23 18:38:47","新北市五股區西雲路220號","121.448101666667","25.0962133333333","6501500","五股區"
"248004","677-BX","2017/06/23 18:39:01","新北市五股區民義路一段270號","121.425873333333","25.0927483333333","6501500","五股區"
"248010","682-TV","2017/06/23 18:38:53","新北市五股區水碓路28號","121.43301","25.072775","6501500","五股區"
"234023","9380-KE","2017/06/23 18:38:47","新北市永和區福和路76巷5弄14號","121.522388333333","25.0084116666667","6500400","永和區"
"234077","969-R7","2017/06/23 18:38:53","新北市永和區秀朗路一段185號","121.517466666667","25.0036816666667","6500400","永和區"
"234074","AAC-211","2017/06/23 18:38:48","新北市永和區福和路1號","121.526461666667","25.009985","6500400","永和區"
"234067","AAC-212","2017/06/23 18:38:55","新北市永和區環河東路二段92號","121.52437","25.0106066666667","6500400","永和區"
"234003","AAC-295","2017/06/23 18:36:52","新北市永和區福和路1號","121.525893333333","25.0091683333333","6500400","永和區"
"232011","375-UM","2017/06/23 18:21:05","新北市坪林區坪雙路一段43號","121.711743333333","24.94249","6502000","坪林區"
"244013","069-UM","2017/06/23 18:38:52","新北市林口區文化一路二段106號","121.382033333333","25.07913","6501700","林口區"
"244007","080-UY","2017/06/23 18:38:53","新北市林口區太平里2鄰10號","121.378891666667","25.11448","6501700","林口區"
"244019","403-UM","2017/06/23 18:38:47","新北市林口區忠孝路581巷7號","121.374938333333","25.0688883333333","6501700","林口區"
"244023","483-VK","2017/06/23 18:38:56","新北市林口區信義路170號","121.379668333333","25.0805883333333","6501700","林口區"
"244017","485-VK","2017/06/23 18:39:02","新北市林口區文化二路一段132號","121.368093333333","25.0711233333333","6501700","林口區"
"244009","656-BX","2017/06/23 18:38:52","新北市林口區中山路576-11號","121.37668","25.08554","6501700","林口區"
"244011","701-TV","2017/06/23 18:39:06","新北市林口區仁愛路一段619號","121.389966666667","25.07654","6501700","林口區"
"244025","837-TS","2017/06/23 18:38:47","新北市林口區南勢里53-6號","121.355046666667","25.07493","6501700","林口區"
"243013","AAD-798","2017/06/23 18:39:06","新北市泰山區明志路三段206巷3號","121.42333","25.03796","6501600","泰山區"
"243012","646-TV","2017/06/23 18:39:02","新北市泰山區福興三街13號","121.434428333333","25.0577433333333","6501600","泰山區"
"243016","680-BX","2017/06/23 18:38:50","新北市泰山區泰林路二段534號","121.423693333333","25.0638033333333","6501600","泰山區"
"222005","289-BY","2017/06/23 10:33:31","新北市深坑區深坑街81號","121.614611666667","25.00148","6501800","深坑區"
"222003","436-BY","2017/06/23 18:38:58","新北市深坑區翠谷街77號","121.627978333333","25.00908","6501800","深坑區"
"222002","659-BX","2017/06/23 18:38:53","新北市深坑區雲鄉路56號","121.621975","24.9995316666667","6501800","深坑區"
"222001","696-SL","2017/06/23 18:38:49","新北市深坑區北深路一段82號","121.636331666667","25.01071","6501800","深坑區"
"231041","001-UM","2017/06/23 18:38:50","新北市新店區安華路28-1號","121.519473333333","24.9610266666667","6500600","新店區"
"231056","0291-UT","2017/06/23 18:38:51","新北市新店區二十張路117號","121.536073333333","24.9795816666667","6500600","新店區"
"231059","046-UY","2017/06/23 18:38:49","新北市新店區安華路28-1號","121.51965","24.9607633333333","6500600","新店區"
"231061","047-UY","2017/06/23 18:39:02","新北市新店區安華路28-1號","121.519196666667","24.960975","6500600","新店區"
"231060","106-UY","2017/06/23 18:38:47","新北市新店區安華路28-1號","121.519665","24.96081","6500600","新店區"
"231051","107-UY","2017/06/23 18:38:54","新北市新店區安康路一段355-10號","121.520696666667","24.9638883333333","6500600","新店區"
"231048","108-UY","2017/06/23 18:38:51","新北市新店區環河路2號","121.538483333333","24.9617066666667","6500600","新店區"
"231053","187-VK","2017/06/23 18:39:03","新北市新店區永興路7號","121.544785","24.93972","6500600","新店區"
"231057","256-BX","2017/06/23 18:38:59","新北市新店區新烏路一段201號","121.548405","24.9318983333333","6500600","新店區"
"231063","268-BY","2017/06/23 18:39:00","新北市新店區安華路28-1號","121.519388333333","24.9606083333333","6500600","新店區"
"231046","278-BY","2017/06/23 18:38:54","新北市新店區直潭二街1號","121.535586666667","24.9432166666667","6500600","新店區"
"231050","AAD-862","2017/06/23 18:38:54","新北市新店區安華路28-1號","121.51998","24.961175","6500600","新店區"
"231058","3712-VJ","2017/06/23 18:38:56","新北市新店區國校路76-1號","121.53857","24.9531016666667","6500600","新店區"
"231055","3713-VJ","2017/06/23 18:39:05","新北市新店區華興街38巷8號","121.537138333333","24.9693483333333","6500600","新店區"
"231067","4772-VM","2017/06/23 18:38:58","新北市新店區安華路28-1號","121.519143333333","24.96059","6500600","新店區"
"231065","512-UM","2017/06/23 15:58:05","新北市新店區安華路28-1號","121.519383333333","24.9611733333333","6500600","新店區"
"231054","513-UM","2017/06/23 18:38:54","新北市新店區安華路28-1號","121.519661666667","24.9611483333333","6500600","新店區"
"231064","515-UM","2017/06/23 18:38:54","新北市新店區安華路28-1號","121.519523333333","24.9611083333333","6500600","新店區"
"231042","616-UM","2017/06/23 18:39:03","新北市新店區安康路一段94-2號","121.527753333333","24.96203","6500600","新店區"
"231045","617-UM","2017/06/23 18:38:50","新北市新店區安華路28-1號","121.51939","24.960905","6500600","新店區"
"231040","619-UM","2017/06/23 18:38:54","新北市新店區安康路一段323-3號","121.521451666667","24.9638133333333","6500600","新店區"
"231049","719-UM","2017/06/23 18:38:53","新北市新店區安康路一段355號","121.520096666667","24.9636966666667","6500600","新店區"
"231062","720-UM","2017/06/23 18:38:53","新北市新店區安華路28-1號","121.519143333333","24.9611233333333","6500600","新店區"
"231044","897-TW","2017/06/23 18:38:48","新北市新店區環河路29巷1-1號","121.536021666667","24.9610883333333","6500600","新店區"
"231043","899-TW","2017/06/23 16:00:47","新北市新店區安華路28-1號","121.51928","24.9608483333333","6500600","新店區"
"231066","AKT-0513","2017/06/23 18:39:07","新北市新店區安豐路45號","121.500231666667","24.9550983333333","6500600","新店區"
"235066","003-UY","2017/06/23 18:38:50","新北市中和區水源路35號","121.50439","25.00358","6500300","中和區"
"235064","005-UY","2017/06/23 18:39:06","新北市中和區連城路109巷37號","121.497056666667","24.9985233333333","6500300","中和區"
"235063","006-UY","2017/06/23 18:38:51","新北市中和區連城路399號","121.486265","24.99621","6500300","中和區"
"235062","031-BX","2017/06/23 18:38:48","新北市中和區中山路二段312巷23號","121.49569","25.003395","6500300","中和區"
"235056","096-UM","2017/06/23 18:38:56","新北市板橋區三民路二段220巷19號","121.477943333333","25.0113883333333","6500300","中和區"
"235039","097-UM","2017/06/23 18:39:02","新北市中和區安平路161號","121.51249","24.9985566666667","6500300","中和區"
"235040","150-BY","2017/06/23 18:38:53","新北市中和區安平路38號","121.509921666667","24.9950066666667","6500300","中和區"
"235058","151-BY","2017/06/23 18:39:08","新北市中和區員山路7-6號","121.482336666667","24.9854666666667","6500300","中和區"
"235055","183-VK","2017/06/23 18:39:00","新北市中和區中山路三段208號","121.471523333333","25.006605","6500300","中和區"
"235038","185-VK","2017/06/23 18:39:01","新北市永和區民有街75巷10弄20號","121.519123333333","24.995995","6500300","中和區"
"235049","186-VK","2017/06/23 18:38:48","新北市中和區景安路173號","121.505333333333","24.9944333333333","6500300","中和區"
"235067","255-BX","2017/06/23 18:38:47","新北市中和區連城路469巷7號","121.483608333333","24.995665","6500300","中和區"
"235044","293-VK","2017/06/23 18:38:47","新北市中和區復興路301巷7號","121.501571666667","24.9899566666667","6500300","中和區"
"235072","301-VK","2017/06/23 18:39:08","新北市中和區連城路199號","121.4948","24.9979883333333","6500300","中和區"
"235043","352-BY","2017/06/23 18:39:00","新北市中和區景平路161-1號","121.512491666667","24.99232","6500300","中和區"
"235051","376-QA","2017/06/23 18:39:04","新北市中和區興南路二段114巷10弄38號","121.504016666667","24.9850233333333","6500300","中和區"
"235068","377-QA","2017/06/23 18:38:51","新北市中和區中正路161巷12號","121.498695","24.9933","6500300","中和區"
"235061","378-QA","2017/06/23 18:38:48","新北市中和區民享街91巷2號","121.474893333333","25.0007616666667","6500300","中和區"
"235050","4979-A6","2017/06/23 18:38:43","新北市中和區忠孝街124巷2號","121.512395","24.9860216666667","6500300","中和區"
"235069","4980-A6","2017/06/23 18:38:08","新北市中和區連城路99巷74號","121.497345","24.998125","6500300","中和區"
"235042","551-UM","2017/06/23 18:38:50","新北市中和區成功路127巷21號","121.527075","24.9909633333333","6500300","中和區"
"235070","558-UM","2017/06/23 18:22:25","新北市中和區中正路277-6號","121.495206666667","24.9936566666667","6500300","中和區"
"235045","565-BX","2017/06/23 18:39:04","新北市中和區復興路49巷2號","121.504555","24.989845","6500300","中和區"
"235054","640-BX","2017/06/23 18:38:50","新北市中和區民享街86巷1號","121.474475","25.0009","6500300","中和區"
"235060","647-TV","2017/06/23 18:38:58","新北市中和區員山路473號","121.480261666667","25.004855","6500300","中和區"
"235046","733-UM","2017/06/23 18:38:46","新北市中和區南山路146巷7號","121.503461666667","24.9924016666667","6500300","中和區"
"235057","801-TS","2017/06/23 18:38:47","新北市中和區民安街180號","121.47605","24.9999266666667","6500300","中和區"
"235041","802-TS","2017/06/23 18:38:52","新北市中和區安平路36巷5號","121.510301666667","24.9948033333333","6500300","中和區"
"235052","805-TS","2017/06/23 18:38:48","新北市中和區興南路二段166號","121.503833333333","24.9825766666667","6500300","中和區"
"235048","896-TW","2017/06/23 18:38:59","新北市中和區中正路11號","121.503185","24.99342","6500300","中和區"
"235053","900-TW","2017/06/23 18:38:43","新北市中和區民享街457號","121.47041","24.9931466666667","6500300","中和區"
"235037","AAC-213","2017/06/23 18:38:52","新北市中和區景新街383巷68號","121.514755","24.9902783333333","6500300","中和區"
"235059","AAC-215","2017/06/23 18:38:57","新北市中和區錦和路350-1號","121.490461666667","24.9935516666667","6500300","中和區"
"220068","013-TV","2017/06/23 18:38:54","新北市板橋區民生路二段36-1號","121.47259","25.016585","6500100","板橋區"
"220086","073-UY","2017/06/23 18:38:49","新北市板橋區南雅西路二段175巷5號","121.45157","25.012285","6500100","板橋區"
"220069","AAD-861","2017/06/23 15:52:12","新北市板橋區民生路二段36-1號","121.472565","25.01655","6500100","板橋區"
"247002","402-BY","2017/06/23 16:29:35","新北市五股區中興路三段3-6號","121.449576666667","25.0787083333333","6501400","蘆洲區"
"247002","336-TH","2017/06/23 18:38:47","新北市五股區中直路21號","121.421666666667","25.111565","6501400","蘆洲區"
"247014","057-VK","2017/06/23 18:35:42","新北市五股區中興路三段2巷10號","121.44931","25.0811716666667","6501400","蘆洲區"
"247006","053-VK","2017/06/23 18:37:49","新北市五股區芳洲八路98號","121.447643333333","25.087035","6501400","蘆洲區"
"226004","205-ST","2017/06/23 18:39:01","新北市平溪區平溪里平溪街60-1號","121.738033333333","25.0273266666667","6502400","平溪區"
"228001","212-TW","2017/06/23 18:39:02","新北市貢寮區仁理村研海街12-1號","121.923861666667","25.051675","6502600","貢寮區"
"228002","663-BX","2017/06/23 18:39:09","新北市貢寮區福隆里東興街6-11號","121.950736666667","25.0210483333333","6502600","貢寮區"
"228003","828-UM","2017/06/23 18:38:19","新北市貢寮區和美里龍洞街46號","121.91334","25.1125116666667","6502600","貢寮區"
"224010","AGQ-8101","2017/06/23 18:35:55","新北市瑞芳區街頂巷43號","121.844625","25.1073833333333","6501200","瑞芳區"
"224006","676-BX","2017/06/23 18:39:05","新北市瑞芳區明燈路三段81號","121.805225","25.1083366666667","6501200","瑞芳區"
"224002","639-TC","2017/06/23 18:39:08","新北市瑞芳區靜安路四段67號","121.79439","25.10383","6501200","瑞芳區"
"224011","420-VK","2017/06/23 18:38:56","新北市瑞芳區崙頂路1-6號","121.84709","25.1047966666667","6501200","瑞芳區"
"224009","285-BY","2017/06/23 18:38:56","新北市瑞芳區祈堂路12號","121.858461666667","25.1125116666667","6501200","瑞芳區"
"224008","275-VK","2017/06/23 18:39:06","新北市瑞芳區瑞芳街85號","121.806141666667","25.10964","6501200","瑞芳區"
"224007","273-VK","2017/06/23 18:39:04","新北市瑞芳區大埔路67巷21號","121.764241666667","25.101755","6501200","瑞芳區"
"224005","271-BY","2017/06/23 18:38:52","新北市瑞芳區永龍新村1號","121.819431666667","25.1196983333333","6501200","瑞芳區"
"227003","642-TC","2017/06/23 18:39:08","新北市雙溪區魚行里坤溪3-5號","121.876205","25.020755","6502500","雙溪區"
"227011","400-TW","2017/06/23 18:38:50","新北市雙溪區牡丹里下坑11號","121.851003333333","25.05619","6502500","雙溪區"
"253006","032-BX","2017/06/23 18:38:52","新北市石門區崁子腳58-5號","121.530095","25.2864916666667","6502200","石門區"
"253005","295-VK","2017/06/23 18:38:50","新北市石門區中山路34-2號","121.566338333333","25.2900283333333","6502200","石門區"
"208003","665-BX","2017/06/23 18:38:47","新北市金山區中山路395號","121.633338333333","25.225255","6502700","金山區"
"208001","761-BX","2017/06/23 18:38:52","新北市金山區文化三路7號","121.635071666667","25.22489","6502700","金山區"
"251004","009-UM","2017/06/23 18:38:51","新北市淡水區八勢二街51巷6號","121.460906666667","25.14949","6501000","淡水區"
"251001","011-UM","2017/06/23 18:38:58","新北市淡水區自強路166號","121.465576666667","25.1341816666667","6501000","淡水區"
"251002","012-UM","2017/06/23 18:38:53","新北市淡水區中正東路一段3巷14弄1號","121.450866666667","25.164205","6501000","淡水區"
"251013","180-VK","2017/06/23 18:39:03","新北市淡水區雲廣坑5號","121.473201666667","25.2127716666667","6501000","淡水區"
"251008","181-VK","2017/06/23 18:38:51","新北市淡水區北投子17-1號","121.453858333333","25.1834033333333","6501000","淡水區"
"251015","182-VK","2017/06/23 18:38:55","新北市淡水區興福寮66巷267號","121.486773333333","25.1621483333333","6501000","淡水區"
"251010","413-VK","2017/06/23 18:38:53","新北市淡水區沙崙路122號","121.42331","25.1827283333333","6501000","淡水區"
"251012","441-VK","2017/06/23 18:38:51","新北市淡水區北新路117號","121.448913333333","25.1785216666667","6501000","淡水區"
"251006","561-UM","2017/06/23 18:38:55","新北市淡水區崁頂37-11號","121.439141666667","25.1944","6501000","淡水區"
"251011","650-BX","2017/06/23 18:38:54","新北市淡水區鄧公路50號","121.459811666667","25.168765","6501000","淡水區"
"251003","673-BX","2017/06/23 18:39:03","新北市淡水區北新路69巷20-1號","121.446395","25.179805","6501000","淡水區"
"207003","550-UM","2017/06/23 18:38:51","新北市萬里區大鵬里頂社2-1號","121.660341666667","25.2071933333333","6502800","萬里區"
"207004","225-TW","2017/06/23 18:39:02","新北市萬里區萬里里獅頭路10-1號","121.691975","25.1785316666667","6502800","萬里區"
"252002","178-VK","2017/06/23 18:39:00","新北市三芝區中正路二段33號","121.504045","25.2549166666667","6502100","三芝區"
"252003","249-BX","2017/06/23 18:38:55","新北市三芝區後厝里土地公坑54-17號","121.465768333333","25.24952","6502100","三芝區"
"252001","292-VK","2017/06/23 18:38:59","新北市三芝區中興街二段60號","121.499676666667","25.2548183333333","6502100","三芝區"
"208002","170-UY","2017/06/23 18:38:57","新北市金山區忠孝一路19巷15號","121.637533333333","25.2179516666667","6502700","金山區"
"237004","078-UY","2017/06/23 18:39:05","新北市三峽區有木310號","121.421806666667","24.863565","6500900","三峽區"
"237007","153-BY","2017/06/23 18:38:59","新北市三峽區柑樹路2巷26號","121.361738333333","24.90537","6500900","三峽區"
"237009","210-TH","2017/06/23 18:39:07","新北市三峽區大同路278號","121.36503","24.9252283333333","6500900","三峽區"
"237013","252-BX","2017/06/23 18:38:53","新北市三峽區光明路69巷25號","121.376648333333","24.9292316666667","6500900","三峽區"
"237012","275-BY","2017/06/23 18:38:59","新北市三峽區三樹路332-1號","121.382026666667","24.9440283333333","6500900","三峽區"
"237008","302-VK","2017/06/23 18:38:56","新北市三峽區白雞127號","121.39244","24.911395","6500900","三峽區"
"237014","433-BY","2017/06/23 18:38:57","新北市三峽區復興路480巷52-1號","121.362288333333","24.9402766666667","6500900","三峽區"
"237006","5529-G3","2017/06/23 18:39:00","新北市三峽區溪東路304號","121.40998","24.9306516666667","6500900","三峽區"
"237011","572-TV","2017/06/23 18:39:07","新北市三峽區介壽路三段132號","121.400333333333","24.942745","6500900","三峽區"
"237015","649-BX","2017/06/23 18:39:01","新北市三峽區安坑12-2號","121.443013333333","24.9264116666667","6500900","三峽區"
"237010","706-TV","2017/06/23 18:38:28","新北市三峽區復興路317號","121.364875","24.938885","6500900","三峽區"
"237005","AKY-6261","2017/06/23 18:38:44","新北市三峽區民生街116號","121.372831666667","24.9352866666667","6500900","三峽區"
"236072","105-UM","2017/06/23 18:38:47","新北市土城區永豐路157巷29弄1號","121.46868","24.9814183333333","6501300","土城區"
"236043","107-UM","2017/06/23 18:38:58","新北市土城區學成路108巷9號","121.450005","24.9895733333333","6501300","土城區"
"236079","166-UM","2017/06/23 18:38:59","新北市土城區中央路四段46巷3號","121.420461666667","24.961","6501300","土城區"
"236031","253-BX","2017/06/23 18:38:56","新北市土城區福仁街65號","121.439545","24.9746683333333","6501300","土城區"
"236027","269-VK","2017/06/23 18:38:49","新北市土城區忠義路47號","121.440528333333","24.96939","6501300","土城區"
"236015","270-VK","2017/06/23 18:38:56","新北市土城區清水路207巷25號","121.459638333333","24.982655","6501300","土城區"
"236039","271-VK","2017/06/23 18:38:51","新北市土城區明德路一段313巷9號","121.459708333333","24.975875","6501300","土城區"
"236022","401-BY","2017/06/23 18:38:54","新北市土城區延吉街307號","121.466295","24.9845316666667","6501300","土城區"
"236059","912-UM","2017/06/23 18:38:59","新北市土城區中央路四段162號","121.41705","24.958175","6501300","土城區"
"236050","913-UM","2017/06/23 18:38:01","新北市土城區明德路一段43號","121.465201666667","24.9851316666667","6501300","土城區"
"236063","915-UM","2017/06/23 18:38:58","新北市土城區延壽路13巷5號","121.470896666667","24.99038","6501300","土城區"
"236055","AAC-216","2017/06/23 18:38:54","新北市土城區中華路一段51號","121.445676666667","24.9882416666667","6501300","土城區"
"242046","441-UM","2017/06/23 18:38:47","新北市樹林區中正路282-18號","121.41598","25.009775","6500500","新莊區"
"242002","413-TV","2017/06/23 18:39:01","新北市新莊區瓊泰路49號","121.443521666667","25.02854","6500500","新莊區"
"242058","353-BY","2017/06/23 18:38:49","新北市新莊區壽山路31號","121.42009","25.028945","6500500","新莊區"
"242044","172-VK","2017/06/23 18:38:57","新北市泰山區中山路二段277號","121.433873333333","25.0456533333333","6500500","新莊區"
"242054","349-TH","2017/06/23 18:38:53","新北市樹林區樹新路98號","121.429441666667","24.9976733333333","6500500","新莊區"
"238015","755-BX","2017/06/23 18:38:49","新北市樹林區備內街79號","121.409091666667","24.9895416666667","6500700","樹林區"
"238023","601-UM","2017/06/23 18:38:56","新北市樹林區三福街114號","121.406455","25.0163383333333","6500700","樹林區"
"238019","599-UM","2017/06/23 18:39:02","新北市樹林區中華路190號","121.412021666667","24.98054","6500700","樹林區"
"238018","571-TV","2017/06/23 18:38:54","新北市樹林區樹新路50巷5弄9號","121.429695","24.9970266666667","6500700","樹林區"
"238024","5061-A6","2017/06/23 18:39:02","新北市樹林區中山路一段235號","121.420786666667","24.986895","6500700","樹林區"
"238025","303-VK","2017/06/23 18:38:47","新北市樹林區中山路三段22號","121.39557","24.9729633333333","6500700","樹林區"
"238017","283-BY","2017/06/23 18:39:05","新北市樹林區光興街44號","121.409908333333","25.0027116666667","6500700","樹林區"
"238014","282-BY","2017/06/23 18:39:00","新北市樹林區大安路107號","121.422981666667","24.9977283333333","6500700","樹林區"
"238020","268-VK","2017/06/23 18:39:00","新北市樹林區俊安街24巷5號","121.419141666667","25.0138033333333","6500700","樹林區"
"238026","172-UY","2017/06/23 18:38:48","新北市樹林區育德街78-1號","121.388083333333","24.96815","6500700","樹林區"
"238016","169-UY","2017/06/23 18:39:01","新北市樹林區文化街28號","121.419313333333","24.9877133333333","6500700","樹林區"
"239007","AAC-297","2017/06/23 18:38:53","新北市鶯歌區中正一路411號","121.360123333333","24.95701","6500800","鶯歌區"
"239006","891-R6","2017/06/23 18:38:48","新北市鶯歌區鶯桃路296巷94弄13號","121.3373","24.9617916666667","6500800","鶯歌區"
"239008","527-UM","2017/06/23 18:38:56","新北市鶯歌區國際一路14號","121.3362","24.9765283333333","6500800","鶯歌區"
"239005","526-UM","2017/06/23 18:39:03","新北市鶯歌區鳳吉三街25號","121.326951666667","24.9737783333333","6500800","鶯歌區"
"239001","417-VK","2017/06/23 18:38:52","新北市鶯歌區中正二路183號","121.341776666667","24.9480566666667","6500800","鶯歌區"
"239003","360-BY","2017/06/23 18:38:58","新北市鶯歌區鶯桃路496號","121.332083333333","24.9659366666667","6500800","鶯歌區"
"239002","359-BY","2017/06/23 18:38:58","新北市鶯歌區中正一路478號","121.366458333333","24.95682","6500800","鶯歌區"
"239004","193-VK","2017/06/23 18:38:55","新北市鶯歌區中正三路156巷51號","121.333086666667","24.9400866666667","6500800","鶯歌區"
"221008","489-VK","2017/06/23 18:38:56","新北市汐止區康寧街901號","121.651471666667","25.07499","6501100","汐止區"
"221036","130-UY","2017/06/23 18:39:03","新北市汐止區南昌街21號","121.663353333333","25.0693866666667","6501100","汐止區"
"221015","131-UY","2017/06/23 18:39:04","新北市汐止區吉祥街3號","121.66795","25.07992","6501100","汐止區"
"221010","269-BY","2017/06/23 18:38:54","新北市汐止區汐萬路三段246號","121.643676666667","25.0958833333333","6501100","汐止區"
"221010","276-VK","2017/06/23 13:14:29","新北市汐止區汐萬路一段256巷3號","121.653461666667","25.0746033333333","6501100","汐止區"
"221031","277-VK","2017/06/23 00:10:29","新北市汐止區汐萬路一段256巷3號","121.65254","25.0745416666667","6501100","汐止區"
"221012","278-VK","2017/06/23 18:38:28","新北市汐止區長江街43號","121.655941666667","25.0712833333333","6501100","汐止區"
"221023","279-VK","2017/06/23 18:38:14","新北市汐止區民族二街83號","121.633691666667","25.0699216666667","6501100","汐止區"
"221032","280-BY","2017/06/23 18:38:56","新北市汐止區民權街二段79號","121.619138333333","25.04808","6501100","汐止區"
"221027","281-BY","2017/06/23 18:38:49","新北市汐止區大同路二段391號","121.657861666667","25.0672316666667","6501100","汐止區"
"221038","297-VK","2017/06/23 18:38:51","新北市汐止區汐萬路一段222號","121.651606666667","25.0729883333333","6501100","汐止區"
"221029","298-VK","2017/06/23 18:38:55","新北市汐止區樟樹一路131號","121.642155","25.0649266666667","6501100","汐止區"
"221021","299-VK","2017/06/23 18:38:47","新北市汐止區新興路74號","121.657383333333","25.0619616666667","6501100","汐止區"
"221035","622-UM","2017/06/23 18:38:52","新北市汐止區大同路二段276號","121.65481","25.0662616666667","6501100","汐止區"
"221025","623-UM","2017/06/23 18:38:44","新北市汐止區仁愛路119巷24號","121.662015","25.064525","6501100","汐止區"
"221033","647-BX","2017/06/23 18:38:48","新北市汐止區南勢街1巷1號","121.627143333333","25.0375916666667","6501100","汐止區"
"221002","707-TV","2017/06/23 18:38:52","新北市汐止區中興路25號","121.636888333333","25.0596266666667","6501100","汐止區"
"221018","753-BX","2017/06/23 18:39:04","新北市汐止區茄苳路260號","121.671796666667","25.068165","6501100","汐止區"
"220079","145-BY","2017/06/23 18:39:00","新北市板橋區大觀路二段107號","121.44631","25.0015816666667","6500100","板橋區"
"220080","200-UY","2017/06/23 18:39:00","新北市板橋區華東街1-9號","121.448226666667","24.9948083333333","6500100","板橋區"
"220082","610-BX","2017/06/23 18:38:54","新北市板橋區華東街1-10號","121.448268333333","24.9949183333333","6500100","板橋區"
"220101","245-BX","2017/06/23 18:39:04","新北市板橋區民生路二段120號","121.4707","25.01995","6500100","板橋區"
"220056","276-BY","2017/06/23 18:38:59","新北市板橋區四川路一段107-4號","121.45986","25.0050683333333","6500100","板橋區"
"220072","277-BY","2017/06/23 18:38:58","新北市板橋區華東街1-10號","121.448271666667","24.9950583333333","6500100","板橋區"
"220064","280-UM","2017/06/23 18:38:55","新北市板橋區民生路二段17號","121.472585","25.0165133333333","6500100","板橋區"
"220094","283-UM","2017/06/23 18:38:56","新北市板橋區民生路二段161巷1號","121.47005","25.0200383333333","6500100","板橋區"
"220071","283-VK","2017/06/23 18:38:45","新北市板橋區民生路二段36-1號","121.472371666667","25.0165233333333","6500100","板橋區"
"220053","285-VK","2017/06/23 18:38:49","新北市板橋區民生路二段30號","121.47267","25.0169416666667","6500100","板橋區"
"220083","286-VK","2017/06/23 18:39:04","新北市板橋區華東街1-9號","121.448268333333","24.9948483333333","6500100","板橋區"
"220090","288-VK","2017/06/23 15:05:03","新北市板橋區民生路二段161巷9號","121.47026","25.019605","6500100","板橋區"
"220061","293-UM","2017/06/23 18:39:00","新北市板橋區民生路二段36-1號","121.472475","25.0166716666667","6500100","板橋區"
"220084","296-UM","2017/06/23 18:38:48","新北市板橋區華東街1-9號","121.448143333333","24.9949583333333","6500100","板橋區"
"220075","297-UM","2017/06/23 18:39:04","新北市板橋區華東街1-9號","121.448183333333","24.99496","6500100","板橋區"
"220041","307-R5","2017/06/23 15:30:48","新北市板橋區民生路二段120號","121.470355","25.0196533333333","6500100","板橋區"
"220063","609-BX","2017/06/23 18:39:00","新北市板橋區民生路二段17號","121.47244","25.0164516666667","6500100","板橋區"
"220091","637-BX","2017/06/23 18:38:51","新北市板橋區民生路二段161巷1號","121.470126666667","25.020105","6500100","板橋區"
"220057","686-BX","2017/06/23 18:38:57","新北市板橋區民生路二段36-1號","121.47249","25.0166083333333","6500100","板橋區"
"220077","687-BX","2017/06/23 18:38:55","新北市板橋區華東街1-10號","121.44828","24.9949616666667","6500100","板橋區"
"220054","741-BX","2017/06/23 18:38:59","新北市板橋區民生路二段56-1號","121.472435","25.01696","6500100","板橋區"
"220074","895-R6","2017/06/23 18:38:57","新北市板橋區華東街1-9號","121.448211666667","24.994955","6500100","板橋區"
"220073","985-R7","2017/06/23 18:38:59","新北市板橋區華東街1-10號","121.448303333333","24.9949833333333","6500100","板橋區"
"220070","AAC-253","2017/06/23 18:39:02","新北市板橋區民生路二段36-1號","121.472551666667","25.0166333333333","6500100","板橋區"
