"lineid","car","time","location","longitude","latitude","cityid","cityname"
"234046","148-BY","2017/06/23 19:59:07","新北市永和區永元路138號","121.522775","25.0031583333333","6500400","永和區"
"234013","149-BY","2017/06/23 19:58:52","新北市永和區保生路55號","121.50476","25.0106033333333","6500400","永和區"
"234007","207-UY","2017/06/23 19:58:56","新北市永和區保生路22巷19弄16號","121.507261666667","25.0086466666667","6500400","永和區"
"234081","298-R6","2017/06/23 19:59:02","新北市永和區林森路112巷9弄3號","121.522096666667","25.0041883333333","6500400","永和區"
"234038","336-UY","2017/06/23 19:58:50","新北市永和區成功路二段117號","121.526636666667","24.9986083333333","6500400","永和區"
"234064","337-UY","2017/06/23 19:58:47","新北市永和區中正路412巷2弄12號","121.51848","25.0018433333333","6500400","永和區"
"234086","338-UY","2017/06/23 19:58:56","新北市永和區福和路243號","121.518201666667","25.007525","6500400","永和區"
"234070","552-UM","2017/06/23 19:58:48","新北市永和區中正路535號","121.516915","25.0078733333333","6500400","永和區"
"234054","553-UM","2017/06/23 19:58:57","新北市永和區環河東路一段122號","121.520645","25.01547","6500400","永和區"
"234017","745-BX","2017/06/23 19:59:03","新北市永和區文化路39號","121.514581666667","25.0150283333333","6500400","永和區"
"234030","746-BX","2017/06/23 19:59:02","新北市永和區民權路49巷30號","121.521693333333","24.9974466666667","6500400","永和區"
"234061","AAD-866","2017/06/23 19:59:00","新北市永和區中正路283巷28號","121.516966666667","25.0006783333333","6500400","永和區"
"234042","862-TW","2017/06/23 19:58:52","新北市永和區中和路421巷5弄1號","121.508728333333","25.00109","6500400","永和區"
"234050","863-TW","2017/06/23 19:58:56","新北市永和區保安路244號","121.506655","25.0125516666667","6500400","永和區"
"234026","9371-KE","2017/06/23 19:59:07","新北市永和區中和路573號","121.511866666667","25.00363","6500400","永和區"
"234011","9373-KE","2017/06/23 19:59:01","新北市永和區仁愛路352巷122弄33號","121.500818333333","25.0092683333333","6500400","永和區"
"249005","172-UM","2017/06/23 19:58:58","新北市八里區長坑口40-3號","121.388403333333","25.1300483333333","6502300","八里區"
"249001","173-UM","2017/06/23 19:58:57","新北市八里區中華路二段312號","121.403743333333","25.14843","6502300","八里區"
"249004","303-UY","2017/06/23 19:58:57","新北市八里區中華路一段333-1號","121.413315","25.1538133333333","6502300","八里區"
"249002","305-UY","2017/06/23 19:58:54","新北市八里區龍米路一段77號","121.455008333333","25.1228966666667","6502300","八里區"
"249003","593-UM","2017/06/23 19:59:02","新北市八里區中華路二段558號","121.398701666667","25.1452616666667","6502300","八里區"
"248016","026-BX","2017/06/23 19:58:52","新北市五股區成泰路三段577巷80弄25號","121.44959","25.104565","6501500","五股區"
"248008","095-VK","2017/06/23 19:58:54","新北市五股區四維路30巷37號","121.468891666667","25.0715316666667","6501500","五股區"
"248018","225-UY","2017/06/23 19:58:50","新北市五股區登林路93-11號","121.41787","25.0742933333333","6501500","五股區"
"248012","247-BX","2017/06/23 19:59:03","新北市五股區民義路一段84號","121.436075","25.0849816666667","6501500","五股區"
"248014","261-SL","2017/06/23 19:58:58","新北市五股區五福路14巷8號","121.434815","25.0887233333333","6501500","五股區"
"248004","677-BX","2017/06/23 19:59:01","新北市五股區成泰路一段8巷2-3號","121.434923333333","25.0669133333333","6501500","五股區"
"248010","682-TV","2017/06/23 19:58:53","新北市五股區登林路79-5號","121.427621666667","25.07066","6501500","五股區"
"234023","9380-KE","2017/06/23 19:59:07","新北市永和區中正路662巷1號","121.516973333333","25.0088183333333","6500400","永和區"
"234077","969-R7","2017/06/23 19:58:53","新北市永和區民有街23巷1號","121.516801666667","24.9963783333333","6500400","永和區"
"234074","AAC-211","2017/06/23 19:58:48","新北市永和區豫溪街207巷1號","121.523528333333","25.0099016666667","6500400","永和區"
"234067","AAC-212","2017/06/23 19:58:55","新北市永和區保平路236巷46號","121.507543333333","25.00682","6500400","永和區"
"234003","AAC-295","2017/06/23 19:56:32","新北市永和區永和路二段5號","121.514341666667","25.0100083333333","6500400","永和區"
"243013","AAD-798","2017/06/23 19:59:05","新北市泰山區應化街7號","121.42389","25.0437233333333","6501600","泰山區"
"243009","297-R6","2017/06/23 19:59:04","新北市泰山區明志路一段153號","121.43332","25.0625333333333","6501600","泰山區"
"243015","380-SR","2017/06/23 19:58:54","新北市泰山區明志路二段194號","121.427238333333","25.0497083333333","6501600","泰山區"
"243014","421-VK","2017/06/23 19:59:02","新北市泰山區泰林路二段175號","121.433641666667","25.0607816666667","6501600","泰山區"
"243010","548-UM","2017/06/23 19:59:03","新北市泰山區中華街10巷2號","121.428165","25.05238","6501600","泰山區"
"243011","549-UM","2017/06/23 19:58:56","新北市泰山區明志路三段182巷11號","121.423603333333","25.0391783333333","6501600","泰山區"
"243012","646-TV","2017/06/23 19:59:02","新北市泰山區全興路182號","121.433208333333","25.0574416666667","6501600","泰山區"
"243016","680-BX","2017/06/23 19:58:50","新北市泰山區中山路二段841號","121.42569","25.035485","6501600","泰山區"
"222005","289-BY","2017/06/23 10:33:31","新北市深坑區深坑街81號","121.614611666667","25.00148","6501800","深坑區"
"222003","436-BY","2017/06/23 19:58:54","新北市深坑區埔新街14號","121.620745","25.0039366666667","6501800","深坑區"
"222002","659-BX","2017/06/23 19:58:52","新北市深坑區北深路二段81巷8弄2號","121.618283333333","25.0030966666667","6501800","深坑區"
"222001","696-SL","2017/06/23 19:58:49","新北市深坑區北深路三段165-1號","121.602203333333","25.0034016666667","6501800","深坑區"
"231041","001-UM","2017/06/23 19:58:50","新北市新店區中正路354號","121.53574","24.9756083333333","6500600","新店區"
"231056","0291-UT","2017/06/23 19:58:51","新北市新店區建國路268號","121.53766","24.9830833333333","6500600","新店區"
"231059","046-UY","2017/06/23 19:58:49","新北市新店區安成街2巷1號","121.510925","24.96021","6500600","新店區"
"231061","047-UY","2017/06/23 19:59:02","新北市新店區安興路65巷14號","121.515945","24.972855","6500600","新店區"
"231060","106-UY","2017/06/23 19:58:47","新北市新店區安康路二段335號","121.49893","24.95633","6500600","新店區"
"231051","107-UY","2017/06/23 19:58:54","新北市新店區中央二街13號","121.528968333333","24.9732733333333","6500600","新店區"
"231048","108-UY","2017/06/23 19:58:51","新北市新店區寶橋路88號","121.546691666667","24.9758183333333","6500600","新店區"
"231053","187-VK","2017/06/23 19:58:59","新北市新店區新烏路三段308號","121.54775","24.897045","6500600","新店區"
"231057","256-BX","2017/06/23 19:59:05","新北市新店區花園二路一段11號","121.555483333333","24.9324416666667","6500600","新店區"
"231063","268-BY","2017/06/23 19:59:00","新北市新店區黎明路3號","121.503578333333","24.9524383333333","6500600","新店區"
"231050","AAD-862","2017/06/23 19:58:54","新北市新店區中生路66號","121.564696666667","24.9523966666667","6500600","新店區"
"231055","3713-VJ","2017/06/23 19:58:45","新北市新店區中華路83巷67號","121.538361666667","24.9672783333333","6500600","新店區"
"231067","4772-VM","2017/06/23 19:58:57","新北市新店區精忠路10-1號","121.532543333333","24.95914","6500600","新店區"
"231065","512-UM","2017/06/23 19:58:50","新北市新店區安祥路109巷8號","121.475341666667","24.958765","6500600","新店區"
"231054","513-UM","2017/06/23 19:58:54","新北市新店區北新路一段89號","121.538611666667","24.9614716666667","6500600","新店區"
"231064","515-UM","2017/06/23 19:58:58","新北市新店區碧安街34號","121.517403333333","24.9689666666667","6500600","新店區"
"231042","616-UM","2017/06/23 19:59:03","新北市新店區中興路一段283號","121.545391666667","24.9684033333333","6500600","新店區"
"231045","617-UM","2017/06/23 19:58:50","新北市新店區北宜路二段341號","121.557705","24.9540316666667","6500600","新店區"
"231040","619-UM","2017/06/23 19:58:54","新北市新店區中正路74號","121.543973333333","24.9702083333333","6500600","新店區"
"231068","718-UY","2017/06/23 19:58:59","新北市新店區安華路28-1號","121.519386666667","24.9611883333333","6500600","新店區"
"231049","719-UM","2017/06/23 19:58:53","新北市新店區民權路89號","121.537643333333","24.98288","6500600","新店區"
"231062","720-UM","2017/06/23 19:58:53","新北市新店區華城路36巷1-3號","121.527415","24.955475","6500600","新店區"
"231044","897-TW","2017/06/23 19:58:48","新北市新店區復興路36號","121.539003333333","24.9867483333333","6500600","新店區"
"231043","899-TW","2017/06/23 19:58:50","新北市新店區中正路263-4號","121.538313333333","24.9738016666667","6500600","新店區"
"241011","013-R5","2017/06/23 19:58:59","新北市三重區三和路二段222號","121.497873333333","25.0695816666667","6500200","三重區"
"241028","022-UY","2017/06/23 19:59:02","新北市三重區中正南路98號","121.494431666667","25.0586266666667","6500200","三重區"
"241008","059-VK","2017/06/23 19:59:02","新北市三重區永福街179巷1號","121.478766666667","25.0749983333333","6500200","三重區"
"241009","060-VK","2017/06/23 19:58:49","新北市三重區三和路四段388-2號","121.482041666667","25.079055","6500200","三重區"
"241031","061-VK","2017/06/23 19:58:45","新北市三重區重新路四段144巷25號","121.487083333333","25.0551833333333","6500200","三重區"
"241017","063-VK","2017/06/23 19:59:02","新北市三重區自強路一段179號","121.492285","25.0678516666667","6500200","三重區"
"241024","065-VK","2017/06/23 19:59:03","新北市三重區力行路一段178巷17號","121.481396666667","25.07142","6500200","三重區"
"241026","066-VK","2017/06/23 19:59:06","新北市三重區仁慈街10號","121.501706666667","25.0631183333333","6500200","三重區"
"241003","091-VK","2017/06/23 19:58:48","新北市三重區仁愛街445巷28號","121.491081666667","25.0831266666667","6500200","三重區"
"241015","156-TC","2017/06/23 19:58:57","新北市三重區三和路二段6-2號","121.501201666667","25.0667516666667","6500200","三重區"
"241005","262-UM","2017/06/23 19:58:46","新北市三重區溪尾街325巷5弄2號","121.488563333333","25.083905","6500200","三重區"
"241029","265-UM","2017/06/23 19:58:53","新北市三重區重新路三段204號","121.490026666667","25.058555","6500200","三重區"
"241016","266-UM","2017/06/23 19:58:49","新北市三重區正義北路37號","121.497495","25.0636416666667","6500200","三重區"
"241022","267-UM","2017/06/23 19:58:45","新北市三重區過圳街31巷2號","121.489121666667","25.0605333333333","6500200","三重區"
"241018","268-UM","2017/06/23 19:58:51","新北市三重區自強路一段157號","121.493291666667","25.0671933333333","6500200","三重區"
"241032","269-UM","2017/06/23 19:58:51","新北市三重區捷運路65號","121.4834","25.0556383333333","6500200","三重區"
"241013","270-UM","2017/06/23 19:58:53","新北市三重區三和路三段125巷6號","121.493181666667","25.0735066666667","6500200","三重區"
"241025","271-UM","2017/06/23 19:58:58","新北市三重區頂崁街210巷26號","121.476031666667","25.0679033333333","6500200","三重區"
"241007","398-BY","2017/06/23 19:58:55","新北市三重區慈愛街66號","121.487141666667","25.079585","6500200","三重區"
"241020","413-TH","2017/06/23 19:59:02","新北市三重區忠孝路一段101號","121.489455","25.072155","6500200","三重區"
"241035","462-BY","2017/06/23 19:59:03","新北市三重區大榮街11號","121.498203333333","25.0632533333333","6500200","三重區"
"241004","475-VK","2017/06/23 19:58:54","新北市三重區五華街108-2號","121.492448333333","25.0827833333333","6500200","三重區"
"241019","478-VK","2017/06/23 19:58:54","新北市三重區自強路二段12號","121.490018333333","25.0689733333333","6500200","三重區"
"241030","480-VK","2017/06/23 19:58:48","新北市三重區重新路四段248號","121.486083333333","25.0534433333333","6500200","三重區"
"241014","543-UM","2017/06/23 19:58:58","新北市三重區三和路二段156號","121.499313333333","25.0684683333333","6500200","三重區"
"241023","545-UM","2017/06/23 19:58:55","新北市三重區頂崁街172號","121.477623333333","25.0659416666667","6500200","三重區"
"241001","547-UM","2017/06/23 19:58:51","新北市三重區仁愛街265號","121.492953333333","25.0787","6500200","三重區"
"241006","AAD-863","2017/06/23 19:58:57","新北市三重區力行路二段123巷12號","121.483636666667","25.0763533333333","6500200","三重區"
"241012","941-UM","2017/06/23 19:58:54","新北市三重區仁厚街62號","121.500496666667","25.07664","6500200","三重區"
"241033","AAC-255","2017/06/23 19:59:02","新北市三重區中興北街69號","121.469528333333","25.04762","6500200","三重區"
"235066","003-UY","2017/06/23 19:58:50","新北市中和區光華街8號","121.504195","25.00432","6500300","中和區"
"235056","096-UM","2017/06/23 19:58:56","新北市中和區中山路三段170巷8弄2號","121.47263","25.00742","6500300","中和區"
"235039","097-UM","2017/06/23 19:59:02","新北市中和區大勇街27巷11號","121.5169","24.9936","6500300","中和區"
"235040","150-BY","2017/06/23 19:58:33","新北市中和區保健路9號","121.507898333333","24.9982983333333","6500300","中和區"
"235058","151-BY","2017/06/23 19:58:48","新北市中和區員山路150巷2弄2號","121.481658333333","24.998225","6500300","中和區"
"235055","183-VK","2017/06/23 19:59:00","新北市中和區德光路27巷21號","121.471086666667","25.0032716666667","6500300","中和區"
"235038","185-VK","2017/06/23 19:58:47","新北市中和區大智街55巷30弄20號","121.52113","24.9931283333333","6500300","中和區"
"235049","186-VK","2017/06/23 19:58:48","新北市中和區中興街35號","121.501065","24.9945516666667","6500300","中和區"
"235067","255-BX","2017/06/23 19:58:47","新北市中和區新生街186巷4號","121.483408333333","24.9996783333333","6500300","中和區"
"235044","293-VK","2017/06/23 19:58:47","新北市中和區南山路399巷9號","121.506928333333","24.9903416666667","6500300","中和區"
"235043","352-BY","2017/06/23 19:58:54","新北市中和區興南路二段159巷7號","121.505363333333","24.983205","6500300","中和區"
"235051","376-QA","2017/06/23 19:59:04","新北市中和區中興街233巷8弄1號","121.501223333333","24.9892266666667","6500300","中和區"
"235068","377-QA","2017/06/23 19:58:51","新北市中和區中山路二段250巷22號","121.497411666667","25.0033983333333","6500300","中和區"
"235061","378-QA","2017/06/23 19:59:04","新北市中和區民利街20號","121.480448333333","24.9991616666667","6500300","中和區"
"235050","4979-A6","2017/06/23 19:59:06","新北市中和區景平路276-1號","121.51378","24.9924166666667","6500300","中和區"
"235069","4980-A6","2017/06/23 19:58:48","新北市中和區景新街34巷2弄11號","121.502745","24.9989933333333","6500300","中和區"
"235070","558-UM","2017/06/23 19:58:45","新北市中和區連城路139巷69號","121.497086666667","24.9970466666667","6500300","中和區"
"235054","640-BX","2017/06/23 19:58:49","新北市中和區莒光路149號","121.472656666667","25.0011683333333","6500300","中和區"
"235046","733-UM","2017/06/23 19:58:46","新北市中和區興南路一段93巷8弄1號","121.50996","24.987855","6500300","中和區"
"235057","801-TS","2017/06/23 19:58:47","新北市中和區員山路325-3號","121.481215","25.0008066666667","6500300","中和區"
"235041","802-TS","2017/06/23 19:58:52","新北市中和區永貞路252號","121.514128333333","25.0036283333333","6500300","中和區"
"235052","805-TS","2017/06/23 19:58:47","新北市中和區華新街75號","121.508245","24.983805","6500300","中和區"
"235048","896-TW","2017/06/23 19:58:59","新北市中和區興南路一段25號","121.511173333333","24.9908083333333","6500300","中和區"
"235053","900-TW","2017/06/23 19:59:03","新北市中和區國光街171巷6號","121.467523333333","25.0013616666667","6500300","中和區"
"235037","AAC-213","2017/06/23 19:58:52","新北市中和區立人街3號","121.52178","24.9939483333333","6500300","中和區"
"235059","AAC-215","2017/06/23 19:58:57","新北市中和區圓通路335巷33弄3號","121.493295","24.989365","6500300","中和區"
"220068","013-TV","2017/06/23 19:58:54","新北市板橋區中山路二段318巷6號","121.480275","25.019055","6500100","板橋區"
"220065","072-UY","2017/06/23 19:58:58","新北市板橋區長安街23號","121.466683333333","25.0087733333333","6500100","板橋區"
"220106","075-UY","2017/06/23 19:59:03","新北市板橋區民治街71巷1弄3號","121.480113333333","25.0327866666667","6500100","板橋區"
"220069","AAD-861","2017/06/23 19:58:51","新北市板橋區貴興路119巷1弄1號","121.45572","25.00223","6500100","板橋區"
"220097","120-SR","2017/06/23 19:58:55","新北市板橋區漢生西路56號","121.463046666667","25.0188","6500100","板橋區"
"247020","893-R6","2017/06/23 19:59:05","新北市蘆洲區民義街59號","121.47294","25.0898966666667","6501400","蘆洲區"
"247010","546-UM","2017/06/23 19:58:46","新北市蘆洲區集賢路225號","121.482396666667","25.086255","6501400","蘆洲區"
"247017","500-BY","2017/06/23 19:58:53","新北市蘆洲區民族路229號","121.477535","25.089875","6501400","蘆洲區"
"247002","402-BY","2017/06/23 19:58:55","新北市蘆洲區光華路119巷7號","121.467313333333","25.08206","6501400","蘆洲區"
"247008","339-TH","2017/06/23 19:58:54","新北市蘆洲區中山一路197巷1號","121.474481666667","25.0809533333333","6501400","蘆洲區"
"247024","337-TH","2017/06/23 19:59:00","新北市蘆洲區光榮路120巷12號","121.465325","25.0883516666667","6501400","蘆洲區"
"247002","336-TH","2017/06/23 19:58:48","新北市蘆洲區長安街272號","121.45728","25.0869733333333","6501400","蘆洲區"
"247014","057-VK","2017/06/23 19:59:03","新北市蘆洲區中山二路101號","121.47273","25.0818516666667","6501400","蘆洲區"
"247004","056-VK","2017/06/23 19:59:01","新北市蘆洲區永康街31號","121.457475","25.08537","6501400","蘆洲區"
"247006","053-VK","2017/06/23 19:58:11","新北市蘆洲區九芎街109號","121.465693333333","25.0796833333333","6501400","蘆洲區"
"247012","007-UY","2017/06/23 19:58:59","新北市蘆洲區中興街15巷41號","121.479598333333","25.0883983333333","6501400","蘆洲區"
"247022","002-UY","2017/06/23 19:59:04","新北市蘆洲區中正路285號","121.46686","25.0879183333333","6501400","蘆洲區"
"247016","001-UY","2017/06/23 19:58:49","新北市蘆洲區光華路80號","121.467918333333","25.0826983333333","6501400","蘆洲區"
"228003","828-UM","2017/06/23 19:58:39","新北市貢寮區仁理村仁和路11號","121.923161666667","25.0518183333333","6502600","貢寮區"
"224011","420-VK","2017/06/23 19:58:56","新北市瑞芳區崙頂路1-6號","121.847075","25.1046916666667","6501200","瑞芳區"
"227003","642-TC","2017/06/23 19:58:47","新北市雙溪區雙溪里長安街16號","121.864973333333","25.0346833333333","6502500","雙溪區"
"227011","400-TW","2017/06/23 19:58:50","新北市雙溪區新基里新基南街25號","121.866238333333","25.03816","6502500","雙溪區"
"208003","665-BX","2017/06/23 19:58:52","新北市金山區永興里濆水路7-2號","121.629593333333","25.2650883333333","6502700","金山區"
"251004","009-UM","2017/06/23 19:58:51","新北市淡水區民權路177巷7號","121.460831666667","25.1356266666667","6501000","淡水區"
"251005","010-UM","2017/06/23 19:58:59","新北市淡水區學府路136巷46號","121.452205","25.1726166666667","6501000","淡水區"
"251001","011-UM","2017/06/23 19:58:57","新北市淡水區淡金路二段138號","121.446975","25.1879","6501000","淡水區"
"251013","180-VK","2017/06/23 19:59:02","新北市淡水區淡金路三段446號","121.450868333333","25.2143466666667","6501000","淡水區"
"251008","181-VK","2017/06/23 19:58:50","新北市淡水區淡海路72巷22號","121.424108333333","25.1810766666667","6501000","淡水區"
"251015","182-VK","2017/06/23 19:58:55","新北市淡水區埤島80-2號","121.449391666667","25.1895816666667","6501000","淡水區"
"251010","413-VK","2017/06/23 19:58:53","新北市淡水區崁頂107號","121.433306666667","25.2041783333333","6501000","淡水區"
"251012","441-VK","2017/06/23 19:58:51","新北市淡水區下圭柔山114-11號","121.44548","25.2098733333333","6501000","淡水區"
"251006","561-UM","2017/06/23 19:58:55","新北市淡水區北新路6號","121.444423333333","25.1773766666667","6501000","淡水區"
"251009","575-R6","2017/06/23 19:58:56","新北市淡水區英專路21巷13號","121.445016666667","25.1697083333333","6501000","淡水區"
"251011","650-BX","2017/06/23 19:58:54","新北市淡水區崁頂55-3號","121.442331666667","25.1966283333333","6501000","淡水區"
"251003","673-BX","2017/06/23 19:59:03","新北市淡水區中山北路二段189巷15弄29號","121.4434","25.18419","6501000","淡水區"
"207003","550-UM","2017/06/23 19:58:51","新北市萬里區磺潭里公館崙5號","121.641885","25.2142216666667","6502800","萬里區"
"207004","225-TW","2017/06/23 19:59:02","新北市萬里區北基里忠二街35號","121.685598333333","25.175725","6502800","萬里區"
"252002","178-VK","2017/06/23 19:59:00","新北市三芝區忠孝街112-3號","121.505541666667","25.2577033333333","6502100","三芝區"
"252001","292-VK","2017/06/23 19:58:59","新北市三芝區長安街81號","121.499728333333","25.25735","6502100","三芝區"
"208002","170-UY","2017/06/23 19:58:57","新北市金山區環金路19號","121.640635","25.217675","6502700","金山區"
"237007","153-BY","2017/06/23 19:58:58","新北市三峽區二鬮路136巷22弄3號","121.356471666667","24.910205","6500900","三峽區"
"237009","210-TH","2017/06/23 19:58:47","新北市三峽區民族街28巷2-5號","121.369051666667","24.9308416666667","6500900","三峽區"
"237012","275-BY","2017/06/23 19:58:59","新北市三峽區愛國路34巷1號","121.374583333333","24.9327916666667","6500900","三峽區"
"237008","302-VK","2017/06/23 19:58:56","新北市三峽區中正路一段174巷1弄2號","121.372213333333","24.9287483333333","6500900","三峽區"
"237006","5529-G3","2017/06/23 19:58:59","新北市三峽區中正路二段206-2號","121.365108333333","24.9145383333333","6500900","三峽區"
"237015","649-BX","2017/06/23 19:59:01","新北市三峽區介壽路二段138巷1弄166-2號","121.403225","24.9276066666667","6500900","三峽區"
"237005","AKY-6261","2017/06/23 19:59:04","新北市三峽區長泰街104號","121.37579","24.9331766666667","6500900","三峽區"
"236072","105-UM","2017/06/23 19:58:47","新北市土城區千歲路11號","121.440878333333","24.969745","6501300","土城區"
"236043","107-UM","2017/06/23 19:58:50","新北市土城區裕民路185巷7號","121.453863333333","24.9847383333333","6501300","土城區"
"236079","166-UM","2017/06/23 19:58:59","新北市土城區福安街100號","121.417448333333","24.9639933333333","6501300","土城區"
"236031","253-BX","2017/06/23 19:58:56","新北市土城區中央路一段250巷2-7號","121.443613333333","24.9849116666667","6501300","土城區"
"236027","269-VK","2017/06/23 19:58:52","新北市土城區員林街6-1號","121.442708333333","24.9779633333333","6501300","土城區"
"236015","270-VK","2017/06/23 19:58:52","新北市土城區廣福街123號","121.456245","24.992865","6501300","土城區"
"236039","271-VK","2017/06/23 19:59:02","新北市土城區國際路116號","121.467515","24.9756166666667","6501300","土城區"
"236022","401-BY","2017/06/23 19:58:54","新北市土城區延吉街167號","121.469856666667","24.9858983333333","6501300","土城區"
"236059","912-UM","2017/06/23 19:58:59","新北市土城區中央路一段141號","121.44661","24.988045","6501300","土城區"
"236050","913-UM","2017/06/23 19:58:46","新北市土城區金城路三段213號","121.470551666667","24.9894266666667","6501300","土城區"
"236063","915-UM","2017/06/23 19:58:58","新北市土城區延和路89號","121.467038333333","24.98988","6501300","土城區"
"236055","AAC-216","2017/06/23 19:58:54","新北市土城區金城路三段203號","121.470158333333","24.9893","6501300","土城區"
"242021","AAC-296","2017/06/23 19:59:02","新北市新莊區建中街16巷27號","121.449111666667","25.0387116666667","6500500","新莊區"
"242029","986-R7","2017/06/23 19:58:55","新北市新莊區中平路361號","121.44457","25.0518033333333","6500500","新莊區"
"242048","751-BX","2017/06/23 19:58:59","新北市新莊區富國路109巷2號","121.423786666667","25.0250766666667","6500500","新莊區"
"242025","615-BX","2017/06/23 19:58:51","新北市新莊區五工二路86巷26號","121.460361666667","25.0670966666667","6500500","新莊區"
"242023","613-BX","2017/06/23 19:59:03","新北市新莊區化成路366號","121.465861666667","25.049605","6500500","新莊區"
"242027","612-BX","2017/06/23 19:59:02","新北市新莊區立信三街25-2號","121.442886666667","25.050395","6500500","新莊區"
"242037","566-BX","2017/06/23 19:59:02","新北市新莊區建安街41巷5號","121.429186666667","25.02534","6500500","新莊區"
"242041","497-BY","2017/06/23 19:59:06","新北市新莊區青山路一段16號","121.41124","25.02757","6500500","新莊區"
"242005","442-UM","2017/06/23 19:59:01","新北市新莊區化成路350號","121.465811666667","25.04911","6500500","新莊區"
"242050","440-UM","2017/06/23 19:58:54","新北市新莊區西盛街157號","121.428195","25.01793","6500500","新莊區"
"242032","415-TV","2017/06/23 19:59:01","新北市新莊區公園一路61號","121.443115","25.0364","6500500","新莊區"
"242002","413-TV","2017/06/23 19:58:49","新北市新莊區中正路136號","121.45258","25.036225","6500500","新莊區"
"242039","400-BY","2017/06/23 19:58:50","新北市新莊區民安路299巷1號","121.429418333333","25.02276","6500500","新莊區"
"242060","362-BY","2017/06/23 19:59:03","新北市新莊區瓊泰路3號","121.444868333333","25.0285683333333","6500500","新莊區"
"242058","353-BY","2017/06/23 19:59:02","新北市新莊區八德街105號","121.424176666667","25.02112","6500500","新莊區"
"242011","132-UY","2017/06/23 19:58:54","新北市新莊區中港路531巷35號","121.449931666667","25.0514733333333","6500500","新莊區"
"242034","133-UY","2017/06/23 19:58:59","新北市新莊區建中街81巷5號","121.447361666667","25.0363266666667","6500500","新莊區"
"242019","135-UY","2017/06/23 19:58:56","新北市新莊區民生街15巷9號","121.455273333333","25.0425966666667","6500500","新莊區"
"242044","172-VK","2017/06/23 19:58:57","新北市新莊區新北大道七段742號","121.41219","25.0254933333333","6500500","新莊區"
"242007","173-VK","2017/06/23 19:58:47","新北市新莊區思源路585號","121.45975","25.059395","6500500","新莊區"
"242013","175-VK","2017/06/23 19:58:51","新北市新莊區幸福路672號","121.450936666667","25.0494366666667","6500500","新莊區"
"242056","176-VK","2017/06/23 19:58:52","新北市新莊區中正路347巷15號","121.447191666667","25.034385","6500500","新莊區"
"242017","348-TH","2017/06/23 19:58:55","新北市新莊區中華路二段45巷5號","121.453008333333","25.046495","6500500","新莊區"
"242015","350-TH","2017/06/23 19:59:02","新北市新莊區復興路一段47巷5號","121.446835","25.0425316666667","6500500","新莊區"
"238015","755-BX","2017/06/23 19:58:49","新北市樹林區中山路三段311號","121.391121666667","24.97172","6500700","樹林區"
"238023","601-UM","2017/06/23 19:58:56","新北市樹林區中正路439號","121.415156666667","25.0093183333333","6500700","樹林區"
"238021","311-TH","2017/06/23 19:35:01","新北市樹林區柑園街二段247巷17號","121.375615","24.9505383333333","6500700","樹林區"
"238025","303-VK","2017/06/23 19:57:47","新北市樹林區中山路三段210-2號","121.380601666667","24.96779","6500700","樹林區"
"238014","282-BY","2017/06/23 19:56:59","新北市樹林區中山路三段210-2號","121.380761666667","24.9668166666667","6500700","樹林區"
"238020","268-VK","2017/06/23 19:59:00","新北市樹林區環河路110號","121.42612","24.977365","6500700","樹林區"
"221008","489-VK","2017/06/23 19:58:56","新北市汐止區忠一街9巷7號","121.620538333333","25.0731766666667","6501100","汐止區"
"221036","130-UY","2017/06/23 19:59:03","新北市汐止區新台五路二段85巷5號","121.664415","25.0671583333333","6501100","汐止區"
"221015","131-UY","2017/06/23 19:59:04","新北市汐止區忠孝東路528號","121.666923333333","25.07635","6501100","汐止區"
"221010","269-BY","2017/06/23 19:58:54","新北市汐止區連峰街179號","121.64599","25.0792183333333","6501100","汐止區"
"221010","276-VK","2017/06/23 13:14:29","新北市汐止區汐萬路一段256巷3號","121.653461666667","25.0746033333333","6501100","汐止區"
"221031","277-VK","2017/06/23 00:10:29","新北市汐止區汐萬路一段256巷3號","121.65254","25.0745416666667","6501100","汐止區"
"221012","278-VK","2017/06/23 19:58:48","新北市汐止區大同路三段341號","121.675075","25.073605","6501100","汐止區"
"221023","279-VK","2017/06/23 19:58:54","新北市汐止區中興路250號","121.62912","25.0685383333333","6501100","汐止區"
"221032","280-BY","2017/06/23 19:59:04","新北市汐止區弘道街9巷4弄3號","121.617096666667","25.0493533333333","6501100","汐止區"
"221027","281-BY","2017/06/23 19:58:49","新北市汐止區中正路69號","121.661616666667","25.0696833333333","6501100","汐止區"
"221038","297-VK","2017/06/23 19:58:51","新北市汐止區忠孝東路322號","121.664768333333","25.0692416666667","6501100","汐止區"
"221029","298-VK","2017/06/23 19:58:55","新北市汐止區樟樹一路137巷26號","121.641016666667","25.0659266666667","6501100","汐止區"
"221021","299-VK","2017/06/23 19:58:46","新北市汐止區青山路8號","121.655786666667","25.0624933333333","6501100","汐止區"
"221035","622-UM","2017/06/23 19:59:05","新北市汐止區長江街39巷16號","121.655476666667","25.071995","6501100","汐止區"
"221025","623-UM","2017/06/23 19:59:04","新北市汐止區秀峰路98號","121.659843333333","25.06393","6501100","汐止區"
"221033","647-BX","2017/06/23 19:58:48","新北市汐止區東勢街190巷5號","121.633923333333","25.0415516666667","6501100","汐止區"
"221018","753-BX","2017/06/23 19:59:02","新北市汐止區茄苳路204號","121.670481666667","25.0690016666667","6501100","汐止區"
"220079","145-BY","2017/06/23 19:59:00","新北市板橋區南雅西路二段148號","121.451888333333","25.0131516666667","6500100","板橋區"
"220080","200-UY","2017/06/23 19:50:39","新北市板橋區大觀路二段37巷60號","121.449381666667","25.0024483333333","6500100","板橋區"
"220082","610-BX","2017/06/23 19:58:54","新北市板橋區金門街182號","121.432596666667","24.990935","6500100","板橋區"
"220101","245-BX","2017/06/23 19:59:04","新北市板橋區縣民大道三段47號","121.474261666667","25.0210516666667","6500100","板橋區"
"220072","277-BY","2017/06/23 19:58:57","新北市板橋區金門街127巷17號","121.433678333333","24.9911116666667","6500100","板橋區"
"220064","280-UM","2017/06/23 19:59:05","新北市板橋區實踐路25號","121.463596666667","25.00724","6500100","板橋區"
"220094","283-UM","2017/06/23 19:59:03","新北市板橋區文德路19號","121.46233","25.0241333333333","6500100","板橋區"
"220071","283-VK","2017/06/23 19:58:45","新北市板橋區五權街30巷14號","121.464261666667","24.99332","6500100","板橋區"
"220053","285-VK","2017/06/23 19:58:58","新北市板橋區永豐街53號","121.474045","25.01804","6500100","板橋區"
"220083","286-VK","2017/06/23 19:58:44","新北市板橋區僑中二街88巷2號","121.446506666667","25.0094316666667","6500100","板橋區"
"220081","287-VK","2017/06/23 19:59:03","新北市板橋區僑中一街124巷18弄37號","121.447583333333","25.0135833333333","6500100","板橋區"
"220090","288-VK","2017/06/23 19:58:58","新北市板橋區英士路153號","121.459488333333","25.023875","6500100","板橋區"
"220061","293-UM","2017/06/23 19:59:04","新北市板橋區觀光街1巷4號","121.471946666667","25.0155083333333","6500100","板橋區"
"220084","296-UM","2017/06/23 19:58:48","新北市板橋區滿平街2巷4號","121.425968333333","24.9901433333333","6500100","板橋區"
"220075","297-UM","2017/06/23 19:59:04","新北市板橋區金華街10巷104號","121.458786666667","25.0204933333333","6500100","板橋區"
"220092","307-R5","2017/06/23 19:58:59","新北市板橋區四維路259巷65號","121.460846666667","25.0268533333333","6500100","板橋區"
"220098","317-R6","2017/06/23 19:58:48","新北市板橋區新海路72巷58號","121.46209","25.02335","6500100","板橋區"
"220089","487-VK","2017/06/23 19:59:03","新北市板橋區龍泉街55巷34號","121.457868333333","25.0249","6500100","板橋區"
"220088","491-VK","2017/06/23 19:58:46","新北市板橋區大同街69號","121.479363333333","25.0280166666667","6500100","板橋區"
"220035","560-BX","2017/06/23 19:58:56","新北市板橋區新生街23巷2號","121.456118333333","25.0213983333333","6500100","板橋區"
"220103","561-BX","2017/06/23 19:58:48","新北市板橋區陽明街27巷2號","121.46544","25.0218866666667","6500100","板橋區"
"220063","609-BX","2017/06/23 19:59:00","新北市板橋區中山路二段147號","121.475618333333","25.0166083333333","6500100","板橋區"
"220091","637-BX","2017/06/23 19:58:51","新北市板橋區文聖街101巷13號","121.478246666667","25.0297333333333","6500100","板橋區"
"220057","686-BX","2017/06/23 19:58:57","新北市板橋區信義路68號","121.457333333333","24.99368","6500100","板橋區"
"220093","689-BX","2017/06/23 19:58:59","新北市板橋區長江路三段139號","121.47577","25.0347283333333","6500100","板橋區"
"220054","741-BX","2017/06/23 19:58:59","新北市板橋區實踐路93巷60號","121.466265","25.0049466666667","6500100","板橋區"
"220055","827-TW","2017/06/23 19:58:59","新北市板橋區仁愛路62巷17弄1號","121.460065","24.9981666666667","6500100","板橋區"
"220067","829-TW","2017/06/23 19:58:55","新北市板橋區中山路一段216巷6號","121.470983333333","25.012845","6500100","板橋區"
"220102","830-TW","2017/06/23 19:58:53","新北市板橋區文聖街61號","121.47682","25.0309866666667","6500100","板橋區"
"220096","831-TW","2017/06/23 19:59:05","新北市板橋區莒光路15巷4號","121.470098333333","25.0251016666667","6500100","板橋區"
"220074","895-R6","2017/06/23 19:58:57","新北市板橋區文化路一段36號","121.459445","25.011785","6500100","板橋區"
"220073","985-R7","2017/06/23 19:58:59","新北市板橋區南雅西路二段116號","121.452136666667","25.0123283333333","6500100","板橋區"
"220070","AAC-253","2017/06/23 19:59:01","新北市板橋區民族路87號","121.466068333333","25.0083633333333","6500100","板橋區"
