"lineid","car","time","location","longitude","latitude","cityid","cityname"
"234046","148-BY","2017/06/23 20:09:07","新北市永和區成功路一段113號","121.526875","25.0022383333333","6500400","永和區"
"234013","149-BY","2017/06/23 20:08:52","新北市永和區永貞路407號","121.507616666667","25.0091833333333","6500400","永和區"
"234007","207-UY","2017/06/23 20:08:56","新北市永和區保順路37巷12號","121.50304","25.0104216666667","6500400","永和區"
"234081","298-R6","2017/06/23 20:09:00","新北市永和區國中路101號","121.52421","25.0062533333333","6500400","永和區"
"234038","336-UY","2017/06/23 20:08:50","新北市永和區成功路一段47巷8號","121.52757","25.0039816666667","6500400","永和區"
"234064","337-UY","2017/06/23 20:08:47","新北市永和區永元路16號","121.522016666667","25.0003566666667","6500400","永和區"
"234086","338-UY","2017/06/23 20:08:51","新北市永和區福和路95號","121.522038333333","25.00785","6500400","永和區"
"234070","552-UM","2017/06/23 20:08:56","新北市永和區永安街14號","121.5191","25.0061466666667","6500400","永和區"
"234054","553-UM","2017/06/23 20:08:57","新北市永和區博愛街18巷2號","121.517356666667","25.0158116666667","6500400","永和區"
"234017","745-BX","2017/06/23 20:08:47","新北市永和區文化路121巷1號","121.512498333333","25.015235","6500400","永和區"
"234030","746-BX","2017/06/23 20:09:02","新北市中和區自強路20號","121.520243333333","24.9954466666667","6500400","永和區"
"234061","AAD-866","2017/06/23 20:08:54","新北市永和區中正路151巷4號","121.516111666667","24.9985133333333","6500400","永和區"
"234042","862-TW","2017/06/23 20:08:52","新北市永和區雙和街43號","121.50891","25.0028466666667","6500400","永和區"
"234050","863-TW","2017/06/23 20:08:56","新北市永和區環河西路二段107號","121.50635","25.0146233333333","6500400","永和區"
"234011","9373-KE","2017/06/23 20:09:01","新北市永和區保生路55號","121.504538333333","25.0108533333333","6500400","永和區"
"249005","172-UM","2017/06/23 20:08:58","新北市八里區福德新村30號","121.386265","25.1364033333333","6502300","八里區"
"249001","173-UM","2017/06/23 20:08:57","新北市八里區中華路二段310號","121.403885","25.1484483333333","6502300","八里區"
"249004","303-UY","2017/06/23 20:08:57","新北市八里區中山路一段398巷51弄1號","121.411026666667","25.158935","6502300","八里區"
"249002","305-UY","2017/06/23 20:08:55","新北市八里區龍米路一段3-6號","121.457071666667","25.1176683333333","6502300","八里區"
"249003","593-UM","2017/06/23 20:09:02","新北市八里區中山路二段540巷9弄2號","121.396921666667","25.147095","6502300","八里區"
"248016","026-BX","2017/06/23 20:08:53","新北市五股區天乙路60號","121.448155","25.104645","6501500","五股區"
"248008","095-VK","2017/06/23 20:08:53","新北市五股區中興路一段1巷12弄15號","121.469355","25.0708766666667","6501500","五股區"
"248018","225-UY","2017/06/23 20:08:50","新北市五股區登林路85號","121.426321666667","25.0704166666667","6501500","五股區"
"248012","247-BX","2017/06/23 20:08:58","新北市五股區民義路一段208號","121.430506666667","25.08919","6501500","五股區"
"248014","261-SL","2017/06/23 20:08:58","新北市五股區成泰路三段6號","121.441293333333","25.087675","6501500","五股區"
"248004","677-BX","2017/06/23 20:09:01","新北市五股區成泰路一段110-3號","121.435666666667","25.07222","6501500","五股區"
"248010","682-TV","2017/06/23 20:08:53","新北市五股區成泰路一段7巷32號","121.432875","25.066925","6501500","五股區"
"234023","9380-KE","2017/06/23 20:08:47","新北市永和區復興街16巷10號","121.515728333333","25.0124283333333","6500400","永和區"
"234077","969-R7","2017/06/23 20:08:53","新北市永和區民享街23巷5弄8號","121.51612","24.9956916666667","6500400","永和區"
"234074","AAC-211","2017/06/23 20:08:47","新北市永和區竹林路201巷24弄1號","121.522265","25.0097133333333","6500400","永和區"
"234067","AAC-212","2017/06/23 20:08:55","新北市永和區永貞路313號","121.5101","25.0065583333333","6500400","永和區"
"234003","AAC-295","2017/06/23 20:07:12","新北市永和區中正路646號","121.516916666667","25.0083866666667","6500400","永和區"
"243013","AAD-798","2017/06/23 20:08:45","新北市泰山區明志路三段74巷23號","121.423903333333","25.0416516666667","6501600","泰山區"
"243009","297-R6","2017/06/23 20:09:04","新北市泰山區泰林路二段142巷7弄1號","121.434688333333","25.0602333333333","6501600","泰山區"
"243015","380-SR","2017/06/23 20:08:56","新北市泰山區明志路一段347號","121.43111","25.0585583333333","6501600","泰山區"
"243014","421-VK","2017/06/23 20:09:02","新北市泰山區明志路一段98號","121.43345","25.06398","6501600","泰山區"
"243010","548-UM","2017/06/23 20:08:49","新北市泰山區明志路二段136巷11號","121.426558333333","25.0514983333333","6501600","泰山區"
"243011","549-UM","2017/06/23 20:09:01","新北市新莊區壽山路33-18號","121.41909","25.0297316666667","6501600","泰山區"
"243012","646-TV","2017/06/23 20:09:02","新北市泰山區楓江路46巷17號","121.435648333333","25.0614616666667","6501600","泰山區"
"243016","680-BX","2017/06/23 20:08:59","新北市泰山區明志路三段146號","121.424586666667","25.0397533333333","6501600","泰山區"
"222005","289-BY","2017/06/23 10:33:31","新北市深坑區深坑街81號","121.614611666667","25.00148","6501800","深坑區"
"222003","436-BY","2017/06/23 20:08:54","新北市深坑區埔新街64號","121.62008","25.0024166666667","6501800","深坑區"
"222002","659-BX","2017/06/23 20:08:53","新北市深坑區北深路三段153號","121.602628333333","25.0031933333333","6501800","深坑區"
"222001","696-SL","2017/06/23 20:08:49","新北市深坑區北深路三段197號","121.601023333333","25.003735","6501800","深坑區"
"231041","001-UM","2017/06/23 20:08:50","新北市新店區中正路460號","121.534006666667","24.979385","6500600","新店區"
"231056","0291-UT","2017/06/23 20:08:51","新北市新店區北新路二段53號","121.54289","24.9731","6500600","新店區"
"231059","046-UY","2017/06/23 20:08:49","新北市新店區安德街60巷35號","121.511206666667","24.9635133333333","6500600","新店區"
"231061","047-UY","2017/06/23 20:09:02","新北市新店區安興路32號","121.515796666667","24.9703666666667","6500600","新店區"
"231060","106-UY","2017/06/23 20:08:47","新北市新店區安康路三段172號","121.489443333333","24.951805","6500600","新店區"
"231051","107-UY","2017/06/23 20:08:54","新北市新店區中央六街6號","121.530245","24.974415","6500600","新店區"
"231048","108-UY","2017/06/23 20:08:51","新北市新店區寶橋路59-1號","121.545261666667","24.97484","6500600","新店區"
"231053","187-VK","2017/06/23 20:08:59","新北市新店區新烏路三段268巷21號","121.550053333333","24.8993216666667","6500600","新店區"
"231057","256-BX","2017/06/23 20:08:45","新北市新店區花園一路一段2號","121.553151666667","24.93242","6500600","新店區"
"231063","268-BY","2017/06/23 20:09:00","新北市新店區黎明路56巷2號","121.502378333333","24.9478233333333","6500600","新店區"
"231050","AAD-862","2017/06/23 20:08:54","新北市新店區中生路66號","121.564691666667","24.9524","6500600","新店區"
"231055","3713-VJ","2017/06/23 20:09:05","新北市新店區中華路42巷36號","121.54124","24.969185","6500600","新店區"
"231067","4772-VM","2017/06/23 20:08:57","新北市新店區安康路一段35-5號","121.531793333333","24.9604533333333","6500600","新店區"
"231065","512-UM","2017/06/23 20:08:50","新北市新店區安祥路106巷238號","121.473498333333","24.9595733333333","6500600","新店區"
"231054","513-UM","2017/06/23 20:08:54","新北市新店區檳榔路6號","121.540985","24.9647916666667","6500600","新店區"
"231064","515-UM","2017/06/23 20:08:58","新北市新店區安光路10-1號","121.513721666667","24.9643016666667","6500600","新店區"
"231042","616-UM","2017/06/23 20:09:03","新北市新店區中興路二段100巷2號","121.547456666667","24.9713416666667","6500600","新店區"
"231045","617-UM","2017/06/23 20:09:06","新北市新店區北宜路一段143號","121.541158333333","24.9529716666667","6500600","新店區"
"231040","619-UM","2017/06/23 20:08:54","新北市新店區中正路106號","121.54316","24.9706283333333","6500600","新店區"
"231068","718-UY","2017/06/23 20:08:59","新北市新店區北新路一段91號","121.538708333333","24.9617233333333","6500600","新店區"
"231049","719-UM","2017/06/23 20:08:53","新北市新店區北新路二段171巷9號","121.54217","24.9763483333333","6500600","新店區"
"231062","720-UM","2017/06/23 20:08:53","新北市新店區安華路16號","121.516893333333","24.9579916666667","6500600","新店區"
"231044","897-TW","2017/06/23 20:08:48","新北市新店區寶元路一段15巷11號","121.542021666667","24.9870433333333","6500600","新店區"
"231043","899-TW","2017/06/23 20:08:50","新北市新店區中正路319號","121.536311666667","24.9751033333333","6500600","新店區"
"241011","013-R5","2017/06/23 20:08:59","新北市三重區仁愛街32號","121.496355","25.0717533333333","6500200","三重區"
"241028","022-UY","2017/06/23 20:09:02","新北市三重區中正南路186號","121.494101666667","25.0562116666667","6500200","三重區"
"241008","059-VK","2017/06/23 20:09:04","新北市三重區永福街197巷37弄8號","121.47806","25.074145","6500200","三重區"
"241009","060-VK","2017/06/23 20:08:49","新北市三重區三和路四段382巷100號","121.478728333333","25.0779333333333","6500200","三重區"
"241031","061-VK","2017/06/23 20:08:45","新北市三重區過圳街9-1號","121.488783333333","25.06005","6500200","三重區"
"241017","063-VK","2017/06/23 20:09:02","新北市三重區大同北路223號","121.491401666667","25.066245","6500200","三重區"
"241024","065-VK","2017/06/23 20:09:03","新北市三重區中正北路294號","121.480133333333","25.0688066666667","6500200","三重區"
"241026","066-VK","2017/06/23 20:08:49","新北市三重區福德南路65巷2號","121.502316666667","25.0603783333333","6500200","三重區"
"241002","090-VK","2017/06/23 20:09:01","新北市三重區五華街35巷54號","121.495603333333","25.0818066666667","6500200","三重區"
"241003","091-VK","2017/06/23 20:09:02","新北市三重區富華街10號","121.489463333333","25.0823433333333","6500200","三重區"
"241015","156-TC","2017/06/23 20:08:57","新北市三重區福德北路47號","121.502236666667","25.06505","6500200","三重區"
"241005","262-UM","2017/06/23 20:08:47","新北市三重區溪尾街327號","121.48837","25.08487","6500200","三重區"
"241029","265-UM","2017/06/23 20:08:53","新北市三重區光明路32巷22號","121.491843333333","25.05878","6500200","三重區"
"241016","266-UM","2017/06/23 20:08:49","新北市三重區大同北路63號","121.495105","25.0634666666667","6500200","三重區"
"241022","267-UM","2017/06/23 20:08:45","新北市三重區新北大道一段11號","121.48859","25.0605683333333","6500200","三重區"
"241018","268-UM","2017/06/23 20:08:49","新北市三重區雙園街100號","121.495071666667","25.0674133333333","6500200","三重區"
"241032","269-UM","2017/06/23 20:08:51","新北市三重區捷運路65號","121.483413333333","25.0556633333333","6500200","三重區"
"241013","270-UM","2017/06/23 20:08:53","新北市三重區三和路三段139巷9號","121.493018333333","25.07376","6500200","三重區"
"241025","271-UM","2017/06/23 20:08:58","新北市三重區中正北路237號","121.475673333333","25.0705716666667","6500200","三重區"
"241007","398-BY","2017/06/23 20:08:55","新北市三重區三和路四段111-13號","121.486828333333","25.0776533333333","6500200","三重區"
"241020","413-TH","2017/06/23 20:09:02","新北市三重區三和路三段188號","121.491888333333","25.0735916666667","6500200","三重區"
"241035","462-BY","2017/06/23 20:09:03","新北市三重區平安街20號","121.498501666667","25.0642833333333","6500200","三重區"
"241004","475-VK","2017/06/23 20:08:54","新北市三重區自強路四段78號","121.490525","25.0788133333333","6500200","三重區"
"241019","478-VK","2017/06/23 20:08:54","新北市三重區自強路二段33巷33號","121.490471666667","25.0697583333333","6500200","三重區"
"241030","480-VK","2017/06/23 20:08:48","新北市三重區成功路145巷35號","121.487726666667","25.053235","6500200","三重區"
"241014","543-UM","2017/06/23 20:08:58","新北市三重區安和路59號","121.5015","25.0697066666667","6500200","三重區"
"241023","545-UM","2017/06/23 20:08:55","新北市三重區頂崁街218號","121.477015","25.0680616666667","6500200","三重區"
"241001","547-UM","2017/06/23 20:08:51","新北市三重區三和路四段89巷18號","121.489835","25.07599","6500200","三重區"
"241006","AAD-863","2017/06/23 20:08:57","新北市三重區車路頭街135-1號","121.484306666667","25.0761583333333","6500200","三重區"
"241012","941-UM","2017/06/23 20:08:54","新北市三重區仁福街64巷33號","121.497556666667","25.0757266666667","6500200","三重區"
"241033","AAC-255","2017/06/23 20:09:02","新北市三重區光復路一段70號","121.472036666667","25.0492766666667","6500200","三重區"
"235066","003-UY","2017/06/23 20:08:50","新北市中和區水源路127巷2弄2號","121.508108333333","25.004065","6500300","中和區"
"235039","097-UM","2017/06/23 20:09:02","新北市中和區景平路278巷14弄1號","121.514011666667","24.9930333333333","6500300","中和區"
"235040","150-BY","2017/06/23 20:08:53","新北市中和區安平路38號","121.509965","24.994965","6500300","中和區"
"235058","151-BY","2017/06/23 20:08:48","新北市中和區員山路119號","121.480966666667","24.9954","6500300","中和區"
"235055","183-VK","2017/06/23 20:09:00","新北市中和區民生街12巷2號","121.470671666667","25.005575","6500300","中和區"
"235038","185-VK","2017/06/23 20:08:47","新北市中和區自立路15巷1號","121.522488333333","24.996275","6500300","中和區"
"235067","255-BX","2017/06/23 20:08:47","新北市中和區新生街220巷35號","121.482238333333","24.998285","6500300","中和區"
"235044","293-VK","2017/06/23 20:08:47","新北市中和區南山路146巷15號","121.503298333333","24.9924366666667","6500300","中和區"
"235051","376-QA","2017/06/23 20:09:04","新北市中和區景安路198號","121.504246666667","24.9914266666667","6500300","中和區"
"235068","377-QA","2017/06/23 20:08:51","新北市中和區福祥路85巷2弄10號","121.498676666667","25.006135","6500300","中和區"
"235061","378-QA","2017/06/23 20:08:47","新北市中和區民安街2巷19號","121.48027","25.0014316666667","6500300","中和區"
"235050","4979-A6","2017/06/23 20:09:04","新北市中和區景新街282號","121.510983333333","24.9923383333333","6500300","中和區"
"235069","4980-A6","2017/06/23 20:08:54","新北市中和區南山路127巷18弄1號","121.503465","24.9974133333333","6500300","中和區"
"235070","558-UM","2017/06/23 20:08:46","新北市中和區圓通路98號","121.499695","24.9968533333333","6500300","中和區"
"235054","640-BX","2017/06/23 20:08:49","新北市中和區莒光路11號","121.471985","25.005785","6500300","中和區"
"235046","733-UM","2017/06/23 20:08:46","新北市中和區忠孝街31巷16號","121.510158333333","24.9840466666667","6500300","中和區"
"235041","802-TS","2017/06/23 20:08:52","新北市中和區中安街48號","121.512993333333","25.0024166666667","6500300","中和區"
"235052","805-TS","2017/06/23 20:08:47","新北市中和區華新街47號","121.507823333333","24.98459","6500300","中和區"
"235048","896-TW","2017/06/23 20:08:59","新北市新店區安和路三段175號","121.51581","24.9862683333333","6500300","中和區"
"235053","900-TW","2017/06/23 20:09:03","新北市土城區金城路三段251號","121.471613333333","24.9901283333333","6500300","中和區"
"235037","AAC-213","2017/06/23 20:08:52","新北市中和區秀朗路三段50巷4弄4號","121.525668333333","24.99579","6500300","中和區"
"235059","AAC-215","2017/06/23 20:08:57","新北市中和區圓通路335巷33弄35號","121.493765","24.9888166666667","6500300","中和區"
"220065","072-UY","2017/06/23 20:08:58","新北市板橋區縣民大道一段72號","121.45539","25.0041716666667","6500100","板橋區"
"220106","075-UY","2017/06/23 20:08:48","新北市板橋區文聖街5號","121.47559","25.032455","6500100","板橋區"
"220069","AAD-861","2017/06/23 20:09:04","新北市板橋區大明街57號","121.45753","25.0029483333333","6500100","板橋區"
"220097","120-SR","2017/06/23 20:08:55","新北市板橋區光正街18巷15號","121.46273","25.017845","6500100","板橋區"
"247020","893-R6","2017/06/23 20:09:05","新北市蘆洲區民義街68巷18號","121.473823333333","25.0893783333333","6501400","蘆洲區"
"247010","546-UM","2017/06/23 20:08:46","新北市蘆洲區信義路132-1號","121.479553333333","25.0828416666667","6501400","蘆洲區"
"247017","500-BY","2017/06/23 20:08:54","新北市蘆洲區民族路352號","121.476298333333","25.09072","6501400","蘆洲區"
"247002","402-BY","2017/06/23 20:08:55","新北市蘆洲區光華路170號","121.46532","25.0821533333333","6501400","蘆洲區"
"247008","339-TH","2017/06/23 20:08:54","新北市蘆洲區集賢路237號","121.481718333333","25.0851933333333","6501400","蘆洲區"
"247024","337-TH","2017/06/23 20:09:00","新北市蘆洲區光明路134號","121.463995","25.0884133333333","6501400","蘆洲區"
"247002","336-TH","2017/06/23 20:08:48","新北市蘆洲區長安街240號","121.457656666667","25.0858016666667","6501400","蘆洲區"
"247014","057-VK","2017/06/23 20:09:03","新北市蘆洲區中山二路235號","121.470123333333","25.0800966666667","6501400","蘆洲區"
"247004","056-VK","2017/06/23 20:09:01","新北市蘆洲區永安南路二段328巷17弄1號","121.456653333333","25.0839816666667","6501400","蘆洲區"
"247006","053-VK","2017/06/23 20:08:44","新北市蘆洲區永安南路二段14號","121.467615","25.07672","6501400","蘆洲區"
"247012","007-UY","2017/06/23 20:08:59","新北市蘆洲區中興街15巷40號","121.479868333333","25.0883316666667","6501400","蘆洲區"
"247022","002-UY","2017/06/23 20:09:04","新北市蘆洲區三民路171巷18號","121.470381666667","25.0869583333333","6501400","蘆洲區"
"247016","001-UY","2017/06/23 20:08:49","新北市蘆洲區光華路150巷10弄2號","121.465656666667","25.0827116666667","6501400","蘆洲區"
"224010","AGQ-8101","2017/06/23 20:08:55","新北市瑞芳區輕便路206號","121.845088333333","25.110305","6501200","瑞芳區"
"224011","420-VK","2017/06/23 20:08:56","新北市瑞芳區崙頂路1-6號","121.847041666667","25.1047066666667","6501200","瑞芳區"
"208003","665-BX","2017/06/23 20:08:58","新北市金山區海興路87號","121.63314","25.2407283333333","6502700","金山區"
"251004","009-UM","2017/06/23 20:04:06","新北市淡水區民族路29巷66號","121.462115","25.1368233333333","6501000","淡水區"
"251001","011-UM","2017/06/23 20:08:57","新北市淡水區新市二路四段265號","121.445723333333","25.1924933333333","6501000","淡水區"
"251002","012-UM","2017/06/23 20:08:45","新北市淡水區中正路334號","121.435781666667","25.173185","6501000","淡水區"
"251013","180-VK","2017/06/23 20:09:02","新北市淡水區奎柔山路492號","121.465013333333","25.20494","6501000","淡水區"
"251008","181-VK","2017/06/23 20:08:50","新北市淡水區沙崙路131巷5號","121.422635","25.1828533333333","6501000","淡水區"
"251015","182-VK","2017/06/23 20:08:55","新北市淡水區埤島3-23號","121.447761666667","25.189635","6501000","淡水區"
"251010","413-VK","2017/06/23 20:08:53","新北市淡水區崁頂五路301號","121.423876666667","25.1970833333333","6501000","淡水區"
"251012","441-VK","2017/06/23 20:08:51","新北市淡水區下圭柔山71-3號","121.447008333333","25.2060883333333","6501000","淡水區"
"251006","561-UM","2017/06/23 20:08:55","新北市淡水區北新路141巷60弄11號","121.448081666667","25.1796716666667","6501000","淡水區"
"251009","575-R6","2017/06/23 20:08:56","新北市淡水區清水街1號","121.44516","25.1703583333333","6501000","淡水區"
"251003","673-BX","2017/06/23 20:09:03","新北市淡水區中山北路一段307號","121.44413","25.1828983333333","6501000","淡水區"
"207003","550-UM","2017/06/23 20:08:51","新北市萬里區大鵬里萬里加投186號","121.642806666667","25.21563","6502800","萬里區"
"207004","225-TW","2017/06/23 20:09:02","新北市萬里區北基里愛三街13號","121.68183","25.1767","6502800","萬里區"
"252002","178-VK","2017/06/23 20:09:00","新北市三芝區忠孝街116-3號","121.505533333333","25.2575583333333","6502100","三芝區"
"252001","292-VK","2017/06/23 20:08:59","新北市三芝區長安街89號","121.499638333333","25.2574266666667","6502100","三芝區"
"237007","153-BY","2017/06/23 20:08:58","新北市三峽區麻園10號","121.362103333333","24.91735","6500900","三峽區"
"237012","275-BY","2017/06/23 20:08:59","新北市三峽區中華路48巷18號","121.371063333333","24.9298166666667","6500900","三峽區"
"237006","5529-G3","2017/06/23 20:08:59","新北市三峽區嘉添227-32號","121.370651666667","24.9115783333333","6500900","三峽區"
"237005","AKY-6261","2017/06/23 20:09:04","新北市三峽區民生街1巷27-1號","121.379618333333","24.9341383333333","6500900","三峽區"
"236072","105-UM","2017/06/23 20:08:47","新北市土城區中央路三段96-1號","121.43559","24.96641","6501300","土城區"
"236043","107-UM","2017/06/23 20:08:50","新北市土城區學府路一段121號","121.455198333333","24.9872433333333","6501300","土城區"
"236079","166-UM","2017/06/23 20:08:59","新北市土城區中山路41號","121.4201","24.9627","6501300","土城區"
"236031","253-BX","2017/06/23 20:08:56","新北市土城區中央路一段120號","121.446315","24.9880933333333","6501300","土城區"
"236027","269-VK","2017/06/23 20:09:04","新北市土城區明德路二段108號","121.445115","24.9841","6501300","土城區"
"236015","270-VK","2017/06/23 20:08:52","新北市土城區廣興街39號","121.45503","24.9916233333333","6501300","土城區"
"236039","271-VK","2017/06/23 20:08:56","新北市土城區延吉街296巷3號","121.464408333333","24.9846016666667","6501300","土城區"
"236022","401-BY","2017/06/23 20:08:54","新北市土城區延吉街52號","121.471661666667","24.9869366666667","6501300","土城區"
"236059","912-UM","2017/06/23 20:08:59","新北市土城區中央路一段355號","121.443171666667","24.981175","6501300","土城區"
"236050","913-UM","2017/06/23 20:08:06","新北市土城區金城路三段73巷9弄11號","121.465876666667","24.9872316666667","6501300","土城區"
"236063","915-UM","2017/06/23 20:08:58","新北市土城區延和路18巷9號","121.46478","24.9878383333333","6501300","土城區"
"236055","AAC-216","2017/06/23 20:08:54","新北市土城區學府路一段146號","121.454926666667","24.9871066666667","6501300","土城區"
"242021","AAC-296","2017/06/23 20:09:02","新北市新莊區建中街32巷23號","121.44845","25.0385533333333","6500500","新莊區"
"242029","986-R7","2017/06/23 20:08:55","新北市新莊區中平路378號","121.444685","25.0534616666667","6500500","新莊區"
"242048","751-BX","2017/06/23 20:08:49","新北市新莊區四維路182巷8號","121.4218","25.02183","6500500","新莊區"
"242025","615-BX","2017/06/23 20:08:51","新北市新莊區五工三路78巷12號","121.459416666667","25.0654133333333","6500500","新莊區"
"242023","613-BX","2017/06/23 20:09:00","新北市新莊區化成路540-2號","121.466238333333","25.0533666666667","6500500","新莊區"
"242027","612-BX","2017/06/23 20:08:51","新北市新莊區立信五街6號","121.44449","25.0515433333333","6500500","新莊區"
"242037","566-BX","2017/06/23 20:08:54","新北市新莊區建安街9巷6號","121.429075","25.026565","6500500","新莊區"
"242041","497-BY","2017/06/23 20:09:04","新北市新莊區壽山路61-5號","121.411055","25.032555","6500500","新莊區"
"242005","442-UM","2017/06/23 20:09:01","新北市新莊區化成路231號","121.465876666667","25.0525016666667","6500500","新莊區"
"242046","441-UM","2017/06/23 20:08:47","新北市新莊區裕民街85巷9號","121.419118333333","25.0234616666667","6500500","新莊區"
"242050","440-UM","2017/06/23 20:08:54","新北市新莊區民安西路194號","121.425911666667","25.01541","6500500","新莊區"
"242032","415-TV","2017/06/23 20:08:49","新北市新莊區中正路437號","121.44331","25.0341466666667","6500500","新莊區"
"242002","413-TV","2017/06/23 20:08:48","新北市新莊區中正路48-2號","121.463946666667","25.0410133333333","6500500","新莊區"
"242039","400-BY","2017/06/23 20:08:50","新北市新莊區民安西路110號","121.4269","25.0188916666667","6500500","新莊區"
"242060","362-BY","2017/06/23 20:09:03","新北市新莊區瓊林路59-76號","121.44404","25.0271766666667","6500500","新莊區"
"242058","353-BY","2017/06/23 20:09:06","新北市新莊區龍安路335號","121.422526666667","25.0191833333333","6500500","新莊區"
"242011","132-UY","2017/06/23 20:09:01","新北市新莊區中信街65號","121.449043333333","25.0508616666667","6500500","新莊區"
"242034","133-UY","2017/06/23 20:08:53","新北市新莊區華興街16號","121.446055","25.03542","6500500","新莊區"
"242019","135-UY","2017/06/23 20:08:56","新北市新莊區民樂街58號","121.457988333333","25.04181","6500500","新莊區"
"242044","172-VK","2017/06/23 20:08:57","新北市新莊區萬壽路一段21巷17弄1號","121.410913333333","25.0204666666667","6500500","新莊區"
"242007","173-VK","2017/06/23 20:08:47","新北市新莊區思源路421號","121.459381666667","25.052515","6500500","新莊區"
"242013","175-VK","2017/06/23 20:08:51","新北市新莊區幸福路678巷3弄1號","121.450285","25.0497683333333","6500500","新莊區"
"242056","176-VK","2017/06/23 20:09:06","新北市新莊區新莊路649巷15弄13號","121.445543333333","25.0316416666667","6500500","新莊區"
"242017","348-TH","2017/06/23 20:08:55","新北市新莊區中港路371號","121.451816666667","25.0463916666667","6500500","新莊區"
"242054","349-TH","2017/06/23 20:08:53","新北市新莊區西盛街385號","121.427975","25.0130283333333","6500500","新莊區"
"242015","350-TH","2017/06/23 20:08:57","新北市新莊區中平路26巷29號","121.446293333333","25.0433383333333","6500500","新莊區"
"238023","601-UM","2017/06/23 20:08:56","新北市樹林區大安路616號","121.411375","24.9829616666667","6500700","樹林區"
"238021","311-TH","2017/06/23 19:35:01","新北市樹林區柑園街二段247巷17號","121.375615","24.9505383333333","6500700","樹林區"
"221008","489-VK","2017/06/23 20:08:56","台北市內湖區康樂街88號","121.619026666667","25.0704566666667","6501100","汐止區"
"221036","130-UY","2017/06/23 20:09:03","新北市汐止區新台五路二段33號","121.662951666667","25.0662416666667","6501100","汐止區"
"221015","131-UY","2017/06/23 20:09:04","新北市汐止區建成路21號","121.66429","25.072625","6501100","汐止區"
"221010","269-BY","2017/06/23 20:08:54","新北市汐止區八連路一段111-1號","121.644236666667","25.080075","6501100","汐止區"
"221010","276-VK","2017/06/23 13:14:29","新北市汐止區汐萬路一段256巷3號","121.653461666667","25.0746033333333","6501100","汐止區"
"221031","277-VK","2017/06/23 00:10:29","新北市汐止區汐萬路一段256巷3號","121.65254","25.0745416666667","6501100","汐止區"
"221012","278-VK","2017/06/23 20:08:48","新北市汐止區汐平路二段44號","121.695053333333","25.0650816666667","6501100","汐止區"
"221023","279-VK","2017/06/23 20:08:34","新北市汐止區明峰街298巷5弄3號","121.624925","25.0684116666667","6501100","汐止區"
"221032","280-BY","2017/06/23 20:08:56","新北市汐止區弘道街47號","121.618226666667","25.0485533333333","6501100","汐止區"
"221027","281-BY","2017/06/23 20:08:57","新北市汐止區中正路127號","121.660245","25.06935","6501100","汐止區"
"221038","297-VK","2017/06/23 20:09:04","新北市汐止區忠孝東路479號","121.666126666667","25.0732916666667","6501100","汐止區"
"221029","298-VK","2017/06/23 20:08:55","新北市汐止區樟樹一路119巷10弄1號","121.641246666667","25.064505","6501100","汐止區"
"221021","299-VK","2017/06/23 20:07:06","新北市汐止區水源路一段192號","121.654683333333","25.061735","6501100","汐止區"
"221035","622-UM","2017/06/23 20:08:52","新北市汐止區長江街67巷2弄1號","121.656755","25.0722683333333","6501100","汐止區"
"221025","623-UM","2017/06/23 20:09:04","新北市汐止區水源路二段32號","121.654878333333","25.0573333333333","6501100","汐止區"
"221033","647-BX","2017/06/23 20:08:48","新北市汐止區東勢街201巷104號","121.633586666667","25.04302","6501100","汐止區"
"221002","707-TV","2017/06/23 20:08:51","新北市汐止區大同路一段219巷27號","121.633273333333","25.0582833333333","6501100","汐止區"
"221018","753-BX","2017/06/23 20:09:04","新北市汐止區茄苳路318號","121.673503333333","25.0665233333333","6501100","汐止區"
"220080","200-UY","2017/06/23 19:50:39","新北市板橋區大觀路二段37巷60號","121.449381666667","25.0024483333333","6500100","板橋區"
"220101","245-BX","2017/06/23 20:09:04","新北市板橋區莒光路171巷1弄16號","121.474465","25.024585","6500100","板橋區"
"220072","277-BY","2017/06/23 20:08:57","新北市板橋區金門街121巷60號","121.434275","24.9913266666667","6500100","板橋區"
"220064","280-UM","2017/06/23 20:08:59","新北市板橋區長安街331巷87-3號","121.472121666667","25.0127466666667","6500100","板橋區"
"220071","283-VK","2017/06/23 20:08:45","新北市板橋區和平路190巷18號","121.464708333333","24.9948916666667","6500100","板橋區"
"220083","286-VK","2017/06/23 20:09:07","新北市板橋區僑中二街48巷24號","121.445401666667","25.010645","6500100","板橋區"
"220081","287-VK","2017/06/23 20:09:03","新北市板橋區僑中一街80巷6弄2號","121.447615","25.01189","6500100","板橋區"
"220090","288-VK","2017/06/23 20:08:58","新北市板橋區新海路107號","121.461226666667","25.022675","6500100","板橋區"
"220061","293-UM","2017/06/23 20:08:59","新北市板橋區縣民大道二段200巷6號","121.469676666667","25.0171183333333","6500100","板橋區"
"220084","296-UM","2017/06/23 20:08:47","新北市樹林區博愛街181號","121.424868333333","24.9890516666667","6500100","板橋區"
"220062","305-R5","2017/06/23 20:09:05","新北市板橋區中山路二段490號","121.485535","25.0217683333333","6500100","板橋區"
"220092","307-R5","2017/06/23 20:08:59","新北市板橋區光正街45巷35號","121.46185","25.0157416666667","6500100","板橋區"
"220098","317-R6","2017/06/23 20:08:48","新北市板橋區新海路72巷71號","121.461415","25.023425","6500100","板橋區"
"220089","487-VK","2017/06/23 20:08:58","新北市板橋區互助街81號","121.45993","25.0259233333333","6500100","板橋區"
"220088","491-VK","2017/06/23 20:08:06","新北市板橋區仁化街184號","121.478538333333","25.034025","6500100","板橋區"
"220103","561-BX","2017/06/23 20:08:48","新北市板橋區自由路26巷2號","121.465828333333","25.022665","6500100","板橋區"
"220091","637-BX","2017/06/23 20:09:02","新北市板橋區萬板路506號","121.48028","25.0261166666667","6500100","板橋區"
"220057","686-BX","2017/06/23 20:08:57","新北市板橋區四川路二段134號","121.450301666667","24.9934816666667","6500100","板橋區"
"220093","689-BX","2017/06/23 20:08:59","新北市板橋區長江路二段205號","121.467653333333","25.0323483333333","6500100","板橋區"
"220054","741-BX","2017/06/23 20:08:59","新北市板橋區實踐路93巷21號","121.46505","25.0052933333333","6500100","板橋區"
"220055","827-TW","2017/06/23 20:08:59","新北市板橋區仁愛路86巷3號","121.460995","24.99948","6500100","板橋區"
"220067","829-TW","2017/06/23 20:08:55","新北市土城區日新街47-3號","121.44215","24.9897566666667","6500100","板橋區"
"220102","830-TW","2017/06/23 20:08:53","新北市板橋區民治街144巷1號","121.477206666667","25.0308116666667","6500100","板橋區"
"220096","831-TW","2017/06/23 20:09:05","新北市板橋區莒光路79巷2-1號","121.471893333333","25.0244066666667","6500100","板橋區"
"220074","895-R6","2017/06/23 20:08:57","新北市板橋區明德街1-4號","121.459905","25.010495","6500100","板橋區"
"220070","AAC-253","2017/06/23 20:09:01","新北市板橋區四川路一段127號","121.460058333333","25.0047266666667","6500100","板橋區"
