"lineid","car","time","location","longitude","latitude","cityid","cityname"
"248005","653-BX","2017/06/24 07:10:16","新北市五股區明德路12巷1號","121.433293333333","25.0716766666667","6501500","五股區"
"232009","290-BY","2017/06/24 07:20:02","新北市坪林區魚堀44-6號","121.70158","24.93319","6502000","坪林區"
"232004","291-BY","2017/06/24 07:19:54","新北市坪林區下坑子口6-15號","121.711288333333","24.943395","6502000","坪林區"
"232010","375-UM","2017/06/24 07:19:52","新北市坪林區水聳淒坑10號","121.724311666667","24.92803","6502000","坪林區"
"232016","705-BZ","2017/06/24 07:19:49","新北市坪林區金瓜寮23-5號","121.679401666667","24.9109833333333","6502000","坪林區"
"244005","248-BX","2017/06/24 07:20:00","新北市林口區南勢里59-16號","121.360133333333","25.079235","6501700","林口區"
"243002","548-UM","2017/06/24 07:07:48","新北市泰山區泰林路二段21-3號","121.436905","25.0552633333333","6501600","泰山區"
"220034","015-TV","2017/06/24 07:15:19","新北市板橋區國光路49巷2號","121.458183333333","25.018085","6500100","板橋區"
"247002","402-BY","2017/06/24 07:19:53","新北市蘆洲區光明路10號","121.460866666667","25.086675","6501400","蘆洲區"
"226005","5620-A6","2017/06/24 07:19:53","新北市平溪區靜安路二段125號","121.721645","25.023065","6502400","平溪區"
"226002","7418-A5","2017/06/24 07:19:57","新北市平溪區靜安路三段52巷12號","121.76365","25.03364","6502400","平溪區"
"226003","AGD-0702","2017/06/24 07:19:50","新北市平溪區白石里中埔227-2號","121.721943333333","25.0205933333333","6502400","平溪區"
"223006","022-BY","2017/06/24 07:19:45","新北市石碇區新興坑1號","121.652243333333","25.01455","6501900","石碇區"
"223002","198-BX","2017/06/24 07:19:41","新北市石碇區北宜路五段坑內巷6號","121.634995","24.9538716666667","6501900","石碇區"
"223003","205-TH","2017/06/24 07:19:57","新北市石碇區烏塗窟8號","121.655918333333","24.9750383333333","6501900","石碇區"
"223001","251-BX","2017/06/24 07:19:58","新北市石碇區烏塗窟4號","121.653525","24.97698","6501900","石碇區"
"223008","406-TH","2017/06/24 07:19:52","新北市石碇區番子坑24-3號","121.678663333333","25.002125","6501900","石碇區"
"223004","660-BX","2017/06/24 07:19:51","新北市石碇區靜安路一段29號","121.642373333333","25.011645","6501900","石碇區"
"223007","661-BX","2017/06/24 07:19:44","新北市石碇區靜安路一段252號","121.676941666667","25.010715","6501900","石碇區"
"223005","677-TV","2017/06/24 07:19:55","新北市石碇區靜安路一段31號","121.642475","25.0116783333333","6501900","石碇區"
"227006","282-VK","2017/06/24 07:19:56","新北市雙溪區新基里自強路5-1號","121.86638","25.0391183333333","6502500","雙溪區"
"251001","155-BY","2017/06/24 07:19:50","新北市淡水區中正東路3號","121.445311666667","25.1689516666667","6501000","淡水區"
"252004","249-BX","2017/06/24 07:19:48","新北市三芝區興華里楓子林55-1號","121.500571666667","25.21406","6502100","三芝區"
"252007","AAC-283","2017/06/24 00:37:35","新北市三芝區埔坪里埔頭坑41號","121.504513333333","25.264475","6502100","三芝區"
"236011","165-UM","2017/06/24 07:19:54","新北市板橋區四川路二段245巷57號","121.452276666667","24.9922716666667","6501300","土城區"
"236002","339-SR","2017/06/24 07:19:54","新北市土城區南天母路111巷7號","121.447981666667","24.9556616666667","6501300","土城區"
