"lineid","car","time","location","longitude","latitude","cityid","cityname"
"248005","653-BX","2017/08/19 08:03:48","新北市五股區明德路14號","121.433235","25.0715633333333","6501500","五股區"
"244005","248-BX","2017/08/19 08:19:18","新北市林口區嘉寶里47-1號","121.309443333333","25.1216366666667","6501700","林口區"
"222004","289-BY","2017/08/19 08:19:11","新北市深坑區文山路一段64號","121.624061666667","25.000705","6501800","深坑區"
"231007","189-VK","2017/08/19 08:19:15","新北市新店區新潭路一段22巷6號","121.522815","24.9430566666667","6500600","新店區"
"231008","192-VK","2017/08/19 08:19:07","新北市新店區北宜路一段316號","121.547516666667","24.9520383333333","6500600","新店區"
"235071","911-UM","2017/08/19 08:19:24","新北市中和區永和路39巷4號","121.4979","25.0050283333333","6500300","中和區"
"220072","015-TV","2017/08/19 08:19:14","新北市八里區中山路三段383號","121.372423333333","25.1378666666667","6500100","板橋區"
"226005","5620-A6","2017/08/19 08:19:12","新北市平溪區南山里乾坑2-5號","121.787161666667","25.0447183333333","6502400","平溪區"
"226002","8452-VL","2017/08/19 08:19:21","新北市平溪區東勢里芊蓁林37號","121.751371666667","25.0163566666667","6502400","平溪區"
"226003","AGD-0702","2017/08/19 08:19:23","新北市平溪區十分里十分街54號","121.775246666667","25.041425","6502400","平溪區"
"223006","022-BY","2017/08/19 08:19:14","新北市深坑區昇高坑路15號","121.624171666667","25.0006516666667","6501900","石碇區"
"223002","198-BX","2017/08/19 08:18:42","新北市石碇區小粗坑(潭邊里)6號","121.675085","24.98424","6501900","石碇區"
"223003","205-TH","2017/08/19 08:19:15","新北市石碇區北宜路六段小金瓜寮巷2-1號","121.656241666667","24.935695","6501900","石碇區"
"223008","406-TH","2017/08/19 08:19:10","新北市石碇區靜安路一段197號","121.67273","25.0083133333333","6501900","石碇區"
"223001","437-BY","2017/08/19 08:19:18","新北市石碇區北宜路六段直潭巷26號","121.65992","24.9340616666667","6501900","石碇區"
"223004","660-BX","2017/08/19 08:19:21","新北市石碇區碇坪路一段79號","121.660455","24.9911366666667","6501900","石碇區"
"223007","661-BX","2017/08/19 08:19:16","新北市石碇區靜安路一段232號","121.672753333333","25.0078283333333","6501900","石碇區"
"223005","677-TV","2017/08/19 08:19:19","新北市石碇區碇坪路一段75號","121.660341666667","24.99136","6501900","石碇區"
"227006","282-VK","2017/08/19 08:18:59","新北市雙溪區牡丹里下坑3號","121.848651666667","25.0503033333333","6502500","雙溪區"
"253003","6232-TK","2017/08/19 08:19:20","新北市石門區石崩山20-8號","121.567318333333","25.2753366666667","6502200","石門區"
"253001","6251-TK","2017/08/19 08:19:11","新北市石門區楓林23-7號","121.538105","25.2926583333333","6502200","石門區"
"253002","637-UY","2017/08/19 08:19:12","新北市石門區大溪墘10-2號","121.552595","25.27404","6502200","石門區"
"253004","8270-PC","2017/08/19 08:19:24","新北市石門區阿里荖6-2號","121.61017","25.279785","6502200","石門區"
"252006","073-UM","2017/08/19 08:19:08","新北市三芝區中山路二段50號","121.503185","25.2543483333333","6502100","三芝區"
"252004","249-BX","2017/08/19 08:19:18","新北市三芝區興華里車埕59號","121.498666666667","25.19693","6502100","三芝區"
"252007","AAC-283","2017/08/19 08:19:14","新北市淡水區石頭厝7-8號","121.460476666667","25.2397366666667","6502100","三芝區"
"237001","159-UY","2017/08/19 08:19:13","新北市三峽區三樹路199號","121.378165","24.9421966666667","6500900","三峽區"
"236011","165-UM","2017/08/19 08:19:24","新北市土城區清水路32巷12號","121.45706","24.981225","6501300","土城區"
"236002","339-SR","2017/08/19 08:19:22","新北市土城區中州路1號","121.414806666667","24.95705","6501300","土城區"
"236006","498-BY","2017/08/19 08:19:10","新北市土城區永平街2巷1號","121.427548333333","24.963405","6501300","土城區"
"241031","281-VK","2017/08/19 08:19:15","新北市新莊區環河路636-1號","121.436968333333","25.0103083333333","6500200","三重區"
