"lineid","car","time","location","longitude","latitude","cityid","cityname"
"248005","653-BX","2017/08/19 08:27:21","新北市五股區明德路12巷1號","121.43313","25.0715666666667","6501500","五股區"
"222004","289-BY","2017/08/19 08:29:11","新北市深坑區王軍寮1-10號","121.617803333333","24.989045","6501800","深坑區"
"231007","189-VK","2017/08/19 08:29:15","新北市新店區新潭路一段219號","121.528805","24.928635","6500600","新店區"
"231008","192-VK","2017/08/19 08:29:07","新北市新店區新烏路二段198巷2弄6號","121.548125","24.91791","6500600","新店區"
"235071","911-UM","2017/08/19 08:29:23","新北市中和區中山路二段4號","121.505093333333","25.0058666666667","6500300","中和區"
"220072","015-TV","2017/08/19 08:29:14","新北市八里區中山路三段382號","121.368665","25.1358483333333","6500100","板橋區"
"226005","5620-A6","2017/08/19 08:29:12","新北市平溪區十分里十分街170號","121.77841","25.0437333333333","6502400","平溪區"
"226002","8452-VL","2017/08/19 08:29:02","新北市平溪區東勢里芊蓁林52號","121.75468","25.0092","6502400","平溪區"
"226003","AGD-0702","2017/08/19 08:29:23","新北市平溪區新寮里新寮路1-1號","121.790835","25.0585883333333","6502400","平溪區"
"223006","022-BY","2017/08/19 08:29:14","新北市深坑區昇高坑路51-1號","121.63063","24.9940233333333","6501900","石碇區"
"223002","198-BX","2017/08/19 08:18:42","新北市石碇區小粗坑(潭邊里)6號","121.675085","24.98424","6501900","石碇區"
"223003","205-TH","2017/08/19 08:29:15","新北市石碇區北宜路六段柑腳巷1-1號","121.661315","24.9394633333333","6501900","石碇區"
"223008","406-TH","2017/08/19 08:29:10","新北市石碇區石碇子埔97-4號","121.668345","25.0046333333333","6501900","石碇區"
"223001","437-BY","2017/08/19 08:29:20","新北市石碇區北宜路六段水底寮巷18號","121.662963333333","24.9412633333333","6501900","石碇區"
"223004","660-BX","2017/08/19 08:29:21","新北市石碇區崩山14號","121.673741666667","24.9729533333333","6501900","石碇區"
"223007","661-BX","2017/08/19 08:29:10","新北市石碇區靜安路一段97號","121.661556666667","25.00757","6501900","石碇區"
"223005","677-TV","2017/08/19 08:29:19","新北市石碇區崩山18-4號","121.676936666667","24.9678616666667","6501900","石碇區"
"227006","282-VK","2017/08/19 08:29:19","新北市雙溪區平林里竹寮坑1號","121.841855","25.0357166666667","6502500","雙溪區"
"253003","6232-TK","2017/08/19 08:29:20","新北市石門區內石門50-2號","121.572635","25.2623766666667","6502200","石門區"
"253001","6251-TK","2017/08/19 08:29:11","新北市石門區下員坑23號","121.513368333333","25.27617","6502200","石門區"
"253002","637-UY","2017/08/19 08:28:52","新北市石門區九芎林5-3號","121.559523333333","25.2686983333333","6502200","石門區"
"253004","8270-PC","2017/08/19 08:29:24","新北市石門區竹子湖1號","121.613001666667","25.267875","6502200","石門區"
"252006","073-UM","2017/08/19 08:29:08","新北市三芝區中正路二段48-1號","121.503188333333","25.2544333333333","6502100","三芝區"
"252004","249-BX","2017/08/19 08:29:18","新北市三芝區興華里楓子林45-4號","121.501403333333","25.2046083333333","6502100","三芝區"
"252007","AAC-283","2017/08/19 08:29:14","新北市三芝區後厝里番社后39號","121.470231666667","25.2434633333333","6502100","三芝區"
"237001","159-UY","2017/08/19 08:29:13","新北市三峽區大觀路35號","121.374836666667","24.9446133333333","6500900","三峽區"
"236011","165-UM","2017/08/19 08:29:24","新北市土城區金城路二段46巷11號","121.45429","24.97351","6501300","土城區"
"236002","339-SR","2017/08/19 08:29:22","新北市土城區中央路三段281巷11弄3號","121.42655","24.9628316666667","6501300","土城區"
"236006","498-BY","2017/08/19 08:29:10","新北市土城區大暖路25號","121.42293","24.9609916666667","6501300","土城區"
"241031","281-VK","2017/08/19 08:29:15","新北市新莊區環河路636-7號","121.437293333333","25.0112666666667","6500200","三重區"
