"lineid","car","time","location","longitude","latitude","cityid","cityname"
"234044","148-BY","2017/08/19 12:59:14","新北市永和區秀朗路二段176巷25號","121.525928333333","25.0002783333333","6500400","永和區"
"234012","149-BY","2017/08/19 12:59:07","新北市永和區信義路10-1號","121.51455","25.0120966666667","6500400","永和區"
"234005","207-UY","2017/08/19 12:59:22","新北市永和區中山路一段51號","121.512955","25.0105283333333","6500400","永和區"
"234078","298-R6","2017/08/19 12:59:10","新北市永和區永貞路52號","121.520838333333","25.0062166666667","6500400","永和區"
"234036","336-UY","2017/08/19 12:59:07","新北市永和區民樂街73巷2號","121.527341666667","24.9971","6500400","永和區"
"234062","337-UY","2017/08/19 12:59:16","新北市永和區秀朗路一段198號","121.519358333333","25.0032033333333","6500400","永和區"
"234084","338-UY","2017/08/19 12:59:10","新北市永和區永利路16-1號","121.517931666667","25.0058116666667","6500400","永和區"
"234052","553-UM","2017/08/19 12:59:16","新北市永和區竹林路64號","121.51831","25.013445","6500400","永和區"
"234015","745-BX","2017/08/19 12:59:13","新北市永和區永和路二段299號","121.516033333333","25.016135","6500400","永和區"
"234028","746-BX","2017/08/19 12:59:09","新北市永和區四維街99號","121.52416","24.9982066666667","6500400","永和區"
"234060","AAD-866","2017/08/19 12:59:25","新北市永和區福和路311號","121.516133333333","25.0070683333333","6500400","永和區"
"234068","847-RS","2017/08/19 12:59:07","新北市永和區豫溪街57巷10弄2號","121.517363333333","25.0106166666667","6500400","永和區"
"234040","862-TW","2017/08/19 12:59:15","新北市永和區永貞路275號","121.511248333333","25.00523","6500400","永和區"
"234048","863-TW","2017/08/19 12:58:59","新北市永和區環河西路二段5號","121.509846666667","25.017305","6500400","永和區"
"234025","9371-KE","2017/08/19 12:59:11","新北市永和區永和路一段149-2號","121.514158333333","25.0092383333333","6500400","永和區"
"234010","9373-KE","2017/08/19 12:59:16","新北市永和區永和路二段233-1號","121.515298333333","25.0142583333333","6500400","永和區"
"248017","225-UY","2017/08/19 12:59:24","新北市五股區中興路二段83巷26-6號","121.460011666667","25.0752566666667","6501500","五股區"
"234022","9380-KE","2017/08/19 12:59:14","新北市永和區竹林路75巷25弄3號","121.520133333333","25.01412","6500400","永和區"
"234076","969-R7","2017/08/19 12:59:19","新北市永和區民享街23巷5弄1號","121.515926666667","24.9950533333333","6500400","永和區"
"234072","AAC-211","2017/08/19 12:59:21","新北市永和區環河東路二段100號","121.524105","25.0103016666667","6500400","永和區"
"234066","AAC-212","2017/08/19 12:59:24","新北市永和區中和路625號","121.512971666667","25.0049966666667","6500400","永和區"
"234001","AAC-295","2017/08/19 12:59:11","新北市永和區永平路30號","121.513165","25.008785","6500400","永和區"
"244005","248-BX","2017/08/19 12:59:18","新北市林口區粉寮路二段94號","121.404456666667","25.08894","6501700","林口區"
"231028","046-UY","2017/08/19 12:59:16","新北市新店區安華路28-1號","121.519565","24.9608133333333","6500600","新店區"
"231030","047-UY","2017/08/19 12:59:18","新北市新店區安華路28-1號","121.51921","24.960895","6500600","新店區"
"231029","106-UY","2017/08/19 12:59:16","新北市新店區安華路28-1號","121.519656666667","24.960845","6500600","新店區"
"231018","107-UY","2017/08/19 12:59:22","新北市新店區安華路28-1號","121.519468333333","24.961085","6500600","新店區"
"231012","108-UY","2017/08/19 12:59:26","新北市新店區安華路28-1號","121.519455","24.9610833333333","6500600","新店區"
"231035","110-UY","2017/08/19 12:59:14","新北市新店區安華路28-1號","121.519168333333","24.9611216666667","6500600","新店區"
"231020","187-VK","2017/08/19 12:59:11","新北市新店區安華路28-1號","121.519551666667","24.9610883333333","6500600","新店區"
"231034","268-BY","2017/08/19 12:59:18","新北市新店區安華路1-1號","121.519455","24.9604983333333","6500600","新店區"
"231010","278-BY","2017/08/19 12:59:17","新北市新店區安華路28-1號","121.51965","24.9611666666667","6500600","新店區"
"231017","AAD-862","2017/08/19 12:59:17","新北市新店區安華路28-1號","121.51975","24.9612133333333","6500600","新店區"
"231024","3713-VJ","2017/08/19 12:59:08","新北市新店區安華路1-1號","121.519256666667","24.960485","6500600","新店區"
"231038","4715-K9","2017/08/19 12:59:12","新北市新店區安華路28-1號","121.519458333333","24.9605666666667","6500600","新店區"
"231036","512-UM","2017/08/19 12:59:20","新北市新店區安華路28-1號","121.519346666667","24.9610383333333","6500600","新店區"
"231023","513-UM","2017/08/19 12:59:12","新北市新店區安華路28-1號","121.519613333333","24.9610883333333","6500600","新店區"
"231006","617-UM","2017/08/19 12:59:14","新北市新店區安華路28-1號","121.519455","24.9607516666667","6500600","新店區"
"231001","619-UM","2017/08/19 12:59:21","新北市新店區安華路28-1號","121.519558333333","24.9608566666667","6500600","新店區"
"231013","719-UM","2017/08/19 12:59:11","新北市新店區安華路28-1號","121.519446666667","24.961195","6500600","新店區"
"231033","720-UM","2017/08/19 12:59:06","新北市新店區安華路28-1號","121.519258333333","24.9612916666667","6500600","新店區"
"231005","897-TW","2017/08/19 12:59:16","新北市新店區安華路28-1號","121.519573333333","24.9608466666667","6500600","新店區"
"231004","899-TW","2017/08/19 12:59:26","新北市新店區安華路28-1號","121.519263333333","24.9610916666667","6500600","新店區"
"231037","AKT-0513","2017/08/19 12:59:15","新北市新店區安華路28-1號","121.519475","24.9605833333333","6500600","新店區"
"235027","006-UY","2017/08/19 12:59:18","新北市中和區員山路36巷16-3號","121.485046666667","24.9913516666667","6500300","中和區"
"235020","096-UM","2017/08/19 12:59:17","新北市中和區員山路36巷13號","121.484333333333","24.9914633333333","6500300","中和區"
"235029","098-UM","2017/08/19 12:59:04","新北市中和區中正路589巷15號","121.485908333333","24.9936183333333","6500300","中和區"
"235022","151-BY","2017/08/19 12:59:23","新北市中和區中正路521號","121.488261666667","24.993565","6500300","中和區"
"235002","185-VK","2017/08/19 12:59:17","新北市中和區景平路59-20號","121.520706666667","24.9909866666667","6500300","中和區"
"235031","255-BX","2017/08/19 12:59:06","新北市中和區中山路二段550號","121.483791666667","25.0053166666667","6500300","中和區"
"235025","378-QA","2017/08/19 03:47:38","新北市中和區員山路36巷13號","121.484231666667","24.9912483333333","6500300","中和區"
"235026","800-TS","2017/08/19 12:59:12","新北市中和區中正路637巷60弄61號","121.485436666667","24.99307","6500300","中和區"
"235035","911-UM","2017/08/19 12:59:18","新北市中和區連城路469巷79弄8號","121.483695","24.9936133333333","6500300","中和區"
"235023","AAC-215","2017/08/19 12:59:17","新北市中和區員山路36巷16-3號","121.484958333333","24.9914083333333","6500300","中和區"
"220013","072-UY","2017/08/19 12:59:06","新北市板橋區民生路二段22號","121.472765","25.0165066666667","6500100","板橋區"
"228005","097-TW","2017/08/19 12:59:20","新北市貢寮區福隆里東興街82號","121.947603333333","25.0173366666667","6502600","貢寮區"
"228004","212-TW","2017/08/19 11:51:45","新北市貢寮區貢寮里朝陽街1-2號","121.912171666667","25.0212016666667","6502600","貢寮區"
"228004","670-TC","2017/08/19 12:59:05","新北市貢寮區吉林里內寮街10-1號","121.887228333333","24.988845","6502600","貢寮區"
"208004","AAC-292","2017/08/19 12:59:14","新北市金山區磺清路135號","121.639368333333","25.2273366666667","6502700","金山區"
"207002","749-BX","2017/08/19 12:59:09","新北市萬里區雙興里大坪路40號","121.628758333333","25.1694116666667","6502800","萬里區"
"252005","249-BX","2017/08/19 12:59:14","新北市三芝區埔坪里埔頭坑107號","121.504583333333","25.261695","6502100","三芝區"
"207001","662-BX","2017/08/19 12:59:24","新北市萬里區萬里里獅頭路22-1號","121.692945","25.17821","6502800","萬里區"
"252007","AAC-283","2017/08/19 12:59:21","新北市三芝區埔坪里埔頭坑41號","121.504455","25.2645716666667","6502100","三芝區"
"236006","498-BY","2017/08/19 12:59:06","新北市土城區亞洲路32巷1號","121.435785","24.9743333333333","6501300","土城區"
"238021","311-TH","2017/08/18 20:36:22","新北市樹林區八德街1010號","121.391416666667","24.9686133333333","6500700","樹林區"
"221012","276-VK","2017/08/19 12:59:10","新北市汐止區大同路二段545號","121.662175","25.0694433333333","6501100","汐止區"
"221032","280-BY","2017/08/19 12:59:05","新北市汐止區建成路26號","121.66452","25.0726366666667","6501100","汐止區"
"221027","281-BY","2017/08/19 12:59:15","新北市汐止區茄苳路26號","121.665055","25.0708316666667","6501100","汐止區"
"221002","753-BX","2017/08/19 12:59:04","新北市汐止區康寧街520-1號","121.633843333333","25.0687566666667","6501100","汐止區"
"241031","281-VK","2017/08/19 12:59:22","新北市新莊區環河路48-7號","121.436886666667","25.00989","6500200","三重區"
