"lineid","car","time","location","longitude","latitude","cityid","cityname"
"234044","148-BY","2017/08/19 13:59:14","新北市永和區永元路120號","121.522853333333","25.0025533333333","6500400","永和區"
"234012","149-BY","2017/08/19 13:59:27","新北市永和區仁愛路295號","121.505171666667","25.0092483333333","6500400","永和區"
"234005","207-UY","2017/08/19 13:59:22","新北市中和區中和路234號","121.506886666667","24.9995066666667","6500400","永和區"
"234078","298-R6","2017/08/19 13:59:30","新北市永和區國中路2-1號","121.524038333333","25.0044083333333","6500400","永和區"
"234036","336-UY","2017/08/19 13:59:27","新北市永和區成功路一段82號","121.526683333333","25.00311","6500400","永和區"
"234062","337-UY","2017/08/19 13:59:16","新北市永和區中正路412巷20弄7號","121.518591666667","25.0020233333333","6500400","永和區"
"234084","338-UY","2017/08/19 13:59:10","新北市永和區福和路250號","121.518595","25.00763","6500400","永和區"
"234052","553-UM","2017/08/19 13:59:16","新北市永和區竹林路39巷46號","121.520201666667","25.0152416666667","6500400","永和區"
"234015","745-BX","2017/08/19 13:59:13","新北市永和區文化路128號","121.51296","25.0153633333333","6500400","永和區"
"234028","746-BX","2017/08/19 13:59:29","新北市永和區民權路51號","121.51993","24.99707","6500400","永和區"
"234060","AAD-866","2017/08/19 13:59:25","新北市永和區中正路283巷11號","121.516906666667","25.0005866666667","6500400","永和區"
"234068","847-RS","2017/08/19 13:59:28","新北市永和區大新街90號","121.51794","25.00806","6500400","永和區"
"234040","862-TW","2017/08/19 13:59:15","新北市永和區中和路421巷5弄7號","121.508588333333","25.0008283333333","6500400","永和區"
"234048","863-TW","2017/08/19 13:59:19","新北市永和區保安路264號","121.505871666667","25.0123416666667","6500400","永和區"
"234010","9373-KE","2017/08/19 13:59:16","新北市永和區仁愛路352巷112弄17號","121.501175","25.0086483333333","6500400","永和區"
"248017","225-UY","2017/08/19 13:59:24","新北市五股區民義路一段287巷1號","121.425613333333","25.0926566666667","6501500","五股區"
"234022","9380-KE","2017/08/19 13:59:14","新北市永和區永和路二段276巷2弄1號","121.516471666667","25.015315","6500400","永和區"
"234076","969-R7","2017/08/19 13:59:19","新北市永和區民族街67巷2號","121.5185","24.9971783333333","6500400","永和區"
"234072","AAC-211","2017/08/19 13:59:21","新北市永和區竹林路159號","121.520691666667","25.0103433333333","6500400","永和區"
"234066","AAC-212","2017/08/19 13:59:24","新北市永和區永貞路378巷2號","121.509716666667","25.0071716666667","6500400","永和區"
"234001","AAC-295","2017/08/19 13:59:31","新北市永和區福和路313號","121.516151666667","25.0072866666667","6500400","永和區"
"232017","076-UY","2017/08/19 13:59:31","新北市坪林區坪雙路二段38號","121.73562","24.9661433333333","6502000","坪林區"
"231002","002-UM","2017/08/19 13:59:22","新北市新店區中正路645號","121.533898333333","24.9896866666667","6500600","新店區"
"231028","046-UY","2017/08/19 13:59:13","新北市新店區安和路三段112號","121.517318333333","24.9853233333333","6500600","新店區"
"231030","047-UY","2017/08/19 13:59:18","新北市新店區安興路7-1號","121.515046666667","24.96851","6500600","新店區"
"231029","106-UY","2017/08/19 13:59:15","新北市新店區安和路一段5號","121.516776666667","24.9639566666667","6500600","新店區"
"231018","107-UY","2017/08/19 13:59:11","新北市新店區百忍街90號","121.53268","24.9771933333333","6500600","新店區"
"231012","108-UY","2017/08/19 13:59:26","新北市新店區中興路一段298號","121.54619","24.9695216666667","6500600","新店區"
"231035","110-UY","2017/08/19 13:59:14","新北市新店區安和路一段53號","121.5175","24.9660816666667","6500600","新店區"
"231020","187-VK","2017/08/19 13:59:11","新北市新店區新烏路二段7號","121.544045","24.92948","6500600","新店區"
"231026","256-BX","2017/08/19 13:59:15","新北市新店區中央路95巷2號","121.531353333333","24.9749383333333","6500600","新店區"
"231034","268-BY","2017/08/19 13:59:18","新北市新店區達觀路38號","121.502495","24.939705","6500600","新店區"
"231017","AAD-862","2017/08/19 13:59:17","新北市新店區竹林路94號","121.55383","24.94979","6500600","新店區"
"231027","3712-VJ","2017/08/19 13:59:20","新北市新店區中興路一段24-2號","121.538566666667","24.9581266666667","6500600","新店區"
"231024","3713-VJ","2017/08/19 13:59:28","新北市新店區力行路62號","121.53893","24.9659483333333","6500600","新店區"
"231025","4716-K9","2017/08/19 13:59:27","新北市新店區中正路273號","121.537761666667","24.9743316666667","6500600","新店區"
"231038","4715-K9","2017/08/19 13:59:31","新北市新店區溪洲路121號","121.53134","24.9626733333333","6500600","新店區"
"231036","512-UM","2017/08/19 13:59:20","新北市新店區安祥路110巷2號","121.474798333333","24.9569216666667","6500600","新店區"
"231023","513-UM","2017/08/19 13:59:32","新北市新店區文中路54號","121.540123333333","24.9565383333333","6500600","新店區"
"231003","616-UM","2017/08/19 13:59:18","新北市新店區北宜路一段3號","121.538421666667","24.958445","6500600","新店區"
"231006","617-UM","2017/08/19 13:59:14","新北市新店區北宜路二段213號","121.553246666667","24.9533316666667","6500600","新店區"
"231001","619-UM","2017/08/19 13:59:21","新北市新店區三民路24號","121.537166666667","24.9710383333333","6500600","新店區"
"231013","719-UM","2017/08/19 13:59:11","新北市新店區明德路66號","121.54153","24.979535","6500600","新店區"
"231033","720-UM","2017/08/19 13:59:26","新北市新店區太平路20號","121.533751666667","24.9586083333333","6500600","新店區"
"231005","897-TW","2017/08/19 13:59:16","新北市新店區中興路三段202號","121.543845","24.9819333333333","6500600","新店區"
"231004","899-TW","2017/08/19 13:59:26","新北市新店區北新路二段122號","121.543091666667","24.974475","6500600","新店區"
"231037","AKT-0513","2017/08/19 13:59:15","新北市新店區安康路三段165巷2弄4號","121.48947","24.9513683333333","6500600","新店區"
"241025","887-TS","2017/08/19 13:39:03","新北市三重區重新路四段121號","121.485058333333","25.052215","6500200","三重區"
"235030","003-UY","2017/08/19 13:59:22","新北市中和區中山路二段131巷5弄3號","121.502848333333","25.00285","6500300","中和區"
"235028","005-UY","2017/08/19 13:59:23","新北市中和區泰和街44巷33號","121.498015","25.0012516666667","6500300","中和區"
"235027","006-UY","2017/08/19 13:59:18","新北市中和區中正路516號","121.488245","24.994465","6500300","中和區"
"235020","096-UM","2017/08/19 13:59:17","新北市中和區中正路1208號","121.480115","25.0107116666667","6500300","中和區"
"235003","097-UM","2017/08/19 13:59:13","新北市中和區景平路64巷11號","121.52217","24.99124","6500300","中和區"
"235029","098-UM","2017/08/19 13:59:24","新北市中和區福祥路135號","121.49837","25.0074833333333","6500300","中和區"
"235004","150-BY","2017/08/19 13:59:23","新北市中和區宜安路116號","121.510318333333","24.998045","6500300","中和區"
"235022","151-BY","2017/08/19 13:59:23","新北市中和區連城路528號","121.475661666667","24.9917333333333","6500300","中和區"
"235019","183-VK","2017/08/19 13:59:17","新北市板橋區民族路276巷40號","121.469438333333","25.00588","6500300","中和區"
"235002","185-VK","2017/08/19 13:59:17","新北市中和區大勇街43巷6號","121.517583333333","24.9948183333333","6500300","中和區"
"235013","186-VK","2017/08/19 13:59:20","新北市中和區景安路177巷30號","121.506706666667","24.99449","6500300","中和區"
"235031","255-BX","2017/08/19 13:59:26","新北市中和區連城路340巷14弄2號","121.483308333333","24.99731","6500300","中和區"
"235008","293-VK","2017/08/19 13:59:31","新北市中和區中興街169號","121.500051666667","24.9905266666667","6500300","中和區"
"235036","301-VK","2017/08/19 13:59:16","新北市中和區中山路二段131號","121.50253","25.0032983333333","6500300","中和區"
"235007","352-BY","2017/08/19 13:59:16","新北市中和區秀朗路三段48號","121.526358333333","24.9955416666667","6500300","中和區"
"235015","376-QA","2017/08/19 13:59:19","新北市中和區華新街111號","121.508648333333","24.9814583333333","6500300","中和區"
"235032","377-QA","2017/08/19 13:59:21","新北市中和區圓通路162巷7號","121.497038333333","24.9951083333333","6500300","中和區"
"235025","378-QA","2017/08/19 13:59:27","新北市中和區民治街130巷7號","121.4749","25.00259","6500300","中和區"
"235014","4979-A6","2017/08/19 00:55:32","新北市中和區員山路36巷13號","121.484411666667","24.9911883333333","6500300","中和區"
"235033","4980-A6","2017/08/19 13:59:25","新北市中和區景平路459巷2弄2號","121.50034","24.99645","6500300","中和區"
"235006","551-UM","2017/08/19 13:59:13","新北市中和區秀朗路三段78巷4弄2號","121.525655","24.9939966666667","6500300","中和區"
"235034","558-UM","2017/08/19 13:59:26","新北市中和區中和路137號","121.501991666667","24.9999483333333","6500300","中和區"
"235009","565-BX","2017/08/19 13:59:26","新北市中和區景新街444號","121.513235","24.9880416666667","6500300","中和區"
"235018","640-BX","2017/08/19 13:59:23","新北市中和區民享街29-1號","121.47396","25.0043066666667","6500300","中和區"
"235024","647-TV","2017/08/19 13:59:17","新北市中和區民治街10巷2號","121.474938333333","25.00476","6500300","中和區"
"235011","732-UM","2017/08/19 13:59:27","新北市中和區興南路二段34巷4號","121.506891666667","24.9855383333333","6500300","中和區"
"235010","733-UM","2017/08/19 13:59:26","新北市中和區興南路二段3巷7號","121.508256666667","24.9863633333333","6500300","中和區"
"235026","800-TS","2017/08/19 13:59:12","新北市中和區中山路二段342號","121.493851666667","25.0022933333333","6500300","中和區"
"235021","801-TS","2017/08/19 13:59:20","新北市中和區民利街17號","121.480463333333","24.9990566666667","6500300","中和區"
"235005","802-TS","2017/08/19 13:59:24","新北市中和區中安街32-1號","121.513256666667","25.0029533333333","6500300","中和區"
"235016","805-TS","2017/08/19 13:59:32","新北市中和區興南路二段261巷6-4號","121.502388333333","24.9794833333333","6500300","中和區"
"235012","896-TW","2017/08/19 13:59:19","新北市中和區華新街40號","121.507813333333","24.9842616666667","6500300","中和區"
"235017","900-TW","2017/08/19 13:59:16","新北市中和區壽德街3號","121.464966666667","24.99591","6500300","中和區"
"235035","911-UM","2017/08/19 13:59:18","新北市中和區建一路136-1號","121.487916666667","24.9990983333333","6500300","中和區"
"235001","AAC-213","2017/08/19 13:59:22","新北市中和區自立路99巷34號","121.523838333333","24.994605","6500300","中和區"
"235023","AAC-215","2017/08/19 13:59:17","新北市中和區圓通路369巷5弄12號","121.49147","24.9884166666667","6500300","中和區"
"220016","013-TV","2017/08/19 13:59:28","新北市板橋區中山路二段443巷52弄2號","121.481105","25.02151","6500100","板橋區"
"220013","072-UY","2017/08/19 13:59:21","新北市板橋區漢生東路328號","121.471603333333","25.0078433333333","6500100","板橋區"
"220034","073-UY","2017/08/19 13:59:19","新北市板橋區中正路203號","121.456201666667","25.0173633333333","6500100","板橋區"
"220105","075-UY","2017/08/19 13:59:26","新北市板橋區文化路二段124巷30號","121.471305","25.0255116666667","6500100","板橋區"
"220017","AAD-861","2017/08/19 13:59:25","新北市板橋區四川路一段68號","121.45945","25.00544","6500100","板橋區"
"247019","893-R6","2017/08/19 13:59:14","新北市蘆洲區民族路422巷35號","121.473546666667","25.0935733333333","6501400","蘆洲區"
"247009","546-UM","2017/08/19 13:59:25","新北市蘆洲區中興街54號","121.48177","25.0873933333333","6501400","蘆洲區"
"247017","500-BY","2017/08/19 13:59:11","新北市蘆洲區民族路257巷17號","121.475096666667","25.0900966666667","6501400","蘆洲區"
"247007","339-TH","2017/08/19 13:59:24","新北市三重區永安北路一段5號","121.475941666667","25.0746333333333","6501400","蘆洲區"
"247001","336-TH","2017/08/19 13:59:15","新北市蘆洲區三民路607號","121.460615","25.093895","6501400","蘆洲區"
"247013","057-VK","2017/08/19 13:59:25","新北市蘆洲區中正路168號","121.468781666667","25.085935","6501400","蘆洲區"
"247003","056-VK","2017/08/19 13:59:13","新北市蘆洲區長榮路1號","121.463925","25.0819733333333","6501400","蘆洲區"
"247005","053-VK","2017/08/19 13:59:29","新北市蘆洲區永安南路二段52號","121.465808333333","25.07768","6501400","蘆洲區"
"247011","007-UY","2017/08/19 13:59:29","新北市蘆洲區民族路75號","121.479235","25.0859266666667","6501400","蘆洲區"
"247015","001-UY","2017/08/19 13:59:17","新北市蘆洲區光華路42號","121.468868333333","25.083125","6501400","蘆洲區"
"228005","097-TW","2017/08/19 13:59:20","新北市貢寮區美豐里雞母嶺街52-1號","121.888463333333","25.068435","6502600","貢寮區"
"228004","212-TW","2017/08/19 11:51:45","新北市貢寮區貢寮里朝陽街1-2號","121.912171666667","25.0212016666667","6502600","貢寮區"
"228004","670-TC","2017/08/19 13:59:25","新北市貢寮區龍崗里嵩陽街35-1號","121.906693333333","25.0174833333333","6502600","貢寮區"
"208004","AAC-292","2017/08/19 13:59:22","新北市金山區山城路10巷24弄14號","121.594423333333","25.2011066666667","6502700","金山區"
"207002","749-BX","2017/08/19 13:59:29","新北市萬里區溪底里富士坪路21號","121.627576666667","25.149075","6502800","萬里區"
"252005","249-BX","2017/08/19 13:59:14","新北市三芝區圓山里二坪頂47號","121.538101666667","25.2450966666667","6502100","三芝區"
"207001","662-BX","2017/08/19 13:59:24","新北市萬里區磺潭里清水18號","121.637848333333","25.1977283333333","6502800","萬里區"
"236068","105-UM","2017/08/19 13:59:28","新北市土城區金城路一段86號","121.444911666667","24.9732616666667","6501300","土城區"
"236041","107-UM","2017/08/19 13:59:22","新北市土城區裕生路82巷2號","121.447583333333","24.98596","6501300","土城區"
"236075","166-UM","2017/08/19 13:59:26","新北市土城區永寧路32巷8號","121.429016666667","24.9606983333333","6501300","土城區"
"236029","253-BX","2017/08/19 13:59:12","新北市土城區城林路6巷80號","121.438318333333","24.9797366666667","6501300","土城區"
"236025","269-VK","2017/08/19 13:59:18","新北市土城區承天路65號","121.439368333333","24.9637816666667","6501300","土城區"
"236013","270-VK","2017/08/19 13:59:13","新北市土城區城林路6巷80號","121.438458333333","24.9796466666667","6501300","土城區"
"236035","271-VK","2017/08/19 13:59:20","新北市土城區城林路6巷80號","121.438491666667","24.97986","6501300","土城區"
"236017","401-BY","2017/08/19 13:59:18","新北市土城區城林路6巷80號","121.43862","24.9797816666667","6501300","土城區"
"236006","498-BY","2017/08/19 13:59:26","新北市土城區中華路一段10號","121.44817","24.99084","6501300","土城區"
"236057","912-UM","2017/08/19 13:59:20","新北市土城區永寧路1號","121.430481666667","24.964805","6501300","土城區"
"236045","913-UM","2017/08/19 13:59:29","新北市土城區城林路6巷80號","121.438335","24.97979","6501300","土城區"
"236061","915-UM","2017/08/19 13:59:15","新北市土城區城林路6巷80號","121.438363333333","24.979805","6501300","土城區"
"236054","AAC-216","2017/08/19 13:59:21","新北市土城區城林路6巷80號","121.438366666667","24.9798616666667","6501300","土城區"
"221012","276-VK","2017/08/19 13:20:01","新北市汐止區汐萬路一段256巷3號","121.653443333333","25.0746533333333","6501100","汐止區"
"221027","281-BY","2017/08/19 13:57:55","台北市文山區新光路二段74巷3號","121.592835","24.99317","6501100","汐止區"
"220027","145-BY","2017/08/19 13:59:23","新北市板橋區民權路260巷1弄8號","121.458175","25.0158316666667","6500100","板橋區"
"220028","200-UY","2017/08/19 13:59:24","新北市板橋區大觀路二段文和巷83號","121.444356666667","24.9982433333333","6500100","板橋區"
"220030","610-BX","2017/08/19 13:59:20","新北市板橋區篤行路二段138號","121.429686666667","24.9882716666667","6500100","板橋區"
"220050","245-BX","2017/08/19 02:37:07","新北市板橋區民生路二段89-6號","121.470488333333","25.01943","6500100","板橋區"
"220051","257-TC","2017/08/19 13:59:21","新北市板橋區萬板路562號","121.481073333333","25.0265933333333","6500100","板橋區"
"220043","267-BY","2017/08/19 13:59:32","新北市板橋區文化路二段59號","121.469173333333","25.0254","6500100","板橋區"
"220004","276-BY","2017/08/19 13:59:24","新北市板橋區信義路147號","121.458193333333","24.992995","6500100","板橋區"
"220020","277-BY","2017/08/19 13:59:12","新北市樹林區樹新路108號","121.429838333333","24.99798","6500100","板橋區"
"220005","280-UM","2017/08/19 13:59:15","新北市板橋區民權路33號","121.462261666667","25.0111966666667","6500100","板橋區"
"220019","283-VK","2017/08/19 13:59:25","新北市板橋區忠孝路176巷25號","121.465368333333","25.0017783333333","6500100","板橋區"
"220001","285-VK","2017/08/19 13:59:18","新北市板橋區成功路12號","121.47553","25.0170616666667","6500100","板橋區"
"220031","286-VK","2017/08/19 13:59:27","新北市板橋區大觀路一段38巷156弄39號","121.442638333333","25.00594","6500100","板橋區"
"220029","287-VK","2017/08/19 13:56:55","新北市板橋區光華街13巷2-3號","121.454068333333","25.0116116666667","6500100","板橋區"
"220039","288-VK","2017/08/19 13:59:25","新北市板橋區四維路176號","121.46448","25.0264866666667","6500100","板橋區"
"220009","293-UM","2017/08/19 13:59:13","新北市板橋區富山街87號","121.476703333333","25.0217466666667","6500100","板橋區"
"220003","295-UM","2017/08/19 13:59:23","新北市板橋區民安街13號","121.467093333333","25.0119783333333","6500100","板橋區"
"220032","296-UM","2017/08/19 13:59:25","新北市板橋區龍興街63巷7號","121.442666666667","25.00133","6500100","板橋區"
"220023","297-UM","2017/08/19 13:59:15","新北市板橋區南興路50號","121.454455","25.0074233333333","6500100","板橋區"
"241031","281-VK","2017/08/19 13:59:17","新北市新莊區復興路一段47巷12號","121.44681","25.04268","6500200","三重區"
"220010","303-R5","2017/08/19 13:59:12","新北市中和區員山路570號","121.478738333333","25.0109966666667","6500100","板橋區"
"220041","307-R5","2017/08/19 13:59:20","新北市板橋區文化路一段104巷1號","121.464975","25.0180233333333","6500100","板橋區"
"220047","317-R6","2017/08/19 13:59:28","新北市板橋區民有街20號","121.466301666667","25.0251","6500100","板橋區"
"220012","486-VK","2017/08/19 13:59:16","新北市板橋區板新路237號","121.467563333333","25.015905","6500100","板橋區"
"220038","487-VK","2017/08/19 13:59:23","新北市板橋區文化路二段26號","121.468956666667","25.024605","6500100","板橋區"
"220037","491-VK","2017/08/19 13:59:20","新北市板橋區文化路二段1號","121.468551666667","25.0239916666667","6500100","板橋區"
"220104","560-BX","2017/08/19 13:59:13","新北市板橋區中正路273-1號","121.455483333333","25.018865","6500100","板橋區"
"220052","561-BX","2017/08/19 13:59:28","新北市板橋區縣民大道二段279號","121.470098333333","25.0178466666667","6500100","板橋區"
"220011","609-BX","2017/08/19 13:59:27","新北市板橋區中山路二段179號","121.47622","25.0169266666667","6500100","板橋區"
"220040","637-BX","2017/08/19 13:59:11","新北市板橋區莒光路167-3號","121.474225","25.02379","6500100","板橋區"
"220025","687-BX","2017/08/19 13:59:27","新北市板橋區大觀路二段174巷137號","121.441145","25.002","6500100","板橋區"
"220042","689-BX","2017/08/19 13:59:15","新北市板橋區民生路三段20號","121.467606666667","25.0244983333333","6500100","板橋區"
"220002","741-BX","2017/08/19 13:59:24","新北市板橋區後埔街48號","121.460466666667","25.0059983333333","6500100","板橋區"
"220014","829-TW","2017/08/19 13:59:23","新北市板橋區三民路二段186巷14號","121.47805","25.01442","6500100","板橋區"
"220096","831-TW","2017/08/19 13:59:27","新北市板橋區莒光路133巷7弄1號","121.47266","25.0241883333333","6500100","板橋區"
"220022","895-R6","2017/08/19 13:59:29","新北市板橋區南門街53號","121.457136666667","25.0083416666667","6500100","板橋區"
"220021","985-R7","2017/08/19 13:59:13","新北市板橋區南門街10號","121.457488333333","25.009015","6500100","板橋區"
"220046","AAC-210","2017/08/19 13:59:23","新北市板橋區四維路137巷31號","121.463908333333","25.0247083333333","6500100","板橋區"
"220018","AAC-253","2017/08/19 13:59:19","新北市板橋區四川路一段94號","121.459633333333","25.00495","6500100","板橋區"
