"lineid","car","time","location","longitude","latitude","cityid","cityname"
"234012","149-BY","2017/08/19 14:29:27","新北市五股區五工二路134號","121.453656666667","25.07387","6500400","永和區"
"234005","207-UY","2017/08/19 14:29:22","新北市永和區安樂路208-1號","121.514948333333","25.0020866666667","6500400","永和區"
"234078","298-R6","2017/08/19 14:29:30","新北市永和區永貞路82號","121.520153333333","25.0049983333333","6500400","永和區"
"234036","336-UY","2017/08/19 14:29:27","新北市永和區環河東路四段112號","121.52792","24.99626","6500400","永和區"
"234062","337-UY","2017/08/19 14:29:16","新北市永和區中正路437號","121.51718","25.0051866666667","6500400","永和區"
"234084","338-UY","2017/08/19 14:29:26","新北市永和區永和路二段344號","121.516366666667","25.0171366666667","6500400","永和區"
"234052","553-UM","2017/08/19 14:29:16","新北市永和區環河東路一段82號","121.51964","25.01648","6500400","永和區"
"234060","AAD-866","2017/08/19 14:29:25","新北市永和區安樂路194巷19號","121.515825","25.0010716666667","6500400","永和區"
"234040","862-TW","2017/08/19 14:29:20","新北市永和區安樂路320號","121.514466666667","25.0055916666667","6500400","永和區"
"234048","863-TW","2017/08/19 14:29:19","新北市永和區保安路73號","121.508783333333","25.0148933333333","6500400","永和區"
"234025","9371-KE","2017/08/19 14:29:11","新北市永和區安樂路144巷20號","121.51499","24.9996483333333","6500400","永和區"
"248017","225-UY","2017/08/19 14:19:24","新北市五股區壟路16-1號","121.414546666667","25.08529","6501500","五股區"
"234072","AAC-211","2017/08/19 14:29:20","新北市永和區環河東路一段124號","121.520836666667","25.0154783333333","6500400","永和區"
"234066","AAC-212","2017/08/19 14:29:24","新北市永和區保平路268巷14號","121.50795","25.00599","6500400","永和區"
"234001","AAC-295","2017/08/19 14:29:11","新北市永和區大新街27號","121.515113333333","25.0085683333333","6500400","永和區"
"232017","076-UY","2017/08/19 14:29:11","新北市坪林區坪雙路二段38號","121.7357","24.966175","6502000","坪林區"
"231002","002-UM","2017/08/19 14:29:22","新北市新店區中正路396號","121.5346","24.9773833333333","6500600","新店區"
"231028","046-UY","2017/08/19 14:29:25","新北市新店區安和路一段1號","121.516798333333","24.9638983333333","6500600","新店區"
"231030","047-UY","2017/08/19 14:29:20","新北市新店區安民街138號","121.516601666667","24.9695283333333","6500600","新店區"
"231029","106-UY","2017/08/19 14:29:15","新北市新店區安康路二段335號","121.498536666667","24.9560716666667","6500600","新店區"
"231018","107-UY","2017/08/19 14:29:11","新北市新店區中央二街68號","121.526403333333","24.9747716666667","6500600","新店區"
"231012","108-UY","2017/08/19 14:29:26","新北市新店區中興路二段192-2號","121.54906","24.9732933333333","6500600","新店區"
"231035","110-UY","2017/08/19 14:29:14","新北市新店區安民街3巷6弄2號","121.51482","24.9643566666667","6500600","新店區"
"231020","187-VK","2017/08/19 14:29:14","新北市新店區新烏路二段200巷11號","121.547738333333","24.9168933333333","6500600","新店區"
"231034","268-BY","2017/08/19 14:29:21","新北市新店區黎明路11號","121.502081666667","24.9500333333333","6500600","新店區"
"231017","AAD-862","2017/08/19 14:29:17","新北市新店區北宜路二段392巷4號","121.565508333333","24.9533016666667","6500600","新店區"
"231027","3712-VJ","2017/08/19 14:29:20","新北市新店區北新路二段228巷13號","121.543463333333","24.9772433333333","6500600","新店區"
"231025","4716-K9","2017/08/19 14:29:27","新北市新店區民族路106號","121.538918333333","24.97804","6500600","新店區"
"231038","4715-K9","2017/08/19 14:29:11","新北市新店區溪洲路101號","121.532603333333","24.96174","6500600","新店區"
"231036","512-UM","2017/08/19 14:29:20","新北市新店區安祥路109巷151弄3號","121.478198333333","24.958645","6500600","新店區"
"231023","513-UM","2017/08/19 14:29:12","新北市新店區北宜路一段3號","121.538586666667","24.958475","6500600","新店區"
"231003","616-UM","2017/08/19 14:29:18","新北市新店區中興路一段267-1號","121.544941666667","24.9676866666667","6500600","新店區"
"231006","617-UM","2017/08/19 14:29:14","新北市新店區北宜路二段332號","121.56233","24.9538183333333","6500600","新店區"
"231001","619-UM","2017/08/19 14:29:21","新北市新店區中正路75巷71號","121.543105","24.968715","6500600","新店區"
"231013","719-UM","2017/08/19 14:29:11","新北市新店區民權路102號","121.535973333333","24.9829666666667","6500600","新店區"
"231033","720-UM","2017/08/19 14:29:26","新北市新店區安興路112號","121.515196666667","24.9775483333333","6500600","新店區"
"231005","897-TW","2017/08/19 14:29:16","新北市新店區北新路三段40-1號","121.542206666667","24.979735","6500600","新店區"
"231004","899-TW","2017/08/19 14:29:26","新北市新店區中正路263-2號","121.538446666667","24.9738483333333","6500600","新店區"
"231037","AKT-0513","2017/08/19 14:29:15","新北市新店區柴埕路43號","121.51379","24.9655216666667","6500600","新店區"
"241025","887-TS","2017/08/19 13:39:03","新北市三重區重新路四段121號","121.485058333333","25.052215","6500200","三重區"
"235030","003-UY","2017/08/19 14:29:22","新北市中和區景新街32號","121.503205","24.9992783333333","6500300","中和區"
"235028","005-UY","2017/08/19 14:29:23","新北市中和區南山路121號","121.502183333333","24.9972566666667","6500300","中和區"
"235027","006-UY","2017/08/19 14:29:18","新北市中和區連城路203巷10弄9號","121.494901666667","24.99698","6500300","中和區"
"235020","096-UM","2017/08/19 14:29:17","新北市中和區民富街82號","121.476498333333","25.0080116666667","6500300","中和區"
"235003","097-UM","2017/08/19 14:29:13","新北市中和區秀峰街103巷7弄4號","121.519535","24.9889666666667","6500300","中和區"
"235029","098-UM","2017/08/19 14:29:24","新北市中和區永和路9巷1號","121.499278333333","25.003995","6500300","中和區"
"235004","150-BY","2017/08/19 14:29:23","新北市中和區宜安路1巷28弄1號","121.512265","24.9941233333333","6500300","中和區"
"235022","151-BY","2017/08/19 14:29:23","新北市中和區和城路一段271巷1號","121.485405","24.9918866666667","6500300","中和區"
"235019","183-VK","2017/08/19 14:29:17","新北市中和區中山路三段181巷18弄5號","121.472685","25.0051633333333","6500300","中和區"
"235002","185-VK","2017/08/19 14:28:57","新北市中和區大智街55巷31號","121.520423333333","24.992745","6500300","中和區"
"235013","186-VK","2017/08/19 14:29:10","新北市中和區景新街269號","121.509033333333","24.993765","6500300","中和區"
"235031","255-BX","2017/08/19 14:29:26","新北市中和區中正路681號","121.485015","24.9975483333333","6500300","中和區"
"235008","293-VK","2017/08/19 14:29:11","新北市中和區中興街241號","121.500398333333","24.9889883333333","6500300","中和區"
"235036","301-VK","2017/08/19 14:29:16","新北市中和區光華街31巷22弄28號","121.505913333333","25.00439","6500300","中和區"
"235007","352-BY","2017/08/19 14:29:16","新北市中和區景平路296號","121.512996666667","24.99262","6500300","中和區"
"235015","376-QA","2017/08/19 14:29:19","新北市中和區景平路239巷33弄44號","121.509783333333","24.9914516666667","6500300","中和區"
"235032","377-QA","2017/08/19 14:29:16","新北市中和區中和路143號","121.502253333333","24.9998666666667","6500300","中和區"
"235025","378-QA","2017/08/19 14:29:27","新北市中和區民安街2巷37弄19號","121.480246666667","25.00124","6500300","中和區"
"235014","4979-A6","2017/08/19 00:55:32","新北市中和區員山路36巷13號","121.484411666667","24.9911883333333","6500300","中和區"
"235033","4980-A6","2017/08/19 14:29:25","新北市中和區連城路89巷1號","121.496643333333","25.000055","6500300","中和區"
"235006","551-UM","2017/08/19 14:29:13","新北市中和區安平路158號","121.512568333333","24.9984916666667","6500300","中和區"
"235034","558-UM","2017/08/19 14:29:06","新北市中和區廟美街13號","121.500278333333","25.0021016666667","6500300","中和區"
"235009","565-BX","2017/08/19 14:29:12","新北市中和區景新街423巷33弄3號","121.513765","24.9897883333333","6500300","中和區"
"235018","640-BX","2017/08/19 14:29:23","新北市中和區國光街109巷23號","121.469525","24.9996416666667","6500300","中和區"
"235024","647-TV","2017/08/19 14:29:17","新北市中和區民樂路35號","121.483203333333","25.00162","6500300","中和區"
"235011","732-UM","2017/08/19 14:29:27","新北市中和區景平路241巷55號","121.508028333333","24.9922533333333","6500300","中和區"
"235010","733-UM","2017/08/19 14:29:26","新北市中和區忠孝街37巷30號","121.51079","24.98432","6500300","中和區"
"235026","800-TS","2017/08/19 14:29:12","新北市中和區中山路二段526巷37號","121.485803333333","25.0059433333333","6500300","中和區"
"235021","801-TS","2017/08/19 14:29:20","新北市中和區員山路425號","121.480893333333","25.003455","6500300","中和區"
"235005","802-TS","2017/08/19 14:29:24","新北市中和區景安路58號","121.506838333333","24.9978416666667","6500300","中和區"
"235016","805-TS","2017/08/19 14:29:12","新北市中和區華新街143巷51號","121.50638","24.9801533333333","6500300","中和區"
"235012","896-TW","2017/08/19 14:29:19","新北市中和區忠孝街39-12號","121.511995","24.9843433333333","6500300","中和區"
"235017","900-TW","2017/08/19 14:29:16","新北市中和區華順街30巷3號","121.46712","24.9990016666667","6500300","中和區"
"235035","911-UM","2017/08/19 14:29:18","新北市中和區橋和路81號","121.489388333333","25.00526","6500300","中和區"
"235001","AAC-213","2017/08/19 14:29:22","新北市中和區秀朗路三段10巷14弄104號","121.5231","24.9967016666667","6500300","中和區"
"235023","AAC-215","2017/08/19 14:29:17","新北市中和區圓通路252巷1號","121.493546666667","24.9910966666667","6500300","中和區"
"220016","013-TV","2017/08/19 14:29:27","新北市板橋區中山路二段531巷44號","121.482535","25.02272","6500100","板橋區"
"220013","072-UY","2017/08/19 14:29:26","新北市板橋區國泰街75巷28弄19號","121.467761666667","25.0048383333333","6500100","板橋區"
"220034","073-UY","2017/08/19 14:29:19","新北市板橋區中正路250巷93號","121.459513333333","25.0199983333333","6500100","板橋區"
"220105","075-UY","2017/08/19 14:29:24","新北市板橋區文化路二段417巷8號","121.474226666667","25.0329616666667","6500100","板橋區"
"220017","AAD-861","2017/08/19 14:29:25","新北市板橋區貴興路41號","121.457481666667","25.0036183333333","6500100","板橋區"
"247019","893-R6","2017/08/19 14:29:14","新北市蘆洲區水湳街109號","121.469861666667","25.0909583333333","6501400","蘆洲區"
"247009","546-UM","2017/08/19 14:29:25","新北市蘆洲區信義路146號","121.47957","25.08312","6501400","蘆洲區"
"247017","500-BY","2017/08/19 14:29:11","新北市蘆洲區復興路231號","121.480043333333","25.0897016666667","6501400","蘆洲區"
"247007","339-TH","2017/08/19 14:29:24","新北市蘆洲區信義路34巷16號","121.47472","25.0787583333333","6501400","蘆洲區"
"247023","337-TH","2017/08/19 14:29:12","新北市蘆洲區中正路156-1號","121.468815","25.085455","6501400","蘆洲區"
"247001","336-TH","2017/08/19 14:29:15","新北市蘆洲區永樂街38巷27號","121.45804","25.0892466666667","6501400","蘆洲區"
"247013","057-VK","2017/08/19 14:29:25","新北市蘆洲區中山二路177號","121.470938333333","25.0808816666667","6501400","蘆洲區"
"247003","056-VK","2017/08/19 14:29:13","新北市蘆洲區長安街220巷6號","121.458756666667","25.084765","6501400","蘆洲區"
"247005","053-VK","2017/08/19 14:29:29","新北市蘆洲區中華街73號","121.462141666667","25.080385","6501400","蘆洲區"
"247011","007-UY","2017/08/19 14:29:29","新北市蘆洲區中興街132號","121.482191666667","25.08953","6501400","蘆洲區"
"247021","002-UY","2017/08/19 14:29:18","新北市蘆洲區中正路497-2號","121.461906666667","25.096435","6501400","蘆洲區"
"247015","001-UY","2017/08/19 14:29:25","新北市蘆洲區中正路185巷31弄1號","121.466431666667","25.08437","6501400","蘆洲區"
"228005","097-TW","2017/08/19 14:29:20","新北市貢寮區美豐里巫里岸9-1號","121.901965","25.07004","6502600","貢寮區"
"228004","212-TW","2017/08/19 11:51:45","新北市貢寮區貢寮里朝陽街1-2號","121.912171666667","25.0212016666667","6502600","貢寮區"
"228004","670-TC","2017/08/19 14:29:25","新北市貢寮區雙玉里田寮洋街33-1號","121.932153333333","25.0135316666667","6502600","貢寮區"
"208004","AAC-292","2017/08/19 14:29:22","新北市金山區六股里下六股65號","121.614253333333","25.2234066666667","6502700","金山區"
"207002","749-BX","2017/08/19 14:24:49","新北市萬里區溪底里富士坪路24-2號","121.620626666667","25.1523166666667","6502800","萬里區"
"252005","249-BX","2017/08/19 14:29:14","新北市三芝區橫山里大坑34號","121.526946666667","25.2555266666667","6502100","三芝區"
"207001","662-BX","2017/08/19 14:29:24","新北市萬里區磺潭里清水12號","121.640171666667","25.1997916666667","6502800","萬里區"
"236068","105-UM","2017/08/19 14:29:16","新北市土城區永豐路358-2號","121.474255","24.9749783333333","6501300","土城區"
"236041","107-UM","2017/08/19 14:29:22","新北市土城區學成路99巷11號","121.449936666667","24.9883933333333","6501300","土城區"
"236075","166-UM","2017/08/19 14:29:26","新北市土城區中央路四段25-10號","121.424468333333","24.9624416666667","6501300","土城區"
"236029","253-BX","2017/08/19 14:29:13","新北市土城區水源街81巷8號","121.439333333333","24.9762933333333","6501300","土城區"
"236025","269-VK","2017/08/19 14:28:58","新北市土城區承天路18號","121.4391","24.9634566666667","6501300","土城區"
"236013","270-VK","2017/08/19 14:29:13","新北市土城區青雲路39巷7號","121.460258333333","24.9875233333333","6501300","土城區"
"236035","271-VK","2017/08/19 14:29:18","新北市土城區青雲路451巷8弄2號","121.45954","24.974495","6501300","土城區"
"236017","401-BY","2017/08/19 14:29:18","新北市土城區永豐路202巷14號","121.466343333333","24.9833666666667","6501300","土城區"
"236057","912-UM","2017/08/19 14:29:20","新北市土城區中央路四段464號","121.409923333333","24.950545","6501300","土城區"
"236045","913-UM","2017/08/19 14:29:08","新北市土城區青雲路336-1號","121.458908333333","24.9762916666667","6501300","土城區"
"236061","915-UM","2017/08/19 14:29:15","新北市土城區延壽路2號","121.471608333333","24.9902316666667","6501300","土城區"
"236054","AAC-216","2017/08/19 14:29:21","新北市土城區中華路二段151號","121.438861666667","24.9759166666667","6501300","土城區"
"221012","276-VK","2017/08/19 13:20:01","新北市汐止區汐萬路一段256巷3號","121.653443333333","25.0746533333333","6501100","汐止區"
"221027","281-BY","2017/08/19 14:29:15","新北市新店區薏仁坑路自強巷1號","121.49793","24.9576033333333","6501100","汐止區"
"220027","145-BY","2017/08/19 14:29:23","新北市板橋區民權路306號","121.457143333333","25.0161216666667","6500100","板橋區"
"220028","200-UY","2017/08/19 14:29:24","新北市板橋區大觀路二段37巷166號","121.449338333333","25.00159","6500100","板橋區"
"220030","610-BX","2017/08/19 14:29:20","新北市板橋區金門街301號","121.430028333333","24.9864666666667","6500100","板橋區"
"220050","245-BX","2017/08/19 14:29:26","新北市板橋區莊敬路220巷23號","121.472686666667","25.0205316666667","6500100","板橋區"
"220051","257-TC","2017/08/19 14:29:21","新北市板橋區文化路二段410巷37號","121.474713333333","25.0304166666667","6500100","板橋區"
"220043","267-BY","2017/08/19 14:29:11","新北市板橋區吳鳳路50巷85弄1號","121.470255","25.03042","6500100","板橋區"
"220004","276-BY","2017/08/19 14:29:24","新北市板橋區信義路1巷26弄43號","121.45933","24.99678","6500100","板橋區"
"220020","277-BY","2017/08/19 14:29:12","新北市板橋區金門街287巷27號","121.432083333333","24.987525","6500100","板橋區"
"220005","280-UM","2017/08/19 14:29:15","新北市中和區民德路330號","121.466645","24.9944416666667","6500100","板橋區"
"220019","283-VK","2017/08/19 14:29:25","新北市板橋區忠孝路24巷25號","121.460351666667","25.0008383333333","6500100","板橋區"
"220001","285-VK","2017/08/19 14:29:20","新北市板橋區富山街83號","121.476741666667","25.0217966666667","6500100","板橋區"
"220031","286-VK","2017/08/19 14:29:07","新北市板橋區大觀路二段174巷210號","121.442326666667","25.004175","6500100","板橋區"
"220029","287-VK","2017/08/19 14:29:18","新北市板橋區大觀路一段75巷41號","121.44903","25.0043666666667","6500100","板橋區"
"220039","288-VK","2017/08/19 14:29:25","新北市板橋區裕民街86號","121.460445","25.0282833333333","6500100","板橋區"
"220009","293-UM","2017/08/19 14:29:13","新北市板橋區中山路一段273號","121.469003333333","25.0136183333333","6500100","板橋區"
"220003","295-UM","2017/08/19 14:29:23","新北市板橋區重慶路290巷22弄19號","121.462216666667","24.9992066666667","6500100","板橋區"
"220032","296-UM","2017/08/19 14:29:19","新北市板橋區滿平街136巷6弄11號","121.427601666667","24.9877833333333","6500100","板橋區"
"220023","297-UM","2017/08/19 14:29:15","新北市板橋區南雅西路二段301巷41弄5號","121.450095","25.016395","6500100","板橋區"
"241031","281-VK","2017/08/19 14:29:17","新北市新莊區新興街22號","121.450723333333","25.0366816666667","6500200","三重區"
"220010","303-R5","2017/08/19 14:29:12","新北市板橋區三民路二段123巷33號","121.480705","25.0157883333333","6500100","板橋區"
"220041","307-R5","2017/08/19 14:29:19","新北市板橋區民生路二段250號","121.468315","25.0233566666667","6500100","板橋區"
"220047","317-R6","2017/08/19 14:29:28","新北市板橋區民生路三段281巷2弄2號","121.463718333333","25.0300466666667","6500100","板橋區"
"220012","486-VK","2017/08/19 14:29:24","新北市板橋區中山路一段53號","121.460881666667","25.009375","6500100","板橋區"
"220038","487-VK","2017/08/19 14:29:23","新北市板橋區文化路一段179號","121.463035","25.01616","6500100","板橋區"
"220037","491-VK","2017/08/19 14:29:23","新北市板橋區雙十路二段149號","121.474695","25.0281033333333","6500100","板橋區"
"220104","560-BX","2017/08/19 14:29:13","新北市板橋區中正路413巷2弄27號","121.453005","25.02328","6500100","板橋區"
"220052","561-BX","2017/08/19 14:29:26","新北市板橋區文化路一段188巷7號","121.466396666667","25.0195566666667","6500100","板橋區"
"220011","609-BX","2017/08/19 14:29:27","新北市板橋區中山路二段268號","121.47911","25.0184566666667","6500100","板橋區"
"220040","637-BX","2017/08/19 14:29:11","新北市板橋區文聖街149巷43號","121.480125","25.029065","6500100","板橋區"
"220025","687-BX","2017/08/19 14:29:27","新北市板橋區僑中二街54號","121.446561666667","25.0100183333333","6500100","板橋區"
"220042","689-BX","2017/08/19 14:29:15","新北市板橋區雨農路50號","121.461166666667","25.0243533333333","6500100","板橋區"
"220002","741-BX","2017/08/19 14:29:24","新北市板橋區光明街86號","121.461836666667","25.0027666666667","6500100","板橋區"
"220014","829-TW","2017/08/19 14:29:22","新北市板橋區長安街138巷1弄11號","121.47321","25.0098333333333","6500100","板橋區"
"220096","831-TW","2017/08/19 14:29:07","新北市板橋區民生路二段226巷6弄6號","121.469498333333","25.0215566666667","6500100","板橋區"
"220022","895-R6","2017/08/19 14:29:17","新北市板橋區文化路一段18-1號","121.457546666667","25.0127416666667","6500100","板橋區"
"220021","985-R7","2017/08/19 14:29:25","新北市板橋區金華街77號","121.45773","25.0209866666667","6500100","板橋區"
"220046","AAC-210","2017/08/19 14:29:23","新北市板橋區陽明街243號","121.462813333333","25.024515","6500100","板橋區"
"220018","AAC-253","2017/08/19 14:29:19","新北市板橋區四川路一段126號","121.459828333333","25.00413","6500100","板橋區"
