"lineid","car","time","location","longitude","latitude","cityid","cityname"
"234012","149-BY","2017/08/19 15:09:07","新北市八里區中華路二段470號","121.400541666667","25.14604","6500400","永和區"
"234025","9371-KE","2017/08/19 15:09:11","新北市永和區保生路55號","121.504866666667","25.0105783333333","6500400","永和區"
"232017","076-UY","2017/08/19 15:09:08","新北市坪林區鶯子瀨9-8號","121.709706666667","24.917165","6502000","坪林區"
"231002","002-UM","2017/08/19 15:09:22","新北市新店區中正路698號","121.534021666667","24.9906133333333","6500600","新店區"
"231028","046-UY","2017/08/19 15:09:16","新北市新店區僑信路105號","121.500353333333","24.9466883333333","6500600","新店區"
"231030","047-UY","2017/08/19 15:09:18","新北市新店區安民街341號","121.51698","24.97497","6500600","新店區"
"231029","106-UY","2017/08/19 15:09:15","新北市新店區安康路三段716號","121.473915","24.9420883333333","6500600","新店區"
"231018","107-UY","2017/08/19 15:09:11","新北市新店區中央六街35號","121.5289","24.9753016666667","6500600","新店區"
"231012","108-UY","2017/08/19 15:09:06","新北市新店區中興路三段309號","121.542063333333","24.9858016666667","6500600","新店區"
"231035","110-UY","2017/08/19 15:09:14","新北市新店區安和路三段143號","121.516888333333","24.9854566666667","6500600","新店區"
"231020","187-VK","2017/08/19 15:09:11","新北市新店區永福路54號","121.558105","24.9287116666667","6500600","新店區"
"231026","256-BX","2017/08/19 15:09:07","新北市新店區建興街7號","121.539955","24.9764383333333","6500600","新店區"
"231034","268-BY","2017/08/19 15:09:18","新北市新店區玫瑰路4-1號","121.493586666667","24.9514116666667","6500600","新店區"
"231017","AAD-862","2017/08/19 15:09:17","新北市新店區玉山路22號","121.567673333333","24.9552883333333","6500600","新店區"
"231025","4716-K9","2017/08/19 15:09:07","新北市新店區建國路242號","121.53767","24.9821183333333","6500600","新店區"
"231036","512-UM","2017/08/19 15:09:20","新北市新店區安祥路102巷98弄1號","121.48732","24.963745","6500600","新店區"
"231023","513-UM","2017/08/19 15:09:12","新北市新店區檳榔路109號","121.544461666667","24.961705","6500600","新店區"
"231003","616-UM","2017/08/19 15:09:18","新北市新店區寶橋路214號","121.55106","24.978505","6500600","新店區"
"231006","617-UM","2017/08/19 15:09:14","新北市新店區新坡一街60號","121.549816666667","24.963025","6500600","新店區"
"231001","619-UM","2017/08/19 15:09:21","新北市新店區中正路272號","121.538911666667","24.9736416666667","6500600","新店區"
"231039","718-UY","2017/08/19 15:09:09","新北市新店區寶元路一段61號","121.542193333333","24.98601","6500600","新店區"
"231033","720-UM","2017/08/19 15:09:26","新北市新店區安泰路109-3號","121.48666","24.9436716666667","6500600","新店區"
"231005","897-TW","2017/08/19 15:09:16","新北市新店區寶慶街82號","121.541436666667","24.986735","6500600","新店區"
"231004","899-TW","2017/08/19 15:09:21","新北市新店區博愛街13巷27號","121.54037","24.9742783333333","6500600","新店區"
"231037","AKT-0513","2017/08/19 15:09:15","新北市新店區安民街365巷1弄10號","121.516523333333","24.9750283333333","6500600","新店區"
"241025","887-TS","2017/08/19 15:09:09","新北市三重區重新路四段121號","121.485163333333","25.0521683333333","6500200","三重區"
"235030","003-UY","2017/08/19 15:09:22","新北市中和區水源路154巷2號","121.508145","25.00334","6500300","中和區"
"235020","096-UM","2017/08/19 15:09:17","新北市中和區中山路三段146-2號","121.47339","25.0071016666667","6500300","中和區"
"235003","097-UM","2017/08/19 15:09:13","新北市中和區安樂路217巷56號","121.512981666667","24.9976133333333","6500300","中和區"
"235029","098-UM","2017/08/19 15:09:03","新北市中和區福美路315號","121.496775","25.0046933333333","6500300","中和區"
"235004","150-BY","2017/08/19 15:09:03","新北市中和區保健路25-1號","121.508353333333","24.997945","6500300","中和區"
"235022","151-BY","2017/08/19 15:09:23","新北市中和區中正路764號","121.485191666667","24.9994533333333","6500300","中和區"
"235008","293-VK","2017/08/19 15:09:11","新北市中和區中正路91號","121.500411666667","24.9934583333333","6500300","中和區"
"235036","301-VK","2017/08/19 15:09:16","新北市中和區員山路36巷16-3號","121.484528333333","24.9911516666667","6500300","中和區"
"235007","352-BY","2017/08/19 15:09:16","新北市中和區興南路二段60號","121.506355","24.9848866666667","6500300","中和區"
"235015","376-QA","2017/08/19 15:09:19","新北市中和區景安路220巷1弄3號","121.503421666667","24.9906433333333","6500300","中和區"
"235014","4979-A6","2017/08/19 14:50:49","新北市中和區景平路211號","121.51086","24.9926183333333","6500300","中和區"
"235033","4980-A6","2017/08/19 15:09:25","新北市中和區景新街50巷10號","121.50344","24.9985233333333","6500300","中和區"
"235034","558-UM","2017/08/19 15:09:10","新北市中和區圓通路225號","121.496453333333","24.9943183333333","6500300","中和區"
"235018","640-BX","2017/08/19 15:09:07","新北市中和區民享街41號","121.474043333333","25.0029916666667","6500300","中和區"
"235011","732-UM","2017/08/19 15:08:47","新北市板橋區文化路二段620號","121.477328333333","25.0376933333333","6500300","中和區"
"235010","733-UM","2017/08/19 15:09:06","新北市中和區忠孝街39-11號","121.511998333333","24.9842416666667","6500300","中和區"
"235026","800-TS","2017/08/19 15:09:12","新北市中和區建八路141號","121.490226666667","24.998655","6500300","中和區"
"235012","896-TW","2017/08/19 15:09:19","新北市中和區興南路一段142-6號","121.508431666667","24.9871616666667","6500300","中和區"
"235001","AAC-213","2017/08/19 15:09:21","新北市中和區自立路141巷20號","121.523156666667","24.9935966666667","6500300","中和區"
"235023","AAC-215","2017/08/19 15:09:17","新北市中和區圓通路335巷33弄11號","121.493136666667","24.989155","6500300","中和區"
"220013","072-UY","2017/08/19 15:09:06","新北市板橋區民生路二段36-1號","121.472508333333","25.0167033333333","6500100","板橋區"
"220017","AAD-861","2017/08/19 15:09:08","新北市板橋區貴興路61號","121.457283333333","25.0031233333333","6500100","板橋區"
"228005","097-TW","2017/08/19 15:09:20","新北市貢寮區仁理村研海街20號","121.928455","25.037925","6502600","貢寮區"
"228004","212-TW","2017/08/19 14:39:53","新北市貢寮區貢寮里朝陽街1-2號","121.912333333333","25.0213083333333","6502600","貢寮區"
"228004","670-TC","2017/08/19 15:09:05","新北市貢寮區雙玉里田寮洋街16-2號","121.921818333333","25.0252316666667","6502600","貢寮區"
"227010","400-TW","2017/08/19 09:05:28","新北市雙溪區三貂里政光路3-1號","121.850933333333","25.063285","6502500","雙溪區"
"208004","AAC-292","2017/08/19 15:09:22","新北市金山區法鼓路555號","121.61511","25.239605","6502700","金山區"
"207002","749-BX","2017/08/19 15:09:09","新北市萬里區崁腳里內中福路14-3號","121.66276","25.16538","6502800","萬里區"
"207001","662-BX","2017/08/19 15:09:24","新北市萬里區雙興里麗水路8號","121.64851","25.18828","6502800","萬里區"
"236068","105-UM","2017/08/19 15:09:08","新北市土城區裕生路61號","121.447655","24.9861433333333","6501300","土城區"
"236041","107-UM","2017/08/19 15:09:22","新北市土城區學士路2號","121.454006666667","24.9833233333333","6501300","土城區"
"236075","166-UM","2017/08/19 15:09:06","新北市土城區中州路3巷43號","121.41335","24.956345","6501300","土城區"
"236029","253-BX","2017/08/19 15:09:25","新北市土城區福祥街61號","121.440951666667","24.9803016666667","6501300","土城區"
"236025","269-VK","2017/08/19 15:09:24","新北市土城區中正路67巷14號","121.444465","24.976175","6501300","土城區"
"236013","270-VK","2017/08/19 15:09:13","新北市土城區學府路一段73號","121.456971666667","24.9882083333333","6501300","土城區"
"236035","271-VK","2017/08/19 15:09:20","新北市土城區明德路一段187號","121.463951666667","24.97906","6501300","土城區"
"236017","401-BY","2017/08/19 15:09:18","新北市土城區峰廷街3號","121.469128333333","24.9873233333333","6501300","土城區"
"236057","912-UM","2017/08/19 15:09:20","新北市土城區金城路二段236號","121.456691666667","24.9829883333333","6501300","土城區"
"236045","913-UM","2017/08/19 15:09:11","新北市土城區清水路172號","121.459983333333","24.9816066666667","6501300","土城區"
"236054","AAC-216","2017/08/19 15:09:21","新北市土城區學府路一段276號","121.449983333333","24.98306","6501300","土城區"
"221012","276-VK","2017/08/19 13:20:01","新北市汐止區汐萬路一段256巷3號","121.653443333333","25.0746533333333","6501100","汐止區"
"221027","281-BY","2017/08/19 15:09:21","新北市汐止區汐萬路一段256巷1號","121.651815","25.07485","6501100","汐止區"
"220050","245-BX","2017/08/19 15:09:06","新北市板橋區莊敬路47號","121.473208333333","25.0268466666667","6500100","板橋區"
"220051","257-TC","2017/08/19 15:09:21","新北市板橋區縣民大道三段95號","121.47586","25.022045","6500100","板橋區"
"220001","285-VK","2017/08/19 15:09:18","新北市板橋區懷仁街92-4號","121.477535","25.0180983333333","6500100","板橋區"
"220031","286-VK","2017/08/19 15:09:15","新北市板橋區僑中二街90巷15號","121.44555","25.0092566666667","6500100","板橋區"
"220029","287-VK","2017/08/19 14:57:08","新北市板橋區僑中一街124巷18弄11號","121.446563333333","25.01369","6500100","板橋區"
"220009","293-UM","2017/08/19 15:09:15","新北市板橋區四川路一段268號","121.458745","25.0011566666667","6500100","板橋區"
"220003","295-UM","2017/08/19 15:09:16","新北市板橋區仁愛路58號","121.45962","24.9994016666667","6500100","板橋區"
"220032","296-UM","2017/08/19 15:09:19","新北市板橋區滿平街84巷98號","121.426438333333","24.986835","6500100","板橋區"
"241031","281-VK","2017/08/19 15:09:17","新北市新莊區碧江街27號","121.453421666667","25.0335733333333","6500200","三重區"
"220041","307-R5","2017/08/19 15:09:19","新北市板橋區民權路178號","121.459493333333","25.0133","6500100","板橋區"
"220038","487-VK","2017/08/19 15:09:23","新北市板橋區互助街68號","121.461046666667","25.0265983333333","6500100","板橋區"
"220037","491-VK","2017/08/19 15:09:10","新北市板橋區民治街92號","121.479241666667","25.031765","6500100","板橋區"
"220052","561-BX","2017/08/19 15:09:26","新北市板橋區自由路6號","121.465458333333","25.022425","6500100","板橋區"
"220025","687-BX","2017/08/19 15:09:07","新北市板橋區華東街1-10號","121.448335","24.99502","6500100","板橋區"
"220042","689-BX","2017/08/19 15:09:22","新北市板橋區宏國路77巷2弄5號","121.469528333333","25.0326216666667","6500100","板橋區"
"220014","829-TW","2017/08/19 15:09:23","新北市新莊區化成路585-15號","121.462465","25.067225","6500100","板橋區"
"220022","895-R6","2017/08/19 15:09:09","新北市板橋區東門街2巷42號","121.45764","25.007305","6500100","板橋區"
"220046","AAC-210","2017/08/19 15:09:23","新北市板橋區光正街57號","121.461696666667","25.0177983333333","6500100","板橋區"
"220018","AAC-253","2017/08/19 15:09:19","新北市板橋區德興街38巷6號","121.453093333333","24.9935766666667","6500100","板橋區"
