"lineid","car","time","location","longitude","latitude","cityid","cityname"
"234012","149-BY","2017/08/19 15:19:07","新北市八里區中華路二段165-1號","121.407585","25.15127","6500400","永和區"
"231002","002-UM","2017/08/19 15:19:22","台北市文山區景文街146巷26號","121.533431666667","24.9917433333333","6500600","新店區"
"231028","046-UY","2017/08/19 15:19:16","新北市新店區吉祥街9巷38號","121.498796666667","24.9467966666667","6500600","新店區"
"231030","047-UY","2017/08/19 15:19:18","新北市新店區安和路二段207號","121.51766","24.9752583333333","6500600","新店區"
"231029","106-UY","2017/08/19 15:19:15","新北市新店區安康路三段738號","121.473983333333","24.94192","6500600","新店區"
"231018","107-UY","2017/08/19 15:19:11","新北市新店區中央七街64號","121.527815","24.97627","6500600","新店區"
"231012","108-UY","2017/08/19 15:19:26","新北市新店區復興路17號","121.539411666667","24.9866183333333","6500600","新店區"
"231035","110-UY","2017/08/19 15:19:14","新北市新店區安和路三段35-1號","121.517113333333","24.9808133333333","6500600","新店區"
"231020","187-VK","2017/08/19 15:19:11","新北市新店區湖興路128-9號","121.565628333333","24.9313","6500600","新店區"
"231026","256-BX","2017/08/19 15:19:07","新北市新店區中正路263巷2號","121.538471666667","24.9734833333333","6500600","新店區"
"231034","268-BY","2017/08/19 15:19:18","新北市新店區玫瑰路38號","121.4959","24.9497333333333","6500600","新店區"
"231017","AAD-862","2017/08/19 15:16:17","新北市新店區明山路140號","121.565811666667","24.9592566666667","6500600","新店區"
"231024","3713-VJ","2017/08/19 15:19:08","新北市新店區新明街26巷5號","121.540886666667","24.968595","6500600","新店區"
"231025","4716-K9","2017/08/19 15:19:07","新北市新店區民權路115號","121.536293333333","24.98275","6500600","新店區"
"231036","512-UM","2017/08/19 15:19:20","新北市新店區安祥路69巷19號","121.481895","24.9613233333333","6500600","新店區"
"231023","513-UM","2017/08/19 15:19:12","新北市新店區行政街43號","121.543123333333","24.9656566666667","6500600","新店區"
"231003","616-UM","2017/08/19 15:19:18","新北市新店區寶高路120巷1-1號","121.554613333333","24.9759816666667","6500600","新店區"
"231001","619-UM","2017/08/19 15:19:21","新北市新店區北新路一段32號","121.540973333333","24.965795","6500600","新店區"
"231039","718-UY","2017/08/19 15:19:09","新北市新店區寶元路一段61號","121.542133333333","24.9859683333333","6500600","新店區"
"231033","720-UM","2017/08/19 15:19:26","新北市新店區和成街14巷2號","121.487888333333","24.9475833333333","6500600","新店區"
"231005","897-TW","2017/08/19 15:19:16","新北市新店區北新路三段62號","121.542163333333","24.980345","6500600","新店區"
"231004","899-TW","2017/08/19 15:19:26","新北市新店區博愛街13巷24號","121.540281666667","24.97406","6500600","新店區"
"231037","AKT-0513","2017/08/19 15:19:15","新北市新店區安興路91巷28-1號","121.512186666667","24.9747983333333","6500600","新店區"
"241013","270-UM","2017/08/19 15:19:07","新北市三重區重新路四段121號","121.484763333333","25.05264","6500200","三重區"
"241025","887-TS","2017/08/19 15:19:09","新北市三重區重新路四段121號","121.485066666667","25.0521466666667","6500200","三重區"
"235030","003-UY","2017/08/19 15:19:22","新北市中和區保平路342號","121.506605","25.00425","6500300","中和區"
"235020","096-UM","2017/08/19 15:19:17","新北市中和區員山路114號","121.481076666667","24.9956916666667","6500300","中和區"
"235003","097-UM","2017/08/19 15:19:13","新北市中和區安平路16號","121.509253333333","24.994215","6500300","中和區"
"235004","150-BY","2017/08/19 15:19:23","新北市中和區景安路79巷21號","121.507076666667","24.99677","6500300","中和區"
"235007","352-BY","2017/08/19 15:19:16","新北市中和區興南路二段159巷12號","121.505131666667","24.9831766666667","6500300","中和區"
"235014","4979-A6","2017/08/19 14:50:49","新北市中和區景平路211號","121.51086","24.9926183333333","6500300","中和區"
"235033","4980-A6","2017/08/19 15:19:05","新北市中和區圓通路39號","121.500886666667","24.9976783333333","6500300","中和區"
"235011","732-UM","2017/08/19 15:08:47","新北市板橋區文化路二段620號","121.477328333333","25.0376933333333","6500300","中和區"
"235026","800-TS","2017/08/19 15:19:12","新北市中和區連城路222巷4弄2號","121.491035","24.9974283333333","6500300","中和區"
"235012","896-TW","2017/08/19 15:19:19","新北市中和區景新街379號","121.512325","24.990285","6500300","中和區"
"235001","AAC-213","2017/08/19 15:19:22","新北市中和區景平路98號","121.520258333333","24.9912983333333","6500300","中和區"
"235023","AAC-215","2017/08/19 15:19:17","新北市中和區錦和路408號","121.491071666667","24.989615","6500300","中和區"
"220017","AAD-861","2017/08/19 15:19:25","新北市板橋區貴興路113號","121.455783333333","25.0025583333333","6500100","板橋區"
"228005","097-TW","2017/08/19 15:19:20","新北市貢寮區仁理村研海街62號","121.92881","25.0356766666667","6502600","貢寮區"
"228004","212-TW","2017/08/19 14:39:53","新北市貢寮區貢寮里朝陽街1-2號","121.912333333333","25.0213083333333","6502600","貢寮區"
"227010","400-TW","2017/08/19 09:05:28","新北市雙溪區三貂里政光路3-1號","121.850933333333","25.063285","6502500","雙溪區"
"208004","AAC-292","2017/08/19 15:19:22","新北市金山區六股里下六股1-1號","121.62846","25.225055","6502700","金山區"
"207001","662-BX","2017/08/19 15:19:04","新北市萬里區大鵬里萬里加投14號","121.650355","25.20912","6502800","萬里區"
"236068","105-UM","2017/08/19 15:19:09","新北市土城區學成路67-1號","121.451288333333","24.9881133333333","6501300","土城區"
"236041","107-UM","2017/08/19 15:19:22","新北市土城區裕民路185巷9號","121.453983333333","24.9848666666667","6501300","土城區"
"236075","166-UM","2017/08/19 15:19:26","新北市土城區中州路32號","121.413128333333","24.957945","6501300","土城區"
"236029","253-BX","2017/08/19 15:19:12","新北市土城區中央路一段260巷25號","121.442658333333","24.9846833333333","6501300","土城區"
"236025","269-VK","2017/08/19 15:19:22","新北市土城區中央路二段61巷56號","121.44462","24.9781733333333","6501300","土城區"
"236013","270-VK","2017/08/19 15:19:16","新北市土城區學府路一段52號","121.457421666667","24.9885666666667","6501300","土城區"
"236035","271-VK","2017/08/19 15:19:26","新北市土城區國際路91號","121.467275","24.9758316666667","6501300","土城區"
"236017","401-BY","2017/08/19 15:19:18","新北市土城區峰廷街3號","121.469123333333","24.9873516666667","6501300","土城區"
"236057","912-UM","2017/08/19 15:19:24","新北市土城區金城路一段19號","121.439661666667","24.9690616666667","6501300","土城區"
"236045","913-UM","2017/08/19 15:18:48","新北市土城區明德路一段35號","121.465291666667","24.9853583333333","6501300","土城區"
"236061","915-UM","2017/08/19 15:19:15","新北市土城區延平街69巷8號","121.467295","24.9928183333333","6501300","土城區"
"236054","AAC-216","2017/08/19 15:19:21","新北市土城區學府路一段212號","121.452306666667","24.9853033333333","6501300","土城區"
"221012","276-VK","2017/08/19 13:20:01","新北市汐止區汐萬路一段256巷3號","121.653443333333","25.0746533333333","6501100","汐止區"
"221027","281-BY","2017/08/19 15:09:21","新北市汐止區汐萬路一段256巷1號","121.651815","25.07485","6501100","汐止區"
"220050","245-BX","2017/08/19 15:19:06","新北市板橋區漢生東路83巷1號","121.466416666667","25.01599","6500100","板橋區"
"220051","257-TC","2017/08/19 15:19:21","新北市板橋區文化路一段309-1號","121.466123333333","25.0200733333333","6500100","板橋區"
"220031","286-VK","2017/08/19 15:19:07","新北市板橋區僑中二街102巷13號","121.445486666667","25.00832","6500100","板橋區"
"220029","287-VK","2017/08/19 15:19:15","新北市板橋區大觀路二段142號","121.442775","24.9990466666667","6500100","板橋區"
"241031","281-VK","2017/08/19 15:19:17","新北市新莊區碧江街27號","121.453498333333","25.0335316666667","6500200","三重區"
"220038","487-VK","2017/08/19 15:19:23","新北市板橋區四維路139號","121.465085","25.0253766666667","6500100","板橋區"
"220052","561-BX","2017/08/19 15:19:26","新北市板橋區新海路11號","121.462478333333","25.0207433333333","6500100","板橋區"
"220042","689-BX","2017/08/19 15:19:15","新北市板橋區長江路一段36號","121.458361666667","25.0288583333333","6500100","板橋區"
"220014","829-TW","2017/08/19 15:19:23","新北市八里區商港路50號","121.395545","25.1459966666667","6500100","板橋區"
"220018","AAC-253","2017/08/19 15:19:18","新北市板橋區四川路二段245巷3號","121.450535","24.9933316666667","6500100","板橋區"
