"lineid","car","time","location","longitude","latitude","cityid","cityname"
"231028","046-UY","2017/08/19 15:39:16","新北市新店區僑信路2巷2號","121.499808333333","24.9535316666667","6500600","新店區"
"231030","047-UY","2017/08/19 15:39:18","新北市新店區永安街109巷22號","121.521498333333","24.98587","6500600","新店區"
"231029","106-UY","2017/08/19 15:39:15","新北市新店區安康路三段47號","121.492696666667","24.9525666666667","6500600","新店區"
"231018","107-UY","2017/08/19 15:39:11","新北市新店區民生路156巷14號","121.528533333333","24.9811483333333","6500600","新店區"
"231012","108-UY","2017/08/19 15:39:06","新北市新店區文化路92號","121.544916666667","24.9825283333333","6500600","新店區"
"231035","110-UY","2017/08/19 15:39:14","新北市新店區安興路69-1號","121.515773333333","24.9752616666667","6500600","新店區"
"231020","187-VK","2017/08/19 15:39:11","新北市新店區金興路24號","121.551945","24.9306516666667","6500600","新店區"
"231026","256-BX","2017/08/19 15:39:07","新北市新店區三民路75巷5弄1號","121.535566666667","24.970825","6500600","新店區"
"231034","268-BY","2017/08/19 15:39:18","新北市新店區玫瑰路58巷19號","121.49453","24.9466516666667","6500600","新店區"
"231046","278-BY","2017/08/19 15:39:19","新北市新店區安華路28-1號","121.519553333333","24.9611616666667","6500600","新店區"
"231017","AAD-862","2017/08/19 15:39:17","新北市新店區北宜路二段150-2號","121.558013333333","24.9540866666667","6500600","新店區"
"231038","4715-K9","2017/08/19 15:39:09","新北市新店區安康路一段258號","121.520498333333","24.96417","6500600","新店區"
"231036","512-UM","2017/08/19 15:39:20","新北市新店區安祥路35-1號","121.492055","24.9551416666667","6500600","新店區"
"231023","513-UM","2017/08/19 15:39:12","新北市新店區中興路一段283號","121.54522","24.968505","6500600","新店區"
"231003","616-UM","2017/08/19 15:39:18","新北市新店區寶興路42巷1號","121.549241666667","24.9729733333333","6500600","新店區"
"231039","718-UY","2017/08/19 15:39:09","新北市新店區寶元路二段64巷1號","121.547238333333","24.981045","6500600","新店區"
"231013","719-UM","2017/08/19 15:39:10","新北市新店區永業路81巷62號","121.529138333333","24.9481516666667","6500600","新店區"
"231033","720-UM","2017/08/19 15:39:06","新北市新店區雙城路133號","121.497901666667","24.938785","6500600","新店區"
"231005","897-TW","2017/08/19 15:39:20","新北市新店區建國路182號","121.537961666667","24.9800816666667","6500600","新店區"
"231037","AKT-0513","2017/08/19 15:39:15","新北市新店區安興路112號","121.51456","24.977545","6500600","新店區"
"241011","013-R5","2017/08/19 15:39:10","新北市三重區仁愛街39號","121.496826666667","25.0714983333333","6500200","三重區"
"241028","022-UY","2017/08/19 15:39:15","新北市三重區重新路四段121號","121.484766666667","25.05243","6500200","三重區"
"241015","062-VK","2017/08/19 15:39:23","新北市三重區重新路四段121號","121.485108333333","25.0519433333333","6500200","三重區"
"241017","063-VK","2017/08/19 15:39:21","新北市三重區新北大道一段8號","121.48857","25.0613666666667","6500200","三重區"
"241026","066-VK","2017/08/19 15:39:23","新北市三重區重新路四段121號","121.484695","25.0520266666667","6500200","三重區"
"241016","266-UM","2017/08/19 15:39:20","新北市三重區重新路四段121號","121.485221666667","25.0518683333333","6500200","三重區"
"241013","270-UM","2017/08/19 15:39:07","新北市三重區忠孝路一段87號","121.489768333333","25.072125","6500200","三重區"
"241014","543-UM","2017/08/19 15:39:09","新北市三重區重新路四段121號","121.485125","25.0517583333333","6500200","三重區"
"241023","545-UM","2017/08/19 15:39:06","新北市三重區重新路四段121號","121.484831666667","25.0525016666667","6500200","三重區"
"241029","942-UM","2017/08/19 15:39:14","新北市三重區大同南路196號","121.496743333333","25.0567566666667","6500200","三重區"
"241033","AAC-255","2017/08/19 15:39:19","新北市三重區後埔街61-1號","121.479371666667","25.048095","6500200","三重區"
"235020","096-UM","2017/08/19 15:24:28","新北市中和區員山路36巷16號","121.484403333333","24.9914266666667","6500300","中和區"
"235033","4980-A6","2017/08/19 15:39:05","新北市中和區員山路359巷2號","121.480955","25.0020816666667","6500300","中和區"
"235011","732-UM","2017/08/19 15:08:47","新北市板橋區文化路二段620號","121.477328333333","25.0376933333333","6500300","中和區"
"235062","800-TS","2017/08/19 15:30:49","新北市中和區員山路36巷16-3號","121.485","24.9914166666667","6500300","中和區"
"235001","AAC-213","2017/08/19 15:39:21","新北市五股區中直路21號","121.420628333333","25.1121966666667","6500300","中和區"
"235023","AAC-215","2017/08/19 15:39:17","新北市中和區員山路32號","121.480911666667","24.9876733333333","6500300","中和區"
"228004","212-TW","2017/08/19 14:39:53","新北市貢寮區貢寮里朝陽街1-2號","121.912333333333","25.0213083333333","6502600","貢寮區"
"227002","642-TC","2017/08/19 15:39:06","新北市雙溪區牡丹里頂坪5-1號","121.862903333333","25.0389216666667","6502500","雙溪區"
"227010","400-TW","2017/08/19 09:05:28","新北市雙溪區三貂里政光路3-1號","121.850933333333","25.063285","6502500","雙溪區"
"208004","AAC-292","2017/08/19 15:39:22","新北市金山區月眉25號","121.629286666667","25.21502","6502700","金山區"
"252005","249-BX","2017/08/19 15:24:17","新北市三芝區埔坪里埔頭坑41號","121.504435","25.26448","6502100","三芝區"
"236068","105-UM","2017/08/19 15:39:08","新北市土城區水源街34號","121.440895","24.9756883333333","6501300","土城區"
"236075","166-UM","2017/08/19 15:39:26","新北市土城區中央路四段293巷21號","121.411528333333","24.9514516666667","6501300","土城區"
"236029","253-BX","2017/08/19 15:39:12","新北市土城區中央路一段45巷13號","121.44911","24.9900383333333","6501300","土城區"
"236025","269-VK","2017/08/19 15:39:18","新北市土城區裕生路67巷8弄1號","121.448088333333","24.9844316666667","6501300","土城區"
"236013","270-VK","2017/08/19 15:39:13","新北市土城區廣明街70號","121.455075","24.9937483333333","6501300","土城區"
"236017","401-BY","2017/08/19 15:39:18","新北市土城區延吉街71號","121.472068333333","24.9873216666667","6501300","土城區"
"236057","912-UM","2017/08/19 15:39:20","新北市土城區中央路一段114號","121.446561666667","24.9881233333333","6501300","土城區"
"236045","913-UM","2017/08/19 15:39:08","新北市土城區金城路三段293號","121.473985","24.99094","6501300","土城區"
"236061","915-UM","2017/08/19 15:39:15","新北市土城區延和路12巷11號","121.464551666667","24.987705","6501300","土城區"
"236054","AAC-216","2017/08/19 15:39:21","新北市土城區學府路一段50號","121.457678333333","24.9884433333333","6501300","土城區"
"221012","276-VK","2017/08/19 13:20:01","新北市汐止區汐萬路一段256巷3號","121.653443333333","25.0746533333333","6501100","汐止區"
"221027","281-BY","2017/08/19 15:09:21","新北市汐止區汐萬路一段256巷1號","121.651815","25.07485","6501100","汐止區"
"241031","281-VK","2017/08/19 15:39:16","新北市新莊區瓊林路59-82號","121.44199","25.0227733333333","6500200","三重區"
"220052","561-BX","2017/08/19 15:39:26","新北市板橋區漢生東路63巷1號","121.465816666667","25.0163916666667","6500100","板橋區"
