"lineid","car","time","location","longitude","latitude","cityid","cityname"
"249002","305-UY","2017/08/19 16:29:26","新北市八里區忠孝路193號","121.422548333333","25.160855","6502300","八里區"
"234067","AAC-212","2017/08/19 16:21:06","新北市永和區福和路1號","121.526308333333","25.00964","6500400","永和區"
"231046","278-BY","2017/08/19 16:29:19","新北市新店區灣潭路3-3號","121.53823","24.9508133333333","6500600","新店區"
"241011","013-R5","2017/08/19 16:29:10","新北市三重區龍濱路190號","121.501198333333","25.07317","6500200","三重區"
"241028","022-UY","2017/08/19 16:29:15","新北市三重區重安街170巷6號","121.4965","25.054765","6500200","三重區"
"241008","059-VK","2017/08/19 16:29:10","新北市三重區永福街122-2號","121.479076666667","25.07533","6500200","三重區"
"241009","060-VK","2017/08/19 16:29:10","新北市三重區三和路四段203巷131號","121.48499","25.080015","6500200","三重區"
"241031","061-VK","2017/08/19 16:29:12","新北市三重區重陽路一段49號","121.486745","25.0581883333333","6500200","三重區"
"241015","062-VK","2017/08/19 16:29:23","新北市三重區信義街64號","121.501313333333","25.0651716666667","6500200","三重區"
"241017","063-VK","2017/08/19 16:29:21","新北市三重區重新路三段1號","121.495476666667","25.06191","6500200","三重區"
"241024","065-VK","2017/08/19 16:29:05","新北市三重區中正北路193巷27號","121.476193333333","25.0705783333333","6500200","三重區"
"241026","066-VK","2017/08/19 16:29:23","新北市三重區文化南路42號","121.500361666667","25.060355","6500200","三重區"
"241002","090-VK","2017/08/19 16:29:19","新北市三重區仁義街161號","121.497098333333","25.0811433333333","6500200","三重區"
"241003","091-VK","2017/08/19 16:29:12","新北市三重區仁義街220巷1號","121.495326666667","25.084145","6500200","三重區"
"241006","156-TC","2017/08/19 16:29:06","新北市三重區力行路二段136巷11弄24號","121.481765","25.0764216666667","6500200","三重區"
"241005","262-UM","2017/08/19 16:29:08","新北市三重區溪尾街260號","121.487441666667","25.08294","6500200","三重區"
"241016","266-UM","2017/08/19 16:29:20","新北市三重區大智街21號","121.494265","25.0657516666667","6500200","三重區"
"241022","267-UM","2017/08/19 16:29:24","新北市三重區三民街55號","121.486018333333","25.0622916666667","6500200","三重區"
"241018","268-UM","2017/08/19 16:29:11","新北市三重區重陽路四段5號","121.490916666667","25.0689183333333","6500200","三重區"
"241032","269-UM","2017/08/19 16:29:22","新北市三重區三陽路100巷3弄13號","121.483","25.0581533333333","6500200","三重區"
"241013","270-UM","2017/08/19 16:29:26","新北市三重區龍門路60號","121.496613333333","25.0727366666667","6500200","三重區"
"241007","398-BY","2017/08/19 16:29:08","新北市三重區溪尾街191號","121.48868","25.08057","6500200","三重區"
"241020","412-TH","2017/08/19 16:29:25","新北市三重區車路頭街37巷34號","121.484848333333","25.0718983333333","6500200","三重區"
"241004","475-VK","2017/08/19 16:29:09","新北市三重區仁愛街371號","121.491788333333","25.0804533333333","6500200","三重區"
"241019","478-VK","2017/08/19 16:29:14","新北市三重區重陽路三段95號","121.4902","25.0679216666667","6500200","三重區"
"241030","480-VK","2017/08/19 16:29:14","新北市三重區成功路106-1號","121.48743","25.0514983333333","6500200","三重區"
"241014","543-UM","2017/08/19 16:29:09","新北市三重區河邊北街72-6號","121.504335","25.0685783333333","6500200","三重區"
"241023","545-UM","2017/08/19 16:29:26","新北市三重區忠孝路三段50巷82號","121.483003333333","25.06451","6500200","三重區"
"241001","547-UM","2017/08/19 16:29:15","新北市三重區仁政街155巷9號","121.491905","25.0793833333333","6500200","三重區"
"241025","887-TS","2017/08/19 16:29:19","新北市三重區中正北路560巷100弄2號","121.472595","25.0682316666667","6500200","三重區"
"241012","941-UM","2017/08/19 16:29:23","新北市三重區河邊北街272號","121.501588333333","25.076565","6500200","三重區"
"241029","942-UM","2017/08/19 16:29:14","新北市三重區集美街126巷14號","121.489545","25.0537466666667","6500200","三重區"
"241033","AAC-255","2017/08/19 16:29:19","新北市三重區五谷王北街20巷15弄2號","121.474985","25.048375","6500200","三重區"
"235020","096-UM","2017/08/19 15:24:28","新北市中和區員山路36巷16號","121.484403333333","24.9914266666667","6500300","中和區"
"235067","255-BX","2017/08/19 16:16:04","新北市中和區員山路36巷13號","121.484306666667","24.9913216666667","6500300","中和區"
"235011","732-UM","2017/08/19 15:08:47","新北市板橋區文化路二段620號","121.477328333333","25.0376933333333","6500300","中和區"
"235062","800-TS","2017/08/19 15:30:49","新北市中和區員山路36巷16-3號","121.485","24.9914166666667","6500300","中和區"
"247008","339-TH","2017/08/19 16:29:07","新北市五股區中興路三段5號","121.44907","25.0799083333333","6501400","蘆洲區"
"228004","212-TW","2017/08/19 15:52:28","新北市貢寮區貢寮里朝陽街1-2號","121.91221","25.0212483333333","6502600","貢寮區"
"224008","275-VK","2017/08/19 16:29:06","新北市瑞芳區逢甲路20-1號","121.809281666667","25.1084266666667","6501200","瑞芳區"
"224007","273-VK","2017/08/19 16:29:05","新北市瑞芳區大埔路183號","121.763383333333","25.1020733333333","6501200","瑞芳區"
"224005","271-BY","2017/08/19 16:29:20","新北市瑞芳區瑞濱路85號","121.821926666667","25.1200883333333","6501200","瑞芳區"
"227002","642-TC","2017/08/19 16:29:06","新北市雙溪區上林里內平林111號","121.826218333333","25.0270233333333","6502500","雙溪區"
"227010","400-TW","2017/08/19 16:29:11","新北市雙溪區牡丹里中正路61巷12號","121.868641666667","25.0448766666667","6502500","雙溪區"
"251014","180-VK","2017/08/19 16:29:06","新北市淡水區中正路二段18號","121.419685","25.18115","6501000","淡水區"
"251008","181-VK","2017/08/19 16:29:15","新北市淡水區樹梅坑9號","121.472793333333","25.1426433333333","6501000","淡水區"
"251016","442-VK","2017/08/19 16:29:26","新北市淡水區新春街28號","121.436805","25.1813083333333","6501000","淡水區"
"252002","178-VK","2017/08/19 16:29:07","新北市三芝區茂長里陳厝坑64-2號","121.511755","25.254795","6502100","三芝區"
"236057","912-UM","2017/08/19 16:29:20","新北市樹林區八德街588號","121.397783333333","24.9692666666667","6501300","土城區"
"221012","276-VK","2017/08/19 13:20:01","新北市汐止區汐萬路一段256巷3號","121.653443333333","25.0746533333333","6501100","汐止區"
"221027","281-BY","2017/08/19 15:09:21","新北市汐止區汐萬路一段256巷1號","121.651815","25.07485","6501100","汐止區"
"241031","281-VK","2017/08/19 16:29:16","新北市新莊區環河路636-7號","121.437395","25.011205","6500200","三重區"
