"lineid","car","time","location","longitude","latitude","cityid","cityname"
"249005","172-UM","2017/08/19 16:49:21","新北市八里區大堀湖2-3號","121.422336666667","25.1537633333333","6502300","八里區"
"249001","173-UM","2017/08/19 16:49:16","新北市八里區博物館路10-1號","121.415166666667","25.1641333333333","6502300","八里區"
"249004","303-UY","2017/08/19 16:49:11","新北市八里區文昌路101號","121.408636666667","25.15911","6502300","八里區"
"249002","305-UY","2017/08/19 16:49:26","新北市八里區牛寮埔33號","121.429901666667","25.1457","6502300","八里區"
"249003","593-UM","2017/08/19 16:49:18","新北市八里區中山路二段181號","121.404728333333","25.1501483333333","6502300","八里區"
"234067","AAC-212","2017/08/19 16:21:06","新北市永和區福和路1號","121.526308333333","25.00964","6500400","永和區"
"244007","080-UY","2017/08/19 16:49:11","新北市林口區中山路1號","121.39692","25.0778666666667","6501700","林口區"
"244019","403-UM","2017/08/19 16:49:14","新北市林口區粉寮69號","121.405096666667","25.0908083333333","6501700","林口區"
"231046","278-BY","2017/08/19 16:49:19","新北市新店區灣潭路29-5號","121.539623333333","24.9386733333333","6500600","新店區"
"241011","013-R5","2017/08/19 16:49:10","新北市三重區公園街7號","121.499581666667","25.07271","6500200","三重區"
"241028","022-UY","2017/08/19 16:49:15","新北市三重區光興街89號","121.497411666667","25.0600183333333","6500200","三重區"
"241008","059-VK","2017/08/19 16:49:10","新北市三重區永福街177巷17號","121.478046666667","25.0752216666667","6500200","三重區"
"241009","060-VK","2017/08/19 16:49:10","新北市三重區三和路四段203巷268號","121.48763","25.081105","6500200","三重區"
"241031","061-VK","2017/08/19 16:49:12","新北市三重區重陽路一段113巷8號","121.488138333333","25.0600716666667","6500200","三重區"
"241015","062-VK","2017/08/19 16:49:23","新北市三重區文化北路45號","121.499026666667","25.0655","6500200","三重區"
"241017","063-VK","2017/08/19 16:49:22","新北市三重區國隆路8巷19號","121.492941666667","25.063545","6500200","三重區"
"241024","065-VK","2017/08/19 16:49:25","新北市三重區中正北路317巷29號","121.475898333333","25.0730183333333","6500200","三重區"
"241026","066-VK","2017/08/19 16:49:22","新北市三重區文化南路10巷12號","121.500658333333","25.0621333333333","6500200","三重區"
"241002","090-VK","2017/08/19 16:49:09","新北市三重區仁義街188號","121.496686666667","25.0816116666667","6500200","三重區"
"241003","091-VK","2017/08/19 16:49:12","新北市三重區五華街87巷24號","121.492885","25.0838566666667","6500200","三重區"
"241006","156-TC","2017/08/19 16:49:13","新北市三重區車路頭街129號","121.484195","25.0754983333333","6500200","三重區"
"241005","262-UM","2017/08/19 16:49:09","新北市三重區仁華街62巷19號","121.483716666667","25.083735","6500200","三重區"
"241016","266-UM","2017/08/19 16:49:20","新北市三重區大同北路115巷19號","121.493826666667","25.0647183333333","6500200","三重區"
"241022","267-UM","2017/08/19 16:49:04","新北市三重區貴陽街47巷2號","121.484826666667","25.0627916666667","6500200","三重區"
"241018","268-UM","2017/08/19 16:49:11","新北市三重區正義北路296號","121.495418333333","25.0695466666667","6500200","三重區"
"241032","269-UM","2017/08/19 16:49:22","新北市三重區重陽路一段120巷31號","121.485416666667","25.0601883333333","6500200","三重區"
"241013","270-UM","2017/08/19 16:49:06","新北市三重區三和路三段101巷64號","121.49626","25.0729833333333","6500200","三重區"
"241007","398-BY","2017/08/19 16:49:08","新北市三重區三和路四段181巷64號","121.484031666667","25.07946","6500200","三重區"
"241020","412-TH","2017/08/19 16:49:05","新北市三重區忠孝路二段35號","121.485941666667","25.0710733333333","6500200","三重區"
"241004","475-VK","2017/08/19 16:49:09","新北市三重區仁愛街418號","121.49042","25.0813516666667","6500200","三重區"
"241019","478-VK","2017/08/19 16:49:14","新北市三重區力行路一段179巷17弄1號","121.485035","25.0698933333333","6500200","三重區"
"241030","480-VK","2017/08/19 16:49:14","新北市三重區環河南路221巷3號","121.492288333333","25.0521733333333","6500200","三重區"
"241014","543-UM","2017/08/19 16:49:09","新北市三重區長榮路75號","121.50264","25.069075","6500200","三重區"
"241023","545-UM","2017/08/19 16:49:06","新北市三重區新北大道一段206巷16號","121.482508333333","25.0621216666667","6500200","三重區"
"241001","547-UM","2017/08/19 16:49:13","新北市三重區仁政街76巷13號","121.491961666667","25.07713","6500200","三重區"
"241025","887-TS","2017/08/19 16:49:19","新北市三重區中正北路530巷19號","121.471985","25.0704916666667","6500200","三重區"
"241012","941-UM","2017/08/19 16:49:23","新北市三重區河邊北街214號","121.50202","25.0748616666667","6500200","三重區"
"241029","942-UM","2017/08/19 16:49:14","新北市三重區集美街207巷25號","121.492433333333","25.053965","6500200","三重區"
"241033","AAC-255","2017/08/19 16:49:19","新北市三重區新北大道二段202-1號","121.468078333333","25.061625","6500200","三重區"
"235020","096-UM","2017/08/19 15:24:28","新北市中和區員山路36巷16號","121.484403333333","24.9914266666667","6500300","中和區"
"235067","255-BX","2017/08/19 16:16:04","新北市中和區員山路36巷13號","121.484306666667","24.9913216666667","6500300","中和區"
"235011","732-UM","2017/08/19 15:08:47","新北市板橋區文化路二段620號","121.477328333333","25.0376933333333","6500300","中和區"
"235062","800-TS","2017/08/19 16:49:19","新北市中和區員山路36巷16-3號","121.485091666667","24.99144","6500300","中和區"
"247008","339-TH","2017/08/19 16:49:07","新北市蘆洲區中山一路176號","121.47414","25.0810716666667","6501400","蘆洲區"
"247002","336-TH","2017/08/19 16:49:06","新北市五股區凌雲路一段50號","121.451665","25.1008083333333","6501400","蘆洲區"
"247014","057-VK","2017/08/19 16:49:07","新北市蘆洲區三民路95號","121.474068333333","25.0848966666667","6501400","蘆洲區"
"247004","056-VK","2017/08/19 16:49:21","新北市蘆洲區長榮路106號","121.461771666667","25.084085","6501400","蘆洲區"
"247006","053-VK","2017/08/19 16:49:26","新北市五股區四維路185巷60號","121.462305","25.0783016666667","6501400","蘆洲區"
"247016","001-UY","2017/08/19 16:49:23","新北市蘆洲區正和街3號","121.47042","25.0827333333333","6501400","蘆洲區"
"228003","097-TW","2017/08/19 16:49:10","新北市貢寮區龍崗里嵩陽街38號","121.908616666667","25.0164316666667","6502600","貢寮區"
"228004","212-TW","2017/08/19 15:52:28","新北市貢寮區貢寮里朝陽街1-2號","121.91221","25.0212483333333","6502600","貢寮區"
"228002","585-TW","2017/08/19 16:49:17","新北市貢寮區貢寮里朝陽街142號","121.904486666667","25.0236833333333","6502600","貢寮區"
"228001","670-TC","2017/08/19 16:49:23","新北市貢寮區貢寮里朝陽街1-2號","121.912315","25.02124","6502600","貢寮區"
"224008","275-VK","2017/08/19 16:49:06","新北市瑞芳區逢甲路20-1號","121.809366666667","25.1085","6501200","瑞芳區"
"224007","273-VK","2017/08/19 16:49:24","新北市瑞芳區中央路48巷56-6號","121.760523333333","25.1035933333333","6501200","瑞芳區"
"224005","271-BY","2017/08/19 16:49:20","新北市瑞芳區洞頂路8-1號","121.862241666667","25.121025","6501200","瑞芳區"
"227002","642-TC","2017/08/19 16:49:06","新北市雙溪區外柑里外柑腳71號","121.807103333333","25.0175866666667","6502500","雙溪區"
"227010","400-TW","2017/08/19 16:49:11","新北市雙溪區牡丹里五分2號","121.866665","25.0471116666667","6502500","雙溪區"
"251014","180-VK","2017/08/19 16:49:06","新北市淡水區淡金路三段280-1號","121.448845","25.206965","6501000","淡水區"
"251008","181-VK","2017/08/19 16:49:15","新北市淡水區樹梅坑9號","121.472723333333","25.1427083333333","6501000","淡水區"
"251010","413-VK","2017/08/19 16:49:05","新北市淡水區中正路二段31號","121.41954","25.181485","6501000","淡水區"
"251012","441-VK","2017/08/19 16:49:15","新北市淡水區中正路二段31號","121.419726666667","25.1814983333333","6501000","淡水區"
"251016","442-VK","2017/08/19 16:49:07","新北市淡水區水頭42號","121.478148333333","25.1850783333333","6501000","淡水區"
"252002","178-VK","2017/08/19 16:49:27","新北市三芝區忠孝街140-1號","121.50611","25.2581683333333","6502100","三芝區"
"252005","249-BX","2017/08/19 16:49:21","新北市三芝區埔坪里埔頭坑41號","121.504765","25.2642766666667","6502100","三芝區"
"252001","292-VK","2017/08/19 16:49:21","新北市三芝區埔坪里埔頭坑107號","121.504706666667","25.261715","6502100","三芝區"
"242027","612-BX","2017/08/19 16:49:17","新北市新莊區新泰路357巷3弄57號","121.442166666667","25.0393383333333","6500500","新莊區"
"242039","400-BY","2017/08/19 16:49:11","新北市新莊區新泰路357巷3弄57號","121.442103333333","25.039565","6500500","新莊區"
"242061","362-BY","2017/08/19 16:49:19","新北市新莊區三和路12-21號","121.442201666667","25.0386766666667","6500500","新莊區"
"242044","132-UY","2017/08/19 16:49:20","新北市新莊區新泰路255巷83號","121.442103333333","25.0388616666667","6500500","新莊區"
"242034","133-UY","2017/08/19 16:49:05","新北市新莊區新泰路255巷83號","121.442076666667","25.0389433333333","6500500","新莊區"
"242011","346-TH","2017/08/19 16:49:12","新北市新莊區三和路12-18號","121.442071666667","25.037635","6500500","新莊區"
"242017","348-TH","2017/08/19 16:49:23","新北市新莊區新泰路357巷3弄57號","121.442035","25.0396283333333","6500500","新莊區"
"238021","311-TH","2017/08/18 20:36:22","新北市樹林區八德街1010號","121.391416666667","24.9686133333333","6500700","樹林區"
"239007","AAC-297","2017/08/19 16:49:24","新北市鶯歌區二甲路13-16號","121.344933333333","24.93547","6500800","鶯歌區"
"239008","527-UM","2017/08/19 16:49:24","新北市鶯歌區二甲路13-16號","121.34492","24.935265","6500800","鶯歌區"
"239005","526-UM","2017/08/19 16:49:10","新北市鶯歌區二甲路13-16號","121.344966666667","24.9353483333333","6500800","鶯歌區"
"239001","417-VK","2017/08/19 16:49:18","新北市鶯歌區二甲路12-2號","121.345508333333","24.935115","6500800","鶯歌區"
"239003","360-BY","2017/08/19 16:49:06","新北市鶯歌區二甲路12-2號","121.345503333333","24.9351466666667","6500800","鶯歌區"
"239002","359-BY","2017/08/19 11:52:43","新北市鶯歌區二甲路13號","121.343943333333","24.9354866666667","6500800","鶯歌區"
"221012","276-VK","2017/08/19 13:20:01","新北市汐止區汐萬路一段256巷3號","121.653443333333","25.0746533333333","6501100","汐止區"
"221027","281-BY","2017/08/19 15:09:21","新北市汐止區汐萬路一段256巷1號","121.651815","25.07485","6501100","汐止區"
"241031","281-VK","2017/08/19 16:49:16","新北市新莊區環河路636-7號","121.437393333333","25.0111916666667","6500200","三重區"
