"lineid","car","time","location","longitude","latitude","cityid","cityname"
"234026","9371-KE","2017/08/19 17:49:14","新北市永和區永平路173號","121.510555","25.0091066666667","6500400","永和區"
"249005","172-UM","2017/08/19 17:49:21","新北市八里區荖阡坑路41-10號","121.402226666667","25.1328866666667","6502300","八里區"
"249001","173-UM","2017/08/19 17:49:17","新北市八里區龍米路二段137號","121.444641666667","25.1482433333333","6502300","八里區"
"249004","303-UY","2017/08/19 17:49:11","新北市八里區中華路一段201號","121.417938333333","25.156105","6502300","八里區"
"249002","305-UY","2017/08/19 17:49:06","新北市八里區龍形五街37巷3號","121.44853","25.1324716666667","6502300","八里區"
"249003","593-UM","2017/08/19 17:49:08","新北市八里區中山路二段123號","121.405453333333","25.1518733333333","6502300","八里區"
"248006","077-UY","2017/08/19 17:49:11","新北市五股區中興路二段37巷28號","121.460125","25.0749083333333","6501500","五股區"
"248008","095-VK","2017/08/19 17:49:16","新北市五股區中興路二段83巷26-6號","121.460065","25.0751533333333","6501500","五股區"
"248014","261-SL","2017/08/19 17:49:08","新北市五股區中興路二段37巷28號","121.460206666667","25.075175","6501500","五股區"
"234067","AAC-212","2017/08/19 17:49:23","新北市永和區福和路1號","121.526343333333","25.0096183333333","6500400","永和區"
"232011","375-UM","2017/08/19 17:49:16","新北市坪林區北宜路八段152號","121.707","24.934405","6502000","坪林區"
"244007","080-UY","2017/08/19 17:49:11","新北市林口區竹林路159號","121.388766666667","25.079935","6501700","林口區"
"244019","403-UM","2017/08/19 17:49:14","新北市林口區文化一路一段133號","121.373801666667","25.0718333333333","6501700","林口區"
"244009","410-SL","2017/08/19 17:49:23","新北市林口區中北三街59號","121.38479","25.0855666666667","6501700","林口區"
"244017","656-BX","2017/08/19 17:49:13","新北市林口區忠孝路468號","121.369851666667","25.070995","6501700","林口區"
"244023","657-BX","2017/08/19 17:49:22","新北市林口區興林路146號","121.388771666667","25.0720866666667","6501700","林口區"
"244013","658-BX","2017/08/19 17:49:23","新北市林口區中正路527號","121.382735","25.07712","6501700","林口區"
"244011","701-TV","2017/08/19 17:49:18","新北市林口區中興街11號","121.388761666667","25.077185","6501700","林口區"
"244025","837-TS","2017/08/19 17:49:18","新北市林口區忠孝三路42號","121.3601","25.0699133333333","6501700","林口區"
"244021","838-TS","2017/08/19 17:49:16","新北市林口區仁愛路一段139巷21號","121.397691666667","25.0716683333333","6501700","林口區"
"243013","AAD-798","2017/08/19 17:49:15","新北市泰山區錢厝坑8號","121.407741666667","25.050155","6501600","泰山區"
"222003","436-BY","2017/08/19 17:49:23","新北市深坑區阿柔洋60-1號","121.608613333333","24.99851","6501800","深坑區"
"222002","659-BX","2017/08/19 17:49:06","新北市深坑區平埔街22巷17弄1號","121.614926666667","25.0008216666667","6501800","深坑區"
"231046","278-BY","2017/08/19 17:49:19","新北市新店區下石厝路17號","121.532901666667","24.9274433333333","6500600","新店區"
"241024","065-VK","2017/08/19 17:49:25","新北市三重區車路頭街65號","121.484245","25.07256","6500200","三重區"
"241005","262-UM","2017/08/19 17:49:08","新北市三重區集賢路87-1號","121.493633333333","25.086825","6500200","三重區"
"241016","266-UM","2017/08/19 17:49:20","新北市三重區重新路二段112號","121.496708333333","25.0615216666667","6500200","三重區"
"241033","AAC-255","2017/08/19 17:49:21","新北市三重區光復路一段7號","121.472096666667","25.0471316666667","6500200","三重區"
"235064","005-UY","2017/08/19 17:49:12","新北市中和區員山路36巷16-3號","121.48509","24.991415","6500300","中和區"
"235056","096-UM","2017/08/19 17:49:07","新北市中和區員山路36巷13號","121.484241666667","24.9916383333333","6500300","中和區"
"235067","255-BX","2017/08/19 16:16:04","新北市中和區員山路36巷13號","121.484306666667","24.9913216666667","6500300","中和區"
"235011","732-UM","2017/08/19 15:08:47","新北市板橋區文化路二段620號","121.477328333333","25.0376933333333","6500300","中和區"
"235062","800-TS","2017/08/19 17:49:15","新北市中和區員山路36巷16-3號","121.485033333333","24.99138","6500300","中和區"
"247020","893-R6","2017/08/19 17:49:10","新北市蘆洲區民族路345巷25號","121.472188333333","25.09116","6501400","蘆洲區"
"247010","546-UM","2017/08/19 17:49:23","新北市蘆洲區信義路259巷5號","121.478615","25.0845383333333","6501400","蘆洲區"
"247018","500-BY","2017/08/19 17:49:22","新北市蘆洲區復興路227巷2弄10號","121.480451666667","25.0901416666667","6501400","蘆洲區"
"247008","339-TH","2017/08/19 17:49:07","新北市蘆洲區信義路32號","121.474411666667","25.0794","6501400","蘆洲區"
"247024","337-TH","2017/08/19 17:49:06","新北市蘆洲區光榮路63號","121.461121666667","25.08846","6501400","蘆洲區"
"247002","336-TH","2017/08/19 17:49:26","新北市蘆洲區永平街32巷16弄1號","121.459546666667","25.0920216666667","6501400","蘆洲區"
"247006","053-VK","2017/08/19 17:49:06","新北市蘆洲區九芎街90巷8號","121.46574","25.0802016666667","6501400","蘆洲區"
"247012","007-UY","2017/08/19 17:49:18","新北市蘆洲區民族路167巷6號","121.478546666667","25.0881183333333","6501400","蘆洲區"
"247022","002-UY","2017/08/19 17:49:08","新北市蘆洲區中正路357號","121.465143333333","25.0899916666667","6501400","蘆洲區"
"247016","001-UY","2017/08/19 17:49:27","新北市蘆洲區中正路185巷62號","121.466583333333","25.0848016666667","6501400","蘆洲區"
"228003","097-TW","2017/08/19 17:49:10","新北市貢寮區真理里美艷山街6-2號","121.928921666667","25.0606933333333","6502600","貢寮區"
"228004","212-TW","2017/08/19 15:52:28","新北市貢寮區貢寮里朝陽街1-2號","121.91221","25.0212483333333","6502600","貢寮區"
"228002","585-TW","2017/08/19 17:49:17","新北市貢寮區福隆里外隆林街16-4號","121.95805","25.005025","6502600","貢寮區"
"228001","670-TC","2017/08/19 17:49:23","新北市貢寮區仁理村仁愛路95-1號","121.927716666667","25.0554516666667","6502600","貢寮區"
"224010","AGQ-8101","2017/08/19 17:49:16","新北市瑞芳區逢甲路29號","121.809191666667","25.1088416666667","6501200","瑞芳區"
"224006","676-BX","2017/08/19 17:49:18","新北市瑞芳區傑魚坑路183號","121.78844","25.1082783333333","6501200","瑞芳區"
"224009","285-BY","2017/08/19 17:49:18","新北市瑞芳區新山路179-1號","121.851623333333","25.1090966666667","6501200","瑞芳區"
"224008","275-VK","2017/08/19 17:49:26","新北市瑞芳區明燈路一段206號","121.818366666667","25.1087716666667","6501200","瑞芳區"
"224005","271-BY","2017/08/19 17:49:20","新北市瑞芳區豎崎路32-5號","121.824183333333","25.12093","6501200","瑞芳區"
"253006","032-BX","2017/08/19 17:49:22","新北市石門區中山路64-1號","121.567588333333","25.290665","6502200","石門區"
"208003","665-BX","2017/08/19 17:49:09","新北市金山區磺清路135號","121.639451666667","25.2277183333333","6502700","金山區"
"208001","761-BX","2017/08/19 17:49:18","新北市金山區磺清路135號","121.639363333333","25.227795","6502700","金山區"
"251009","008-UM","2017/08/19 17:32:53","新北市淡水區重建街1巷6號","121.439676666667","25.1735833333333","6501000","淡水區"
"251004","009-UM","2017/08/19 17:49:09","新北市淡水區民權一街48號","121.459266666667","25.1362416666667","6501000","淡水區"
"251002","012-UM","2017/08/19 17:49:07","新北市淡水區中山路88號","121.442731666667","25.17049","6501000","淡水區"
"251014","180-VK","2017/08/19 17:49:06","新北市淡水區公埔子16-6號","121.48103","25.2245333333333","6501000","淡水區"
"251008","181-VK","2017/08/19 17:49:15","新北市淡水區八勢路一段149號","121.467561666667","25.1571066666667","6501000","淡水區"
"251010","413-VK","2017/08/19 17:49:13","新北市淡水區中正路二段55號","121.417333333333","25.1862033333333","6501000","淡水區"
"251012","441-VK","2017/08/19 17:49:15","新北市淡水區北新路二段13號","121.476086666667","25.1855983333333","6501000","淡水區"
"251016","442-VK","2017/08/19 17:49:26","新北市淡水區埤島39-15號","121.452768333333","25.1958833333333","6501000","淡水區"
"251005","443-VK","2017/08/19 17:49:22","新北市淡水區學府路104號","121.449895","25.17194","6501000","淡水區"
"251006","561-UM","2017/08/19 17:49:14","新北市淡水區新生街51巷51號","121.441386666667","25.1761666666667","6501000","淡水區"
"251007","577-R6","2017/08/19 17:49:19","新北市淡水區民生路55-1號","121.462813333333","25.1382066666667","6501000","淡水區"
"251011","650-BX","2017/08/19 17:49:10","新北市淡水區吳(仔)厝37號","121.479508333333","25.149525","6501000","淡水區"
"251003","673-BX","2017/08/19 17:49:18","新北市淡水區大忠街19號","121.443713333333","25.17602","6501000","淡水區"
"207003","550-UM","2017/08/19 17:49:23","新北市萬里區野柳里東澳路55號","121.692008333333","25.2032866666667","6502800","萬里區"
"207004","225-TW","2017/08/19 17:49:12","新北市萬里區萬里里瑪鋉頂街61號","121.688506666667","25.18054","6502800","萬里區"
"252002","178-VK","2017/08/19 17:49:07","新北市三芝區智成街69號","121.504396666667","25.2558283333333","6502100","三芝區"
"252001","292-VK","2017/08/19 17:49:21","新北市三芝區淡金路一段59號","121.500143333333","25.2589333333333","6502100","三芝區"
"237004","078-UY","2017/08/19 17:49:18","新北市三峽區仁愛街18號","121.368288333333","24.9323983333333","6500900","三峽區"
"237013","252-BX","2017/08/19 17:49:19","新北市三峽區愛國路33-8號","121.374468333333","24.9333283333333","6500900","三峽區"
"237008","302-VK","2017/08/19 17:49:18","新北市三峽區中園街124號","121.367168333333","24.9222633333333","6500900","三峽區"
"237014","433-BY","2017/08/19 17:49:13","新北市三峽區文化路120巷21弄2號","121.370973333333","24.9369316666667","6500900","三峽區"
"237006","5529-G3","2017/08/19 17:49:17","新北市三峽區介壽路二段38巷8號","121.39142","24.9350516666667","6500900","三峽區"
"237011","572-TV","2017/08/19 17:49:12","新北市三峽區大同路192號","121.371416666667","24.92706","6500900","三峽區"
"237016","649-BX","2017/08/19 17:46:45","新北市三峽區白雞35-6號","121.377033333333","24.91183","6500900","三峽區"
"237010","706-TV","2017/08/19 17:49:23","新北市三峽區文化路203號","121.366431666667","24.9356716666667","6500900","三峽區"
"237005","AKY-6261","2017/08/19 17:49:08","新北市三峽區中山路459巷52-1號","121.357166666667","24.9362766666667","6500900","三峽區"
"236073","105-UM","2017/08/19 17:49:20","新北市土城區明德路一段398號","121.453151666667","24.9794666666667","6501300","土城區"
"236079","166-UM","2017/08/19 17:49:21","新北市土城區永寧路5號","121.430476666667","24.9645866666667","6501300","土城區"
"236031","253-BX","2017/08/19 17:49:13","新北市土城區城林路6巷80號","121.438456666667","24.9797883333333","6501300","土城區"
"236027","269-VK","2017/08/19 17:49:24","新北市土城區中華路二段168-1號","121.437405","24.9722116666667","6501300","土城區"
"236015","270-VK","2017/08/19 17:49:26","新北市土城區城林路6巷80號","121.438478333333","24.9795733333333","6501300","土城區"
"236038","271-VK","2017/08/19 17:49:10","新北市土城區城林路6巷80號","121.438501666667","24.9797733333333","6501300","土城區"
"236023","401-BY","2017/08/19 17:49:19","新北市土城區城林路6巷80號","121.438686666667","24.9797333333333","6501300","土城區"
"236059","912-UM","2017/08/19 17:49:21","新北市土城區城林路6巷80號","121.438555","24.979525","6501300","土城區"
"236049","913-UM","2017/08/19 17:44:39","新北市土城區城林路6巷80號","121.438506666667","24.9795833333333","6501300","土城區"
"236063","915-UM","2017/08/19 17:49:15","新北市土城區城林路6巷80號","121.438518333333","24.9796733333333","6501300","土城區"
"236055","AAC-216","2017/08/19 17:49:16","新北市土城區城林路6巷80號","121.438571666667","24.9795966666667","6501300","土城區"
"242021","AAC-296","2017/08/19 17:49:21","新北市新莊區中港路145號","121.455135","25.0407316666667","6500500","新莊區"
"242029","986-R7","2017/08/19 17:49:26","新北市新莊區復興路一段89號","121.44866","25.04273","6500500","新莊區"
"242048","751-BX","2017/08/19 17:49:08","新北市新莊區萬安街56號","121.421008333333","25.02362","6500500","新莊區"
"242023","705-TV","2017/08/19 17:49:09","新北市新莊區福樂街24號","121.45793","25.0452383333333","6500500","新莊區"
"242025","615-BX","2017/08/19 17:49:23","新北市三重區新北大道二段45號","121.470043333333","25.0612283333333","6500500","新莊區"
"242027","612-BX","2017/08/19 17:49:17","新北市新莊區福壽街167號","121.457876666667","25.0535933333333","6500500","新莊區"
"242036","566-BX","2017/08/19 17:49:24","新北市新莊區建福路63號","121.426825","25.0271066666667","6500500","新莊區"
"242042","497-BY","2017/08/19 17:49:25","新北市新莊區中正路612-1號","121.426165","25.0302183333333","6500500","新莊區"
"242004","442-UM","2017/08/19 17:49:13","新北市新莊區思源路177巷14號","121.45931","25.0456116666667","6500500","新莊區"
"242051","440-UM","2017/08/19 17:49:14","新北市新莊區西盛街257巷22號","121.428885","25.015735","6500500","新莊區"
"242031","415-TV","2017/08/19 17:49:16","新北市新莊區新泰路340號","121.444731666667","25.0422616666667","6500500","新莊區"
"242002","413-TV","2017/08/19 17:49:14","新北市新莊區新泰路20號","121.449565","25.0336716666667","6500500","新莊區"
"242039","400-BY","2017/08/19 17:49:13","新北市新莊區富國路204號","121.424865","25.024215","6500500","新莊區"
"242061","362-BY","2017/08/19 17:49:19","新北市新莊區新樹路294號","121.432785","25.0069733333333","6500500","新莊區"
"242058","353-BY","2017/08/19 17:49:14","新北市新莊區中正路730-6號","121.414775","25.0235616666667","6500500","新莊區"
"242044","132-UY","2017/08/19 17:49:20","新北市新莊區中正路857號","121.419675","25.02783","6500500","新莊區"
"242034","133-UY","2017/08/19 17:49:25","新北市新莊區新莊路725號","121.443441666667","25.032815","6500500","新莊區"
"242019","135-UY","2017/08/19 17:49:13","新北市新莊區民樂街55號","121.45796","25.0415233333333","6500500","新莊區"
"242007","173-VK","2017/08/19 17:49:18","新北市新莊區福樂街108巷38號","121.45794","25.0487416666667","6500500","新莊區"
"242013","175-VK","2017/08/19 17:49:12","新北市新莊區中誠街166巷6號","121.448123333333","25.0478133333333","6500500","新莊區"
"242056","176-VK","2017/08/19 17:49:17","新北市新莊區豐年街57號","121.446681666667","25.0304933333333","6500500","新莊區"
"242011","346-TH","2017/08/19 17:49:12","新北市新莊區中港路684號","121.45076","25.0567683333333","6500500","新莊區"
"242046","347-TH","2017/08/19 17:49:08","新北市新莊區建國一路38號","121.433938333333","25.031395","6500500","新莊區"
"242017","348-TH","2017/08/19 17:49:23","新北市新莊區永安街107號","121.45022","25.044515","6500500","新莊區"
"242053","349-TH","2017/08/19 17:49:13","新北市新莊區民安西路468-1號","121.43162","25.0077783333333","6500500","新莊區"
"242015","350-TH","2017/08/19 17:49:03","新北市新莊區新泰路502巷40號","121.443703333333","25.046395","6500500","新莊區"
"242009","351-TH","2017/08/19 17:49:20","新北市新莊區昌平街2號","121.455025","25.0522083333333","6500500","新莊區"
"238015","755-BX","2017/08/19 17:49:20","新北市樹林區樹德街136巷30號","121.420048333333","24.99436","6500700","樹林區"
"238023","601-UM","2017/08/19 17:49:19","新北市樹林區福興街5號","121.404493333333","25.017065","6500700","樹林區"
"238019","599-UM","2017/08/19 17:49:09","新北市樹林區太順街3號","121.420086666667","24.9801483333333","6500700","樹林區"
"238018","571-TV","2017/08/19 17:49:17","新北市樹林區博愛街6號","121.427623333333","24.9932183333333","6500700","樹林區"
"238024","5061-A6","2017/08/19 17:49:06","新北市樹林區八德街814號","121.394863333333","24.9687633333333","6500700","樹林區"
"238022","312-TH","2017/08/19 17:49:10","新北市樹林區太順街41號","121.418195","24.9793266666667","6500700","樹林區"
"238021","311-TH","2017/08/18 20:36:22","新北市樹林區八德街1010號","121.391416666667","24.9686133333333","6500700","樹林區"
"238025","303-VK","2017/08/19 17:49:14","新北市樹林區三俊街50號","121.412285","25.015485","6500700","樹林區"
"238017","283-BY","2017/08/19 17:49:23","新北市樹林區三德街30巷17號","121.41465","25.0125466666667","6500700","樹林區"
"238014","282-BY","2017/08/19 17:49:17","新北市樹林區保安街一段293號","121.417946666667","24.9972483333333","6500700","樹林區"
"238020","268-VK","2017/08/19 01:45:28","新北市樹林區中山路三段204號","121.386898333333","24.968085","6500700","樹林區"
"238026","172-UY","2017/08/19 17:49:13","新北市樹林區新興街59號","121.399906666667","24.971345","6500700","樹林區"
"238016","169-UY","2017/08/19 17:49:18","新北市樹林區啟智街129-3號","121.417986666667","24.98928","6500700","樹林區"
"239007","AAC-297","2017/08/19 17:49:04","新北市鶯歌區鶯桃路94巷33-11號","121.34223","24.9542633333333","6500800","鶯歌區"
"239006","891-R6","2017/08/19 17:49:15","新北市鶯歌區鶯桃路413巷78弄8-1號","121.32968","24.9633283333333","6500800","鶯歌區"
"239008","527-UM","2017/08/19 17:49:24","新北市鶯歌區國際一路171號","121.335958333333","24.9782216666667","6500800","鶯歌區"
"239005","526-UM","2017/08/19 17:49:09","新北市鶯歌區鶯桃路二段8號","121.326356666667","24.9720933333333","6500800","鶯歌區"
"239001","417-VK","2017/08/19 17:49:18","新北市鶯歌區中正三路238號","121.330081666667","24.93662","6500800","鶯歌區"
"239003","360-BY","2017/08/19 17:49:06","新北市鶯歌區永吉街18號","121.336043333333","24.9578616666667","6500800","鶯歌區"
"239002","359-BY","2017/08/19 17:49:22","新北市鶯歌區國華路31號","121.342821666667","24.9555733333333","6500800","鶯歌區"
"239004","193-VK","2017/08/19 17:49:09","新北市鶯歌區文化路324巷1-37號","121.352243333333","24.9458883333333","6500800","鶯歌區"
"221008","489-VK","2017/08/19 17:49:11","新北市汐止區康寧街901號","121.651446666667","25.0750016666667","6501100","汐止區"
"221036","130-UY","2017/08/19 17:49:19","新北市汐止區長江街83號","121.657463333333","25.0723","6501100","汐止區"
"221015","131-UY","2017/08/19 17:49:16","新北市汐止區長江街249-1號","121.662891666667","25.0792816666667","6501100","汐止區"
"221012","276-VK","2017/08/19 13:20:01","新北市汐止區汐萬路一段256巷3號","121.653443333333","25.0746533333333","6501100","汐止區"
"221031","277-VK","2017/08/19 17:49:11","新北市汐止區汐萬路一段256巷3號","121.652435","25.0746","6501100","汐止區"
"221012","278-VK","2017/08/19 17:49:12","新北市汐止區長江街77號","121.657233333333","25.07218","6501100","汐止區"
"221023","279-VK","2017/08/19 17:49:21","新北市汐止區康寧街591巷4號","121.634991666667","25.070565","6501100","汐止區"
"221032","280-BY","2017/08/19 17:49:14","新北市汐止區民權街一段16號","121.62124","25.0535666666667","6501100","汐止區"
"221027","281-BY","2017/08/19 17:49:07","新北市汐止區汐萬路一段256巷1號","121.651828333333","25.0749433333333","6501100","汐止區"
"221038","297-VK","2017/08/19 17:49:19","新北市汐止區汐萬路一段312號","121.65057","25.0754083333333","6501100","汐止區"
"221021","299-VK","2017/08/19 17:49:16","新北市汐止區水源路一段13號","121.657168333333","25.0668383333333","6501100","汐止區"
"221035","622-UM","2017/08/19 17:49:05","新北市汐止區汐萬路一段211巷13號","121.651751666667","25.0719683333333","6501100","汐止區"
"221025","623-UM","2017/08/19 17:49:20","新北市汐止區新台五路一段260-3號","121.657871666667","25.0639683333333","6501100","汐止區"
"221010","646-BX","2017/08/19 17:49:20","新北市汐止區汐萬路二段62巷1號","121.649333333333","25.082275","6501100","汐止區"
"221033","647-BX","2017/08/19 17:49:24","新北市汐止區橫科路73巷20弄8號","121.619666666667","25.0514616666667","6501100","汐止區"
"221002","707-TV","2017/08/19 17:49:14","新北市汐止區康寧街901號","121.651536666667","25.07501","6501100","汐止區"
"221018","753-BX","2017/08/19 17:49:21","新北市汐止區忠孝東路382巷3弄1號","121.665665","25.0697166666667","6501100","汐止區"
"241031","281-VK","2017/08/19 17:49:09","新北市新莊區環河路636-7號","121.43737","25.0111766666667","6500200","三重區"
