"lineid","car","time","location","longitude","latitude","cityid","cityname"
"234046","148-BY","2017/08/19 18:49:21","新北市永和區秀朗路二段148巷12弄15號","121.52468","25.0008833333333","6500400","永和區"
"234013","149-BY","2017/08/19 18:49:28","新北市永和區保福路二段78號","121.510448333333","25.013275","6500400","永和區"
"234007","207-UY","2017/08/19 18:49:31","新北市永和區永和路二段168號","121.515493333333","25.01302","6500400","永和區"
"234081","298-R6","2017/08/19 18:49:27","新北市永和區永利路110號","121.521276666667","25.0033216666667","6500400","永和區"
"234038","336-UY","2017/08/19 18:49:24","新北市永和區成功路二段213號","121.526508333333","24.9957983333333","6500400","永和區"
"234064","337-UY","2017/08/19 18:49:22","新北市永和區豫溪街217巷1號","121.524898333333","25.0092533333333","6500400","永和區"
"234086","338-UY","2017/08/19 18:49:20","新北市永和區中正路9號","121.514041666667","24.9956233333333","6500400","永和區"
"234054","553-UM","2017/08/19 18:49:30","新北市永和區竹林路64號","121.51821","25.0134883333333","6500400","永和區"
"234017","745-BX","2017/08/19 18:49:15","新北市永和區永和路二段393號","121.515795","25.01668","6500400","永和區"
"234030","746-BX","2017/08/19 18:49:28","新北市永和區得和路396號","121.525396666667","24.9991833333333","6500400","永和區"
"234061","AAD-866","2017/08/19 18:49:17","新北市永和區福和路309巷3號","121.516331666667","25.0069833333333","6500400","永和區"
"234070","847-RS","2017/08/19 18:49:14","新北市永和區竹林路96巷4號","121.519128333333","25.0120983333333","6500400","永和區"
"234042","862-TW","2017/08/19 18:49:19","新北市永和區永貞路308號","121.51184","25.0048533333333","6500400","永和區"
"234050","863-TW","2017/08/19 18:49:29","新北市永和區保安路2號","121.510858333333","25.0173833333333","6500400","永和區"
"234026","9371-KE","2017/08/19 18:49:14","新北市永和區自由街58號","121.513741666667","25.00592","6500400","永和區"
"234011","9373-KE","2017/08/19 18:49:24","新北市永和區文化路124號","121.51307","25.01533","6500400","永和區"
"249005","172-UM","2017/08/19 18:49:21","新北市八里區長道坑16-2號","121.394803333333","25.1172233333333","6502300","八里區"
"249001","173-UM","2017/08/19 18:49:17","新北市八里區龍米路二段31號","121.448566666667","25.139895","6502300","八里區"
"249002","305-UY","2017/08/19 18:49:26","新北市八里區龍形一街33巷6-2號","121.449305","25.1294633333333","6502300","八里區"
"248016","026-BX","2017/08/19 18:49:11","新北市五股區凌雲路一段133巷36號","121.448833333333","25.1010616666667","6501500","五股區"
"248006","077-UY","2017/08/19 18:49:31","新北市五股區四維路1巷2弄2號","121.4667","25.0701133333333","6501500","五股區"
"248008","095-VK","2017/08/19 18:49:16","新北市五股區中興路一段147號","121.465198333333","25.07356","6501500","五股區"
"248020","225-UY","2017/08/19 18:49:12","新北市五股區凌雲路三段82-1號","121.431765","25.11727","6501500","五股區"
"248012","247-BX","2017/08/19 18:49:11","新北市五股區成泰路二段147巷6號","121.437668333333","25.0891683333333","6501500","五股區"
"248014","261-SL","2017/08/19 18:49:28","新北市五股區民義路一段107巷23號","121.432168333333","25.0844666666667","6501500","五股區"
"248004","677-BX","2017/08/19 18:49:24","新北市五股區民義路二段42號","121.414446666667","25.1009633333333","6501500","五股區"
"248002","678-BX","2017/08/19 18:49:22","新北市五股區成泰路三段433號","121.449816666667","25.09779","6501500","五股區"
"248010","682-TV","2017/08/19 18:49:27","新北市五股區水碓九路45號","121.429043333333","25.0721383333333","6501500","五股區"
"234023","9380-KE","2017/08/19 18:49:24","新北市永和區竹林路119巷29號","121.52148","25.0118433333333","6500400","永和區"
"234077","969-R7","2017/08/19 18:49:25","新北市永和區中正路42巷12號","121.513416666667","24.9940516666667","6500400","永和區"
"234074","AAC-211","2017/08/19 18:49:14","新北市永和區福和路1號","121.526575","25.0099016666667","6500400","永和區"
"234067","AAC-212","2017/08/19 18:49:23","新北市永和區永和路一段22號","121.513055","25.0048333333333","6500400","永和區"
"234003","AAC-295","2017/08/19 18:49:13","新北市永和區中正路708號","121.516086666667","25.00993","6500400","永和區"
"232011","375-UM","2017/08/19 18:49:28","新北市坪林區坪林街79號","121.711613333333","24.9370866666667","6502000","坪林區"
"244007","080-UY","2017/08/19 18:49:11","新北市林口區太平里28號","121.37676","25.11844","6501700","林口區"
"244019","403-UM","2017/08/19 18:49:14","新北市林口區忠孝路616巷27號","121.377428333333","25.06721","6501700","林口區"
"244009","410-SL","2017/08/19 18:49:23","新北市林口區竹林路326巷3號","121.391495","25.08253","6501700","林口區"
"244017","656-BX","2017/08/19 18:49:10","新北市林口區文化二路一段68巷18-2號","121.366128333333","25.0679183333333","6501700","林口區"
"244023","657-BX","2017/08/19 18:49:22","新北市林口區文化三路二段211巷85號","121.375108333333","25.084125","6501700","林口區"
"244013","658-BX","2017/08/19 18:49:23","新北市林口區文化一路二段92號","121.38194","25.0785766666667","6501700","林口區"
"244011","701-TV","2017/08/19 18:49:18","新北市林口區中正路57巷12弄2號","121.395238333333","25.0766616666667","6501700","林口區"
"244025","837-TS","2017/08/19 18:49:18","新北市林口區南勢里57-3號","121.360416666667","25.0779533333333","6501700","林口區"
"243013","AAD-798","2017/08/19 18:49:15","新北市泰山區明志路三段206巷3號","121.423306666667","25.0379166666667","6501600","泰山區"
"243015","380-SR","2017/08/19 18:49:11","新北市泰山區憲訓路36號","121.42919","25.0650483333333","6501600","泰山區"
"243016","680-BX","2017/08/19 18:49:14","新北市泰山區明志路二段135號","121.427691666667","25.0507433333333","6501600","泰山區"
"222003","436-BY","2017/08/19 18:49:23","新北市深坑區翠谷街17巷42弄6號","121.625396666667","25.010125","6501800","深坑區"
"222002","659-BX","2017/08/19 18:49:26","新北市深坑區文山路一段69號","121.626995","25.0018866666667","6501800","深坑區"
"222001","696-SL","2017/08/19 18:49:16","新北市深坑區松柏街38號","121.63878","25.0114683333333","6501800","深坑區"
"231041","002-UM","2017/08/19 18:49:20","新北市新店區安華路28-1號","121.519818333333","24.9614833333333","6500600","新店區"
"231059","046-UY","2017/08/19 18:49:21","新北市新店區安華路28-1號","121.5196","24.9608233333333","6500600","新店區"
"231061","047-UY","2017/08/19 18:49:14","新北市新店區安忠路56巷2號","121.512705","24.959075","6500600","新店區"
"231060","106-UY","2017/08/19 18:49:22","新北市新店區安華路28-1號","121.519893333333","24.9607183333333","6500600","新店區"
"231051","107-UY","2017/08/19 18:49:14","新北市新店區中央路216號","121.529945","24.97333","6500600","新店區"
"231048","108-UY","2017/08/19 18:49:20","新北市新店區德正街24號","121.543916666667","24.9720883333333","6500600","新店區"
"231064","110-UY","2017/08/19 18:49:15","新北市新店區安華路28-1號","121.519081666667","24.961275","6500600","新店區"
"231052","187-VK","2017/08/19 18:49:11","新北市新店區新烏路一段123-1號","121.544881666667","24.9375033333333","6500600","新店區"
"231063","268-BY","2017/08/19 18:49:11","新北市新店區車子路109號","121.50525","24.952095","6500600","新店區"
"231046","278-BY","2017/08/19 18:49:19","新北市新店區直潭路47號","121.533361666667","24.9424966666667","6500600","新店區"
"231050","AAD-862","2017/08/19 18:49:30","新北市新店區安康路一段227號","121.525608333333","24.9630566666667","6500600","新店區"
"231058","3712-VJ","2017/08/19 18:49:29","新北市新店區北宜路一段105巷2號","121.539521666667","24.9554433333333","6500600","新店區"
"231055","3713-VJ","2017/08/19 18:49:25","新北市新店區新生街30號","121.539618333333","24.9667433333333","6500600","新店區"
"231056","4716-K9","2017/08/19 18:49:26","新北市新店區大豐路68巷3號","121.539033333333","24.97979","6500600","新店區"
"231067","4772-VM","2017/08/19 18:49:13","新北市新店區安康路一段106巷28號","121.527718333333","24.9630383333333","6500600","新店區"
"231065","512-UM","2017/08/19 18:49:21","新北市新店區車子路115-11號","121.507675","24.9546883333333","6500600","新店區"
"231054","513-UM","2017/08/19 18:49:33","新北市新店區安康路一段75-1號","121.530155","24.9611266666667","6500600","新店區"
"231042","616-UM","2017/08/19 18:49:12","新北市新店區北新路一段126巷25號","121.543356666667","24.9697566666667","6500600","新店區"
"231045","617-UM","2017/08/19 18:49:11","新北市新店區安華路28-1號","121.519453333333","24.960895","6500600","新店區"
"231040","619-UM","2017/08/19 18:49:25","新北市新店區安康路一段24巷2號","121.532798333333","24.96038","6500600","新店區"
"231049","719-UM","2017/08/19 18:49:27","新北市新店區中正路454-5號","121.534441666667","24.9790183333333","6500600","新店區"
"231062","720-UM","2017/08/19 18:49:19","新北市新店區安華路16號","121.515936666667","24.958","6500600","新店區"
"231044","897-TW","2017/08/19 18:49:24","新北市新店區中興路三段3號","121.54599","24.9777666666667","6500600","新店區"
"231043","899-TW","2017/08/19 18:49:19","新北市新店區安康路一段218號","121.523895","24.9635283333333","6500600","新店區"
"231066","AKT-0513","2017/08/19 18:49:29","新北市新店區安豐路22巷14號","121.502905","24.95494","6500600","新店區"
"241035","462-BY","2017/08/19 18:49:16","台北市大同區民權西路106號","121.5175","25.06281","6500200","三重區"
"235066","003-UY","2017/08/19 18:49:24","新北市中和區水源路7巷4號","121.504091666667","25.00358","6500300","中和區"
"235064","005-UY","2017/08/19 18:49:32","新北市中和區連城路105號","121.496511666667","24.9994283333333","6500300","中和區"
"235063","006-UY","2017/08/19 18:49:13","新北市中和區連城路319巷11弄8號","121.489483333333","24.994945","6500300","中和區"
"235056","096-UM","2017/08/19 18:49:27","新北市中和區員山路514號","121.479191666667","25.00879","6500300","中和區"
"235039","097-UM","2017/08/19 18:49:18","新北市中和區宜安路18巷6號","121.513561666667","24.99615","6500300","中和區"
"235065","098-UM","2017/08/19 18:49:32","新北市中和區莊敬路49巷29弄20號","121.501101666667","25.0064833333333","6500300","中和區"
"235040","150-BY","2017/08/19 18:49:20","新北市中和區安平路36巷3號","121.510151666667","24.9947733333333","6500300","中和區"
"235058","151-BY","2017/08/19 18:49:22","新北市中和區連城路607號","121.478223333333","24.9934933333333","6500300","中和區"
"235055","183-VK","2017/08/19 18:49:15","新北市中和區民生街21-6號","121.470723333333","25.00557","6500300","中和區"
"235038","185-VK","2017/08/19 18:49:28","新北市中和區立人街22號","121.519008333333","24.9941916666667","6500300","中和區"
"235049","186-VK","2017/08/19 18:49:22","新北市中和區景安路132巷33號","121.503745","24.9945783333333","6500300","中和區"
"235067","255-BX","2017/08/19 18:49:16","新北市中和區新生街6號","121.483116666667","25.004625","6500300","中和區"
"235044","293-VK","2017/08/19 18:49:15","新北市中和區復興路280巷6號","121.502291666667","24.9909883333333","6500300","中和區"
"235072","301-VK","2017/08/19 18:49:13","新北市中和區中山路二段16號","121.504955","25.0054683333333","6500300","中和區"
"235043","352-BY","2017/08/19 18:49:19","新北市中和區成功路139號","121.525706666667","24.99025","6500300","中和區"
"235051","376-QA","2017/08/19 18:49:28","新北市中和區忠孝街12號","121.510221666667","24.98276","6500300","中和區"
"235068","377-QA","2017/08/19 18:49:33","新北市中和區中正路175號","121.497568333333","24.9934916666667","6500300","中和區"
"235061","378-QA","2017/08/19 18:49:20","新北市中和區民享街54巷12號","121.47335","25.0024133333333","6500300","中和區"
"235050","4979-A6","2017/08/19 18:49:27","新北市中和區忠孝街62巷3號","121.51264","24.9836333333333","6500300","中和區"
"235069","4980-A6","2017/08/19 18:49:27","新北市中和區南山路81巷8弄12號","121.502573333333","24.9977333333333","6500300","中和區"
"235042","551-UM","2017/08/19 18:49:19","新北市中和區秀朗路三段100巷3號","121.525391666667","24.9932966666667","6500300","中和區"
"235070","558-UM","2017/08/19 18:49:00","新北市中和區安和路159號","121.505958333333","24.9972916666667","6500300","中和區"
"235045","565-BX","2017/08/19 18:49:24","新北市中和區南山路393號","121.506585","24.9901783333333","6500300","中和區"
"235054","640-BX","2017/08/19 18:49:22","新北市中和區莒光路129巷1弄8-4號","121.473026666667","25.002295","6500300","中和區"
"235060","647-TV","2017/08/19 18:49:20","新北市中和區中山路三段162號","121.473051666667","25.006365","6500300","中和區"
"235011","732-UM","2017/08/19 15:08:47","新北市板橋區文化路二段620號","121.477328333333","25.0376933333333","6500300","中和區"
"235046","733-UM","2017/08/19 18:49:14","新北市中和區仁愛街36巷55號","121.511423333333","24.9863416666667","6500300","中和區"
"235062","800-TS","2017/08/19 18:49:15","新北市中和區中山路二段348巷10號","121.492933333333","25.0030833333333","6500300","中和區"
"235057","801-TS","2017/08/19 18:49:27","新北市中和區民安街22巷14號","121.479791666667","25.0013333333333","6500300","中和區"
"235041","802-TS","2017/08/19 18:49:22","新北市中和區宜安路157號","121.509031666667","24.9988616666667","6500300","中和區"
"235052","805-TS","2017/08/19 18:49:19","新北市中和區興南路二段399巷14號","121.499068333333","24.979005","6500300","中和區"
"235048","896-TW","2017/08/19 18:49:19","新北市中和區華新街9號","121.507538333333","24.9851466666667","6500300","中和區"
"235053","900-TW","2017/08/19 18:49:21","新北市中和區華福街41號","121.46632","24.9966783333333","6500300","中和區"
"235037","AAC-213","2017/08/19 18:49:11","新北市中和區秀朗路三段175巷1號","121.524705","24.991455","6500300","中和區"
"235059","AAC-215","2017/08/19 18:49:22","新北市中和區圓通路385號","121.490176666667","24.9892816666667","6500300","中和區"
"220068","013-TV","2017/08/19 18:49:21","新北市板橋區民生路二段36-1號","121.472241666667","25.0168233333333","6500100","板橋區"
"220065","072-UY","2017/08/19 18:49:25","新北市板橋區民生路二段17號","121.47255","25.0164883333333","6500100","板橋區"
"220086","073-UY","2017/08/19 18:49:18","新北市板橋區大智街71巷5弄1號","121.45331","25.0149716666667","6500100","板橋區"
"220106","075-UY","2017/08/19 18:49:22","新北市板橋區民生路二段161巷1號","121.470116666667","25.01999","6500100","板橋區"
"220069","AAD-861","2017/08/19 18:49:13","新北市板橋區觀光街12巷1弄2號","121.471911666667","25.0168166666667","6500100","板橋區"
"226004","312-R5","2017/08/19 18:49:19","新北市平溪區靜安路二段441號","121.740261666667","25.0249483333333","6502400","平溪區"
"228003","097-TW","2017/08/19 18:49:10","新北市貢寮區和美里龍洞街46號","121.913603333333","25.112395","6502600","貢寮區"
"228004","212-TW","2017/08/19 15:52:28","新北市貢寮區貢寮里朝陽街1-2號","121.91221","25.0212483333333","6502600","貢寮區"
"228002","585-TW","2017/08/19 18:49:17","新北市貢寮區福隆里東興街6-11號","121.95074","25.021065","6502600","貢寮區"
"228001","670-TC","2017/08/19 18:49:23","新北市貢寮區仁理村保健街73號","121.92374","25.0516816666667","6502600","貢寮區"
"224010","AGQ-8101","2017/08/19 18:44:56","新北市瑞芳區烏勢巷145號","121.847905","25.1091983333333","6501200","瑞芳區"
"224006","676-BX","2017/08/19 18:49:17","新北市瑞芳區中正路65號","121.805998333333","25.10751","6501200","瑞芳區"
"224011","420-VK","2017/08/19 18:49:17","新北市瑞芳區崙頂路1-6號","121.847091666667","25.104695","6501200","瑞芳區"
"224009","285-BY","2017/08/19 18:49:18","新北市瑞芳區祈堂路2號","121.859761666667","25.11177","6501200","瑞芳區"
"224008","275-VK","2017/08/19 18:49:26","新北市瑞芳區逢甲路323號","121.801121666667","25.1118033333333","6501200","瑞芳區"
"224007","273-VK","2017/08/19 18:49:23","新北市瑞芳區大埔路188-1號","121.761431666667","25.1011","6501200","瑞芳區"
"224005","271-BY","2017/08/19 18:49:27","新北市瑞芳區瑞濱路57號","121.823816666667","25.1208133333333","6501200","瑞芳區"
"227002","642-TC","2017/08/19 18:49:32","新北市雙溪區共和里中山路32號","121.865533333333","25.0326516666667","6502500","雙溪區"
"227010","400-TW","2017/08/19 18:49:13","新北市雙溪區牡丹里聖南10-2號","121.86061","25.049875","6502500","雙溪區"
"253006","032-BX","2017/08/19 18:49:23","新北市石門區下員坑30號","121.520113333333","25.2828066666667","6502200","石門區"
"253005","295-VK","2017/08/19 18:49:21","新北市石門區中山路28-3號","121.565788333333","25.2899366666667","6502200","石門區"
"208002","742-BX","2017/08/19 18:49:24","新北市金山區信義路60號","121.635741666667","25.21899","6502700","金山區"
"208003","665-BX","2017/08/19 18:49:29","新北市金山區中山路393號","121.633405","25.2252466666667","6502700","金山區"
"208001","761-BX","2017/08/19 18:49:17","新北市金山區文化三路66巷2弄1號","121.634321666667","25.2256966666667","6502700","金山區"
"251009","008-UM","2017/08/19 18:49:13","新北市淡水區重建街118號","121.440261666667","25.172915","6501000","淡水區"
"251002","012-UM","2017/08/19 18:49:07","新北市淡水區學府路53號","121.448078333333","25.1693483333333","6501000","淡水區"
"251014","180-VK","2017/08/19 18:49:26","新北市淡水區崙頂29號","121.486918333333","25.22307","6501000","淡水區"
"251010","413-VK","2017/08/19 18:49:25","新北市淡水區沙崙路17號","121.421246666667","25.181325","6501000","淡水區"
"251012","441-VK","2017/08/19 18:49:18","新北市淡水區新興街1號","121.444046666667","25.1801983333333","6501000","淡水區"
"251016","442-VK","2017/08/19 18:49:26","新北市淡水區下圭柔山71-3號","121.447075","25.2061233333333","6501000","淡水區"
"251001","559-UM","2017/08/19 18:49:02","新北市淡水區自強路108-17號","121.461671666667","25.1310266666667","6501000","淡水區"
"251011","650-BX","2017/08/19 18:49:30","新北市淡水區鄧公路18號","121.45091","25.1696183333333","6501000","淡水區"
"251003","673-BX","2017/08/19 18:49:18","新北市淡水區中山北路一段163號","121.443366666667","25.177575","6501000","淡水區"
"207003","550-UM","2017/08/19 18:49:22","新北市萬里區大鵬里頂社1-2號","121.657365","25.2096833333333","6502800","萬里區"
"207004","225-TW","2017/08/19 18:49:12","新北市萬里區萬里里獅頭路23號","121.693218333333","25.1782416666667","6502800","萬里區"
"252002","178-VK","2017/08/19 18:49:31","新北市三芝區智成街68號","121.504801666667","25.2562116666667","6502100","三芝區"
"252003","249-BX","2017/08/19 18:49:15","新北市三芝區後厝里大片頭106號","121.457531666667","25.24088","6502100","三芝區"
"252001","292-VK","2017/08/19 18:49:21","新北市三芝區中正路三段9號","121.50303","25.25393","6502100","三芝區"
"237004","078-UY","2017/08/19 18:49:18","新北市三峽區插角115號","121.408143333333","24.870375","6500900","三峽區"
"237007","153-BY","2017/08/19 18:49:15","新北市三峽區柑樹路2巷2號","121.361958333333","24.905775","6500900","三峽區"
"237013","252-BX","2017/08/19 18:49:19","新北市三峽區光明路69巷27號","121.376826666667","24.9292866666667","6500900","三峽區"
"237012","275-BY","2017/08/19 18:49:31","新北市三峽區三樹路340號","121.383945","24.9433166666667","6500900","三峽區"
"237008","302-VK","2017/08/19 18:49:26","新北市三峽區白雞33-51號","121.370431666667","24.912985","6500900","三峽區"
"237014","433-BY","2017/08/19 18:49:13","新北市三峽區復興路480巷32號","121.359608333333","24.9400666666667","6500900","三峽區"
"237006","5529-G3","2017/08/19 18:49:17","新北市三峽區溪東路233巷4弄19號","121.407238333333","24.9337616666667","6500900","三峽區"
"237011","572-TV","2017/08/19 18:49:32","新北市三峽區介壽路三段245號","121.40773","24.9495433333333","6500900","三峽區"
"237016","649-BX","2017/08/19 18:49:25","新北市三峽區安坑1-6號","121.436053333333","24.9249466666667","6500900","三峽區"
"237010","706-TV","2017/08/19 18:49:23","新北市三峽區復興路174巷8-2號","121.370763333333","24.93912","6500900","三峽區"
"237005","AKY-6261","2017/08/19 18:49:28","新北市三峽區中山路121號","121.365458333333","24.935965","6500900","三峽區"
"236073","105-UM","2017/08/19 18:49:20","新北市土城區延和路1號","121.46355","24.9876116666667","6501300","土城區"
"236043","107-UM","2017/08/19 18:49:27","新北市土城區裕民路92巷25弄5號","121.449766666667","24.9858083333333","6501300","土城區"
"236079","166-UM","2017/08/19 18:49:21","新北市土城區中央路四段67巷60-8號","121.417146666667","24.9551116666667","6501300","土城區"
"236031","253-BX","2017/08/19 18:49:13","新北市土城區忠義路26巷10號","121.439845","24.9698816666667","6501300","土城區"
"236027","269-VK","2017/08/19 18:49:24","新北市土城區和平路7號","121.442781666667","24.9743433333333","6501300","土城區"
"236015","270-VK","2017/08/19 18:49:25","新北市土城區金城路二段354巷18號","121.46097","24.984185","6501300","土城區"
"236038","271-VK","2017/08/19 18:49:29","新北市土城區明德路一段235巷38號","121.463151666667","24.9774","6501300","土城區"
"236023","401-BY","2017/08/19 18:49:19","新北市土城區延吉街239號","121.467795","24.984845","6501300","土城區"
"236059","912-UM","2017/08/19 18:49:23","新北市土城區中央路三段149號","121.432186666667","24.965385","6501300","土城區"
"236049","913-UM","2017/08/19 18:49:27","新北市土城區青雲路2號","121.460378333333","24.9898033333333","6501300","土城區"
"236063","915-UM","2017/08/19 18:49:15","新北市土城區延和路225號","121.470045","24.9894283333333","6501300","土城區"
"236055","AAC-216","2017/08/19 18:49:15","新北市土城區裕民路149號","121.452021666667","24.98608","6501300","土城區"
"238023","601-UM","2017/08/19 18:49:25","新北市樹林區三福街114號","121.406423333333","25.0162883333333","6500700","樹林區"
"238018","571-TV","2017/08/19 18:49:17","新北市樹林區鎮前街146號","121.424568333333","24.9903983333333","6500700","樹林區"
"238022","308-TH","2017/08/19 18:49:28","新北市樹林區東大街1-5號","121.41335","24.9764466666667","6500700","樹林區"
"238025","303-VK","2017/08/19 18:49:14","新北市樹林區中山路三段22號","121.395651666667","24.97289","6500700","樹林區"
"238017","283-BY","2017/08/19 18:49:23","新北市樹林區光興街44號","121.409896666667","25.0027566666667","6500700","樹林區"
"238014","282-BY","2017/08/19 18:49:16","新北市樹林區大安路109號","121.422788333333","24.9977316666667","6500700","樹林區"
"238020","268-VK","2017/08/19 01:45:28","新北市樹林區中山路三段204號","121.386898333333","24.968085","6500700","樹林區"
"238026","172-UY","2017/08/19 18:49:33","新北市樹林區信和街70號","121.38973","24.9731083333333","6500700","樹林區"
"238016","169-UY","2017/08/19 18:49:18","新北市樹林區文化街28號","121.419301666667","24.9877966666667","6500700","樹林區"
"239007","AAC-297","2017/08/19 18:49:24","新北市鶯歌區中正一路303巷1號","121.356035","24.95822","6500800","鶯歌區"
"239006","891-R6","2017/08/19 18:49:14","新北市鶯歌區鶯桃路296巷106號","121.337081666667","24.9623116666667","6500800","鶯歌區"
"239008","527-UM","2017/08/19 18:49:24","新北市鶯歌區晨曦街35號","121.338086666667","24.9770616666667","6500800","鶯歌區"
"239005","526-UM","2017/08/19 18:49:30","新北市鶯歌區鳳吉一街132號","121.328025","24.9749916666667","6500800","鶯歌區"
"239001","417-VK","2017/08/19 18:49:18","新北市鶯歌區中正二路197號","121.339845","24.945685","6500800","鶯歌區"
"239003","360-BY","2017/08/19 18:49:26","新北市鶯歌區鶯桃路658巷17號","121.329571666667","24.969515","6500800","鶯歌區"
"239002","359-BY","2017/08/19 18:49:22","新北市鶯歌區中正一路350號","121.357843333333","24.957","6500800","鶯歌區"
"239004","193-VK","2017/08/19 18:49:28","新北市鶯歌區中正三路282巷10弄11號","121.32868","24.9366733333333","6500800","鶯歌區"
"221008","489-VK","2017/08/19 18:49:10","新北市汐止區康寧街901號","121.651358333333","25.0750883333333","6501100","汐止區"
"221036","130-UY","2017/08/19 18:49:19","新北市汐止區忠孝東路314巷19弄4號","121.664513333333","25.0683566666667","6501100","汐止區"
"221015","131-UY","2017/08/19 18:49:15","新北市汐止區鄉長路一段37號","121.665296666667","25.0749666666667","6501100","汐止區"
"221012","276-VK","2017/08/19 13:20:01","新北市汐止區汐萬路一段256巷3號","121.653443333333","25.0746533333333","6501100","汐止區"
"221031","277-VK","2017/08/19 18:49:31","新北市汐止區福德一路300巷2弄1號","121.631085","25.0636866666667","6501100","汐止區"
"221012","278-VK","2017/08/19 18:49:12","新北市汐止區康寧街901號","121.650806666667","25.0752433333333","6501100","汐止區"
"221023","279-VK","2017/08/19 18:49:21","新北市汐止區康寧街901號","121.650976666667","25.0752816666667","6501100","汐止區"
"221032","280-BY","2017/08/19 18:49:14","新北市汐止區橫科路367巷24弄9號","121.623826666667","25.0480566666667","6501100","汐止區"
"221027","281-BY","2017/08/19 18:49:27","新北市汐止區汐萬路一段256巷3號","121.652528333333","25.074555","6501100","汐止區"
"221038","297-VK","2017/08/19 18:49:19","新北市汐止區康寧街901號","121.650715","25.0752466666667","6501100","汐止區"
"221029","298-VK","2017/08/19 18:49:27","新北市汐止區工建路66號","121.640423333333","25.0628183333333","6501100","汐止區"
"221021","299-VK","2017/08/19 18:49:16","新北市汐止區汐萬路一段256巷3號","121.652428333333","25.074585","6501100","汐止區"
"221035","622-UM","2017/08/19 18:49:25","新北市汐止區汐萬路一段256巷3號","121.652505","25.074515","6501100","汐止區"
"221025","623-UM","2017/08/19 18:49:20","新北市汐止區仁愛路75號","121.661101666667","25.0629066666667","6501100","汐止區"
"221010","646-BX","2017/08/19 18:49:20","新北市汐止區汐萬路二段97-1號","121.648648333333","25.0825333333333","6501100","汐止區"
"221033","647-BX","2017/08/19 18:49:24","新北市汐止區南勢街1巷2號","121.626988333333","25.0375216666667","6501100","汐止區"
"221002","707-TV","2017/08/19 18:49:13","新北市汐止區大同路一段161號","121.632686666667","25.0566816666667","6501100","汐止區"
"221018","753-BX","2017/08/19 18:49:31","新北市汐止區茄苳路229號","121.671081666667","25.06863","6501100","汐止區"
"220079","145-BY","2017/08/19 18:49:28","新北市板橋區民權路202巷7弄21號","121.459186666667","25.0149466666667","6500100","板橋區"
"220080","200-UY","2017/08/19 18:49:25","新北市板橋區大觀路二段265巷128號","121.442243333333","24.996275","6500100","板橋區"
"220082","610-BX","2017/08/19 18:49:24","新北市板橋區篤行路三段玉平巷51號","121.428503333333","24.98669","6500100","板橋區"
"220101","245-BX","2017/08/19 16:42:57","新北市板橋區民生路二段120號","121.47056","25.0194783333333","6500100","板橋區"
"220102","257-TC","2017/08/19 18:49:15","新北市板橋區民生路二段120號","121.470526666667","25.0197066666667","6500100","板橋區"
"220094","267-BY","2017/08/19 18:49:28","新北市板橋區民生路二段120號","121.470336666667","25.0197783333333","6500100","板橋區"
"220056","276-BY","2017/08/19 18:49:32","新北市板橋區四川路二段23-3號","121.454743333333","24.99566","6500100","板橋區"
"220072","277-BY","2017/08/19 18:49:23","新北市板橋區大觀路三段57號","121.433795","24.9953333333333","6500100","板橋區"
"220057","280-UM","2017/08/19 18:49:12","新北市板橋區民生路二段36-1號","121.472496666667","25.0166066666667","6500100","板橋區"
"220071","283-VK","2017/08/19 18:49:17","新北市板橋區民生路二段36-1號","121.472311666667","25.0169433333333","6500100","板橋區"
"220053","285-VK","2017/08/19 18:49:23","新北市板橋區民生路二段46號","121.472361666667","25.01755","6500100","板橋區"
"220083","286-VK","2017/08/19 18:49:21","新北市板橋區大觀路二段22巷26號","121.445393333333","25.00361","6500100","板橋區"
"220081","287-VK","2017/08/19 18:49:24","新北市板橋區大觀路一段28巷75號","121.450066666667","25.0110916666667","6500100","板橋區"
"220090","288-VK","2017/08/19 18:49:27","新北市板橋區民生路二段161巷1號","121.469883333333","25.0199866666667","6500100","板橋區"
"220061","293-UM","2017/08/19 18:49:17","新北市板橋區民生路二段36-1號","121.472396666667","25.0168366666667","6500100","板橋區"
"220055","295-UM","2017/08/19 18:49:14","新北市板橋區民生路二段36-1號","121.472666666667","25.016715","6500100","板橋區"
"220084","296-UM","2017/08/19 18:49:20","新北市板橋區大觀路二段148巷31號","121.441796666667","25.00038","6500100","板橋區"
"220075","297-UM","2017/08/19 18:49:22","新北市板橋區大觀路一段28巷106-1號","121.450773333333","25.0109483333333","6500100","板橋區"
"241031","281-VK","2017/08/19 18:17:17","新北市新莊區環河路636-7號","121.43734","25.0111816666667","6500200","三重區"
"220062","303-R5","2017/08/19 18:49:28","新北市板橋區民生路二段17號","121.472583333333","25.01619","6500100","板橋區"
"220098","317-R6","2017/08/19 16:23:56","新北市板橋區民生路二段161巷9號","121.47023","25.0195733333333","6500100","板橋區"
"220064","486-VK","2017/08/19 15:18:54","新北市板橋區民生路二段36-1號","121.472586666667","25.0165816666667","6500100","板橋區"
"220089","487-VK","2017/08/19 18:49:19","新北市板橋區民生路二段120號","121.470583333333","25.0196566666667","6500100","板橋區"
"220088","491-VK","2017/08/19 18:49:20","新北市板橋區民生路二段161巷1號","121.47018","25.0199466666667","6500100","板橋區"
"220035","560-BX","2017/08/19 18:49:22","新北市板橋區中正路275巷59-4號","121.452991666667","25.01796","6500100","板橋區"
"220103","561-BX","2017/08/19 18:49:12","新北市板橋區民生路二段120號","121.470565","25.0196716666667","6500100","板橋區"
"220063","609-BX","2017/08/19 15:20:48","新北市板橋區民生路二段17號","121.472581666667","25.0165066666667","6500100","板橋區"
"220091","637-BX","2017/08/19 18:49:15","新北市板橋區民生路二段161巷3號","121.470273333333","25.019855","6500100","板橋區"
"220077","687-BX","2017/08/19 18:49:27","新北市板橋區大觀路二段174巷190號","121.44223","25.0038783333333","6500100","板橋區"
"220093","689-BX","2017/08/19 18:49:22","新北市板橋區民生路二段120號","121.470443333333","25.0197866666667","6500100","板橋區"
"220054","741-BX","2017/08/19 18:49:26","新北市板橋區民生路二段15號","121.472508333333","25.0159833333333","6500100","板橋區"
"220067","829-TW","2017/08/19 18:49:16","新北市板橋區民生路二段36-1號","121.472433333333","25.0168383333333","6500100","板橋區"
"220096","831-TW","2017/08/19 16:05:40","新北市板橋區民生路二段161巷5號","121.469918333333","25.0195883333333","6500100","板橋區"
"220074","895-R6","2017/08/19 18:49:26","新北市板橋區南門街14號","121.457273333333","25.0088333333333","6500100","板橋區"
"220073","985-R7","2017/08/19 18:49:30","新北市板橋區館前西路66號","121.457773333333","25.0070666666667","6500100","板橋區"
"220097","AAC-210","2017/08/19 18:49:27","新北市板橋區民生路二段120號","121.470395","25.0196916666667","6500100","板橋區"
"220070","AAC-253","2017/08/19 18:49:24","新北市板橋區民生路二段36-1號","121.472181666667","25.0167416666667","6500100","板橋區"
