"lineid","car","time","location","longitude","latitude","cityid","cityname"
"234046","148-BY","2017/08/19 18:59:21","新北市永和區得和路373巷16弄14號","121.525541666667","25.00002","6500400","永和區"
"234013","149-BY","2017/08/19 18:59:08","新北市永和區信義路14號","121.51446","25.0120516666667","6500400","永和區"
"234007","207-UY","2017/08/19 18:59:11","新北市永和區中山路一段129號","121.510568333333","25.01","6500400","永和區"
"234081","298-R6","2017/08/19 18:59:07","新北市永和區永亨路83號","121.521951666667","25.00569","6500400","永和區"
"234038","336-UY","2017/08/19 18:59:19","新北市永和區民樂街75巷4號","121.527493333333","24.996935","6500400","永和區"
"234064","337-UY","2017/08/19 18:59:22","新北市永和區秀朗路一段198號","121.519398333333","25.0032166666667","6500400","永和區"
"234086","338-UY","2017/08/19 18:59:12","新北市永和區永利路16-1號","121.517946666667","25.0058533333333","6500400","永和區"
"234054","553-UM","2017/08/19 18:59:10","新北市永和區竹林路66巷4號","121.518121666667","25.0133916666667","6500400","永和區"
"234017","745-BX","2017/08/19 18:59:15","新北市永和區永和路二段299號","121.515968333333","25.0161166666667","6500400","永和區"
"234030","746-BX","2017/08/19 18:59:09","新北市永和區四維街62號","121.524313333333","24.9982916666667","6500400","永和區"
"234061","AAD-866","2017/08/19 18:59:17","新北市永和區中正路509巷4號","121.51652","25.0070933333333","6500400","永和區"
"234070","847-RS","2017/08/19 18:59:14","新北市永和區豫溪街57巷10弄1號","121.517356666667","25.010645","6500400","永和區"
"234042","862-TW","2017/08/19 18:59:19","新北市永和區永貞路306號","121.511843333333","25.0048266666667","6500400","永和區"
"234050","863-TW","2017/08/19 18:59:24","新北市永和區文化路143號","121.510838333333","25.0159716666667","6500400","永和區"
"234026","9371-KE","2017/08/19 18:59:14","新北市永和區安樂路475號","121.514245","25.0055683333333","6500400","永和區"
"234011","9373-KE","2017/08/19 18:59:24","新北市永和區忠孝街34巷16號","121.514553333333","25.0167716666667","6500400","永和區"
"249005","172-UM","2017/08/19 18:59:21","新北市八里區長道坑11號","121.395741666667","25.12275","6502300","八里區"
"249001","173-UM","2017/08/19 18:59:17","新北市八里區龍米路二段228-1號","121.432741666667","25.15842","6502300","八里區"
"249002","305-UY","2017/08/19 18:59:26","新北市八里區頂寮二街138號","121.449303333333","25.1294433333333","6502300","八里區"
"248016","026-BX","2017/08/19 18:59:11","新北市五股區成泰路三段543巷16號","121.450945","25.1022083333333","6501500","五股區"
"248006","077-UY","2017/08/19 18:59:26","新北市五股區中興路一段63號","121.467868333333","25.0725683333333","6501500","五股區"
"248008","095-VK","2017/08/19 18:59:16","新北市五股區中興路一段118巷6弄3號","121.46623","25.0742033333333","6501500","五股區"
"248020","225-UY","2017/08/19 18:59:12","新北市五股區凌雲路三段59-2號","121.42519","25.1250033333333","6501500","五股區"
"248012","247-BX","2017/08/19 18:59:11","新北市五股區工商路38號","121.439363333333","25.0837216666667","6501500","五股區"
"248014","261-SL","2017/08/19 18:59:08","新北市五股區民義路一段107巷32號","121.43259","25.0846533333333","6501500","五股區"
"248004","677-BX","2017/08/19 18:59:24","新北市五股區民義路二段68號","121.405763333333","25.1078266666667","6501500","五股區"
"248002","678-BX","2017/08/19 18:59:22","新北市五股區凌雲路一段107號","121.450165","25.1017216666667","6501500","五股區"
"248010","682-TV","2017/08/19 18:59:27","新北市五股區水碓一路23號","121.43062","25.0712583333333","6501500","五股區"
"234023","9380-KE","2017/08/19 18:59:16","新北市永和區竹林路75巷33弄21號","121.520868333333","25.014465","6500400","永和區"
"234077","969-R7","2017/08/19 18:59:25","新北市永和區得和路104巷16號","121.517883333333","24.999495","6500400","永和區"
"234074","AAC-211","2017/08/19 18:59:22","新北市永和區福和路8巷3號","121.524975","25.00912","6500400","永和區"
"234067","AAC-212","2017/08/19 18:59:23","新北市永和區永和路一段22號","121.513083333333","25.004825","6500400","永和區"
"234003","AAC-295","2017/08/19 18:59:13","新北市永和區和平街44號","121.512895","25.009915","6500400","永和區"
"232011","375-UM","2017/08/19 18:59:28","新北市坪林區水聳淒坑20-2號","121.711343333333","24.9339566666667","6502000","坪林區"
"244019","403-UM","2017/08/19 18:59:14","新北市林口區忠孝路646巷37號","121.379433333333","25.0670916666667","6501700","林口區"
"244009","410-SL","2017/08/19 18:59:23","新北市林口區竹林路366巷5號","121.392365","25.0847433333333","6501700","林口區"
"244017","656-BX","2017/08/19 18:59:10","新北市林口區公園路131巷3號","121.369035","25.070525","6501700","林口區"
"244023","657-BX","2017/08/19 18:59:22","新北市林口區文林六街20號","121.371131666667","25.080585","6501700","林口區"
"244013","658-BX","2017/08/19 18:59:23","新北市林口區麗園路2巷25號","121.375086666667","25.0706333333333","6501700","林口區"
"244011","701-TV","2017/08/19 18:59:18","新北市林口區仁愛路一段619號","121.389861666667","25.0766466666667","6501700","林口區"
"244025","837-TS","2017/08/19 18:59:18","新北市林口區忠孝路1號","121.364226666667","25.076065","6501700","林口區"
"243013","AAD-798","2017/08/19 18:59:15","新北市泰山區明志路三段206巷1號","121.423396666667","25.037805","6501600","泰山區"
"243015","380-SR","2017/08/19 18:59:11","新北市泰山區泰林路二段286號","121.431195","25.0625766666667","6501600","泰山區"
"243014","421-VK","2017/08/19 18:59:25","新北市泰山區黎明路11號","121.421013333333","25.063205","6501600","泰山區"
"243010","548-UM","2017/08/19 18:59:18","新北市泰山區辭修路22號","121.429076666667","25.0581283333333","6501600","泰山區"
"243011","549-UM","2017/08/19 18:59:12","新北市泰山區明志路二段298巷16-1號","121.425723333333","25.0467566666667","6501600","泰山區"
"243012","646-TV","2017/08/19 18:59:19","新北市泰山區福興三街164號","121.432746666667","25.057035","6501600","泰山區"
"243016","680-BX","2017/08/19 18:59:23","新北市泰山區明志路二段211號","121.427485","25.0486816666667","6501600","泰山區"
"222003","436-BY","2017/08/19 18:59:23","新北市深坑區深南路51-1號","121.621381666667","25.0101316666667","6501800","深坑區"
"222002","659-BX","2017/08/19 18:59:26","新北市深坑區文山路一段31巷2號","121.629888333333","25.00335","6501800","深坑區"
"222001","696-SL","2017/08/19 18:59:16","新北市深坑區北深路一段266號","121.629246666667","25.00869","6501800","深坑區"
"231041","002-UM","2017/08/19 18:59:20","新北市新店區環河路62號","121.537145","24.9626683333333","6500600","新店區"
"231059","046-UY","2017/08/19 18:59:21","新北市新店區安和路一段6-1號","121.517133333333","24.965025","6500600","新店區"
"231061","047-UY","2017/08/19 18:59:14","新北市新店區安康路二段1-5號","121.517188333333","24.96388","6500600","新店區"
"231060","106-UY","2017/08/19 18:59:22","新北市新店區車子路10-4號","121.504966666667","24.9545516666667","6500600","新店區"
"231051","107-UY","2017/08/19 18:59:14","新北市新店區中正路429號","121.534196666667","24.978045","6500600","新店區"
"231048","108-UY","2017/08/19 18:59:20","新北市新店區德正街27巷29弄45號","121.545763333333","24.9720616666667","6500600","新店區"
"231064","110-UY","2017/08/19 18:59:15","新北市新店區安忠路8-1號","121.514745","24.9631566666667","6500600","新店區"
"231052","187-VK","2017/08/19 18:59:11","新北市新店區屈尺路2號","121.549265","24.9226266666667","6500600","新店區"
"231063","268-BY","2017/08/19 18:59:11","新北市新店區車子路109號","121.505271666667","24.9521066666667","6500600","新店區"
"231046","278-BY","2017/08/19 18:59:20","新北市新店區直潭四街33號","121.533716666667","24.9415666666667","6500600","新店區"
"231050","AAD-862","2017/08/19 18:59:10","新北市新店區新烏路一段11巷7號","121.54734","24.951325","6500600","新店區"
"231058","3712-VJ","2017/08/19 18:59:09","新北市新店區中興路一段185號","121.54305","24.9649416666667","6500600","新店區"
"231055","3713-VJ","2017/08/19 18:59:25","新北市新店區新生街13巷24號","121.53896","24.9663183333333","6500600","新店區"
"231056","4716-K9","2017/08/19 18:59:26","新北市新店區二十張路33巷20-1號","121.539028333333","24.9808916666667","6500600","新店區"
"231067","4772-VM","2017/08/19 18:59:13","新北市新店區安康路一段247巷4弄4號","121.524213333333","24.96261","6500600","新店區"
"231065","512-UM","2017/08/19 18:59:21","新北市新店區安祥路142號","121.474246666667","24.9548883333333","6500600","新店區"
"231054","513-UM","2017/08/19 18:59:13","新北市新店區新店路13號","121.540255","24.95284","6500600","新店區"
"231042","616-UM","2017/08/19 18:59:12","新北市新店區中正路11號","121.545511666667","24.9694433333333","6500600","新店區"
"231045","617-UM","2017/08/19 18:59:11","新北市新店區北新路一段73號","121.538468333333","24.96028","6500600","新店區"
"231040","619-UM","2017/08/19 18:59:25","新北市新店區中正路397號","121.534465","24.9774333333333","6500600","新店區"
"231049","719-UM","2017/08/19 18:59:27","新北市新店區二十張路142-1號","121.535108333333","24.9787983333333","6500600","新店區"
"231062","720-UM","2017/08/19 18:59:18","新北市新店區安民街35巷15號","121.515095","24.9657316666667","6500600","新店區"
"231044","897-TW","2017/08/19 18:59:24","新北市新店區寶中路72號","121.547851666667","24.980565","6500600","新店區"
"231043","899-TW","2017/08/19 18:59:19","新北市新店區北新路二段10號","121.542813333333","24.971155","6500600","新店區"
"231066","AKT-0513","2017/08/19 18:59:09","新北市新店區安祥路78號","121.489451666667","24.9586266666667","6500600","新店區"
"241035","462-BY","2017/08/19 18:59:16","新北市三重區重新路二段1-3號","121.499568333333","25.0628183333333","6500200","三重區"
"241029","942-UM","2017/08/19 18:59:07","新北市三重區重安街1號","121.489931666667","25.0583716666667","6500200","三重區"
"235066","003-UY","2017/08/19 18:59:24","新北市中和區中山路二段131巷5弄5號","121.50289","25.002905","6500300","中和區"
"235064","005-UY","2017/08/19 18:59:11","新北市中和區連城路75巷13號","121.498685","24.9982616666667","6500300","中和區"
"235063","006-UY","2017/08/19 18:59:13","新北市中和區中正路517號","121.488088333333","24.9943483333333","6500300","中和區"
"235056","096-UM","2017/08/19 18:59:07","新北市中和區中山路二段596巷44號","121.48157","25.0063766666667","6500300","中和區"
"235039","097-UM","2017/08/19 18:59:18","新北市中和區宜安路52巷23號","121.512648333333","24.9975383333333","6500300","中和區"
"235065","098-UM","2017/08/19 18:59:12","新北市中和區中山路二段2巷45弄12號","121.501975","25.0067716666667","6500300","中和區"
"235040","150-BY","2017/08/19 18:59:20","新北市中和區安樂路81號","121.512681666667","24.994415","6500300","中和區"
"235058","151-BY","2017/08/19 18:59:22","新北市中和區連城路573號","121.479073333333","24.9944266666667","6500300","中和區"
"235055","183-VK","2017/08/19 18:59:15","新北市中和區德光路70號","121.469376666667","25.00385","6500300","中和區"
"235038","185-VK","2017/08/19 18:59:28","新北市中和區大勇街31巷5號","121.517201666667","24.994315","6500300","中和區"
"235049","186-VK","2017/08/19 18:59:22","新北市中和區景安路167巷31號","121.506841666667","24.9950733333333","6500300","中和區"
"235067","255-BX","2017/08/19 18:59:16","新北市中和區民樂路78號","121.484463333333","25.0012033333333","6500300","中和區"
"235044","293-VK","2017/08/19 18:59:14","新北市中和區中興街143號","121.500015","24.9912616666667","6500300","中和區"
"235072","301-VK","2017/08/19 18:59:13","新北市中和區中山路二段257號","121.497326666667","25.0023283333333","6500300","中和區"
"235043","352-BY","2017/08/19 18:59:18","新北市中和區成功路47號","121.526168333333","24.9929816666667","6500300","中和區"
"235051","376-QA","2017/08/19 18:59:23","新北市中和區忠孝街11巷1號","121.509886666667","24.98313","6500300","中和區"
"235068","377-QA","2017/08/19 18:59:13","新北市中和區圓通路265巷23號","121.49614","24.99264","6500300","中和區"
"235061","378-QA","2017/08/19 18:59:20","新北市中和區民治街134巷2-2號","121.475321666667","25.00216","6500300","中和區"
"235050","4979-A6","2017/08/19 18:59:27","新北市中和區華新街50巷3號","121.507706666667","24.9839266666667","6500300","中和區"
"235069","4980-A6","2017/08/19 18:59:27","新北市中和區圓通路107號","121.499533333333","24.9965383333333","6500300","中和區"
"235042","551-UM","2017/08/19 18:59:19","新北市中和區秀朗路三段70巷55號","121.524761666667","24.9942166666667","6500300","中和區"
"235070","558-UM","2017/08/19 18:59:20","新北市中和區南山路14號","121.502021666667","24.9984966666667","6500300","中和區"
"235045","565-BX","2017/08/19 18:59:24","新北市中和區景新街467巷4號","121.513623333333","24.9881116666667","6500300","中和區"
"235054","640-BX","2017/08/19 18:59:22","新北市中和區民享街16號","121.473998333333","25.0038716666667","6500300","中和區"
"235060","647-TV","2017/08/19 18:59:19","新北市中和區民治街3巷2號","121.47496","25.0052816666667","6500300","中和區"
"235011","732-UM","2017/08/19 15:08:47","新北市板橋區文化路二段620號","121.477328333333","25.0376933333333","6500300","中和區"
"235046","733-UM","2017/08/19 18:59:14","新北市中和區興南路二段5號","121.508135","24.9862466666667","6500300","中和區"
"235062","800-TS","2017/08/19 18:59:23","新北市中和區中山路二段526巷12號","121.485843333333","25.00529","6500300","中和區"
"235057","801-TS","2017/08/19 18:59:11","新北市中和區民安街53-5號","121.479543333333","24.9996783333333","6500300","中和區"
"235041","802-TS","2017/08/19 18:59:22","新北市中和區中安街178巷13弄14號","121.510581666667","24.9984433333333","6500300","中和區"
"235052","805-TS","2017/08/19 18:59:19","新北市中和區興南路二段347號","121.500075","24.9800516666667","6500300","中和區"
"235048","896-TW","2017/08/19 18:59:19","新北市中和區華新街109巷16號","121.50881","24.9810183333333","6500300","中和區"
"235053","900-TW","2017/08/19 18:59:21","新北市中和區華順街135巷5號","121.465623333333","24.9961716666667","6500300","中和區"
"235071","911-UM","2017/08/19 18:59:24","新北市中和區員山路36巷16-2號","121.485151666667","24.9918166666667","6500300","中和區"
"235037","AAC-213","2017/08/19 18:59:12","新北市中和區自立路99巷36弄2號","121.523901666667","24.9942716666667","6500300","中和區"
"235059","AAC-215","2017/08/19 18:59:22","新北市中和區圓通路367巷18-5號","121.491958333333","24.9886116666667","6500300","中和區"
"220068","013-TV","2017/08/19 18:59:21","新北市板橋區中山路二段465巷46號","121.481203333333","25.0216266666667","6500100","板橋區"
"220065","072-UY","2017/08/19 18:59:25","新北市板橋區漢生東路326巷2弄1號","121.471401666667","25.007835","6500100","板橋區"
"220086","073-UY","2017/08/19 18:59:18","新北市板橋區中正路80巷19號","121.457548333333","25.014635","6500100","板橋區"
"220106","075-UY","2017/08/19 18:59:17","新北市板橋區文化路二段124巷24號","121.471145","25.0256883333333","6500100","板橋區"
"220069","AAD-861","2017/08/19 18:59:13","新北市板橋區四川路一段72號","121.459405","25.00534","6500100","板橋區"
"226004","312-R5","2017/08/19 18:59:19","新北市平溪區靜安路三段10號","121.750136666667","25.0263233333333","6502400","平溪區"
"228003","097-TW","2017/08/19 18:59:10","新北市貢寮區和美里龍洞街60-2號","121.914758333333","25.1166733333333","6502600","貢寮區"
"228004","212-TW","2017/08/19 15:52:28","新北市貢寮區貢寮里朝陽街1-2號","121.91221","25.0212483333333","6502600","貢寮區"
"228002","585-TW","2017/08/19 18:59:17","新北市貢寮區福隆里東興街92-1號","121.945935","25.0175733333333","6502600","貢寮區"
"228001","670-TC","2017/08/19 18:59:23","新北市貢寮區仁理村研海街12-1號","121.923753333333","25.0516716666667","6502600","貢寮區"
"224010","AGQ-8101","2017/08/19 18:59:15","新北市瑞芳區基山街60號","121.84527","25.108985","6501200","瑞芳區"
"224006","676-BX","2017/08/19 18:59:17","新北市瑞芳區中正路22號","121.808338333333","25.10706","6501200","瑞芳區"
"224011","420-VK","2017/08/19 18:59:17","新北市瑞芳區崙頂路1-6號","121.847063333333","25.1046983333333","6501200","瑞芳區"
"224009","285-BY","2017/08/19 18:59:18","新北市瑞芳區祈堂路53-1號","121.859605","25.110725","6501200","瑞芳區"
"224008","275-VK","2017/08/19 18:59:26","新北市瑞芳區逢甲路343-2號","121.800105","25.1124116666667","6501200","瑞芳區"
"224007","273-VK","2017/08/19 18:59:23","新北市瑞芳區中央路48巷56-22號","121.759426666667","25.1037616666667","6501200","瑞芳區"
"224005","271-BY","2017/08/19 18:59:20","新北市瑞芳區海濱路87-2號","121.830595","25.1224766666667","6501200","瑞芳區"
"227002","642-TC","2017/08/19 18:59:12","新北市雙溪區平林里外平林10-4號","121.859145","25.038045","6502500","雙溪區"
"227010","400-TW","2017/08/19 18:57:53","新北市雙溪區牡丹里中正路58巷40號","121.867036666667","25.041585","6502500","雙溪區"
"253006","032-BX","2017/08/19 18:59:22","新北市石門區下員坑16號","121.510661666667","25.283815","6502200","石門區"
"253005","295-VK","2017/08/19 18:59:21","新北市石門區中央路6號","121.5666","25.2912983333333","6502200","石門區"
"208002","742-BX","2017/08/19 18:59:24","新北市金山區信義路33號","121.635531666667","25.2197666666667","6502700","金山區"
"208003","665-BX","2017/08/19 18:59:09","新北市金山區中正路26號","121.635895","25.2222566666667","6502700","金山區"
"208001","761-BX","2017/08/19 18:59:17","新北市金山區中山路117號","121.639433333333","25.2196883333333","6502700","金山區"
"251009","008-UM","2017/08/19 18:59:13","新北市淡水區重建街38號","121.439863333333","25.1713516666667","6501000","淡水區"
"251002","012-UM","2017/08/19 18:59:06","新北市淡水區學府路22號","121.447588333333","25.16818","6501000","淡水區"
"251014","180-VK","2017/08/19 18:59:06","新北市淡水區小中寮32-1號","121.49114","25.22615","6501000","淡水區"
"251010","413-VK","2017/08/19 18:59:25","新北市淡水區中正路二段22巷47號","121.421488333333","25.18254","6501000","淡水區"
"251012","441-VK","2017/08/19 18:59:15","新北市淡水區新興街118號","121.43922","25.1809783333333","6501000","淡水區"
"251016","442-VK","2017/08/19 18:59:26","新北市淡水區淡金路三段333號","121.448853333333","25.2063316666667","6501000","淡水區"
"251005","443-VK","2017/08/19 18:59:22","新北市淡水區新生街78號","121.439151666667","25.174895","6501000","淡水區"
"251001","559-UM","2017/08/19 18:59:19","新北市淡水區自強路58-1號","121.463253333333","25.127625","6501000","淡水區"
"251007","577-R6","2017/08/19 18:59:19","新北市淡水區民生路117巷1號","121.46483","25.138785","6501000","淡水區"
"251011","650-BX","2017/08/19 18:59:10","新北市淡水區中正東路40-7號","121.450143333333","25.165055","6501000","淡水區"
"251003","673-BX","2017/08/19 18:59:18","新北市淡水區中山北路一段149巷33號","121.443165","25.1779166666667","6501000","淡水區"
"207003","550-UM","2017/08/19 18:59:23","新北市萬里區大鵬里頂社29號","121.656511666667","25.2108433333333","6502800","萬里區"
"207004","225-TW","2017/08/19 18:59:12","新北市萬里區萬里里獅頭路23號","121.693175","25.1782283333333","6502800","萬里區"
"252002","178-VK","2017/08/19 18:59:26","新北市三芝區中正路一段82號","121.504168333333","25.2573016666667","6502100","三芝區"
"252003","249-BX","2017/08/19 18:59:15","新北市三芝區後厝里北勢子45號","121.468816666667","25.250415","6502100","三芝區"
"252001","292-VK","2017/08/19 18:59:21","新北市三芝區中興街二段260號","121.501721666667","25.2530083333333","6502100","三芝區"
"237004","078-UY","2017/08/19 18:58:58","新北市三峽區有木111-1號","121.434623333333","24.8599016666667","6500900","三峽區"
"237007","153-BY","2017/08/19 18:59:15","新北市三峽區大埔路175號","121.366686666667","24.9052216666667","6500900","三峽區"
"237013","252-BX","2017/08/19 18:59:19","新北市三峽區光明路69巷27號","121.376835","24.9292366666667","6500900","三峽區"
"237012","275-BY","2017/08/19 18:59:11","新北市三峽區三樹路222巷35號","121.381278333333","24.942455","6500900","三峽區"
"237008","302-VK","2017/08/19 18:59:18","新北市三峽區正義街129號","121.368521666667","24.916705","6500900","三峽區"
"237014","433-BY","2017/08/19 18:59:12","新北市三峽區隆恩街232號","121.357845","24.9412483333333","6500900","三峽區"
"237006","5529-G3","2017/08/19 18:59:17","新北市三峽區溪東路233巷47弄2號","121.410586666667","24.934655","6500900","三峽區"
"237011","572-TV","2017/08/19 18:59:12","新北市三峽區介壽路二段165號","121.394016666667","24.93592","6500900","三峽區"
"237016","649-BX","2017/08/19 18:59:25","新北市三峽區安坑46-1號","121.456388333333","24.93216","6500900","三峽區"
"237010","706-TV","2017/08/19 18:59:23","新北市三峽區國光街83-3號","121.373596666667","24.9387383333333","6500900","三峽區"
"237005","AKY-6261","2017/08/19 18:59:28","新北市三峽區中山路459巷163-3號","121.348993333333","24.93327","6500900","三峽區"
"236073","105-UM","2017/08/19 18:59:20","新北市土城區青雲路107-1號","121.45907","24.9854133333333","6501300","土城區"
"236043","107-UM","2017/08/19 18:59:21","新北市土城區學府路一段229巷2號","121.45133","24.9838916666667","6501300","土城區"
"236079","166-UM","2017/08/19 18:59:21","新北市土城區中央路四段125巷2弄18號","121.416411666667","24.9569066666667","6501300","土城區"
"236031","253-BX","2017/08/19 18:59:13","新北市土城區慶利街9號","121.439623333333","24.973635","6501300","土城區"
"236027","269-VK","2017/08/19 18:59:22","新北市土城區慶安街20號","121.441685","24.973435","6501300","土城區"
"236015","270-VK","2017/08/19 18:59:25","新北市土城區立德路34號","121.463216666667","24.9873933333333","6501300","土城區"
"236038","271-VK","2017/08/19 18:59:10","新北市土城區仁愛路54巷18號","121.461635","24.9783316666667","6501300","土城區"
"236023","401-BY","2017/08/19 18:59:19","新北市土城區明峰街50號","121.467781666667","24.9864666666667","6501300","土城區"
"236059","912-UM","2017/08/19 18:59:21","新北市土城區金城路二段36號","121.450821666667","24.978455","6501300","土城區"
"236049","913-UM","2017/08/19 18:59:19","新北市土城區青雲路316號","121.458748333333","24.9782716666667","6501300","土城區"
"236063","915-UM","2017/08/19 18:59:15","新北市土城區延和路41巷13號","121.465948333333","24.9900133333333","6501300","土城區"
"236055","AAC-216","2017/08/19 18:59:16","新北市土城區裕民路30號","121.447885","24.9884816666667","6501300","土城區"
"238023","601-UM","2017/08/19 18:59:25","新北市樹林區工興街15號","121.398536666667","25.0137933333333","6500700","樹林區"
"238019","599-UM","2017/08/19 18:59:26","新北市樹林區東榮街169號","121.414003333333","24.9814066666667","6500700","樹林區"
"238018","571-TV","2017/08/19 18:59:17","新北市樹林區太元街2巷7號","121.41716","24.9809133333333","6500700","樹林區"
"238021","311-TH","2017/08/19 18:47:58","新北市樹林區佳園路二段26號","121.39133","24.963345","6500700","樹林區"
"238022","308-TH","2017/08/19 18:59:13","新北市樹林區東興街14-1號","121.409996666667","24.9785483333333","6500700","樹林區"
"238025","303-VK","2017/08/19 18:59:14","新北市樹林區民和街67號","121.38082","24.9713416666667","6500700","樹林區"
"238017","283-BY","2017/08/19 18:59:23","新北市樹林區光興街44號","121.409896666667","25.0027416666667","6500700","樹林區"
"238014","282-BY","2017/08/19 18:59:16","新北市樹林區潭興街143巷1-1號","121.425743333333","24.99976","6500700","樹林區"
"238020","268-VK","2017/08/19 01:45:28","新北市樹林區中山路三段204號","121.386898333333","24.968085","6500700","樹林區"
"238026","172-UY","2017/08/19 18:59:13","新北市樹林區信和街26號","121.3905","24.9730616666667","6500700","樹林區"
"238016","169-UY","2017/08/19 18:59:18","新北市樹林區文化街28號","121.419275","24.98784","6500700","樹林區"
"239007","AAC-297","2017/08/19 18:59:24","新北市鶯歌區中山路138巷13號","121.35111","24.9590783333333","6500800","鶯歌區"
"239006","891-R6","2017/08/19 18:59:15","新北市鶯歌區鶯桃路240號","121.336283333333","24.95953","6500800","鶯歌區"
"239008","527-UM","2017/08/19 18:59:24","新北市鶯歌區國際二路18巷31號","121.337905","24.9756333333333","6500800","鶯歌區"
"239005","526-UM","2017/08/19 18:59:09","新北市鶯歌區大湖路361巷68號","121.331136666667","24.9772183333333","6500800","鶯歌區"
"239001","417-VK","2017/08/19 18:59:18","新北市鶯歌區鶯桃路94巷61號","121.341335","24.954665","6500800","鶯歌區"
"239003","360-BY","2017/08/19 18:59:26","新北市鶯歌區鶯桃路403號","121.333155","24.9641166666667","6500800","鶯歌區"
"239002","359-BY","2017/08/19 18:59:22","新北市鶯歌區西湖街53巷15號","121.339495","24.9599233333333","6500800","鶯歌區"
"239004","193-VK","2017/08/19 18:59:28","新北市鶯歌區中正三路335巷12號","121.328388333333","24.9349983333333","6500800","鶯歌區"
"221008","489-VK","2017/08/19 18:59:10","新北市汐止區康寧街753巷2弄12號","121.639555","25.0740983333333","6501100","汐止區"
"221036","130-UY","2017/08/19 18:59:19","新北市汐止區汐萬路一段159號","121.65309","25.0709966666667","6501100","汐止區"
"221015","131-UY","2017/08/19 18:59:15","新北市汐止區汐萬路一段124號","121.653785","25.07123","6501100","汐止區"
"221012","276-VK","2017/08/19 13:20:01","新北市汐止區汐萬路一段256巷3號","121.653443333333","25.0746533333333","6501100","汐止區"
"221031","277-VK","2017/08/19 18:59:11","新北市汐止區福德二路156巷18號","121.630198333333","25.065605","6501100","汐止區"
"221012","278-VK","2017/08/19 18:59:12","新北市汐止區康寧街901號","121.650805","25.075215","6501100","汐止區"
"221023","279-VK","2017/08/19 18:59:21","新北市汐止區康寧街901號","121.650963333333","25.07523","6501100","汐止區"
"221032","280-BY","2017/08/19 18:59:14","新北市汐止區橫科路407巷25弄7號","121.625878333333","25.0483883333333","6501100","汐止區"
"221027","281-BY","2017/08/19 18:59:27","新北市汐止區康寧街901號","121.650991666667","25.0751916666667","6501100","汐止區"
"221038","297-VK","2017/08/19 18:59:19","新北市汐止區汐萬路一段312號","121.650671666667","25.0752466666667","6501100","汐止區"
"221029","298-VK","2017/08/19 18:59:27","新北市汐止區樟樹一路254號","121.642453333333","25.0672583333333","6501100","汐止區"
"221021","299-VK","2017/08/19 18:59:16","新北市汐止區康寧街901號","121.65138","25.075005","6501100","汐止區"
"221025","623-UM","2017/08/19 18:59:20","新北市汐止區汐萬路一段256巷3號","121.652546666667","25.0745666666667","6501100","汐止區"
"221010","646-BX","2017/08/19 18:59:20","新北市汐止區康寧街901號","121.651461666667","25.0749983333333","6501100","汐止區"
"221033","647-BX","2017/08/19 18:59:24","新北市汐止區南勢街3號","121.62709","25.0374033333333","6501100","汐止區"
"221002","707-TV","2017/08/19 18:59:13","新北市汐止區大同路一段2號","121.62102","25.0550266666667","6501100","汐止區"
"221018","753-BX","2017/08/19 18:59:21","新北市汐止區大同路二段373號","121.657283333333","25.067275","6501100","汐止區"
"220079","145-BY","2017/08/19 18:59:08","新北市板橋區民權路202巷18弄1號","121.460823333333","25.016645","6500100","板橋區"
"220080","200-UY","2017/08/19 18:59:23","新北市板橋區大觀路二段265巷60弄2號","121.44271","24.99811","6500100","板橋區"
"220082","610-BX","2017/08/19 18:59:24","新北市板橋區滿平街139號","121.428983333333","24.9881583333333","6500100","板橋區"
"220101","245-BX","2017/08/19 16:42:57","新北市板橋區民生路二段120號","121.47056","25.0194783333333","6500100","板橋區"
"220102","257-TC","2017/08/19 18:59:15","新北市板橋區縣民大道三段133巷35號","121.477036666667","25.0246933333333","6500100","板橋區"
"220094","267-BY","2017/08/19 18:59:08","新北市板橋區文化路二段76號","121.469383333333","25.0250416666667","6500100","板橋區"
"220056","276-BY","2017/08/19 18:59:22","新北市板橋區信義路161號","121.458528333333","24.9924","6500100","板橋區"
"220072","277-BY","2017/08/19 18:59:23","新北市樹林區樹新路98號","121.429558333333","24.9978","6500100","板橋區"
"220057","280-UM","2017/08/19 18:59:12","新北市板橋區民權路45號","121.4621","25.01127","6500100","板橋區"
"220071","283-VK","2017/08/19 18:59:25","新北市板橋區重慶路245巷67弄2號","121.465625","25.00124","6500100","板橋區"
"220053","285-VK","2017/08/19 18:59:24","新北市板橋區中山路二段89巷43號","121.473641666667","25.0172016666667","6500100","板橋區"
"220083","286-VK","2017/08/19 18:59:21","新北市板橋區大觀路一段38巷156弄137號","121.443605","25.008615","6500100","板橋區"
"220081","287-VK","2017/08/19 18:59:24","新北市板橋區光華街15巷2號","121.453913333333","25.0118466666667","6500100","板橋區"
"220090","288-VK","2017/08/19 18:59:08","新北市板橋區四維路134號","121.465176666667","25.0252683333333","6500100","板橋區"
"220061","293-UM","2017/08/19 18:59:25","新北市板橋區永豐街161號","121.475456666667","25.0203133333333","6500100","板橋區"
"220055","295-UM","2017/08/19 18:59:14","新北市板橋區中山路一段158巷11號","121.466298333333","25.011565","6500100","板橋區"
"220084","296-UM","2017/08/19 18:59:20","新北市板橋區大觀路二段156巷47號","121.441275","24.99998","6500100","板橋區"
"220075","297-UM","2017/08/19 18:59:17","新北市板橋區館前西路211號","121.454551666667","25.0083833333333","6500100","板橋區"
"241031","281-VK","2017/08/19 18:17:17","新北市新莊區環河路636-7號","121.43734","25.0111816666667","6500200","三重區"
"220062","303-R5","2017/08/19 18:59:28","新北市板橋區民享街75號","121.476585","25.0154933333333","6500100","板橋區"
"220098","317-R6","2017/08/19 18:59:19","新北市板橋區民有街18號","121.46623","25.0249766666667","6500100","板橋區"
"220064","486-VK","2017/08/19 18:59:24","新北市板橋區縣民大道二段74號","121.466443333333","25.0141283333333","6500100","板橋區"
"220089","487-VK","2017/08/19 18:59:19","新北市板橋區文化路二段317號","121.472168333333","25.029925","6500100","板橋區"
"220088","491-VK","2017/08/19 18:59:21","新北市板橋區民生路二段188號","121.46995","25.0206883333333","6500100","板橋區"
"220035","560-BX","2017/08/19 18:59:22","新北市板橋區中正路341巷35號","121.454176666667","25.0197716666667","6500100","板橋區"
"220103","561-BX","2017/08/19 18:59:15","新北市板橋區介壽街82號","121.469833333333","25.01888","6500100","板橋區"
"220063","609-BX","2017/08/19 18:59:22","新北市板橋區中山路二段126號","121.476238333333","25.0168666666667","6500100","板橋區"
"220091","637-BX","2017/08/19 18:59:15","新北市板橋區莒光路165巷14-1號","121.47406","25.024315","6500100","板橋區"
"220077","687-BX","2017/08/19 18:59:27","新北市板橋區龍興街22號","121.442973333333","25.0001033333333","6500100","板橋區"
"220093","689-BX","2017/08/19 18:59:22","新北市板橋區民生路二段250號","121.468128333333","25.0233916666667","6500100","板橋區"
"220054","741-BX","2017/08/19 18:59:24","新北市板橋區後埔街19號","121.460425","25.0065783333333","6500100","板橋區"
"220067","829-TW","2017/08/19 18:59:16","新北市板橋區三民路二段正隆巷12弄16-2號","121.477738333333","25.0135716666667","6500100","板橋區"
"220096","831-TW","2017/08/19 18:59:23","新北市板橋區莒光路60號","121.47101","25.0240866666667","6500100","板橋區"
"220074","895-R6","2017/08/19 18:59:11","新北市板橋區林園街2號","121.454348333333","25.009205","6500100","板橋區"
"220073","985-R7","2017/08/19 18:59:15","新北市板橋區中正路163-1號","121.456573333333","25.01627","6500100","板橋區"
"220097","AAC-210","2017/08/19 18:59:27","新北市板橋區四維路137巷17號","121.464383333333","25.0249233333333","6500100","板橋區"
"220070","AAC-253","2017/08/19 18:59:24","新北市板橋區四川路一段46號","121.459601666667","25.0059366666667","6500100","板橋區"
