"lineid","car","time","location","longitude","latitude","cityid","cityname"
"234046","148-BY","2017/08/19 19:19:20","新北市永和區得和路373巷6弄1號","121.524858333333","24.9999066666667","6500400","永和區"
"234013","149-BY","2017/08/19 19:19:28","新北市永和區信義路46-1號","121.513253333333","25.0123883333333","6500400","永和區"
"234007","207-UY","2017/08/19 19:19:31","新北市永和區中山路一段151號","121.509973333333","25.0095016666667","6500400","永和區"
"234081","298-R6","2017/08/19 19:19:27","新北市永和區福和路59號","121.523016666667","25.007685","6500400","永和區"
"234038","336-UY","2017/08/19 19:19:33","新北市永和區民樂街41巷2號","121.527463333333","25.0000333333333","6500400","永和區"
"234064","337-UY","2017/08/19 19:19:22","新北市永和區永元路17巷12號","121.521438333333","25.0009866666667","6500400","永和區"
"234086","338-UY","2017/08/19 19:19:32","新北市永和區永亨路9號","121.519391666667","25.0058616666667","6500400","永和區"
"234054","553-UM","2017/08/19 19:19:30","新北市永和區中興街62號","121.517191666667","25.0117133333333","6500400","永和區"
"234017","745-BX","2017/08/19 19:19:15","新北市永和區文化路144巷27號","121.512448333333","25.0167483333333","6500400","永和區"
"234030","746-BX","2017/08/19 19:19:28","新北市永和區民生路71號","121.522631666667","24.9971466666667","6500400","永和區"
"234061","AAD-866","2017/08/19 19:19:13","新北市永和區永貞路131號","121.516738333333","25.0041683333333","6500400","永和區"
"234070","847-RS","2017/08/19 19:19:34","新北市永和區中正路666巷36號","121.518076666667","25.00911","6500400","永和區"
"234042","862-TW","2017/08/19 19:19:19","新北市永和區保平路151巷3號","121.51015","25.0056","6500400","永和區"
"234050","863-TW","2017/08/19 19:19:29","新北市永和區仁愛路107號","121.512351666667","25.0131116666667","6500400","永和區"
"234026","9371-KE","2017/08/19 19:19:14","新北市中和區安樂路255號","121.514068333333","24.9998133333333","6500400","永和區"
"234011","9373-KE","2017/08/19 19:19:24","新北市永和區仁愛路236號","121.508511666667","25.0117033333333","6500400","永和區"
"249001","173-UM","2017/08/19 19:19:17","新北市八里區中華路一段333-1號","121.413088333333","25.1539216666667","6502300","八里區"
"249003","593-UM","2017/08/19 19:19:20","新北市八里區中山路二段446號","121.399485","25.147455","6502300","八里區"
"248020","225-UY","2017/08/19 19:19:32","新北市五股區凌雲路三段59-2號","121.42518","25.1250316666667","6501500","五股區"
"248012","247-BX","2017/08/19 19:19:31","新北市五股區中興路四段48巷16號","121.438613333333","25.083455","6501500","五股區"
"248004","677-BX","2017/08/19 19:19:24","新北市五股區五福路25號","121.433938333333","25.0891616666667","6501500","五股區"
"248002","678-BX","2017/08/19 19:19:22","新北市五股區凌雲路一段158巷6號","121.447838333333","25.1029616666667","6501500","五股區"
"248010","682-TV","2017/08/19 19:19:27","新北市五股區水碓一路23號","121.430565","25.071255","6501500","五股區"
"234023","9380-KE","2017/08/19 19:19:33","新北市永和區竹林路109巷3號","121.520073333333","25.01191","6500400","永和區"
"234077","969-R7","2017/08/19 19:19:25","新北市永和區民治街72巷3號","121.51788","24.99832","6500400","永和區"
"234074","AAC-211","2017/08/19 19:19:14","新北市永和區復興街91號","121.51771","25.01419","6500400","永和區"
"234067","AAC-212","2017/08/19 19:19:23","新北市永和區保平路18巷13號","121.512035","25.0079733333333","6500400","永和區"
"234003","AAC-295","2017/08/19 19:19:13","新北市永和區永平路168號","121.510761666667","25.0089483333333","6500400","永和區"
"244019","403-UM","2017/08/19 19:19:14","新北市林口區麗園二街60巷88號","121.381535","25.0676433333333","6501700","林口區"
"244023","657-BX","2017/08/19 19:19:22","新北市林口區民富街95號","121.370211666667","25.0749966666667","6501700","林口區"
"244013","658-BX","2017/08/19 19:19:22","新北市林口區麗園一街2巷1號","121.375725","25.0719183333333","6501700","林口區"
"244011","701-TV","2017/08/19 19:19:18","新北市林口區中山路202-6號","121.388008333333","25.0791166666667","6501700","林口區"
"243013","AAD-798","2017/08/19 19:19:35","新北市泰山區明志路三段145巷2弄15號","121.425093333333","25.03942","6501600","泰山區"
"243009","297-R6","2017/08/19 19:19:25","新北市泰山區文化街3號","121.433826666667","25.0639416666667","6501600","泰山區"
"243015","380-SR","2017/08/19 19:19:31","新北市泰山區公園路71號","121.426308333333","25.0554583333333","6501600","泰山區"
"243014","421-VK","2017/08/19 19:19:30","新北市泰山區泰林路二段105號","121.434666666667","25.0591366666667","6501600","泰山區"
"243010","548-UM","2017/08/19 19:19:18","新北市泰山區明志路一段492巷7號","121.429991666667","25.0547533333333","6501600","泰山區"
"243011","549-UM","2017/08/19 19:19:32","新北市泰山區貴子路15巷4弄2號","121.426555","25.04222","6501600","泰山區"
"243012","646-TV","2017/08/19 19:19:18","新北市泰山區同義街53號","121.431765","25.0559566666667","6501600","泰山區"
"243016","680-BX","2017/08/19 19:19:35","新北市泰山區工專路82巷1號","121.422408333333","25.0405416666667","6501600","泰山區"
"222003","436-BY","2017/08/19 19:19:23","新北市深坑區深南路204號","121.626618333333","25.015995","6501800","深坑區"
"222002","659-BX","2017/08/19 19:19:26","新北市深坑區北深路一段177號","121.63255","25.01088","6501800","深坑區"
"222001","696-SL","2017/08/19 19:19:16","新北市深坑區北深路二段82號","121.617558333333","25.0035583333333","6501800","深坑區"
"231041","002-UM","2017/08/19 19:19:20","新北市新店區溪園路245-6號","121.525338333333","24.9832316666667","6500600","新店區"
"231059","046-UY","2017/08/19 19:19:21","新北市新店區安和路三段4號","121.51795","24.9808783333333","6500600","新店區"
"231061","047-UY","2017/08/19 19:19:14","新北市新店區安康路一段235號","121.525246666667","24.9632183333333","6500600","新店區"
"231060","106-UY","2017/08/19 19:19:30","新北市新店區安康路二段136號","121.512528333333","24.9620433333333","6500600","新店區"
"231051","107-UY","2017/08/19 19:19:14","新北市新店區百忍街48號","121.533425","24.9762166666667","6500600","新店區"
"231048","108-UY","2017/08/19 19:19:23","新北市新店區中興路二段81號","121.54671","24.9711933333333","6500600","新店區"
"231064","110-UY","2017/08/19 19:19:14","新北市新店區安忠路57巷26弄36號","121.512176666667","24.9579783333333","6500600","新店區"
"231052","187-VK","2017/08/19 19:19:31","新北市新店區自強路254號","121.547873333333","24.9187616666667","6500600","新店區"
"231063","268-BY","2017/08/19 19:19:31","新北市新店區達觀路8巷2號","121.503985","24.94275","6500600","新店區"
"231046","278-BY","2017/08/19 19:19:19","新北市新店區華城路6號","121.530156666667","24.9604683333333","6500600","新店區"
"231050","AAD-862","2017/08/19 19:19:30","新北市新店區竹林路151號","121.555625","24.9487383333333","6500600","新店區"
"231058","3712-VJ","2017/08/19 19:19:29","新北市新店區光明街270號","121.540551666667","24.96411","6500600","新店區"
"231067","4772-VM","2017/08/19 19:19:33","新北市新店區安康路二段414巷2號","121.495863333333","24.95777","6500600","新店區"
"231065","512-UM","2017/08/19 19:19:21","新北市新店區安祥路120號","121.474566666667","24.95652","6500600","新店區"
"231054","513-UM","2017/08/19 19:19:33","新北市新店區國校路45-1號","121.537926666667","24.955035","6500600","新店區"
"231042","616-UM","2017/08/19 19:19:32","新北市新店區光明街28號","121.538513333333","24.9587083333333","6500600","新店區"
"231045","617-UM","2017/08/19 19:19:31","新北市新店區北宜路一段260號","121.545696666667","24.9527916666667","6500600","新店區"
"231040","619-UM","2017/08/19 19:19:25","新北市新店區三民路24號","121.53696","24.9711016666667","6500600","新店區"
"231049","719-UM","2017/08/19 19:19:27","新北市新店區明德路64號","121.541575","24.9794716666667","6500600","新店區"
"231062","720-UM","2017/08/19 19:19:22","新北市新店區莒光路85巷8號","121.523508333333","24.9559433333333","6500600","新店區"
"231044","897-TW","2017/08/19 19:19:29","新北市新店區中興路三段330號","121.54201","24.9865983333333","6500600","新店區"
"231043","899-TW","2017/08/19 19:19:21","新北市新店區北新路二段152巷2號","121.543003333333","24.9752183333333","6500600","新店區"
"231066","AKT-0513","2017/08/19 19:19:29","新北市新店區安康路三段355巷6號","121.484796666667","24.95045","6500600","新店區"
"241009","060-VK","2017/08/19 19:19:30","新北市三重區溪尾街230巷42-2號","121.486143333333","25.0811183333333","6500200","三重區"
"241031","061-VK","2017/08/19 19:19:32","新北市三重區重新路四段101-1號","121.485735","25.0542783333333","6500200","三重區"
"241017","063-VK","2017/08/19 19:19:21","新北市三重區重陽路三段5巷48號","121.492088333333","25.064955","6500200","三重區"
"241026","066-VK","2017/08/19 19:19:31","新北市三重區泉州街84巷20號","121.495841666667","25.0544883333333","6500200","三重區"
"241022","267-UM","2017/08/19 19:19:23","新北市三重區中正北路60-2號","121.486818333333","25.064455","6500200","三重區"
"241007","398-BY","2017/08/19 19:19:28","新北市三重區慈愛街45號","121.485886666667","25.0790383333333","6500200","三重區"
"241020","412-TH","2017/08/19 19:19:17","新北市三重區後竹圍街101號","121.489196666667","25.0729366666667","6500200","三重區"
"241035","462-BY","2017/08/19 19:19:16","新北市三重區中正北路9號","121.492566666667","25.0611833333333","6500200","三重區"
"241030","480-VK","2017/08/19 19:19:14","新北市三重區新興路40號","121.491598333333","25.05352","6500200","三重區"
"241025","887-TS","2017/08/19 19:19:20","新北市三重區中正北路404號","121.475371666667","25.0704066666667","6500200","三重區"
"241029","942-UM","2017/08/19 19:19:27","新北市三重區重安街33號","121.491196666667","25.0569366666667","6500200","三重區"
"235066","003-UY","2017/08/19 19:17:52","新北市中和區中和路102號","121.502671666667","24.999715","6500300","中和區"
"235064","005-UY","2017/08/19 19:19:32","新北市中和區中和路49號","121.500155","25.0012916666667","6500300","中和區"
"235063","006-UY","2017/08/19 19:19:33","新北市中和區連城路249巷21弄2號","121.49412","24.9959316666667","6500300","中和區"
"235056","096-UM","2017/08/19 19:19:27","新北市中和區員山路513號","121.479788333333","25.006635","6500300","中和區"
"235039","097-UM","2017/08/19 19:19:18","新北市中和區景平路64巷13弄16號","121.521973333333","24.9913866666667","6500300","中和區"
"235065","098-UM","2017/08/19 19:19:32","新北市中和區莊敬路35號","121.500753333333","25.004845","6500300","中和區"
"235040","150-BY","2017/08/19 19:19:20","新北市中和區保健路50巷68號","121.509126666667","24.995145","6500300","中和區"
"235058","151-BY","2017/08/19 19:19:22","新北市中和區連城路523巷9弄11號","121.482258333333","24.99468","6500300","中和區"
"235055","183-VK","2017/08/19 19:19:15","新北市中和區德光路102號","121.468445","25.003435","6500300","中和區"
"235038","185-VK","2017/08/19 19:19:28","新北市中和區大仁街10巷27弄4號","121.519238333333","24.9927066666667","6500300","中和區"
"235049","186-VK","2017/08/19 19:19:22","新北市中和區景新街235號","121.508128333333","24.9944866666667","6500300","中和區"
"235067","255-BX","2017/08/19 19:19:16","新北市中和區民樂路77號","121.484488333333","25.001345","6500300","中和區"
"235044","293-VK","2017/08/19 19:19:14","新北市中和區中興街222-5號","121.500668333333","24.9895766666667","6500300","中和區"
"235072","301-VK","2017/08/19 19:19:33","新北市中和區連城路265巷6弄2號","121.491403333333","24.9960916666667","6500300","中和區"
"235043","352-BY","2017/08/19 19:19:19","新北市中和區景平路243號","121.509416666667","24.99273","6500300","中和區"
"235051","376-QA","2017/08/19 19:19:20","新北市中和區和平街24巷4號","121.510043333333","24.990475","6500300","中和區"
"235068","377-QA","2017/08/19 19:19:33","新北市中和區連勝街38巷2號","121.497888333333","24.9978","6500300","中和區"
"235061","378-QA","2017/08/19 19:19:20","新北市中和區員山路431號","121.480888333333","25.0037166666667","6500300","中和區"
"235050","4979-A6","2017/08/19 19:19:27","新北市中和區景安路206號","121.503921666667","24.9909133333333","6500300","中和區"
"235069","4980-A6","2017/08/19 19:19:27","新北市中和區福祥路85巷3號","121.49879","25.0056816666667","6500300","中和區"
"235042","551-UM","2017/08/19 19:19:19","新北市中和區大勇街60巷14弄1號","121.518766666667","24.9945583333333","6500300","中和區"
"235070","558-UM","2017/08/19 19:19:20","新北市中和區中和路93號","121.501283333333","25.0006266666667","6500300","中和區"
"235045","565-BX","2017/08/19 19:19:24","新北市中和區景新街437巷19號","121.51424","24.98936","6500300","中和區"
"235054","640-BX","2017/08/19 19:19:22","新北市中和區民德路141號","121.468775","25.00053","6500300","中和區"
"235060","647-TV","2017/08/19 19:19:19","新北市中和區民有街41號","121.475836666667","25.0049116666667","6500300","中和區"
"235011","732-UM","2017/08/19 15:08:47","新北市板橋區文化路二段620號","121.477328333333","25.0376933333333","6500300","中和區"
"235046","733-UM","2017/08/19 19:19:34","新北市中和區忠孝街2巷13弄2號","121.510486666667","24.9818783333333","6500300","中和區"
"235057","801-TS","2017/08/19 19:19:31","新北市中和區員山路204號","121.481296666667","25.0006816666667","6500300","中和區"
"235041","802-TS","2017/08/19 19:19:22","新北市中和區景安路2號","121.50789","24.99916","6500300","中和區"
"235052","805-TS","2017/08/19 19:19:19","新北市中和區興南路二段142巷17弄10號","121.503188333333","24.9830933333333","6500300","中和區"
"235048","896-TW","2017/08/19 19:19:32","新北市中和區忠孝街108-4號","121.512128333333","24.98497","6500300","中和區"
"235053","900-TW","2017/08/19 19:19:19","新北市中和區華福街57巷4號","121.466825","24.9969083333333","6500300","中和區"
"235071","911-UM","2017/08/19 19:19:24","新北市中和區中正路637巷52弄1號","121.485578333333","24.993795","6500300","中和區"
"235037","AAC-213","2017/08/19 19:19:12","新北市中和區秀朗路三段50巷5-1號","121.525936666667","24.995395","6500300","中和區"
"235059","AAC-215","2017/08/19 19:19:22","新北市中和區圓通路286巷2號","121.491486666667","24.99099","6500300","中和區"
"220068","013-TV","2017/08/19 19:19:21","新北市板橋區萬安街132號","121.483318333333","25.0259983333333","6500100","板橋區"
"220065","072-UY","2017/08/19 19:19:25","新北市板橋區民族路129巷10號","121.467641666667","25.008435","6500100","板橋區"
"220086","073-UY","2017/08/19 19:19:18","新北市板橋區國光路49巷3號","121.457975","25.01875","6500100","板橋區"
"220106","075-UY","2017/08/19 19:19:21","新北市板橋區雙十路三段66巷1號","121.470613333333","25.0319316666667","6500100","板橋區"
"220069","AAD-861","2017/08/19 19:19:32","新北市板橋區四川路一段104號","121.459783333333","25.00468","6500100","板橋區"
"226004","312-R5","2017/08/19 19:19:19","新北市平溪區十分里十分街214-6號","121.779156666667","25.04385","6502400","平溪區"
"228003","097-TW","2017/08/19 19:19:30","新北市貢寮區和美里和美街22-1號","121.912818333333","25.0826166666667","6502600","貢寮區"
"228004","212-TW","2017/08/19 15:52:28","新北市貢寮區貢寮里朝陽街1-2號","121.91221","25.0212483333333","6502600","貢寮區"
"228002","585-TW","2017/08/19 19:19:17","新北市貢寮區雙玉里田寮洋街21號","121.926378333333","25.0253183333333","6502600","貢寮區"
"228001","670-TC","2017/08/19 19:19:23","新北市貢寮區真理里新港街10號","121.925516666667","25.0543633333333","6502600","貢寮區"
"224010","AGQ-8101","2017/08/19 19:19:15","新北市瑞芳區山尖路174號","121.847696666667","25.1119316666667","6501200","瑞芳區"
"224006","676-BX","2017/08/19 19:18:39","新北市瑞芳區中山路174號","121.801773333333","25.1065583333333","6501200","瑞芳區"
"224011","420-VK","2017/08/19 19:19:17","新北市瑞芳區崙頂路3-1號","121.847021666667","25.1046966666667","6501200","瑞芳區"
"224009","285-BY","2017/08/19 19:19:26","新北市瑞芳區洞頂路101號","121.861471666667","25.1190016666667","6501200","瑞芳區"
"224008","275-VK","2017/08/19 19:19:25","新北市瑞芳區明燈路三段249號","121.799308333333","25.1118566666667","6501200","瑞芳區"
"224005","271-BY","2017/08/19 19:19:20","新北市瑞芳區三爪子坑路309-2號","121.818721666667","25.105125","6501200","瑞芳區"
"227002","642-TC","2017/08/19 19:19:32","新北市雙溪區平林里梅竹蹊43號","121.860088333333","25.0358316666667","6502500","雙溪區"
"227010","400-TW","2017/08/19 19:19:20","新北市雙溪區新基里新基北街40號","121.868658333333","25.0380366666667","6502500","雙溪區"
"253006","032-BX","2017/08/19 19:19:22","新北市石門區海灣新城8號","121.525335","25.2850116666667","6502200","石門區"
"253005","295-VK","2017/08/19 19:19:21","新北市石門區阿里荖4-7號","121.612558333333","25.2790883333333","6502200","石門區"
"208002","742-BX","2017/08/19 19:19:24","新北市金山區環金路376巷2號","121.63202","25.2221633333333","6502700","金山區"
"208003","665-BX","2017/08/19 19:19:29","新北市金山區中山路161號","121.6388","25.220515","6502700","金山區"
"208001","761-BX","2017/08/19 19:19:17","新北市金山區慈護街15號","121.639758333333","25.2202933333333","6502700","金山區"
"251009","008-UM","2017/08/19 19:09:53","新北市淡水區中正路8巷25號","121.441725","25.1702183333333","6501000","淡水區"
"251002","012-UM","2017/08/19 19:19:27","新北市淡水區中正路356號","121.43429","25.1741883333333","6501000","淡水區"
"251014","180-VK","2017/08/19 19:19:26","新北市淡水區小中寮19-7號","121.484773333333","25.2296016666667","6501000","淡水區"
"251010","413-VK","2017/08/19 19:19:25","新北市淡水區沙崙路27號","121.42149","25.1815516666667","6501000","淡水區"
"251016","442-VK","2017/08/19 19:19:26","新北市淡水區下圭柔山119-51號","121.450753333333","25.2084433333333","6501000","淡水區"
"251005","443-VK","2017/08/19 19:19:22","新北市淡水區水源街一段29號","121.443265","25.1724616666667","6501000","淡水區"
"251001","559-UM","2017/08/19 19:19:19","新北市淡水區自強路201巷39號","121.462136666667","25.126785","6501000","淡水區"
"251007","577-R6","2017/08/19 19:19:19","新北市淡水區八勢路50巷8弄2號","121.463655","25.15171","6501000","淡水區"
"251011","650-BX","2017/08/19 19:19:30","新北市淡水區中正東路二段143巷2弄1號","121.460781666667","25.1473816666667","6501000","淡水區"
"251003","673-BX","2017/08/19 19:19:18","新北市淡水區中山北路一段6號","121.441495","25.1748183333333","6501000","淡水區"
"207003","550-UM","2017/08/19 19:19:23","新北市萬里區大鵬里萬里加投79-3號","121.64738","25.2123383333333","6502800","萬里區"
"207004","225-TW","2017/08/19 19:19:32","新北市萬里區萬里里成功新村44號","121.687688333333","25.17462","6502800","萬里區"
"252002","178-VK","2017/08/19 19:19:26","新北市三芝區淡金路二段17號","121.502646666667","25.2594383333333","6502100","三芝區"
"252003","249-BX","2017/08/19 19:19:15","新北市三芝區埔坪里埔頭坑41號","121.504698333333","25.2645683333333","6502100","三芝區"
"252001","292-VK","2017/08/19 19:19:21","新北市三芝區長勤街9巷9弄2號","121.501748333333","25.2549783333333","6502100","三芝區"
"237004","078-UY","2017/08/19 19:19:18","新北市三峽區有木150-1號","121.44986","24.8469166666667","6500900","三峽區"
"237007","153-BY","2017/08/19 19:19:15","新北市三峽區麻園10號","121.36212","24.9173983333333","6500900","三峽區"
"237009","210-TH","2017/08/19 19:19:22","新北市三峽區民生街183號","121.372188333333","24.9348066666667","6500900","三峽區"
"237013","252-BX","2017/08/19 19:19:19","新北市三峽區光明路75巷33-2號","121.377843333333","24.9284733333333","6500900","三峽區"
"237012","275-BY","2017/08/19 19:19:31","新北市三峽區三樹路222巷236弄8-3號","121.391416666667","24.9429816666667","6500900","三峽區"
"237008","302-VK","2017/08/19 19:19:18","新北市三峽區大同路57號","121.375571666667","24.9275","6500900","三峽區"
"237014","433-BY","2017/08/19 19:19:30","新北市三峽區中山路301號","121.36128","24.937585","6500900","三峽區"
"237006","5529-G3","2017/08/19 19:19:17","新北市三峽區介壽路一段251-2號","121.379713333333","24.930255","6500900","三峽區"
"237011","572-TV","2017/08/19 19:19:32","新北市三峽區中正路一段362號","121.371165","24.92417","6500900","三峽區"
"237016","649-BX","2017/08/19 19:19:25","新北市三峽區成福路290號","121.428603333333","24.9234533333333","6500900","三峽區"
"237010","706-TV","2017/08/19 19:19:23","新北市三峽區復興路130號","121.372063333333","24.9381566666667","6500900","三峽區"
"237005","AKY-6261","2017/08/19 19:19:08","新北市三峽區隆恩街551號","121.357478333333","24.9397283333333","6500900","三峽區"
"236073","105-UM","2017/08/19 19:19:20","新北市土城區學成路148號","121.448548333333","24.9894833333333","6501300","土城區"
"236079","166-UM","2017/08/19 19:19:21","新北市土城區龍泉路8號","121.409421666667","24.94986","6501300","土城區"
"236027","269-VK","2017/08/19 19:19:24","新北市土城區中央路二段177巷32號","121.443316666667","24.9760933333333","6501300","土城區"
"236015","270-VK","2017/08/19 19:19:25","新北市土城區學府路一段23巷25弄44號","121.457391666667","24.9861583333333","6501300","土城區"
"236023","401-BY","2017/08/19 19:19:19","新北市土城區峰廷街3號","121.469006666667","24.987355","6501300","土城區"
"236059","912-UM","2017/08/19 19:19:21","新北市土城區中央路三段38號","121.438543333333","24.9686816666667","6501300","土城區"
"236049","913-UM","2017/08/19 19:18:39","新北市土城區明德路一段398號","121.453275","24.9794916666667","6501300","土城區"
"238015","755-BX","2017/08/19 19:19:30","新北市樹林區備內街3號","121.413028333333","24.9867083333333","6500700","樹林區"
"238023","601-UM","2017/08/19 19:19:25","新北市樹林區三興路39號","121.39595","25.01459","6500700","樹林區"
"238019","599-UM","2017/08/19 19:19:26","新北市樹林區東榮街91巷2弄4號","121.415903333333","24.9824766666667","6500700","樹林區"
"238018","571-TV","2017/08/19 19:19:28","新北市樹林區太平路56巷27號","121.418291666667","24.9816333333333","6500700","樹林區"
"238024","5061-A6","2017/08/19 19:19:26","新北市樹林區福德街18號","121.400965","24.9760816666667","6500700","樹林區"
"238021","311-TH","2017/08/19 18:47:58","新北市樹林區佳園路二段26號","121.39133","24.963345","6500700","樹林區"
"238022","308-TH","2017/08/19 19:19:13","新北市樹林區中華路213號","121.419595","24.9813333333333","6500700","樹林區"
"238025","303-VK","2017/08/19 19:19:34","新北市樹林區中山路二段34號","121.417218333333","24.9848816666667","6500700","樹林區"
"238017","283-BY","2017/08/19 19:19:23","新北市樹林區光興街81巷22號","121.410685","25.002035","6500700","樹林區"
"238014","282-BY","2017/08/19 19:19:16","新北市樹林區中正路23號","121.427555","24.99939","6500700","樹林區"
"238020","268-VK","2017/08/19 01:45:28","新北市樹林區中山路三段204號","121.386898333333","24.968085","6500700","樹林區"
"238026","172-UY","2017/08/19 19:19:33","新北市樹林區柑園街一段359號","121.388835","24.956","6500700","樹林區"
"238016","169-UY","2017/08/19 19:19:18","新北市樹林區中山路二段2號","121.417783333333","24.9854383333333","6500700","樹林區"
"239007","AAC-297","2017/08/19 19:19:25","新北市鶯歌區大湖路109巷14號","121.341645","24.9636283333333","6500800","鶯歌區"
"239006","891-R6","2017/08/19 19:19:14","新北市鶯歌區鶯桃路永新巷36號","121.338838333333","24.9517","6500800","鶯歌區"
"239008","527-UM","2017/08/19 19:19:23","新北市鶯歌區大湖路349號","121.338291666667","24.9721016666667","6500800","鶯歌區"
"239005","526-UM","2017/08/19 19:19:30","新北市鶯歌區中湖街315巷39號","121.34557","24.9773566666667","6500800","鶯歌區"
"239001","417-VK","2017/08/19 19:19:18","新北市鶯歌區建國路455號","121.339056666667","24.951925","6500800","鶯歌區"
"239003","360-BY","2017/08/19 19:19:26","新北市鶯歌區中山路183-1號","121.347531666667","24.9569683333333","6500800","鶯歌區"
"239002","359-BY","2017/08/19 19:19:22","新北市鶯歌區大湖路350號","121.346356666667","24.972395","6500800","鶯歌區"
"239004","193-VK","2017/08/19 19:19:28","新北市鶯歌區二甲路中心巷3號","121.337576666667","24.9357716666667","6500800","鶯歌區"
"221008","489-VK","2017/08/19 19:19:31","新北市汐止區康寧街302-1號","121.626305","25.067145","6501100","汐止區"
"221036","130-UY","2017/08/19 19:19:19","新北市汐止區康寧街901號","121.651533333333","25.075005","6501100","汐止區"
"221015","131-UY","2017/08/19 19:19:15","新北市汐止區康寧街901號","121.65154","25.0749333333333","6501100","汐止區"
"221012","276-VK","2017/08/19 13:20:01","新北市汐止區汐萬路一段256巷3號","121.653443333333","25.0746533333333","6501100","汐止區"
"221031","277-VK","2017/08/19 19:19:31","新北市汐止區連峰街1巷1號","121.646616666667","25.0760616666667","6501100","汐止區"
"221012","278-VK","2017/08/19 19:19:12","新北市汐止區汐萬路一段312號","121.650475","25.0751516666667","6501100","汐止區"
"221023","279-VK","2017/08/19 19:19:21","新北市汐止區康寧街901號","121.650983333333","25.0752116666667","6501100","汐止區"
"221027","281-BY","2017/08/19 19:19:27","新北市汐止區康寧街901號","121.651016666667","25.07515","6501100","汐止區"
"221038","297-VK","2017/08/19 19:19:19","新北市汐止區康寧街901號","121.650708333333","25.0752516666667","6501100","汐止區"
"221021","299-VK","2017/08/19 19:19:16","新北市汐止區康寧街901號","121.651406666667","25.075015","6501100","汐止區"
"221025","623-UM","2017/08/19 19:19:20","新北市汐止區康寧街901號","121.6515","25.0749716666667","6501100","汐止區"
"221010","646-BX","2017/08/19 19:19:20","新北市汐止區康寧街901號","121.651471666667","25.0749183333333","6501100","汐止區"
"221033","647-BX","2017/08/19 19:19:23","新北市汐止區南勢街3號","121.62706","25.03737","6501100","汐止區"
"221002","707-TV","2017/08/19 19:19:34","新北市汐止區大同路一段327號","121.63818","25.059185","6501100","汐止區"
"221018","753-BX","2017/08/19 19:19:21","新北市汐止區康寧街901號","121.651606666667","25.07491","6501100","汐止區"
"220079","145-BY","2017/08/19 19:19:28","新北市板橋區民權路202巷18弄1號","121.460841666667","25.0166833333333","6500100","板橋區"
"220080","200-UY","2017/08/19 19:19:25","新北市板橋區大觀路二段5-1號","121.447178333333","25.00394","6500100","板橋區"
"220082","610-BX","2017/08/19 19:19:24","新北市板橋區滿平街84巷116號","121.426903333333","24.9863966666667","6500100","板橋區"
"220101","245-BX","2017/08/19 16:42:57","新北市板橋區民生路二段120號","121.47056","25.0194783333333","6500100","板橋區"
"220102","257-TC","2017/08/19 19:19:29","新北市板橋區田單街47號","121.482495","25.0282866666667","6500100","板橋區"
"220094","267-BY","2017/08/19 19:19:28","新北市板橋區吳鳳路82號","121.466908333333","25.0313383333333","6500100","板橋區"
"220056","276-BY","2017/08/19 19:19:22","新北市板橋區信義路150巷12號","121.458283333333","24.99177","6500100","板橋區"
"220072","277-BY","2017/08/19 19:19:35","新北市板橋區金門街317巷26號","121.430471666667","24.9853933333333","6500100","板橋區"
"220057","280-UM","2017/08/19 19:19:32","新北市板橋區重慶路351-1號","121.464198333333","24.9978433333333","6500100","板橋區"
"220071","283-VK","2017/08/19 19:19:31","新北市板橋區重慶路327巷17號","121.464565","24.998695","6500100","板橋區"
"220053","285-VK","2017/08/19 19:19:23","新北市板橋區富山街5號","121.478588333333","25.0216833333333","6500100","板橋區"
"220083","286-VK","2017/08/19 19:19:27","新北市板橋區大觀路二段174巷165弄12號","121.441433333333","25.0034983333333","6500100","板橋區"
"220081","287-VK","2017/08/19 19:19:24","新北市板橋區南雅西路二段2-1號","121.453193333333","25.0089566666667","6500100","板橋區"
"220090","288-VK","2017/08/19 19:19:28","新北市板橋區四維路349巷16號","121.461566666667","25.029645","6500100","板橋區"
"220061","293-UM","2017/08/19 19:19:17","新北市板橋區三民路二段21巷40號","121.480628333333","25.0181983333333","6500100","板橋區"
"220055","295-UM","2017/08/19 19:19:34","新北市板橋區館前東路156巷50號","121.464746666667","25.0066683333333","6500100","板橋區"
"220084","296-UM","2017/08/19 19:19:20","新北市板橋區溪崑二街56巷6號","121.427583333333","24.9909166666667","6500100","板橋區"
"220075","297-UM","2017/08/19 19:19:17","新北市板橋區南雅西路一段61號","121.45353","25.0053883333333","6500100","板橋區"
"241031","281-VK","2017/08/19 18:17:17","新北市新莊區環河路636-7號","121.43734","25.0111816666667","6500200","三重區"
"220062","303-R5","2017/08/19 19:19:28","新北市板橋區三民路二段153巷30弄37號","121.481146666667","25.014345","6500100","板橋區"
"220041","307-R5","2017/08/19 19:19:23","新北市板橋區光武街50巷18號","121.46755","25.02696","6500100","板橋區"
"220098","317-R6","2017/08/19 19:19:30","新北市板橋區民有街91號","121.46473","25.02763","6500100","板橋區"
"220064","486-VK","2017/08/19 19:19:24","新北市板橋區縣民大道二段66號","121.46303","25.01271","6500100","板橋區"
"220089","487-VK","2017/08/19 19:19:19","新北市板橋區文化路一段310號","121.467461666667","25.0220333333333","6500100","板橋區"
"220088","491-VK","2017/08/19 19:19:20","新北市板橋區雙十路二段73號","121.476241666667","25.0268866666667","6500100","板橋區"
"220035","560-BX","2017/08/19 19:19:22","新北市板橋區中正路360巷42號","121.455785","25.0229716666667","6500100","板橋區"
"220103","561-BX","2017/08/19 19:19:32","新北市板橋區文化路一段188巷4弄2號","121.466798333333","25.0190883333333","6500100","板橋區"
"220063","609-BX","2017/08/19 19:19:30","新北市板橋區三民路一段31巷19號","121.480168333333","25.02327","6500100","板橋區"
"220091","637-BX","2017/08/19 19:19:18","新北市板橋區松柏街70巷2號","121.476393333333","25.0303483333333","6500100","板橋區"
"220077","687-BX","2017/08/19 19:19:27","新北市板橋區僑中一街2號","121.44941","25.011165","6500100","板橋區"
"220093","689-BX","2017/08/19 19:19:22","新北市板橋區文化路一段160號","121.465376666667","25.0192766666667","6500100","板橋區"
"220054","741-BX","2017/08/19 19:19:26","新北市板橋區成都街18號","121.460766666667","25.0046966666667","6500100","板橋區"
"220067","829-TW","2017/08/19 19:19:16","新北市板橋區長安街138巷5弄62號","121.474046666667","25.0095933333333","6500100","板橋區"
"220096","831-TW","2017/08/19 19:19:23","新北市板橋區大同街26巷13號","121.478181666667","25.0269066666667","6500100","板橋區"
"220074","895-R6","2017/08/19 19:19:31","新北市板橋區中正路69巷1弄7號","121.455898333333","25.0136316666667","6500100","板橋區"
"220073","985-R7","2017/08/19 19:19:35","新北市板橋區新生街94號","121.458288333333","25.021835","6500100","板橋區"
"220097","AAC-210","2017/08/19 19:19:27","新北市板橋區漢生西路89巷3弄4號","121.461471666667","25.0193016666667","6500100","板橋區"
"220070","AAC-253","2017/08/19 19:19:24","新北市板橋區忠孝路58號","121.461161666667","25.0019683333333","6500100","板橋區"
