"lineid","car","time","location","longitude","latitude","cityid","cityname"
"234046","148-BY","2017/08/19 19:31:20","新北市永和區秀朗路二段227號","121.526463333333","25.00053","6500400","永和區"
"234013","149-BY","2017/08/19 19:31:26","新北市永和區永平路203巷1號","121.509306666667","25.0098816666667","6500400","永和區"
"234007","207-UY","2017/08/19 19:31:31","新北市永和區永和路一段84號","121.513101666667","25.0065966666667","6500400","永和區"
"234081","298-R6","2017/08/19 19:31:27","新北市永和區環河東路三段60號","121.526783333333","25.0058183333333","6500400","永和區"
"234038","336-UY","2017/08/19 19:31:33","新北市永和區民樂街23號","121.527708333333","25.0018583333333","6500400","永和區"
"234064","337-UY","2017/08/19 19:31:22","新北市永和區中正路428巷30弄61號","121.519915","25.0012316666667","6500400","永和區"
"234086","338-UY","2017/08/19 19:31:32","新北市永和區永亨路127號","121.524506666667","25.0042616666667","6500400","永和區"
"234054","553-UM","2017/08/19 19:31:30","新北市永和區復興街11號","121.515963333333","25.0129733333333","6500400","永和區"
"234017","745-BX","2017/08/19 19:31:35","新北市永和區環河西路一段17號","121.514418333333","25.0178066666667","6500400","永和區"
"234030","746-BX","2017/08/19 19:31:28","新北市永和區民生路49號","121.52287","24.997765","6500400","永和區"
"234061","AAD-866","2017/08/19 19:31:37","新北市永和區中正路588-1號","121.517096666667","25.0068566666667","6500400","永和區"
"234070","847-RS","2017/08/19 19:31:34","新北市永和區中興街20號","121.516141666667","25.011825","6500400","永和區"
"234042","862-TW","2017/08/19 19:31:24","新北市永和區水源街39巷5號","121.510448333333","25.00408","6500400","永和區"
"234050","863-TW","2017/08/19 19:31:29","新北市永和區保福路二段148號","121.509543333333","25.014675","6500400","永和區"
"234026","9371-KE","2017/08/19 19:31:34","新北市永和區中和路517號","121.511038333333","25.0026266666667","6500400","永和區"
"234011","9373-KE","2017/08/19 19:31:30","新北市永和區仁愛路141巷30弄3號","121.511763333333","25.0115233333333","6500400","永和區"
"249002","305-UY","2017/08/19 19:31:26","新北市八里區龍形一街33巷1-6號","121.449435","25.1295333333333","6502300","八里區"
"249003","593-UM","2017/08/19 19:31:20","新北市八里區中山路二段466巷23號","121.397981666667","25.14738","6502300","八里區"
"248008","095-VK","2017/08/19 19:31:16","新北市五股區中興路一段97號","121.466691666667","25.0729366666667","6501500","五股區"
"248020","225-UY","2017/08/19 19:31:32","新北市五股區凌雲路三段33-18號","121.431606666667","25.1168066666667","6501500","五股區"
"248012","247-BX","2017/08/19 19:31:31","新北市五股區成泰路二段97號","121.437955","25.0843083333333","6501500","五股區"
"248014","261-SL","2017/08/19 19:31:25","新北市五股區民義路一段183巷8-2號","121.430003333333","25.086915","6501500","五股區"
"248004","677-BX","2017/08/19 19:31:24","新北市五股區五福路102號","121.432435","25.0904616666667","6501500","五股區"
"248002","678-BX","2017/08/19 19:31:32","新北市五股區凌雲路一段158巷14-1號","121.447818333333","25.10344","6501500","五股區"
"248010","682-TV","2017/08/19 19:31:27","新北市五股區水碓一路23號","121.430593333333","25.07122","6501500","五股區"
"234023","9380-KE","2017/08/19 19:31:36","新北市永和區光復街60巷4弄20號","121.517495","25.0177683333333","6500400","永和區"
"234077","969-R7","2017/08/19 19:31:25","新北市永和區民治街59巷4號","121.518333333333","24.9977933333333","6500400","永和區"
"234074","AAC-211","2017/08/19 19:31:34","新北市永和區竹林路225巷54-3號","121.522863333333","25.008705","6500400","永和區"
"234067","AAC-212","2017/08/19 19:31:29","新北市永和區保平路174巷26號","121.510278333333","25.0073933333333","6500400","永和區"
"234003","AAC-295","2017/08/19 19:31:33","新北市永和區自強街8巷5弄2號","121.514646666667","25.0074666666667","6500400","永和區"
"244019","403-UM","2017/08/19 19:31:14","新北市林口區麗園二街1巷5-2號","121.377575","25.070085","6501700","林口區"
"244023","657-BX","2017/08/19 19:31:22","新北市林口區仁愛路二段632號","121.371156666667","25.0793816666667","6501700","林口區"
"243013","AAD-798","2017/08/19 19:31:35","新北市泰山區明志路三段145巷5弄34號","121.425778333333","25.0407183333333","6501600","泰山區"
"243009","297-R6","2017/08/19 19:31:25","新北市泰山區半山雅2號","121.431841666667","25.067395","6501600","泰山區"
"243015","380-SR","2017/08/19 19:31:31","新北市泰山區明志路二段74號","121.428781666667","25.0524033333333","6501600","泰山區"
"243014","421-VK","2017/08/19 19:31:25","新北市泰山區仁愛路64號","121.4322","25.0549616666667","6501600","泰山區"
"243010","548-UM","2017/08/19 19:31:21","新北市泰山區民生路17巷4號","121.429911666667","25.0523083333333","6501600","泰山區"
"243011","549-UM","2017/08/19 19:31:32","新北市泰山區貴子路65號","121.43065","25.0397266666667","6501600","泰山區"
"243012","646-TV","2017/08/19 19:31:19","新北市泰山區仁武街100號","121.43248","25.0543416666667","6501600","泰山區"
"243016","680-BX","2017/08/19 19:31:32","新北市泰山區明志路三段438號","121.420953333333","25.0328633333333","6501600","泰山區"
"222003","436-BY","2017/08/19 19:31:23","新北市深坑區深南路51-1號","121.621168333333","25.0100066666667","6501800","深坑區"
"222002","659-BX","2017/08/19 19:31:26","新北市深坑區北深路一段177號","121.632523333333","25.010875","6501800","深坑區"
"222001","696-SL","2017/08/19 19:31:16","新北市深坑區北深路二段134號","121.615885","25.0028866666667","6501800","深坑區"
"231041","002-UM","2017/08/19 19:31:20","新北市新店區復興路86號","121.53383","24.988315","6500600","新店區"
"231059","046-UY","2017/08/19 19:31:32","新北市新店區安和路三段119號","121.517585","24.98509","6500600","新店區"
"231061","047-UY","2017/08/19 19:31:34","新北市新店區安民街61號","121.516293333333","24.9662583333333","6500600","新店區"
"231060","106-UY","2017/08/19 19:31:21","新北市新店區安康路二段86號","121.51394","24.9632833333333","6500600","新店區"
"231051","107-UY","2017/08/19 19:31:34","新北市新店區中央五街22號","121.529253333333","24.9744433333333","6500600","新店區"
"231048","108-UY","2017/08/19 19:31:20","新北市新店區中興路一段252號","121.544436666667","24.9665683333333","6500600","新店區"
"231064","110-UY","2017/08/19 19:31:35","新北市新店區安和路一段6-6號","121.51734","24.9654383333333","6500600","新店區"
"231052","187-VK","2017/08/19 19:31:31","新北市新店區新烏路二段301號","121.549411666667","24.9115433333333","6500600","新店區"
"231057","256-BX","2017/08/19 19:31:25","新北市新店區花園一路二段15號","121.550793333333","24.9334333333333","6500600","新店區"
"231063","268-BY","2017/08/19 19:31:31","新北市新店區達觀路16-7號","121.502188333333","24.940965","6500600","新店區"
"231046","278-BY","2017/08/19 19:31:19","新北市新店區北新路一段90號","121.541876666667","24.9685566666667","6500600","新店區"
"231050","AAD-862","2017/08/19 19:31:30","新北市新店區秀水路50號","121.55547","24.9563183333333","6500600","新店區"
"231058","3712-VJ","2017/08/19 19:31:29","新北市新店區北新路二段228巷5號","121.54315","24.97737","6500600","新店區"
"231067","4772-VM","2017/08/19 19:31:33","新北市新店區安康路二段1-5號","121.517143333333","24.9639733333333","6500600","新店區"
"231065","512-UM","2017/08/19 19:31:21","新北市新店區安祥路109巷1弄33號","121.476768333333","24.9602533333333","6500600","新店區"
"231054","513-UM","2017/08/19 19:31:33","新北市新店區文中路40號","121.539781666667","24.956555","6500600","新店區"
"231042","616-UM","2017/08/19 19:31:30","新北市新店區中興路一段194號","121.5435","24.9651083333333","6500600","新店區"
"231045","617-UM","2017/08/19 19:31:31","新北市新店區北宜路二段209號","121.55313","24.9534166666667","6500600","新店區"
"231040","619-UM","2017/08/19 19:31:25","新北市新店區北新路一段42號","121.541011666667","24.9661383333333","6500600","新店區"
"231049","719-UM","2017/08/19 19:31:27","新北市新店區北新路三段65巷34弄2號","121.540051666667","24.98121","6500600","新店區"
"231062","720-UM","2017/08/19 19:31:21","新北市新店區精忠路2號","121.532883333333","24.9598783333333","6500600","新店區"
"231044","897-TW","2017/08/19 19:31:24","新北市新店區中興路三段137號","121.5446","24.9797533333333","6500600","新店區"
"231043","899-TW","2017/08/19 19:31:19","新北市新店區北新路二段190號","121.54308","24.97649","6500600","新店區"
"231066","AKT-0513","2017/08/19 19:31:29","新北市新店區安康路三段165巷5號","121.489678333333","24.9513833333333","6500600","新店區"
"241028","022-UY","2017/08/19 19:31:33","新北市三重區中正南路115號","121.493948333333","25.057545","6500200","三重區"
"241008","059-VK","2017/08/19 19:31:29","新北市三重區永安北路一段37巷4弄17號","121.477435","25.0764933333333","6500200","三重區"
"241009","060-VK","2017/08/19 19:31:30","新北市三重區仁美街128號","121.485501666667","25.08142","6500200","三重區"
"241031","061-VK","2017/08/19 19:31:32","新北市三重區成功路145巷47號","121.488075","25.05361","6500200","三重區"
"241017","063-VK","2017/08/19 19:31:21","新北市三重區中正北路105號","121.489441666667","25.063305","6500200","三重區"
"241026","066-VK","2017/08/19 19:31:31","新北市三重區文化南路49號","121.500083333333","25.0612483333333","6500200","三重區"
"241006","156-TC","2017/08/19 19:31:30","新北市三重區後竹圍街175巷33號","121.485633333333","25.0732866666667","6500200","三重區"
"241022","267-UM","2017/08/19 19:31:23","新北市三重區三民街163-1號","121.483488333333","25.0647766666667","6500200","三重區"
"241013","270-UM","2017/08/19 19:31:26","新北市三重區仁愛街123-3號","121.495818333333","25.075005","6500200","三重區"
"241007","398-BY","2017/08/19 19:31:28","新北市三重區溪尾街128號","121.489195","25.0793783333333","6500200","三重區"
"241020","412-TH","2017/08/19 19:31:37","新北市三重區三和路四段42號","121.490273333333","25.0744533333333","6500200","三重區"
"241035","462-BY","2017/08/19 19:31:16","新北市三重區長元西街35號","121.498076666667","25.0653816666667","6500200","三重區"
"241030","480-VK","2017/08/19 19:31:34","新北市三重區環河南路254巷19號","121.490278333333","25.0510733333333","6500200","三重區"
"241023","545-UM","2017/08/19 19:31:28","新北市三重區頂崁街127號","121.477788333333","25.0645633333333","6500200","三重區"
"241025","887-TS","2017/08/19 19:31:19","新北市三重區頂崁街206巷38號","121.475785","25.0667533333333","6500200","三重區"
"241029","942-UM","2017/08/19 19:31:27","新北市三重區泉州街26號","121.49479","25.05593","6500200","三重區"
"235066","003-UY","2017/08/19 19:31:31","新北市中和區景新街63號","121.504738333333","24.99879","6500300","中和區"
"235064","005-UY","2017/08/19 19:31:32","新北市中和區南山路81巷51號","121.503805","24.9982733333333","6500300","中和區"
"235063","006-UY","2017/08/19 19:31:33","新北市中和區連城路231號","121.493958333333","24.9974866666667","6500300","中和區"
"235056","096-UM","2017/08/19 19:31:27","新北市中和區民富街29號","121.47645","25.007775","6500300","中和區"
"235039","097-UM","2017/08/19 19:31:38","新北市中和區秀峰街66號","121.520615","24.9904816666667","6500300","中和區"
"235065","098-UM","2017/08/19 19:31:32","新北市中和區中山路二段2巷3弄14號","121.50432","25.0058016666667","6500300","中和區"
"235040","150-BY","2017/08/19 19:31:20","新北市中和區保健路46巷25-1號","121.508926666667","24.9960983333333","6500300","中和區"
"235058","151-BY","2017/08/19 19:31:22","新北市中和區連城路469巷13號","121.483605","24.99533","6500300","中和區"
"235055","183-VK","2017/08/19 19:31:35","新北市中和區莒光路120巷11號","121.47156","25.0016966666667","6500300","中和區"
"235038","185-VK","2017/08/19 19:31:28","新北市中和區景平路126巷2弄15號","121.519796666667","24.99234","6500300","中和區"
"235049","186-VK","2017/08/19 19:31:22","新北市中和區景新街285巷2號","121.509945","24.9933983333333","6500300","中和區"
"235067","255-BX","2017/08/19 19:31:36","新北市中和區連城路340巷14弄17號","121.482946666667","24.9971616666667","6500300","中和區"
"235044","293-VK","2017/08/19 19:31:35","新北市中和區復興路255號","121.50315","24.99035","6500300","中和區"
"235072","301-VK","2017/08/19 19:31:33","新北市中和區連城路265巷10弄2號","121.491665","24.9954366666667","6500300","中和區"
"235043","352-BY","2017/08/19 19:31:23","新北市中和區南華路19號","121.50284","24.9958016666667","6500300","中和區"
"235051","376-QA","2017/08/19 19:31:23","新北市中和區景新街168-2號","121.505991666667","24.9968166666667","6500300","中和區"
"235068","377-QA","2017/08/19 19:31:33","新北市中和區連勝街57巷7號","121.497928333333","24.9969666666667","6500300","中和區"
"235061","378-QA","2017/08/19 19:31:33","新北市中和區民利街19-3號","121.480373333333","24.999105","6500300","中和區"
"235050","4979-A6","2017/08/19 19:31:07","新北市中和區員山路36巷12號","121.484108333333","24.9905683333333","6500300","中和區"
"235069","4980-A6","2017/08/19 19:31:27","新北市中和區橋和路2-1號","121.48848","25.0050166666667","6500300","中和區"
"235042","551-UM","2017/08/19 19:31:19","新北市中和區中和路378巷7號","121.511261666667","25.0018016666667","6500300","中和區"
"235070","558-UM","2017/08/19 19:31:00","新北市中和區中山路二段226號","121.499168333333","25.0027766666667","6500300","中和區"
"235045","565-BX","2017/08/19 19:31:24","新北市中和區景新街423巷27號","121.513616666667","24.9895183333333","6500300","中和區"
"235054","640-BX","2017/08/19 19:31:22","新北市中和區國光街110號","121.470036666667","25.00072","6500300","中和區"
"235060","647-TV","2017/08/19 19:31:19","新北市中和區新生街114巷37弄5號","121.482546666667","25.0020266666667","6500300","中和區"
"235011","732-UM","2017/08/19 15:08:47","新北市板橋區文化路二段620號","121.477328333333","25.0376933333333","6500300","中和區"
"235046","733-UM","2017/08/19 19:31:34","新北市中和區忠孝街37巷52號","121.511118333333","24.984905","6500300","中和區"
"235057","801-TS","2017/08/19 19:31:31","新北市中和區中山路三段37巷37號","121.47964","25.004815","6500300","中和區"
"235041","802-TS","2017/08/19 19:31:22","新北市中和區中和路298號","121.508598333333","24.999865","6500300","中和區"
"235052","805-TS","2017/08/19 19:31:19","新北市中和區華新街143巷94號","121.506665","24.978865","6500300","中和區"
"235048","896-TW","2017/08/19 19:31:38","新北市中和區忠孝街113巷2號","121.512625","24.9874866666667","6500300","中和區"
"235053","900-TW","2017/08/19 19:31:21","新北市中和區華順街58-1號","121.465766666667","24.9984333333333","6500300","中和區"
"235071","911-UM","2017/08/19 19:31:24","新北市中和區連城路469巷5號","121.483633333333","24.99578","6500300","中和區"
"235037","AAC-213","2017/08/19 19:31:32","新北市中和區秀朗路三段10巷14弄106號","121.523025","24.996675","6500300","中和區"
"235059","AAC-215","2017/08/19 19:31:22","新北市中和區圓通路252巷5弄1號","121.493441666667","24.99136","6500300","中和區"
"220068","013-TV","2017/08/19 19:31:21","新北市板橋區萬安街25號","121.484441666667","25.0229766666667","6500100","板橋區"
"220065","072-UY","2017/08/19 19:31:33","新北市板橋區國泰街75巷28弄1號","121.467731666667","25.00554","6500100","板橋區"
"220086","073-UY","2017/08/19 19:31:18","新北市板橋區中正路216巷81號","121.458233333333","25.01918","6500100","板橋區"
"220106","075-UY","2017/08/19 19:31:34","新北市板橋區江寧路三段103號","121.472865","25.0328083333333","6500100","板橋區"
"220069","AAD-861","2017/08/19 19:31:32","新北市板橋區貴興路41號","121.457496666667","25.0036533333333","6500100","板橋區"
"247014","057-VK","2017/08/19 19:31:32","新北市蘆洲區忠孝路86號","121.471455","25.0857316666667","6501400","蘆洲區"
"247004","056-VK","2017/08/19 19:31:30","新北市蘆洲區長安街191號","121.460278333333","25.0819166666667","6501400","蘆洲區"
"226004","312-R5","2017/08/19 19:31:19","新北市平溪區十分里十分街116號","121.776898333333","25.0431133333333","6502400","平溪區"
"228003","097-TW","2017/08/19 19:31:30","新北市貢寮區和美里和美街56號","121.914831666667","25.0777366666667","6502600","貢寮區"
"228004","212-TW","2017/08/19 15:52:28","新北市貢寮區貢寮里朝陽街1-2號","121.91221","25.0212483333333","6502600","貢寮區"
"228002","585-TW","2017/08/19 19:31:17","新北市貢寮區龍門里龍門街76號","121.931383333333","25.02703","6502600","貢寮區"
"228001","670-TC","2017/08/19 19:31:23","新北市貢寮區真理里延平街68號","121.92539","25.05741","6502600","貢寮區"
"224010","AGQ-8101","2017/08/19 19:22:41","新北市瑞芳區基山街4-1號","121.845163333333","25.1097066666667","6501200","瑞芳區"
"224002","639-TC","2017/08/19 19:31:29","新北市瑞芳區三爪子坑路13巷39號","121.814198333333","25.106805","6501200","瑞芳區"
"224011","420-VK","2017/08/19 19:31:17","新北市瑞芳區崙頂路1-6號","121.84709","25.1046966666667","6501200","瑞芳區"
"224008","275-VK","2017/08/19 19:31:25","新北市瑞芳區一坑路299號","121.801053333333","25.1084933333333","6501200","瑞芳區"
"227002","642-TC","2017/08/19 19:31:32","新北市雙溪區雙溪里光復街20號","121.865168333333","25.0354366666667","6502500","雙溪區"
"227010","400-TW","2017/08/19 19:31:33","新北市雙溪區新基里新基北街43號","121.86813","25.0396983333333","6502500","雙溪區"
"253006","032-BX","2017/08/19 19:30:42","新北市石門區崁子腳26號","121.535473333333","25.2907116666667","6502200","石門區"
"208002","742-BX","2017/08/19 19:31:24","新北市金山區仁愛路87巷1號","121.634638333333","25.2214716666667","6502700","金山區"
"208003","665-BX","2017/08/19 19:31:29","新北市金山區中山路263巷14號","121.636393333333","25.22158","6502700","金山區"
"208001","761-BX","2017/08/19 19:31:38","新北市金山區金包里街93號","121.637875","25.2221383333333","6502700","金山區"
"251009","008-UM","2017/08/19 19:09:53","新北市淡水區中正路8巷25號","121.441725","25.1702183333333","6501000","淡水區"
"251014","180-VK","2017/08/19 19:31:26","新北市淡水區小中寮14號","121.485633333333","25.230755","6501000","淡水區"
"251008","181-VK","2017/08/19 19:31:34","新北市淡水區中正路一段25號","121.426263333333","25.1763683333333","6501000","淡水區"
"251010","413-VK","2017/08/19 19:31:27","新北市淡水區中正路二段206號","121.426236666667","25.1888766666667","6501000","淡水區"
"251016","442-VK","2017/08/19 19:31:26","新北市淡水區下圭柔山119-51號","121.450723333333","25.208415","6501000","淡水區"
"251005","443-VK","2017/08/19 19:31:27","新北市淡水區水源街一段47巷40號","121.444115","25.1735333333333","6501000","淡水區"
"251001","559-UM","2017/08/19 19:31:19","新北市淡水區民權路139號","121.460085","25.13652","6501000","淡水區"
"251006","561-UM","2017/08/19 19:31:14","新北市淡水區大義街27號","121.442601666667","25.1782533333333","6501000","淡水區"
"251007","577-R6","2017/08/19 19:31:18","新北市淡水區中正東路一段111巷32號","121.45525","25.1612283333333","6501000","淡水區"
"251011","650-BX","2017/08/19 19:31:30","新北市淡水區中正東路二段161巷2弄1號","121.46071","25.1455283333333","6501000","淡水區"
"251003","673-BX","2017/08/19 19:31:18","新北市淡水區中山北路二段375號","121.444265","25.1870483333333","6501000","淡水區"
"207003","550-UM","2017/08/19 19:31:23","新北市萬里區大鵬里萬里加投267號","121.644633333333","25.2162433333333","6502800","萬里區"
"207004","225-TW","2017/08/19 19:31:32","新北市萬里區萬里里公有市場18號","121.689206666667","25.1793333333333","6502800","萬里區"
"252002","178-VK","2017/08/19 19:31:26","新北市三芝區淡金路二段17號","121.502671666667","25.2594483333333","6502100","三芝區"
"252001","292-VK","2017/08/19 19:31:21","新北市三芝區長勤街63-1號","121.500035","25.2560616666667","6502100","三芝區"
"237004","078-UY","2017/08/19 19:31:18","新北市三峽區有木206號","121.439085","24.851525","6500900","三峽區"
"237007","153-BY","2017/08/19 19:31:35","新北市三峽區二鬮路178號","121.359085","24.9068383333333","6500900","三峽區"
"237009","210-TH","2017/08/19 19:31:22","新北市三峽區民權街37號","121.369756666667","24.9336316666667","6500900","三峽區"
"237013","252-BX","2017/08/19 19:31:19","新北市三峽區介壽路一段318巷11號","121.381013333333","24.929615","6500900","三峽區"
"237012","275-BY","2017/08/19 19:31:31","新北市三峽區三樹路98巷50號","121.383151666667","24.9381916666667","6500900","三峽區"
"237008","302-VK","2017/08/19 19:31:37","新北市三峽區永安街183號","121.373171666667","24.9267566666667","6500900","三峽區"
"237014","433-BY","2017/08/19 19:31:33","新北市三峽區中園街207號","121.366991666667","24.9205266666667","6500900","三峽區"
"237006","5529-G3","2017/08/19 19:31:17","新北市三峽區中正路一段336巷15弄2號","121.369971666667","24.9249333333333","6500900","三峽區"
"237016","649-BX","2017/08/19 19:31:25","新北市三峽區成福路41號","121.417805","24.9287066666667","6500900","三峽區"
"237005","AKY-6261","2017/08/19 19:31:28","新北市三峽區復興路367巷1弄15號","121.36405","24.9379716666667","6500900","三峽區"
"236073","105-UM","2017/08/19 19:31:20","新北市土城區裕民路185巷36弄5號","121.4546","24.9849566666667","6501300","土城區"
"236079","166-UM","2017/08/19 19:31:21","新北市土城區中州路3巷11弄1號","121.414261666667","24.9570133333333","6501300","土城區"
"236031","253-BX","2017/08/19 19:31:32","新北市土城區中央路二段14巷15-1號","121.44215","24.9807533333333","6501300","土城區"
"236027","269-VK","2017/08/19 19:31:24","新北市土城區中央路二段61巷22號","121.443218333333","24.9788016666667","6501300","土城區"
"236015","270-VK","2017/08/19 19:31:28","新北市土城區廣福街131號","121.456201666667","24.9931933333333","6501300","土城區"
"236023","401-BY","2017/08/19 19:31:19","新北市土城區明峰街83號","121.468993333333","24.9873716666667","6501300","土城區"
"236059","912-UM","2017/08/19 19:31:21","新北市土城區中央路二段61巷26號","121.443256666667","24.978735","6501300","土城區"
"236049","913-UM","2017/08/19 19:31:19","新北市土城區清水路223號","121.460888333333","24.9823416666667","6501300","土城區"
"238015","755-BX","2017/08/19 19:31:30","新北市樹林區中興街60號","121.42114","24.9915266666667","6500700","樹林區"
"238023","601-UM","2017/08/19 19:31:25","新北市樹林區中正路865號","121.408825","25.01816","6500700","樹林區"
"238019","599-UM","2017/08/19 19:31:26","新北市樹林區鎮前街365號","121.416023333333","24.983955","6500700","樹林區"
"238018","571-TV","2017/08/19 19:31:17","新北市樹林區中華路173號","121.420861666667","24.9819433333333","6500700","樹林區"
"238024","5061-A6","2017/08/19 19:31:26","新北市樹林區中山路三段155巷12號","121.396013333333","24.9724866666667","6500700","樹林區"
"238021","311-TH","2017/08/19 19:22:58","新北市樹林區柑園街二段455號","121.3639","24.94541","6500700","樹林區"
"238022","308-TH","2017/08/19 19:31:33","新北市樹林區太元街110巷1號","121.419576666667","24.9775516666667","6500700","樹林區"
"238025","303-VK","2017/08/19 19:31:34","新北市樹林區中山路一段112號","121.422931666667","24.99078","6500700","樹林區"
"238017","283-BY","2017/08/19 19:31:26","新北市樹林區保安街二段167巷32號","121.413886666667","25.0027633333333","6500700","樹林區"
"238014","282-BY","2017/08/19 19:31:22","新北市樹林區千歲街19巷11號","121.424533333333","24.9958666666667","6500700","樹林區"
"238020","268-VK","2017/08/19 01:45:28","新北市樹林區中山路三段204號","121.386898333333","24.968085","6500700","樹林區"
"238026","172-UY","2017/08/19 19:31:33","新北市樹林區佳園路二段127號","121.390333333333","24.9580566666667","6500700","樹林區"
"238016","169-UY","2017/08/19 19:31:18","新北市樹林區復興路408號","121.414545","24.9849816666667","6500700","樹林區"
"239007","AAC-297","2017/08/19 19:31:24","新北市鶯歌區大湖路326巷23號","121.346165","24.970255","6500800","鶯歌區"
"239006","891-R6","2017/08/19 19:31:34","新北市鶯歌區中正二路8號","121.351771666667","24.9519533333333","6500800","鶯歌區"
"239001","417-VK","2017/08/19 19:31:18","新北市鶯歌區國華路31號","121.342891666667","24.95561","6500800","鶯歌區"
"239002","359-BY","2017/08/19 19:31:22","新北市鶯歌區中山路300號","121.342901666667","24.9571916666667","6500800","鶯歌區"
"221008","489-VK","2017/08/19 19:31:31","新北市汐止區康寧街145號","121.622055","25.0666916666667","6501100","汐止區"
"221036","130-UY","2017/08/19 19:31:19","新北市汐止區康寧街901號","121.651541666667","25.0750033333333","6501100","汐止區"
"221015","131-UY","2017/08/19 19:31:36","新北市汐止區康寧街901號","121.651568333333","25.074935","6501100","汐止區"
"221012","276-VK","2017/08/19 13:20:01","新北市汐止區汐萬路一段256巷3號","121.653443333333","25.0746533333333","6501100","汐止區"
"221031","277-VK","2017/08/19 19:31:31","新北市汐止區福德二路54巷2弄2號","121.634035","25.0673816666667","6501100","汐止區"
"221012","278-VK","2017/08/19 19:31:32","新北市汐止區大同路三段457號","121.678905","25.0712516666667","6501100","汐止區"
"221023","279-VK","2017/08/19 19:31:21","新北市汐止區康寧街519-1號","121.633188333333","25.0686383333333","6501100","汐止區"
"221032","280-BY","2017/08/19 19:31:34","新北市汐止區大同路二段173號","121.651623333333","25.0644133333333","6501100","汐止區"
"221027","281-BY","2017/08/19 19:31:27","新北市汐止區忠孝東路9號","121.658326666667","25.065945","6501100","汐止區"
"221038","297-VK","2017/08/19 19:31:18","新北市汐止區汐萬路一段39號","121.655051666667","25.0692083333333","6501100","汐止區"
"221021","299-VK","2017/08/19 19:31:36","新北市汐止區康寧街901號","121.6514","25.07501","6501100","汐止區"
"221025","623-UM","2017/08/19 19:31:20","新北市汐止區新台五路二段10號","121.660303333333","25.0650533333333","6501100","汐止區"
"221010","646-BX","2017/08/19 19:31:20","新北市汐止區連峰街1巷1號","121.6467","25.0761","6501100","汐止區"
"221033","647-BX","2017/08/19 19:31:23","新北市汐止區南勢街1巷1號","121.62699","25.0374383333333","6501100","汐止區"
"221002","707-TV","2017/08/19 19:31:34","新北市汐止區大同路一段337巷15弄1號","121.637688333333","25.059965","6501100","汐止區"
"221018","753-BX","2017/08/19 19:31:21","新北市汐止區康寧街901號","121.65159","25.0749633333333","6501100","汐止區"
"220079","145-BY","2017/08/19 19:31:28","新北市板橋區復興街78號","121.459326666667","25.01753","6500100","板橋區"
"220080","200-UY","2017/08/19 19:31:25","新北市板橋區大觀路二段3巷5號","121.447578333333","25.0038783333333","6500100","板橋區"
"220082","610-BX","2017/08/19 19:31:24","新北市板橋區金門街123-3號","121.433015","24.9916866666667","6500100","板橋區"
"220101","245-BX","2017/08/19 16:42:57","新北市板橋區民生路二段120號","121.47056","25.0194783333333","6500100","板橋區"
"220102","257-TC","2017/08/19 19:31:35","新北市板橋區松柏街22巷43號","121.475113333333","25.028855","6500100","板橋區"
"220094","267-BY","2017/08/19 19:31:28","新北市板橋區松江街124巷7號","121.469501666667","25.03031","6500100","板橋區"
"220056","276-BY","2017/08/19 19:31:22","新北市板橋區信義路1巷24號","121.457991666667","24.9970533333333","6500100","板橋區"
"220072","277-BY","2017/08/19 19:31:23","新北市板橋區金門街240號","121.43056","24.9873466666667","6500100","板橋區"
"220057","280-UM","2017/08/19 19:31:32","新北市板橋區五權街20號","121.464406666667","24.9938766666667","6500100","板橋區"
"220071","283-VK","2017/08/19 19:31:38","新北市板橋區忠孝路48巷7弄1-3號","121.461065","25.0004266666667","6500100","板橋區"
"220053","285-VK","2017/08/19 19:31:23","新北市板橋區富山街53巷1弄4號","121.477601666667","25.0206833333333","6500100","板橋區"
"220083","286-VK","2017/08/19 19:31:08","新北市板橋區龍興街73巷22號","121.443031666667","25.0025016666667","6500100","板橋區"
"220081","287-VK","2017/08/19 19:31:36","新北市板橋區南雅南路一段108號","121.454901666667","25.00426","6500100","板橋區"
"220090","288-VK","2017/08/19 19:31:28","新北市板橋區長江路一段106巷20弄12號","121.460073333333","25.0283833333333","6500100","板橋區"
"220061","293-UM","2017/08/19 19:31:22","新北市板橋區中山路二段311號","121.478855","25.0185683333333","6500100","板橋區"
"220055","295-UM","2017/08/19 19:31:34","新北市板橋區國慶路276號","121.46332","24.9987","6500100","板橋區"
"220084","296-UM","2017/08/19 19:31:20","新北市板橋區滿平街136巷1弄1號","121.428655","24.9879933333333","6500100","板橋區"
"220075","297-UM","2017/08/19 19:31:37","新北市板橋區大勇街4巷17號","121.454616666667","25.0178816666667","6500100","板橋區"
"241031","281-VK","2017/08/19 18:17:17","新北市新莊區環河路636-7號","121.43734","25.0111816666667","6500200","三重區"
"220062","303-R5","2017/08/19 19:31:28","新北市板橋區三民路二段123巷31號","121.4806","25.0157133333333","6500100","板橋區"
"220092","307-R5","2017/08/19 19:31:23","新北市板橋區光武街4巷11號","121.46823","25.0255183333333","6500100","板橋區"
"220098","317-R6","2017/08/19 19:31:31","新北市板橋區民生路三段299巷3號","121.463365","25.0304033333333","6500100","板橋區"
"220064","486-VK","2017/08/19 19:31:30","新北市板橋區中山路一段37號","121.460633333333","25.0089616666667","6500100","板橋區"
"220089","487-VK","2017/08/19 19:31:19","新北市板橋區光正街45巷34號","121.46148","25.0157733333333","6500100","板橋區"
"220088","491-VK","2017/08/19 19:31:31","新北市板橋區文化路二段182巷3弄77號","121.472826666667","25.0292683333333","6500100","板橋區"
"220035","560-BX","2017/08/19 19:31:22","新北市板橋區中正路332號","121.454256666667","25.0221716666667","6500100","板橋區"
"220103","561-BX","2017/08/19 19:31:33","新北市板橋區民生路二段237號","121.468345","25.0214866666667","6500100","板橋區"
"220063","609-BX","2017/08/19 19:31:31","新北市板橋區中山路二段505巷25號","121.482055","25.022055","6500100","板橋區"
"220091","637-BX","2017/08/19 19:31:35","新北市板橋區懷德街201巷1號","121.48072","25.029375","6500100","板橋區"
"220077","687-BX","2017/08/19 19:31:27","新北市板橋區僑中二街124巷2號","121.44551","25.0056283333333","6500100","板橋區"
"220093","689-BX","2017/08/19 19:31:22","新北市板橋區英士路51號","121.460978333333","25.0246433333333","6500100","板橋區"
"220054","741-BX","2017/08/19 19:31:31","新北市板橋區光明街60號","121.461046666667","25.0025716666667","6500100","板橋區"
"220067","829-TW","2017/08/19 19:31:24","新北市板橋區長安街138巷26號","121.473013333333","25.0089416666667","6500100","板橋區"
"220096","831-TW","2017/08/19 19:31:23","新北市板橋區萬板路48號","121.471896666667","25.0230233333333","6500100","板橋區"
"220074","895-R6","2017/08/19 19:31:31","新北市板橋區中正路39巷15號","121.454898333333","25.0129933333333","6500100","板橋區"
"220073","985-R7","2017/08/19 19:31:35","新北市板橋區中正路302號","121.454903333333","25.020695","6500100","板橋區"
"220097","AAC-210","2017/08/19 19:31:27","新北市板橋區陽明街131號","121.463331666667","25.0237483333333","6500100","板橋區"
"220070","AAC-253","2017/08/19 19:31:24","新北市板橋區忠孝路83號","121.462101666667","25.00219","6500100","板橋區"
