"lineid","car","time","location","longitude","latitude","cityid","cityname"
"231007","189-VK","2017/10/03 11:18:19","新北市新店區新潭路一段120巷25號","121.526853333333","24.9353116666667","6500600","新店區"
"231009","192-VK","2017/10/03 11:10:40","新北市新店區成功路58-1號","121.53864","24.90018","6500600","新店區"
"235025","378-QA","2017/10/03 08:54:01","新北市中和區員山路36巷13號","121.484355","24.991305","6500300","中和區"
"227006","282-VK","2017/10/03 11:18:04","新北市雙溪區魚行里坤溪8號","121.866318333333","25.0213416666667","6502500","雙溪區"
"237001","159-UY","2017/10/03 11:18:13","新北市三峽區中山路459巷24號","121.357551666667","24.9387633333333","6500900","三峽區"
"220038","487-VK","2017/10/03 11:18:16","新北市板橋區華東街328號","121.452511666667","25.0034366666667","6500100","板橋區"
