"lineid","car","time","location","longitude","latitude","cityid","cityname"
"231007","189-VK","2017/10/03 11:25:59","新北市新店區華城路36號","121.528446666667","24.9557866666667","6500600","新店區"
"231009","192-VK","2017/10/03 11:10:40","新北市新店區成功路58-1號","121.53864","24.90018","6500600","新店區"
"235025","378-QA","2017/10/03 08:54:01","新北市中和區員山路36巷13號","121.484355","24.991305","6500300","中和區"
"227006","282-VK","2017/10/03 11:26:04","新北市雙溪區魚行里坤溪8號","121.866313333333","25.0213266666667","6502500","雙溪區"
"237001","159-UY","2017/10/03 11:26:13","新北市三峽區學勤路198號","121.377261666667","24.94687","6500900","三峽區"
"220038","487-VK","2017/10/03 11:25:57","新北市板橋區民生路二段89-6號","121.470836666667","25.0191283333333","6500100","板橋區"
