"lineid","car","time","location","longitude","latitude","cityid","cityname"
"234015","745-BX","2017/10/03 12:20:01","新北市永和區福和路1號","121.526526666667","25.00992","6500400","永和區"
"234076","969-R7","2017/10/03 12:19:49","新北市永和區福和路1號","121.52656","25.0097883333333","6500400","永和區"
"231069","189-VK","2017/10/03 11:51:32","新北市新店區安華路28-1號","121.519563333333","24.961085","6500600","新店區"
"231009","192-VK","2017/10/03 12:20:00","新北市新店區屈尺路6號","121.549436666667","24.9234866666667","6500600","新店區"
"235025","378-QA","2017/10/03 12:20:04","新北市中和區員山路36巷13號","121.484358333333","24.990705","6500300","中和區"
"228004","212-TW","2017/10/03 12:19:54","新北市貢寮區貢寮里長泰路13-1號","121.898558333333","25.0205116666667","6502600","貢寮區"
"228005","828-UM","2017/10/03 12:20:01","新北市貢寮區福連里馬崗街1號","121.995895","25.01603","6502600","貢寮區"
"221012","276-VK","2017/10/03 12:19:49","新北市汐止區中正路238號","121.657676666667","25.0687433333333","6501100","汐止區"
