"lineid","car","time","location","longitude","latitude","cityid","cityname"
"234044","148-BY","2017/10/03 13:59:55","新北市永和區永利路175號","121.52563","25.003455","6500400","永和區"
"234012","149-BY","2017/10/03 13:59:34","新北市永和區仁愛路295號","121.50529","25.00935","6500400","永和區"
"234005","207-UY","2017/10/03 13:59:41","新北市中和區中和路302-1號","121.508778333333","24.9998716666667","6500400","永和區"
"234078","298-R6","2017/10/03 13:59:52","新北市永和區國中路17號","121.524341666667","25.005005","6500400","永和區"
"234036","336-UY","2017/10/03 13:59:42","新北市永和區成功路二段110號","121.526566666667","24.9981383333333","6500400","永和區"
"234062","337-UY","2017/10/03 13:59:49","新北市永和區中正路412巷20弄14號","121.518825","25.0014966666667","6500400","永和區"
"234084","338-UY","2017/10/03 13:59:53","新北市永和區福和路130號","121.521845","25.0079766666667","6500400","永和區"
"234068","552-UM","2017/10/03 13:59:49","新北市永和區福和路224號","121.519115","25.0079633333333","6500400","永和區"
"234052","553-UM","2017/10/03 13:59:44","新北市永和區竹林路39巷31號","121.519776666667","25.015215","6500400","永和區"
"234015","745-BX","2017/10/03 13:59:41","新北市永和區文化路50號","121.51464","25.0151983333333","6500400","永和區"
"234028","746-BX","2017/10/03 13:59:55","新北市永和區四維街73號","121.52534","24.9979383333333","6500400","永和區"
"234060","AAD-866","2017/10/03 13:59:42","新北市永和區中正路151巷8弄1-1號","121.515951666667","24.99877","6500400","永和區"
"234040","862-TW","2017/10/03 13:59:54","新北市永和區中和路335巷14號","121.507521666667","25.0003066666667","6500400","永和區"
"234048","863-TW","2017/10/03 13:59:46","新北市永和區保安路244號","121.506533333333","25.0127466666667","6500400","永和區"
"234025","9371-KE","2017/10/03 13:59:49","新北市永和區安樂路467號","121.51423","25.0054966666667","6500400","永和區"
"234010","9373-KE","2017/10/03 13:59:48","新北市永和區仁愛路352巷116號","121.500435","25.0084083333333","6500400","永和區"
"248017","225-UY","2017/10/03 13:59:45","新北市五股區民義路一段236-6號","121.427528333333","25.09121","6501500","五股區"
"234022","9380-KE","2017/10/03 13:59:41","新北市永和區復興街16巷5號","121.5158","25.0125283333333","6500400","永和區"
"234076","969-R7","2017/10/03 13:59:49","新北市永和區民族街43巷11號","121.519025","24.9985083333333","6500400","永和區"
"234072","AAC-211","2017/10/03 13:59:49","新北市永和區豫溪街185號","121.522515","25.010395","6500400","永和區"
"234066","AAC-212","2017/10/03 13:59:41","新北市永和區永貞路364-1號","121.510246666667","25.00685","6500400","永和區"
"234001","AAC-295","2017/10/03 13:59:51","新北市永和區福和路316號","121.516085","25.0073716666667","6500400","永和區"
"244002","657-BX","2017/10/03 13:59:41","新北市林口區竹林路266號","121.389665","25.0807566666667","6501700","林口區"
"231002","002-UM","2017/10/03 13:59:44","新北市新店區溪園路381號","121.523353333333","24.9796166666667","6500600","新店區"
"231028","046-UY","2017/10/03 13:59:53","新北市新店區安和路三段109號","121.517843333333","24.9848566666667","6500600","新店區"
"231030","047-UY","2017/10/03 13:59:47","新北市新店區安興路7-1號","121.515021666667","24.9685966666667","6500600","新店區"
"231029","106-UY","2017/10/03 13:59:44","新北市新店區安康路一段355-4號","121.517343333333","24.9639516666667","6500600","新店區"
"231018","107-UY","2017/10/03 13:59:39","新北市新店區中央路192號","121.530766666667","24.9746716666667","6500600","新店區"
"231012","108-UY","2017/10/03 13:59:44","新北市新店區五峰路93號","121.54611","24.9673916666667","6500600","新店區"
"231020","187-VK","2017/10/03 13:59:42","新北市新店區自強路69號","121.546416666667","24.9243","6500600","新店區"
"231069","189-VK","2017/10/03 11:51:32","新北市新店區安華路28-1號","121.519563333333","24.961085","6500600","新店區"
"231015","215-TC","2017/10/03 13:59:51","新北市新店區北宜路二段295號","121.556181666667","24.9540916666667","6500600","新店區"
"231026","256-BX","2017/10/03 13:59:36","新北市新店區環河路180-3號","121.535568333333","24.969065","6500600","新店區"
"231034","268-BY","2017/10/03 13:59:51","新北市新店區達觀路41號","121.502608333333","24.9389083333333","6500600","新店區"
"231010","278-BY","2017/10/03 13:59:42","新北市新店區安康路一段35號","121.5316","24.9608883333333","6500600","新店區"
"231023","AAD-862","2017/10/03 13:59:53","新北市新店區文中路51號","121.539816666667","24.956575","6500600","新店區"
"231027","3712-VJ","2017/10/03 13:59:41","新北市新店區北宜路一段39巷20號","121.538923333333","24.9584483333333","6500600","新店區"
"231024","3713-VJ","2017/10/03 13:59:43","新北市新店區北新路一段271巷34號","121.539943333333","24.967185","6500600","新店區"
"231025","4716-K9","2017/10/03 13:59:52","新北市新店區中正路318號","121.53719","24.9748033333333","6500600","新店區"
"231038","4715-K9","2017/10/03 13:59:35","新北市新店區溪洲路121號","121.531456666667","24.9626483333333","6500600","新店區"
"231036","512-UM","2017/10/03 13:59:32","新北市新店區安祥路110巷30弄1號","121.473645","24.9564583333333","6500600","新店區"
"231035","515-UM","2017/10/03 13:59:43","新北市新店區安康路二段85巷17號","121.514385","24.9615533333333","6500600","新店區"
"231006","617-UM","2017/10/03 13:59:34","新北市新店區北宜路二段215號","121.553278333333","24.9534166666667","6500600","新店區"
"231001","619-UM","2017/10/03 13:59:46","新北市新店區三民路24號","121.5371","24.9711133333333","6500600","新店區"
"231003","641-BX","2017/10/03 13:59:45","新北市新店區中興路一段34號","121.53868","24.9586216666667","6500600","新店區"
"231013","719-UM","2017/10/03 13:59:39","新北市新店區明德路66號","121.541533333333","24.979505","6500600","新店區"
"231032","720-UM","2017/10/03 13:59:36","新北市新店區華城路36巷1-1號","121.52822","24.9556133333333","6500600","新店區"
"231005","897-TW","2017/10/03 13:59:50","新北市新店區寶中路65巷1號","121.54696","24.9805166666667","6500600","新店區"
"231004","899-TW","2017/10/03 13:59:49","新北市新店區北新路二段190號","121.542931666667","24.9763783333333","6500600","新店區"
"231037","AKT-0513","2017/10/03 13:59:53","新北市新店區安康路三段165巷2弄8號","121.489236666667","24.951415","6500600","新店區"
"235030","003-UY","2017/10/03 13:59:47","新北市中和區中山路二段131巷5弄11號","121.503115","25.0030616666667","6500300","中和區"
"235028","005-UY","2017/10/03 13:59:51","新北市中和區泰和街44巷3號","121.498663333333","25.0002183333333","6500300","中和區"
"235027","006-UY","2017/10/03 13:59:36","新北市中和區中正路596號","121.485816666667","24.9952","6500300","中和區"
"235021","031-BX","2017/10/03 13:59:44","新北市中和區民利街98號","121.477616666667","24.997845","6500300","中和區"
"235020","096-UM","2017/10/03 13:59:42","新北市中和區中正路1220巷5號","121.479733333333","25.01129","6500300","中和區"
"235003","097-UM","2017/10/03 13:59:46","新北市中和區景平路64巷14弄15號","121.522701666667","24.99137","6500300","中和區"
"235029","098-UM","2017/10/03 13:59:35","新北市中和區莊敬路39號","121.500871666667","25.00498","6500300","中和區"
"235004","150-BY","2017/10/03 13:59:49","新北市中和區保健路46巷1號","121.509753333333","24.9970566666667","6500300","中和區"
"235022","151-BY","2017/10/03 13:59:37","新北市中和區連城路526-1號","121.475981666667","24.9915733333333","6500300","中和區"
"235019","183-VK","2017/10/03 13:59:52","新北市板橋區民族路276巷46號","121.469231666667","25.00556","6500300","中和區"
"235002","185-VK","2017/10/03 13:59:51","新北市中和區立人街40號","121.518105","24.9941533333333","6500300","中和區"
"235013","186-VK","2017/10/03 13:59:43","新北市中和區明仁街21號","121.506191666667","24.995545","6500300","中和區"
"235031","255-BX","2017/10/03 13:59:35","新北市中和區新生街266號","121.483516666667","24.9972466666667","6500300","中和區"
"235008","293-VK","2017/10/03 13:59:54","新北市中和區復興路280巷33弄6號","121.501138333333","24.99152","6500300","中和區"
"235036","301-VK","2017/10/03 13:59:48","新北市中和區中山路二段26號","121.504701666667","25.005315","6500300","中和區"
"235007","352-BY","2017/10/03 13:59:53","新北市中和區秀朗路三段107號","121.526478333333","24.9946733333333","6500300","中和區"
"235032","375-QA","2017/10/03 13:59:38","新北市中和區圓通路208號","121.496113333333","24.9940633333333","6500300","中和區"
"235015","376-QA","2017/10/03 13:59:55","新北市中和區忠孝街11巷10號","121.509968333333","24.9831983333333","6500300","中和區"
"235025","378-QA","2017/10/03 13:59:50","新北市中和區民享街55號","121.47416","25.0025583333333","6500300","中和區"
"235014","4979-A6","2017/10/03 13:59:47","新北市中和區南山路401號","121.50688","24.9900266666667","6500300","中和區"
"235033","4980-A6","2017/10/03 13:59:41","新北市中和區中和路217巷20號","121.504761666667","25.0004766666667","6500300","中和區"
"235006","551-UM","2017/10/03 13:59:45","新北市中和區秀朗路三段22巷6號","121.52601","24.9963183333333","6500300","中和區"
"235034","558-UM","2017/10/03 13:59:55","新北市中和區中和路136號","121.503398333333","24.9994733333333","6500300","中和區"
"235009","565-BX","2017/10/03 13:59:43","新北市中和區景新街467巷4號","121.51366","24.9881466666667","6500300","中和區"
"235018","640-BX","2017/10/03 13:59:45","新北市中和區民享街5號","121.473908333333","25.00569","6500300","中和區"
"235024","647-TV","2017/10/03 13:59:35","新北市中和區中山路三段33號","121.479053333333","25.0059383333333","6500300","中和區"
"235011","732-UM","2017/10/03 13:59:41","新北市中和區興南路二段97號","121.506051666667","24.9847","6500300","中和區"
"235010","733-UM","2017/10/03 13:59:50","新北市中和區興南路二段31巷3號","121.507911666667","24.985595","6500300","中和區"
"235026","800-TS","2017/10/03 13:59:38","新北市中和區中山路二段340巷63號","121.492868333333","25.0047733333333","6500300","中和區"
"235005","802-TS","2017/10/03 13:59:54","新北市中和區永貞路280號","121.513103333333","25.0039866666667","6500300","中和區"
"235016","805-TS","2017/10/03 13:59:35","新北市中和區興南路二段261巷6-5號","121.502196666667","24.9793683333333","6500300","中和區"
"235012","896-TW","2017/10/03 13:59:52","新北市中和區南山路300號","121.507835","24.9871516666667","6500300","中和區"
"235017","900-TW","2017/10/03 13:59:42","新北市中和區民德路306巷8號","121.466923333333","24.995425","6500300","中和區"
"235001","AAC-213","2017/10/03 13:59:52","新北市中和區自立路99巷9號","121.522491666667","24.9948333333333","6500300","中和區"
"235023","AAC-215","2017/10/03 13:59:51","新北市中和區圓通路367巷20弄29號","121.491281666667","24.9881383333333","6500300","中和區"
"220013","072-UY","2017/10/03 13:59:35","新北市板橋區漢生東路324號","121.471748333333","25.00797","6500100","板橋區"
"220034","073-UY","2017/10/03 13:59:45","新北市板橋區民權路209號","121.457918333333","25.0148516666667","6500100","板橋區"
"220105","075-UY","2017/10/03 13:59:47","新北市板橋區文化路二段124巷36號","121.471568333333","25.0256","6500100","板橋區"
"220017","AAD-861","2017/10/03 13:59:37","新北市板橋區華興街32-5號","121.458916666667","25.0047916666667","6500100","板橋區"
"220016","120-SR","2017/10/03 13:59:38","新北市板橋區中山路二段467號","121.481903333333","25.0206016666667","6500100","板橋區"
"247019","500-BY","2017/10/03 13:59:47","新北市蘆洲區民族路426巷40弄11號","121.473585","25.0931116666667","6501400","蘆洲區"
"247009","339-TH","2017/10/03 13:59:51","新北市蘆洲區集賢路222-6號","121.482526666667","25.0866616666667","6501400","蘆洲區"
"247001","337-TH","2017/10/03 13:59:34","新北市蘆洲區三民路605號","121.460515","25.093695","6501400","蘆洲區"
"247003","336-TH","2017/10/03 13:59:53","新北市蘆洲區長安街98巷21號","121.463025","25.0819466666667","6501400","蘆洲區"
"247015","057-VK","2017/10/03 13:59:38","新北市蘆洲區光華路36巷10號","121.468913333333","25.0834883333333","6501400","蘆洲區"
"247005","056-VK","2017/10/03 13:59:18","新北市蘆洲區永安南路二段76號","121.464661666667","25.0782016666667","6501400","蘆洲區"
"247007","053-VK","2017/10/03 13:59:51","新北市三重區三和路四段390巷59號","121.47943","25.0786666666667","6501400","蘆洲區"
"247013","007-UY","2017/10/03 13:59:39","新北市蘆洲區中正路187號","121.468555","25.08575","6501400","蘆洲區"
"247017","001-UY","2017/10/03 13:59:51","新北市蘆洲區民權路96巷15號","121.475511666667","25.0891516666667","6501400","蘆洲區"
"228004","212-TW","2017/10/03 13:59:34","新北市貢寮區龍崗里嵩陽街35-1號","121.906705","25.017555","6502600","貢寮區"
"228005","828-UM","2017/10/03 13:59:41","新北市貢寮區美豐里雞母嶺街52-1號","121.888538333333","25.06858","6502600","貢寮區"
"208004","AAC-292","2017/10/03 13:59:40","新北市金山區名流路2號","121.596086666667","25.2029233333333","6502700","金山區"
"207002","749-BX","2017/10/03 13:55:42","新北市萬里區溪底里烏塗炭9-2號","121.640765","25.151835","6502800","萬里區"
"207001","662-BX","2017/10/03 13:59:39","新北市萬里區磺潭里清水18號","121.63788","25.1978","6502800","萬里區"
"252005","AAC-283","2017/10/03 13:59:55","新北市三芝區橫山里橫山33號","121.542878333333","25.2588583333333","6502100","三芝區"
"236065","105-UM","2017/10/03 13:59:37","新北市土城區學府路二段257號","121.444991666667","24.977695","6501300","土城區"
"236041","107-UM","2017/10/03 13:59:52","新北市土城區裕生路64號","121.447598333333","24.986135","6501300","土城區"
"236029","253-BX","2017/10/03 13:59:50","新北市土城區城林路6巷80號","121.438571666667","24.9797933333333","6501300","土城區"
"236025","269-VK","2017/10/03 13:59:41","新北市土城區忠承路103號","121.438205","24.9642516666667","6501300","土城區"
"236013","270-VK","2017/10/03 13:59:35","新北市土城區城林路6巷80號","121.4382","24.9797916666667","6501300","土城區"
"236034","271-VK","2017/10/03 13:59:44","新北市土城區城林路6巷80號","121.438238333333","24.979555","6501300","土城區"
"236017","401-BY","2017/10/03 13:59:47","新北市土城區城林路6巷80號","121.438658333333","24.9798116666667","6501300","土城區"
"236006","498-BY","2017/10/03 13:59:48","新北市土城區中央路一段104號","121.446715","24.9883216666667","6501300","土城區"
"236075","752-BX","2017/10/03 13:59:24","新北市土城區永寧路20號","121.429805","24.9616","6501300","土城區"
"236057","912-UM","2017/10/03 13:59:42","新北市土城區大安路2號","121.432738333333","24.9655083333333","6501300","土城區"
"236045","913-UM","2017/10/03 13:59:37","新北市土城區中華路二段2號","121.43952","24.9796266666667","6501300","土城區"
"236061","915-UM","2017/10/03 13:59:42","新北市土城區城林路6巷80號","121.438393333333","24.9798266666667","6501300","土城區"
"236054","AAC-216","2017/10/03 13:59:36","新北市土城區中央路二段280號","121.440776666667","24.974125","6501300","土城區"
"242046","172-VK","2017/10/03 13:59:37","新北市板橋區金門街215巷91弄7號","121.434781666667","24.9886666666667","6500500","新莊區"
"221012","276-VK","2017/10/03 13:23:49","新北市汐止區汐萬路一段256巷3號","121.653463333333","25.0746533333333","6501100","汐止區"
"220027","145-BY","2017/10/03 13:59:57","新北市板橋區民權路202巷7弄40號","121.458555","25.01516","6500100","板橋區"
"220030","610-BX","2017/10/03 13:59:32","新北市板橋區篤行路三段70號","121.427078333333","24.9854966666667","6500100","板橋區"
"220050","245-BX","2017/10/03 13:59:52","新北市板橋區文化路二段182巷7弄6號","121.472195","25.0270533333333","6500100","板橋區"
"220040","267-BY","2017/10/03 13:59:40","新北市板橋區莒光路165巷46號","121.474443333333","25.0253566666667","6500100","板橋區"
"220004","276-BY","2017/10/03 13:59:49","新北市板橋區信義路161號","121.458713333333","24.9924266666667","6500100","板橋區"
"220020","277-BY","2017/10/03 13:59:48","新北市板橋區大觀路三段36巷84號","121.434551666667","24.997425","6500100","板橋區"
"220012","280-UM","2017/10/03 13:59:50","新北市板橋區漢生東路178號","121.467255","25.0146583333333","6500100","板橋區"
"220019","283-VK","2017/10/03 13:59:42","新北市板橋區重慶路245巷11號","121.463728333333","25.0007566666667","6500100","板橋區"
"220043","285-UM","2017/10/03 13:59:55","新北市板橋區文化路二段31號","121.46885","25.02486","6500100","板橋區"
"220001","285-VK","2017/10/03 13:59:38","新北市板橋區中山路二段89巷49號","121.47363","25.0173266666667","6500100","板橋區"
"220031","286-VK","2017/10/03 13:59:48","新北市板橋區大觀路一段38巷156弄67號","121.442181666667","25.00708","6500100","板橋區"
"220029","287-VK","2017/10/03 13:59:49","新北市板橋區光華街19巷1號","121.453723333333","25.0120783333333","6500100","板橋區"
"220039","288-VK","2017/10/03 13:59:36","新北市板橋區四維路177巷2弄1號","121.464058333333","25.0262966666667","6500100","板橋區"
"220009","293-UM","2017/10/03 13:59:41","新北市板橋區懷仁街11號","121.47616","25.020095","6500100","板橋區"
"220032","296-UM","2017/10/03 13:59:43","新北市板橋區大觀路二段146號","121.44222","24.998825","6500100","板橋區"
"220023","297-UM","2017/10/03 13:59:50","新北市板橋區館前西路211號","121.454536666667","25.0084133333333","6500100","板橋區"
"242001","281-VK","2017/10/03 13:59:32","新北市新莊區中港路351號","121.452028333333","25.0457683333333","6500500","新莊區"
"220010","305-R5","2017/10/03 13:59:49","新北市板橋區三民路二段245巷4弄2號","121.480956666667","25.0121666666667","6500100","板橋區"
"220041","307-R5","2017/10/03 13:59:53","新北市板橋區文化路一段104巷1弄5號","121.465245","25.017985","6500100","板橋區"
"220047","317-R6","2017/10/03 13:59:51","新北市板橋區民有街24-3號","121.466155","25.0251666666667","6500100","板橋區"
"220028","461-BY","2017/10/03 13:59:38","新北市板橋區大觀路二段文和巷77-1號","121.444095","24.998425","6500100","板橋區"
"220038","487-VK","2017/10/03 13:59:40","新北市板橋區文化路二段19號","121.468751666667","25.0245433333333","6500100","板橋區"
"220037","491-VK","2017/10/03 13:59:37","新北市板橋區文化路二段15號","121.468755","25.0244533333333","6500100","板橋區"
"220104","560-BX","2017/10/03 13:59:51","新北市板橋區中正路375巷30號","121.45352","25.0207633333333","6500100","板橋區"
"220052","561-BX","2017/10/03 13:59:43","新北市板橋區介壽街118號","121.469901666667","25.0177483333333","6500100","板橋區"
"220002","568-UM","2017/10/03 13:59:45","新北市板橋區館前東路9號","121.45982","25.0072783333333","6500100","板橋區"
"220011","609-BX","2017/10/03 13:59:50","新北市板橋區中山路二段171號","121.47598","25.0168583333333","6500100","板橋區"
"220005","686-BX","2017/10/03 13:59:52","新北市板橋區館前東路80號","121.461691666667","25.0075066666667","6500100","板橋區"
"220025","687-BX","2017/10/03 13:59:51","新北市板橋區大觀路二段174巷153號","121.44152","25.0027066666667","6500100","板橋區"
"220042","689-BX","2017/10/03 13:59:38","新北市板橋區民生路三段42號","121.467376666667","25.025015","6500100","板橋區"
"220003","827-TW","2017/10/03 13:59:47","新北市板橋區中山路一段156號","121.464728333333","25.0115716666667","6500100","板橋區"
"220014","829-TW","2017/10/03 13:59:44","新北市板橋區三民路二段正隆巷12弄20號","121.477608333333","25.0136233333333","6500100","板橋區"
"220051","830-TW","2017/10/03 13:59:53","新北市板橋區懷德街233巷14號","121.481011666667","25.0288616666667","6500100","板橋區"
"220045","831-TW","2017/10/03 13:59:44","新北市板橋區莒光路133巷7弄3號","121.472613333333","25.0242433333333","6500100","板橋區"
"220022","895-R6","2017/10/03 13:59:52","新北市板橋區南雅南路一段131號","121.455116666667","25.0044933333333","6500100","板橋區"
"220021","985-R7","2017/10/03 13:59:38","新北市板橋區館前西路152號","121.455368333333","25.0084583333333","6500100","板橋區"
"220046","AAC-210","2017/10/03 13:59:38","新北市板橋區陽明街162號","121.463381666667","25.024465","6500100","板橋區"
"220018","AAC-253","2017/10/03 13:59:44","新北市板橋區四川路一段22號","121.459495","25.006425","6500100","板橋區"
