"lineid","car","time","location","longitude","latitude","cityid","cityname"
"234005","207-UY","2017/10/03 14:39:41","新北市中和區安樂路11號","121.511788333333","24.9921133333333","6500400","永和區"
"234078","298-R6","2017/10/03 14:39:31","新北市永和區永貞路78號","121.520315","25.004985","6500400","永和區"
"234062","337-UY","2017/10/03 14:39:29","新北市永和區成功路一段18巷20號","121.526225","25.005145","6500400","永和區"
"234084","338-UY","2017/10/03 14:39:33","新北市永和區光復街21號","121.516546666667","25.0174783333333","6500400","永和區"
"234028","746-BX","2017/10/03 14:39:27","新北市中和區景安路85號","121.506246666667","24.996885","6500400","永和區"
"234025","9371-KE","2017/10/03 14:39:48","新北市永和區雙和街7巷10號","121.50942","25.0015","6500400","永和區"
"248017","225-UY","2017/10/03 14:30:25","新北市五股區外寮路6-1號","121.425193333333","25.0752516666667","6501500","五股區"
"234072","AAC-211","2017/10/03 14:39:46","新北市永和區環河東路二段36號","121.522723333333","25.01246","6500400","永和區"
"244002","657-BX","2017/10/03 14:39:41","新北市林口區竹林路265號","121.389533333333","25.08071","6501700","林口區"
"231002","002-UM","2017/10/03 14:39:44","新北市新店區中正路366號","121.535401666667","24.976095","6500600","新店區"
"231028","046-UY","2017/10/03 14:39:33","新北市新店區安德街60巷35號","121.511138333333","24.96367","6500600","新店區"
"231030","047-UY","2017/10/03 14:39:27","新北市新店區安民街263號","121.517396666667","24.9727866666667","6500600","新店區"
"231029","106-UY","2017/10/03 14:39:44","新北市新店區安康路三段263號","121.486546666667","24.9519333333333","6500600","新店區"
"231018","107-UY","2017/10/03 14:39:38","新北市新店區中央二街7-2號","121.52926","24.973135","6500600","新店區"
"231012","108-UY","2017/10/03 14:39:40","新北市新店區寶橋路78巷5號","121.547078333333","24.975015","6500600","新店區"
"231020","187-VK","2017/10/03 14:39:42","新北市新店區桂山路81巷1號","121.56746","24.8993033333333","6500600","新店區"
"231069","189-VK","2017/10/03 11:51:32","新北市新店區安華路28-1號","121.519563333333","24.961085","6500600","新店區"
"231015","215-TC","2017/10/03 14:39:31","新北市新店區雙峰路20號","121.582168333333","24.950265","6500600","新店區"
"231034","268-BY","2017/10/03 14:39:30","新北市新店區黎明路51巷2號","121.502028333333","24.94911","6500600","新店區"
"231023","AAD-862","2017/10/03 14:39:33","新北市新店區檳榔路29巷4號","121.542","24.9636533333333","6500600","新店區"
"231027","3712-VJ","2017/10/03 14:39:41","新北市新店區中正路76巷11弄13號","121.543888333333","24.971395","6500600","新店區"
"231024","3713-VJ","2017/10/03 14:39:43","新北市新店區中華路83巷67號","121.538331666667","24.9674233333333","6500600","新店區"
"231025","4716-K9","2017/10/03 14:39:46","新北市新店區民族路161號","121.537778333333","24.97672","6500600","新店區"
"231038","4715-K9","2017/10/03 14:39:35","新北市新店區安康路一段44號","121.530801666667","24.9611333333333","6500600","新店區"
"231036","512-UM","2017/10/03 14:39:32","新北市新店區安祥路106巷202號","121.474331666667","24.9603583333333","6500600","新店區"
"231035","515-UM","2017/10/03 14:39:43","新北市新店區安光路10-1號","121.513786666667","24.9642083333333","6500600","新店區"
"231006","617-UM","2017/10/03 14:39:42","新北市新店區北宜路二段115號","121.550473333333","24.9527866666667","6500600","新店區"
"231001","619-UM","2017/10/03 14:39:46","新北市新店區中正路41號","121.544915","24.969845","6500600","新店區"
"231003","641-BX","2017/10/03 14:39:45","新北市新店區中興路一段292號","121.54592","24.9692116666667","6500600","新店區"
"231039","718-UY","2017/10/03 14:39:43","新北市新店區安華路28-1號","121.519566666667","24.961215","6500600","新店區"
"231013","719-UM","2017/10/03 14:39:39","新北市新店區明德路20號","121.542238333333","24.9770033333333","6500600","新店區"
"231005","897-TW","2017/10/03 14:39:30","新北市新店區北新路三段228號","121.540811666667","24.9851016666667","6500600","新店區"
"231004","899-TW","2017/10/03 14:39:29","新北市新店區中正路286號","121.537908333333","24.9743433333333","6500600","新店區"
"231037","AKT-0513","2017/10/03 14:39:33","新北市新店區柴埕路60巷32號","121.506538333333","24.9672883333333","6500600","新店區"
"235030","003-UY","2017/10/03 14:39:47","新北市中和區南工路40號","121.505773333333","25.0011833333333","6500300","中和區"
"235028","005-UY","2017/10/03 14:39:31","新北市中和區南山路127巷18弄2號","121.503488333333","24.9972733333333","6500300","中和區"
"235027","006-UY","2017/10/03 14:39:36","新北市中和區連城路164號","121.493855","24.9975266666667","6500300","中和區"
"235021","031-BX","2017/10/03 14:39:23","新北市中和區員山路296號","121.481288333333","25.0025033333333","6500300","中和區"
"235020","096-UM","2017/10/03 14:39:42","新北市中和區員山路516號","121.479238333333","25.0095333333333","6500300","中和區"
"235003","097-UM","2017/10/03 14:39:26","新北市中和區宜安路60號","121.511676666667","24.9969466666667","6500300","中和區"
"235029","098-UM","2017/10/03 14:39:35","新北市中和區福美路230號","121.499071666667","25.0053083333333","6500300","中和區"
"235004","150-BY","2017/10/03 14:39:29","新北市中和區安平路38號","121.509766666667","24.99503","6500300","中和區"
"235022","151-BY","2017/10/03 14:39:37","新北市中和區連城路515號","121.482218333333","24.9953266666667","6500300","中和區"
"235019","183-VK","2017/10/03 14:39:32","新北市中和區民生街35巷2弄2號","121.470351666667","25.0051916666667","6500300","中和區"
"235002","185-VK","2017/10/03 14:39:31","新北市中和區自立路41號","121.52199","24.99518","6500300","中和區"
"235013","186-VK","2017/10/03 14:39:43","新北市中和區景新街263號","121.508803333333","24.9940266666667","6500300","中和區"
"235031","255-BX","2017/10/03 14:39:35","新北市中和區新生街220巷15弄7號","121.48294","24.998085","6500300","中和區"
"235008","293-VK","2017/10/03 14:39:34","新北市中和區捷運路185號","121.50542","24.991425","6500300","中和區"
"235036","301-VK","2017/10/03 14:39:48","新北市中和區光華街31巷22弄28號","121.505943333333","25.00435","6500300","中和區"
"235007","352-BY","2017/10/03 14:39:33","新北市中和區南華路23-1號","121.502965","24.9959666666667","6500300","中和區"
"235032","375-QA","2017/10/03 14:39:38","新北市中和區中山路二段136巷3弄6號","121.50141","25.003755","6500300","中和區"
"235015","376-QA","2017/10/03 14:39:35","新北市中和區中興街132號","121.499665","24.992205","6500300","中和區"
"235025","378-QA","2017/10/03 14:39:30","新北市中和區民安街20號","121.480435","25.0008216666667","6500300","中和區"
"235035","269-TV","2017/10/03 14:39:34","新北市中和區中正路637巷40號","121.485563333333","24.9945066666667","6500300","中和區"
"235014","4979-A6","2017/10/03 14:39:47","新北市中和區和平街164巷4號","121.505973333333","24.9924083333333","6500300","中和區"
"235006","551-UM","2017/10/03 14:39:45","新北市中和區保健路2巷28號","121.507106666667","24.9975416666667","6500300","中和區"
"235034","558-UM","2017/10/03 14:39:38","新北市中和區枋寮街4號","121.502295","24.9997616666667","6500300","中和區"
"235009","565-BX","2017/10/03 14:39:43","新北市中和區景新街324號","121.511778333333","24.99122","6500300","中和區"
"235018","640-BX","2017/10/03 14:39:25","新北市中和區國光街112巷14弄15號","121.470631666667","25.0013316666667","6500300","中和區"
"235024","647-TV","2017/10/03 14:39:35","新北市中和區新生街118巷6號","121.483311666667","25.0017716666667","6500300","中和區"
"235011","732-UM","2017/10/03 14:39:41","新北市中和區捷運路57號","121.50933","24.989595","6500300","中和區"
"235010","733-UM","2017/10/03 14:39:30","新北市中和區景新街500號","121.513791666667","24.986915","6500300","中和區"
"235026","800-TS","2017/10/03 14:39:38","新北市中和區中山路二段526巷32號","121.485856666667","25.0059766666667","6500300","中和區"
"235005","802-TS","2017/10/03 14:39:34","新北市中和區中和路228號","121.506586666667","24.99948","6500300","中和區"
"235016","805-TS","2017/10/03 14:39:35","新北市中和區華新街206巷20號","121.506246666667","24.9827483333333","6500300","中和區"
"235012","896-TW","2017/10/03 14:39:32","新北市中和區景新街487號","121.513718333333","24.9874533333333","6500300","中和區"
"235017","900-TW","2017/10/03 14:39:38","新北市中和區民德路197號","121.469045","24.99829","6500300","中和區"
"235001","AAC-213","2017/10/03 14:39:32","新北市中和區秀朗路三段10巷29弄5號","121.524991666667","24.996075","6500300","中和區"
"235023","AAC-215","2017/10/03 14:39:31","新北市中和區圓通路305巷5弄2號","121.4936","24.9902733333333","6500300","中和區"
"220013","072-UY","2017/10/03 14:39:41","新北市板橋區國泰街32號","121.468288333333","25.00678","6500100","板橋區"
"220034","073-UY","2017/10/03 14:39:45","新北市板橋區中正路216巷150弄1號","121.460695","25.0193883333333","6500100","板橋區"
"220105","075-UY","2017/10/03 14:39:46","新北市板橋區文化路二段446號","121.474636666667","25.0325166666667","6500100","板橋區"
"220017","AAD-861","2017/10/03 14:39:37","新北市板橋區縣民大道一段64巷17號","121.455841666667","25.0034016666667","6500100","板橋區"
"220016","120-SR","2017/10/03 14:39:38","新北市板橋區中山路二段416巷36-1號","121.483111666667","25.0198283333333","6500100","板橋區"
"247011","546-UM","2017/10/03 14:39:27","新北市蘆洲區集賢路224巷66號","121.480758333333","25.0882866666667","6501400","蘆洲區"
"247019","500-BY","2017/10/03 14:39:26","新北市蘆洲區民義街68巷46號","121.473875","25.0897183333333","6501400","蘆洲區"
"247009","339-TH","2017/10/03 14:39:31","新北市蘆洲區集賢路300號","121.481441666667","25.0853283333333","6501400","蘆洲區"
"247001","337-TH","2017/10/03 14:39:34","新北市蘆洲區長安街274巷9號","121.45783","25.087095","6501400","蘆洲區"
"247003","336-TH","2017/10/03 14:39:40","新北市蘆洲區長安街285巷26號","121.456945","25.08401","6501400","蘆洲區"
"247015","057-VK","2017/10/03 14:39:38","新北市蘆洲區正和街56號","121.468963333333","25.0816","6501400","蘆洲區"
"247007","053-VK","2017/10/03 14:39:30","新北市蘆洲區中山一路263號","121.472841666667","25.0800066666667","6501400","蘆洲區"
"247013","007-UY","2017/10/03 14:39:39","新北市蘆洲區中央路30號","121.47351","25.0828833333333","6501400","蘆洲區"
"247023","002-UY","2017/10/03 14:39:45","新北市蘆洲區正和街63巷22號","121.469308333333","25.080405","6501400","蘆洲區"
"228004","212-TW","2017/10/03 14:39:34","新北市貢寮區福隆里虎子山街21號","121.94068","25.0154766666667","6502600","貢寮區"
"228005","828-UM","2017/10/03 14:39:41","新北市貢寮區美豐里雞母嶺街7號","121.902058333333","25.0642916666667","6502600","貢寮區"
"208004","AAC-292","2017/10/03 14:39:40","新北市金山區兩湖里倒照湖45號","121.589758333333","25.2345766666667","6502700","金山區"
"207002","749-BX","2017/10/03 14:39:42","新北市萬里區崁腳里崁腳路73號","121.647555","25.1596133333333","6502800","萬里區"
"207001","662-BX","2017/10/03 14:39:39","新北市萬里區雙興里豐稟路26號","121.641413333333","25.1877466666667","6502800","萬里區"
"252005","AAC-283","2017/10/03 14:39:35","新北市三芝區埔坪里埔頭坑120號","121.518351666667","25.2450833333333","6502100","三芝區"
"236065","105-UM","2017/10/03 14:39:37","新北市土城區永豐路255巷21弄2-1號","121.475086666667","24.9735633333333","6501300","土城區"
"236041","107-UM","2017/10/03 14:39:32","新北市土城區裕民路55巷1號","121.448946666667","24.9880616666667","6501300","土城區"
"236029","253-BX","2017/10/03 14:39:30","新北市土城區中華路二段90號","121.438396666667","24.97495","6501300","土城區"
"236025","269-VK","2017/10/03 14:39:41","新北市土城區和平路5巷2號","121.442735","24.9744616666667","6501300","土城區"
"236013","270-VK","2017/10/03 14:39:35","新北市土城區清水路211號","121.460521666667","24.9819866666667","6501300","土城區"
"236034","271-VK","2017/10/03 14:39:44","新北市土城區明德路一段291巷11弄19號","121.460943333333","24.9760883333333","6501300","土城區"
"236017","401-BY","2017/10/03 14:39:47","新北市土城區延吉街270號","121.465833333333","24.9845383333333","6501300","土城區"
"236075","752-BX","2017/10/03 14:39:44","新北市土城區中央路四段52巷40弄2號","121.419406666667","24.9607966666667","6501300","土城區"
"236057","912-UM","2017/10/03 14:39:42","新北市土城區中央路四段150號","121.4172","24.9583266666667","6501300","土城區"
"236045","913-UM","2017/10/03 14:39:37","新北市土城區金城路三段6號","121.464271666667","24.985945","6501300","土城區"
"236061","915-UM","2017/10/03 14:39:42","新北市土城區延壽路13巷20號","121.470491666667","24.9908916666667","6501300","土城區"
"236054","AAC-216","2017/10/03 14:39:36","新北市土城區中華路一段108號","121.444226666667","24.986725","6501300","土城區"
"221012","276-VK","2017/10/03 13:23:49","新北市汐止區汐萬路一段256巷3號","121.653463333333","25.0746533333333","6501100","汐止區"
"220027","145-BY","2017/10/03 14:39:47","新北市板橋區建國街54巷11號","121.459315","25.016955","6500100","板橋區"
"220030","610-BX","2017/10/03 14:39:33","新北市板橋區金門街96-2號","121.433118333333","24.9924283333333","6500100","板橋區"
"220050","245-BX","2017/10/03 14:39:37","新北市板橋區莊敬路261號","121.473791666667","25.021585","6500100","板橋區"
"220040","267-BY","2017/10/03 14:39:40","新北市板橋區懷德街181巷28號","121.480466666667","25.0301016666667","6500100","板橋區"
"220004","276-BY","2017/10/03 14:39:29","新北市板橋區四川路二段47巷3弄3號","121.454393333333","24.9948433333333","6500100","板橋區"
"220020","277-BY","2017/10/03 14:39:39","新北市板橋區篤行路二段141巷5號","121.430175","24.9881516666667","6500100","板橋區"
"220012","280-UM","2017/10/03 14:39:28","新北市板橋區民族路19號","121.461848333333","25.0097016666667","6500100","板橋區"
"220019","283-VK","2017/10/03 14:39:42","新北市板橋區四川路一段336號","121.456896666667","24.9971416666667","6500100","板橋區"
"220043","285-UM","2017/10/03 14:39:35","新北市板橋區長江路二段250號","121.469121666667","25.0324516666667","6500100","板橋區"
"220001","285-VK","2017/10/03 14:39:38","新北市板橋區中山路二段273號","121.477746666667","25.01796","6500100","板橋區"
"220031","286-VK","2017/10/03 14:39:28","新北市板橋區龍興街65巷80號","121.441903333333","25.0022566666667","6500100","板橋區"
"220029","287-VK","2017/10/03 14:36:30","新北市板橋區大觀路一段29巷131弄8號","121.45048","25.005195","6500100","板橋區"
"220039","288-VK","2017/10/03 14:39:36","新北市板橋區龍泉街54巷8弄14號","121.457411666667","25.0269516666667","6500100","板橋區"
"220009","293-UM","2017/10/03 14:39:36","新北市板橋區觀光街5號","121.471865","25.0158533333333","6500100","板橋區"
"220032","296-UM","2017/10/03 14:39:43","新北市板橋區滿平二街10巷2弄1-4號","121.425558333333","24.9868433333333","6500100","板橋區"
"220023","297-UM","2017/10/03 14:39:30","新北市板橋區大勇街50號","121.452976666667","25.016665","6500100","板橋區"
"242001","281-VK","2017/10/03 14:39:32","新北市新莊區環河路48-7號","121.436921666667","25.0098883333333","6500500","新莊區"
"220010","305-R5","2017/10/03 14:39:49","新北市板橋區三民路二段29巷31弄1號","121.481406666667","25.0177566666667","6500100","板橋區"
"220041","307-R5","2017/10/03 14:39:43","新北市板橋區自由路51巷24弄4號","121.464538333333","25.02357","6500100","板橋區"
"220047","317-R6","2017/10/03 14:39:43","新北市板橋區裕民街109號","121.459698333333","25.0276983333333","6500100","板橋區"
"220028","461-BY","2017/10/03 14:39:43","新北市板橋區大觀路二段37巷33號","121.448425","25.002795","6500100","板橋區"
"220038","487-VK","2017/10/03 14:39:40","新北市板橋區建國街125號","121.460825","25.0176933333333","6500100","板橋區"
"220037","491-VK","2017/10/03 14:39:37","新北市板橋區文化路二段568號","121.476613333333","25.034575","6500100","板橋區"
"220104","560-BX","2017/10/03 14:39:32","新北市板橋區金華街21巷17號","121.456035","25.0207383333333","6500100","板橋區"
"220052","561-BX","2017/10/03 14:39:43","新北市板橋區文化路一段290號","121.467581666667","25.0214183333333","6500100","板橋區"
"220002","568-UM","2017/10/03 14:39:45","新北市板橋區忠孝路239巷32號","121.467251666667","25.0035766666667","6500100","板橋區"
"220011","609-BX","2017/10/03 14:39:42","新北市板橋區萬安街53巷32號","121.48299","25.0237183333333","6500100","板橋區"
"220005","686-BX","2017/10/03 14:39:28","新北市板橋區廣和街62號","121.462098333333","24.993955","6500100","板橋區"
"220025","687-BX","2017/10/03 14:39:31","新北市板橋區僑中三街40號","121.445276666667","25.0050366666667","6500100","板橋區"
"220042","689-BX","2017/10/03 14:39:42","新北市板橋區新海路389號","121.458856666667","25.026345","6500100","板橋區"
"220003","827-TW","2017/10/03 14:39:28","新北市板橋區國慶路149巷2弄1-1號","121.461325","24.9966466666667","6500100","板橋區"
"220014","829-TW","2017/10/03 14:39:44","新北市板橋區漢生東路193巷53號","121.471735","25.011815","6500100","板橋區"
"220051","830-TW","2017/10/03 14:39:26","新北市板橋區雙十路二段46巷37號","121.476158333333","25.0290266666667","6500100","板橋區"
"220045","831-TW","2017/10/03 14:39:44","新北市板橋區民生路二段240巷45號","121.469606666667","25.0230616666667","6500100","板橋區"
"220022","895-R6","2017/10/03 14:39:29","新北市板橋區府中路23號","121.459245","25.008915","6500100","板橋區"
"220021","985-R7","2017/10/03 14:39:38","新北市板橋區中正路276號","121.455235","25.0199633333333","6500100","板橋區"
"220046","AAC-210","2017/10/03 14:39:38","新北市板橋區漢生西路89巷1弄8號","121.462295","25.019555","6500100","板橋區"
"220018","AAC-253","2017/10/03 14:39:35","新北市板橋區民族路61號","121.465118333333","25.0087483333333","6500100","板橋區"
