"lineid","car","time","location","longitude","latitude","cityid","cityname"
"231030","047-UY","2017/10/03 15:58:27","新北市新店區永平街6號","121.517448333333","24.9834583333333","6500600","新店區"
"231018","107-UY","2017/10/03 15:58:18","新北市新店區中正路663巷7弄15號","121.53287","24.9900633333333","6500600","新店區"
"231012","108-UY","2017/10/03 15:58:20","新北市新店區中央路68號","121.532615","24.97739","6500600","新店區"
"231069","189-VK","2017/10/03 11:51:32","新北市新店區安華路28-1號","121.519563333333","24.961085","6500600","新店區"
"231015","215-TC","2017/10/03 15:58:31","新北市新店區中華路147號","121.538333333333","24.9703333333333","6500600","新店區"
"231026","256-BX","2017/10/03 15:58:13","新北市新店區中正路542-2號","121.533693333333","24.9852166666667","6500600","新店區"
"231034","268-BY","2017/10/03 15:58:30","新北市新店區吉祥街9巷1號","121.497505","24.9470883333333","6500600","新店區"
"231046","278-BY","2017/10/03 15:58:16","新北市新店區安華路28-1號","121.519725","24.9610683333333","6500600","新店區"
"231038","4715-K9","2017/10/03 15:58:35","新北市新店區安康路二段228巷13號","121.509488333333","24.9598566666667","6500600","新店區"
"231035","515-UM","2017/10/03 15:58:22","新北市新店區安民街365巷8號","121.51617","24.9757166666667","6500600","新店區"
"231003","641-BX","2017/10/03 15:58:25","新北市新店區寶興路60巷2號","121.549875","24.9719416666667","6500600","新店區"
"231013","719-UM","2017/10/03 15:58:19","新北市新店區華潭街1巷17號","121.529268333333","24.949265","6500600","新店區"
"231037","AKT-0513","2017/10/03 15:58:33","新北市新店區吉安街14號","121.516705","24.9658116666667","6500600","新店區"
"241011","013-R5","2017/10/03 15:58:30","新北市三重區正義北路222號","121.49622","25.0678066666667","6500200","三重區"
"241028","022-UY","2017/10/03 15:58:29","新北市三重區電信街99號","121.49539","25.0582366666667","6500200","三重區"
"241008","059-VK","2017/10/03 15:58:18","新北市三重區成功路110-1號","121.487051666667","25.0518216666667","6500200","三重區"
"241015","062-VK","2017/10/03 15:58:27","新北市三重區重新路四段121號","121.485078333333","25.052045","6500200","三重區"
"241017","063-VK","2017/10/03 15:58:33","新北市三重區大仁街48巷53號","121.490543333333","25.0643466666667","6500200","三重區"
"241024","065-VK","2017/10/03 15:58:25","新北市三重區中正北路172-3號","121.483953333333","25.0664783333333","6500200","三重區"
"241026","066-VK","2017/10/03 15:58:19","新北市三重區正義南路86巷2號","121.498963333333","25.0577766666667","6500200","三重區"
"241003","091-VK","2017/10/03 15:58:16","新北市三重區環河北路三段6號","121.497621666667","25.0839083333333","6500200","三重區"
"241005","262-UM","2017/10/03 15:58:15","新北市三重區環河北路三段288號","121.492421666667","25.0899716666667","6500200","三重區"
"241023","265-UM","2017/10/03 15:58:33","新北市三重區三民街148號","121.482518333333","25.065175","6500200","三重區"
"241016","266-UM","2017/10/03 15:58:30","新北市三重區重新路四段121號","121.485118333333","25.0520416666667","6500200","三重區"
"241022","267-UM","2017/10/03 15:58:20","新北市三重區三民街175巷2號","121.483391666667","25.0655166666667","6500200","三重區"
"241018","268-UM","2017/10/03 15:58:15","新北市三重區中正北路35號","121.491586666667","25.062595","6500200","三重區"
"241013","270-UM","2017/10/03 15:58:26","新北市三重區三和路三段16巷25號","121.496231666667","25.070025","6500200","三重區"
"241025","271-UM","2017/10/03 15:58:19","新北市三重區忠孝路三段52號","121.480701666667","25.0657333333333","6500200","三重區"
"241007","398-BY","2017/10/03 15:58:22","新北市三重區忠孝路三段2號","121.48196","25.0676766666667","6500200","三重區"
"241020","413-TH","2017/10/03 15:58:23","新北市三重區忠孝路二段105號","121.483905","25.0697416666667","6500200","三重區"
"241019","478-VK","2017/10/03 15:58:19","新北市三重區自強路二段17號","121.489868333333","25.0691783333333","6500200","三重區"
"241014","543-UM","2017/10/03 15:58:25","新北市三重區重新路四段121號","121.485321666667","25.0519966666667","6500200","三重區"
"241006","AAD-863","2017/10/03 15:58:32","新北市三重區捷運路36號","121.483068333333","25.0547366666667","6500200","三重區"
"241012","941-UM","2017/10/03 15:58:26","新北市三重區正義北路107巷13號","121.497563333333","25.0657666666667","6500200","三重區"
"241029","942-UM","2017/10/03 15:58:15","新北市三重區大同南路242號","121.49695","25.0558766666667","6500200","三重區"
"241033","AAC-255","2017/10/03 15:58:35","新北市三重區光復路一段1號","121.472098333333","25.046895","6500200","三重區"
"235064","005-UY","2017/10/03 15:58:31","新北市中和區員山路36巷16-3號","121.485156666667","24.9914033333333","6500300","中和區"
"235022","151-BY","2017/10/03 15:56:17","新北市樹林區中山路三段214號","121.379876666667","24.9675483333333","6500300","中和區"
"235026","800-TS","2017/10/03 15:58:18","新北市中和區永和路103巷23號","121.494755","25.0067666666667","6500300","中和區"
"220013","072-UY","2017/10/03 15:58:17","新北市板橋區民生路二段89-9號","121.471748333333","25.017105","6500100","板橋區"
"228003","828-UM","2017/10/03 15:12:09","新北市貢寮區貢寮里朝陽街1-2號","121.912346666667","25.021275","6502600","貢寮區"
"224007","273-VK","2017/10/03 15:58:17","新北市瑞芳區楓子瀨路54號","121.76878","25.1035383333333","6501200","瑞芳區"
"227003","642-TC","2017/10/03 15:58:29","新北市雙溪區平林里外平林62號","121.844578333333","25.0349933333333","6502500","雙溪區"
"227009","030-BX","2017/10/03 15:58:24","新北市雙溪區三港里雙澳路26號","121.869566666667","25.04834","6502500","雙溪區"
"252005","AAC-283","2017/10/03 15:53:46","新北市三芝區埔坪里埔頭坑41號","121.504515","25.26445","6502100","三芝區"
"236065","105-UM","2017/10/03 15:58:16","新北市土城區民權街8號","121.41564","24.9629033333333","6501300","土城區"
"236017","401-BY","2017/10/03 15:58:27","新北市土城區延吉街120號","121.46983","24.9860116666667","6501300","土城區"
"236057","912-UM","2017/10/03 15:58:22","新北市土城區中央路二段280號","121.440696666667","24.9739783333333","6501300","土城區"
"221012","276-VK","2017/10/03 13:23:49","新北市汐止區汐萬路一段256巷3號","121.653463333333","25.0746533333333","6501100","汐止區"
"242001","281-VK","2017/10/03 14:40:30","新北市新莊區環河路48-7號","121.436921666667","25.0098866666667","6500500","新莊區"
