"lineid","car","time","location","longitude","latitude","cityid","cityname"
"249005","172-UM","2017/10/03 17:08:04","新北市八里區華富山3-1號","121.417623333333","25.1461533333333","6502300","八里區"
"249001","173-UM","2017/10/03 17:08:09","新北市八里區中華路二段305-10號","121.40323","25.147755","6502300","八里區"
"249004","303-UY","2017/10/03 17:08:07","新北市八里區忠孝路298號","121.418493333333","25.1613733333333","6502300","八里區"
"249002","305-UY","2017/10/03 17:07:59","新北市八里區龍米路二段147巷7號","121.441356666667","25.1499716666667","6502300","八里區"
"244007","080-UY","2017/10/03 17:07:56","新北市林口區菁埔26-51號","121.376283333333","25.094785","6501700","林口區"
"244019","403-UM","2017/10/03 17:08:03","新北市林口區仁愛路二段125號","121.383368333333","25.074865","6501700","林口區"
"244023","483-VK","2017/10/03 17:08:17","新北市林口區粉寮路37-1號","121.401241666667","25.0850366666667","6501700","林口區"
"244017","485-VK","2017/10/03 17:07:57","新北市林口區粉寮69號","121.405055","25.0908816666667","6501700","林口區"
"244011","837-TS","2017/10/03 17:07:57","新北市林口區粉寮69號","121.404985","25.0909066666667","6501700","林口區"
"244021","838-TS","2017/10/03 17:02:58","新北市林口區粉寮69號","121.40482","25.0908133333333","6501700","林口區"
"231069","189-VK","2017/10/03 11:51:32","新北市新店區安華路28-1號","121.519563333333","24.961085","6500600","新店區"
"231046","278-BY","2017/10/03 17:07:56","新北市新店區直潭路92號","121.530928333333","24.9376416666667","6500600","新店區"
"241011","013-R5","2017/10/03 17:08:10","新北市三重區龍濱路285號","121.501125","25.07337","6500200","三重區"
"241028","022-UY","2017/10/03 17:08:09","新北市三重區重新路三段108號","121.492315","25.0604766666667","6500200","三重區"
"241008","059-VK","2017/10/03 17:07:58","新北市三重區力行路二段136巷17弄2號","121.481603333333","25.075615","6500200","三重區"
"241009","060-VK","2017/10/03 17:07:57","新北市三重區三和路四段215巷6號","121.482038333333","25.0798816666667","6500200","三重區"
"241031","061-VK","2017/10/03 17:08:07","新北市三重區重陽路一段113巷3號","121.487496666667","25.0596983333333","6500200","三重區"
"241015","062-VK","2017/10/03 17:08:07","新北市三重區長生街5號","121.499096666667","25.0663033333333","6500200","三重區"
"241017","063-VK","2017/10/03 17:08:13","新北市三重區中正北路25巷2號","121.493246666667","25.062675","6500200","三重區"
"241024","065-VK","2017/10/03 17:08:05","新北市三重區後竹圍街307號","121.478341666667","25.0695116666667","6500200","三重區"
"241026","066-VK","2017/10/03 17:08:00","新北市三重區重新路二段9號","121.498731666667","25.06266","6500200","三重區"
"241002","090-VK","2017/10/03 17:08:06","新北市三重區仁義街225巷9號","121.497033333333","25.0824066666667","6500200","三重區"
"241003","091-VK","2017/10/03 17:08:16","新北市三重區進安街198號","121.493865","25.0860233333333","6500200","三重區"
"241005","262-UM","2017/10/03 17:08:15","新北市三重區仁愛街705號","121.482571666667","25.0806216666667","6500200","三重區"
"241023","265-UM","2017/10/03 17:08:13","新北市三重區忠孝路三段84巷1號","121.48026","25.0644883333333","6500200","三重區"
"241016","266-UM","2017/10/03 17:08:10","新北市三重區大同北路132巷2號","121.492735","25.0647883333333","6500200","三重區"
"241022","267-UM","2017/10/03 17:08:00","新北市三重區中正北路120號","121.485566666667","25.0651516666667","6500200","三重區"
"241018","268-UM","2017/10/03 17:08:15","新北市三重區六張街58號","121.494163333333","25.07028","6500200","三重區"
"241032","269-UM","2017/10/03 17:07:59","新北市三重區三陽路13巷1號","121.486046666667","25.0594966666667","6500200","三重區"
"241013","270-UM","2017/10/03 17:08:14","新北市三重區仁孝街8號","121.496006666667","25.0739633333333","6500200","三重區"
"241025","271-UM","2017/10/03 17:07:59","新北市三重區中正北路560巷39號","121.470886666667","25.0707066666667","6500200","三重區"
"241007","398-BY","2017/10/03 17:08:01","新北市三重區三和路四段163巷34號","121.485441666667","25.0792616666667","6500200","三重區"
"241020","413-TH","2017/10/03 17:07:59","新北市三重區自強路三段18號","121.486875","25.0722333333333","6500200","三重區"
"241004","475-VK","2017/10/03 17:08:14","新北市三重區五華街98巷21號","121.491703333333","25.0819066666667","6500200","三重區"
"241019","478-VK","2017/10/03 17:07:59","新北市三重區力行路一段125號","121.486228333333","25.06845","6500200","三重區"
"241030","480-VK","2017/10/03 17:07:58","新北市三重區集成路6號","121.488453333333","25.0519016666667","6500200","三重區"
"241014","543-UM","2017/10/03 17:08:05","新北市三重區龍濱路211號","121.5019","25.071715","6500200","三重區"
"241001","547-UM","2017/10/03 17:08:09","新北市三重區仁愛街247號","121.493473333333","25.0780583333333","6500200","三重區"
"241006","AAD-863","2017/10/03 17:08:12","新北市三重區三和路四段274巷18號","121.484686666667","25.0768866666667","6500200","三重區"
"241012","941-UM","2017/10/03 17:08:06","新北市三重區仁壽街170號","121.500305","25.0745683333333","6500200","三重區"
"241029","942-UM","2017/10/03 17:08:15","新北市三重區重安街96號","121.492458333333","25.056345","6500200","三重區"
"241033","AAC-255","2017/10/03 17:07:54","新北市三重區中興北街275號","121.469046666667","25.0608416666667","6500200","三重區"
"235064","005-UY","2017/10/03 16:30:52","新北市中和區員山路36巷16-3號","121.485055","24.9912883333333","6500300","中和區"
"235026","800-TS","2017/10/03 17:07:58","新北市中和區中正路637巷60弄61號","121.485398333333","24.9932316666667","6500300","中和區"
"247022","893-R6","2017/10/03 17:08:11","新北市蘆洲區三民路226號","121.468545","25.089475","6501400","蘆洲區"
"247012","546-UM","2017/10/03 17:08:10","新北市蘆洲區信義路296號","121.477693333333","25.0875083333333","6501400","蘆洲區"
"247020","500-BY","2017/10/03 17:07:59","新北市蘆洲區民族路422巷138號","121.472195","25.0946466666667","6501400","蘆洲區"
"247010","339-TH","2017/10/03 17:08:18","新北市蘆洲區民族路20號","121.475973333333","25.0841916666667","6501400","蘆洲區"
"247002","337-TH","2017/10/03 17:07:55","新北市蘆洲區永樂街57號","121.45663","25.0885033333333","6501400","蘆洲區"
"247004","336-TH","2017/10/03 17:08:00","新北市蘆洲區長安街138號","121.460285","25.08211","6501400","蘆洲區"
"247016","057-VK","2017/10/03 17:08:13","新北市蘆洲區正和街40巷5號","121.469155","25.0821883333333","6501400","蘆洲區"
"247006","056-VK","2017/10/03 17:08:10","新北市蘆洲區長安街102巷43號","121.462241666667","25.081825","6501400","蘆洲區"
"247014","007-UY","2017/10/03 17:08:01","新北市蘆洲區中央路24號","121.473545","25.0828","6501400","蘆洲區"
"247024","002-UY","2017/10/03 17:07:58","新北市蘆洲區長興路150-1號","121.461886666667","25.0852883333333","6501400","蘆洲區"
"247018","001-UY","2017/10/03 17:08:08","新北市蘆洲區復興路198-1號","121.478336666667","25.0889483333333","6501400","蘆洲區"
"228002","663-BX","2017/10/03 17:08:14","新北市貢寮區龍崗里嵩陽街55號","121.907503333333","25.0166183333333","6502600","貢寮區"
"228001","670-TC","2017/10/03 17:07:58","新北市貢寮區仁理村研海街42號","121.92653","25.0405683333333","6502600","貢寮區"
"228003","828-UM","2017/10/03 17:08:03","新北市貢寮區福隆里東興街10-6號","121.951325","25.01984","6502600","貢寮區"
"224006","676-BX","2017/10/03 17:08:10","新北市瑞芳區大寮路106號","121.7815","25.0979166666667","6501200","瑞芳區"
"224009","285-BY","2017/10/03 17:08:09","新北市瑞芳區輕便路136號","121.843191666667","25.1138683333333","6501200","瑞芳區"
"224008","275-VK","2017/10/03 17:08:07","新北市瑞芳區侯硐路93號","121.830671666667","25.0893633333333","6501200","瑞芳區"
"224007","273-VK","2017/10/03 17:08:05","新北市瑞芳區粗坑口路100-6號","121.759931666667","25.0993283333333","6501200","瑞芳區"
"224005","271-BY","2017/10/03 17:08:01","新北市瑞芳區鼻頭路237號","121.913455","25.1239566666667","6501200","瑞芳區"
"227003","642-TC","2017/10/03 17:08:09","新北市雙溪區外柑里田寮7-1號","121.805885","25.0145316666667","6502500","雙溪區"
"227009","030-BX","2017/10/03 17:08:03","新北市雙溪區牡丹里下坑23號","121.85209","25.0560766666667","6502500","雙溪區"
"251004","009-UM","2017/10/03 17:08:03","新北市淡水區中山路18-1號","121.444451666667","25.1693783333333","6501000","淡水區"
"251014","180-VK","2017/10/03 17:08:12","新北市淡水區八里堆9-8號","121.46441","25.2234783333333","6501000","淡水區"
"251008","181-VK","2017/10/03 17:08:11","新北市淡水區樹梅坑7-6號","121.472315","25.144025","6501000","淡水區"
"251010","413-VK","2017/10/03 17:08:04","新北市淡水區新市五路二段75號","121.431296666667","25.1983566666667","6501000","淡水區"
"251012","441-VK","2017/10/03 17:08:16","新北市淡水區新民街一段8巷6號","121.434768333333","25.183875","6501000","淡水區"
"251016","442-VK","2017/10/03 17:08:13","新北市淡水區口湖子2-8號","121.477538333333","25.188645","6501000","淡水區"
"251005","443-VK","2017/10/03 17:08:16","新北市淡水區鄧公路19-1號","121.45028","25.1699716666667","6501000","淡水區"
"251006","561-UM","2017/10/03 17:08:04","新北市淡水區中正路二段31號","121.419501666667","25.1816783333333","6501000","淡水區"
"251009","575-R6","2017/10/03 17:08:18","新北市淡水區三民街22號","121.439031666667","25.1718166666667","6501000","淡水區"
"251007","577-R6","2017/10/03 17:08:04","新北市淡水區中正東路二段93-1號","121.459355","25.1523366666667","6501000","淡水區"
"251011","650-BX","2017/10/03 17:08:16","新北市淡水區坪頂路50號","121.457933333333","25.1624666666667","6501000","淡水區"
"251003","766-UM","2017/10/03 17:08:00","新北市淡水區中正路二段31號","121.419491666667","25.1814816666667","6501000","淡水區"
"252002","178-VK","2017/10/03 17:08:06","新北市三芝區智成街120號","121.506003333333","25.2552466666667","6502100","三芝區"
"252001","292-VK","2017/10/03 17:08:00","新北市三芝區埔頭里埔頭39-3號","121.49931","25.2608866666667","6502100","三芝區"
"252005","AAC-283","2017/10/03 15:53:46","新北市三芝區埔坪里埔頭坑41號","121.504515","25.26445","6502100","三芝區"
"242032","AAC-296","2017/10/03 14:27:43","新北市新莊區新泰路357巷3弄57號","121.442105","25.03953","6500500","新莊區"
"242051","751-BX","2017/10/03 17:07:56","新北市新莊區新泰路357巷3弄57號","121.441938333333","25.0390433333333","6500500","新莊區"
"242025","615-BX","2017/10/03 17:08:16","新北市新莊區新泰路255巷83號","121.442413333333","25.039005","6500500","新莊區"
"242023","613-BX","2017/10/03 17:08:04","新北市新莊區新泰路357巷3弄57號","121.442203333333","25.0392333333333","6500500","新莊區"
"242027","612-BX","2017/10/03 17:08:05","新北市新莊區新泰路357巷3弄57號","121.442303333333","25.03944","6500500","新莊區"
"242039","566-BX","2017/10/03 17:08:00","新北市新莊區新泰路255巷83號","121.442078333333","25.0390433333333","6500500","新莊區"
"242044","497-BY","2017/10/03 17:08:11","新北市新莊區中正路471號","121.441958333333","25.0339933333333","6500500","新莊區"
"242005","442-UM","2017/10/03 03:32:17","新北市新莊區三和路12-21號","121.441856666667","25.03872","6500500","新莊區"
"242048","441-UM","2017/10/03 17:08:05","新北市新莊區中正路384號","121.442076666667","25.034915","6500500","新莊區"
"242054","440-UM","2017/10/03 17:08:03","新北市新莊區三和路12-16號","121.442363333333","25.0373066666667","6500500","新莊區"
"242034","415-TV","2017/10/03 17:08:02","新北市新莊區新泰路357巷3弄57號","121.442","25.0393266666667","6500500","新莊區"
"242042","400-BY","2017/10/03 17:08:17","新北市新莊區新泰路255巷83號","121.442238333333","25.038715","6500500","新莊區"
"242007","132-UY","2017/10/03 17:08:00","新北市新莊區三和路12-21號","121.441935","25.0389116666667","6500500","新莊區"
"242037","133-UY","2017/10/03 17:08:02","新北市新莊區三和路18-23號","121.441653333333","25.0388633333333","6500500","新莊區"
"242021","135-UY","2017/10/03 15:20:23","新北市新莊區三和路12-21號","121.441881666667","25.03889","6500500","新莊區"
"242046","172-VK","2017/10/03 15:05:52","新北市新莊區新泰路255巷83號","121.442146666667","25.0389566666667","6500500","新莊區"
"242009","173-VK","2017/10/03 14:25:10","新北市新莊區三和路12-21號","121.442088333333","25.0387166666667","6500500","新莊區"
"242015","175-VK","2017/10/03 17:08:10","新北市新莊區三和路12-21號","121.44209","25.0387866666667","6500500","新莊區"
"242002","176-VK","2017/10/03 17:07:58","新北市新莊區新泰路255巷83號","121.442126666667","25.0389016666667","6500500","新莊區"
"242013","346-TH","2017/10/03 13:55:44","新北市新莊區三和路12-16號","121.442146666667","25.0374433333333","6500500","新莊區"
"242019","348-TH","2017/10/03 15:13:50","新北市新莊區新泰路357巷3弄55號","121.442076666667","25.0397766666667","6500500","新莊區"
"242056","349-TH","2017/10/03 17:07:57","新北市新莊區三和路12-15號","121.441866666667","25.03733","6500500","新莊區"
"242017","350-TH","2017/10/03 15:29:38","新北市新莊區三和路18-23號","121.441848333333","25.03891","6500500","新莊區"
"238015","755-BX","2017/10/03 17:08:00","新北市樹林區育德街78-1號","121.38792","24.968145","6500700","樹林區"
"238023","601-UM","2017/10/03 17:07:54","新北市樹林區八德街836號","121.392353333333","24.9685933333333","6500700","樹林區"
"238019","599-UM","2017/10/03 17:07:56","新北市樹林區八德街1160號","121.390575","24.96838","6500700","樹林區"
"238018","571-TV","2017/10/03 17:08:10","新北市樹林區八德街666號","121.395385","24.968785","6500700","樹林區"
"238024","5061-A6","2017/10/03 17:08:05","新北市樹林區鎮前街160號","121.424441666667","24.9900733333333","6500700","樹林區"
"238021","KEA-2217","2017/10/03 17:07:42","新北市樹林區八德街1010號","121.391406666667","24.9685533333333","6500700","樹林區"
"238022","KEA-2213","2017/10/03 17:08:04","新北市樹林區八德街224號","121.415511666667","24.9717633333333","6500700","樹林區"
"238025","303-VK","2017/10/03 17:08:13","新北市樹林區八德街1012號","121.391395","24.9684783333333","6500700","樹林區"
"238017","283-BY","2017/10/03 17:08:04","新北市樹林區育德街78-1號","121.3879","24.9681516666667","6500700","樹林區"
"238014","282-BY","2017/10/03 17:08:09","新北市樹林區育德街78-1號","121.38783","24.9681","6500700","樹林區"
"238020","268-VK","2017/10/03 17:08:07","新北市樹林區育德街76巷1號","121.388688333333","24.96814","6500700","樹林區"
"238016","169-UY","2017/10/03 17:08:06","新北市樹林區八德街1150號","121.39072","24.968435","6500700","樹林區"
"239007","AAC-297","2017/10/03 17:08:15","新北市鶯歌區行政路48號","121.353241666667","24.9559533333333","6500800","鶯歌區"
"239006","891-R6","2017/10/03 17:08:12","新北市鶯歌區八德路2巷20弄2號","121.33635","24.946605","6500800","鶯歌區"
"239008","527-UM","2017/10/03 17:07:58","新北市鶯歌區中正一路70號","121.352428333333","24.9541933333333","6500800","鶯歌區"
"239005","526-UM","2017/10/03 17:08:04","新北市鶯歌區德昌二街95號","121.333231666667","24.957385","6500800","鶯歌區"
"239001","417-VK","2017/10/03 17:08:03","新北市鶯歌區尖山路140巷6弄1號","121.346526666667","24.94904","6500800","鶯歌區"
"239003","360-BY","2017/10/03 17:08:06","新北市鶯歌區八德路16號","121.330645","24.9555083333333","6500800","鶯歌區"
"239002","359-BY","2017/10/03 17:08:06","新北市鶯歌區建國路280號","121.346246666667","24.9532683333333","6500800","鶯歌區"
"239004","193-VK","2017/10/03 17:08:05","新北市鶯歌區文化路324巷11弄3號","121.350591666667","24.9451633333333","6500800","鶯歌區"
"221012","276-VK","2017/10/03 13:23:49","新北市汐止區汐萬路一段256巷3號","121.653463333333","25.0746533333333","6501100","汐止區"
