"lineid","car","time","location","longitude","latitude","cityid","cityname"
"234046","148-BY","2017/10/03 18:49:47","新北市永和區永元路40巷44弄1號","121.523561666667","25.0005866666667","6500400","永和區"
"234013","149-BY","2017/10/03 18:49:41","新北市永和區仁愛路202巷24號","121.508891666667","25.0128833333333","6500400","永和區"
"234007","207-UY","2017/10/03 18:49:44","新北市永和區永和路二段243號","121.515793333333","25.014885","6500400","永和區"
"234081","298-R6","2017/10/03 18:49:41","新北市永和區永利路87-1號","121.521513333333","25.0032683333333","6500400","永和區"
"234038","336-UY","2017/10/03 18:49:44","新北市永和區成功路一段139號","121.5268","25.0015133333333","6500400","永和區"
"234064","337-UY","2017/10/03 18:49:45","新北市永和區環河東路二段92號","121.524485","25.010565","6500400","永和區"
"234086","338-UY","2017/10/03 18:49:55","新北市中和區安樂路101號","121.513345","24.9949533333333","6500400","永和區"
"234070","552-UM","2017/10/03 18:49:55","新北市永和區中興街100號","121.519066666667","25.0120633333333","6500400","永和區"
"234054","553-UM","2017/10/03 18:49:57","新北市永和區竹林路64號","121.518178333333","25.0135233333333","6500400","永和區"
"234017","745-BX","2017/10/03 18:50:01","新北市永和區永和路二段299號","121.515988333333","25.0160916666667","6500400","永和區"
"234030","746-BX","2017/10/03 18:49:55","新北市永和區得和路351號","121.52411","24.9994783333333","6500400","永和區"
"234061","AAD-866","2017/10/03 18:49:44","新北市永和區福和路311-1號","121.51619","25.007035","6500400","永和區"
"234042","862-TW","2017/10/03 18:49:46","新北市永和區永貞路267號","121.511913333333","25.0047233333333","6500400","永和區"
"234050","863-TW","2017/10/03 18:50:01","新北市永和區保安路2號","121.510816666667","25.01749","6500400","永和區"
"234026","9371-KE","2017/10/03 18:49:59","新北市永和區自由街56號","121.513718333333","25.0059583333333","6500400","永和區"
"234011","9373-KE","2017/10/03 18:49:57","新北市永和區仁愛路31巷2弄1號","121.51416","25.0129416666667","6500400","永和區"
"249005","172-UM","2017/10/03 18:49:53","新北市八里區長道坑17號","121.396","25.1154433333333","6502300","八里區"
"249001","173-UM","2017/10/03 18:49:49","新北市八里區龍米路二段16號","121.448953333333","25.1390883333333","6502300","八里區"
"249004","303-UY","2017/10/03 18:49:46","新北市八里區忠孝路423號","121.41459","25.1614316666667","6502300","八里區"
"248016","026-BX","2017/10/03 18:49:47","新北市五股區凌雲路一段135號","121.449443333333","25.1019716666667","6501500","五股區"
"248006","077-UY","2017/10/03 18:50:01","新北市五股區中興路一段171巷63號","121.465431666667","25.0706633333333","6501500","五股區"
"248008","095-VK","2017/10/03 18:49:48","新北市五股區中興路一段151巷41號","121.465175","25.0720366666667","6501500","五股區"
"248020","225-UY","2017/10/03 18:49:59","新北市五股區凌雲路三段88號","121.428698333333","25.11863","6501500","五股區"
"248012","247-BX","2017/10/03 18:49:50","新北市五股區成泰路二段147巷34-2號","121.43692","25.0885633333333","6501500","五股區"
"248014","261-SL","2017/10/03 18:49:54","新北市五股區中興路四段70號","121.436991666667","25.083415","6501500","五股區"
"248010","272-BY","2017/10/03 18:49:54","新北市五股區水碓三路42號","121.431373333333","25.0725566666667","6501500","五股區"
"248004","677-BX","2017/10/03 18:49:41","新北市五股區民義路二段32號","121.418326666667","25.09801","6501500","五股區"
"248002","678-BX","2017/10/03 18:48:54","新北市五股區西雲路247號","121.44923","25.0980116666667","6501500","五股區"
"234023","9380-KE","2017/10/03 18:49:56","新北市永和區竹林路119巷45號","121.521918333333","25.0118","6500400","永和區"
"234077","969-R7","2017/10/03 18:49:44","新北市永和區中正路2巷29弄3號","121.513783333333","24.99373","6500400","永和區"
"234074","AAC-211","2017/10/03 18:49:50","新北市永和區福和路1號","121.52649","25.009865","6500400","永和區"
"234067","AAC-212","2017/10/03 18:49:44","新北市永和區永和路一段36號","121.513118333333","25.0051666666667","6500400","永和區"
"234003","AAC-295","2017/10/03 18:49:45","新北市永和區中正路736號","121.515325","25.0101266666667","6500400","永和區"
"232011","375-UM","2017/10/03 18:49:41","新北市坪林區坪林街53號","121.711438333333","24.9374116666667","6502000","坪林區"
"244013","069-UM","2017/10/03 18:49:44","新北市林口區文化一路二段90號","121.381451666667","25.0786316666667","6501700","林口區"
"244007","080-UY","2017/10/03 18:49:56","新北市林口區太平里8-1號","121.380463333333","25.11402","6501700","林口區"
"244019","403-UM","2017/10/03 18:49:43","新北市林口區忠孝路603號","121.378355","25.0684433333333","6501700","林口區"
"244009","410-SL","2017/10/03 18:50:00","新北市林口區竹林路320巷6-1號","121.390938333333","25.0820883333333","6501700","林口區"
"244023","483-VK","2017/10/03 18:49:57","新北市林口區民權路110號","121.373608333333","25.083035","6501700","林口區"
"244017","485-VK","2017/10/03 18:49:57","新北市林口區文化二路一段68巷2號","121.36613","25.0687366666667","6501700","林口區"
"244011","656-BX","2017/10/03 18:49:47","新北市林口區興林路9號","121.389765","25.077245","6501700","林口區"
"244025","837-TS","2017/10/03 18:49:57","新北市林口區南勢街163號","121.359405","25.0749266666667","6501700","林口區"
"243013","AAD-798","2017/10/03 18:49:47","新北市泰山區明志路三段206巷3號","121.423273333333","25.0379033333333","6501600","泰山區"
"243015","380-SR","2017/10/03 18:49:56","新北市泰山區美寧街58號","121.430435","25.0647466666667","6501600","泰山區"
"243014","421-VK","2017/10/03 18:49:40","新北市泰山區犁頭窠3-1號","121.422148333333","25.0605983333333","6501600","泰山區"
"243011","KEA-2216","2017/10/03 18:49:46","新北市泰山區黎明路31號","121.421641666667","25.0609883333333","6501600","泰山區"
"243012","646-TV","2017/10/03 18:49:53","新北市泰山區泰林路二段73巷33號","121.434341666667","25.05778","6501600","泰山區"
"243016","680-BX","2017/10/03 18:49:49","新北市泰山區明志路二段135號","121.427753333333","25.0508083333333","6501600","泰山區"
"222003","436-BY","2017/10/03 18:49:57","新北市深坑區翠谷街17巷26號","121.62605","25.0096816666667","6501800","深坑區"
"222001","628-TS","2017/10/03 18:49:55","新北市深坑區松柏街30巷1號","121.638671666667","25.011315","6501800","深坑區"
"222002","659-BX","2017/10/03 18:49:41","新北市深坑區文山路一段69號","121.626996666667","25.00192","6501800","深坑區"
"231041","002-UM","2017/10/03 18:49:49","新北市新店區安華路28-1號","121.519663333333","24.96115","6500600","新店區"
"231059","046-UY","2017/10/03 18:49:55","新北市新店區安華路28-1號","121.519475","24.9607433333333","6500600","新店區"
"231061","047-UY","2017/10/03 18:49:44","新北市新店區安華路28-1號","121.519733333333","24.9614816666667","6500600","新店區"
"231060","106-UY","2017/10/03 18:49:59","新北市新店區安華路28-1號","121.519588333333","24.9607916666667","6500600","新店區"
"231051","107-UY","2017/10/03 18:49:51","新北市新店區中央路81號","121.532291666667","24.9765933333333","6500600","新店區"
"231048","108-UY","2017/10/03 18:49:46","新北市新店區德正街19巷1號","121.54376","24.972515","6500600","新店區"
"231053","187-VK","2017/10/03 18:49:50","新北市新店區新烏路一段105巷33號","121.546866666667","24.939785","6500600","新店區"
"231069","189-VK","2017/10/03 11:51:32","新北市新店區安華路28-1號","121.519563333333","24.961085","6500600","新店區"
"231050","215-TC","2017/10/03 18:49:40","新北市新店區安康路一段200號","121.524331666667","24.9634266666667","6500600","新店區"
"231063","268-BY","2017/10/03 18:49:46","新北市新店區安華路28-1號","121.51942","24.9605483333333","6500600","新店區"
"231046","278-BY","2017/10/03 18:49:56","新北市新店區直潭路57號","121.533078333333","24.9423716666667","6500600","新店區"
"231054","AAD-862","2017/10/03 18:49:51","新北市新店區安康路一段223號","121.525741666667","24.963075","6500600","新店區"
"231058","3712-VJ","2017/10/03 18:49:56","新北市新店區北宜路一段105巷4弄7號","121.540268333333","24.9554833333333","6500600","新店區"
"231055","3713-VJ","2017/10/03 18:49:56","新北市新店區新生街35號","121.539411666667","24.9668733333333","6500600","新店區"
"231056","4716-K9","2017/10/03 18:49:46","新北市新店區大豐路68巷9號","121.538768333333","24.98006","6500600","新店區"
"231067","4772-VM","2017/10/03 18:49:57","新北市新店區安康路一段110巷2號","121.527255","24.9625433333333","6500600","新店區"
"231065","512-UM","2017/10/03 18:50:03","新北市新店區安豐路49號","121.500091666667","24.95408","6500600","新店區"
"231064","515-UM","2017/10/03 18:49:42","新北市新店區安華路28-1號","121.519583333333","24.961245","6500600","新店區"
"231045","617-UM","2017/10/03 18:49:58","新北市新店區安康路一段204號","121.524221666667","24.9634433333333","6500600","新店區"
"231040","619-UM","2017/10/03 18:49:47","新北市新店區中央路181-3號","121.535996666667","24.9689233333333","6500600","新店區"
"231042","641-BX","2017/10/03 18:49:51","新北市新店區中正路69號","121.543565","24.9701683333333","6500600","新店區"
"231049","719-UM","2017/10/03 18:49:54","新北市新店區中正路454-5號","121.534451666667","24.9790516666667","6500600","新店區"
"231062","720-UM","2017/10/03 18:49:52","新北市新店區安忠路205巷8號","121.510075","24.9553833333333","6500600","新店區"
"231044","897-TW","2017/10/03 18:49:53","新北市新店區中興路三段88號","121.545455","24.9786716666667","6500600","新店區"
"231043","899-TW","2017/10/03 18:49:54","新北市新店區安康路一段85號","121.529423333333","24.9613733333333","6500600","新店區"
"231066","AKT-0513","2017/10/03 18:49:59","新北市新店區安豐路22巷15號","121.502893333333","24.9549816666667","6500600","新店區"
"235066","003-UY","2017/10/03 18:50:03","新北市中和區水源路18巷3號","121.504026666667","25.0031933333333","6500300","中和區"
"235064","005-UY","2017/10/03 18:50:01","新北市中和區連城路126號","121.496095","24.9993433333333","6500300","中和區"
"235063","006-UY","2017/10/03 18:49:49","新北市中和區錦和路196巷5號","121.489723333333","24.9948716666667","6500300","中和區"
"235057","031-BX","2017/10/03 18:50:02","新北市中和區民安街4號","121.480915","25.0010333333333","6500300","中和區"
"235056","096-UM","2017/10/03 18:49:44","新北市中和區員山路611巷1號","121.477848333333","25.0113016666667","6500300","中和區"
"235039","097-UM","2017/10/03 18:49:49","新北市中和區安樂路143巷23號","121.51358","24.9970166666667","6500300","中和區"
"235065","098-UM","2017/10/03 18:49:50","新北市中和區莊敬路33巷21號","121.500511666667","25.0071383333333","6500300","中和區"
"235040","150-BY","2017/10/03 18:49:48","新北市中和區中正路271-1號","121.495735","24.9935816666667","6500300","中和區"
"235058","151-BY","2017/10/03 18:49:54","新北市中和區連城路607號","121.478203333333","24.9935016666667","6500300","中和區"
"235055","183-VK","2017/10/03 18:49:45","新北市中和區民生街55號","121.469568333333","25.0050633333333","6500300","中和區"
"235038","185-VK","2017/10/03 18:49:43","新北市中和區立人街63號","121.520093333333","24.9943466666667","6500300","中和區"
"235049","186-VK","2017/10/03 18:49:53","新北市中和區明義街11巷12弄2號","121.503728333333","24.9946383333333","6500300","中和區"
"235067","255-BX","2017/10/03 18:49:41","新北市中和區中山路二段552號","121.483803333333","25.0050633333333","6500300","中和區"
"235044","293-VK","2017/10/03 18:49:50","新北市中和區中興街119號","121.499963333333","24.992","6500300","中和區"
"235072","301-VK","2017/10/03 18:49:58","新北市中和區連城路87號","121.496806666667","25.0003016666667","6500300","中和區"
"235043","352-BY","2017/10/03 18:50:01","新北市中和區成功路86號","121.525901666667","24.9914516666667","6500300","中和區"
"235068","375-QA","2017/10/03 18:49:55","新北市中和區中正路211巷13弄7號","121.497113333333","24.9932616666667","6500300","中和區"
"235051","376-QA","2017/10/03 18:49:40","新北市中和區華新街143巷106弄33號","121.506838333333","24.978345","6500300","中和區"
"235061","378-QA","2017/10/03 18:49:54","新北市中和區民享街30巷2號","121.473756666667","25.003575","6500300","中和區"
"235050","4979-A6","2017/10/03 18:49:44","新北市中和區忠孝街62巷7弄1號","121.512883333333","24.983555","6500300","中和區"
"235069","4980-A6","2017/10/03 18:49:49","新北市中和區景平路618巷7號","121.500893333333","24.9972266666667","6500300","中和區"
"235042","551-UM","2017/10/03 18:49:56","新北市中和區秀朗路三段100巷1號","121.52563","24.9931766666667","6500300","中和區"
"235070","558-UM","2017/10/03 18:49:53","新北市中和區南華路17-2號","121.5026","24.995685","6500300","中和區"
"235045","565-BX","2017/10/03 18:49:48","新北市中和區復興路42號","121.50468","24.990075","6500300","中和區"
"235054","640-BX","2017/10/03 18:49:59","新北市中和區莒光路129巷1弄8-4號","121.473006666667","25.0022916666667","6500300","中和區"
"235060","647-TV","2017/10/03 18:49:48","新北市中和區中山路三段118號","121.475728333333","25.0059466666667","6500300","中和區"
"235047","732-UM","2017/10/03 18:49:56","新北市中和區興南路二段34巷32號","121.50482","24.98622","6500300","中和區"
"235046","733-UM","2017/10/03 18:49:57","新北市中和區仁愛街36巷44號","121.511358333333","24.986285","6500300","中和區"
"235062","800-TS","2017/10/03 18:49:58","新北市中和區中山路二段312巷33弄19號","121.49472","25.003915","6500300","中和區"
"235041","802-TS","2017/10/03 18:49:55","新北市中和區宜安路118巷42號","121.511241666667","24.9990683333333","6500300","中和區"
"235052","805-TS","2017/10/03 18:49:44","新北市中和區興南路二段399巷98弄60號","121.497903333333","24.9763933333333","6500300","中和區"
"235048","896-TW","2017/10/03 18:49:47","新北市中和區南山路300號","121.507913333333","24.9870883333333","6500300","中和區"
"235053","900-TW","2017/10/03 18:49:43","新北市中和區華福街10號","121.465616666667","24.9967116666667","6500300","中和區"
"235037","AAC-213","2017/10/03 18:50:02","新北市中和區秀朗路三段128巷1弄1號","121.524658333333","24.9920966666667","6500300","中和區"
"235059","AAC-215","2017/10/03 18:49:43","新北市中和區圓通路391-7號","121.489651666667","24.9891116666667","6500300","中和區"
"220065","072-UY","2017/10/03 18:49:48","新北市板橋區四川路一段104號","121.459455","25.00466","6500100","板橋區"
"220086","073-UY","2017/10/03 18:49:56","新北市板橋區南雅西路二段180巷2號","121.451781666667","25.01394","6500100","板橋區"
"220106","075-UY","2017/10/03 18:49:53","新北市板橋區民生路二段120號","121.470441666667","25.0198216666667","6500100","板橋區"
"220069","AAD-861","2017/10/03 18:49:52","新北市板橋區南雅南路二段4巷14號","121.453716666667","25.0036966666667","6500100","板橋區"
"220068","120-SR","2017/10/03 18:49:43","新北市板橋區縣民大道三段270巷1號","121.478248333333","25.02349","6500100","板橋區"
"247008","053-VK","2017/10/03 18:49:59","新北市五股區工商路8號","121.440653333333","25.0825433333333","6501400","蘆洲區"
"226004","205-ST","2017/10/03 18:49:52","新北市平溪區靜安路二段391號","121.738468333333","25.0246383333333","6502400","平溪區"
"228002","663-BX","2017/10/03 18:49:53","新北市貢寮區福隆里東興街6-11號","121.95079","25.0211133333333","6502600","貢寮區"
"228001","670-TC","2017/10/03 18:49:58","新北市貢寮區仁理村保健街71號","121.923648333333","25.0516683333333","6502600","貢寮區"
"228003","828-UM","2017/10/03 18:49:43","新北市瑞芳區鼻頭路99-1號","121.917478333333","25.12064","6502600","貢寮區"
"224010","AGQ-8101","2017/10/03 18:49:32","新北市瑞芳區烏勢巷118號","121.84634","25.108145","6501200","瑞芳區"
"224006","676-BX","2017/10/03 18:49:50","新北市瑞芳區中正路65號","121.806061666667","25.1074583333333","6501200","瑞芳區"
"224009","285-BY","2017/10/03 18:49:49","新北市瑞芳區祈堂路2號","121.859908333333","25.1117883333333","6501200","瑞芳區"
"224008","275-VK","2017/10/03 18:49:47","新北市瑞芳區瑞芳街150號","121.801168333333","25.11161","6501200","瑞芳區"
"224007","273-VK","2017/10/03 18:49:53","新北市瑞芳區大埔路東泰新村2號","121.761433333333","25.1012216666667","6501200","瑞芳區"
"224005","271-BY","2017/10/03 18:50:01","新北市瑞芳區瑞濱路5號","121.827423333333","25.1216516666667","6501200","瑞芳區"
"227003","642-TC","2017/10/03 18:49:49","新北市雙溪區平林里梅竹蹊30號","121.861605","25.0360216666667","6502500","雙溪區"
"227009","030-BX","2017/10/03 18:49:53","新北市雙溪區牡丹里聖南15號","121.859886666667","25.051245","6502500","雙溪區"
"253005","032-BX","2017/10/03 18:49:55","新北市石門區中山路28-3號","121.565721666667","25.289785","6502200","石門區"
"253006","295-VK","2017/10/03 18:49:45","新北市石門區下員坑15號","121.51164","25.2849966666667","6502200","石門區"
"208003","665-BX","2017/10/03 18:49:54","新北市金山區中山路342號","121.63346","25.2252866666667","6502700","金山區"
"208001","761-BX","2017/10/03 18:49:44","新北市金山區文化三路66巷2弄3號","121.634316666667","25.2257316666667","6502700","金山區"
"251004","009-UM","2017/10/03 18:50:03","新北市淡水區中正東路二段143巷2弄1號","121.460726666667","25.1472916666667","6501000","淡水區"
"251001","011-UM","2017/10/03 18:49:42","新北市淡水區自強路106號","121.462018333333","25.12967","6501000","淡水區"
"251002","012-UM","2017/10/03 18:49:53","新北市淡水區學府路96號","121.449296666667","25.1710833333333","6501000","淡水區"
"251014","180-VK","2017/10/03 18:49:52","新北市淡水區崙頂3號","121.49042","25.2239866666667","6501000","淡水區"
"251008","181-VK","2017/10/03 18:49:50","新北市淡水區淡金路二段15號","121.447","25.18917","6501000","淡水區"
"251010","413-VK","2017/10/03 18:49:44","新北市淡水區沙崙路11號","121.421126666667","25.1812583333333","6501000","淡水區"
"251012","441-VK","2017/10/03 18:49:56","新北市淡水區新興街7號","121.44375","25.1803733333333","6501000","淡水區"
"251016","442-VK","2017/10/03 18:49:53","新北市淡水區下圭柔山71-3號","121.447051666667","25.2061533333333","6501000","淡水區"
"251009","575-R6","2017/10/03 18:49:58","新北市淡水區重建街125-4號","121.44032","25.1732783333333","6501000","淡水區"
"251011","650-BX","2017/10/03 18:49:55","新北市淡水區學府路9號","121.44749","25.1681533333333","6501000","淡水區"
"251003","766-UM","2017/10/03 18:50:00","新北市淡水區中山北路一段149巷1號","121.442726666667","25.177535","6501000","淡水區"
"207003","550-UM","2017/10/03 18:49:45","新北市萬里區大鵬里頂社1號","121.656983333333","25.2097216666667","6502800","萬里區"
"207004","225-TW","2017/10/03 18:49:54","新北市萬里區萬里里獅頭路23號","121.693193333333","25.17823","6502800","萬里區"
"252002","178-VK","2017/10/03 18:49:46","新北市三芝區中正路一段112號","121.504801666667","25.2564233333333","6502100","三芝區"
"252003","249-BX","2017/10/03 18:49:55","新北市三芝區後厝里大片頭81-1號","121.459123333333","25.24461","6502100","三芝區"
"252001","292-VK","2017/10/03 18:50:00","新北市三芝區中正路三段9號","121.503013333333","25.2540416666667","6502100","三芝區"
"252005","AAC-283","2017/10/03 15:53:46","新北市三芝區埔坪里埔頭坑41號","121.504515","25.26445","6502100","三芝區"
"208002","170-UY","2017/10/03 18:49:49","新北市金山區信義路62號","121.635646666667","25.21903","6502700","金山區"
"237004","078-UY","2017/10/03 18:49:57","新北市三峽區有木155-2號","121.450498333333","24.8457816666667","6500900","三峽區"
"237007","153-BY","2017/10/03 18:49:53","新北市三峽區柑樹路6巷8號","121.361526666667","24.9039783333333","6500900","三峽區"
"237013","252-BX","2017/10/03 18:49:48","新北市三峽區光明路69巷24號","121.376613333333","24.9290233333333","6500900","三峽區"
"237012","275-BY","2017/10/03 18:49:59","新北市三峽區三樹路340號","121.383921666667","24.9433633333333","6500900","三峽區"
"237008","302-VK","2017/10/03 18:50:00","新北市三峽區白雞33-55號","121.37077","24.913165","6500900","三峽區"
"237014","433-BY","2017/10/03 18:49:43","新北市三峽區隆恩街250號","121.357401666667","24.9409466666667","6500900","三峽區"
"237006","5529-G3","2017/10/03 18:49:41","新北市三峽區溪東路233巷2弄3號","121.40701","24.93362","6500900","三峽區"
"237011","572-TV","2017/10/03 18:11:16","新北市三峽區橫溪路1號","121.396053333333","24.9361866666667","6500900","三峽區"
"237016","649-BX","2017/10/03 18:49:56","新北市三峽區竹崙路53號","121.43083","24.92208","6500900","三峽區"
"237010","706-TV","2017/10/03 18:49:48","新北市三峽區國光街364巷16號","121.371346666667","24.94033","6500900","三峽區"
"237005","AKY-6261","2017/10/03 18:49:59","新北市三峽區中山路184巷10號","121.364186666667","24.93665","6500900","三峽區"
"236070","105-UM","2017/10/03 18:49:55","新北市土城區延和路21巷19號","121.463931666667","24.9888666666667","6501300","土城區"
"236043","107-UM","2017/10/03 18:49:54","新北市土城區裕民路92巷25弄3號","121.449711666667","24.9859266666667","6501300","土城區"
"236031","253-BX","2017/10/03 18:49:59","新北市土城區中央路三段59號","121.439006666667","24.96948","6501300","土城區"
"236027","269-VK","2017/10/03 18:49:53","新北市土城區中央路二段237號","121.440271666667","24.9721283333333","6501300","土城區"
"236015","270-VK","2017/10/03 18:49:55","新北市土城區清水路235巷5弄2號","121.460773333333","24.9838866666667","6501300","土城區"
"236038","271-VK","2017/10/03 18:49:49","新北市土城區明德路一段291巷14號","121.46029","24.9766","6501300","土城區"
"236023","401-BY","2017/10/03 18:49:43","新北市土城區延安街76號","121.468096666667","24.9841016666667","6501300","土城區"
"236079","752-BX","2017/10/03 18:49:54","新北市土城區中央路四段185巷28號","121.415538333333","24.9557933333333","6501300","土城區"
"236059","912-UM","2017/10/03 18:49:45","新北市土城區中央路三段153號","121.432125","24.9654","6501300","土城區"
"236049","913-UM","2017/10/03 18:49:41","新北市土城區青雲路102號","121.459256666667","24.9863766666667","6501300","土城區"
"236063","915-UM","2017/10/03 18:50:02","新北市土城區延和路177巷8號","121.469793333333","24.990455","6501300","土城區"
"236055","AAC-216","2017/10/03 18:49:58","新北市土城區裕民路191號","121.453605","24.9843083333333","6501300","土城區"
"242044","497-BY","2017/10/03 18:49:45","新北市新莊區新泰路357巷3弄57號","121.44236","25.0394616666667","6500500","新莊區"
"242048","441-UM","2017/10/03 18:49:24","新北市樹林區中山路三段214號","121.37974","24.9676666666667","6500500","新莊區"
"242046","172-VK","2017/10/03 18:49:59","新北市板橋區大觀路三段50巷91號","121.431276666667","24.9964716666667","6500500","新莊區"
"242056","349-TH","2017/10/03 18:49:57","新北市新莊區環河路636-7號","121.437431666667","25.0117283333333","6500500","新莊區"
"238023","601-UM","2017/10/03 18:49:54","新北市樹林區三福街114號","121.406371666667","25.016305","6500700","樹林區"
"238019","599-UM","2017/10/03 18:49:56","新北市樹林區中華路190-16號","121.411716666667","24.9806083333333","6500700","樹林區"
"238018","571-TV","2017/10/03 18:49:50","新北市樹林區樹新路98號","121.429465","24.9975633333333","6500700","樹林區"
"238024","5061-A6","2017/10/03 18:49:45","新北市樹林區太平路235-1號","121.41908","24.974055","6500700","樹林區"
"238022","KEA-2213","2017/10/03 18:49:58","新北市樹林區中華路379巷78弄4號","121.413283333333","24.9772133333333","6500700","樹林區"
"238025","303-VK","2017/10/03 18:49:53","新北市樹林區中山路三段22號","121.395675","24.9729633333333","6500700","樹林區"
"238017","283-BY","2017/10/03 18:49:44","新北市樹林區光興街50號","121.409846666667","25.0027833333333","6500700","樹林區"
"238014","282-BY","2017/10/03 18:49:49","新北市樹林區大安路111巷8號","121.423145","24.99746","6500700","樹林區"
"238020","268-VK","2017/10/03 18:49:47","新北市樹林區俊英街223巷2號","121.423711666667","25.0133366666667","6500700","樹林區"
"238026","172-UY","2017/10/03 18:49:52","新北市樹林區信和街140號","121.386633333333","24.9747983333333","6500700","樹林區"
"238016","169-UY","2017/10/03 18:49:46","新北市樹林區文化街27號","121.419193333333","24.987615","6500700","樹林區"
"239007","AAC-297","2017/10/03 18:49:55","新北市鶯歌區中正一路269巷40號","121.355508333333","24.9596116666667","6500800","鶯歌區"
"239006","891-R6","2017/10/03 18:49:52","新北市鶯歌區鶯桃路296巷51號","121.335768333333","24.9613566666667","6500800","鶯歌區"
"239008","527-UM","2017/10/03 18:49:58","新北市鶯歌區國際二路50號","121.335603333333","24.9758883333333","6500800","鶯歌區"
"239005","526-UM","2017/10/03 18:49:44","新北市鶯歌區大湖路361巷28號","121.330558333333","24.977925","6500800","鶯歌區"
"239001","417-VK","2017/10/03 18:50:03","新北市鶯歌區永明街15號","121.338628333333","24.9554933333333","6500800","鶯歌區"
"239003","360-BY","2017/10/03 18:49:46","新北市鶯歌區鶯桃路656號","121.32938","24.9694083333333","6500800","鶯歌區"
"239002","359-BY","2017/10/03 18:49:46","新北市鶯歌區中山路20號","121.352606666667","24.9570966666667","6500800","鶯歌區"
"239004","193-VK","2017/10/03 18:49:48","新北市鶯歌區中正三路192號","121.332833333333","24.9383333333333","6500800","鶯歌區"
"221008","489-VK","2017/10/03 18:49:58","新北市汐止區康寧街901號","121.651361666667","25.07491","6501100","汐止區"
"221036","130-UY","2017/10/03 18:49:49","新北市汐止區忠孝東路338號","121.665171666667","25.0694633333333","6501100","汐止區"
"221015","131-UY","2017/10/03 18:50:01","新北市汐止區鄉長路一段55巷5號","121.665771666667","25.075875","6501100","汐止區"
"221010","269-BY","2017/10/03 18:49:53","新北市汐止區汐萬路二段40號","121.64954","25.0815166666667","6501100","汐止區"
"221012","276-VK","2017/10/03 13:23:49","新北市汐止區汐萬路一段256巷3號","121.653463333333","25.0746533333333","6501100","汐止區"
"221012","278-VK","2017/10/03 18:49:59","新北市汐止區汐萬路一段312號","121.650533333333","25.0753566666667","6501100","汐止區"
"221023","279-VK","2017/10/03 18:49:48","新北市汐止區汐萬路一段256巷3號","121.653415","25.0748","6501100","汐止區"
"221032","280-BY","2017/10/03 18:49:55","新北市汐止區橫科路121巷52弄3號","121.622601666667","25.0509133333333","6501100","汐止區"
"221027","281-BY","2017/10/03 18:49:57","新北市汐止區康寧街901號","121.65104","25.0751683333333","6501100","汐止區"
"221038","297-VK","2017/10/03 18:49:58","新北市汐止區汐萬路一段256巷3號","121.653481666667","25.0746633333333","6501100","汐止區"
"221029","298-VK","2017/10/03 18:49:43","新北市汐止區工建路60號","121.640656666667","25.0627933333333","6501100","汐止區"
"221021","299-VK","2017/10/03 18:49:48","新北市汐止區復興路72號","121.657171666667","25.0621383333333","6501100","汐止區"
"221031","353-TW","2017/10/03 18:49:46","新北市汐止區福德一路274號","121.632153333333","25.0639833333333","6501100","汐止區"
"221035","622-UM","2017/10/03 18:49:53","新北市汐止區汐萬路一段1號","121.656045","25.0672733333333","6501100","汐止區"
"221025","623-UM","2017/10/03 18:49:42","新北市汐止區仁愛路34號","121.660453333333","25.0628283333333","6501100","汐止區"
"221033","647-BX","2017/10/03 18:49:53","新北市汐止區南勢街1巷1號","121.627045","25.0373966666667","6501100","汐止區"
"221002","707-TV","2017/10/03 18:49:56","新北市汐止區大同路一段215-1號","121.63389","25.0573183333333","6501100","汐止區"
"221018","753-BX","2017/10/03 18:49:55","新北市汐止區新興路32號","121.656633333333","25.0642616666667","6501100","汐止區"
"220079","145-BY","2017/10/03 18:49:53","新北市板橋區民權路202巷1弄4號","121.459426666667","25.0143116666667","6500100","板橋區"
"220082","610-BX","2017/10/03 18:49:50","新北市板橋區篤行路三段玉平巷45號","121.428601666667","24.986845","6500100","板橋區"
"220101","245-BX","2017/10/03 15:39:20","新北市板橋區民生路二段161巷5號","121.470288333333","25.0197666666667","6500100","板橋區"
"220091","267-BY","2017/10/03 18:49:49","新北市板橋區民生路二段188號","121.47017","25.02024","6500100","板橋區"
"220056","276-BY","2017/10/03 18:49:49","新北市板橋區四川路二段23-3號","121.454623333333","24.9956016666667","6500100","板橋區"
"220072","277-BY","2017/10/03 18:49:50","新北市板橋區金門街23號","121.433443333333","24.9944883333333","6500100","板橋區"
"220064","280-UM","2017/10/03 18:49:48","新北市板橋區民生路二段121號","121.470808333333","25.0183033333333","6500100","板橋區"
"220071","283-VK","2017/10/03 18:49:54","新北市板橋區四川路一段284號","121.458828333333","25.0008233333333","6500100","板橋區"
"220094","285-UM","2017/10/03 18:49:48","新北市板橋區民生路二段161巷1號","121.469991666667","25.0197766666667","6500100","板橋區"
"220053","285-VK","2017/10/03 18:49:54","新北市板橋區民生路二段89-1號","121.471606666667","25.0182233333333","6500100","板橋區"
"220083","286-VK","2017/10/03 18:49:45","新北市板橋區大觀路二段22巷35號","121.444878333333","25.00362","6500100","板橋區"
"220081","287-VK","2017/10/03 18:49:59","新北市板橋區南雅西路二段92號","121.452408333333","25.011245","6500100","板橋區"
"220090","288-VK","2017/10/03 18:50:02","新北市板橋區民生路二段120號","121.470313333333","25.019835","6500100","板橋區"
"220061","293-UM","2017/10/03 18:49:56","新北市板橋區民生路二段89-4號","121.471221666667","25.018505","6500100","板橋區"
"220084","296-UM","2017/10/03 18:49:51","新北市板橋區大觀路二段150巷69號","121.441503333333","25.0006883333333","6500100","板橋區"
"220075","297-UM","2017/10/03 18:49:53","新北市板橋區大觀路一段28巷104號","121.45008","25.01108","6500100","板橋區"
"220062","305-R5","2017/10/03 18:49:58","新北市板橋區中山路二段26號","121.472581666667","25.015095","6500100","板橋區"
"220092","307-R5","2017/10/03 18:49:43","新北市板橋區民生路二段120號","121.470526666667","25.0195333333333","6500100","板橋區"
"220098","317-R6","2017/10/03 18:49:45","新北市板橋區民生路二段120號","121.470345","25.0199333333333","6500100","板橋區"
"220080","461-BY","2017/10/03 18:49:55","新北市板橋區大觀路二段397號","121.441293333333","24.9970366666667","6500100","板橋區"
"220089","487-VK","2017/10/03 18:49:54","新北市板橋區民生路二段188號","121.470281666667","25.020245","6500100","板橋區"
"220088","491-VK","2017/10/03 17:09:34","新北市板橋區民生路二段161巷1號","121.470081666667","25.019945","6500100","板橋區"
"220035","560-BX","2017/10/03 18:49:47","新北市板橋區中正路325巷30-2號","121.453003333333","25.0186766666667","6500100","板橋區"
"220054","568-UM","2017/10/03 18:49:55","新北市板橋區華東街330號","121.452868333333","25.00348","6500100","板橋區"
"220063","609-BX","2017/10/03 18:49:59","新北市板橋區民生路二段56-4號","121.471946666667","25.017215","6500100","板橋區"
"220057","686-BX","2017/10/03 18:49:48","新北市板橋區南雅南路二段120-2號","121.452351666667","25.0000133333333","6500100","板橋區"
"220077","687-BX","2017/10/03 18:49:46","新北市板橋區大觀路二段174巷190號","121.442201666667","25.0038683333333","6500100","板橋區"
"220093","689-BX","2017/10/03 18:49:56","新北市板橋區民生路二段161巷1號","121.470118333333","25.0202116666667","6500100","板橋區"
"220055","827-TW","2017/10/03 18:49:44","新北市板橋區南雅南路二段4巷12號","121.45378","25.0036833333333","6500100","板橋區"
"220067","829-TW","2017/10/03 18:50:03","新北市板橋區民生路二段5號","121.4729","25.0158416666667","6500100","板橋區"
"220102","830-TW","2017/10/03 16:44:07","新北市板橋區民生路二段89-6號","121.470438333333","25.0193983333333","6500100","板橋區"
"220096","831-TW","2017/10/03 16:09:44","新北市板橋區民生路二段120號","121.470445","25.0197116666667","6500100","板橋區"
"220074","895-R6","2017/10/03 18:49:54","新北市板橋區南門街75號","121.456916666667","25.0080716666667","6500100","板橋區"
"220073","985-R7","2017/10/03 18:49:43","新北市板橋區館前西路110號","121.456951666667","25.0074666666667","6500100","板橋區"
"220097","AAC-210","2017/10/03 16:59:58","新北市板橋區民生路二段161巷3號","121.470205","25.0197966666667","6500100","板橋區"
"220070","AAC-253","2017/10/03 18:49:57","新北市板橋區縣民大道一段108號","121.457","25.0057283333333","6500100","板橋區"
