"lineid","car","time","location","longitude","latitude","cityid","cityname"
"234046","148-BY","2017/10/03 18:55:47","新北市永和區秀朗路二段126巷30號","121.52465","25.0008233333333","6500400","永和區"
"234013","149-BY","2017/10/03 18:55:44","新北市永和區保福路二段116號","121.509971666667","25.0138166666667","6500400","永和區"
"234007","207-UY","2017/10/03 18:56:02","新北市永和區永和路二段94號","121.515086666667","25.0116316666667","6500400","永和區"
"234081","298-R6","2017/10/03 18:56:01","新北市永和區福和路57巷14弄1號","121.522713333333","25.00695","6500400","永和區"
"234038","336-UY","2017/10/03 18:55:44","新北市永和區成功路二段207號","121.526526666667","24.9958866666667","6500400","永和區"
"234064","337-UY","2017/10/03 18:55:45","新北市永和區永貞路41號","121.520968333333","25.0064583333333","6500400","永和區"
"234086","338-UY","2017/10/03 18:55:55","新北市永和區中正路157號","121.51639","24.9984066666667","6500400","永和區"
"234070","552-UM","2017/10/03 18:55:55","新北市永和區中興街100號","121.519008333333","25.0120933333333","6500400","永和區"
"234054","553-UM","2017/10/03 18:55:57","新北市永和區竹林路66巷2號","121.518251666667","25.0134083333333","6500400","永和區"
"234017","745-BX","2017/10/03 18:56:01","新北市永和區永和路二段293號","121.51608","25.01595","6500400","永和區"
"234030","746-BX","2017/10/03 18:55:55","新北市永和區得和路417號","121.525956666667","24.999225","6500400","永和區"
"234061","AAD-866","2017/10/03 18:55:44","新北市永和區福和路305號","121.516338333333","25.0071483333333","6500400","永和區"
"234042","862-TW","2017/10/03 18:55:46","新北市永和區永貞路267號","121.511908333333","25.00461","6500400","永和區"
"234050","863-TW","2017/10/03 18:56:01","新北市永和區保安路22號","121.51067","25.01721","6500400","永和區"
"234026","9371-KE","2017/10/03 18:55:59","新北市永和區自由街56號","121.513715","25.0059516666667","6500400","永和區"
"234011","9373-KE","2017/10/03 18:55:57","新北市永和區文化路126巷1號","121.513045","25.0154616666667","6500400","永和區"
"249005","172-UM","2017/10/03 18:55:44","新北市八里區長道坑15號","121.395275","25.11858","6502300","八里區"
"249001","173-UM","2017/10/03 18:55:49","新北市八里區渡船頭街1號","121.434381666667","25.1583583333333","6502300","八里區"
"248016","026-BX","2017/10/03 18:55:47","新北市五股區成泰路三段543巷52-1號","121.449733333333","25.1030183333333","6501500","五股區"
"248006","077-UY","2017/10/03 18:55:41","新北市五股區中興路一段40號","121.468261666667","25.0725883333333","6501500","五股區"
"248008","095-VK","2017/10/03 18:55:48","新北市五股區中興路一段128巷15號","121.465606666667","25.074335","6501500","五股區"
"248020","225-UY","2017/10/03 18:55:58","新北市五股區凌雲路三段57號","121.42528","25.1250183333333","6501500","五股區"
"248012","247-BX","2017/10/03 18:55:50","新北市五股區成泰路二段204號","121.438893333333","25.08515","6501500","五股區"
"248010","272-BY","2017/10/03 18:55:54","新北市五股區水碓九路11號","121.427835","25.0717516666667","6501500","五股區"
"248004","677-BX","2017/10/03 18:55:42","新北市五股區民義路二段85號","121.408283333333","25.10616","6501500","五股區"
"248002","678-BX","2017/10/03 18:55:54","新北市五股區成泰路三段521號","121.451525","25.10072","6501500","五股區"
"234023","9380-KE","2017/10/03 18:55:56","新北市永和區竹林路91巷47弄2號","121.521598333333","25.0130433333333","6500400","永和區"
"234077","969-R7","2017/10/03 18:55:44","新北市永和區民治街80號","121.517493333333","24.99834","6500400","永和區"
"234074","AAC-211","2017/10/03 18:55:50","新北市永和區福和路1號","121.526493333333","25.0098583333333","6500400","永和區"
"234067","AAC-212","2017/10/03 18:55:44","新北市永和區中和路625號","121.512883333333","25.0048933333333","6500400","永和區"
"234003","AAC-295","2017/10/03 18:55:45","新北市永和區永和路二段6號","121.514476666667","25.0100733333333","6500400","永和區"
"232011","375-UM","2017/10/03 18:55:41","新北市坪林區水聳淒坑19-1號","121.712685","24.9350116666667","6502000","坪林區"
"244013","069-UM","2017/10/03 18:55:44","新北市林口區文化一路一段133號","121.37394","25.07175","6501700","林口區"
"244007","080-UY","2017/10/03 18:55:56","新北市林口區太平里23號","121.37702","25.1151533333333","6501700","林口區"
"244019","403-UM","2017/10/03 18:55:43","新北市林口區麗園二街21號","121.379765","25.0694816666667","6501700","林口區"
"244009","410-SL","2017/10/03 18:56:00","新北市林口區竹林路332號","121.39124","25.08331","6501700","林口區"
"244023","483-VK","2017/10/03 18:55:57","新北市林口區民權路17號","121.371231666667","25.080125","6501700","林口區"
"244017","485-VK","2017/10/03 18:55:57","新北市林口區文化二路一段20巷23號","121.365713333333","25.0675183333333","6501700","林口區"
"244011","656-BX","2017/10/03 18:56:00","新北市林口區仁愛路一段336-1號","121.391223333333","25.076655","6501700","林口區"
"244025","837-TS","2017/10/03 18:55:57","新北市林口區南勢街192巷11號","121.3611","25.075125","6501700","林口區"
"243013","AAD-798","2017/10/03 18:55:47","新北市泰山區明志路三段206巷3號","121.423283333333","25.0379133333333","6501600","泰山區"
"243009","297-R6","2017/10/03 18:55:39","新北市泰山區泰林路二段544號","121.423418333333","25.0637866666667","6501600","泰山區"
"243015","380-SR","2017/10/03 18:55:47","新北市泰山區美寧街54號","121.430415","25.0645033333333","6501600","泰山區"
"243014","421-VK","2017/10/03 18:56:00","新北市泰山區黎明路23-1號","121.421306666667","25.06119","6501600","泰山區"
"243010","KEA-2215","2017/10/03 18:55:42","新北市泰山區辭修路24號","121.429028333333","25.0581766666667","6501600","泰山區"
"243011","KEA-2216","2017/10/03 18:55:46","新北市泰山區明志路二段62號","121.428983333333","25.0526766666667","6501600","泰山區"
"243012","646-TV","2017/10/03 18:55:53","新北市泰山區福興三街13號","121.434373333333","25.05778","6501600","泰山區"
"243016","680-BX","2017/10/03 18:55:49","新北市泰山區明志路二段135號","121.427753333333","25.0507833333333","6501600","泰山區"
"222003","436-BY","2017/10/03 18:55:57","新北市深坑區深南路51-1號","121.621306666667","25.0101366666667","6501800","深坑區"
"222001","628-TS","2017/10/03 18:55:55","新北市深坑區北深路一段174號","121.633996666667","25.01071","6501800","深坑區"
"222002","659-BX","2017/10/03 18:55:41","新北市深坑區文山路一段35號","121.627905","25.00258","6501800","深坑區"
"231041","002-UM","2017/10/03 18:55:48","新北市新店區安康路一段85號","121.529496666667","24.9613783333333","6500600","新店區"
"231059","046-UY","2017/10/03 18:55:55","新北市新店區安華路28-1號","121.519586666667","24.96078","6500600","新店區"
"231061","047-UY","2017/10/03 18:55:44","新北市新店區安康路二段1-5號","121.517255","24.96358","6500600","新店區"
"231060","106-UY","2017/10/03 18:55:59","新北市新店區安華路16號","121.517353333333","24.9581033333333","6500600","新店區"
"231051","107-UY","2017/10/03 18:55:51","新北市新店區中央路81號","121.532331666667","24.9765566666667","6500600","新店區"
"231048","108-UY","2017/10/03 18:55:46","新北市新店區德正街29號","121.544665","24.97142","6500600","新店區"
"231053","187-VK","2017/10/03 18:55:50","新北市新店區永興路102-4號","121.545256666667","24.9303683333333","6500600","新店區"
"231069","189-VK","2017/10/03 11:51:32","新北市新店區安華路28-1號","121.519563333333","24.961085","6500600","新店區"
"231050","215-TC","2017/10/03 18:55:40","新北市新店區光明街91號","121.538843333333","24.961065","6500600","新店區"
"231063","268-BY","2017/10/03 18:55:46","新北市新店區安忠路205巷8號","121.509185","24.9548566666667","6500600","新店區"
"231046","278-BY","2017/10/03 18:55:56","新北市新店區直潭九街22號","121.533561666667","24.938945","6500600","新店區"
"231054","AAD-862","2017/10/03 18:55:51","新北市新店區北新路一段51號","121.5382","24.959625","6500600","新店區"
"231058","3712-VJ","2017/10/03 18:55:56","新北市新店區中興路一段38號","121.538905","24.95903","6500600","新店區"
"231055","3713-VJ","2017/10/03 18:55:56","新北市新店區新生街12號","121.540086666667","24.966165","6500600","新店區"
"231056","4716-K9","2017/10/03 18:55:46","新北市新店區大同街25號","121.538755","24.98065","6500600","新店區"
"231067","4772-VM","2017/10/03 18:55:57","新北市新店區安康路一段263巷29號","121.523948333333","24.9613966666667","6500600","新店區"
"231065","512-UM","2017/10/03 18:55:44","新北市新店區建業路90-1號","121.479553333333","24.956685","6500600","新店區"
"231064","515-UM","2017/10/03 18:55:42","新北市新店區安華路28-1號","121.519663333333","24.9612233333333","6500600","新店區"
"231045","617-UM","2017/10/03 18:55:49","新北市新店區光明街89號","121.538835","24.96101","6500600","新店區"
"231040","619-UM","2017/10/03 18:55:47","新北市新店區中央路9號","121.533363333333","24.9785516666667","6500600","新店區"
"231042","641-BX","2017/10/03 18:55:51","新北市新店區中正路84號","121.543633333333","24.970375","6500600","新店區"
"231049","719-UM","2017/10/03 18:55:54","新北市新店區中正路454-5號","121.534453333333","24.97902","6500600","新店區"
"231062","720-UM","2017/10/03 18:55:52","新北市新店區安康路二段330號","121.50389","24.957795","6500600","新店區"
"231044","897-TW","2017/10/03 18:55:53","新北市新店區寶中路85號","121.547886666667","24.980715","6500600","新店區"
"231043","899-TW","2017/10/03 18:55:54","新北市新店區北新路一段128-3號","121.542228333333","24.969675","6500600","新店區"
"231066","AKT-0513","2017/10/03 18:55:59","新北市新店區安祥路30-1號","121.493245","24.956085","6500600","新店區"
"235066","003-UY","2017/10/03 18:55:47","新北市中和區廣福路56巷1弄19號","121.502755","25.001685","6500300","中和區"
"235064","005-UY","2017/10/03 18:55:41","新北市中和區連城路109巷33號","121.496971666667","24.9985766666667","6500300","中和區"
"235063","006-UY","2017/10/03 18:55:49","新北市中和區錦和路168號","121.489798333333","24.9957283333333","6500300","中和區"
"235057","031-BX","2017/10/03 18:55:42","新北市中和區民安街42巷40號","121.479248333333","25.001305","6500300","中和區"
"235056","096-UM","2017/10/03 18:55:44","新北市中和區員山路502號","121.47971","25.007285","6500300","中和區"
"235039","097-UM","2017/10/03 18:55:49","新北市中和區宜安路52巷21號","121.512576666667","24.9974383333333","6500300","中和區"
"235065","098-UM","2017/10/03 18:55:50","新北市中和區中山路二段2巷21-2號","121.50344","25.006995","6500300","中和區"
"235040","150-BY","2017/10/03 18:55:48","新北市中和區安平路38號","121.509926666667","24.99516","6500300","中和區"
"235058","151-BY","2017/10/03 18:55:54","新北市中和區連城路532號","121.47568","24.9916033333333","6500300","中和區"
"235055","183-VK","2017/10/03 18:55:45","新北市中和區民生街85巷5弄2號","121.469263333333","25.0040166666667","6500300","中和區"
"235038","185-VK","2017/10/03 18:55:43","新北市中和區大勇街45巷3號","121.517975","24.9946883333333","6500300","中和區"
"235049","186-VK","2017/10/03 18:55:53","新北市中和區景新街210巷15號","121.507048333333","24.9946066666667","6500300","中和區"
"235067","255-BX","2017/10/03 18:55:41","新北市中和區中正路839巷13號","121.484066666667","25.0022766666667","6500300","中和區"
"235044","293-VK","2017/10/03 18:55:45","新北市中和區中興街169號","121.499898333333","24.9904983333333","6500300","中和區"
"235072","301-VK","2017/10/03 18:55:56","新北市中和區中山路二段146號","121.501843333333","25.0031416666667","6500300","中和區"
"235043","352-BY","2017/10/03 18:56:01","新北市中和區秀朗路三段38號","121.526508333333","24.995915","6500300","中和區"
"235068","375-QA","2017/10/03 18:55:55","新北市中和區中正路211巷31號","121.497938333333","24.9926783333333","6500300","中和區"
"235051","376-QA","2017/10/03 18:55:40","新北市中和區華新街109巷11弄2-4號","121.508683333333","24.9795933333333","6500300","中和區"
"235061","378-QA","2017/10/03 18:55:54","新北市中和區民治街128巷3號","121.475","25.0028616666667","6500300","中和區"
"235050","4979-A6","2017/10/03 18:55:44","新北市中和區忠孝街58巷7號","121.512031666667","24.9833533333333","6500300","中和區"
"235069","4980-A6","2017/10/03 18:55:48","新北市中和區圓通路78號","121.499956666667","24.9970566666667","6500300","中和區"
"235042","551-UM","2017/10/03 18:55:47","新北市中和區秀朗路三段78巷1弄3號","121.525656666667","24.9939533333333","6500300","中和區"
"235070","558-UM","2017/10/03 18:55:53","新北市中和區圓通路12號","121.50162","24.99808","6500300","中和區"
"235045","565-BX","2017/10/03 18:55:48","新北市中和區興南路一段86號","121.509871666667","24.9893683333333","6500300","中和區"
"235054","640-BX","2017/10/03 18:55:39","新北市中和區民治街120號","121.474978333333","25.003515","6500300","中和區"
"235060","647-TV","2017/10/03 18:55:48","新北市中和區中山路三段214號","121.471396666667","25.006465","6500300","中和區"
"235047","732-UM","2017/10/03 18:55:56","新北市中和區興南路二段36號","121.506965","24.985355","6500300","中和區"
"235046","733-UM","2017/10/03 18:55:57","新北市中和區興南路一段85巷28號","121.510128333333","24.9880283333333","6500300","中和區"
"235062","800-TS","2017/10/03 18:55:58","新北市中和區景平路703巷2弄2號","121.496163333333","25.0034933333333","6500300","中和區"
"235041","802-TS","2017/10/03 18:55:55","新北市中和區中安街178巷13弄14號","121.510483333333","24.99849","6500300","中和區"
"235052","805-TS","2017/10/03 18:55:43","新北市中和區興南路二段347號","121.500165","24.9801083333333","6500300","中和區"
"235048","896-TW","2017/10/03 18:55:47","新北市中和區華新街56號","121.50804","24.984015","6500300","中和區"
"235053","900-TW","2017/10/03 18:55:43","新北市中和區民德路292號","121.467428333333","24.99562","6500300","中和區"
"235037","AAC-213","2017/10/03 18:55:42","新北市中和區自立路99巷36弄16號","121.523888333333","24.9941416666667","6500300","中和區"
"235059","AAC-215","2017/10/03 18:55:43","新北市中和區圓通路369巷17號","121.490885","24.98863","6500300","中和區"
"220065","072-UY","2017/10/03 18:55:48","新北市板橋區民族路61號","121.464926666667","25.00863","6500100","板橋區"
"220086","073-UY","2017/10/03 18:55:56","新北市板橋區大智街71巷3弄1號","121.45347","25.0152433333333","6500100","板橋區"
"220106","075-UY","2017/10/03 18:55:54","新北市板橋區民生路二段216號","121.469291666667","25.0215616666667","6500100","板橋區"
"220069","AAD-861","2017/10/03 18:55:52","新北市板橋區大華街10號","121.458861666667","25.0062283333333","6500100","板橋區"
"220068","120-SR","2017/10/03 18:55:43","新北市板橋區中山路二段465巷76號","121.48122","25.0222033333333","6500100","板橋區"
"247008","053-VK","2017/10/03 18:55:11","新北市五股區中興路三段163號","121.449156666667","25.0807116666667","6501400","蘆洲區"
"226004","205-ST","2017/10/03 18:55:51","新北市平溪區嶺腳里嶺腳寮9-1號","121.74771","25.029775","6502400","平溪區"
"228002","663-BX","2017/10/03 18:55:53","新北市貢寮區福隆里東興街5號","121.950253333333","25.0196183333333","6502600","貢寮區"
"228001","670-TC","2017/10/03 18:55:58","新北市貢寮區仁理村保健街71號","121.923651666667","25.05166","6502600","貢寮區"
"228003","828-UM","2017/10/03 18:56:03","新北市貢寮區和美里龍洞街56號","121.912143333333","25.1138733333333","6502600","貢寮區"
"224006","676-BX","2017/10/03 18:56:00","新北市瑞芳區民權街6巷25號","121.806963333333","25.10665","6501200","瑞芳區"
"224009","285-BY","2017/10/03 18:55:54","新北市瑞芳區五號路253-1號","121.856265","25.1127016666667","6501200","瑞芳區"
"224008","275-VK","2017/10/03 18:55:47","新北市瑞芳區逢甲路412-2號","121.797871666667","25.1145466666667","6501200","瑞芳區"
"224007","273-VK","2017/10/03 18:55:53","新北市瑞芳區大埔路慶安新村30號","121.762776666667","25.1002266666667","6501200","瑞芳區"
"224005","271-BY","2017/10/03 18:55:41","新北市瑞芳區濱二路73號","121.828845","25.1208783333333","6501200","瑞芳區"
"227003","642-TC","2017/10/03 18:55:49","新北市雙溪區平林里外平林9-6號","121.859108333333","25.0378966666667","6502500","雙溪區"
"227009","030-BX","2017/10/03 18:55:41","新北市雙溪區牡丹里中正路58巷41號","121.866466666667","25.0419883333333","6502500","雙溪區"
"253005","032-BX","2017/10/03 18:55:55","新北市石門區中山路70號","121.567606666667","25.2916366666667","6502200","石門區"
"253006","295-VK","2017/10/03 18:55:45","新北市石門區下員坑26-2號","121.516213333333","25.2762833333333","6502200","石門區"
"208003","665-BX","2017/10/03 18:55:54","新北市金山區中山路277號","121.63626","25.2230383333333","6502700","金山區"
"208001","761-BX","2017/10/03 18:55:44","新北市金山區中山路323號","121.63548","25.2239283333333","6502700","金山區"
"251004","009-UM","2017/10/03 18:55:42","新北市淡水區中正東路二段143巷2弄1號","121.460708333333","25.1472816666667","6501000","淡水區"
"251001","011-UM","2017/10/03 18:56:02","新北市淡水區自強路84號","121.462805","25.128195","6501000","淡水區"
"251002","012-UM","2017/10/03 18:55:53","新北市淡水區學府路36號","121.448016666667","25.168835","6501000","淡水區"
"251014","180-VK","2017/10/03 18:55:52","新北市淡水區崙頂6巷1號","121.49485","25.223175","6501000","淡水區"
"251010","413-VK","2017/10/03 18:55:44","新北市淡水區沙崙路9號","121.421033333333","25.1812883333333","6501000","淡水區"
"251012","441-VK","2017/10/03 18:55:55","新北市淡水區新興街109號","121.440646666667","25.1808533333333","6501000","淡水區"
"251016","442-VK","2017/10/03 18:55:53","新北市淡水區淡金路三段331巷2-2號","121.448623333333","25.20621","6501000","淡水區"
"251009","575-R6","2017/10/03 18:55:58","新北市淡水區重建街61號","121.43985","25.171795","6501000","淡水區"
"251011","650-BX","2017/10/03 18:55:56","新北市淡水區中正東路二段55號","121.459386666667","25.155275","6501000","淡水區"
"251003","766-UM","2017/10/03 18:56:00","新北市淡水區中山北路一段149巷24號","121.44297","25.1779333333333","6501000","淡水區"
"207003","550-UM","2017/10/03 18:55:48","新北市萬里區大鵬里頂社55-3號","121.655046666667","25.2112933333333","6502800","萬里區"
"207004","225-TW","2017/10/03 18:55:54","新北市萬里區萬里里獅頭路23號","121.693211666667","25.1782416666667","6502800","萬里區"
"252002","178-VK","2017/10/03 18:55:46","新北市三芝區中正路一段83號","121.504361666667","25.2568983333333","6502100","三芝區"
"252003","249-BX","2017/10/03 18:55:55","新北市三芝區後厝里土地公坑54-17號","121.465928333333","25.2494166666667","6502100","三芝區"
"252001","292-VK","2017/10/03 18:55:40","新北市三芝區中正路三段17號","121.502843333333","25.2534583333333","6502100","三芝區"
"252005","AAC-283","2017/10/03 15:53:46","新北市三芝區埔坪里埔頭坑41號","121.504515","25.26445","6502100","三芝區"
"208002","170-UY","2017/10/03 18:55:49","新北市金山區信義路32號","121.635233333333","25.2196316666667","6502700","金山區"
"237004","078-UY","2017/10/03 18:55:57","新北市三峽區有木206號","121.439078333333","24.8515766666667","6500900","三峽區"
"237007","153-BY","2017/10/03 18:55:53","新北市三峽區中正路二段421號","121.363063333333","24.9068916666667","6500900","三峽區"
"237013","252-BX","2017/10/03 18:55:48","新北市三峽區光明路69巷24號","121.3766","24.92902","6500900","三峽區"
"237012","275-BY","2017/10/03 18:55:39","新北市樹林區佳園路三段486號","121.382753333333","24.9439883333333","6500900","三峽區"
"237008","302-VK","2017/10/03 18:56:00","新北市三峽區白雞28-1號","121.37032","24.9122316666667","6500900","三峽區"
"237014","433-BY","2017/10/03 18:55:43","新北市三峽區隆恩街243號","121.35778","24.9411083333333","6500900","三峽區"
"237006","5529-G3","2017/10/03 18:55:41","新北市三峽區溪東路233巷47弄2號","121.410598333333","24.9345816666667","6500900","三峽區"
"237011","572-TV","2017/10/03 18:11:16","新北市三峽區橫溪路1號","121.396053333333","24.9361866666667","6500900","三峽區"
"237016","649-BX","2017/10/03 18:55:56","新北市三峽區成福路337號","121.431961666667","24.923915","6500900","三峽區"
"237010","706-TV","2017/10/03 18:55:48","新北市三峽區國光街36號","121.374828333333","24.937765","6500900","三峽區"
"237005","AKY-6261","2017/10/03 18:55:59","新北市三峽區中山路459巷104號","121.353563333333","24.935695","6500900","三峽區"
"236070","105-UM","2017/10/03 18:55:55","新北市土城區青雲路113號","121.45896","24.9849283333333","6501300","土城區"
"236043","107-UM","2017/10/03 18:55:54","新北市土城區裕民路136巷8弄2號","121.450658333333","24.985165","6501300","土城區"
"236031","253-BX","2017/10/03 18:55:55","新北市土城區千歲路3巷9號","121.440956666667","24.9702566666667","6501300","土城區"
"236027","269-VK","2017/10/03 18:55:53","新北市土城區光明街31號","121.442126666667","24.9741716666667","6501300","土城區"
"236015","270-VK","2017/10/03 18:55:51","新北市土城區金城路二段396號","121.463998333333","24.9856133333333","6501300","土城區"
"236038","271-VK","2017/10/03 18:55:49","新北市土城區明德路一段237號","121.462786666667","24.9782683333333","6501300","土城區"
"236023","401-BY","2017/10/03 18:55:44","新北市土城區延安街8號","121.467285","24.9860366666667","6501300","土城區"
"236079","752-BX","2017/10/03 18:55:54","新北市土城區中央路四段125巷9弄10號","121.416895","24.9574466666667","6501300","土城區"
"236059","912-UM","2017/10/03 18:55:59","新北市土城區中央路三段87號","121.437755","24.9678683333333","6501300","土城區"
"236049","913-UM","2017/10/03 18:55:41","新北市土城區青雲路9號","121.460363333333","24.9896933333333","6501300","土城區"
"236063","915-UM","2017/10/03 18:55:42","新北市土城區金城路三段139巷11號","121.467745","24.9886933333333","6501300","土城區"
"236055","AAC-216","2017/10/03 18:55:38","新北市土城區裕民路30號","121.447901666667","24.9884966666667","6501300","土城區"
"242044","497-BY","2017/10/03 18:55:45","新北市新莊區新泰路357巷3弄57號","121.442301666667","25.039475","6500500","新莊區"
"242046","172-VK","2017/10/03 18:54:19","新北市板橋區大觀路三段131-1號","121.435116666667","24.9925","6500500","新莊區"
"242056","349-TH","2017/10/03 18:55:57","新北市新莊區環河路636-7號","121.43745","25.0117266666667","6500500","新莊區"
"238023","601-UM","2017/10/03 18:55:54","桃園市龜山區萬壽路一段501號","121.399565","25.016","6500700","樹林區"
"238019","599-UM","2017/10/03 18:55:56","新北市樹林區東榮街147巷4弄1號","121.41438","24.980935","6500700","樹林區"
"238018","571-TV","2017/10/03 18:55:51","新北市樹林區鎮前街18號","121.426118333333","24.99311","6500700","樹林區"
"238024","5061-A6","2017/10/03 18:55:45","新北市樹林區八德街828-8號","121.392826666667","24.968645","6500700","樹林區"
"238021","KEA-2217","2017/10/03 18:55:57","新北市樹林區西圳街二段30號","121.388573333333","24.961725","6500700","樹林區"
"238022","KEA-2213","2017/10/03 18:55:58","新北市樹林區東順街60巷2號","121.411336666667","24.9781333333333","6500700","樹林區"
"238025","303-VK","2017/10/03 18:55:53","新北市樹林區中山路三段124號","121.392205","24.9721416666667","6500700","樹林區"
"238017","283-BY","2017/10/03 18:55:44","新北市樹林區光興街44號","121.40987","25.0027716666667","6500700","樹林區"
"238014","282-BY","2017/10/03 18:55:49","新北市樹林區潭興街6-1號","121.423935","24.9972283333333","6500700","樹林區"
"238020","268-VK","2017/10/03 18:55:47","新北市樹林區俊英街200號","121.425311666667","25.0091433333333","6500700","樹林區"
"238026","172-UY","2017/10/03 18:55:52","新北市樹林區中和街12號","121.391506666667","24.9731683333333","6500700","樹林區"
"238016","169-UY","2017/10/03 18:55:46","新北市樹林區文化街28號","121.4194","24.9877283333333","6500700","樹林區"
"239007","AAC-297","2017/10/03 18:55:55","新北市鶯歌區中正一路211巷1弄2號","121.353618333333","24.957385","6500800","鶯歌區"
"239006","891-R6","2017/10/03 18:55:52","新北市鶯歌區鶯桃路240號","121.33629","24.9594983333333","6500800","鶯歌區"
"239008","527-UM","2017/10/03 18:55:58","新北市鶯歌區國際二路18巷23號","121.337721666667","24.9754083333333","6500800","鶯歌區"
"239005","526-UM","2017/10/03 18:55:44","新北市鶯歌區永和街249號","121.336873333333","24.9721383333333","6500800","鶯歌區"
"239001","417-VK","2017/10/03 18:55:43","新北市鶯歌區陽明街9號","121.341101666667","24.95655","6500800","鶯歌區"
"239003","360-BY","2017/10/03 18:55:46","新北市鶯歌區鶯桃路559號","121.330198333333","24.9681833333333","6500800","鶯歌區"
"239002","359-BY","2017/10/03 18:55:46","新北市鶯歌區中正一路307號","121.35671","24.9570816666667","6500800","鶯歌區"
"239004","193-VK","2017/10/03 18:55:45","新北市鶯歌區中正三路283-12號","121.33118","24.9373333333333","6500800","鶯歌區"
"221008","489-VK","2017/10/03 18:55:58","新北市汐止區康寧街901號","121.65139","25.0750266666667","6501100","汐止區"
"221036","130-UY","2017/10/03 18:55:54","新北市汐止區水碓街39號","121.664831666667","25.0696616666667","6501100","汐止區"
"221015","131-UY","2017/10/03 18:56:01","新北市汐止區大同路二段435號","121.659065","25.0673183333333","6501100","汐止區"
"221010","269-BY","2017/10/03 18:55:53","新北市汐止區康寧街901號","121.651458333333","25.0750533333333","6501100","汐止區"
"221012","276-VK","2017/10/03 13:23:49","新北市汐止區汐萬路一段256巷3號","121.653463333333","25.0746533333333","6501100","汐止區"
"221012","278-VK","2017/10/03 18:55:39","新北市汐止區康寧街901號","121.650863333333","25.0752533333333","6501100","汐止區"
"221023","279-VK","2017/10/03 18:55:48","新北市汐止區康寧街901號","121.650986666667","25.0751983333333","6501100","汐止區"
"221032","280-BY","2017/10/03 18:55:55","新北市汐止區橫科路407巷81弄5號","121.628855","25.0479516666667","6501100","汐止區"
"221027","281-BY","2017/10/03 18:55:57","新北市汐止區康寧街901號","121.650873333333","25.0752716666667","6501100","汐止區"
"221038","297-VK","2017/10/03 18:55:58","新北市汐止區汐萬路一段312號","121.650651666667","25.0753133333333","6501100","汐止區"
"221029","298-VK","2017/10/03 18:55:43","新北市汐止區樟樹一路230號","121.642291666667","25.0666633333333","6501100","汐止區"
"221021","299-VK","2017/10/03 18:55:48","新北市汐止區秀峰路6巷2號","121.659198333333","25.066775","6501100","汐止區"
"221031","353-TW","2017/10/03 18:55:46","新北市汐止區福德一路296號","121.631505","25.0633266666667","6501100","汐止區"
"221035","622-UM","2017/10/03 18:55:53","新北市汐止區汐萬路一段155號","121.653126666667","25.071055","6501100","汐止區"
"221025","623-UM","2017/10/03 18:55:42","新北市汐止區水源路一段5號","121.657163333333","25.0670516666667","6501100","汐止區"
"221033","647-BX","2017/10/03 18:55:52","新北市汐止區南勢街3號","121.627038333333","25.0373683333333","6501100","汐止區"
"221002","707-TV","2017/10/03 18:55:56","新北市汐止區大同路一段137號","121.630751666667","25.055075","6501100","汐止區"
"221018","753-BX","2017/10/03 18:55:55","新北市汐止區大同路二段312巷14號","121.655865","25.065955","6501100","汐止區"
"220079","145-BY","2017/10/03 18:55:53","新北市板橋區民權路256號","121.45818","25.0149416666667","6500100","板橋區"
"220082","610-BX","2017/10/03 18:55:48","新北市板橋區篤行路三段10號","121.429126666667","24.9875516666667","6500100","板橋區"
"220101","245-BX","2017/10/03 15:39:20","新北市板橋區民生路二段161巷5號","121.470288333333","25.0197666666667","6500100","板橋區"
"220091","267-BY","2017/10/03 18:55:49","新北市板橋區民生路二段182號","121.47105","25.0204183333333","6500100","板橋區"
"220056","276-BY","2017/10/03 18:55:51","新北市板橋區信義路28-6號","121.457065","24.995185","6500100","板橋區"
"220072","277-BY","2017/10/03 18:55:50","新北市板橋區大觀路三段36巷48號","121.43446","24.996935","6500100","板橋區"
"220064","280-UM","2017/10/03 18:55:48","新北市板橋區中山路一段285號","121.470186666667","25.014085","6500100","板橋區"
"220071","283-VK","2017/10/03 18:55:54","新北市板橋區忠孝路176巷5弄4號","121.464811666667","25.0020216666667","6500100","板橋區"
"220094","285-UM","2017/10/03 18:55:48","新北市板橋區民生路二段208號","121.469613333333","25.0211583333333","6500100","板橋區"
"220053","285-VK","2017/10/03 18:55:54","新北市板橋區成功路46號","121.475098333333","25.0177316666667","6500100","板橋區"
"220083","286-VK","2017/10/03 18:55:45","新北市板橋區僑中二街12巷36-1號","121.445213333333","25.0110433333333","6500100","板橋區"
"220081","287-VK","2017/10/03 18:55:59","新北市板橋區光華街15巷3號","121.453863333333","25.0117733333333","6500100","板橋區"
"220090","288-VK","2017/10/03 18:55:42","新北市板橋區民生路二段188號","121.470058333333","25.0204733333333","6500100","板橋區"
"220061","293-UM","2017/10/03 18:55:56","新北市板橋區永豐街163號","121.475473333333","25.0204216666667","6500100","板橋區"
"220084","296-UM","2017/10/03 18:55:51","新北市板橋區大觀路二段156巷42號","121.441278333333","25.0002166666667","6500100","板橋區"
"220075","297-UM","2017/10/03 18:55:33","新北市板橋區南興路30號","121.454748333333","25.0077316666667","6500100","板橋區"
"220062","305-R5","2017/10/03 18:55:56","新北市板橋區中山路二段56號","121.473898333333","25.0157616666667","6500100","板橋區"
"220092","307-R5","2017/10/03 18:55:43","新北市板橋區民生路二段123號","121.470711666667","25.018595","6500100","板橋區"
"220098","317-R6","2017/10/03 18:55:44","新北市板橋區民生路二段188號","121.469971666667","25.0205433333333","6500100","板橋區"
"220080","461-BY","2017/10/03 18:55:55","新北市板橋區大觀路二段265巷3弄1號","121.442961666667","24.9983233333333","6500100","板橋區"
"220089","487-VK","2017/10/03 18:55:54","新北市板橋區民生路二段120號","121.470771666667","25.0196283333333","6500100","板橋區"
"220088","491-VK","2017/10/03 17:09:34","新北市板橋區民生路二段161巷1號","121.470081666667","25.019945","6500100","板橋區"
"220035","560-BX","2017/10/03 18:55:47","新北市板橋區中正路275巷1號","121.455328333333","25.01877","6500100","板橋區"
"220103","561-BX","2017/10/03 18:55:42","新北市板橋區民生路二段89-6號","121.470576666667","25.0190083333333","6500100","板橋區"
"220054","568-UM","2017/10/03 18:55:54","新北市板橋區館前西路48號","121.458518333333","25.0069166666667","6500100","板橋區"
"220063","609-BX","2017/10/03 18:55:59","新北市板橋區民生路一段62號","121.474001666667","25.0149633333333","6500100","板橋區"
"220057","686-BX","2017/10/03 18:55:48","新北市板橋區南雅南路一段1巷42號","121.457435","25.0062533333333","6500100","板橋區"
"220077","687-BX","2017/10/03 18:55:49","新北市板橋區龍興街73巷2號","121.44391","25.0020666666667","6500100","板橋區"
"220093","689-BX","2017/10/03 18:55:56","新北市板橋區民生路二段120號","121.470886666667","25.0193133333333","6500100","板橋區"
"220055","827-TW","2017/10/03 18:55:44","新北市板橋區中山路一段19號","121.459508333333","25.00858","6500100","板橋區"
"220067","829-TW","2017/10/03 18:55:43","新北市板橋區中山路二段90巷47弄16號","121.477365","25.014895","6500100","板橋區"
"220102","830-TW","2017/10/03 18:55:58","新北市板橋區莒光路140巷5號","121.473453333333","25.0234383333333","6500100","板橋區"
"220096","831-TW","2017/10/03 18:55:43","新北市板橋區萬板路15號","121.470623333333","25.0210466666667","6500100","板橋區"
"220074","895-R6","2017/10/03 18:55:59","新北市板橋區林園街1號","121.453826666667","25.0090833333333","6500100","板橋區"
"220073","985-R7","2017/10/03 18:55:43","新北市板橋區光華街1巷1號","121.45415","25.011085","6500100","板橋區"
"220097","AAC-210","2017/10/03 18:55:52","新北市板橋區民生路二段232-14號","121.468743333333","25.0222483333333","6500100","板橋區"
"220070","AAC-253","2017/10/03 18:55:58","新北市板橋區四川路一段107-8號","121.459781666667","25.0049366666667","6500100","板橋區"
