"lineid","car","time","location","longitude","latitude","cityid","cityname"
"234061","AAD-866","2017/10/03 21:09:44","新北市五股區成泰路三段358號","121.450913333333","25.0976416666667","6500400","永和區"
"231059","046-UY","2017/10/03 21:09:35","新北市新店區僑義路21號","121.500395","24.95102","6500600","新店區"
"231061","047-UY","2017/10/03 21:09:24","新北市新店區永平街56號","121.516156666667","24.9846566666667","6500600","新店區"
"231060","106-UY","2017/10/03 21:09:39","新北市新店區安康路三段17號","121.493496666667","24.95342","6500600","新店區"
"231051","107-UY","2017/10/03 21:09:31","新北市新店區中正路663巷1弄2號","121.532951666667","24.990015","6500600","新店區"
"231048","108-UY","2017/10/03 21:09:26","新北市新店區寶強路29號","121.543365","24.9794616666667","6500600","新店區"
"231069","189-VK","2017/10/03 11:51:32","新北市新店區安華路28-1號","121.519563333333","24.961085","6500600","新店區"
"231050","215-TC","2017/10/03 21:09:40","新北市新店區三民路75巷5弄1號","121.535611666667","24.97091","6500600","新店區"
"231063","268-BY","2017/10/03 21:09:26","新北市新店區玫瑰路58巷1號","121.49546","24.946565","6500600","新店區"
"231054","AAD-862","2017/10/03 21:09:30","新北市新店區中興路一段280號","121.545495","24.9683883333333","6500600","新店區"
"231067","4772-VM","2017/10/03 21:09:36","新北市新店區安德街148巷12弄11號","121.508163333333","24.9604316666667","6500600","新店區"
"231065","512-UM","2017/10/03 21:09:34","新北市新店區安祥路69巷89弄1號","121.483505","24.95931","6500600","新店區"
"231064","515-UM","2017/10/03 21:09:42","新北市新店區安民街251巷6號","121.516925","24.9725","6500600","新店區"
"231040","619-UM","2017/10/03 21:09:27","新北市新店區北新路一段351號","121.541991666667","24.9693816666667","6500600","新店區"
"231042","641-BX","2017/10/03 21:09:31","新北市新店區寶興路60巷4號","121.54987","24.9718833333333","6500600","新店區"
"231062","720-UM","2017/10/03 21:09:32","新北市新店區安康路三段107號","121.491231666667","24.9517233333333","6500600","新店區"
"241011","013-R5","2017/10/03 21:09:30","新北市三重區龍濱路231號","121.501606666667","25.07213","6500200","三重區"
"241028","022-UY","2017/10/03 21:09:29","新北市三重區正義南路60-1號","121.49824","25.060645","6500200","三重區"
"241008","059-VK","2017/10/03 21:09:38","新北市三重區自強路一段60號","121.497351666667","25.0667933333333","6500200","三重區"
"241009","060-VK","2017/10/03 21:09:37","新北市三重區忠孝路二段122號","121.482993333333","25.0688083333333","6500200","三重區"
"241031","061-VK","2017/10/03 21:09:27","新北市三重區重新路五段416號","121.475466666667","25.0475","6500200","三重區"
"241015","062-VK","2017/10/03 21:09:27","新北市三重區福德北路61號","121.502081666667","25.065455","6500200","三重區"
"241017","063-VK","2017/10/03 21:09:33","新北市三重區國隆路31號","121.492341666667","25.0644333333333","6500200","三重區"
"241024","065-VK","2017/10/03 21:09:44","新北市三重區力行路二段4號","121.48166","25.0718266666667","6500200","三重區"
"241026","066-VK","2017/10/03 21:09:35","新北市三重區文化南路42號","121.500403333333","25.06025","6500200","三重區"
"241002","090-VK","2017/10/03 21:09:26","新北市三重區五華街11號","121.49496","25.08026","6500200","三重區"
"241003","091-VK","2017/10/03 21:09:44","新北市三重區仁義街230巷2號","121.494745","25.08496","6500200","三重區"
"241005","262-UM","2017/10/03 21:09:35","新北市三重區三信路182號","121.4881","25.0862066666667","6500200","三重區"
"241023","265-UM","2017/10/03 21:09:23","新北市三重區忠孝路三段50巷41弄64號","121.482386666667","25.06379","6500200","三重區"
"241016","266-UM","2017/10/03 21:09:29","新北市三重區信義西街138號","121.495711666667","25.0645216666667","6500200","三重區"
"241022","267-UM","2017/10/03 21:09:44","新北市三重區中正北路64巷22號","121.486201666667","25.063695","6500200","三重區"
"241018","268-UM","2017/10/03 21:09:34","新北市三重區正義北路338巷2號","121.49426","25.0706366666667","6500200","三重區"
"241032","269-UM","2017/10/03 21:09:41","新北市三重區新北大道一段176號","121.48309","25.061575","6500200","三重區"
"241013","270-UM","2017/10/03 21:09:35","新北市三重區仁賢街12-1號","121.495671666667","25.07487","6500200","三重區"
"241025","271-UM","2017/10/03 21:09:36","新北市三重區中正北路208巷8號","121.482333333333","25.066975","6500200","三重區"
"241007","398-BY","2017/10/03 21:09:41","新北市三重區三和路四段145巷81號","121.486378333333","25.0787533333333","6500200","三重區"
"241004","475-VK","2017/10/03 21:09:36","新北市三重區仁愛街423-1號","121.490338333333","25.0814566666667","6500200","三重區"
"241019","478-VK","2017/10/03 21:09:39","新北市三重區自強路二段74巷19號","121.487976666667","25.0699233333333","6500200","三重區"
"241030","480-VK","2017/10/03 21:09:38","新北市三重區五谷王北街20巷15弄1號","121.475066666667","25.048505","6500200","三重區"
"241014","543-UM","2017/10/03 21:09:25","新北市三重區三和路二段37-9號","121.501308333333","25.06765","6500200","三重區"
"241001","547-UM","2017/10/03 21:09:37","新北市三重區福隆路44號","121.492371666667","25.07835","6500200","三重區"
"241006","AAD-863","2017/10/03 21:09:44","新北市三重區中正北路2號","121.489201666667","25.0631816666667","6500200","三重區"
"241012","941-UM","2017/10/03 21:09:25","新北市三重區仁信街27號","121.501296666667","25.075525","6500200","三重區"
"241029","942-UM","2017/10/03 21:09:32","新北市三重區正義南路107號","121.498195","25.0585533333333","6500200","三重區"
"235069","4980-A6","2017/10/03 21:09:41","新北市中和區連城路469巷44弄12號","121.482751666667","24.99452","6500300","中和區"
"235026","800-TS","2017/10/03 20:55:22","新北市中和區員山路36巷16-3號","121.484846666667","24.99163","6500300","中和區"
"247022","893-R6","2017/10/03 21:09:39","新北市蘆洲區中正路297號","121.466696666667","25.08822","6501400","蘆洲區"
"247012","546-UM","2017/10/03 21:09:42","新北市蘆洲區民族路31-6號","121.47722","25.0849966666667","6501400","蘆洲區"
"247020","500-BY","2017/10/03 21:09:27","新北市蘆洲區民族路436巷13號","121.472638333333","25.092845","6501400","蘆洲區"
"247010","339-TH","2017/10/03 21:09:27","新北市蘆洲區鷺江街38號","121.477363333333","25.0830216666667","6501400","蘆洲區"
"247002","337-TH","2017/10/03 21:09:34","新北市蘆洲區永樂街38巷42弄6號","121.458828333333","25.0899","6501400","蘆洲區"
"247004","336-TH","2017/10/03 21:09:40","新北市蘆洲區中原路90號","121.457373333333","25.0815883333333","6501400","蘆洲區"
"247016","057-VK","2017/10/03 21:09:32","新北市蘆洲區和平路136-1號","121.466913333333","25.0807183333333","6501400","蘆洲區"
"247006","056-VK","2017/10/03 21:09:44","新北市蘆洲區九芎街15巷3號","121.468146666667","25.0782916666667","6501400","蘆洲區"
"247008","053-VK","2017/10/03 21:09:41","新北市蘆洲區民生街28號","121.474946666667","25.0788583333333","6501400","蘆洲區"
"247014","007-UY","2017/10/03 21:09:44","新北市蘆洲區中央路87號","121.47285","25.08439","6501400","蘆洲區"
"247024","002-UY","2017/10/03 21:09:35","新北市蘆洲區長興路50巷1號","121.463836666667","25.0838233333333","6501400","蘆洲區"
"247018","001-UY","2017/10/03 21:09:27","新北市蘆洲區民族路408巷14號","121.47503","25.0918816666667","6501400","蘆洲區"
"251001","011-UM","2017/10/03 21:09:22","新北市淡水區新市一路三段101巷16弄3號","121.446626666667","25.1838833333333","6501000","淡水區"
"251002","012-UM","2017/10/03 21:09:42","新北市淡水區水源街二段2號","121.44894","25.1733166666667","6501000","淡水區"
"251014","180-VK","2017/10/03 21:09:31","新北市淡水區六塊厝2-2號","121.450261666667","25.240775","6501000","淡水區"
"251012","441-VK","2017/10/03 21:09:35","新北市淡水區六塊厝11-6號","121.4529","25.2409316666667","6501000","淡水區"
"251016","442-VK","2017/10/03 21:09:33","新北市淡水區前洲子3-1號","121.443685","25.2162716666667","6501000","淡水區"
"251005","443-VK","2017/10/03 21:09:35","新北市淡水區博愛街47號","121.446665","25.1691283333333","6501000","淡水區"
"251009","575-R6","2017/10/03 21:09:38","新北市淡水區民族路112巷40號","121.461956666667","25.13444","6501000","淡水區"
"251007","577-R6","2017/10/03 21:09:43","新北市淡水區水源街二段138-1號","121.453685","25.174835","6501000","淡水區"
"251011","650-BX","2017/10/03 21:09:35","新北市淡水區新民街222巷16弄15號","121.437321666667","25.1798433333333","6501000","淡水區"
"251003","766-UM","2017/10/03 21:09:40","新北市淡水區新春街95-1號","121.439521666667","25.182665","6501000","淡水區"
"252005","AAC-283","2017/10/03 15:53:46","新北市三芝區埔坪里埔頭坑41號","121.504515","25.26445","6502100","三芝區"
"242051","751-BX","2017/10/03 21:09:36","新北市五股區成泰路一段90號","121.43734","25.0699966666667","6500500","新莊區"
"242048","441-UM","2017/10/03 21:09:44","新北市五股區孝義路11號","121.451523333333","25.1065383333333","6500500","新莊區"
"239002","359-BY","2017/10/03 19:04:06","新北市鶯歌區西湖街63號","121.338911666667","24.9610516666667","6500800","鶯歌區"
"221012","276-VK","2017/10/03 13:23:49","新北市汐止區汐萬路一段256巷3號","121.653463333333","25.0746533333333","6501100","汐止區"
"221029","298-VK","2017/10/03 21:09:43","新北市汐止區康寧街901號","121.651625","25.07488","6501100","汐止區"
"221018","753-BX","2017/10/03 21:09:45","新北市汐止區汐萬路一段256巷1號","121.651913333333","25.074785","6501100","汐止區"
"220070","AAC-253","2017/10/03 21:09:37","新北市八里區中山路三段409號","121.368713333333","25.13443","6500100","板橋區"
