"lineid","car","time","location","longitude","latitude","cityid","cityname"
"247002","402-BY","2017/06/21 16:20:30","新北市五股區中興路三段3-6號","121.449505","25.07877","6501400","蘆洲區"
"224011","AGQ-8101","2017/06/21 18:48:08","新北市瑞芳區汽車路7-3號","121.848041666667","25.1093816666667","6501200","瑞芳區"
"251013","180-VK","2017/06/21 18:49:32","新北市淡水區小坑子頭1-1號","121.48063","25.2145733333333","6501000","淡水區"
"251015","182-VK","2017/06/21 18:49:25","新北市淡水區興福寮88巷1-12號","121.487356666667","25.1677083333333","6501000","淡水區"
"221010","276-VK","2017/06/21 13:18:51","新北市汐止區汐萬路一段256巷3號","121.653451666667","25.074615","6501100","汐止區"
