"lineid","car","time","location","longitude","latitude","cityid","cityname"
"232007","290-BY","2017/06/22 07:49:24","新北市坪林區九芎林32號","121.702625","24.9214766666667","6502000","坪林區"
"232001","291-BY","2017/06/22 07:49:16","新北市坪林區坪雙路一段115號","121.730156666667","24.947935","6502000","坪林區"
"232010","375-UM","2017/06/22 07:49:08","新北市坪林區厚德岡坑2-1號","121.728735","24.9411333333333","6502000","坪林區"
"232014","705-BZ","2017/06/22 07:49:22","新北市坪林區金瓜寮24-2號","121.680225","24.9081066666667","6502000","坪林區"
"232018","758-BX","2017/06/22 07:45:40","新北市坪林區坪雙路一段31號","121.711696666667","24.9424266666667","6502000","坪林區"
"244003","248-BX","2017/06/22 07:49:22","新北市林口區頂福里24號","121.35258","25.0950533333333","6501700","林口區"
"244018","403-UM","2017/06/22 07:49:07","新北市林口區粉寮路二段160巷28號","121.405123333333","25.09078","6501700","林口區"
"244020","657-BX","2017/06/22 07:49:07","新北市林口區粉寮69號","121.404848333333","25.0908333333333","6501700","林口區"
"243002","548-UM","2017/06/22 07:32:26","新北市泰山區泰林路三段28巷8號","121.418691666667","25.0652533333333","6501600","泰山區"
"222006","289-BY","2017/06/22 07:49:22","新北市深坑區深坑街3巷22號","121.616861666667","25.00178","6501800","深坑區"
"231008","188-VK","2017/06/22 07:49:13","新北市新店區安華路28-1號","121.519565","24.9612216666667","6500600","新店區"
"220020","015-TV","2017/06/22 07:49:06","新北市板橋區文化路一段27-1號","121.459905","25.0127766666667","6500100","板橋區"
"247002","402-BY","2017/06/22 07:49:21","新北市蘆洲區三民路205號","121.4703","25.08785","6501400","蘆洲區"
"226005","5620-A6","2017/06/22 07:49:07","新北市平溪區嶺腳里嶺腳寮74-1號","121.747713333333","25.03249","6502400","平溪區"
"226002","7418-A5","2017/06/22 07:49:23","新北市平溪區南山里乾坑11號","121.782663333333","25.0471933333333","6502400","平溪區"
"226003","AGD-0702","2017/06/22 07:47:18","新北市平溪區嶺腳里嶺腳寮96號","121.744246666667","25.0402266666667","6502400","平溪區"
"223006","022-BY","2017/06/22 07:49:13","新北市石碇區靜安路一段197號","121.672681666667","25.0082533333333","6501900","石碇區"
"223002","198-BX","2017/06/22 07:49:10","新北市石碇區北宜路五段大湖巷6-1號","121.632848333333","24.9429683333333","6501900","石碇區"
"223003","205-TH","2017/06/22 07:49:26","新北市石碇區蛇舌子7號","121.664031666667","24.9662366666667","6501900","石碇區"
"223001","592-UM","2017/06/22 07:48:05","新北市石碇區蛇舌子3號","121.664996666667","24.96782","6501900","石碇區"
"223004","660-BX","2017/06/22 07:49:11","新北市深坑區文山路一段2號","121.646128333333","25.00925","6501900","石碇區"
"223007","661-BX","2017/06/22 07:49:14","新北市石碇區大溪墘2-4號","121.698756666667","25.012285","6501900","石碇區"
"223005","677-TV","2017/06/22 07:49:11","新北市石碇區新興坑31號","121.64922","25.01413","6501900","石碇區"
"227007","282-VK","2017/06/22 07:49:13","新北市雙溪區雙溪里太平路54號","121.8648","25.0355033333333","6502500","雙溪區"
"252004","249-BX","2017/06/22 07:49:27","新北市三芝區店子里店子72-2號","121.50736","25.2026016666667","6502100","三芝區"
"252007","AAC-283","2017/06/22 00:09:37","新北市三芝區埔坪里埔頭坑41號","121.504506666667","25.2644366666667","6502100","三芝區"
"237001","159-UY","2017/06/22 07:49:11","新北市三峽區學成路256號","121.375158333333","24.9424533333333","6500900","三峽區"
"236009","165-UM","2017/06/22 07:49:24","新北市土城區永豐路252號","121.468655","24.98006","6501300","土城區"
"236003","339-SR","2017/06/22 07:49:16","新北市土城區龍泉路153號","121.452815","24.9457833333333","6501300","土城區"
"242020","AAC-296","2017/06/22 07:49:12","新北市新莊區中港路319號","121.452655","25.0448633333333","6500500","新莊區"
"242028","986-R7","2017/06/22 07:49:12","新北市新莊區幸福路674號","121.450851666667","25.0493516666667","6500500","新莊區"
"242047","751-BX","2017/06/22 07:49:17","新北市新莊區龍安路253號","121.419613333333","25.02007","6500500","新莊區"
"242024","615-BX","2017/06/22 07:49:18","新北市新莊區新泰路502巷2號","121.442633333333","25.0463183333333","6500500","新莊區"
"242022","613-BX","2017/06/22 07:49:12","新北市新莊區中港一街142號","121.44662","25.0449366666667","6500500","新莊區"
"242026","612-BX","2017/06/22 07:49:13","新北市新莊區中平路82巷29號","121.44627","25.0449966666667","6500500","新莊區"
"242035","566-BX","2017/06/22 07:49:26","新北市新莊區新樹路133號","121.436916666667","25.025865","6500500","新莊區"
"242040","497-BY","2017/06/22 07:49:09","新北市新莊區新樹路115號","121.437341666667","25.0265983333333","6500500","新莊區"
"242003","442-UM","2017/06/22 07:49:11","新北市新莊區復興路一段193號","121.451885","25.0435333333333","6500500","新莊區"
"242045","441-UM","2017/06/22 07:49:10","新北市新莊區新樹路67巷18號","121.440113333333","25.0301116666667","6500500","新莊區"
"242049","440-UM","2017/06/22 07:49:08","新北市新莊區瓊林南路71-13號","121.435248333333","25.0157483333333","6500500","新莊區"
"242030","415-TV","2017/06/22 07:49:09","新北市新莊區新泰路500號","121.442508333333","25.0459933333333","6500500","新莊區"
"242001","413-TV","2017/06/22 07:49:21","新北市新莊區新莊路773號","121.441965","25.0326216666667","6500500","新莊區"
"242038","400-BY","2017/06/22 07:49:17","新北市新莊區新樹路123-1號","121.43714","25.0262733333333","6500500","新莊區"
"242059","362-BY","2017/06/22 07:49:21","新北市新莊區三和路12-21號","121.441858333333","25.0384283333333","6500500","新莊區"
"242057","353-BY","2017/06/22 07:49:18","新北市新莊區三和路12-21號","121.442166666667","25.0380083333333","6500500","新莊區"
"242010","132-UY","2017/06/22 07:49:22","新北市新莊區中誠街44號","121.45125","25.048065","6500500","新莊區"
"242018","135-UY","2017/06/22 07:49:27","新北市新莊區中港路286號","121.452943333333","25.0443783333333","6500500","新莊區"
"242043","172-VK","2017/06/22 07:49:11","新北市新莊區富國路100號","121.42142","25.0254416666667","6500500","新莊區"
"242006","173-VK","2017/06/22 07:49:23","新北市新莊區新泰路500號","121.442506666667","25.0462066666667","6500500","新莊區"
"242012","175-VK","2017/06/22 07:49:09","新北市新莊區新泰路488號","121.442438333333","25.0458483333333","6500500","新莊區"
"242055","176-VK","2017/06/22 07:49:09","新北市新莊區中正路473-1號","121.441941666667","25.0331866666667","6500500","新莊區"
"242033","347-TH","2017/06/22 07:49:22","新北市新莊區瓊林路56號","121.445601666667","25.02869","6500500","新莊區"
"242016","348-TH","2017/06/22 07:49:23","新北市新莊區中港一街142號","121.446546666667","25.0449733333333","6500500","新莊區"
"242052","349-TH","2017/06/22 07:49:22","新北市新莊區新莊路773號","121.44199","25.03267","6500500","新莊區"
"242014","350-TH","2017/06/22 07:49:13","新北市新莊區中正路338號","121.445268333333","25.0350716666667","6500500","新莊區"
"242008","351-TH","2017/06/22 07:49:10","新北市新莊區中環路三段2-1號","121.443095","25.055615","6500500","新莊區"
