"lineid","car","time","location","longitude","latitude","cityid","cityname"
"231007","189-VK","2017/07/21 09:59:40","新北市新店區新潭路三段215巷25號","121.50809","24.9041033333333","6500600","新店區"
"231009","192-VK","2017/07/21 09:46:19","新北市新店區平廣路一段256號","121.507298333333","24.8879533333333","6500600","新店區"
"247001","402-BY","2017/07/21 09:59:34","新北市蘆洲區復興路85號","121.476566666667","25.0875216666667","6501400","蘆洲區"
"223002","198-BX","2017/07/21 09:59:16","新北市石碇區小粗坑(潭邊里)9-2號","121.678926666667","24.9863283333333","6501900","石碇區"
"227005","282-VK","2017/07/21 09:22:56","新北市雙溪區泰平里溪尾寮2-2號","121.818736666667","24.964935","6502500","雙溪區"
