"lineid","car","time","location","longitude","latitude","cityid","cityname"
"234044","148-BY","2017/07/21 12:29:39","新北市永和區福和路1號","121.526465","25.0099333333333","6500400","永和區"
"234012","149-BY","2017/07/21 12:29:46","新北市永和區福和路1號","121.526243333333","25.0095116666667","6500400","永和區"
"234078","298-R6","2017/07/21 12:29:50","新北市永和區林森路30號","121.525748333333","25.0051583333333","6500400","永和區"
"234084","338-UY","2017/07/21 12:29:46","新北市永和區環河東路二段92號","121.524418333333","25.01061","6500400","永和區"
"234068","552-UM","2017/07/21 11:15:57","新北市永和區福和路1號","121.526413333333","25.009935","6500400","永和區"
"234010","9373-KE","2017/07/21 12:29:53","新北市永和區環河西路二段121號","121.506013333333","25.01456","6500400","永和區"
"235031","255-BX","2017/07/21 12:29:53","新北市中和區和城路一段271巷1號","121.485518333333","24.991885","6500300","中和區"
"235025","378-QA","2017/07/21 03:45:42","新北市中和區員山路36巷13號","121.48446","24.99103","6500300","中和區"
"247001","402-BY","2017/07/21 10:36:15","新北市五股區中興路三段3-6號","121.449476666667","25.07877","6501400","蘆洲區"
