"lineid","car","time","location","longitude","latitude","cityid","cityname"
"234044","148-BY","2017/07/21 13:59:39","新北市永和區永利路358號","121.526186666667","25.00334","6500400","永和區"
"234012","149-BY","2017/07/21 13:59:46","新北市永和區仁愛路283號","121.505636666667","25.0095433333333","6500400","永和區"
"234005","207-UY","2017/07/21 13:59:39","新北市中和區中和路302-1號","121.508823333333","24.9999516666667","6500400","永和區"
"234078","298-R6","2017/07/21 13:59:50","新北市永和區國中路12號","121.524391666667","25.004975","6500400","永和區"
"234036","336-UY","2017/07/21 13:59:41","新北市永和區成功路一段112號","121.526651666667","25.002535","6500400","永和區"
"234062","337-UY","2017/07/21 13:59:56","新北市永和區中正路412巷2弄11號","121.518521666667","25.001905","6500400","永和區"
"234084","338-UY","2017/07/21 13:59:46","新北市永和區福和路51號","121.523208333333","25.0078983333333","6500400","永和區"
"234068","552-UM","2017/07/21 13:59:41","新北市永和區永亨路31號","121.519735","25.0061716666667","6500400","永和區"
"234052","553-UM","2017/07/21 13:59:47","新北市永和區竹林路39巷46號","121.52026","25.0151983333333","6500400","永和區"
"234015","745-BX","2017/07/21 13:59:41","新北市永和區文化路124號","121.513108333333","25.01528","6500400","永和區"
"234028","746-BX","2017/07/21 13:59:43","新北市永和區民族街81巷58號","121.520076666667","24.99648","6500400","永和區"
"234060","AAD-866","2017/07/21 13:59:44","新北市永和區中正路151巷1號","121.516075","24.9984983333333","6500400","永和區"
"234040","862-TW","2017/07/21 13:59:40","新北市永和區中和路335巷14號","121.507546666667","25.0002566666667","6500400","永和區"
"234048","863-TW","2017/07/21 13:59:48","新北市永和區保安路260號","121.506035","25.0122783333333","6500400","永和區"
"234025","9371-KE","2017/07/21 13:59:50","新北市永和區安樂路320號","121.514378333333","25.00555","6500400","永和區"
"234010","9373-KE","2017/07/21 13:59:52","新北市永和區仁愛路352巷124號","121.50025","25.0085966666667","6500400","永和區"
"248019","225-UY","2017/07/21 13:59:32","新北市五股區凌雲路三段57號","121.425333333333","25.1250083333333","6501500","五股區"
"234022","9380-KE","2017/07/21 13:59:42","新北市永和區永和路二段336號","121.51619","25.0166816666667","6500400","永和區"
"234076","969-R7","2017/07/21 13:59:38","新北市永和區民族街43巷8號","121.518971666667","24.99835","6500400","永和區"
"234072","AAC-211","2017/07/21 13:59:44","新北市永和區竹林路201巷2號","121.52104","25.009085","6500400","永和區"
"234066","AAC-212","2017/07/21 13:59:46","新北市永和區永貞路364-1號","121.51007","25.0067066666667","6500400","永和區"
"234001","AAC-295","2017/07/21 13:59:49","新北市永和區福和路327號","121.515653333333","25.007065","6500400","永和區"
"231002","002-UM","2017/07/21 13:59:34","新北市新店區中正路546號","121.53364","24.9864666666667","6500600","新店區"
"231025","0293-UT","2017/07/21 13:59:48","新北市新店區中正路275巷3號","121.53764","24.9740566666667","6500600","新店區"
"231028","046-UY","2017/07/21 13:59:35","新北市新店區安和路三段83號","121.517855","24.9837983333333","6500600","新店區"
"231030","047-UY","2017/07/21 13:59:48","新北市新店區安興路7-1號","121.514966666667","24.9684866666667","6500600","新店區"
"231029","106-UY","2017/07/21 13:59:44","新北市新店區安康路二段3-1號","121.516076666667","24.9637083333333","6500600","新店區"
"231018","107-UY","2017/07/21 13:59:48","新北市新店區中央路99號","121.531078333333","24.97509","6500600","新店區"
"231012","110-UY","2017/07/21 13:59:44","新北市新店區五峰路87號","121.546256666667","24.9673866666667","6500600","新店區"
"231022","187-VK","2017/07/21 13:59:34","新北市新店區屈尺路2號","121.549361666667","24.922525","6500600","新店區"
"231026","256-BX","2017/07/21 13:59:54","新北市新店區安康路一段24巷4號","121.532415","24.9605016666667","6500600","新店區"
"231034","268-BY","2017/07/21 13:59:52","新北市新店區達觀路6號","121.50554","24.9427416666667","6500600","新店區"
"231016","AAD-862","2017/07/21 13:59:55","新北市新店區北宜路二段118號","121.556726666667","24.95372","6500600","新店區"
"231027","3712-VJ","2017/07/21 13:59:39","新北市新店區中興路一段24號","121.538785","24.95828","6500600","新店區"
"231024","3713-VJ","2017/07/21 13:59:43","新北市新店區力行路14巷14弄1號","121.53919","24.9653066666667","6500600","新店區"
"231038","4715-K9","2017/07/21 13:59:39","新北市新店區溪洲路121號","121.530958333333","24.9629283333333","6500600","新店區"
"231036","512-UM","2017/07/21 13:59:51","新北市新店區安祥路109巷1弄59號","121.47814","24.96086","6500600","新店區"
"231023","513-UM","2017/07/21 13:59:33","新北市新店區文中路40號","121.539753333333","24.956505","6500600","新店區"
"231035","515-UM","2017/07/21 13:59:49","新北市新店區安和路一段52巷2-1號","121.517686666667","24.9663316666667","6500600","新店區"
"231006","617-UM","2017/07/21 13:59:35","新北市新店區北宜路二段209號","121.55317","24.9532633333333","6500600","新店區"
"231001","619-UM","2017/07/21 13:59:37","新北市新店區三民路45號","121.537141666667","24.9709483333333","6500600","新店區"
"231003","641-BX","2017/07/21 13:59:52","新北市新店區中興路一段34號","121.538718333333","24.9589566666667","6500600","新店區"
"231013","719-UM","2017/07/21 13:59:52","新北市新店區明德路66號","121.541628333333","24.979575","6500600","新店區"
"231032","720-UM","2017/07/21 13:59:48","新北市新店區安康路一段35-1號","121.532026666667","24.9605533333333","6500600","新店區"
"231005","897-TW","2017/07/21 13:59:42","新北市新店區中興路三段188號","121.543988333333","24.981555","6500600","新店區"
"231004","899-TW","2017/07/21 13:59:50","新北市新店區寶橋路8號","121.54401","24.97364","6500600","新店區"
"231037","AKT-0513","2017/07/21 13:59:51","新北市新店區安康路三段165巷4號","121.489653333333","24.9513116666667","6500600","新店區"
"235030","003-UY","2017/07/21 13:59:39","新北市中和區中山路二段131巷5弄28號","121.503503333333","25.0033533333333","6500300","中和區"
"235027","006-UY","2017/07/21 13:59:52","新北市中和區中正路513號","121.488281666667","24.9942933333333","6500300","中和區"
"235020","096-UM","2017/07/21 13:59:34","新北市中和區中正路1220巷5號","121.479751666667","25.0112433333333","6500300","中和區"
"235003","097-UM","2017/07/21 13:59:49","新北市中和區自立路58巷25弄2號","121.522996666667","24.9913066666667","6500300","中和區"
"235029","098-UM","2017/07/21 13:59:43","新北市中和區福祥路158號","121.498441666667","25.0077066666667","6500300","中和區"
"235001","150-BY","2017/07/21 13:59:39","新北市中和區保健路46巷15號","121.509298333333","24.9964183333333","6500300","中和區"
"235022","151-BY","2017/07/21 13:59:48","新北市中和區員山路143巷32號","121.479798333333","24.9957733333333","6500300","中和區"
"235019","183-VK","2017/07/21 13:59:50","新北市中和區民生街2號","121.470973333333","25.006435","6500300","中和區"
"235002","185-VK","2017/07/21 13:59:45","新北市中和區大勇街31巷5號","121.517195","24.994335","6500300","中和區"
"235013","186-VK","2017/07/21 13:59:37","新北市中和區景安路167巷17號","121.506338333333","24.994825","6500300","中和區"
"235031","255-BX","2017/07/21 13:59:33","新北市中和區新生街189號","121.483728333333","25.0003183333333","6500300","中和區"
"235008","293-VK","2017/07/21 13:59:55","新北市中和區中興街204號","121.499903333333","24.990225","6500300","中和區"
"235036","301-VK","2017/07/21 13:59:51","新北市中和區中山路二段1號","121.505393333333","25.005895","6500300","中和區"
"235007","352-BY","2017/07/21 13:59:47","新北市中和區成功路95號","121.526071666667","24.99174","6500300","中和區"
"235015","376-QA","2017/07/21 13:59:35","新北市中和區忠孝街13號","121.510018333333","24.982835","6500300","中和區"
"235032","377-QA","2017/07/21 13:59:42","新北市中和區圓通路198巷7號","121.495651666667","24.99435","6500300","中和區"
"235025","378-QA","2017/07/21 13:59:42","新北市中和區中山路三段71號","121.476365","25.0057533333333","6500300","中和區"
"235014","4979-A6","2017/07/21 13:59:49","新北市中和區華新街1號","121.507446666667","24.9854133333333","6500300","中和區"
"235033","4980-A6","2017/07/21 13:59:35","新北市中和區中和路217巷18弄2號","121.504556666667","25.0002133333333","6500300","中和區"
"235006","551-UM","2017/07/21 13:59:42","新北市中和區秀朗路三段24號","121.526453333333","24.996465","6500300","中和區"
"235009","565-BX","2017/07/21 13:59:45","新北市中和區景新街467巷6號","121.513746666667","24.9881533333333","6500300","中和區"
"235034","611-BX","2017/07/21 13:59:45","新北市中和區南山路6號","121.501961666667","24.99875","6500300","中和區"
"235018","640-BX","2017/07/21 13:59:51","新北市中和區民享街35巷3號","121.474483333333","25.0039583333333","6500300","中和區"
"235024","647-TV","2017/07/21 13:59:54","新北市中和區民治街20號","121.475118333333","25.0043483333333","6500300","中和區"
"235011","732-UM","2017/07/21 13:59:43","新北市中和區興南路二段54巷11弄13號","121.505538333333","24.9852533333333","6500300","中和區"
"235010","733-UM","2017/07/21 13:59:37","新北市中和區興南路二段5號","121.508131666667","24.9862766666667","6500300","中和區"
"235035","783-BX","2017/07/21 13:59:45","新北市中和區立德街51號","121.488048333333","25.00746","6500300","中和區"
"235026","800-TS","2017/07/21 13:59:50","新北市中和區中山路二段366巷13-1號","121.491816666667","25.0043816666667","6500300","中和區"
"235021","801-TS","2017/07/21 13:59:36","新北市中和區民安街25巷23號","121.480638333333","24.9998366666667","6500300","中和區"
"235005","802-TS","2017/07/21 13:59:49","新北市中和區中安街32號","121.513115","25.0028733333333","6500300","中和區"
"235016","805-TS","2017/07/21 13:59:42","新北市中和區興南路二段131號","121.503648333333","24.981865","6500300","中和區"
"235012","896-TW","2017/07/21 13:59:42","新北市中和區華新街46號","121.507926666667","24.984145","6500300","中和區"
"235017","900-TW","2017/07/21 13:59:39","新北市中和區華順街135巷3號","121.465383333333","24.9961483333333","6500300","中和區"
"235001","AAC-213","2017/07/21 13:59:53","新北市中和區秀朗路三段175巷10號","121.52503","24.9913683333333","6500300","中和區"
"235023","AAC-215","2017/07/21 13:59:54","新北市中和區圓通路369巷33弄7號","121.491238333333","24.9881183333333","6500300","中和區"
"220016","013-TV","2017/07/21 13:59:47","新北市板橋區中山路二段437號","121.48128","25.0201233333333","6500100","板橋區"
"220013","072-UY","2017/07/21 13:59:51","新北市板橋區漢生東路340巷1號","121.471726666667","25.00742","6500100","板橋區"
"220034","073-UY","2017/07/21 13:59:38","新北市板橋區民權路209號","121.457981666667","25.0148533333333","6500100","板橋區"
"220105","075-UY","2017/07/21 13:59:38","新北市板橋區莊敬路133號","121.471831666667","25.0252583333333","6500100","板橋區"
"220047","120-SR","2017/07/21 13:59:41","新北市板橋區民生路三段115號","121.466213333333","25.0253933333333","6500100","板橋區"
"247019","893-R6","2017/07/21 13:59:48","新北市蘆洲區民族路422巷82弄2號","121.4737","25.09368","6501400","蘆洲區"
"247009","546-UM","2017/07/21 13:59:43","新北市蘆洲區集賢路226號","121.482466666667","25.086455","6501400","蘆洲區"
"247017","500-BY","2017/07/21 13:59:32","新北市蘆洲區民族路327巷100-1號","121.47504","25.09027","6501400","蘆洲區"
"247001","402-BY","2017/07/21 13:59:37","新北市三重區三德街68號","121.483801666667","25.086815","6501400","蘆洲區"
"247005","341-TH","2017/07/21 13:59:35","新北市蘆洲區九芎街136號","121.46511","25.078985","6501400","蘆洲區"
"247023","337-TH","2017/07/21 13:59:50","新北市蘆洲區光榮路120巷9號","121.46521","25.0887933333333","6501400","蘆洲區"
"247001","336-TH","2017/07/21 13:59:50","新北市蘆洲區永平街32巷72號","121.460493333333","25.0934833333333","6501400","蘆洲區"
"247013","057-VK","2017/07/21 13:59:54","新北市蘆洲區保和街71號","121.469421666667","25.086115","6501400","蘆洲區"
"247003","056-VK","2017/07/21 13:59:46","新北市蘆洲區中華街6號","121.46343","25.0816566666667","6501400","蘆洲區"
"247011","007-UY","2017/07/21 13:59:38","新北市蘆洲區民族路156號","121.479601666667","25.08614","6501400","蘆洲區"
"247021","002-UY","2017/07/21 13:59:47","新北市蘆洲區中正路186號","121.466955","25.0880416666667","6501400","蘆洲區"
"247015","001-UY","2017/07/21 13:59:50","新北市蘆洲區光華路22巷4號","121.469418333333","25.0836466666667","6501400","蘆洲區"
"208004","AAC-292","2017/07/21 13:59:40","新北市金山區重和里六股林口75號","121.60142","25.2168983333333","6502700","金山區"
"207002","749-BX","2017/07/21 13:59:44","新北市萬里區溪底里瑞泉路1號","121.610956666667","25.145955","6502800","萬里區"
"207001","463-BY","2017/07/21 13:59:49","新北市萬里區磺潭里清水2-2號","121.641076666667","25.20249","6502800","萬里區"
"236067","105-UM","2017/07/21 13:59:37","新北市土城區員福街50號","121.44065","24.97902","6501300","土城區"
"236041","107-UM","2017/07/21 13:59:41","新北市土城區中央路二段95號","121.442106666667","24.97801","6501300","土城區"
"236077","166-UM","2017/07/21 13:59:56","新北市土城區大安路2號","121.432881666667","24.965485","6501300","土城區"
"236029","253-BX","2017/07/21 13:59:51","新北市土城區城林路6巷80號","121.438373333333","24.9798583333333","6501300","土城區"
"236025","269-VK","2017/07/21 13:59:41","新北市土城區承天路18號","121.439438333333","24.9634033333333","6501300","土城區"
"236013","270-VK","2017/07/21 13:59:35","新北市土城區城林路6巷80號","121.438543333333","24.9797116666667","6501300","土城區"
"236035","271-VK","2017/07/21 13:59:52","新北市土城區城林路6巷80號","121.438478333333","24.9796933333333","6501300","土城區"
"236019","401-BY","2017/07/21 13:59:50","新北市土城區城林路6巷80號","121.438548333333","24.97968","6501300","土城區"
"236006","498-BY","2017/07/21 13:59:52","新北市土城區中央路一段245號","121.445436666667","24.98608","6501300","土城區"
"236057","912-UM","2017/07/21 13:59:46","新北市土城區中央路三段196號","121.430388333333","24.9648816666667","6501300","土城區"
"236046","913-UM","2017/07/21 13:59:38","新北市土城區員福街50號","121.440563333333","24.9790666666667","6501300","土城區"
"236061","915-UM","2017/07/21 13:59:41","新北市土城區中華路二段2號","121.439428333333","24.9795716666667","6501300","土城區"
"236054","AAC-216","2017/07/21 13:59:34","新北市土城區中華路二段102號","121.43808","24.974355","6501300","土城區"
"220027","145-BY","2017/07/21 13:59:52","新北市板橋區民權路254號","121.458285","25.0149683333333","6500100","板橋區"
"220042","146-RM","2017/07/21 13:59:51","新北市板橋區民生路三段32-6號","121.467353333333","25.024855","6500100","板橋區"
"220028","200-UY","2017/07/21 13:59:35","新北市板橋區大觀路二段265巷1弄52號","121.44509","24.9979283333333","6500100","板橋區"
"220030","610-BX","2017/07/21 13:59:44","新北市板橋區篤行路三段玉平巷76弄10號","121.427738333333","24.985945","6500100","板橋區"
"220050","245-BX","2017/07/21 13:59:48","新北市板橋區文化路二段26號","121.469115","25.0244033333333","6500100","板橋區"
"220017","258-TC","2017/07/21 13:59:45","新北市板橋區大華街70號","121.459095","25.00579","6500100","板橋區"
"220004","276-BY","2017/07/21 13:59:41","新北市板橋區信義路148號","121.458876666667","24.9918433333333","6500100","板橋區"
"220020","277-BY","2017/07/21 13:59:47","新北市板橋區大觀路三段50巷59號","121.431786666667","24.99594","6500100","板橋區"
"220012","280-UM","2017/07/21 13:59:42","新北市板橋區板新路237號","121.46762","25.016025","6500100","板橋區"
"220019","283-VK","2017/07/21 13:59:51","新北市板橋區忠孝路196巷27號","121.465536666667","25.0017633333333","6500100","板橋區"
"220043","285-UM","2017/07/21 13:59:54","新北市板橋區文化路二段37號","121.468931666667","25.0249","6500100","板橋區"
"220001","285-VK","2017/07/21 13:59:47","新北市板橋區中山路二段89巷62號","121.473691666667","25.0174466666667","6500100","板橋區"
"220031","286-VK","2017/07/21 13:59:53","新北市板橋區大觀路一段38巷156弄39號","121.442626666667","25.0058533333333","6500100","板橋區"
"220029","287-VK","2017/07/21 13:59:37","新北市板橋區光華街15巷28號","121.453215","25.0117833333333","6500100","板橋區"
"220039","288-VK","2017/07/21 13:59:54","新北市板橋區四維路177巷2弄1號","121.463996666667","25.0262666666667","6500100","板橋區"
"220009","293-UM","2017/07/21 13:59:43","新北市板橋區永豐街120巷2弄2號","121.476558333333","25.0205766666667","6500100","板橋區"
"220032","296-UM","2017/07/21 13:59:45","新北市板橋區大觀路二段152號","121.441786666667","24.99874","6500100","板橋區"
"220023","297-UM","2017/07/21 13:59:53","新北市板橋區館前西路213巷15號","121.454378333333","25.0081166666667","6500100","板橋區"
"220010","303-R5","2017/07/21 13:59:44","新北市板橋區三民路二段245巷4弄8號","121.480986666667","25.0121316666667","6500100","板橋區"
"220041","307-R5","2017/07/21 13:59:56","新北市板橋區文化路一段102號","121.464591666667","25.0180783333333","6500100","板橋區"
"220038","487-VK","2017/07/21 13:59:51","新北市板橋區文化路二段16-2號","121.468733333333","25.0242533333333","6500100","板橋區"
"220037","491-VK","2017/07/21 13:59:47","新北市板橋區文化路二段16-2號","121.468801666667","25.0242633333333","6500100","板橋區"
"220104","560-BX","2017/07/21 13:59:40","新北市板橋區中正路343號","121.454865","25.0204483333333","6500100","板橋區"
"220052","561-BX","2017/07/21 13:59:48","新北市板橋區縣民大道二段279號","121.469936666667","25.0179166666667","6500100","板橋區"
"220011","609-BX","2017/07/21 13:59:39","新北市板橋區中山路二段200號","121.477741666667","25.0176283333333","6500100","板橋區"
"220040","637-BX","2017/07/21 13:59:51","新北市板橋區雙十路二段47巷27號","121.47528","25.0256016666667","6500100","板橋區"
"220005","686-BX","2017/07/21 13:59:44","新北市板橋區館前東路10-4號","121.459876666667","25.007065","6500100","板橋區"
"220025","687-BX","2017/07/21 13:59:40","新北市板橋區龍興街73巷56號","121.441781666667","25.00318","6500100","板橋區"
"220002","741-BX","2017/07/21 13:59:38","新北市板橋區後埔街32號","121.460476666667","25.00615","6500100","板橋區"
"220003","827-TW","2017/07/21 13:59:39","新北市板橋區民安街14號","121.466798333333","25.0116516666667","6500100","板橋區"
"220014","829-TW","2017/07/21 13:59:51","新北市板橋區三民路二段正隆巷12弄24號","121.477455","25.0138883333333","6500100","板橋區"
"220051","830-TW","2017/07/21 13:59:53","新北市板橋區懷德街233巷6號","121.480908333333","25.028655","6500100","板橋區"
"220045","831-TW","2017/07/21 13:59:07","新北市板橋區莒光路97號","121.472415","25.0241433333333","6500100","板橋區"
"220022","895-R6","2017/07/21 13:59:46","新北市板橋區南雅南路一段33號","121.456113333333","25.006515","6500100","板橋區"
"220021","985-R7","2017/07/21 13:59:54","新北市板橋區館前西路195號","121.455211666667","25.0083183333333","6500100","板橋區"
"220046","AAC-210","2017/07/21 13:59:39","新北市板橋區陽明街162號","121.463471666667","25.0244033333333","6500100","板橋區"
"220018","AAC-253","2017/07/21 13:59:46","新北市板橋區館前東路1號","121.459521666667","25.007275","6500100","板橋區"
