"lineid","car","time","location","longitude","latitude","cityid","cityname"
"234015","745-BX","2017/07/21 15:47:44","新北市永和區福和路1號","121.526416666667","25.0098583333333","6500400","永和區"
"249005","172-UM","2017/07/21 17:29:45","新北市八里區荖阡坑路67號","121.406205","25.1276866666667","6502300","八里區"
"249004","303-UY","2017/07/21 17:29:42","新北市八里區賢一街1號","121.414605","25.15534","6502300","八里區"
"249002","305-UY","2017/07/21 17:29:48","新北市八里區龍形二街21號","121.450586666667","25.1317683333333","6502300","八里區"
"249003","593-UM","2017/07/21 17:29:53","新北市八里區中山路二段398號","121.400513333333","25.1478933333333","6502300","八里區"
"249001","759-BX","2017/07/21 17:29:53","新北市八里區大崁腳47-2號","121.424328333333","25.1589433333333","6502300","八里區"
"248010","682-TV","2017/07/21 15:45:14","新北市五股區中興路二段63巷17號","121.460283333333","25.0755216666667","6501500","五股區"
"244013","069-UM","2017/07/21 17:29:52","新北市林口區中山路143號","121.387536666667","25.0791466666667","6501700","林口區"
"244007","080-UY","2017/07/21 17:29:37","新北市林口區湖子7-8號","121.38821","25.092625","6501700","林口區"
"244009","410-SL","2017/07/21 17:29:42","新北市林口區中湖40-9號","121.383233333333","25.0911633333333","6501700","林口區"
"244023","483-VK","2017/07/21 17:29:32","新北市林口區興林一街92號","121.39136","25.07272","6501700","林口區"
"244017","485-VK","2017/07/21 17:29:48","新北市林口區粉寮路一段84號","121.397321666667","25.0797883333333","6501700","林口區"
"244021","657-BX","2017/07/21 17:29:35","新北市林口區粉寮路一段149號","121.399221666667","25.081405","6501700","林口區"
"231046","278-BY","2017/07/21 17:29:34","新北市新店區直潭路92號","121.5309","24.93759","6500600","新店區"
"241011","013-R5","2017/07/21 17:29:46","新北市三重區河邊北街124巷3號","121.503556666667","25.071495","6500200","三重區"
"241015","062-VK","2017/07/21 17:29:38","新北市三重區長元街65巷16弄15號","121.503508333333","25.06621","6500200","三重區"
"241017","063-VK","2017/07/21 17:29:51","新北市三重區大同北路34巷19號","121.494456666667","25.062415","6500200","三重區"
"241024","065-VK","2017/07/21 17:29:50","新北市三重區國道路一段58巷15號","121.481323333333","25.0720416666667","6500200","三重區"
"241002","090-VK","2017/07/21 17:29:38","新北市三重區自強路五段61號","121.494648333333","25.0818666666667","6500200","三重區"
"241003","091-VK","2017/07/21 17:29:36","新北市三重區集賢路87-1號","121.493793333333","25.086965","6500200","三重區"
"241019","156-TC","2017/07/21 17:29:49","新北市三重區六張街220號","121.487905","25.0682983333333","6500200","三重區"
"241001","265-UM","2017/07/21 17:29:34","新北市三重區自強路五段55號","121.494506666667","25.0817183333333","6500200","三重區"
"241016","266-UM","2017/07/21 17:29:36","新北市三重區信義西街41號","121.495291666667","25.0639783333333","6500200","三重區"
"241022","267-UM","2017/07/21 17:29:53","新北市三重區新北大道一段7號","121.489641666667","25.0613433333333","6500200","三重區"
"241018","268-UM","2017/07/21 17:29:42","新北市三重區中正北路25巷2號","121.493186666667","25.062705","6500200","三重區"
"241025","271-UM","2017/07/21 17:29:34","新北市三重區中正北路392-1號","121.475936666667","25.07017","6500200","三重區"
"241007","398-BY","2017/07/21 17:29:37","新北市三重區三和路四段145巷219號","121.488876666667","25.0795766666667","6500200","三重區"
"241008","412-TH","2017/07/21 17:29:37","新北市三重區車路頭街153號","121.48375","25.0769883333333","6500200","三重區"
"241020","413-TH","2017/07/21 17:29:54","新北市三重區忠孝路二段34號","121.485823333333","25.0710633333333","6500200","三重區"
"241005","478-VK","2017/07/21 17:29:56","新北市三重區仁愛街602號","121.483871666667","25.0809333333333","6500200","三重區"
"241030","480-VK","2017/07/21 17:29:41","新北市三重區中正南路269號","121.493053333333","25.0523833333333","6500200","三重區"
"241014","543-UM","2017/07/21 17:29:55","新北市三重區長壽街52-1號","121.500731666667","25.0682583333333","6500200","三重區"
"241023","545-UM","2017/07/21 17:29:54","新北市三重區忠孝路三段84巷30號","121.481513333333","25.0641333333333","6500200","三重區"
"241012","941-UM","2017/07/21 17:29:42","新北市三重區仁興街24巷9號","121.49905","25.075135","6500200","三重區"
"241029","942-UM","2017/07/21 17:29:39","新北市三重區重新路三段157號","121.489661666667","25.0586216666667","6500200","三重區"
"241033","AAC-255","2017/07/21 17:29:36","新北市三重區興德路133號","121.470053333333","25.0527483333333","6500200","三重區"
"235061","378-QA","2017/07/21 17:03:27","新北市中和區和城路一段271巷1號","121.485421666667","24.9917533333333","6500300","中和區"
"235062","800-TS","2017/07/21 16:45:42","新北市中和區員山路36巷16-3號","121.484883333333","24.9913866666667","6500300","中和區"
"247020","893-R6","2017/07/21 17:29:52","新北市蘆洲區仁愛街101巷10號","121.470666666667","25.094035","6501400","蘆洲區"
"247010","546-UM","2017/07/21 17:29:46","新北市蘆洲區集賢路406號","121.479895","25.0819116666667","6501400","蘆洲區"
"247018","500-BY","2017/07/21 17:29:44","新北市蘆洲區水湳街32號","121.471755","25.0878866666667","6501400","蘆洲區"
"247001","402-BY","2017/07/21 16:41:56","新北市五股區中興路三段3-6號","121.449501666667","25.078715","6501400","蘆洲區"
"247006","341-TH","2017/07/21 17:29:34","新北市蘆洲區長安街22巷46號","121.4652","25.0804266666667","6501400","蘆洲區"
"247008","339-TH","2017/07/21 17:29:45","新北市蘆洲區信義路34巷40號","121.474963333333","25.0783283333333","6501400","蘆洲區"
"247024","337-TH","2017/07/21 17:29:51","新北市蘆洲區長興路290號","121.460426666667","25.0892516666667","6501400","蘆洲區"
"247002","336-TH","2017/07/21 17:29:32","新北市蘆洲區環堤大道204號","121.45712","25.0912733333333","6501400","蘆洲區"
"247014","057-VK","2017/07/21 17:29:41","新北市蘆洲區三民路38-1號","121.475696666667","25.0830833333333","6501400","蘆洲區"
"247004","056-VK","2017/07/21 17:29:54","新北市蘆洲區長安街249巷40號","121.457741666667","25.08269","6501400","蘆洲區"
"247012","007-UY","2017/07/21 17:29:32","新北市蘆洲區復興路58號","121.47375","25.085935","6501400","蘆洲區"
"247022","002-UY","2017/07/21 17:29:37","新北市蘆洲區三民路293-2號","121.465933333333","25.0906333333333","6501400","蘆洲區"
"228002","663-BX","2017/07/21 17:29:37","新北市貢寮區福隆里興隆街21-1號","121.943368333333","25.0164916666667","6502600","貢寮區"
"228001","670-TC","2017/07/21 17:29:41","新北市貢寮區仁理村仁愛路66巷3號","121.926318333333","25.053745","6502600","貢寮區"
"228003","828-UM","2017/07/21 17:29:53","新北市貢寮區仁理村仁和路2-1號","121.923176666667","25.04865","6502600","貢寮區"
"224010","AGQ-8101","2017/07/21 17:29:46","新北市瑞芳區逢甲路70-1號","121.810785","25.1083766666667","6501200","瑞芳區"
"224006","676-BX","2017/07/21 17:29:47","新北市瑞芳區傑魚坑路173-8號","121.789311666667","25.1090533333333","6501200","瑞芳區"
"224009","285-BY","2017/07/21 17:29:38","新北市瑞芳區汽車路9-13號","121.845866666667","25.1110333333333","6501200","瑞芳區"
"224008","275-VK","2017/07/21 17:29:46","新北市瑞芳區九芎橋路198號","121.834505","25.09893","6501200","瑞芳區"
"224005","271-BY","2017/07/21 17:29:35","新北市瑞芳區海濱路8-6號","121.831668333333","25.1261066666667","6501200","瑞芳區"
"227003","400-TW","2017/07/21 17:29:40","新北市雙溪區平林里梅竹蹊63號","121.848576666667","25.031815","6502500","雙溪區"
"251004","009-UM","2017/07/21 17:29:47","新北市淡水區中正東路二段88巷15號","121.45905","25.1504816666667","6501000","淡水區"
"251002","012-UM","2017/07/21 17:29:38","新北市淡水區中正路一段8巷1弄11號","121.427955","25.1756283333333","6501000","淡水區"
"251013","180-VK","2017/07/21 17:29:44","新北市淡水區大竹圍5號","121.466586666667","25.1952333333333","6501000","淡水區"
"251008","181-VK","2017/07/21 17:29:34","新北市淡水區大同路124巷6號","121.463466666667","25.140385","6501000","淡水區"
"251015","182-VK","2017/07/21 17:29:45","新北市淡水區三空泉15號","121.47271","25.1633333333333","6501000","淡水區"
"251010","413-VK","2017/07/21 17:29:50","新北市淡水區中正路二段211號","121.426205","25.18913","6501000","淡水區"
"251012","441-VK","2017/07/21 17:29:53","新北市淡水區北新路111號","121.447993333333","25.1784266666667","6501000","淡水區"
"251005","443-VK","2017/07/21 17:29:54","新北市淡水區鄧公路31巷6號","121.451521666667","25.1706783333333","6501000","淡水區"
"251001","559-UM","2017/07/21 17:29:42","新北市淡水區中正東路一段125號","121.455363333333","25.1592116666667","6501000","淡水區"
"251006","561-UM","2017/07/21 17:29:48","新北市淡水區大仁街29號","121.442605","25.1754","6501000","淡水區"
"251009","575-R6","2017/07/21 17:29:40","新北市淡水區新生街90巷4號","121.439581666667","25.174445","6501000","淡水區"
"251007","577-R6","2017/07/21 17:29:52","新北市淡水區民生路51-1號","121.462668333333","25.1381633333333","6501000","淡水區"
"251011","650-BX","2017/07/21 17:29:48","新北市淡水區坪頂路712號","121.482483333333","25.1584733333333","6501000","淡水區"
"251003","673-BX","2017/07/21 17:29:40","新北市淡水區中山路159-1號","121.440796666667","25.1729216666667","6501000","淡水區"
"207003","550-UM","2017/07/21 17:29:35","新北市萬里區龜吼里翡翠路17號","121.683371666667","25.18726","6502800","萬里區"
"207004","225-TW","2017/07/21 17:29:43","新北市萬里區萬里里景美路11-1號","121.6851","25.173175","6502800","萬里區"
"252002","178-VK","2017/07/21 17:29:48","新北市三芝區忠孝街1-14號","121.505378333333","25.2540116666667","6502100","三芝區"
"252001","702-TV","2017/07/21 17:29:38","新北市三芝區長安街119號","121.498035","25.2596466666667","6502100","三芝區"
"237015","649-BX","2017/07/21 17:29:51","新北市三峽區中山路459巷163-3號","121.348688333333","24.9328033333333","6500900","三峽區"
"242021","AAC-296","2017/07/21 17:29:36","新北市新莊區中正路136號","121.452498333333","25.03629","6500500","新莊區"
"242029","986-R7","2017/07/21 17:29:43","新北市新莊區復興路二段174號","121.458575","25.0442966666667","6500500","新莊區"
"242048","751-BX","2017/07/21 17:29:49","新北市新莊區四維路210號","121.421348333333","25.0201583333333","6500500","新莊區"
"242025","615-BX","2017/07/21 17:29:54","新北市新莊區中港路272號","121.453215","25.0440066666667","6500500","新莊區"
"242023","613-BX","2017/07/21 17:29:51","新北市新莊區公園路37號","121.453091666667","25.0402","6500500","新莊區"
"242027","612-BX","2017/07/21 17:29:47","新北市新莊區思源路32號","121.460226666667","25.040545","6500500","新莊區"
"242037","566-BX","2017/07/21 17:29:43","新北市新莊區建國二路5-3號","121.434843333333","25.023665","6500500","新莊區"
"242005","442-UM","2017/07/21 17:29:52","新北市新莊區中華路二段20-1號","121.453288333333","25.044505","6500500","新莊區"
"242046","441-UM","2017/07/21 17:29:50","新北市新莊區新樹路65-7號","121.43934","25.030795","6500500","新莊區"
"242050","440-UM","2017/07/21 17:29:37","新北市新莊區瓊林南路52號","121.434611666667","25.0141766666667","6500500","新莊區"
"242032","415-TV","2017/07/21 17:29:49","新北市新莊區新泰路401巷7號","121.443166666667","25.0440233333333","6500500","新莊區"
"242002","413-TV","2017/07/21 17:29:43","新北市新莊區新莊路211號","121.455303333333","25.035405","6500500","新莊區"
"242039","400-BY","2017/07/21 17:29:33","新北市新莊區民安東路37號","121.428828333333","25.0210216666667","6500500","新莊區"
"242060","362-BY","2017/07/21 17:29:52","新北市新莊區瓊林路190-2號","121.43948","25.0210166666667","6500500","新莊區"
"242058","353-BY","2017/07/21 17:29:48","新北市新莊區中正路617號","121.43201","25.0319066666667","6500500","新莊區"
"242011","132-UY","2017/07/21 17:29:20","新北市新莊區中港路469號","121.452383333333","25.0490516666667","6500500","新莊區"
"242034","133-UY","2017/07/21 17:29:41","新北市新莊區新莊路499號","121.448545","25.03335","6500500","新莊區"
"242019","135-UY","2017/07/21 17:29:55","新北市新莊區中港路71號","121.455421666667","25.03872","6500500","新莊區"
"242044","172-VK","2017/07/21 17:29:47","新北市新莊區富國路73號","121.41999","25.0259866666667","6500500","新莊區"
"242007","173-VK","2017/07/21 17:29:41","新北市新莊區自強街13號","121.454738333333","25.0459716666667","6500500","新莊區"
"242013","175-VK","2017/07/21 17:29:36","新北市新莊區中誠街46巷13號","121.451128333333","25.0486966666667","6500500","新莊區"
"242056","176-VK","2017/07/21 17:29:44","新北市新莊區新泰路16號","121.449671666667","25.0330633333333","6500500","新莊區"
"242041","346-TH","2017/07/21 17:29:41","新北市新莊區新樹路115號","121.437343333333","25.0266083333333","6500500","新莊區"
"242017","348-TH","2017/07/21 17:29:55","新北市新莊區復興路一段189號","121.451726666667","25.0436683333333","6500500","新莊區"
"242054","349-TH","2017/07/21 17:29:35","新北市新莊區瓊林南路305巷13號","121.435073333333","25.0052733333333","6500500","新莊區"
"242015","350-TH","2017/07/21 17:29:41","新北市新莊區新泰路152號","121.447676666667","25.0373483333333","6500500","新莊區"
"242009","351-TH","2017/07/21 17:29:52","新北市新莊區昌德街33號","121.457048333333","25.054545","6500500","新莊區"
"238015","755-BX","2017/07/21 17:29:45","新北市樹林區大安路271號","121.418951666667","24.9935883333333","6500700","樹林區"
"238023","601-UM","2017/07/21 17:29:52","新北市樹林區中正路433號","121.415045","25.0085266666667","6500700","樹林區"
"238019","599-UM","2017/07/21 17:29:53","新北市樹林區太平路1-5號","121.418521666667","24.9846366666667","6500700","樹林區"
"238018","571-TV","2017/07/21 17:29:54","新北市樹林區鎮前街269巷1號","121.420205","24.9857166666667","6500700","樹林區"
"238024","5061-A6","2017/07/21 17:29:48","新北市樹林區保安街一段48巷19號","121.42634","24.9949383333333","6500700","樹林區"
"238022","312-TH","2017/07/21 17:29:40","新北市樹林區忠孝街24號","121.423563333333","24.982245","6500700","樹林區"
"238021","311-TH","2017/07/21 17:20:03","新北市樹林區西圳街165巷20弄26號","121.39548","24.9601366666667","6500700","樹林區"
"238025","303-VK","2017/07/21 17:29:38","新北市樹林區保安二街120號","121.422231666667","24.9956783333333","6500700","樹林區"
"238017","283-BY","2017/07/21 17:29:43","新北市樹林區保安街二段165號","121.415231666667","25.00297","6500700","樹林區"
"238014","282-BY","2017/07/21 17:29:34","新北市樹林區長壽街70巷35弄10號","121.421468333333","24.9951816666667","6500700","樹林區"
"238020","268-VK","2017/07/21 17:29:47","新北市樹林區俊英街48-2號","121.428563333333","25.0031966666667","6500700","樹林區"
"238026","172-UY","2017/07/21 17:29:46","新北市樹林區中山路三段27巷1弄5號","121.401778333333","24.9745783333333","6500700","樹林區"
"238016","169-UY","2017/07/21 17:29:46","新北市樹林區中山路一段91-1號","121.423451666667","24.9912516666667","6500700","樹林區"
"239007","AAC-297","2017/07/21 17:29:40","新北市鶯歌區中山路300號","121.342863333333","24.9572566666667","6500800","鶯歌區"
"239006","891-R6","2017/07/21 17:29:46","新北市鶯歌區福安街7巷24弄52號","121.334781666667","24.96613","6500800","鶯歌區"
"239008","527-UM","2017/07/21 17:29:54","新北市鶯歌區大湖路624號","121.334678333333","24.97481","6500800","鶯歌區"
"239005","526-UM","2017/07/21 17:29:51","新北市鶯歌區鶯桃路二段9號","121.32589","24.9719916666667","6500800","鶯歌區"
"239001","417-VK","2017/07/21 17:29:47","新北市鶯歌區高職西街7號","121.338061666667","24.942385","6500800","鶯歌區"
"239003","360-BY","2017/07/21 17:29:45","新北市鶯歌區鶯桃路234巷1號","121.3365","24.959275","6500800","鶯歌區"
"239002","359-BY","2017/07/21 17:29:49","新北市鶯歌區育才街90號","121.347376666667","24.9546666666667","6500800","鶯歌區"
"239004","193-VK","2017/07/21 17:29:48","新北市鶯歌區三鶯路29巷19號","121.354536666667","24.9402083333333","6500800","鶯歌區"
