"lineid","car","time","location","longitude","latitude","cityid","cityname"
"234046","148-BY","2017/07/21 18:49:40","新北市永和區秀朗路二段148巷12弄16號","121.524828333333","25.0011716666667","6500400","永和區"
"234013","149-BY","2017/07/21 18:49:50","新北市永和區保福路二段131號","121.509728333333","25.0138266666667","6500400","永和區"
"234007","207-UY","2017/07/21 18:49:42","新北市永和區永和路二段245號","121.515823333333","25.0149666666667","6500400","永和區"
"234081","298-R6","2017/07/21 18:49:45","新北市永和區永亨路98號","121.522901666667","25.00467","6500400","永和區"
"234038","336-UY","2017/07/21 18:49:49","新北市永和區成功路二段213號","121.526601666667","24.9958016666667","6500400","永和區"
"234064","337-UY","2017/07/21 18:49:35","新北市永和區福和路1號","121.526476666667","25.01001","6500400","永和區"
"234086","338-UY","2017/07/21 18:49:50","新北市永和區中正路77號","121.515046666667","24.9968716666667","6500400","永和區"
"234070","552-UM","2017/07/21 18:49:45","新北市永和區中興街96號","121.518928333333","25.011955","6500400","永和區"
"234054","553-UM","2017/07/21 18:49:49","新北市永和區竹林路154號","121.520178333333","25.0106383333333","6500400","永和區"
"234017","745-BX","2017/07/21 18:49:36","新北市永和區忠孝街26巷27弄1號","121.515233333333","25.016875","6500400","永和區"
"234030","746-BX","2017/07/21 18:49:46","新北市永和區得和路415號","121.525803333333","24.9993183333333","6500400","永和區"
"234061","AAD-866","2017/07/21 18:49:40","新北市永和區中正路525號","121.516738333333","25.00761","6500400","永和區"
"234042","862-TW","2017/07/21 18:49:31","新北市永和區永貞路304號","121.511941666667","25.0047533333333","6500400","永和區"
"234050","863-TW","2017/07/21 18:49:39","新北市永和區保安路2號","121.510861666667","25.0174383333333","6500400","永和區"
"234026","9371-KE","2017/07/21 18:49:50","新北市永和區自由街56號","121.513748333333","25.0059716666667","6500400","永和區"
"234011","9373-KE","2017/07/21 18:49:47","新北市永和區文化路126巷7號","121.513075","25.0157933333333","6500400","永和區"
"249005","172-UM","2017/07/21 18:49:44","新北市八里區長道坑16-6號","121.393318333333","25.1174066666667","6502300","八里區"
"249004","303-UY","2017/07/21 18:49:42","新北市八里區仁愛路10號","121.413313333333","25.1620933333333","6502300","八里區"
"249001","759-BX","2017/07/21 18:49:53","新北市八里區龍米路二段79號","121.447865","25.1414766666667","6502300","八里區"
"248016","026-BX","2017/07/21 18:49:32","新北市五股區凌雲路一段83巷44號","121.448991666667","25.1011916666667","6501500","五股區"
"248006","077-UY","2017/07/21 18:49:36","新北市五股區中興路一段171巷63號","121.46554","25.0705766666667","6501500","五股區"
"248008","095-VK","2017/07/21 18:49:36","新北市五股區中興路一段130號","121.465601666667","25.0737966666667","6501500","五股區"
"248018","225-UY","2017/07/21 18:49:32","新北市五股區民義路二段37號","121.41322","25.1003133333333","6501500","五股區"
"248012","247-BX","2017/07/21 18:49:43","新北市五股區成泰路二段147巷6號","121.437843333333","25.089555","6501500","五股區"
"248014","261-SL","2017/07/21 18:49:39","新北市五股區民義路一段107巷23號","121.432096666667","25.0845316666667","6501500","五股區"
"248004","677-BX","2017/07/21 18:49:48","新北市五股區民義路二段52-16號","121.40922","25.1055266666667","6501500","五股區"
"248002","678-BX","2017/07/21 18:49:38","新北市五股區成泰路三段437號","121.449961666667","25.09782","6501500","五股區"
"248010","682-TV","2017/07/21 18:49:49","新北市五股區水碓五路128號","121.430976666667","25.07266","6501500","五股區"
"234023","9380-KE","2017/07/21 18:49:50","新北市永和區竹林路119巷53弄2號","121.522226666667","25.0118966666667","6500400","永和區"
"234077","969-R7","2017/07/21 18:49:42","新北市中和區安樂路63號","121.512321666667","24.9936866666667","6500400","永和區"
"234074","AAC-211","2017/07/21 18:49:44","新北市永和區福和路1號","121.526503333333","25.0099033333333","6500400","永和區"
"234067","AAC-212","2017/07/21 18:49:40","新北市永和區永和路一段36號","121.513048333333","25.005145","6500400","永和區"
"234003","AAC-295","2017/07/21 18:49:44","新北市永和區中正路730號","121.515506666667","25.0101083333333","6500400","永和區"
"232011","375-UM","2017/07/21 18:49:37","新北市坪林區坪林街70號","121.71137","24.937525","6502000","坪林區"
"244013","069-UM","2017/07/21 18:49:48","新北市林口區文化一路二段80號","121.381165","25.0782533333333","6501700","林口區"
"244007","080-UY","2017/07/21 18:49:37","新北市林口區太平里25-3號","121.375435","25.1201066666667","6501700","林口區"
"244009","410-SL","2017/07/21 18:49:42","新北市林口區竹林路326巷78號","121.392683333333","25.08241","6501700","林口區"
"244023","483-VK","2017/07/21 18:49:52","新北市林口區民權路179號","121.374736666667","25.0847233333333","6501700","林口區"
"244017","485-VK","2017/07/21 18:49:48","新北市林口區文化二路一段20巷19號","121.365468333333","25.0674666666667","6501700","林口區"
"244025","656-BX","2017/07/21 18:49:36","新北市林口區文化北路一段392-1號","121.36347","25.0752733333333","6501700","林口區"
"244011","701-TV","2017/07/21 18:49:38","新北市林口區中正路57巷12弄14號","121.394935","25.0766816666667","6501700","林口區"
"243013","AAD-798","2017/07/21 18:49:38","新北市泰山區明志路三段206巷1號","121.423355","25.03783","6501600","泰山區"
"243015","380-SR","2017/07/21 18:49:37","新北市泰山區美寧街57巷35弄2號","121.429661666667","25.0649","6501600","泰山區"
"243014","421-VK","2017/07/21 18:49:51","新北市泰山區犁頭窠3-1號","121.422188333333","25.0606116666667","6501600","泰山區"
"243011","549-UM","2017/07/21 18:49:34","新北市泰山區明志路二段246-1號","121.426943333333","25.0481983333333","6501600","泰山區"
"243012","646-TV","2017/07/21 18:49:31","新北市泰山區福興街22號","121.434338333333","25.057635","6501600","泰山區"
"243016","680-BX","2017/07/21 18:49:36","新北市泰山區明志路二段41號","121.429626666667","25.0530983333333","6501600","泰山區"
"222003","436-BY","2017/07/21 18:49:35","新北市深坑區翠谷街17巷30號","121.625855","25.009775","6501800","深坑區"
"222001","628-TS","2017/07/21 18:49:37","新北市深坑區松柏街30巷2號","121.63866","25.0112","6501800","深坑區"
"222002","659-BX","2017/07/21 18:49:41","新北市深坑區文山路一段62巷3號","121.62289","25.0008416666667","6501800","深坑區"
"231041","002-UM","2017/07/21 18:49:49","新北市新店區安華路28-1號","121.519541666667","24.9608333333333","6500600","新店區"
"231056","0293-UT","2017/07/21 18:49:43","新北市新店區大豐路68巷3號","121.53897","24.9798083333333","6500600","新店區"
"231059","046-UY","2017/07/21 18:49:49","新北市新店區安華路28-1號","121.519558333333","24.9608333333333","6500600","新店區"
"231061","047-UY","2017/07/21 18:49:40","新北市新店區安康路一段355-4號","121.517413333333","24.9638266666667","6500600","新店區"
"231060","106-UY","2017/07/21 18:49:49","新北市新店區安華路28-1號","121.51957","24.960785","6500600","新店區"
"231051","107-UY","2017/07/21 18:49:50","新北市新店區中央路81號","121.532328333333","24.9765466666667","6500600","新店區"
"231048","110-UY","2017/07/21 18:49:51","新北市新店區德正街12號","121.543735","24.972645","6500600","新店區"
"231053","187-VK","2017/07/21 18:49:41","新北市新店區新烏路一段145-2號","121.54669","24.9365633333333","6500600","新店區"
"231063","268-BY","2017/07/21 18:49:30","新北市新店區車子路109號","121.505238333333","24.9521116666667","6500600","新店區"
"231046","278-BY","2017/07/21 18:49:34","新北市新店區直潭路65號","121.53274","24.9423366666667","6500600","新店區"
"231050","AAD-862","2017/07/21 18:49:45","新北市新店區安康路一段65號","121.530438333333","24.9610533333333","6500600","新店區"
"231058","3712-VJ","2017/07/21 18:49:32","新北市新店區北宜路一段105巷4弄3號","121.539936666667","24.9555633333333","6500600","新店區"
"231055","3713-VJ","2017/07/21 18:49:51","新北市新店區新生街16號","121.540056666667","24.96626","6500600","新店區"
"231067","4772-VM","2017/07/21 18:49:48","新北市新店區安康路一段106巷28號","121.52768","24.9630466666667","6500600","新店區"
"231065","512-UM","2017/07/21 18:49:52","新北市新店區安豐路49號","121.50002","24.9540133333333","6500600","新店區"
"231054","513-UM","2017/07/21 18:49:41","新北市新店區環河路1-5號","121.538375","24.9615833333333","6500600","新店區"
"231064","515-UM","2017/07/21 18:49:35","新北市新店區安華路28-1號","121.519616666667","24.9611783333333","6500600","新店區"
"231045","617-UM","2017/07/21 18:49:48","新北市新店區安康路一段355號","121.519795","24.9629033333333","6500600","新店區"
"231040","619-UM","2017/07/21 18:49:32","新北市新店區中央路222號","121.52968","24.972995","6500600","新店區"
"231042","641-BX","2017/07/21 18:49:42","新北市新店區北新路一段126巷25號","121.543313333333","24.97","6500600","新店區"
"231049","719-UM","2017/07/21 18:49:38","新北市新店區中正路454-5號","121.534453333333","24.9790116666667","6500600","新店區"
"231062","720-UM","2017/07/21 18:49:42","新北市新店區安忠路57巷11弄14號","121.514995","24.95789","6500600","新店區"
"231044","897-TW","2017/07/21 18:49:45","新北市新店區寶中路72號","121.547841666667","24.9805716666667","6500600","新店區"
"231043","899-TW","2017/07/21 18:49:32","新北市新店區安康路一段94-2號","121.527813333333","24.962095","6500600","新店區"
"231066","AKT-0513","2017/07/21 18:49:41","新北市新店區安豐路23號","121.501141666667","24.9566666666667","6500600","新店區"
"241035","462-BY","2017/07/21 18:49:36","新北市三重區重新路四段121號","121.485065","25.0521583333333","6500200","三重區"
"235066","003-UY","2017/07/21 18:49:38","新北市中和區光華街33號","121.505068333333","25.00384","6500300","中和區"
"235063","006-UY","2017/07/21 18:49:42","新北市中和區連城路246-4號","121.488036666667","24.99641","6500300","中和區"
"235056","096-UM","2017/07/21 18:49:32","新北市中和區員山路514號","121.479015","25.0092416666667","6500300","中和區"
"235039","097-UM","2017/07/21 18:49:45","新北市中和區宜安路18巷15號","121.514171666667","24.99639","6500300","中和區"
"235065","098-UM","2017/07/21 18:49:37","新北市中和區莊敬路49巷29弄20號","121.501081666667","25.0065333333333","6500300","中和區"
"235005","150-BY","2017/07/21 18:49:38","新北市中和區保健路106巷71號","121.51142","24.9947366666667","6500300","中和區"
"235058","151-BY","2017/07/21 18:49:44","新北市中和區連城路532巷34弄18號","121.47526","24.9927283333333","6500300","中和區"
"235055","183-VK","2017/07/21 18:49:32","新北市中和區民生街12巷2號","121.47062","25.0056166666667","6500300","中和區"
"235038","185-VK","2017/07/21 18:49:39","新北市中和區自強路62巷2號","121.519753333333","24.9945883333333","6500300","中和區"
"235049","186-VK","2017/07/21 18:49:44","新北市中和區景安路132巷35號","121.50375","24.994445","6500300","中和區"
"235067","255-BX","2017/07/21 18:49:39","新北市中和區中山路二段465號","121.48356","25.0048533333333","6500300","中和區"
"235044","293-VK","2017/07/21 18:49:48","新北市中和區復興路280巷6號","121.50232","24.99125","6500300","中和區"
"235072","301-VK","2017/07/21 18:49:43","新北市中和區中山路二段23號","121.504946666667","25.005315","6500300","中和區"
"235043","352-BY","2017/07/21 18:49:41","新北市中和區成功路129號","121.526033333333","24.9907866666667","6500300","中和區"
"235051","376-QA","2017/07/21 18:49:36","新北市中和區華新街143巷106弄8號","121.505945","24.9791683333333","6500300","中和區"
"235068","377-QA","2017/07/21 18:48:33","新北市中和區中正路167巷18號","121.49815","24.9927133333333","6500300","中和區"
"235061","378-QA","2017/07/21 18:49:34","新北市中和區民享街30巷6號","121.473588333333","25.0035683333333","6500300","中和區"
"235050","4979-A6","2017/07/21 18:49:15","新北市中和區忠孝街62巷7弄2號","121.512938333333","24.98376","6500300","中和區"
"235069","4980-A6","2017/07/21 18:49:41","新北市中和區景平路618巷4號","121.500886666667","24.9970533333333","6500300","中和區"
"235042","551-UM","2017/07/21 18:49:32","新北市中和區秀朗路三段135巷8號","121.525366666667","24.99239","6500300","中和區"
"235045","565-BX","2017/07/21 18:49:44","新北市中和區南山路234號","121.506586666667","24.9899733333333","6500300","中和區"
"235070","611-BX","2017/07/21 18:49:46","新北市中和區南山路127巷18弄42號","121.503586666667","24.9963933333333","6500300","中和區"
"235054","640-BX","2017/07/21 18:49:37","新北市中和區民享街54巷14號","121.473263333333","25.0024016666667","6500300","中和區"
"235060","647-TV","2017/07/21 18:49:38","新北市中和區中山路二段618號","121.481561666667","25.00548","6500300","中和區"
"235047","732-UM","2017/07/21 18:49:32","新北市中和區興南路二段34巷71號","121.504948333333","24.9850183333333","6500300","中和區"
"235046","733-UM","2017/07/21 18:49:37","新北市中和區忠孝街103-1號","121.511838333333","24.9861466666667","6500300","中和區"
"235071","783-BX","2017/07/21 18:49:38","新北市中和區員山路36巷16-3號","121.485211666667","24.99112","6500300","中和區"
"235062","800-TS","2017/07/21 18:49:38","新北市中和區中山路二段348巷8號","121.493098333333","25.003","6500300","中和區"
"235057","801-TS","2017/07/21 18:49:48","新北市中和區民安街22巷14號","121.479798333333","25.0013533333333","6500300","中和區"
"235041","802-TS","2017/07/21 18:49:42","新北市中和區宜安路170號","121.50889","24.999165","6500300","中和區"
"235052","805-TS","2017/07/21 18:49:31","新北市中和區興南路二段399巷86號","121.499918333333","24.97839","6500300","中和區"
"235048","896-TW","2017/07/21 18:49:50","新北市中和區南山路300號","121.507908333333","24.987015","6500300","中和區"
"235053","900-TW","2017/07/21 18:49:49","新北市中和區華福街8號","121.465536666667","24.9967766666667","6500300","中和區"
"235037","AAC-213","2017/07/21 18:49:36","新北市中和區景德街95-11號","121.515075","24.9911583333333","6500300","中和區"
"235059","AAC-215","2017/07/21 18:49:36","新北市中和區圓通路393巷25號","121.49044","24.9884583333333","6500300","中和區"
"220068","013-TV","2017/07/21 18:49:35","新北市板橋區民生路二段56-1號","121.472436666667","25.0169733333333","6500100","板橋區"
"220065","072-UY","2017/07/21 15:18:52","新北市板橋區民生路二段22號","121.472986666667","25.0166666666667","6500100","板橋區"
"220086","073-UY","2017/07/21 18:49:33","新北市板橋區大智街71巷11號","121.452981666667","25.01435","6500100","板橋區"
"220106","075-UY","2017/07/21 18:49:40","新北市板橋區民生路二段89-6號","121.470706666667","25.0192416666667","6500100","板橋區"
"220098","120-SR","2017/07/21 18:49:50","新北市板橋區民生路二段120號","121.470316666667","25.0197933333333","6500100","板橋區"
"247001","402-BY","2017/07/21 16:41:56","新北市五股區中興路三段3-6號","121.449501666667","25.078715","6501400","蘆洲區"
"247006","341-TH","2017/07/21 18:49:34","新北市五股區中興路三段163號","121.449225","25.0808183333333","6501400","蘆洲區"
"247002","336-TH","2017/07/21 18:49:32","新北市五股區中興路三段163號","121.449193333333","25.0807733333333","6501400","蘆洲區"
"247014","057-VK","2017/07/21 18:35:13","新北市五股區中興路三段163號","121.449311666667","25.0809583333333","6501400","蘆洲區"
"226004","312-R5","2017/07/21 18:49:46","新北市平溪區靜安路二段426號","121.739825","25.0247933333333","6502400","平溪區"
"228002","663-BX","2017/07/21 18:49:37","新北市貢寮區福隆里東興街6-11號","121.950751666667","25.0210633333333","6502600","貢寮區"
"228001","670-TC","2017/07/21 18:49:41","新北市貢寮區仁理村研海街12-1號","121.923785","25.05171","6502600","貢寮區"
"228003","828-UM","2017/07/21 18:49:32","新北市瑞芳區鼻頭路127號","121.917041666667","25.1213133333333","6502600","貢寮區"
"224006","676-BX","2017/07/21 18:49:40","新北市瑞芳區中正路63-1號","121.806136666667","25.1074666666667","6501200","瑞芳區"
"224009","285-BY","2017/07/21 18:49:38","新北市瑞芳區祈堂路53-1號","121.859625","25.1106183333333","6501200","瑞芳區"
"224008","275-VK","2017/07/21 18:49:46","新北市瑞芳區逢甲路412-2號","121.797926666667","25.1141866666667","6501200","瑞芳區"
"224007","273-VK","2017/07/21 18:49:42","新北市瑞芳區大埔路188-1號","121.761421666667","25.10106","6501200","瑞芳區"
"224005","272-VK","2017/07/21 18:49:36","新北市瑞芳區中山路109號","121.803215","25.1063383333333","6501200","瑞芳區"
"227011","642-TC","2017/07/21 18:49:42","新北市雙溪區牡丹里聖南31-1號","121.856053333333","25.053845","6502500","雙溪區"
"227003","400-TW","2017/07/21 18:49:38","新北市雙溪區平林里梅竹蹊30號","121.861611666667","25.036015","6502500","雙溪區"
"253006","032-BX","2017/07/21 18:49:50","新北市石門區下員坑15-12號","121.51284","25.2839983333333","6502200","石門區"
"253005","295-VK","2017/07/21 18:49:40","新北市石門區中山路28-3號","121.565746666667","25.2899166666667","6502200","石門區"
"208003","665-BX","2017/07/21 18:49:35","新北市金山區中山路344號","121.633463333333","25.2253383333333","6502700","金山區"
"208001","761-BX","2017/07/21 18:49:37","新北市金山區文化三路39號","121.63436","25.22561","6502700","金山區"
"251002","012-UM","2017/07/21 18:49:38","新北市淡水區學府路63號","121.448363333333","25.1695366666667","6501000","淡水區"
"251013","180-VK","2017/07/21 18:49:43","新北市淡水區安子內5-1號","121.483625","25.2152083333333","6501000","淡水區"
"251015","182-VK","2017/07/21 18:49:45","新北市淡水區興福寮1-7號","121.487288333333","25.16519","6501000","淡水區"
"251010","413-VK","2017/07/21 18:49:30","新北市淡水區沙崙路9號","121.421071666667","25.18122","6501000","淡水區"
"251012","441-VK","2017/07/21 18:49:53","新北市淡水區中山北路一段189號","121.44409","25.1783566666667","6501000","淡水區"
"251001","559-UM","2017/07/21 18:49:47","新北市淡水區自強路88號","121.462686666667","25.1283866666667","6501000","淡水區"
"251009","575-R6","2017/07/21 18:49:40","新北市淡水區重建街118號","121.440218333333","25.1729916666667","6501000","淡水區"
"251007","577-R6","2017/07/21 18:49:49","新北市淡水區民生路113巷1弄3號","121.464135","25.1386833333333","6501000","淡水區"
"251011","650-BX","2017/07/21 18:49:48","新北市淡水區中正東路71-4號","121.44728","25.1673966666667","6501000","淡水區"
"251003","673-BX","2017/07/21 18:49:40","新北市淡水區中山北路一段153號","121.443205","25.1774533333333","6501000","淡水區"
"207003","550-UM","2017/07/21 18:49:35","新北市萬里區大鵬里頂社1號","121.656976666667","25.2097033333333","6502800","萬里區"
"207004","225-TW","2017/07/21 18:49:43","新北市萬里區萬里里獅頭路23號","121.693231666667","25.1782333333333","6502800","萬里區"
"252002","178-VK","2017/07/21 18:49:48","新北市三芝區智成街76號","121.504963333333","25.255925","6502100","三芝區"
"252003","249-BX","2017/07/21 18:49:36","新北市三芝區後厝里北勢子45-21號","121.468195","25.250245","6502100","三芝區"
"252001","702-TV","2017/07/21 18:49:38","新北市三芝區中正路三段9號","121.502983333333","25.2540083333333","6502100","三芝區"
"208002","170-UY","2017/07/21 18:49:43","新北市金山區信義路61號","121.635925","25.219095","6502700","金山區"
"237004","078-UY","2017/07/21 18:49:51","新北市三峽區有木205-1號","121.438916666667","24.8515583333333","6500900","三峽區"
"237007","153-BY","2017/07/21 18:49:34","新北市三峽區大埔路157號","121.36663","24.9057316666667","6500900","三峽區"
"237013","252-BX","2017/07/21 18:49:42","新北市三峽區光明路69巷31號","121.376876666667","24.9291533333333","6500900","三峽區"
"237012","275-BY","2017/07/21 18:49:42","新北市三峽區三樹路340號","121.383963333333","24.9433216666667","6500900","三峽區"
"237008","302-VK","2017/07/21 18:49:30","新北市三峽區白雞33-61號","121.370951666667","24.9131","6500900","三峽區"
"237014","433-BY","2017/07/21 18:49:45","新北市三峽區隆恩街170號","121.363206666667","24.943065","6500900","三峽區"
"237006","5529-G3","2017/07/21 18:49:49","新北市三峽區溪東路233巷45弄10號","121.409783333333","24.9336266666667","6500900","三峽區"
"237011","572-TV","2017/07/21 18:07:04","新北市三峽區橫溪路1號","121.396043333333","24.9362166666667","6500900","三峽區"
"237015","649-BX","2017/07/21 18:49:51","新北市三峽區建安137-1號","121.466785","24.9159833333333","6500900","三峽區"
"237010","706-TV","2017/07/21 18:49:38","新北市三峽區國光街54號","121.374601666667","24.93816","6500900","三峽區"
"237005","AKY-6261","2017/07/21 18:49:47","新北市三峽區中山路459巷163-3號","121.349111666667","24.9333933333333","6500900","三峽區"
"236072","105-UM","2017/07/21 18:49:36","新北市土城區明德路一段37號","121.465028333333","24.9853266666667","6501300","土城區"
"236043","107-UM","2017/07/21 18:49:51","新北市土城區裕民路114巷9號","121.450705","24.9860433333333","6501300","土城區"
"236079","166-UM","2017/07/21 18:49:48","新北市土城區中央路四段67巷32號","121.417738333333","24.9571416666667","6501300","土城區"
"236031","253-BX","2017/07/21 18:49:43","新北市土城區忠義路36巷16號","121.439885","24.96985","6501300","土城區"
"236027","269-VK","2017/07/21 18:49:39","新北市土城區興城路78號","121.441101666667","24.9719033333333","6501300","土城區"
"236015","270-VK","2017/07/21 18:49:52","新北市土城區金城路二段354巷4號","121.461275","24.9850066666667","6501300","土城區"
"236039","271-VK","2017/07/21 18:49:45","新北市土城區明德路一段152號","121.463226666667","24.9786366666667","6501300","土城區"
"236022","401-BY","2017/07/21 18:49:47","新北市土城區延吉街251號","121.467643333333","24.9849216666667","6501300","土城區"
"236059","912-UM","2017/07/21 18:49:48","新北市土城區中央路三段141-1號","121.433416666667","24.965395","6501300","土城區"
"236050","913-UM","2017/07/21 18:49:49","新北市土城區青雲路113號","121.458885","24.9845816666667","6501300","土城區"
"236063","915-UM","2017/07/21 18:49:41","新北市土城區金城路三段131巷12號","121.467711666667","24.9887","6501300","土城區"
"236055","AAC-216","2017/07/21 18:49:35","新北市土城區裕民路157-1號","121.45239","24.9859283333333","6501300","土城區"
"242060","362-BY","2017/07/21 18:49:52","新北市新莊區三和路12-21號","121.44226","25.0379016666667","6500500","新莊區"
"242054","349-TH","2017/07/21 18:49:34","新北市新莊區樹新路120巷49弄1號","121.430248333333","24.9958383333333","6500500","新莊區"
"238023","601-UM","2017/07/21 18:49:52","新北市樹林區三福街114號","121.406411666667","25.016285","6500700","樹林區"
"238019","599-UM","2017/07/21 18:49:42","新北市樹林區東華街70巷8號","121.414861666667","24.9810083333333","6500700","樹林區"
"238018","571-TV","2017/07/21 18:49:32","新北市樹林區樹新路5號","121.426626666667","24.9938183333333","6500700","樹林區"
"238024","5061-A6","2017/07/21 18:49:48","新北市樹林區太平路221號","121.418616666667","24.977305","6500700","樹林區"
"238022","312-TH","2017/07/21 18:49:40","新北市樹林區東大街32號","121.413095","24.9765933333333","6500700","樹林區"
"238025","303-VK","2017/07/21 18:49:38","新北市樹林區中山路三段22號","121.395616666667","24.9728866666667","6500700","樹林區"
"238017","283-BY","2017/07/21 18:49:43","新北市樹林區光興街44號","121.409895","25.0027733333333","6500700","樹林區"
"238014","282-BY","2017/07/21 18:49:34","新北市樹林區大安路111巷11號","121.42311","24.9977333333333","6500700","樹林區"
"238020","268-VK","2017/07/21 18:49:47","新北市樹林區俊英街113-3號","121.42474","25.010135","6500700","樹林區"
"238026","172-UY","2017/07/21 18:49:46","新北市樹林區吉祥街7號","121.392855","24.9730733333333","6500700","樹林區"
"238016","169-UY","2017/07/21 18:49:46","新北市樹林區文化街23號","121.419325","24.9875666666667","6500700","樹林區"
"239007","AAC-297","2017/07/21 18:49:40","新北市鶯歌區中正一路333-1號","121.356551666667","24.9578066666667","6500800","鶯歌區"
"239006","891-R6","2017/07/21 18:49:46","新北市鶯歌區鶯桃路296巷90號","121.336811666667","24.9620566666667","6500800","鶯歌區"
"239008","527-UM","2017/07/21 18:49:34","新北市鶯歌區晨曦街37號","121.338183333333","24.9771316666667","6500800","鶯歌區"
"239005","526-UM","2017/07/21 18:49:51","新北市鶯歌區大湖路361巷22號","121.330495","24.9779983333333","6500800","鶯歌區"
"239001","417-VK","2017/07/21 18:49:47","新北市鶯歌區永明街60巷42號","121.34071","24.95507","6500800","鶯歌區"
"239003","360-BY","2017/07/21 18:49:45","新北市鶯歌區永和街116號","121.334583333333","24.9692083333333","6500800","鶯歌區"
"239002","359-BY","2017/07/21 18:49:49","新北市鶯歌區中山路10號","121.352885","24.9571816666667","6500800","鶯歌區"
"239004","193-VK","2017/07/21 18:49:47","新北市鶯歌區中正三路304號","121.328156666667","24.93593","6500800","鶯歌區"
"221008","489-VK","2017/07/21 18:49:38","新北市汐止區康寧街901號","121.651383333333","25.075095","6501100","汐止區"
"221036","130-UY","2017/07/21 18:49:34","新北市汐止區忠孝東路314巷19弄10號","121.665018333333","25.068405","6501100","汐止區"
"221015","131-UY","2017/07/21 18:49:47","新北市汐止區吉祥街3號","121.667933333333","25.0799216666667","6501100","汐止區"
"221010","269-BY","2017/07/21 18:49:34","新北市汐止區康寧街901號","121.651406666667","25.0750266666667","6501100","汐止區"
"221031","277-VK","2017/07/21 18:49:52","新北市汐止區福德一路270號","121.632196666667","25.06396","6501100","汐止區"
"221012","278-VK","2017/07/21 18:46:19","新北市汐止區長江街3號","121.654456666667","25.0712183333333","6501100","汐止區"
"221032","280-BY","2017/07/21 18:49:46","新北市汐止區橫科路407巷30弄28號","121.62724","25.04807","6501100","汐止區"
"221027","281-BY","2017/07/21 18:49:36","新北市汐止區和平街45號","121.662143333333","25.0707416666667","6501100","汐止區"
"221038","297-VK","2017/07/21 18:49:35","新北市汐止區康寧街901號","121.650703333333","25.0752983333333","6501100","汐止區"
"221029","298-VK","2017/07/21 18:49:36","新北市汐止區樟樹一路2巷59號","121.641915","25.0629916666667","6501100","汐止區"
"221021","299-VK","2017/07/21 18:49:31","新北市汐止區新台五路一段236號","121.65705","25.0634833333333","6501100","汐止區"
"221035","622-UM","2017/07/21 18:49:45","新北市汐止區大同路二段207號","121.652603333333","25.06441","6501100","汐止區"
"221025","623-UM","2017/07/21 18:49:32","新北市汐止區秀峰路62號","121.659761666667","25.0646566666667","6501100","汐止區"
"221033","647-BX","2017/07/21 18:49:32","台北市南港區舊莊街一段199巷1弄1號","121.622416666667","25.0388083333333","6501100","汐止區"
"221002","707-TV","2017/07/21 18:49:49","新北市汐止區大同路一段231-1號","121.634368333333","25.05762","6501100","汐止區"
"221018","753-BX","2017/07/21 18:49:52","新北市汐止區忠孝東路338號","121.665071666667","25.06956","6501100","汐止區"
"220079","145-BY","2017/07/21 18:49:40","新北市板橋區民權路202巷7弄2號","121.460046666667","25.01478","6500100","板橋區"
"220093","146-RM","2017/07/21 18:49:32","新北市板橋區民生路二段120號","121.470426666667","25.0195533333333","6500100","板橋區"
"220080","200-UY","2017/07/21 18:49:45","新北市板橋區大觀路二段力行3巷1-6號","121.442568333333","24.9968316666667","6500100","板橋區"
"220082","610-BX","2017/07/21 18:49:37","新北市板橋區篤行路二段153號","121.429636666667","24.98808","6500100","板橋區"
"220101","245-BX","2017/07/21 15:42:59","新北市板橋區民生路二段89-6號","121.47038","25.0192166666667","6500100","板橋區"
"220069","258-TC","2017/07/21 18:49:42","新北市板橋區觀光街4巷2弄1號","121.472325","25.0158733333333","6500100","板橋區"
"220056","276-BY","2017/07/21 18:49:42","新北市板橋區四川路二段28號","121.454273333333","24.9956266666667","6500100","板橋區"
"220072","277-BY","2017/07/21 18:49:38","新北市板橋區金門街25巷16號","121.434115","24.9943","6500100","板橋區"
"220064","280-UM","2017/07/21 18:49:50","新北市板橋區民生路二段36-1號","121.47242","25.016825","6500100","板橋區"
"220071","283-VK","2017/07/21 18:49:38","新北市板橋區民生路二段15號","121.472471666667","25.016015","6500100","板橋區"
"220094","285-UM","2017/07/21 18:49:40","新北市板橋區民生路二段120號","121.47033","25.0197533333333","6500100","板橋區"
"220053","285-VK","2017/07/21 18:49:52","新北市板橋區民生路二段80號","121.471761666667","25.0184583333333","6500100","板橋區"
"220083","286-VK","2017/07/21 18:49:48","新北市板橋區大觀路二段20-2號","121.446511666667","25.0033283333333","6500100","板橋區"
"220081","287-VK","2017/07/21 18:49:48","新北市板橋區大觀路一段28巷6弄55-3號","121.45101","25.0106266666667","6500100","板橋區"
"220090","288-VK","2017/07/21 18:49:48","新北市板橋區民生路二段161巷1號","121.47026","25.0198983333333","6500100","板橋區"
"220061","293-UM","2017/07/21 18:49:45","新北市板橋區民生路二段80號","121.471903333333","25.0183916666667","6500100","板橋區"
"220084","296-UM","2017/07/21 18:49:30","新北市板橋區大觀路二段148巷64號","121.44184","25.00066","6500100","板橋區"
"220075","297-UM","2017/07/21 18:49:46","新北市板橋區大觀路一段28巷106號","121.450293333333","25.0110983333333","6500100","板橋區"
"220062","303-R5","2017/07/21 18:49:41","新北市板橋區觀光街8號","121.472293333333","25.0163933333333","6500100","板橋區"
"220092","307-R5","2017/07/21 15:32:03","新北市板橋區民生路二段120號","121.470458333333","25.019695","6500100","板橋區"
"220089","487-VK","2017/07/21 18:49:36","新北市板橋區民生路二段120號","121.470406666667","25.0201466666667","6500100","板橋區"
"220088","491-VK","2017/07/21 18:49:39","新北市板橋區莊敬路208巷8弄9號","121.470611666667","25.0202683333333","6500100","板橋區"
"220035","560-BX","2017/07/21 18:49:40","新北市板橋區南雅西路二段301巷43-1號","121.451878333333","25.0166516666667","6500100","板橋區"
"220103","561-BX","2017/07/21 18:49:51","新北市板橋區民生路二段120號","121.470505","25.0196316666667","6500100","板橋區"
"220063","609-BX","2017/07/21 15:07:37","新北市板橋區民生路二段36-1號","121.472443333333","25.01655","6500100","板橋區"
"220091","637-BX","2017/07/21 18:49:48","新北市板橋區民生路二段188號","121.470196666667","25.0202966666667","6500100","板橋區"
"220057","686-BX","2017/07/21 18:49:49","新北市板橋區民生路二段36-1號","121.472586666667","25.016595","6500100","板橋區"
"220077","687-BX","2017/07/21 18:49:49","新北市板橋區大觀路二段174巷184號","121.442148333333","25.0037616666667","6500100","板橋區"
"220054","741-BX","2017/07/21 18:49:51","新北市板橋區觀光街2-5號","121.472138333333","25.0155483333333","6500100","板橋區"
"220055","827-TW","2017/07/21 18:49:42","新北市板橋區民生路二段16號","121.473031666667","25.016475","6500100","板橋區"
"220067","829-TW","2017/07/21 18:49:30","新北市板橋區民生路二段17號","121.472393333333","25.01609","6500100","板橋區"
"220102","830-TW","2017/07/21 15:33:06","新北市板橋區民生路二段161巷3號","121.470268333333","25.0198616666667","6500100","板橋區"
"220096","831-TW","2017/07/21 15:49:44","新北市板橋區民生路二段120號","121.470355","25.0196","6500100","板橋區"
"220074","895-R6","2017/07/21 18:49:51","新北市板橋區南門街53號","121.457131666667","25.00845","6500100","板橋區"
"220073","985-R7","2017/07/21 18:49:51","新北市板橋區館前西路86號","121.457528333333","25.0071933333333","6500100","板橋區"
"220097","AAC-210","2017/07/21 18:49:48","新北市板橋區民生路二段120號","121.470473333333","25.0201833333333","6500100","板橋區"
"220070","AAC-253","2017/07/21 18:49:32","新北市板橋區觀光街12巷1弄2號","121.472065","25.01663","6500100","板橋區"
