"lineid","car","time","location","longitude","latitude","cityid","cityname"
"234046","148-BY","2017/07/21 18:59:40","新北市永和區得和路373巷16弄14號","121.525431666667","25.00006","6500400","永和區"
"234013","149-BY","2017/07/21 18:59:47","新北市永和區信義路14號","121.514463333333","25.0120566666667","6500400","永和區"
"234007","207-UY","2017/07/21 18:59:42","新北市永和區中山路一段47號","121.513045","25.010455","6500400","永和區"
"234081","298-R6","2017/07/21 18:59:48","新北市永和區永亨路59號","121.520875","25.0061733333333","6500400","永和區"
"234038","336-UY","2017/07/21 18:59:43","新北市永和區民樂街75巷1號","121.527345","24.99705","6500400","永和區"
"234064","337-UY","2017/07/21 18:59:35","新北市永和區秀朗路一段198號","121.51943","25.0031766666667","6500400","永和區"
"234086","338-UY","2017/07/21 18:59:50","新北市永和區永寧街121號","121.517983333333","25.00568","6500400","永和區"
"234070","552-UM","2017/07/21 18:59:45","新北市永和區豫溪街95巷9號","121.518081666667","25.0107233333333","6500400","永和區"
"234054","553-UM","2017/07/21 18:59:49","新北市永和區竹林路66巷2號","121.518185","25.0133966666667","6500400","永和區"
"234017","745-BX","2017/07/21 18:59:36","新北市永和區永和路二段297號","121.516068333333","25.0160283333333","6500400","永和區"
"234030","746-BX","2017/07/21 18:59:46","新北市永和區四維街64號","121.524306666667","24.99829","6500400","永和區"
"234061","AAD-866","2017/07/21 18:59:40","新北市永和區福和路299號","121.51649","25.0071516666667","6500400","永和區"
"234042","862-TW","2017/07/21 18:59:51","新北市永和區永貞路306號","121.511918333333","25.0048433333333","6500400","永和區"
"234050","863-TW","2017/07/21 18:59:39","新北市永和區文化路194號","121.510851666667","25.01634","6500400","永和區"
"234026","9371-KE","2017/07/21 18:59:50","新北市永和區安樂路451號","121.514358333333","25.0049483333333","6500400","永和區"
"234011","9373-KE","2017/07/21 18:59:47","新北市永和區仁愛路141巷3弄11號","121.512058333333","25.0125233333333","6500400","永和區"
"249005","172-UM","2017/07/21 18:59:44","新北市八里區長道坑8號","121.395743333333","25.1216333333333","6502300","八里區"
"249001","759-BX","2017/07/21 18:59:32","新北市八里區龍米路二段228-1號","121.432701666667","25.158445","6502300","八里區"
"248016","026-BX","2017/07/21 18:59:32","新北市五股區成泰路三段543巷16號","121.450958333333","25.1022933333333","6501500","五股區"
"248006","077-UY","2017/07/21 18:59:36","新北市五股區中興路一段24號","121.46873","25.07249","6501500","五股區"
"248008","095-VK","2017/07/21 18:59:36","新北市五股區中興路一段118巷6弄29號","121.466311666667","25.0751866666667","6501500","五股區"
"248018","225-UY","2017/07/21 18:59:32","新北市五股區民義路二段22巷2號","121.420161666667","25.09688","6501500","五股區"
"248012","247-BX","2017/07/21 18:59:03","新北市五股區成泰路二段156號","121.438311666667","25.0841866666667","6501500","五股區"
"248004","677-BX","2017/07/21 18:59:48","新北市五股區民義路二段42-3號","121.416046666667","25.0997316666667","6501500","五股區"
"248002","678-BX","2017/07/21 18:59:38","新北市五股區凌雲路一段111號","121.45008","25.1017433333333","6501500","五股區"
"248010","682-TV","2017/07/21 18:59:49","新北市五股區水碓九路58號","121.42898","25.0720216666667","6501500","五股區"
"234023","9380-KE","2017/07/21 18:59:50","新北市永和區竹林路75巷17號","121.519991666667","25.0137666666667","6500400","永和區"
"234077","969-R7","2017/07/21 18:59:42","新北市永和區民治街89號","121.517313333333","24.9983216666667","6500400","永和區"
"234074","AAC-211","2017/07/21 18:59:44","新北市永和區環河東路二段100號","121.52412","25.0103","6500400","永和區"
"234067","AAC-212","2017/07/21 18:59:39","新北市永和區永和路一段36號","121.513018333333","25.0053166666667","6500400","永和區"
"234003","AAC-295","2017/07/21 18:59:44","新北市永和區和平街44號","121.512866666667","25.0099583333333","6500400","永和區"
"244013","069-UM","2017/07/21 18:59:48","新北市林口區麗園一街6巷5-1號","121.375618333333","25.07023","6501700","林口區"
"244009","410-SL","2017/07/21 18:59:42","新北市林口區竹林路350號","121.391505","25.08405","6501700","林口區"
"244023","483-VK","2017/07/21 18:59:52","新北市林口區文林六街46號","121.371273333333","25.08148","6501700","林口區"
"244017","485-VK","2017/07/21 18:59:48","新北市林口區文化二路一段120巷4-1號","121.367811666667","25.0699733333333","6501700","林口區"
"244025","656-BX","2017/07/21 18:59:35","新北市林口區文化北路一段542巷13弄75號","121.369798333333","25.0795116666667","6501700","林口區"
"244011","701-TV","2017/07/21 18:59:38","新北市林口區仁愛路一段285巷55號","121.394856666667","25.07452","6501700","林口區"
"243013","AAD-798","2017/07/21 18:59:38","新北市泰山區明志路三段239號","121.423505","25.037745","6501600","泰山區"
"243009","297-R6","2017/07/21 18:59:49","新北市泰山區泰林路二段323號","121.429575","25.0632866666667","6501600","泰山區"
"243015","380-SR","2017/07/21 18:59:37","新北市泰山區明志路一段195號","121.432738333333","25.061635","6501600","泰山區"
"243014","421-VK","2017/07/21 18:59:54","新北市泰山區泰林路二段597號","121.42163","25.0634783333333","6501600","泰山區"
"243010","548-UM","2017/07/21 18:59:48","新北市泰山區辭修路24號","121.429055","25.0581533333333","6501600","泰山區"
"243011","549-UM","2017/07/21 18:59:34","新北市泰山區明志路二段298巷16-1號","121.425701666667","25.046765","6501600","泰山區"
"243012","646-TV","2017/07/21 18:59:51","新北市泰山區同義街47巷7弄20號","121.432443333333","25.0569333333333","6501600","泰山區"
"243016","680-BX","2017/07/21 18:59:36","新北市泰山區明志路二段152-1號","121.427558333333","25.0507133333333","6501600","泰山區"
"222003","436-BY","2017/07/21 18:59:35","新北市深坑區深南路51-1號","121.621365","25.010125","6501800","深坑區"
"222001","628-TS","2017/07/21 18:59:37","新北市深坑區北深路一段300號","121.624225","25.0056916666667","6501800","深坑區"
"222002","659-BX","2017/07/21 18:59:41","新北市深坑區文山路一段33號","121.629705","25.00411","6501800","深坑區"
"231041","002-UM","2017/07/21 18:59:49","新北市新店區環河路66號","121.537058333333","24.9628566666667","6500600","新店區"
"231056","0293-UT","2017/07/21 18:59:43","新北市新店區大同街10號","121.539716666667","24.9799283333333","6500600","新店區"
"231059","046-UY","2017/07/21 18:59:49","新北市新店區安康路一段266巷4號","121.519811666667","24.9640316666667","6500600","新店區"
"231061","047-UY","2017/07/21 18:59:39","新北市新店區安康路一段355-4號","121.517666666667","24.9639033333333","6500600","新店區"
"231060","106-UY","2017/07/21 18:59:49","新北市新店區車子路20號","121.505541666667","24.95455","6500600","新店區"
"231051","107-UY","2017/07/21 18:59:50","新北市新店區百忍街8號","121.534993333333","24.9755666666667","6500600","新店區"
"231048","110-UY","2017/07/21 18:59:51","新北市新店區德正街27巷29弄45號","121.545696666667","24.9721666666667","6500600","新店區"
"231053","187-VK","2017/07/21 18:59:41","新北市新店區櫻花街55巷18號","121.548871666667","24.9247","6500600","新店區"
"231063","268-BY","2017/07/21 18:59:50","新北市新店區車子路109號","121.505231666667","24.952105","6500600","新店區"
"231046","278-BY","2017/07/21 18:59:37","新北市新店區直潭五街28號","121.534166666667","24.941455","6500600","新店區"
"231050","AAD-862","2017/07/21 18:59:45","新北市新店區新烏路一段11巷17號","121.547733333333","24.9509416666667","6500600","新店區"
"231058","3712-VJ","2017/07/21 18:59:52","新北市新店區中興路一段179號","121.543021666667","24.9647516666667","6500600","新店區"
"231055","3713-VJ","2017/07/21 18:59:51","新北市新店區新生街13巷16號","121.539098333333","24.9659433333333","6500600","新店區"
"231067","4772-VM","2017/07/21 18:59:38","新北市新店區安康路一段263巷28號","121.524038333333","24.9623566666667","6500600","新店區"
"231065","512-UM","2017/07/21 18:59:52","新北市新店區安祥路147巷52號","121.476361666667","24.956525","6500600","新店區"
"231054","513-UM","2017/07/21 18:59:41","新北市新店區新店路13號","121.540288333333","24.952905","6500600","新店區"
"231064","515-UM","2017/07/21 18:59:35","新北市新店區安康路一段266巷4號","121.519796666667","24.9640216666667","6500600","新店區"
"231045","617-UM","2017/07/21 18:59:48","新北市新店區北新路一段2-18號","121.538535","24.9601566666667","6500600","新店區"
"231040","619-UM","2017/07/21 18:59:52","新北市新店區三民路191號","121.53544","24.9754883333333","6500600","新店區"
"231042","641-BX","2017/07/21 18:59:42","新北市新店區中興路一段292號","121.545898333333","24.9691566666667","6500600","新店區"
"231049","719-UM","2017/07/21 18:59:39","新北市新店區二十張路143-2號","121.534968333333","24.9788133333333","6500600","新店區"
"231062","720-UM","2017/07/21 18:59:42","新北市新店區安德街60巷7號","121.509665","24.96244","6500600","新店區"
"231044","897-TW","2017/07/21 18:59:45","新北市新店區寶中路72號","121.54783","24.9805533333333","6500600","新店區"
"231043","899-TW","2017/07/21 18:59:51","新北市新店區北新路二段1號","121.542673333333","24.9712016666667","6500600","新店區"
"231066","AKT-0513","2017/07/21 18:59:41","新北市新店區安祥路80號","121.48916","24.958755","6500600","新店區"
"241035","462-BY","2017/07/21 18:59:36","新北市三重區重新路四段121號","121.484801666667","25.0519933333333","6500200","三重區"
"235066","003-UY","2017/07/21 18:59:38","新北市中和區中山路二段131巷10弄2號","121.502848333333","25.0023016666667","6500300","中和區"
"235063","006-UY","2017/07/21 18:59:42","新北市中和區連城路319巷11弄7號","121.489603333333","24.9950533333333","6500300","中和區"
"235056","096-UM","2017/07/21 18:59:52","新北市中和區中山路二段596巷44號","121.481643333333","25.0063516666667","6500300","中和區"
"235039","097-UM","2017/07/21 18:59:45","新北市中和區安樂路217巷40弄1號","121.513286666667","24.9978733333333","6500300","中和區"
"235065","098-UM","2017/07/21 18:59:37","新北市中和區中山路二段2巷45弄12號","121.50196","25.0067833333333","6500300","中和區"
"235005","150-BY","2017/07/21 18:59:38","新北市中和區保健路106巷4弄1號","121.512056666667","24.9955383333333","6500300","中和區"
"235058","151-BY","2017/07/21 18:59:44","新北市中和區員山路109號","121.480868333333","24.9946833333333","6500300","中和區"
"235055","183-VK","2017/07/21 18:59:34","新北市中和區德光路89號","121.469083333333","25.0035816666667","6500300","中和區"
"235038","185-VK","2017/07/21 18:59:39","新北市中和區大勇街43巷11號","121.517071666667","24.994595","6500300","中和區"
"235049","186-VK","2017/07/21 18:59:44","新北市中和區景安路167巷32號","121.506855","24.9948916666667","6500300","中和區"
"235067","255-BX","2017/07/21 18:59:39","新北市中和區中山路二段449號","121.483986666667","25.0048616666667","6500300","中和區"
"235044","293-VK","2017/07/21 18:59:48","新北市中和區中興街145號","121.500001666667","24.99121","6500300","中和區"
"235072","301-VK","2017/07/21 18:59:43","新北市中和區中山路二段258號","121.497646666667","25.0024666666667","6500300","中和區"
"235043","352-BY","2017/07/21 18:59:41","新北市中和區成功路103號","121.52597","24.9913916666667","6500300","中和區"
"235051","376-QA","2017/07/21 18:59:36","新北市中和區忠孝街106巷23號","121.51305","24.98446","6500300","中和區"
"235068","377-QA","2017/07/21 18:59:33","新北市中和區圓通路232巷10號","121.494943333333","24.993285","6500300","中和區"
"235061","378-QA","2017/07/21 18:59:53","新北市中和區民治街19巷2號","121.475261666667","25.00265","6500300","中和區"
"235050","4979-A6","2017/07/21 18:58:35","新北市中和區華新街46號","121.507793333333","24.98411","6500300","中和區"
"235069","4980-A6","2017/07/21 18:59:49","新北市中和區中和路217巷8-2號","121.504241666667","25.000405","6500300","中和區"
"235042","551-UM","2017/07/21 18:59:32","新北市中和區秀朗路三段50巷7-1號","121.52584","24.9954116666667","6500300","中和區"
"235045","565-BX","2017/07/21 18:59:44","新北市中和區興南路一段1號","121.511511666667","24.991275","6500300","中和區"
"235070","611-BX","2017/07/21 18:59:46","新北市中和區南山路14號","121.502035","24.9985483333333","6500300","中和區"
"235054","640-BX","2017/07/21 18:59:37","新北市中和區民享街29-1號","121.473988333333","25.0042816666667","6500300","中和區"
"235060","647-TV","2017/07/21 18:59:38","新北市中和區中山路三段208號","121.471526666667","25.006725","6500300","中和區"
"235047","732-UM","2017/07/21 18:59:32","新北市中和區興南路二段54巷2-4號","121.506105","24.985505","6500300","中和區"
"235046","733-UM","2017/07/21 18:59:37","新北市中和區興南路一段113號","121.509148333333","24.9880166666667","6500300","中和區"
"235071","783-BX","2017/07/21 18:59:38","新北市中和區員山路36巷16-3號","121.485171666667","24.9911233333333","6500300","中和區"
"235062","800-TS","2017/07/21 18:59:38","新北市中和區中山路二段456號","121.488665","25.0044116666667","6500300","中和區"
"235057","801-TS","2017/07/21 18:59:42","新北市中和區民安街25巷12弄11號","121.479745","24.9994383333333","6500300","中和區"
"235041","802-TS","2017/07/21 18:59:42","新北市中和區中安街178巷13弄7號","121.510511666667","24.9984866666667","6500300","中和區"
"235052","805-TS","2017/07/21 18:59:31","新北市中和區興南路二段347-2號","121.500943333333","24.9803633333333","6500300","中和區"
"235048","896-TW","2017/07/21 18:59:50","新北市中和區忠孝街2號","121.508785","24.9828633333333","6500300","中和區"
"235053","900-TW","2017/07/21 18:59:34","新北市中和區民德路306巷16號","121.466706666667","24.9954983333333","6500300","中和區"
"235037","AAC-213","2017/07/21 18:59:36","新北市中和區秀朗路三段175巷2號","121.524463333333","24.9912766666667","6500300","中和區"
"235059","AAC-215","2017/07/21 18:59:36","新北市中和區圓通路369巷14弄8號","121.490455","24.987825","6500300","中和區"
"220068","013-TV","2017/07/21 18:59:36","新北市板橋區中山路二段443巷60號","121.481031666667","25.0218066666667","6500100","板橋區"
"220065","072-UY","2017/07/21 18:59:38","新北市板橋區民族路247巷9弄2號","121.471385","25.0078233333333","6500100","板橋區"
"220086","073-UY","2017/07/21 18:59:53","新北市板橋區中正路80巷5號","121.457025","25.0145816666667","6500100","板橋區"
"220106","075-UY","2017/07/21 18:59:40","新北市板橋區文化路二段124巷28-2號","121.471255","25.0256666666667","6500100","板橋區"
"220098","120-SR","2017/07/21 18:59:31","新北市板橋區民有街12號","121.466383333333","25.0247766666667","6500100","板橋區"
"247001","402-BY","2017/07/21 16:41:56","新北市五股區中興路三段3-6號","121.449501666667","25.078715","6501400","蘆洲區"
"247006","341-TH","2017/07/21 18:59:34","新北市五股區中興路三段163號","121.449146666667","25.0808533333333","6501400","蘆洲區"
"247002","336-TH","2017/07/21 18:59:32","新北市五股區中興路三段163號","121.449231666667","25.0808466666667","6501400","蘆洲區"
"247014","057-VK","2017/07/21 18:35:13","新北市五股區中興路三段163號","121.449311666667","25.0809583333333","6501400","蘆洲區"
"226004","312-R5","2017/07/21 18:59:43","新北市平溪區靜安路二段551號","121.749283333333","25.0239866666667","6502400","平溪區"
"228002","663-BX","2017/07/21 18:59:48","新北市貢寮區福隆里東興街106巷21弄2號","121.94617","25.018075","6502600","貢寮區"
"228001","670-TC","2017/07/21 18:59:41","新北市貢寮區仁理村研海街12-1號","121.923775","25.051725","6502600","貢寮區"
"228003","828-UM","2017/07/21 18:59:32","新北市貢寮區和美里龍洞街46號","121.913591666667","25.1116333333333","6502600","貢寮區"
"224010","AGQ-8101","2017/07/21 18:56:46","新北市瑞芳區基山街4號","121.845036666667","25.1096916666667","6501200","瑞芳區"
"224006","676-BX","2017/07/21 18:59:40","新北市瑞芳區中正路2號","121.808941666667","25.1070266666667","6501200","瑞芳區"
"224009","285-BY","2017/07/21 18:59:38","新北市瑞芳區祈堂路53-1號","121.859606666667","25.110625","6501200","瑞芳區"
"224008","275-VK","2017/07/21 18:59:46","新北市瑞芳區瑞芳街118號","121.801463333333","25.1108616666667","6501200","瑞芳區"
"224007","273-VK","2017/07/21 18:59:42","新北市瑞芳區中央路48巷162號","121.759288333333","25.10341","6501200","瑞芳區"
"224005","272-VK","2017/07/21 18:59:36","新北市瑞芳區建基新村28號","121.8128","25.129455","6501200","瑞芳區"
"227011","642-TC","2017/07/21 18:59:42","新北市雙溪區牡丹里中正路58巷23號","121.866406666667","25.0416366666667","6502500","雙溪區"
"227003","400-TW","2017/07/21 18:59:38","新北市雙溪區平林里康福家園10號","121.858823333333","25.0373066666667","6502500","雙溪區"
"253006","032-BX","2017/07/21 18:59:50","新北市石門區八甲4-10號","121.521133333333","25.2826083333333","6502200","石門區"
"253005","295-VK","2017/07/21 18:59:40","新北市石門區中央路28號","121.567848333333","25.2922016666667","6502200","石門區"
"208003","665-BX","2017/07/21 18:59:42","新北市金山區中正路49號","121.634713333333","25.2220083333333","6502700","金山區"
"208001","761-BX","2017/07/21 18:59:37","新北市金山區中山路85號","121.640238333333","25.2187433333333","6502700","金山區"
"251002","012-UM","2017/07/21 18:59:38","新北市淡水區中正東路55-8號","121.446873333333","25.167815","6501000","淡水區"
"251013","180-VK","2017/07/21 18:59:43","新北市淡水區安子內3號","121.487543333333","25.215635","6501000","淡水區"
"251015","182-VK","2017/07/21 18:59:44","新北市淡水區糞箕湖60號","121.485215","25.1723066666667","6501000","淡水區"
"251010","413-VK","2017/07/21 18:59:50","新北市淡水區淡海路111號","121.421916666667","25.1825716666667","6501000","淡水區"
"251012","441-VK","2017/07/21 18:59:33","新北市淡水區新春街126巷15弄1號","121.440521666667","25.180925","6501000","淡水區"
"251001","559-UM","2017/07/21 18:59:42","新北市淡水區自強路58號","121.463213333333","25.1275716666667","6501000","淡水區"
"251009","575-R6","2017/07/21 18:59:40","新北市淡水區重建街34號","121.439961666667","25.17118","6501000","淡水區"
"251007","577-R6","2017/07/21 18:59:49","新北市淡水區民生路135巷30號","121.46658","25.139115","6501000","淡水區"
"251011","650-BX","2017/07/21 18:59:48","新北市淡水區中正東路二段143巷2弄1號","121.460761666667","25.1474216666667","6501000","淡水區"
"251003","673-BX","2017/07/21 18:59:40","新北市淡水區中山北路一段149巷17號","121.442921666667","25.177795","6501000","淡水區"
"207003","550-UM","2017/07/21 18:59:35","新北市萬里區大鵬里頂社24-2號","121.657533333333","25.2102916666667","6502800","萬里區"
"207004","225-TW","2017/07/21 18:59:43","新北市萬里區萬里里獅頭路23號","121.69322","25.1782516666667","6502800","萬里區"
"252002","178-VK","2017/07/21 18:59:48","新北市三芝區中正路一段82號","121.504101666667","25.2572666666667","6502100","三芝區"
"252003","249-BX","2017/07/21 18:59:36","新北市三芝區錫板里海尾14-33號","121.478191666667","25.25998","6502100","三芝區"
"252001","702-TV","2017/07/21 18:59:38","新北市三芝區中興街二段260號","121.501736666667","25.253095","6502100","三芝區"
"208002","170-UY","2017/07/21 18:59:33","新北市金山區仁愛路37-13號","121.635773333333","25.2203116666667","6502700","金山區"
"237004","078-UY","2017/07/21 18:59:31","新北市三峽區有木206號","121.439145","24.8515066666667","6500900","三峽區"
"237007","153-BY","2017/07/21 18:59:34","新北市三峽區中正路二段83巷17號","121.367215","24.9178183333333","6500900","三峽區"
"237013","252-BX","2017/07/21 18:59:42","新北市三峽區大同路52號","121.376898333333","24.9291283333333","6500900","三峽區"
"237012","275-BY","2017/07/21 18:59:42","新北市三峽區三樹路212-2號","121.379271666667","24.9425416666667","6500900","三峽區"
"237008","302-VK","2017/07/21 18:59:50","新北市三峽區中正路一段357號","121.370918333333","24.9229133333333","6500900","三峽區"
"237014","433-BY","2017/07/21 18:59:45","新北市三峽區復興路480巷7-2號","121.358011666667","24.9395933333333","6500900","三峽區"
"237006","5529-G3","2017/07/21 18:59:49","新北市三峽區溪東路233巷47弄2號","121.41067","24.9346233333333","6500900","三峽區"
"237011","572-TV","2017/07/21 18:59:42","新北市三峽區中正路一段64號","121.374733333333","24.92997","6500900","三峽區"
"237015","649-BX","2017/07/21 18:59:51","新北市三峽區建安75-6號","121.450665","24.9248","6500900","三峽區"
"237010","706-TV","2017/07/21 18:55:38","新北市三峽區民生街58號","121.375291666667","24.9363016666667","6500900","三峽區"
"237005","AKY-6261","2017/07/21 18:59:47","新北市三峽區中山路459巷163-3號","121.348765","24.9327983333333","6500900","三峽區"
"236072","105-UM","2017/07/21 18:59:36","新北市土城區清水路99巷13號","121.456763333333","24.9823883333333","6501300","土城區"
"236043","107-UM","2017/07/21 18:59:51","新北市土城區學府路一段256巷2弄2號","121.451183333333","24.9847066666667","6501300","土城區"
"236079","166-UM","2017/07/21 18:59:48","新北市土城區中央路四段466號","121.410106666667","24.950655","6501300","土城區"
"236031","253-BX","2017/07/21 18:59:43","新北市土城區慶利街18號","121.439676666667","24.97371","6501300","土城區"
"236027","269-VK","2017/07/21 18:59:38","新北市土城區光明街5號","121.442051666667","24.97474","6501300","土城區"
"236015","270-VK","2017/07/21 18:59:52","新北市土城區永豐路31巷15號","121.46374","24.9882016666667","6501300","土城區"
"236039","271-VK","2017/07/21 18:59:45","新北市土城區青仁路15號","121.45989","24.978615","6501300","土城區"
"236022","401-BY","2017/07/21 18:59:46","新北市土城區延吉街168巷3號","121.468235","24.985595","6501300","土城區"
"236059","912-UM","2017/07/21 18:59:48","新北市土城區清水路3號","121.452906666667","24.9802616666667","6501300","土城區"
"236050","913-UM","2017/07/21 18:59:49","新北市土城區明德路一段398-1號","121.45365","24.9790916666667","6501300","土城區"
"236063","915-UM","2017/07/21 18:59:41","新北市土城區金城路三段160號","121.467115","24.9874233333333","6501300","土城區"
"236055","AAC-216","2017/07/21 18:59:35","新北市土城區學成路179號","121.447878333333","24.98855","6501300","土城區"
"238023","601-UM","2017/07/21 18:59:52","新北市樹林區工興街15號","121.398088333333","25.0136916666667","6500700","樹林區"
"238019","599-UM","2017/07/21 18:59:42","新北市樹林區東榮街91巷2弄7號","121.41583","24.9821983333333","6500700","樹林區"
"238018","571-TV","2017/07/21 18:59:52","新北市樹林區東榮街8號","121.418081666667","24.983835","6500700","樹林區"
"238024","5061-A6","2017/07/21 18:59:48","新北市樹林區育德街78-1號","121.38732","24.9681383333333","6500700","樹林區"
"238022","312-TH","2017/07/21 18:59:40","新北市樹林區東興街2-2號","121.409258333333","24.9796333333333","6500700","樹林區"
"238021","311-TH","2017/07/21 17:20:03","新北市樹林區西圳街165巷20弄26號","121.39548","24.9601366666667","6500700","樹林區"
"238025","303-VK","2017/07/21 18:59:38","新北市樹林區民和街67號","121.381015","24.9713766666667","6500700","樹林區"
"238017","283-BY","2017/07/21 18:59:43","新北市樹林區光興街44號","121.409933333333","25.0027716666667","6500700","樹林區"
"238014","282-BY","2017/07/21 18:59:34","新北市樹林區潭興街143巷1-1號","121.425705","24.9997","6500700","樹林區"
"238020","268-VK","2017/07/21 18:59:47","新北市樹林區俊英街180號","121.426083333333","25.007635","6500700","樹林區"
"238026","172-UY","2017/07/21 18:59:46","新北市樹林區佳園路一段75巷1號","121.393536666667","24.97001","6500700","樹林區"
"238016","169-UY","2017/07/21 18:59:46","新北市樹林區文化街23號","121.41934","24.9876516666667","6500700","樹林區"
"239007","AAC-297","2017/07/21 18:58:00","新北市鶯歌區中山路138巷40號","121.351388333333","24.9599383333333","6500800","鶯歌區"
"239006","891-R6","2017/07/21 18:59:53","新北市鶯歌區鶯桃路242巷6號","121.336468333333","24.95977","6500800","鶯歌區"
"239008","527-UM","2017/07/21 18:59:34","新北市鶯歌區國際二路18巷23號","121.33772","24.9754483333333","6500800","鶯歌區"
"239005","526-UM","2017/07/21 18:59:51","新北市鶯歌區中湖街16號","121.346765","24.97286","6500800","鶯歌區"
"239001","417-VK","2017/07/21 18:59:47","新北市鶯歌區鶯桃路149號","121.337671666667","24.9550116666667","6500800","鶯歌區"
"239003","360-BY","2017/07/21 18:59:45","新北市鶯歌區鶯桃路658巷49-2號","121.331126666667","24.970455","6500800","鶯歌區"
"239002","359-BY","2017/07/21 18:59:49","新北市鶯歌區中山路292號","121.343851666667","24.9569816666667","6500800","鶯歌區"
"239004","193-VK","2017/07/21 18:59:47","新北市鶯歌區中正三路鄭厝巷65-4號","121.332203333333","24.9327283333333","6500800","鶯歌區"
"221008","489-VK","2017/07/21 18:59:38","新北市汐止區伯爵街2巷3號","121.642173333333","25.0754233333333","6501100","汐止區"
"221036","130-UY","2017/07/21 18:59:45","新北市汐止區南昌街2巷15號","121.6628","25.0687583333333","6501100","汐止區"
"221015","131-UY","2017/07/21 18:59:47","新北市汐止區鄉長路一段33-8號","121.665368333333","25.074875","6501100","汐止區"
"221010","269-BY","2017/07/21 18:59:34","新北市汐止區康寧街901號","121.651411666667","25.07503","6501100","汐止區"
"221031","277-VK","2017/07/21 18:59:32","新北市汐止區福德一路300巷2弄1號","121.631123333333","25.063615","6501100","汐止區"
"221012","278-VK","2017/07/21 18:59:39","新北市汐止區康寧街901號","121.650918333333","25.0754283333333","6501100","汐止區"
"221027","281-BY","2017/07/21 18:59:36","新北市汐止區康寧街901號","121.651356666667","25.0750966666667","6501100","汐止區"
"221038","297-VK","2017/07/21 18:59:35","新北市汐止區康寧街901號","121.650703333333","25.0752966666667","6501100","汐止區"
"221029","298-VK","2017/07/21 18:59:40","新北市汐止區樟樹一路244號","121.642376666667","25.0669716666667","6501100","汐止區"
"221021","299-VK","2017/07/21 18:49:31","新北市汐止區新台五路一段236號","121.65705","25.0634833333333","6501100","汐止區"
"221035","622-UM","2017/07/21 18:59:46","新北市汐止區中正路303號","121.656143333333","25.0678483333333","6501100","汐止區"
"221025","623-UM","2017/07/21 18:59:32","新北市汐止區汐萬路一段256巷3號","121.652506666667","25.07454","6501100","汐止區"
"221033","647-BX","2017/07/21 18:59:32","新北市汐止區南勢街1巷1號","121.627081666667","25.0374583333333","6501100","汐止區"
"221002","707-TV","2017/07/21 18:59:29","新北市汐止區大同路一段2號","121.621068333333","25.0549916666667","6501100","汐止區"
"221018","753-BX","2017/07/21 18:59:32","新北市汐止區汐萬路一段2號","121.656215","25.0671516666667","6501100","汐止區"
"220079","145-BY","2017/07/21 18:59:37","新北市板橋區民權路202巷14弄2號","121.460631666667","25.0158666666667","6500100","板橋區"
"220093","146-RM","2017/07/21 18:59:52","新北市板橋區民生路三段54號","121.467221666667","25.0252283333333","6500100","板橋區"
"220080","200-UY","2017/07/21 18:59:45","新北市板橋區大觀路二段265巷3弄39-1號","121.44447","24.9977916666667","6500100","板橋區"
"220082","610-BX","2017/07/21 18:59:37","新北市板橋區篤行路二段136號","121.429778333333","24.9883933333333","6500100","板橋區"
"220101","245-BX","2017/07/21 15:42:59","新北市板橋區民生路二段89-6號","121.47038","25.0192166666667","6500100","板橋區"
"220069","258-TC","2017/07/21 18:59:42","新北市板橋區中山路一段160-6號","121.466265","25.0122616666667","6500100","板橋區"
"220056","276-BY","2017/07/21 18:59:49","新北市板橋區信義路104號","121.458206666667","24.9928033333333","6500100","板橋區"
"220072","277-BY","2017/07/21 18:59:38","新北市板橋區大觀路三段5-4號","121.432753333333","24.9959216666667","6500100","板橋區"
"220064","280-UM","2017/07/21 18:59:30","新北市板橋區漢生東路250號","121.467663333333","25.0136416666667","6500100","板橋區"
"220071","283-VK","2017/07/21 18:59:39","新北市板橋區忠孝路176巷3號","121.464658333333","25.0020866666667","6500100","板橋區"
"220094","285-UM","2017/07/21 18:59:40","新北市板橋區莒光路5號","121.469723333333","25.02491","6500100","板橋區"
"220053","285-VK","2017/07/21 18:59:45","新北市板橋區中山路二段89巷53號","121.473608333333","25.0173633333333","6500100","板橋區"
"220083","286-VK","2017/07/21 18:59:48","新北市板橋區大觀路一段38巷156弄168號","121.444106666667","25.009395","6500100","板橋區"
"220081","287-VK","2017/07/21 18:59:48","新北市板橋區南雅西路二段96號","121.45247","25.0114416666667","6500100","板橋區"
"220090","288-VK","2017/07/21 18:59:48","新北市板橋區四維路179號","121.464293333333","25.02639","6500100","板橋區"
"220061","293-UM","2017/07/21 18:59:45","新北市板橋區富山街109巷71號","121.475251666667","25.0212233333333","6500100","板橋區"
"220084","296-UM","2017/07/21 18:59:42","新北市板橋區大觀路二段156巷99號","121.441128333333","25.001075","6500100","板橋區"
"220075","297-UM","2017/07/21 18:59:46","新北市板橋區館前西路158號","121.454813333333","25.00863","6500100","板橋區"
"220062","303-R5","2017/07/21 18:59:43","新北市板橋區民享街118號","121.477755","25.0161216666667","6500100","板橋區"
"220092","307-R5","2017/07/21 18:59:47","新北市板橋區板新路237號","121.467591666667","25.0159566666667","6500100","板橋區"
"220089","487-VK","2017/07/21 18:59:37","新北市板橋區民生路二段232-12號","121.468626666667","25.0225","6500100","板橋區"
"220088","491-VK","2017/07/21 18:59:38","新北市板橋區民生路二段166號","121.47145","25.0201383333333","6500100","板橋區"
"220035","560-BX","2017/07/21 18:59:40","新北市板橋區中正路275巷1號","121.4553","25.0187816666667","6500100","板橋區"
"220103","561-BX","2017/07/21 18:59:31","新北市板橋區民生路二段123號","121.470658333333","25.0187366666667","6500100","板橋區"
"220063","609-BX","2017/07/21 18:59:45","新北市板橋區中山路二段170號","121.477041666667","25.017265","6500100","板橋區"
"220091","637-BX","2017/07/21 18:59:48","新北市板橋區莊敬路208巷2弄6號","121.471598333333","25.021575","6500100","板橋區"
"220057","686-BX","2017/07/21 18:59:49","新北市板橋區中山路一段263號","121.468721666667","25.013315","6500100","板橋區"
"220077","687-BX","2017/07/21 18:59:49","新北市板橋區龍興街8號","121.442761666667","24.9996566666667","6500100","板橋區"
"220054","741-BX","2017/07/21 18:59:51","新北市板橋區中山路一段160-6號","121.466408333333","25.0125366666667","6500100","板橋區"
"220055","827-TW","2017/07/21 18:59:42","新北市板橋區中山路一段291-2號","121.470696666667","25.0142416666667","6500100","板橋區"
"220067","829-TW","2017/07/21 18:59:36","新北市板橋區三民路二段正隆巷12弄23號","121.477368333333","25.0137716666667","6500100","板橋區"
"220102","830-TW","2017/07/21 18:59:43","新北市板橋區懷德街235巷2-1號","121.481351666667","25.02807","6500100","板橋區"
"220096","831-TW","2017/07/21 18:59:44","新北市板橋區莒光路74號","121.471441666667","25.0241716666667","6500100","板橋區"
"220074","895-R6","2017/07/21 18:59:43","新北市板橋區林園街16號","121.453956666667","25.0097633333333","6500100","板橋區"
"220073","985-R7","2017/07/21 18:59:51","新北市板橋區中正路144號","121.45693","25.016115","6500100","板橋區"
"220097","AAC-210","2017/07/21 18:59:48","新北市板橋區陽明街162號","121.463455","25.0244466666667","6500100","板橋區"
"220070","AAC-253","2017/07/21 18:59:53","新北市板橋區中山路一段162號","121.466671666667","25.012395","6500100","板橋區"
