"lineid","car","time","location","longitude","latitude","cityid","cityname"
"234013","149-BY","2017/07/21 20:39:47","新北市五股區中直路17-4號","121.423021666667","25.1111883333333","6500400","永和區"
"234064","337-UY","2017/07/21 20:39:35","新北市永和區福和路5-2號","121.524901666667","25.0087083333333","6500400","永和區"
"234086","338-UY","2017/07/21 20:39:50","新北市永和區光復街32號","121.516561666667","25.0174333333333","6500400","永和區"
"234061","AAD-866","2017/07/21 20:39:40","新北市永和區秀朗路一段120號","121.517","25.0035833333333","6500400","永和區"
"234042","862-TW","2017/07/21 20:39:51","新北市永和區永和路二段131號","121.515145","25.0122283333333","6500400","永和區"
"234050","863-TW","2017/07/21 20:39:39","新北市永和區新生路273巷1-1號","121.504903333333","25.0124583333333","6500400","永和區"
"249004","303-UY","2017/07/21 20:39:47","新北市八里區中山路一段217巷70號","121.411915","25.1575366666667","6502300","八里區"
"249002","305-UY","2017/07/21 20:39:43","新北市八里區大崁腳48-51號","121.425051666667","25.15926","6502300","八里區"
"249001","759-BX","2017/07/21 20:39:47","新北市八里區中山路三段335號","121.377241666667","25.13876","6502300","八里區"
"234023","9380-KE","2017/07/21 20:39:50","新北市永和區竹林路27-1號","121.517508333333","25.0148116666667","6500400","永和區"
"234074","AAC-211","2017/07/21 20:39:44","新北市永和區竹林路39巷32弄22號","121.520896666667","25.015235","6500400","永和區"
"234067","AAC-212","2017/07/21 20:39:39","新北市中和區保平路231號","121.507968333333","25.004445","6500400","永和區"
"234003","AAC-295","2017/07/21 20:39:44","新北市永和區福和路1號","121.526095","25.0096716666667","6500400","永和區"
"244025","656-BX","2017/07/21 20:09:35","新北市林口區粉寮69號","121.405068333333","25.09078","6501700","林口區"
"243010","548-UM","2017/07/21 20:39:48","新北市泰山區黎明里35號","121.411046666667","25.0702666666667","6501600","泰山區"
"222003","436-BY","2017/07/21 20:39:35","新北市深坑區麻竹寮2-9號","121.614493333333","24.999","6501800","深坑區"
"222001","628-TS","2017/07/21 20:39:37","新北市深坑區北深路三段234號","121.60063","25.0039716666667","6501800","深坑區"
"222002","659-BX","2017/07/21 20:39:41","新北市深坑區萬福路43號","121.599385","25.0068533333333","6501800","深坑區"
"231041","002-UM","2017/07/21 20:39:48","新北市新店區中正路568號","121.533826666667","24.9877833333333","6500600","新店區"
"231056","0293-UT","2017/07/21 20:39:43","新北市新店區中正路468號","121.533888333333","24.979695","6500600","新店區"
"231059","046-UY","2017/07/21 20:39:49","新北市新店區僑愛一路1號","121.499861666667","24.94485","6500600","新店區"
"231061","047-UY","2017/07/21 20:39:40","新北市新店區新和街46號","121.519338333333","24.98497","6500600","新店區"
"231060","106-UY","2017/07/21 20:39:48","新北市新店區安康路三段738號","121.473855","24.9420716666667","6500600","新店區"
"231051","107-UY","2017/07/21 20:39:50","新北市新店區中央八街86號","121.527031666667","24.97735","6500600","新店區"
"231048","110-UY","2017/07/21 20:39:51","新北市新店區寶慶街36號","121.542996666667","24.9867383333333","6500600","新店區"
"231053","187-VK","2017/07/21 20:39:41","新北市新店區廣興路7-1號","121.54591","24.9120333333333","6500600","新店區"
"231057","256-BX","2017/07/21 20:39:37","新北市新店區花園六路二段20號","121.555293333333","24.93317","6500600","新店區"
"231063","268-BY","2017/07/21 20:39:50","新北市新店區玫瑰路4-1號","121.493573333333","24.95141","6500600","新店區"
"231050","AAD-862","2017/07/21 20:39:45","新北市新店區建興街9巷1號","121.539876666667","24.9763516666667","6500600","新店區"
"231058","3712-VJ","2017/07/21 20:39:32","新北市新店區自由街55號","121.534426666667","24.973615","6500600","新店區"
"231065","512-UM","2017/07/21 20:39:51","新北市新店區安祥路102巷119號","121.486326666667","24.9643033333333","6500600","新店區"
"231054","513-UM","2017/07/21 20:39:41","新北市新店區行政街45號","121.543001666667","24.965525","6500600","新店區"
"231064","515-UM","2017/07/21 20:39:35","新北市新店區安和路三段175號","121.515733333333","24.9863216666667","6500600","新店區"
"231045","617-UM","2017/07/21 20:39:48","新北市新店區長春路120號","121.555623333333","24.961935","6500600","新店區"
"231040","619-UM","2017/07/21 20:39:52","新北市新店區中正路263巷16號","121.538011666667","24.97296","6500600","新店區"
"231042","641-BX","2017/07/21 20:39:42","新北市新店區寶高路120巷3弄2號","121.554633333333","24.975715","6500600","新店區"
"231068","718-UY","2017/07/21 20:39:34","新北市新店區寶元路一段85巷8號","121.543108333333","24.9858583333333","6500600","新店區"
"231049","719-UM","2017/07/21 20:39:38","新北市新店區永業路81巷5弄31號","121.531041666667","24.94985","6500600","新店區"
"231062","720-UM","2017/07/21 20:39:42","新北市新店區安康路三段148號","121.490685","24.9517366666667","6500600","新店區"
"231044","897-TW","2017/07/21 20:39:45","新北市新店區建國路293巷1號","121.536723333333","24.986175","6500600","新店區"
"231043","899-TW","2017/07/21 20:39:51","新北市新店區建國路35巷1號","121.540433333333","24.9744666666667","6500600","新店區"
"231066","AKT-0513","2017/07/21 20:39:41","新北市新店區安興路112號","121.514595","24.97763","6500600","新店區"
"241011","013-R5","2017/07/21 20:39:43","新北市三重區龍濱路219巷12號","121.502341666667","25.0722433333333","6500200","三重區"
"241028","022-UY","2017/07/21 20:39:35","新北市三重區光興街91號","121.497351666667","25.05991","6500200","三重區"
"241009","060-VK","2017/07/21 20:39:41","新北市三重區碧華街57號","121.48476","25.08129","6500200","三重區"
"241031","061-VK","2017/07/21 20:39:34","新北市三重區重陽路一段43巷30號","121.488163333333","25.058595","6500200","三重區"
"241015","062-VK","2017/07/21 20:39:50","新北市三重區文化北路200巷13號","121.497953333333","25.06816","6500200","三重區"
"241017","063-VK","2017/07/21 20:39:51","新北市三重區大同北路265號","121.4909","25.0672283333333","6500200","三重區"
"241024","065-VK","2017/07/21 20:39:27","新北市三重區國道路一段58巷18號","121.480956666667","25.072025","6500200","三重區"
"241026","066-VK","2017/07/21 20:39:44","新北市三重區文化南路7號","121.500018333333","25.0623466666667","6500200","三重區"
"241002","090-VK","2017/07/21 20:39:37","新北市三重區仁義街167巷14號","121.497586666667","25.0818383333333","6500200","三重區"
"241003","091-VK","2017/07/21 20:39:42","新北市三重區五華街141巷58號","121.493548333333","25.0867766666667","6500200","三重區"
"241019","156-TC","2017/07/21 20:39:40","新北市三重區大智街125號","121.491291666667","25.0702983333333","6500200","三重區"
"241001","265-UM","2017/07/21 20:39:33","新北市三重區自強路三段110巷27號","121.485865","25.0744883333333","6500200","三重區"
"241016","266-UM","2017/07/21 20:39:51","新北市三重區長壽西街85號","121.495121666667","25.06699","6500200","三重區"
"241022","267-UM","2017/07/21 20:39:43","新北市三重區中正北路20巷12號","121.48799","25.0624633333333","6500200","三重區"
"241018","268-UM","2017/07/21 20:39:41","新北市三重區重陽路四段27號","121.49143","25.0696333333333","6500200","三重區"
"241032","269-UM","2017/07/21 20:39:34","新北市三重區重陽路一段120巷48號","121.485033333333","25.0601616666667","6500200","三重區"
"241013","270-UM","2017/07/21 20:39:46","新北市三重區三和路三段92號","121.49434","25.0720033333333","6500200","三重區"
"241025","271-UM","2017/07/21 20:39:51","新北市三重區頂崁街210巷27號","121.475763333333","25.0681333333333","6500200","三重區"
"241007","398-BY","2017/07/21 20:39:36","新北市三重區自強路四段5號","121.488518333333","25.0762383333333","6500200","三重區"
"241008","412-TH","2017/07/21 20:39:44","新北市三重區下竹圍街91號","121.481105","25.07488","6500200","三重區"
"241020","413-TH","2017/07/21 20:39:47","新北市三重區忠孝路一段101號","121.489421666667","25.0721366666667","6500200","三重區"
"241035","462-BY","2017/07/21 20:39:36","新北市三重區正義北路332號","121.49461","25.0707566666667","6500200","三重區"
"241004","475-VK","2017/07/21 20:39:44","新北市三重區仁愛街420號","121.490283333333","25.0813466666667","6500200","三重區"
"241005","478-VK","2017/07/21 20:39:55","新北市三重區五華街141巷58號","121.49342","25.0865416666667","6500200","三重區"
"241030","480-VK","2017/07/21 20:39:41","新北市三重區成功路73巷20號","121.489465","25.0519733333333","6500200","三重區"
"241014","543-UM","2017/07/21 20:39:47","新北市三重區萬壽街12號","121.499295","25.0693716666667","6500200","三重區"
"241023","545-UM","2017/07/21 20:39:39","新北市三重區自由街57號","121.478481666667","25.066495","6500200","三重區"
"241012","941-UM","2017/07/21 20:39:40","新北市三重區秀江街28號","121.502356666667","25.0729933333333","6500200","三重區"
"241029","942-UM","2017/07/21 20:39:34","新北市三重區集美街126巷20號","121.489815","25.0537733333333","6500200","三重區"
"235039","097-UM","2017/07/21 20:39:45","新北市中和區大勇街29巷14號","121.51581","24.9946216666667","6500300","中和區"
"235005","150-BY","2017/07/21 20:39:37","新北市新店區薏仁坑路6號","121.500351666667","24.9579516666667","6500300","中和區"
"235050","4979-A6","2017/07/21 20:39:35","新北市中和區南華路81號","121.505446666667","24.9973783333333","6500300","中和區"
"235069","4980-A6","2017/07/21 20:39:41","新北市中和區員山路325-5號","121.481151666667","25.0010666666667","6500300","中和區"
"235042","551-UM","2017/07/21 20:39:52","新北市中和區員山路36巷13號","121.484243333333","24.9906916666667","6500300","中和區"
"235026","800-TS","2017/07/21 20:39:37","新北市中和區員山路36巷16-3號","121.485153333333","24.9912316666667","6500300","中和區"
"235037","AAC-213","2017/07/21 20:39:35","新北市中和區成功路139號","121.525846666667","24.99044","6500300","中和區"
"247020","893-R6","2017/07/21 20:39:45","新北市蘆洲區仁愛街73號","121.471565","25.0937216666667","6501400","蘆洲區"
"247010","546-UM","2017/07/21 20:39:38","新北市蘆洲區中山一路138號","121.476305","25.0816566666667","6501400","蘆洲區"
"247001","402-BY","2017/07/21 20:39:35","新北市五股區中興路三段5號","121.449516666667","25.0792783333333","6501400","蘆洲區"
"247006","341-TH","2017/07/21 20:39:49","新北市蘆洲區和平路121巷14弄3號","121.466321666667","25.07941","6501400","蘆洲區"
"247008","339-TH","2017/07/21 20:39:45","新北市蘆洲區永安北路二段10號","121.481038333333","25.0805","6501400","蘆洲區"
"247024","337-TH","2017/07/21 20:39:44","新北市蘆洲區長樂路118號","121.462065","25.090035","6501400","蘆洲區"
"247002","336-TH","2017/07/21 20:39:43","新北市蘆洲區永樂街2號","121.45929","25.0881966666667","6501400","蘆洲區"
"247014","057-VK","2017/07/21 20:39:49","新北市蘆洲區成功路86號","121.47304","25.08149","6501400","蘆洲區"
"247004","056-VK","2017/07/21 20:39:38","新北市蘆洲區長安街297號","121.45804","25.0848516666667","6501400","蘆洲區"
"247012","007-UY","2017/07/21 20:39:41","新北市蘆洲區信義路224號","121.478936666667","25.0852466666667","6501400","蘆洲區"
"247022","002-UY","2017/07/21 20:39:43","新北市蘆洲區中正路185巷46弄30號","121.466798333333","25.085805","6501400","蘆洲區"
"247016","001-UY","2017/07/21 20:39:43","新北市蘆洲區中山二路288號","121.468816666667","25.0777683333333","6501400","蘆洲區"
"251002","012-UM","2017/07/21 20:39:46","新北市淡水區中正路38-1號","121.443693333333","25.16925","6501000","淡水區"
"251013","180-VK","2017/07/21 20:39:43","新北市淡水區下圭柔山28巷21號","121.458043333333","25.2038666666667","6501000","淡水區"
"251015","182-VK","2017/07/21 20:39:44","新北市淡水區興仁路103巷33號","121.449913333333","25.2171866666667","6501000","淡水區"
"251010","413-VK","2017/07/21 20:39:50","新北市淡水區沙崙路181巷15號","121.423725","25.1842433333333","6501000","淡水區"
"251012","441-VK","2017/07/21 20:39:53","新北市淡水區興仁路99號","121.451695","25.2180516666667","6501000","淡水區"
"251001","559-UM","2017/07/21 20:39:42","新北市淡水區淡金路一段20號","121.46025","25.1704466666667","6501000","淡水區"
"251006","561-UM","2017/07/21 20:39:46","新北市淡水區商工路186巷1號","121.450435","25.1883066666667","6501000","淡水區"
"251007","577-R6","2017/07/21 20:39:49","新北市淡水區忠愛街3-1號","121.458218333333","25.17148","6501000","淡水區"
"251011","650-BX","2017/07/21 20:39:48","新北市淡水區新市一路一段361號","121.436211666667","25.1861616666667","6501000","淡水區"
"251003","673-BX","2017/07/21 20:39:39","新北市淡水區新民街120巷17號","121.438268333333","25.178005","6501000","淡水區"
"252001","702-TV","2017/07/21 20:39:38","新北市三芝區長安街34號","121.501618333333","25.2562066666667","6502100","三芝區"
"242021","AAC-296","2017/07/21 20:39:43","新北市新莊區公園路64號","121.449471666667","25.039395","6500500","新莊區"
"242029","986-R7","2017/07/21 20:39:36","新北市新莊區昌隆街3巷1弄2號","121.454211666667","25.0513066666667","6500500","新莊區"
"242048","751-BX","2017/07/21 20:39:49","新北市新莊區中正路723-8號","121.423118333333","25.0289533333333","6500500","新莊區"
"242025","615-BX","2017/07/21 20:39:53","新北市三重區光復路二段178-1號","121.471781666667","25.0619816666667","6500500","新莊區"
"242023","613-BX","2017/07/21 20:39:44","新北市新莊區復興路三段62號","121.463598333333","25.0445533333333","6500500","新莊區"
"242027","612-BX","2017/07/21 20:39:40","新北市新莊區思源路41號","121.460013333333","25.039825","6500500","新莊區"
"242037","566-BX","2017/07/21 20:39:42","新北市新莊區建安街10-1號","121.428493333333","25.026515","6500500","新莊區"
"242005","442-UM","2017/07/21 20:39:42","新北市新莊區化成路371巷27號","121.463553333333","25.057015","6500500","新莊區"
"242046","441-UM","2017/07/21 20:39:50","新北市新莊區富國路22巷17號","121.4184","25.0258683333333","6500500","新莊區"
"242050","440-UM","2017/07/21 20:39:37","新北市新莊區民安西路111巷1號","121.426745","25.0182733333333","6500500","新莊區"
"242032","415-TV","2017/07/21 20:39:35","新北市新莊區中正路500號","121.435966666667","25.0330783333333","6500500","新莊區"
"242002","413-TV","2017/07/21 20:39:42","新北市新莊區中港路五守新村37巷1號","121.454588333333","25.038835","6500500","新莊區"
"242039","400-BY","2017/07/21 20:39:37","新北市新莊區瓊林路204-13號","121.437401666667","25.0212916666667","6500500","新莊區"
"242060","362-BY","2017/07/21 20:39:38","新北市新莊區新樹路262號","121.432693333333","25.0148216666667","6500500","新莊區"
"242058","353-BY","2017/07/21 20:39:47","新北市新莊區四維路95號","121.42341","25.0238016666667","6500500","新莊區"
"242011","132-UY","2017/07/21 20:39:40","新北市新莊區中榮街120號","121.446683333333","25.05283","6500500","新莊區"
"242034","133-UY","2017/07/21 20:39:47","新北市新莊區中正路334巷25弄25號","121.44535","25.0359766666667","6500500","新莊區"
"242019","135-UY","2017/07/21 20:39:44","新北市新莊區銘德街113號","121.455563333333","25.0432766666667","6500500","新莊區"
"242044","172-VK","2017/07/21 20:39:47","新北市新莊區龍安路108號","121.418373333333","25.0205316666667","6500500","新莊區"
"242007","173-VK","2017/07/21 20:39:41","新北市新莊區思源路51號","121.459951666667","25.0401066666667","6500500","新莊區"
"242013","175-VK","2017/07/21 20:39:36","新北市新莊區中和街175巷11號","121.447283333333","25.050585","6500500","新莊區"
"242056","176-VK","2017/07/21 20:39:44","新北市新莊區瓊泰路31號","121.44403","25.0285816666667","6500500","新莊區"
"242041","346-TH","2017/07/21 20:39:41","新北市新莊區天祥街13號","121.417158333333","25.0275583333333","6500500","新莊區"
"242017","348-TH","2017/07/21 20:39:36","新北市新莊區復興路一段85號","121.448506666667","25.0427266666667","6500500","新莊區"
"242054","349-TH","2017/07/21 20:39:40","新北市新莊區西盛街323巷24號","121.42889","25.0146916666667","6500500","新莊區"
"242015","350-TH","2017/07/21 20:39:41","新北市新莊區中和街28號","121.448256666667","25.0437416666667","6500500","新莊區"
"242009","351-TH","2017/07/21 20:39:43","新北市新莊區思源路319號","121.459611666667","25.049245","6500500","新莊區"
"238023","601-UM","2017/07/21 20:39:52","新北市樹林區中山路三段204號","121.387243333333","24.9683516666667","6500700","樹林區"
"221008","489-VK","2017/07/21 20:39:38","新北市汐止區康寧街706-2號","121.63843","25.073035","6501100","汐止區"
"221036","130-UY","2017/07/21 20:39:34","新北市汐止區新昌路41號","121.66239","25.0680933333333","6501100","汐止區"
"221015","131-UY","2017/07/21 20:39:47","新北市汐止區建成路52號","121.663698333333","25.0728683333333","6501100","汐止區"
"221031","277-VK","2017/07/21 20:39:52","新北市汐止區中興路27巷21號","121.634068333333","25.0608716666667","6501100","汐止區"
"221012","278-VK","2017/07/21 20:39:39","新北市汐止區汐萬路一段39號","121.655186666667","25.06893","6501100","汐止區"
"221027","281-BY","2017/07/21 20:39:40","新北市汐止區大同路二段447號","121.65976","25.0677016666667","6501100","汐止區"
"221038","297-VK","2017/07/21 20:39:35","新北市汐止區忠孝東路9號","121.657695","25.0655983333333","6501100","汐止區"
"221029","298-VK","2017/07/21 20:39:47","新北市汐止區新台五路一段79-12號","121.645473333333","25.0620583333333","6501100","汐止區"
"221021","299-VK","2017/07/21 20:31:10","新北市汐止區水源路一段284號","121.654233333333","25.0582616666667","6501100","汐止區"
"221035","622-UM","2017/07/21 20:39:45","新北市汐止區長江街101-5號","121.658715","25.0731983333333","6501100","汐止區"
"221025","623-UM","2017/07/21 20:39:32","新北市汐止區水源路二段283巷1號","121.65928","25.0498816666667","6501100","汐止區"
"221033","647-BX","2017/07/21 20:39:32","新北市汐止區合順街18巷8弄5號","121.620286666667","25.04193","6501100","汐止區"
"221002","707-TV","2017/07/21 20:39:49","新北市汐止區福德二路169號","121.630853333333","25.0651533333333","6501100","汐止區"
"221018","753-BX","2017/07/21 20:39:39","新北市汐止區中華街15號","121.666803333333","25.0710066666667","6501100","汐止區"
"220083","286-VK","2017/07/21 20:39:47","新北市板橋區僑中二街108巷17號","121.44505","25.007415","6500100","板橋區"
"220089","487-VK","2017/07/21 20:39:37","新北市板橋區四維路322號","121.46229","25.0301","6500100","板橋區"
"220103","561-BX","2017/07/21 20:39:51","新北市板橋區漢生東路83巷24號","121.467441666667","25.0167166666667","6500100","板橋區"
