"lineid","car","time","location","longitude","latitude","cityid","cityname"
"232009","290-BY","2017/07/22 06:59:41","新北市坪林區九芎林23-1號","121.70516","24.9258033333333","6502000","坪林區"
"232004","291-BY","2017/07/22 06:59:48","新北市坪林區九芎坑16-3號","121.73947","24.9491216666667","6502000","坪林區"
"232010","375-UM","2017/07/22 06:59:33","新北市坪林區水聳淒坑29號","121.711638333333","24.9331216666667","6502000","坪林區"
"232016","705-BZ","2017/07/22 06:59:46","新北市坪林區金瓜寮1-1號","121.682016666667","24.9253683333333","6502000","坪林區"
"244005","248-BX","2017/07/22 06:59:33","新北市林口區中山路761號","121.375828333333","25.0853916666667","6501700","林口區"
"222004","289-BY","2017/07/22 06:59:39","新北市深坑區文山路二段30巷12號","121.615626666667","24.9994716666667","6501800","深坑區"
"223006","022-BY","2017/07/22 06:59:37","新北市石碇區新興坑19號","121.653843333333","25.0198666666667","6501900","石碇區"
"223002","198-BX","2017/07/22 06:59:42","新北市石碇區烏塗窟48號","121.65275","24.9690866666667","6501900","石碇區"
"223008","406-TH","2017/07/22 06:59:41","新北市石碇區雙溪81-1號","121.664278333333","25.0092216666667","6501900","石碇區"
"223001","437-BY","2017/07/22 06:59:47","新北市石碇區石碇東街143號","121.658968333333","24.9890983333333","6501900","石碇區"
"223004","660-BX","2017/07/22 06:59:47","新北市石碇區碇坪路一段62號","121.657168333333","24.99159","6501900","石碇區"
"223007","661-BX","2017/07/22 06:59:44","新北市石碇區雙溪81-1號","121.665001666667","25.0090516666667","6501900","石碇區"
"223005","677-TV","2017/07/22 06:59:48","新北市石碇區碇坪路一段66號","121.657225","24.9915366666667","6501900","石碇區"
"227006","282-VK","2017/07/22 06:59:46","新北市雙溪區新基里自強路5號","121.86634","25.0390716666667","6502500","雙溪區"
"252007","AAC-283","2017/07/22 06:59:46","新北市三芝區古庄里山豬堀2號","121.500685","25.24907","6502100","三芝區"
"236011","165-UM","2017/07/22 06:59:40","新北市土城區永平街51號","121.427956666667","24.9591666666667","6501300","土城區"
