"lineid","car","time","location","longitude","latitude","cityid","cityname"
"248005","653-BX","2017/12/12 09:21:32","新北市五股區水碓三路63號","121.430348333333","25.0715383333333","6501500","五股區"
"222004","289-BY","2017/12/12 09:21:40","新北市深坑區王軍寮11-2號","121.620186666667","24.9846433333333","6501800","深坑區"
"231007","189-VK","2017/12/12 09:21:44","新北市新店區新潭路三段211號","121.50456","24.9052966666667","6500600","新店區"
"231009","192-VK","2017/12/12 09:21:31","新北市新店區平廣路一段22號","121.537555","24.9059416666667","6500600","新店區"
"247001","402-BY","2017/12/12 09:21:46","新北市蘆洲區鷺江街23號","121.478823333333","25.08244","6501400","蘆洲區"
"223002","198-BX","2017/12/12 09:21:32","新北市石碇區小粗坑(潭邊里)1-6號","121.672018333333","24.9826766666667","6501900","石碇區"
"227006","282-VK","2017/12/12 09:21:44","新北市雙溪區長源里土地公山2-2號","121.795728333333","25.0113183333333","6502500","雙溪區"
"227012","030-BX","2017/12/12 09:20:59","新北市坪林區坪雙路三段67號","121.785868333333","24.976955","6502500","雙溪區"
"252004","249-BX","2017/12/12 09:21:41","新北市三芝區店子里店子112-4號","121.510465","25.2096116666667","6502100","三芝區"
"252007","AAC-283","2017/12/12 09:21:31","新北市三芝區古庄里四棧橋20號","121.48866","25.2610733333333","6502100","三芝區"
"237001","159-UY","2017/12/12 09:21:42","新北市三峽區學勤路113號","121.375206666667","24.94643","6500900","三峽區"
"236008","165-UM","2017/12/12 09:21:40","新北市土城區中央路四段246號","121.415211666667","24.956955","6501300","土城區"
"236002","339-SR","2017/12/12 09:21:32","新北市土城區中央路三段46號","121.43722","24.9677283333333","6501300","土城區"
"236006","498-BY","2017/12/12 09:21:46","新北市土城區承天路62巷4號","121.440321666667","24.9614383333333","6501300","土城區"
"220080","461-BY","2017/12/12 09:21:50","新北市五股區凌雲路三段32-1號","121.431461666667","25.1080066666667","6500100","板橋區"
