"lineid","car","time","location","longitude","latitude","cityid","cityname"
"243004","AAD-798","2017/12/12 10:45:12","新北市泰山區黎明路25號","121.422066666667","25.0607833333333","6501600","泰山區"
"231007","189-VK","2017/12/12 10:48:09","新北市新店區新潭路二段136-1號","121.512718333333","24.9219083333333","6500600","新店區"
"231009","192-VK","2017/12/12 10:47:51","新北市新店區松林路1號","121.547096666667","24.912145","6500600","新店區"
"247001","402-BY","2017/12/12 10:48:04","新北市蘆洲區中華街73號","121.462075","25.080425","6501400","蘆洲區"
"227006","282-VK","2017/12/12 10:48:04","新北市雙溪區共和里中山路4號","121.864028333333","25.0336283333333","6502500","雙溪區"
