"lineid","car","time","location","longitude","latitude","cityid","cityname"
"243004","AAD-798","2017/12/12 10:45:12","新北市泰山區黎明路25號","121.422066666667","25.0607833333333","6501600","泰山區"
"231007","189-VK","2017/12/12 11:19:44","新北市新店區新潭路一段19號","121.523126666667","24.9428666666667","6500600","新店區"
"231009","192-VK","2017/12/12 11:11:11","新北市新店區成功路210號","121.527998333333","24.8883983333333","6500600","新店區"
"247001","402-BY","2017/12/12 11:04:52","新北市五股區中興路三段5號","121.449435","25.0792733333333","6501400","蘆洲區"
"227006","282-VK","2017/12/12 11:19:52","新北市雙溪區魚行里公館12-1號","121.880518333333","25.0234466666667","6502500","雙溪區"
