"lineid","car","time","location","longitude","latitude","cityid","cityname"
"234040","862-TW","2017/12/12 12:19:44","新北市永和區福和路1號","121.526535","25.009585","6500400","永和區"
"243004","AAD-798","2017/12/12 11:59:39","新北市泰山區犁頭窠3-1號","121.421953333333","25.0605766666667","6501600","泰山區"
"235031","255-BX","2017/12/12 11:58:10","新北市中和區和城路一段271巷1號","121.485648333333","24.991795","6500300","中和區"
"247001","402-BY","2017/12/12 11:36:44","新北市五股區中興路三段5號","121.4493","25.0792766666667","6501400","蘆洲區"
"228004","212-TW","2017/12/12 12:19:44","新北市貢寮區貢寮里長泰路13-1號","121.898195","25.0205133333333","6502600","貢寮區"
"228005","828-UM","2017/12/12 12:19:44","新北市貢寮區福連里福興街39-3號","121.994465","25.0140933333333","6502600","貢寮區"
"221012","276-VK","2017/12/12 12:19:37","新北市汐止區中正路237巷14弄21號","121.657551666667","25.0684816666667","6501100","汐止區"
"221015","567-BX","2017/12/12 12:19:33","新北市汐止區中正路245號","121.657538333333","25.068545","6501100","汐止區"
