"lineid","car","time","location","longitude","latitude","cityid","cityname"
"234044","148-BY","2017/12/12 13:21:37","新北市永和區秀朗路二段89號","121.52326","25.00172","6500400","永和區"
"234012","149-BY","2017/12/12 13:21:32","新北市永和區信義路21號","121.514171666667","25.0121433333333","6500400","永和區"
"234005","207-UY","2017/12/12 13:21:39","新北市中和區中山路二段58號","121.504065","25.0047483333333","6500400","永和區"
"234078","298-R6","2017/12/12 13:21:50","新北市永和區環河東路三段54號","121.526836666667","25.0061933333333","6500400","永和區"
"234036","336-UY","2017/12/12 13:21:44","新北市永和區民樂街47巷1號","121.52745","24.99919","6500400","永和區"
"234062","337-UY","2017/12/12 13:21:43","新北市永和區秀朗路二段54巷8號","121.521686666667","25.0017683333333","6500400","永和區"
"234084","338-UY","2017/12/12 13:21:45","新北市永和區永亨路9號","121.519335","25.005835","6500400","永和區"
"234068","552-UM","2017/12/12 13:21:46","新北市永和區中正路666巷17號","121.517423333333","25.0091416666667","6500400","永和區"
"234052","553-UM","2017/12/12 13:21:42","新北市永和區中興街12號","121.515713333333","25.01189","6500400","永和區"
"234015","745-BX","2017/12/12 13:21:41","新北市永和區環河西路一段87號","121.512301666667","25.01796","6500400","永和區"
"234028","746-BX","2017/12/12 13:21:46","新北市永和區厚德街11號","121.525538333333","24.9984683333333","6500400","永和區"
"234060","AAD-866","2017/12/12 13:21:44","新北市永和區秀朗路一段114號","121.51691","25.0037066666667","6500400","永和區"
"234040","862-TW","2017/12/12 13:21:43","新北市永和區永貞路289號","121.511071666667","25.0054133333333","6500400","永和區"
"234048","863-TW","2017/12/12 13:21:37","新北市永和區仁愛路113號","121.512196666667","25.0130966666667","6500400","永和區"
"234025","9371-KE","2017/12/12 13:21:31","新北市永和區豫溪街52巷18號","121.515721666667","25.0091416666667","6500400","永和區"
"234010","9373-KE","2017/12/12 13:21:40","新北市永和區信義路127號","121.512325","25.01521","6500400","永和區"
"248017","225-UY","2017/12/12 13:21:39","新北市五股區御史路160號","121.431043333333","25.1032216666667","6501500","五股區"
"234022","9380-KE","2017/12/12 13:21:39","新北市永和區竹林路91巷21弄9號","121.520858333333","25.012585","6500400","永和區"
"234076","969-R7","2017/12/12 13:21:47","新北市永和區民有街23巷9號","121.517091666667","24.9965633333333","6500400","永和區"
"234072","AAC-211","2017/12/12 13:21:50","新北市永和區永和路二段49號","121.514565","25.0107316666667","6500400","永和區"
"234066","AAC-212","2017/12/12 13:21:44","新北市永和區保平路50巷8弄1號","121.510945","25.0075716666667","6500400","永和區"
"234001","AAC-295","2017/12/12 13:21:26","新北市永和區保福路一段47巷9弄19號","121.512155","25.0093283333333","6500400","永和區"
"244002","248-BX","2017/12/12 13:21:40","新北市林口區頂福里21-1號","121.352555","25.0864316666667","6501700","林口區"
"243004","AAD-798","2017/12/12 11:59:39","新北市泰山區犁頭窠3-1號","121.421953333333","25.0605766666667","6501600","泰山區"
"231002","001-UM","2017/12/12 13:21:32","新北市新店區安華路28-1號","121.519555","24.96096","6500600","新店區"
"231025","0293-UT","2017/12/12 13:21:30","新北市新店區中央五街39號","121.528471666667","24.9750683333333","6500600","新店區"
"231028","046-UY","2017/12/12 13:21:48","新北市新店區安華路28-1號","121.51959","24.9609233333333","6500600","新店區"
"231030","047-UY","2017/12/12 13:21:42","新北市新店區安華路28-1號","121.519075","24.9609366666667","6500600","新店區"
"231029","106-UY","2017/12/12 13:21:43","新北市新店區安華路28-1號","121.51957","24.960825","6500600","新店區"
"231018","107-UY","2017/12/12 13:21:47","新北市新店區環河路29巷1號","121.536445","24.9612466666667","6500600","新店區"
"231012","108-UY","2017/12/12 13:21:38","新北市新店區安康路一段33-1號","121.532201666667","24.9605316666667","6500600","新店區"
"231020","187-VK","2017/12/12 13:21:33","新北市新店區北新路一段69號","121.53831","24.9600616666667","6500600","新店區"
"231015","KEA-2219","2017/12/12 13:21:41","新北市新店區光明街51號","121.53848","24.9602066666667","6500600","新店區"
"231026","256-BX","2017/12/12 13:21:35","新北市新店區安華路28-1號","121.519641666667","24.9611383333333","6500600","新店區"
"231010","278-BY","2017/12/12 13:21:43","新北市新店區環河路116號","121.537095","24.96676","6500600","新店區"
"231023","AAD-862","2017/12/12 13:21:34","新北市新店區安康路一段94-2號","121.527793333333","24.9620683333333","6500600","新店區"
"231027","3712-VJ","2017/12/12 13:21:32","新北市新店區環河路3巷2號","121.537978333333","24.9610516666667","6500600","新店區"
"231038","4715-K9","2017/12/12 13:21:38","新北市新店區安華路28-1號","121.519556666667","24.9606333333333","6500600","新店區"
"231036","512-UM","2017/12/12 13:21:41","新北市新店區安華路28-1號","121.519516666667","24.9613","6500600","新店區"
"231035","515-UM","2017/12/12 00:24:44","新北市新店區安華路28-1號","121.519891666667","24.9611716666667","6500600","新店區"
"231003","616-UM","2017/12/12 13:21:41","新北市新店區安華路28-1號","121.519473333333","24.960555","6500600","新店區"
"231006","617-UM","2017/12/12 13:21:36","新北市新店區安華路28-1號","121.51945","24.960865","6500600","新店區"
"231001","619-UM","2017/12/12 13:21:28","新北市新店區安華路28-1號","121.519808333333","24.9609066666667","6500600","新店區"
"231034","645-TV","2017/12/12 13:21:30","新北市新店區安華路1-1號","121.51928","24.96041","6500600","新店區"
"231013","719-UM","2017/12/12 13:21:40","新北市新店區安康路一段85號","121.529445","24.9613616666667","6500600","新店區"
"231032","720-UM","2017/12/12 13:21:35","新北市新店區安豐路60-2號","121.498053333333","24.95386","6500600","新店區"
"231005","897-TW","2017/12/12 13:21:29","新北市新店區安華路28-1號","121.519751666667","24.9608333333333","6500600","新店區"
"231004","899-TW","2017/12/12 13:21:35","新北市新店區安華路28-1號","121.519263333333","24.960865","6500600","新店區"
"231037","AKT-0513","2017/12/12 13:21:35","新北市新店區安華路28-1號","121.51962","24.9605433333333","6500600","新店區"
"235030","003-UY","2017/12/12 13:21:47","新北市中和區中山路二段68號","121.503858333333","25.00461","6500300","中和區"
"235028","005-UY","2017/12/12 13:21:33","新北市中和區中正路161巷2號","121.498396666667","24.9937083333333","6500300","中和區"
"235027","006-UY","2017/12/12 13:21:45","新北市中和區中正路565號","121.486768333333","24.9943416666667","6500300","中和區"
"235020","096-UM","2017/12/12 13:21:42","新北市中和區連城路469巷70弄2號","121.483433333333","24.993705","6500300","中和區"
"235003","097-UM","2017/12/12 13:21:44","新北市中和區安平路38號","121.509923333333","24.9950616666667","6500300","中和區"
"235004","150-BY","2017/12/12 13:21:38","新北市中和區安平路31號","121.509351666667","24.99468","6500300","中和區"
"235022","151-BY","2017/12/12 13:21:31","新北市中和區圓通路367巷22弄2號","121.492145","24.9877483333333","6500300","中和區"
"235019","183-VK","2017/12/12 13:21:49","新北市中和區連城路583巷19號","121.478785","24.9933033333333","6500300","中和區"
"235002","185-VK","2017/12/12 13:21:43","新北市中和區秀朗路三段128巷25弄7號","121.52421","24.9937216666667","6500300","中和區"
"235013","186-VK","2017/12/12 13:21:43","新北市中和區員山路36巷13號","121.484045","24.9908466666667","6500300","中和區"
"235031","255-BX","2017/12/12 13:21:48","新北市中和區新生街132號","121.48357","25.00123","6500300","中和區"
"235036","301-VK","2017/12/12 13:21:48","新北市中和區中正路395號","121.48927","24.9941133333333","6500300","中和區"
"235007","352-BY","2017/12/12 13:21:39","新北市中和區景平路379號","121.504068333333","24.9934066666667","6500300","中和區"
"235032","377-QA","2017/12/12 02:20:09","新北市中和區員山路36巷16-3號","121.485075","24.9912066666667","6500300","中和區"
"235025","378-QA","2017/12/12 13:21:48","新北市中和區國光街215巷24弄8號","121.466485","25.0000433333333","6500300","中和區"
"235035","269-TV","2017/12/12 13:21:37","新北市中和區永和路458巷1弄15號","121.483406666667","25.0125183333333","6500300","中和區"
"235014","4979-A6","2017/12/12 13:21:42","新北市中和區捷運路61巷1號","121.508953333333","24.989665","6500300","中和區"
"235033","4980-A6","2017/12/12 13:21:33","新北市中和區連城路127巷4弄1號","121.49634","24.9988016666667","6500300","中和區"
"235006","551-UM","2017/12/12 13:21:42","新北市中和區大仁街20巷59號","121.519946666667","24.99348","6500300","中和區"
"235034","558-UM","2017/12/12 13:21:33","新北市中和區圓通路176-1號","121.497186666667","24.994505","6500300","中和區"
"235009","565-BX","2017/12/12 13:21:30","新北市中和區中興街169號","121.499935","24.990535","6500300","中和區"
"235018","640-BX","2017/12/12 13:21:29","新北市中和區民德路189巷1號","121.468616666667","24.9991583333333","6500300","中和區"
"235011","732-UM","2017/12/12 13:21:47","新北市中和區南山路286號","121.507931666667","24.9875133333333","6500300","中和區"
"235026","800-TS","2017/12/12 13:21:33","新北市中和區景平路999巷2號","121.495393333333","25.0059916666667","6500300","中和區"
"235021","801-TS","2017/12/12 13:21:46","新北市中和區員山路36巷16-3號","121.484915","24.9916866666667","6500300","中和區"
"235005","802-TS","2017/12/12 13:21:39","新北市中和區中和路260-1號","121.508141666667","24.9994266666667","6500300","中和區"
"235016","805-TS","2017/12/12 13:21:41","新北市中和區興南路二段149號","121.505048333333","24.9837816666667","6500300","中和區"
"235012","896-TW","2017/12/12 13:21:49","新北市中和區員山路36巷16-2號","121.485","24.9919116666667","6500300","中和區"
"235017","900-TW","2017/12/12 13:21:43","新北市中和區員山路36巷16-2號","121.485073333333","24.9916566666667","6500300","中和區"
"235029","911-UM","2017/12/12 13:21:46","新北市中和區莊敬路49巷20弄20號","121.502668333333","25.00561","6500300","中和區"
"235015","157-BY","2017/12/12 13:21:36","新北市中和區興南路一段57-1號","121.510481666667","24.98988","6500300","中和區"
"235001","AAC-213","2017/12/12 13:21:31","新北市中和區景德街68號","121.5169","24.9915083333333","6500300","中和區"
"235023","AAC-215","2017/12/12 13:21:39","新北市中和區員山路36巷16-3號","121.48507","24.9913283333333","6500300","中和區"
"247001","402-BY","2017/12/12 13:21:42","新北市五股區中興路三段5號","121.449678333333","25.07945","6501400","蘆洲區"
"247007","341-TH","2017/12/12 13:21:43","新北市五股區中興路三段163號","121.449221666667","25.0807","6501400","蘆洲區"
"228004","212-TW","2017/12/12 13:21:27","新北市貢寮區吉林里內寮街23號","121.901845","24.985355","6502600","貢寮區"
"228005","828-UM","2017/12/12 13:21:44","新北市貢寮區美豐里丹裡街59-2號","121.911136666667","25.059385","6502600","貢寮區"
"208004","AAC-292","2017/12/12 13:21:40","新北市金山區南勢湖86號","121.608001666667","25.2103916666667","6502700","金山區"
"207002","749-BX","2017/12/12 13:21:40","新北市萬里區崁腳里崁腳路166號","121.644996666667","25.1558116666667","6502800","萬里區"
"207001","662-BX","2017/12/12 13:21:37","新北市萬里區龜吼里新墾丁路30號","121.679633333333","25.1944866666667","6502800","萬里區"
"252005","AAC-283","2017/12/12 13:21:34","新北市三芝區圓山里石曹子坑38-1號","121.533525","25.2293383333333","6502100","三芝區"
"236006","498-BY","2017/12/12 13:21:41","新北市土城區亞洲路134號","121.433646666667","24.971755","6501300","土城區"
"238026","308-TH","2017/12/12 13:21:49","新北市樹林區八德街226-5號","121.415046666667","24.9716416666667","6500700","樹林區"
"221012","276-VK","2017/12/12 13:21:37","新北市汐止區汐萬路一段256巷3號","121.653361666667","25.07472","6501100","汐止區"
"221032","280-BY","2017/12/12 13:21:37","新北市汐止區連興街62號","121.654178333333","25.0633333333333","6501100","汐止區"
"221015","567-BX","2017/12/12 13:21:33","新北市汐止區信義路19號","121.661641666667","25.06947","6501100","汐止區"
"220027","145-BY","2017/12/12 13:15:21","","0","0","6500100","板橋區"
"220002","741-BX","2017/12/12 13:21:33","新北市板橋區華東街1-9號","121.448085","24.9949266666667","6500100","板橋區"
