"lineid","car","time","location","longitude","latitude","cityid","cityname"
"234044","148-BY","2017/12/12 13:39:37","新北市永和區永亨路166號","121.526131666667","25.00353","6500400","永和區"
"234012","149-BY","2017/12/12 13:39:49","新北市永和區仁愛路200號","121.509366666667","25.012355","6500400","永和區"
"234005","207-UY","2017/12/12 13:39:44","新北市永和區永和路一段69號","121.513168333333","25.007065","6500400","永和區"
"234078","298-R6","2017/12/12 13:39:50","新北市永和區林森路50號","121.524533333333","25.0045916666667","6500400","永和區"
"234036","336-UY","2017/12/12 13:39:44","新北市永和區民樂街31巷10弄2號","121.528148333333","25.00064","6500400","永和區"
"234062","337-UY","2017/12/12 13:39:43","新北市永和區秀朗路一段192巷6弄14號","121.519105","25.0022966666667","6500400","永和區"
"234084","338-UY","2017/12/12 13:39:45","新北市永和區永亨路165巷1-5號","121.526066666667","25.0041183333333","6500400","永和區"
"234068","552-UM","2017/12/12 13:39:34","新北市永和區永和路二段185號","121.515316666667","25.0135","6500400","永和區"
"234052","553-UM","2017/12/12 13:39:47","新北市永和區竹林路39巷17號","121.518761666667","25.014765","6500400","永和區"
"234015","745-BX","2017/12/12 13:39:49","新北市永和區忠孝街26巷8號","121.515455","25.016645","6500400","永和區"
"234028","746-BX","2017/12/12 13:39:46","新北市永和區民權路1巷30號","121.521735","24.9983533333333","6500400","永和區"
"234060","AAD-866","2017/12/12 13:39:44","新北市永和區中正路416號","121.517501666667","25.0020716666667","6500400","永和區"
"234040","862-TW","2017/12/12 13:39:43","新北市永和區中和路373號","121.508265","24.9997033333333","6500400","永和區"
"234048","863-TW","2017/12/12 13:39:37","新北市永和區保安路67號","121.509141666667","25.0154083333333","6500400","永和區"
"234010","9373-KE","2017/12/12 13:39:40","新北市永和區保福路二段15巷15號","121.510513333333","25.0110116666667","6500400","永和區"
"248017","225-UY","2017/12/12 13:39:39","新北市五股區民義路二段50-16號","121.41298","25.102085","6501500","五股區"
"234022","9380-KE","2017/12/12 13:39:39","新北市永和區中正路702巷18號","121.516486666667","25.0105583333333","6500400","永和區"
"234076","969-R7","2017/12/12 13:39:52","新北市永和區民權路20號","121.520236666667","24.99939","6500400","永和區"
"234072","AAC-211","2017/12/12 13:39:50","新北市永和區竹林路213巷41號","121.523298333333","25.00919","6500400","永和區"
"234066","AAC-212","2017/12/12 13:39:45","新北市永和區中山路一段191巷9弄2號","121.509735","25.0079633333333","6500400","永和區"
"234001","AAC-295","2017/12/12 13:39:46","新北市永和區福和路385號","121.514223333333","25.0077033333333","6500400","永和區"
"244002","248-BX","2017/12/12 13:39:40","新北市林口區文化北路一段260號","121.358388333333","25.071105","6501700","林口區"
"243004","AAD-798","2017/12/12 11:59:39","新北市泰山區犁頭窠3-1號","121.421953333333","25.0605766666667","6501600","泰山區"
"231002","001-UM","2017/12/12 13:39:32","新北市新店區溪園路405號","121.524108333333","24.9782333333333","6500600","新店區"
"231025","0293-UT","2017/12/12 13:39:50","新北市新店區中央六街58號","121.527866666667","24.9758516666667","6500600","新店區"
"231028","046-UY","2017/12/12 13:39:48","新北市新店區安和路二段138-1號","121.519448333333","24.972135","6500600","新店區"
"231030","047-UY","2017/12/12 13:39:42","新北市新店區安康路一段94號","121.527696666667","24.9620783333333","6500600","新店區"
"231029","106-UY","2017/12/12 13:39:43","新北市新店區安康路二段212-1號","121.509941666667","24.9594033333333","6500600","新店區"
"231018","107-UY","2017/12/12 13:39:47","新北市新店區百忍街17巷2號","121.534321666667","24.9755783333333","6500600","新店區"
"231012","108-UY","2017/12/12 13:39:38","新北市新店區德正街27巷16號","121.545213333333","24.9715133333333","6500600","新店區"
"231020","187-VK","2017/12/12 13:39:53","新北市新店區永興路125-2號","121.544106666667","24.931135","6500600","新店區"
"231015","KEA-2219","2017/12/12 13:39:41","新北市新店區竹林路2巷7號","121.55099","24.9517566666667","6500600","新店區"
"231026","256-BX","2017/12/12 13:39:54","新北市新店區中正路215號","121.539791666667","24.9728966666667","6500600","新店區"
"231010","278-BY","2017/12/12 13:39:43","新北市新店區中正路318號","121.537121666667","24.9746983333333","6500600","新店區"
"231023","AAD-862","2017/12/12 13:39:34","新北市新店區新店路228號","121.537148333333","24.9567433333333","6500600","新店區"
"231027","3712-VJ","2017/12/12 13:39:52","新北市新店區北宜路一段105巷44號","121.540645","24.9557966666667","6500600","新店區"
"231024","4716-K9","2017/12/12 13:39:44","新北市新店區中央路187號","121.537148333333","24.96883","6500600","新店區"
"231038","4715-K9","2017/12/12 13:39:37","新北市新店區安華路30巷1號","121.519563333333","24.9593083333333","6500600","新店區"
"231036","512-UM","2017/12/12 13:39:41","新北市新店區建業路76號","121.480795","24.9543166666667","6500600","新店區"
"231035","515-UM","2017/12/12 13:39:37","新北市新店區安忠路94-1號","121.511143333333","24.9573066666667","6500600","新店區"
"231003","616-UM","2017/12/12 13:39:41","新北市新店區中正路10號","121.54556","24.9694766666667","6500600","新店區"
"231006","617-UM","2017/12/12 13:39:36","新北市新店區北宜路一段108號","121.539025","24.9552633333333","6500600","新店區"
"231001","619-UM","2017/12/12 13:39:48","新北市新店區中正路397號","121.534488333333","24.9774516666667","6500600","新店區"
"231034","645-TV","2017/12/12 13:39:50","新北市新店區車子路121號","121.505411666667","24.9513816666667","6500600","新店區"
"231013","719-UM","2017/12/12 13:39:40","新北市新店區中正路454-5號","121.534508333333","24.9789916666667","6500600","新店區"
"231032","720-UM","2017/12/12 13:39:53","新北市新店區莒光路44巷21弄11-3號","121.518538333333","24.9521383333333","6500600","新店區"
"231005","897-TW","2017/12/12 13:39:49","新北市新店區寶中路72號","121.547815","24.9805566666667","6500600","新店區"
"231004","899-TW","2017/12/12 13:39:35","新北市新店區北新路二段1號","121.54272","24.9712866666667","6500600","新店區"
"231037","AKT-0513","2017/12/12 13:39:35","新北市新店區薏仁坑路35-1號","121.49276","24.9629983333333","6500600","新店區"
"235030","003-UY","2017/12/12 13:39:47","新北市中和區水源路34巷2號","121.50473","25.00354","6500300","中和區"
"235028","005-UY","2017/12/12 13:39:53","新北市中和區連城路89巷8號","121.496996666667","24.9994683333333","6500300","中和區"
"235027","006-UY","2017/12/12 13:39:45","新北市中和區連城路403號","121.48615","24.99611","6500300","中和區"
"235020","096-UM","2017/12/12 13:39:42","新北市中和區員山路466巷21弄44號","121.48094","25.00755","6500300","中和區"
"235003","097-UM","2017/12/12 13:39:44","新北市中和區大勇街25巷38弄1號","121.515735","24.993755","6500300","中和區"
"235004","150-BY","2017/12/12 13:39:38","新北市中和區安平路59號","121.50942","24.9950716666667","6500300","中和區"
"235022","151-BY","2017/12/12 13:39:51","新北市中和區圓通路369巷35號","121.488773333333","24.9873283333333","6500300","中和區"
"235019","183-VK","2017/12/12 13:39:49","新北市中和區莒光路120巷54號","121.471673333333","25.0009933333333","6500300","中和區"
"235002","185-VK","2017/12/12 13:39:43","新北市中和區自強路62巷6號","121.519601666667","24.9945366666667","6500300","中和區"
"235013","186-VK","2017/12/12 13:39:43","新北市中和區景平路490號","121.504888333333","24.9938333333333","6500300","中和區"
"235031","255-BX","2017/12/12 13:39:48","新北市中和區新生街242巷11弄1號","121.482983333333","24.9976","6500300","中和區"
"235008","293-VK","2017/12/12 13:39:46","新北市中和區復興路280巷15號","121.502285","24.9914033333333","6500300","中和區"
"235036","301-VK","2017/12/12 13:39:48","新北市中和區安邦街10號","121.495638333333","24.99807","6500300","中和區"
"235007","352-BY","2017/12/12 13:39:39","新北市中和區景平路105號","121.516726666667","24.9918816666667","6500300","中和區"
"235032","377-QA","2017/12/12 13:39:48","新北市中和區中正路211巷13弄7號","121.497091666667","24.9933283333333","6500300","中和區"
"235025","378-QA","2017/12/12 13:39:47","新北市中和區民享街90巷14號","121.473963333333","25.0001833333333","6500300","中和區"
"235035","269-TV","2017/12/12 13:39:37","新北市中和區立德街13-9號","121.489703333333","25.0066333333333","6500300","中和區"
"235014","4979-A6","2017/12/12 13:39:42","新北市中和區景新街496巷28弄7號","121.513436666667","24.9858166666667","6500300","中和區"
"235033","4980-A6","2017/12/12 13:39:33","新北市中和區泰和街38巷1號","121.499233333333","25.000045","6500300","中和區"
"235006","551-UM","2017/12/12 13:39:42","新北市中和區成功路97巷5弄17號","121.526511666667","24.9922133333333","6500300","中和區"
"235034","558-UM","2017/12/12 13:39:53","新北市中和區景新街129號","121.505696666667","24.9973183333333","6500300","中和區"
"235009","565-BX","2017/12/12 13:39:55","新北市中和區南山路236巷24號","121.505718333333","24.98886","6500300","中和區"
"235018","640-BX","2017/12/12 13:39:48","新北市中和區民享街86巷12號","121.473928333333","25.00082","6500300","中和區"
"235024","647-TV","2017/12/12 13:39:32","新北市中和區員山路469巷1號","121.48038","25.0045933333333","6500300","中和區"
"235011","732-UM","2017/12/12 13:39:47","新北市中和區興南路二段7號","121.508053333333","24.9861883333333","6500300","中和區"
"235026","800-TS","2017/12/12 13:39:53","新北市中和區中山路二段312巷33弄18號","121.494851666667","25.00411","6500300","中和區"
"235021","801-TS","2017/12/12 13:39:46","新北市中和區民享街97巷19號","121.47535","24.99961","6500300","中和區"
"235005","802-TS","2017/12/12 13:39:39","新北市中和區中和路402-1號","121.511375","25.0025966666667","6500300","中和區"
"235016","805-TS","2017/12/12 13:39:52","新北市中和區興南路三段52巷2-5號","121.494558333333","24.9758583333333","6500300","中和區"
"235012","896-TW","2017/12/12 13:39:49","新北市中和區中正路83號","121.500665","24.9933883333333","6500300","中和區"
"235017","900-TW","2017/12/12 13:39:43","新北市中和區華福街69號","121.467041666667","24.99663","6500300","中和區"
"235029","911-UM","2017/12/12 13:39:46","新北市中和區中山路二段2巷45弄44號","121.501763333333","25.00637","6500300","中和區"
"235015","157-BY","2017/12/12 13:39:36","新北市中和區興南路二段142巷12-3號","121.503161666667","24.9839","6500300","中和區"
"235001","AAC-213","2017/12/12 13:39:50","新北市中和區景德街126號","121.514511666667","24.9910883333333","6500300","中和區"
"235023","AAC-215","2017/12/12 13:39:39","新北市中和區中正路637巷60弄61號","121.485493333333","24.99277","6500300","中和區"
"220016","013-TV","2017/12/12 13:39:44","新北市板橋區民生路二段161巷9號","121.470281666667","25.0195866666667","6500100","板橋區"
"220013","072-UY","2017/12/12 13:39:46","新北市板橋區海山路47號","121.467013333333","25.010125","6500100","板橋區"
"220034","073-UY","2017/12/12 13:39:40","新北市板橋區南雅西路二段7巷27號","121.45183","25.0093766666667","6500100","板橋區"
"220017","AAD-861","2017/12/12 13:39:41","新北市板橋區華東街1-10號","121.44829","24.99502","6500100","板橋區"
"220051","120-SR","2017/12/12 13:39:52","新北市板橋區田單街2巷24號","121.481458333333","25.0277966666667","6500100","板橋區"
"247001","402-BY","2017/12/12 13:39:42","新北市蘆洲區永康街39號","121.4573","25.0852","6501400","蘆洲區"
"247007","341-TH","2017/12/12 13:39:43","新北市蘆洲區復興路355巷11-3號","121.481333333333","25.0955166666667","6501400","蘆洲區"
"247009","339-TH","2017/12/12 13:39:40","新北市五股區凌雲路一段25號","121.452366666667","25.1000533333333","6501400","蘆洲區"
"247003","336-TH","2017/12/12 13:39:48","新北市蘆洲區中原路32號","121.460061666667","25.0827366666667","6501400","蘆洲區"
"247015","057-VK","2017/12/12 13:39:54","新北市蘆洲區環堤大道365號","121.45602","25.0972883333333","6501400","蘆洲區"
"247005","056-VK","2017/12/12 13:39:41","新北市五股區中興路四段17號","121.440255","25.0822333333333","6501400","蘆洲區"
"228004","212-TW","2017/12/12 13:38:43","新北市貢寮區龍崗里嵩陽街17號","121.907316666667","25.00829","6502600","貢寮區"
"228005","828-UM","2017/12/12 13:39:44","新北市貢寮區美豐里文秀坑8號","121.902543333333","25.050405","6502600","貢寮區"
"208004","AAC-292","2017/12/12 13:39:40","新北市金山區重和里三重橋27號","121.586961666667","25.1900933333333","6502700","金山區"
"207002","749-BX","2017/12/12 13:39:40","新北市萬里區崁腳里崁腳路166號","121.64501","25.1558583333333","6502800","萬里區"
"207001","662-BX","2017/12/12 13:39:37","新北市萬里區磺潭里公館崙18-1號","121.638641666667","25.21404","6502800","萬里區"
"252005","AAC-283","2017/12/12 13:39:34","新北市三芝區橫山里橫山56-6號","121.535545","25.2496","6502100","三芝區"
"236041","107-UM","2017/12/12 13:39:44","新北市土城區城林路6巷80號","121.438448333333","24.9798733333333","6501300","土城區"
"236075","166-UM","2017/12/11 20:45:57","新北市土城區城林路6巷71號","121.437486666667","24.9784983333333","6501300","土城區"
"236013","270-VK","2017/12/12 13:39:50","新北市土城區城林路6巷80號","121.438431666667","24.97982","6501300","土城區"
"236034","271-VK","2017/12/12 13:39:49","新北市土城區城林路6巷80號","121.43845","24.9797966666667","6501300","土城區"
"236006","498-BY","2017/12/12 13:39:41","新北市土城區中華路二段90號","121.43836","24.9749433333333","6501300","土城區"
"236061","915-UM","2017/12/12 13:39:34","新北市土城區城林路6巷80號","121.438383333333","24.9798483333333","6501300","土城區"
"236054","AAC-216","2017/12/12 13:39:48","新北市土城區城林路6巷80號","121.438323333333","24.9798116666667","6501300","土城區"
"221012","276-VK","2017/12/12 13:39:37","新北市汐止區連興街22-1號","121.655416666667","25.06373","6501100","汐止區"
"221032","280-BY","2017/12/12 13:39:37","新北市汐止區新台五路一段207號","121.656788333333","25.0638483333333","6501100","汐止區"
"221015","567-BX","2017/12/12 13:39:53","新北市汐止區康寧街901號","121.65152","25.0749516666667","6501100","汐止區"
"220027","145-BY","2017/12/12 13:39:56","新北市板橋區大觀路二段265巷7-7號","121.443713333333","24.9944283333333","6500100","板橋區"
"220028","200-UY","2017/12/12 13:39:36","新北市板橋區華東街1-8號","121.447658333333","24.99489","6500100","板橋區"
"220030","610-BX","2017/12/12 13:39:45","新北市板橋區大觀路三段50巷49號","121.432105","24.9959133333333","6500100","板橋區"
"220004","276-BY","2017/12/12 13:39:34","新北市板橋區四川路二段140巷16弄13號","121.448583333333","24.9934333333333","6500100","板橋區"
"220020","277-BY","2017/12/12 13:39:36","新北市板橋區四川路二段橋頭1號","121.446606666667","24.99405","6500100","板橋區"
"220019","283-VK","2017/12/12 13:39:39","新北市板橋區華東街1-10號","121.448766666667","24.9947616666667","6500100","板橋區"
"220043","285-UM","2017/12/12 13:39:35","新北市板橋區民生路二段161巷1號","121.470003333333","25.019835","6500100","板橋區"
"220001","285-VK","2017/12/12 13:39:40","新北市板橋區民生路二段161巷3號","121.47028","25.019875","6500100","板橋區"
"220031","286-VK","2017/12/12 13:39:47","新北市板橋區華東街1-10號","121.448363333333","24.994955","6500100","板橋區"
"220029","287-VK","2017/12/12 13:39:38","新北市板橋區大觀路2段435-7號","121.447918333333","24.9955833333333","6500100","板橋區"
"220039","288-VK","2017/12/12 13:39:34","新北市板橋區民生路二段161巷9號","121.470283333333","25.0194116666667","6500100","板橋區"
"220009","293-UM","2017/12/12 13:39:42","新北市板橋區民生路二段120號","121.470383333333","25.0197816666667","6500100","板橋區"
"220032","296-UM","2017/12/12 13:39:51","新北市板橋區板城路421號","121.448156666667","24.9957533333333","6500100","板橋區"
"220023","297-UM","2017/12/12 13:39:38","新北市板橋區板城路421號","121.4481","24.995715","6500100","板橋區"
"220041","307-R5","2017/12/12 13:39:39","新北市板橋區民生路二段89-6號","121.470573333333","25.0189416666667","6500100","板橋區"
"220012","486-VK","2017/12/12 13:39:39","新北市板橋區南雅南路二段142巷13號","121.451443333333","24.9971916666667","6500100","板橋區"
"220037","491-VK","2017/12/12 13:39:49","新北市板橋區民生路二段161巷1號","121.469918333333","25.0199066666667","6500100","板橋區"
"220104","560-BX","2017/12/12 13:39:48","新北市板橋區南雅西路二段145巷6號","121.45161","25.0118416666667","6500100","板橋區"
"220011","609-BX","2017/12/12 00:30:26","新北市板橋區民生路二段167號","121.469658333333","25.0199683333333","6500100","板橋區"
"220005","686-BX","2017/12/12 13:39:35","新北市板橋區華東街1-9號","121.44821","24.9949333333333","6500100","板橋區"
"220025","687-BX","2017/12/12 13:39:43","新北市板橋區沙崙街37號","121.430498333333","24.994565","6500100","板橋區"
"220042","689-BX","2017/12/12 13:39:44","新北市板橋區民生路二段188號","121.470226666667","25.0204","6500100","板橋區"
"220002","741-BX","2017/12/12 13:39:54","新北市板橋區華東街1-9號","121.44809","24.99495","6500100","板橋區"
"220014","829-TW","2017/12/12 13:39:40","新北市板橋區民生路二段120號","121.470336666667","25.0200116666667","6500100","板橋區"
"220011","833-TW","2017/12/12 13:39:45","新北市板橋區民生路二段120號","121.470498333333","25.0197816666667","6500100","板橋區"
"220022","895-R6","2017/12/12 13:39:42","新北市板橋區南雅南路一段8-5號","121.455943333333","25.0064633333333","6500100","板橋區"
"220021","985-R7","2017/12/12 13:39:40","新北市板橋區四川路二段130巷22號","121.44963","24.9941883333333","6500100","板橋區"
"220046","AAC-210","2017/12/12 11:49:49","新北市板橋區民生路二段161巷9號","121.47016","25.0195466666667","6500100","板橋區"
"220018","AAC-253","2017/12/12 13:39:40","新北市板橋區華東街1-8號","121.44795","24.994865","6500100","板橋區"
