"lineid","car","time","location","longitude","latitude","cityid","cityname"
"234012","149-BY","2017/12/12 14:19:49","新北市中和區勝利路2號","121.498523333333","25.0086833333333","6500400","永和區"
"234005","207-UY","2017/12/12 14:19:39","新北市永和區中正路638號","121.516921666667","25.0082566666667","6500400","永和區"
"234078","298-R6","2017/12/12 14:19:30","新北市永和區福和路57巷4弄1號","121.522951666667","25.0073533333333","6500400","永和區"
"234036","336-UY","2017/12/12 14:19:44","新北市永和區成功路一段77號","121.526861666667","25.0031416666667","6500400","永和區"
"234062","337-UY","2017/12/12 14:19:46","新北市永和區得和路124號","121.518743333333","25.0001466666667","6500400","永和區"
"234084","338-UY","2017/12/12 14:19:45","新北市永和區永和路二段50號","121.514838333333","25.010855","6500400","永和區"
"234068","552-UM","2017/12/12 14:19:34","新北市永和區福和路263巷7弄1號","121.517905","25.0069266666667","6500400","永和區"
"234052","553-UM","2017/12/12 14:19:44","新北市永和區光復街2巷26弄1號","121.517636666667","25.0165516666667","6500400","永和區"
"234028","746-BX","2017/12/12 14:19:46","新北市永和區民生路22巷36號","121.520763333333","24.9970316666667","6500400","永和區"
"234060","AAD-866","2017/12/12 14:19:44","新北市永和區安樂路194巷29號","121.516235","25.00097","6500400","永和區"
"234040","862-TW","2017/12/12 14:19:43","新北市永和區安樂路160號","121.514481666667","25.0007016666667","6500400","永和區"
"234048","863-TW","2017/12/12 14:19:46","新北市永和區新生路19號","121.50935","25.0167383333333","6500400","永和區"
"234025","9371-KE","2017/12/12 14:19:31","新北市永和區得和路42巷21號","121.51542","24.9997066666667","6500400","永和區"
"248017","225-UY","2017/12/12 14:19:30","新北市五股區壟路16號","121.415381666667","25.0858766666667","6501500","五股區"
"234022","9380-KE","2017/12/12 14:19:39","新北市永和區竹林路25巷9弄2號","121.517651666667","25.0148816666667","6500400","永和區"
"234076","969-R7","2017/12/12 14:19:47","新北市永和區民族街81巷48號","121.519861666667","24.9964983333333","6500400","永和區"
"234072","AAC-211","2017/12/12 14:19:50","新北市永和區竹林路119巷30弄1號","121.522041666667","25.01169","6500400","永和區"
"234066","AAC-212","2017/12/12 14:19:46","新北市永和區保平路292巷40弄2號","121.507733333333","25.0050433333333","6500400","永和區"
"234001","AAC-295","2017/12/12 14:19:49","新北市永和區自強街32巷8號","121.515936666667","25.0078116666667","6500400","永和區"
"244002","248-BX","2017/12/12 14:19:40","新北市林口區竹林路266號","121.38968","25.0807616666667","6501700","林口區"
"243004","AAD-798","2017/12/12 11:59:39","新北市泰山區犁頭窠3-1號","121.421953333333","25.0605766666667","6501600","泰山區"
"231002","001-UM","2017/12/12 14:19:32","新北市新店區中央路200號","121.530568333333","24.97423","6500600","新店區"
"231025","0293-UT","2017/12/12 14:19:31","新北市新店區自立街92號","121.537056666667","24.980065","6500600","新店區"
"231028","046-UY","2017/12/12 14:19:48","新北市新店區安康路二段22號","121.515911666667","24.963735","6500600","新店區"
"231030","047-UY","2017/12/12 14:19:42","新北市新店區安民街42號","121.515956666667","24.9653933333333","6500600","新店區"
"231029","106-UY","2017/12/12 14:19:43","新北市新店區安康路二段213號","121.50887","24.9588966666667","6500600","新店區"
"231018","107-UY","2017/12/12 14:19:47","新北市新店區中央四街18號","121.529226666667","24.9740433333333","6500600","新店區"
"231012","108-UY","2017/12/12 14:19:38","新北市新店區中興路二段100巷1號","121.54767","24.9715516666667","6500600","新店區"
"231020","187-VK","2017/12/12 14:19:33","新北市新店區新烏路二段430號","121.551638333333","24.9086033333333","6500600","新店區"
"231015","KEA-2219","2017/12/12 14:19:41","新北市新店區中生路61號","121.564688333333","24.952095","6500600","新店區"
"231023","AAD-862","2017/12/12 14:19:34","新北市新店區光明街103號","121.539158333333","24.9611833333333","6500600","新店區"
"231027","3712-VJ","2017/12/12 14:19:32","新北市新店區北新路一段349號","121.542","24.9691416666667","6500600","新店區"
"231024","4716-K9","2017/12/12 14:02:26","新北市新店區新生街13巷26號","121.538975","24.9665366666667","6500600","新店區"
"231038","4715-K9","2017/12/12 14:19:51","新北市新店區溪洲路6巷1-1號","121.53371","24.9608733333333","6500600","新店區"
"231036","512-UM","2017/12/12 14:19:41","新北市新店區安祥路109巷69號","121.477431666667","24.9600733333333","6500600","新店區"
"231035","515-UM","2017/12/12 14:19:33","新北市新店區安民街138號","121.516536666667","24.9695333333333","6500600","新店區"
"231003","616-UM","2017/12/12 14:19:40","新北市新店區中興路一段216號","121.543855","24.9657366666667","6500600","新店區"
"231006","617-UM","2017/12/12 14:19:36","新北市新店區北宜路二段599號","121.568093333333","24.955645","6500600","新店區"
"231001","619-UM","2017/12/12 14:19:48","新北市新店區北新路一段96巷29號","121.54303","24.9690633333333","6500600","新店區"
"231034","645-TV","2017/12/12 14:19:30","新北市新店區黎明路3號","121.503493333333","24.9524666666667","6500600","新店區"
"231013","719-UM","2017/12/12 14:19:40","新北市新店區民權路89號","121.537608333333","24.9828033333333","6500600","新店區"
"231032","720-UM","2017/12/12 14:19:35","新北市新店區永業路5巷3號","121.534073333333","24.9557283333333","6500600","新店區"
"231005","897-TW","2017/12/12 14:19:46","新北市新店區中興路三段211號","121.543708333333","24.9819216666667","6500600","新店區"
"231004","899-TW","2017/12/12 14:19:35","新北市新店區中正路263-1號","121.538633333333","24.9737483333333","6500600","新店區"
"231037","AKT-0513","2017/12/12 14:19:35","新北市新店區車子路12號","121.50471","24.9542733333333","6500600","新店區"
"235030","003-UY","2017/12/12 14:19:47","新北市中和區中和路153號","121.502635","24.99982","6500300","中和區"
"235028","005-UY","2017/12/12 14:19:33","新北市中和區連城路2號","121.49918","25.002525","6500300","中和區"
"235027","006-UY","2017/12/12 14:19:45","新北市中和區連勝街111號","121.495051666667","24.9950683333333","6500300","中和區"
"235010","031-BX","2017/12/12 14:19:40","新北市中和區忠孝街2巷12-1號","121.51066","24.9816683333333","6500300","中和區"
"235020","096-UM","2017/12/12 14:19:42","新北市中和區員山路567號","121.479511666667","25.0077916666667","6500300","中和區"
"235003","097-UM","2017/12/12 14:19:44","新北市中和區秀峰街103巷5弄2號","121.520271666667","24.989655","6500300","中和區"
"235004","150-BY","2017/12/12 14:19:38","新北市中和區安平路36巷7號","121.510406666667","24.994795","6500300","中和區"
"235022","151-BY","2017/12/12 14:19:31","新北市中和區中正路637巷60弄61號","121.48531","24.9932566666667","6500300","中和區"
"235019","183-VK","2017/12/12 14:19:29","新北市中和區民享街2巷8號","121.472965","25.005585","6500300","中和區"
"235002","185-VK","2017/12/12 14:19:43","新北市中和區大仁街10巷41號","121.519733333333","24.9923966666667","6500300","中和區"
"235013","186-VK","2017/12/12 14:19:43","新北市中和區景新街230巷2號","121.50811","24.9941766666667","6500300","中和區"
"235031","255-BX","2017/12/12 14:19:47","新北市中和區新生街197號","121.483825","25.0001116666667","6500300","中和區"
"235008","293-VK","2017/12/12 14:19:46","新北市中和區中興街230巷11號","121.499581666667","24.988225","6500300","中和區"
"235036","301-VK","2017/12/12 14:19:48","新北市中和區莊敬路33巷2-2號","121.500585","25.005075","6500300","中和區"
"235007","352-BY","2017/12/12 14:19:39","新北市中和區景平路300號","121.512711666667","24.99267","6500300","中和區"
"235032","377-QA","2017/12/12 14:19:48","新北市中和區景平路493巷12弄21-4號","121.498801666667","24.9971516666667","6500300","中和區"
"235025","378-QA","2017/12/12 14:19:47","新北市中和區員山路314巷2號","121.481735","25.002855","6500300","中和區"
"235035","269-TV","2017/12/12 14:19:37","新北市中和區連城路358號","121.48212","24.9953933333333","6500300","中和區"
"235014","4979-A6","2017/12/12 14:19:42","新北市中和區復興路73號","121.503623333333","24.9902983333333","6500300","中和區"
"235033","4980-A6","2017/12/12 14:19:33","新北市中和區連城路134巷6號","121.495638333333","24.99931","6500300","中和區"
"235006","551-UM","2017/12/12 14:19:42","新北市中和區安樂路195號","121.51463","24.998285","6500300","中和區"
"235034","558-UM","2017/12/12 14:19:33","新北市中和區中和路20號","121.499683333333","25.0018566666667","6500300","中和區"
"235009","565-BX","2017/12/12 14:19:50","新北市中和區景新街423巷30號","121.514475","24.989715","6500300","中和區"
"235018","640-BX","2017/12/12 14:19:48","新北市中和區民德路105號","121.468896666667","25.0007366666667","6500300","中和區"
"235024","647-TV","2017/12/12 14:19:32","新北市中和區中山路三段100號","121.47721","25.00568","6500300","中和區"
"235011","732-UM","2017/12/12 14:19:47","新北市中和區景平路349號","121.505016666667","24.9932766666667","6500300","中和區"
"235026","800-TS","2017/12/12 14:19:33","新北市中和區中山路二段488-1號","121.487445","25.00492","6500300","中和區"
"235021","801-TS","2017/12/12 14:19:46","新北市中和區員山路210號","121.481306666667","25.0008","6500300","中和區"
"235005","802-TS","2017/12/12 14:19:39","新北市中和區宜安路156號","121.50917","24.99877","6500300","中和區"
"235016","805-TS","2017/12/12 14:19:41","新北市中和區興南路二段142巷17弄8號","121.503228333333","24.98315","6500300","中和區"
"235012","896-TW","2017/12/12 14:19:29","新北市中和區華新街109巷1號","121.509006666667","24.982525","6500300","中和區"
"235017","900-TW","2017/12/12 14:19:43","新北市中和區華順街48號","121.466428333333","24.9985466666667","6500300","中和區"
"235029","911-UM","2017/12/12 14:19:46","新北市中和區中山路二段2巷13弄13號","121.503471666667","25.0065233333333","6500300","中和區"
"235015","157-BY","2017/12/12 14:19:36","新北市中和區興南路一段57號","121.510576666667","24.98998","6500300","中和區"
"235001","AAC-213","2017/12/12 14:19:47","新北市中和區自立路15巷25號","121.523198333333","24.9959733333333","6500300","中和區"
"235023","AAC-215","2017/12/12 14:19:39","新北市中和區圓通路252巷18弄2號","121.492393333333","24.9922966666667","6500300","中和區"
"220016","013-TV","2017/12/12 14:19:32","新北市板橋區林森街1巷35號","121.482903333333","25.0245216666667","6500100","板橋區"
"220013","072-UY","2017/12/12 14:19:46","新北市板橋區國泰街75巷9號","121.467671666667","25.0060866666667","6500100","板橋區"
"220034","073-UY","2017/12/12 14:19:42","新北市板橋區中正路216巷60號","121.457586666667","25.0189066666667","6500100","板橋區"
"220105","075-UY","2017/12/12 14:19:47","新北市板橋區江寧路三段87巷2弄27號","121.472745","25.033295","6500100","板橋區"
"220017","AAD-861","2017/12/12 14:19:42","新北市板橋區華興街31巷16號","121.458346666667","25.0039233333333","6500100","板橋區"
"220051","120-SR","2017/12/12 14:19:32","新北市板橋區文聖街207-1號","121.479933333333","25.0263366666667","6500100","板橋區"
"247021","893-R6","2017/12/12 14:19:33","新北市蘆洲區仁愛街212巷15號","121.464466666667","25.09386","6501400","蘆洲區"
"247011","546-UM","2017/12/12 14:19:42","新北市蘆洲區民權路3巷20號","121.4755","25.08519","6501400","蘆洲區"
"247019","500-BY","2017/12/12 14:19:46","新北市蘆洲區仁愛街58號","121.471681666667","25.0936983333333","6501400","蘆洲區"
"247001","402-BY","2017/12/12 14:19:42","新北市蘆洲區重陽街91號","121.48237","25.0853716666667","6501400","蘆洲區"
"247007","341-TH","2017/12/12 14:19:43","新北市蘆洲區信義路37巷10號","121.474413333333","25.0797516666667","6501400","蘆洲區"
"247009","339-TH","2017/12/12 14:19:40","新北市蘆洲區中山一路122巷54號","121.476578333333","25.082795","6501400","蘆洲區"
"247001","337-TH","2017/12/12 14:19:40","新北市蘆洲區永樂街104號","121.456126666667","25.0887766666667","6501400","蘆洲區"
"247003","336-TH","2017/12/12 14:19:47","新北市蘆洲區長安街194巷1號","121.458921666667","25.0841","6501400","蘆洲區"
"247015","057-VK","2017/12/12 14:19:14","新北市蘆洲區光華路110巷19號","121.466306666667","25.0835366666667","6501400","蘆洲區"
"247005","056-VK","2017/12/12 14:19:41","新北市蘆洲區永安南路二段132-1號","121.462371666667","25.078575","6501400","蘆洲區"
"247013","007-UY","2017/12/12 14:19:41","新北市蘆洲區中山一路196號","121.473645","25.08093","6501400","蘆洲區"
"247023","002-UY","2017/12/12 14:19:44","新北市蘆洲區三民路581號","121.461643333333","25.09307","6501400","蘆洲區"
"247017","001-UY","2017/12/12 14:19:38","新北市蘆洲區民義街111號","121.47396","25.09095","6501400","蘆洲區"
"228004","212-TW","2017/12/12 14:19:43","新北市貢寮區雙玉里田寮洋街39-3號","121.92518","25.0139966666667","6502600","貢寮區"
"228005","828-UM","2017/12/12 14:19:44","新北市貢寮區美豐里雞母嶺街67號","121.896148333333","25.064675","6502600","貢寮區"
"208004","AAC-292","2017/12/12 14:19:40","新北市金山區六股里下六股65號","121.614425","25.2236583333333","6502700","金山區"
"207002","749-BX","2017/12/12 14:19:19","新北市萬里區溪底里福德坑路24-1號","121.621751666667","25.1526816666667","6502800","萬里區"
"207001","662-BX","2017/12/12 14:19:37","新北市萬里區磺潭里清水18號","121.637813333333","25.1976883333333","6502800","萬里區"
"252005","AAC-283","2017/12/12 14:19:34","新北市三芝區埔坪里埔頭坑107-1號","121.514285","25.2470933333333","6502100","三芝區"
"236065","105-UM","2017/12/12 14:19:46","新北市土城區明德路一段138號","121.463496666667","24.978885","6501300","土城區"
"236041","107-UM","2017/12/12 14:19:44","新北市土城區樂利街3巷15號","121.448496666667","24.9865233333333","6501300","土城區"
"236075","166-UM","2017/12/11 20:45:57","新北市土城區城林路6巷71號","121.437486666667","24.9784983333333","6501300","土城區"
"236029","253-BX","2017/12/12 14:19:41","新北市土城區順風路63號","121.440138333333","24.9772883333333","6501300","土城區"
"236025","269-VK","2017/12/12 14:19:28","新北市土城區承天路43巷4號","121.43914","24.9639316666667","6501300","土城區"
"236013","270-VK","2017/12/12 14:19:50","新北市土城區青雲路39巷7號","121.460405","24.9875116666667","6501300","土城區"
"236034","271-VK","2017/12/12 14:19:35","新北市土城區青雲路451巷8弄4號","121.459491666667","24.9744283333333","6501300","土城區"
"236017","401-BY","2017/12/12 14:19:49","新北市土城區學士路123號","121.447016666667","24.97581","6501300","土城區"
"236006","498-BY","2017/12/12 14:19:41","新北市土城區中華路一段87號","121.444816666667","24.9876433333333","6501300","土城區"
"236057","912-UM","2017/12/12 14:19:44","新北市土城區中央路四段290號","121.414306666667","24.9563083333333","6501300","土城區"
"236045","913-UM","2017/12/12 14:19:39","新北市土城區明德路一段280-1號","121.457283333333","24.9774883333333","6501300","土城區"
"236061","915-UM","2017/12/12 14:19:34","新北市土城區金城路三段202-3號","121.469488333333","24.9885633333333","6501300","土城區"
"236054","AAC-216","2017/12/12 14:19:49","新北市土城區中華路二段92號","121.438216666667","24.9746433333333","6501300","土城區"
"221012","276-VK","2017/12/12 14:19:37","新北市汐止區橫科路895巷58-2號","121.641643333333","25.0378516666667","6501100","汐止區"
"221032","280-BY","2017/12/12 14:19:37","新北市汐止區橫科路407巷30弄28號","121.627461666667","25.048525","6501100","汐止區"
"221015","567-BX","2017/12/12 14:19:33","新北市汐止區民族五街10號","121.630138333333","25.0727433333333","6501100","汐止區"
"220027","145-BY","2017/12/12 14:19:36","新北市板橋區民權路302巷8號","121.4576","25.0164383333333","6500100","板橋區"
"220028","200-UY","2017/12/12 14:19:46","新北市板橋區大觀路二段19巷1號","121.447073333333","25.00336","6500100","板橋區"
"220030","610-BX","2017/12/12 14:19:39","新北市板橋區金門街338號","121.428155","24.9845783333333","6500100","板橋區"
"220050","245-BX","2017/12/12 14:19:34","新北市板橋區莊敬路25巷1號","121.474218333333","25.0276633333333","6500100","板橋區"
"220004","276-BY","2017/12/12 14:19:34","新北市板橋區和平路12號","121.459141666667","24.994605","6500100","板橋區"
"220020","277-BY","2017/12/12 14:19:36","新北市板橋區金門街337巷7弄23號","121.430661666667","24.9852866666667","6500100","板橋區"
"220019","283-VK","2017/12/12 14:19:39","新北市板橋區忠孝路48巷9弄19號","121.462023333333","25.00045","6500100","板橋區"
"220043","285-UM","2017/12/12 14:19:35","新北市板橋區光武街136巷7號","121.465665","25.0301533333333","6500100","板橋區"
"220001","285-VK","2017/12/12 14:19:40","新北市板橋區縣民大道三段270巷8號","121.478225","25.0231033333333","6500100","板橋區"
"220031","286-VK","2017/12/12 14:19:36","新北市板橋區大觀路二段174巷166弄16號","121.442438333333","25.0030533333333","6500100","板橋區"
"220029","287-VK","2017/12/12 14:19:46","新北市板橋區南雅西路一段40號","121.453861666667","25.0046416666667","6500100","板橋區"
"220039","288-VK","2017/12/12 14:19:34","新北市板橋區長江路一段106巷13弄4號","121.460228333333","25.0291366666667","6500100","板橋區"
"220009","293-UM","2017/12/12 14:16:26","新北市板橋區中山路二段320號","121.480863333333","25.01946","6500100","板橋區"
"220032","296-UM","2017/12/12 14:19:30","新北市板橋區溪北路101號","121.428805","24.989325","6500100","板橋區"
"220023","297-UM","2017/12/12 14:19:38","新北市板橋區南雅南路一段1巷36號","121.457148333333","25.0064666666667","6500100","板橋區"
"220010","305-R5","2017/12/12 14:19:45","新北市板橋區三民路二段153巷5弄16號","121.480105","25.015035","6500100","板橋區"
"220041","307-R5","2017/12/12 14:19:39","新北市板橋區光武街48巷31號","121.467851666667","25.02696","6500100","板橋區"
"220047","317-R6","2017/12/12 14:19:45","新北市板橋區四維路266巷2弄20號","121.464033333333","25.0281133333333","6500100","板橋區"
"220012","486-VK","2017/12/12 14:19:39","新北市板橋區板新路55號","121.474006666667","25.0134266666667","6500100","板橋區"
"220038","487-VK","2017/12/12 14:19:29","新北市板橋區文化路一段351號","121.466738333333","25.0209883333333","6500100","板橋區"
"220037","491-VK","2017/12/12 14:19:29","新北市板橋區雙十路二段37-1號","121.476876666667","25.0258516666667","6500100","板橋區"
"220104","560-BX","2017/12/12 14:19:48","新北市板橋區中正路399巷17號","121.452971666667","25.022725","6500100","板橋區"
"220052","561-BX","2017/12/12 14:19:33","新北市板橋區文化路一段188巷7弄13號","121.467626666667","25.0197266666667","6500100","板橋區"
"220040","637-BX","2017/12/12 14:19:47","新北市板橋區文聖街151號","121.478641666667","25.0279","6500100","板橋區"
"220025","687-BX","2017/12/12 14:19:43","新北市板橋區大觀路二段61號","121.446625","25.0026233333333","6500100","板橋區"
"220042","689-BX","2017/12/12 14:19:44","新北市板橋區文化路一段241號","121.464136666667","25.0178316666667","6500100","板橋區"
"220002","741-BX","2017/12/12 14:19:33","新北市板橋區實踐路124號","121.46401","25.0031533333333","6500100","板橋區"
"220005","806-UM","2017/12/12 14:19:32","新北市板橋區國慶路205號","121.463375","24.9970216666667","6500100","板橋區"
"220003","827-TW","2017/12/12 14:19:47","新北市板橋區館前東路156巷18號","121.464236666667","25.0069983333333","6500100","板橋區"
"220014","829-TW","2017/12/12 14:19:47","新北市板橋區漢生東路313巷2弄48號","121.472536666667","25.0079733333333","6500100","板橋區"
"220045","831-TW","2017/12/12 14:19:47","新北市板橋區大同街38號","121.478596666667","25.0273983333333","6500100","板橋區"
"220011","833-TW","2017/12/12 14:19:44","新北市板橋區三民路二段202-16號","121.478955","25.0135833333333","6500100","板橋區"
"220022","895-R6","2017/12/12 14:19:42","新北市板橋區民權路97號","121.45982","25.01285","6500100","板橋區"
"220021","985-R7","2017/12/12 14:19:40","新北市板橋區中正路316號","121.45468","25.020915","6500100","板橋區"
"220046","AAC-210","2017/12/12 14:19:41","新北市板橋區幸福路60巷8號","121.460596666667","25.0210816666667","6500100","板橋區"
"220018","AAC-253","2017/12/12 14:19:41","新北市板橋區忠孝路133號","121.463163333333","25.00246","6500100","板橋區"
