"lineid","car","time","location","longitude","latitude","cityid","cityname"
"249005","172-UM","2017/12/12 16:39:38","新北市八里區忠孝路187號","121.422755","25.1608133333333","6502300","八里區"
"243004","AAD-798","2017/12/12 11:59:39","新北市泰山區犁頭窠3-1號","121.421953333333","25.0605766666667","6501600","泰山區"
"231046","278-BY","2017/12/12 16:39:51","新北市新店區灣潭路55號","121.54068","24.9426066666667","6500600","新店區"
"241011","013-R5","2017/12/12 16:39:36","新北市三重區秀江街217號","121.497336666667","25.0718","6500200","三重區"
"241008","059-VK","2017/12/12 16:39:45","新北市三重區永安北路一段27巷29號","121.477398333333","25.0755116666667","6500200","三重區"
"241009","060-VK","2017/12/12 16:39:40","新北市三重區三和路四段203巷59號","121.483421666667","25.079795","6500200","三重區"
"241015","062-VK","2017/12/12 16:39:48","新北市三重區文化北路41-2號","121.498896666667","25.0652666666667","6500200","三重區"
"241017","063-VK","2017/12/12 16:39:39","新北市三重區中正北路25巷25弄2號","121.493246666667","25.062645","6500200","三重區"
"241026","066-VK","2017/12/12 16:39:49","新北市三重區和平街36號","121.501853333333","25.062685","6500200","三重區"
"241002","090-VK","2017/12/12 16:39:45","新北市三重區仁義街241巷4號","121.496501666667","25.08273","6500200","三重區"
"241003","091-VK","2017/12/12 16:39:34","新北市三重區五華街71巷6號","121.492658333333","25.0829416666667","6500200","三重區"
"241019","156-TC","2017/12/12 16:39:53","新北市三重區安慶街325號","121.487938333333","25.0670216666667","6500200","三重區"
"241005","262-UM","2017/12/12 16:39:35","新北市三重區仁華街118巷13號","121.48606","25.0833116666667","6500200","三重區"
"241024","265-UM","2017/12/12 16:39:46","新北市三重區中正北路315巷6弄38號","121.476598333333","25.0722733333333","6500200","三重區"
"241016","266-UM","2017/12/12 16:39:50","新北市三重區大智街17號","121.494506666667","25.0652333333333","6500200","三重區"
"241022","267-UM","2017/12/12 16:39:44","新北市三重區三民街90號","121.485481666667","25.0630733333333","6500200","三重區"
"241018","268-UM","2017/12/12 16:39:35","新北市三重區六張街71號","121.493683333333","25.0701916666667","6500200","三重區"
"241032","269-UM","2017/12/12 16:39:46","新北市三重區中山路40巷1-1號","121.485816666667","25.0612866666667","6500200","三重區"
"241013","270-UM","2017/12/12 16:39:54","新北市三重區仁壽街21號","121.4967","25.0732116666667","6500200","三重區"
"241025","271-UM","2017/12/12 16:39:52","新北市三重區中正北路295號","121.474525","25.0712616666667","6500200","三重區"
"241007","398-BY","2017/12/12 16:39:54","新北市三重區三和路四段167巷43號","121.485045","25.0793783333333","6500200","三重區"
"241031","KEA-2210","2017/12/12 16:39:45","新北市三重區重新路四段41巷17號","121.487101666667","25.058905","6500200","三重區"
"241020","413-TH","2017/12/12 16:39:53","新北市三重區後竹圍街207號","121.484928333333","25.0716616666667","6500200","三重區"
"241004","475-VK","2017/12/12 16:39:41","新北市三重區五福街4號","121.493156666667","25.08171","6500200","三重區"
"241030","480-VK","2017/12/12 16:39:43","新北市三重區成功路20-8號","121.489385","25.048985","6500200","三重區"
"241014","543-UM","2017/12/12 16:39:43","新北市三重區龍濱路42號","121.502733333333","25.0685016666667","6500200","三重區"
"241023","545-UM","2017/12/12 16:39:48","新北市三重區中華路134號","121.483501666667","25.0641633333333","6500200","三重區"
"241001","547-UM","2017/12/12 16:39:56","新北市三重區仁愛街232號","121.493545","25.0778533333333","6500200","三重區"
"241006","AAD-863","2017/12/12 16:39:43","新北市三重區力行路二段121號","121.483028333333","25.0765516666667","6500200","三重區"
"241028","887-TS","2017/12/12 16:39:49","新北市三重區中正南路16號","121.493518333333","25.06049","6500200","三重區"
"241012","941-UM","2017/12/12 16:39:51","新北市三重區仁興街4巷39號","121.499046666667","25.0736416666667","6500200","三重區"
"241029","942-UM","2017/12/12 16:39:36","新北市三重區集美街112巷13號","121.489461666667","25.0540966666667","6500200","三重區"
"241033","AAC-255","2017/12/12 16:39:51","新北市三重區光復路二段39號","121.472078333333","25.0552566666667","6500200","三重區"
"235046","031-BX","2017/12/12 15:46:06","新北市中和區員山路36巷16-2號","121.485246666667","24.9916433333333","6500300","中和區"
"235065","911-UM","2017/12/12 16:26:45","新北市中和區員山路36巷16-3號","121.485175","24.9911466666667","6500300","中和區"
"247001","402-BY","2017/12/12 16:39:52","新北市八里區中華路三段19號","121.396783333333","25.1434016666667","6501400","蘆洲區"
"247008","341-TH","2017/12/12 16:39:47","新北市蘆洲區永安南路二段108-2號","121.462768333333","25.0783866666667","6501400","蘆洲區"
"247010","339-TH","2017/12/12 16:39:48","新北市五股區成泰路三段544-1號","121.454653333333","25.1014316666667","6501400","蘆洲區"
"247004","336-TH","2017/12/12 16:39:51","新北市五股區凌雲路一段25號","121.452216666667","25.0998366666667","6501400","蘆洲區"
"247016","057-VK","2017/12/12 16:39:27","新北市五股區成洲五路38號","121.453695","25.1013183333333","6501400","蘆洲區"
"228002","663-BX","2017/12/12 16:39:41","新北市貢寮區貢寮里朝陽街2號","121.91247","25.0215333333333","6502600","貢寮區"
"224006","676-BX","2017/12/12 16:39:37","新北市瑞芳區大寮路356-1號","121.784603333333","25.1033283333333","6501200","瑞芳區"
"224008","275-VK","2017/12/12 16:39:46","新北市瑞芳區傑魚坑路181-3號","121.788776666667","25.1086133333333","6501200","瑞芳區"
"224007","273-VK","2017/12/12 16:39:39","新北市瑞芳區月眉路31-1號","121.76074","25.1091216666667","6501200","瑞芳區"
"224005","271-BY","2017/12/12 16:39:41","新北市瑞芳區明里路122號","121.86333","25.121645","6501200","瑞芳區"
"227003","642-TC","2017/12/12 16:39:34","新北市雙溪區外柑里外柑腳17號","121.812631666667","25.0196533333333","6502500","雙溪區"
"227009","400-TW","2017/12/12 16:39:38","新北市雙溪區牡丹里中正路97號","121.86197","25.0471166666667","6502500","雙溪區"
"251008","181-VK","2017/12/12 16:39:44","台北市北投區中央北路四段30巷160號","121.474163333333","25.140465","6501000","淡水區"
"251012","441-VK","2017/12/12 16:39:42","新北市淡水區中正路二段31號","121.419356666667","25.1817283333333","6501000","淡水區"
"251016","442-VK","2017/12/12 16:39:39","新北市淡水區濱海路一段53號","121.444076666667","25.1889583333333","6501000","淡水區"
"251011","650-BX","2017/12/12 16:39:38","新北市淡水區中正路二段31號","121.419366666667","25.18165","6501000","淡水區"
"252002","178-VK","2017/12/12 16:39:52","新北市三芝區茂長里陳厝坑61-4號","121.513563333333","25.2550216666667","6502100","三芝區"
"242005","413-TV","2017/12/12 16:39:43","新北市新莊區新泰路357巷3弄57號","121.441958333333","25.0394683333333","6500500","新莊區"
"221012","276-VK","2017/12/12 16:25:41","新北市汐止區汐萬路一段256巷3號","121.653453333333","25.0745916666667","6501100","汐止區"
"221015","567-BX","2017/12/12 14:44:50","新北市汐止區汐萬路一段256巷3號","121.652438333333","25.0746516666667","6501100","汐止區"
