"lineid","car","time","location","longitude","latitude","cityid","cityname"
"249005","172-UM","2017/12/12 17:09:38","新北市八里區華富山3-1號","121.416478333333","25.1463466666667","6502300","八里區"
"249001","173-UM","2017/12/12 17:09:48","新北市八里區商港路42號","121.396206666667","25.1449516666667","6502300","八里區"
"249004","303-UY","2017/12/12 17:09:36","新北市八里區忠孝路276號","121.420468333333","25.16107","6502300","八里區"
"249002","305-UY","2017/12/12 17:09:55","新北市八里區龍米路二段125巷1號","121.44633","25.1453983333333","6502300","八里區"
"249003","759-BX","2017/12/12 17:09:53","新北市八里區訊塘路96號","121.39763","25.1464833333333","6502300","八里區"
"244007","080-UY","2017/12/12 17:09:47","新北市林口區菁埔37-12號","121.376331666667","25.0971833333333","6501700","林口區"
"244019","403-UM","2017/12/12 17:09:49","新北市林口區仁愛路二段152號","121.381953333333","25.0742083333333","6501700","林口區"
"244023","483-VK","2017/12/12 17:09:42","新北市林口區中山路2號","121.396836666667","25.0785266666667","6501700","林口區"
"244011","656-BX","2017/12/12 17:09:42","新北市林口區粉寮路二段160巷28號","121.405181666667","25.0907533333333","6501700","林口區"
"244025","837-TS","2017/12/12 17:09:43","新北市林口區粉寮路二段92號","121.404511666667","25.0888266666667","6501700","林口區"
"244021","838-TS","2017/12/12 17:09:43","新北市林口區粉寮路31-2號","121.403691666667","25.0871983333333","6501700","林口區"
"243004","AAD-798","2017/12/12 11:59:39","新北市泰山區犁頭窠3-1號","121.421953333333","25.0605766666667","6501600","泰山區"
"231046","278-BY","2017/12/12 17:09:34","新北市新店區直潭路92號","121.530925","24.9376333333333","6500600","新店區"
"241011","013-R5","2017/12/12 17:09:36","新北市三重區龍濱路285號","121.501105","25.0733433333333","6500200","三重區"
"241008","059-VK","2017/12/12 17:09:45","新北市三重區力行路二段134號","121.482326666667","25.0755416666667","6500200","三重區"
"241009","060-VK","2017/12/12 17:09:40","新北市三重區三和路四段215巷26號","121.482696666667","25.08005","6500200","三重區"
"241015","062-VK","2017/12/12 17:09:48","新北市三重區長生街38號","121.499746666667","25.066455","6500200","三重區"
"241017","063-VK","2017/12/12 17:09:39","新北市三重區中正北路25巷16號","121.493578333333","25.0631066666667","6500200","三重區"
"241026","066-VK","2017/12/12 17:09:49","新北市三重區重新路二段46-7號","121.498363333333","25.062295","6500200","三重區"
"241002","090-VK","2017/12/12 17:09:45","新北市三重區五華街35巷29號","121.495288333333","25.0813316666667","6500200","三重區"
"241003","091-VK","2017/12/12 17:09:54","新北市三重區富福街104號","121.493295","25.0855033333333","6500200","三重區"
"241019","156-TC","2017/12/12 17:09:40","新北市三重區三張街108號","121.487521666667","25.0698983333333","6500200","三重區"
"241005","262-UM","2017/12/12 17:09:55","新北市三重區仁愛街670號","121.482365","25.0805283333333","6500200","三重區"
"241024","265-UM","2017/12/12 17:09:46","新北市三重區中正北路348號","121.477698333333","25.0693983333333","6500200","三重區"
"241016","266-UM","2017/12/12 17:09:49","新北市三重區大仁街27號","121.492463333333","25.0647833333333","6500200","三重區"
"241022","267-UM","2017/12/12 17:09:46","新北市三重區三民街118號","121.48479","25.063725","6500200","三重區"
"241018","268-UM","2017/12/12 17:09:54","新北市三重區正義北路332-1號","121.494295","25.0704216666667","6500200","三重區"
"241032","269-UM","2017/12/12 17:09:52","新北市三重區三陽路2號","121.48624","25.05877","6500200","三重區"
"241013","270-UM","2017/12/12 17:09:54","新北市三重區仁愛街104號","121.495353333333","25.0741716666667","6500200","三重區"
"241025","271-UM","2017/12/12 17:09:52","新北市三重區中正北路560巷49號","121.470951666667","25.07018","6500200","三重區"
"241007","398-BY","2017/12/12 17:09:54","新北市三重區三和路四段163巷28號","121.485171666667","25.0791833333333","6500200","三重區"
"241031","KEA-2210","2017/12/12 17:09:45","新北市三重區重陽路一段113巷1號","121.487118333333","25.0598966666667","6500200","三重區"
"241020","413-TH","2017/12/12 17:09:53","新北市三重區自強路三段18號","121.486941666667","25.072225","6500200","三重區"
"241004","475-VK","2017/12/12 17:09:41","新北市三重區五華街98巷12號","121.491501666667","25.0817566666667","6500200","三重區"
"241030","480-VK","2017/12/12 17:09:43","新北市三重區集成路27號","121.489","25.05242","6500200","三重區"
"241014","543-UM","2017/12/12 17:09:43","新北市三重區龍濱路120-2號","121.501788333333","25.071055","6500200","三重區"
"241023","545-UM","2017/12/12 17:09:48","新北市三重區忠孝路三段84巷1號","121.480248333333","25.0644983333333","6500200","三重區"
"241001","547-UM","2017/12/12 17:09:56","新北市三重區仁愛街255巷43號","121.494341666667","25.0789366666667","6500200","三重區"
"241006","AAD-863","2017/12/12 17:09:43","新北市三重區三和路四段274巷18號","121.484811666667","25.0769133333333","6500200","三重區"
"241028","887-TS","2017/12/12 17:09:49","新北市三重區重新路三段108號","121.492365","25.06034","6500200","三重區"
"241012","941-UM","2017/12/12 17:09:51","新北市三重區河邊北街248巷17號","121.501275","25.0758166666667","6500200","三重區"
"241029","942-UM","2017/12/12 17:09:35","新北市三重區重新路四段65號","121.487201666667","25.0568916666667","6500200","三重區"
"241033","AAC-255","2017/12/12 17:09:51","新北市三重區中興北街271號","121.469093333333","25.0606533333333","6500200","三重區"
"235046","031-BX","2017/12/12 15:46:06","新北市中和區員山路36巷16-2號","121.485246666667","24.9916433333333","6500300","中和區"
"235067","255-BX","2017/12/12 16:40:48","新北市中和區員山路36巷16-4號","121.485286666667","24.9919866666667","6500300","中和區"
"235065","911-UM","2017/12/12 16:26:45","新北市中和區員山路36巷16-3號","121.485175","24.9911466666667","6500300","中和區"
"247022","893-R6","2017/12/12 17:09:49","新北市蘆洲區三民路222號","121.468735","25.0892666666667","6501400","蘆洲區"
"247012","546-UM","2017/12/12 17:09:38","新北市蘆洲區信義路294號","121.477926666667","25.0876166666667","6501400","蘆洲區"
"247020","500-BY","2017/12/12 17:09:51","新北市蘆洲區仁愛街62巷22號","121.4722","25.0943183333333","6501400","蘆洲區"
"247008","341-TH","2017/12/12 17:09:47","新北市蘆洲區信義路30巷137號","121.475341666667","25.0765433333333","6501400","蘆洲區"
"247010","339-TH","2017/12/12 17:09:48","新北市蘆洲區民族路38號","121.476586666667","25.0844066666667","6501400","蘆洲區"
"247002","337-TH","2017/12/12 17:09:52","新北市蘆洲區永樂街38巷4號","121.45808","25.088605","6501400","蘆洲區"
"247004","336-TH","2017/12/12 17:09:51","新北市蘆洲區永安南路二段274號","121.458436666667","25.0811333333333","6501400","蘆洲區"
"247016","057-VK","2017/12/12 17:09:47","新北市蘆洲區光華路67號","121.468235","25.082545","6501400","蘆洲區"
"247014","007-UY","2017/12/12 17:09:40","新北市蘆洲區得勝街50-3號","121.472951666667","25.0835216666667","6501400","蘆洲區"
"247024","002-UY","2017/12/12 17:09:44","新北市蘆洲區長興路37號","121.463326666667","25.08366","6501400","蘆洲區"
"247018","001-UY","2017/12/12 17:09:37","新北市蘆洲區復興路160號","121.477495","25.0880616666667","6501400","蘆洲區"
"228001","212-TW","2017/12/12 17:09:49","新北市貢寮區仁理村研海街42號","121.926551666667","25.0404083333333","6502600","貢寮區"
"228002","663-BX","2017/12/12 17:09:41","新北市貢寮區龍崗里嵩陽街55號","121.907495","25.016585","6502600","貢寮區"
"228003","828-UM","2017/12/12 17:09:43","新北市貢寮區福隆里東興街10-1號","121.950835","25.0190233333333","6502600","貢寮區"
"224010","AGQ-8101","2017/12/12 08:45:10","新北市瑞芳區民權街3-1號","121.809438333333","25.1082066666667","6501200","瑞芳區"
"224006","676-BX","2017/12/12 17:09:43","新北市瑞芳區大寮路95-1號","121.779245","25.0988733333333","6501200","瑞芳區"
"224009","285-BY","2017/12/12 17:09:38","新北市瑞芳區豎崎路36號","121.843193333333","25.1107483333333","6501200","瑞芳區"
"224008","275-VK","2017/12/12 17:09:46","新北市瑞芳區柴寮路36號","121.827311666667","25.0867316666667","6501200","瑞芳區"
"224007","273-VK","2017/12/12 17:09:39","新北市瑞芳區粗坑口路43號","121.759905","25.0992833333333","6501200","瑞芳區"
"224005","271-BY","2017/12/12 17:09:41","新北市瑞芳區鼻頭路97號","121.916011666667","25.1241016666667","6501200","瑞芳區"
"227003","642-TC","2017/12/12 17:09:34","新北市雙溪區外柑里田寮5號","121.805871666667","25.01628","6502500","雙溪區"
"227009","400-TW","2017/12/12 17:09:38","新北市雙溪區三貂里子崙坑1-6號","121.849885","25.057475","6502500","雙溪區"
"251004","009-UM","2017/12/12 17:09:41","新北市淡水區中正東路二段48巷20號","121.457191666667","25.1584533333333","6501000","淡水區"
"251014","180-VK","2017/12/12 17:09:37","新北市淡水區八里堆9-1號","121.463321666667","25.2236616666667","6501000","淡水區"
"251008","181-VK","2017/12/12 17:09:44","新北市淡水區樹梅坑7-6號","121.471796666667","25.14407","6501000","淡水區"
"251010","413-VK","2017/12/12 17:09:36","新北市淡水區新市五路二段75號","121.431245","25.19825","6501000","淡水區"
"251012","441-VK","2017/12/12 17:09:42","新北市淡水區中山北路一段156號","121.44402","25.1779616666667","6501000","淡水區"
"251016","442-VK","2017/12/12 17:09:39","新北市淡水區社厝坑3-11號","121.474971666667","25.1886016666667","6501000","淡水區"
"251005","443-VK","2017/12/12 17:09:44","新北市淡水區水源街一段34巷1號","121.443195","25.1722283333333","6501000","淡水區"
"251006","561-UM","2017/12/12 17:09:36","新北市淡水區中正路253號","121.433376666667","25.1744466666667","6501000","淡水區"
"251009","575-R6","2017/12/12 17:09:55","新北市淡水區三民街20號","121.439068333333","25.171755","6501000","淡水區"
"251007","577-R6","2017/12/12 17:09:48","新北市淡水區民權路49號","121.459665","25.1393216666667","6501000","淡水區"
"251011","650-BX","2017/12/12 17:09:38","新北市淡水區坪頂路47號","121.457625","25.16246","6501000","淡水區"
"252002","178-VK","2017/12/12 17:09:51","新北市三芝區忠孝街1-6號","121.505633333333","25.2545416666667","6502100","三芝區"
"252001","292-VK","2017/12/12 17:09:53","新北市三芝區淡金路一段4-5號","121.49797","25.259965","6502100","三芝區"
"242032","AAC-296","2017/12/12 05:04:54","新北市新莊區新泰路357巷3弄57號","121.442145","25.03938","6500500","新莊區"
"242029","986-R7","2017/12/12 17:09:39","新北市新莊區新泰路357巷3弄57號","121.44228","25.039555","6500500","新莊區"
"242051","751-BX","2017/12/12 17:09:48","新北市新莊區三和路10號","121.441885","25.0360933333333","6500500","新莊區"
"242025","615-BX","2017/12/12 17:09:44","新北市新莊區新泰路255巷83號","121.442186666667","25.0389733333333","6500500","新莊區"
"242023","613-BX","2017/12/12 17:09:38","新北市新莊區新泰路255巷83號","121.44221","25.0389966666667","6500500","新莊區"
"242027","612-BX","2017/12/12 17:09:33","新北市新莊區三和路12-21號","121.4422","25.0385883333333","6500500","新莊區"
"242044","497-BY","2017/12/12 17:09:51","新北市新莊區中正路535-3號","121.437973333333","25.0332033333333","6500500","新莊區"
"242048","441-UM","2017/12/12 17:09:41","新北市新莊區中正路533-1號","121.43902","25.0333383333333","6500500","新莊區"
"242054","440-UM","2017/12/12 17:09:43","新北市新莊區三和路12-21號","121.442273333333","25.038405","6500500","新莊區"
"242034","415-TV","2017/12/12 13:48:05","新北市新莊區新泰路357巷3弄57號","121.441843333333","25.039145","6500500","新莊區"
"242005","413-TV","2017/12/12 17:09:43","新北市新莊區新泰路357巷3弄57號","121.44173","25.0394716666667","6500500","新莊區"
"242042","400-BY","2017/12/12 17:09:46","新北市新莊區新泰路357巷3弄55號","121.442361666667","25.039805","6500500","新莊區"
"242061","362-BY","2017/12/12 17:09:41","新北市新莊區三和路12-21號","121.442211666667","25.038635","6500500","新莊區"
"242058","353-BY","2017/12/12 17:09:38","新北市新莊區三和路12-21號","121.442111666667","25.038745","6500500","新莊區"
"242037","133-UY","2017/12/12 17:09:53","新北市新莊區新樹路39號","121.440303333333","25.0322433333333","6500500","新莊區"
"242021","135-UY","2017/12/12 17:09:47","新北市新莊區新泰路255巷83號","121.442158333333","25.03876","6500500","新莊區"
"242046","172-VK","2017/12/12 04:49:14","新北市新莊區三和路12-21號","121.44204","25.0386416666667","6500500","新莊區"
"242009","173-VK","2017/12/12 00:34:22","新北市新莊區三和路12-21號","121.442061666667","25.0388","6500500","新莊區"
"242002","176-VK","2017/12/12 17:09:54","新北市新莊區三和路12-21號","121.441885","25.0387133333333","6500500","新莊區"
"242013","346-TH","2017/12/12 14:00:07","新北市新莊區三和路12-16號","121.441946666667","25.037415","6500500","新莊區"
"242007","347-TH","2017/12/12 14:56:41","新北市新莊區三和路12-16號","121.441905","25.0374916666667","6500500","新莊區"
"242019","348-TH","2017/12/12 17:09:50","新北市新莊區新泰路357巷3弄57號","121.442361666667","25.0397466666667","6500500","新莊區"
"242056","349-TH","2017/12/12 17:09:50","新北市新莊區三和路12-16號","121.442145","25.0373633333333","6500500","新莊區"
"242017","350-TH","2017/12/12 03:14:33","新北市新莊區新泰路255巷83號","121.441973333333","25.0389466666667","6500500","新莊區"
"242011","351-TH","2017/12/12 17:09:46","新北市新莊區新泰路357巷3弄57號","121.442025","25.0394916666667","6500500","新莊區"
"238015","755-BX","2017/12/12 17:09:45","新北市樹林區八德街660號","121.396411666667","24.9690666666667","6500700","樹林區"
"238023","601-UM","2017/12/12 17:09:51","新北市樹林區大安路415號","121.415393333333","24.9886883333333","6500700","樹林區"
"238019","599-UM","2017/12/12 17:09:37","新北市樹林區八德街450-1號","121.400816666667","24.9702933333333","6500700","樹林區"
"238018","571-TV","2017/12/12 17:09:43","新北市樹林區太平路277號","121.418986666667","24.9727566666667","6500700","樹林區"
"238024","5061-A6","2017/12/12 17:09:34","新北市樹林區八德街365-5號","121.418053333333","24.9722916666667","6500700","樹林區"
"238021","KEA-2217","2017/12/12 17:09:49","新北市樹林區佳園路二段26號","121.39175","24.9632383333333","6500700","樹林區"
"238022","KEA-2213","2017/12/12 17:09:40","新北市樹林區八德街435號","121.406691666667","24.9694683333333","6500700","樹林區"
"238025","303-VK","2017/12/12 17:09:45","新北市樹林區中山路三段125-9號","121.39788","24.973795","6500700","樹林區"
"238017","283-BY","2017/12/12 17:09:41","新北市樹林區八德街502號","121.399716666667","24.9701966666667","6500700","樹林區"
"238014","282-BY","2017/12/12 17:09:39","新北市樹林區中洲街28號","121.397033333333","24.9716566666667","6500700","樹林區"
"238020","268-VK","2017/12/12 17:09:42","新北市樹林區中洲街26-1號","121.397178333333","24.9718633333333","6500700","樹林區"
"238026","172-UY","2017/12/12 17:09:51","新北市樹林區新興街59號","121.399893333333","24.9711383333333","6500700","樹林區"
"238016","169-UY","2017/12/12 17:09:52","新北市樹林區大安路586號","121.411646666667","24.9835816666667","6500700","樹林區"
"239007","AAC-297","2017/12/12 17:09:52","新北市鶯歌區信義街6號","121.35328","24.9558716666667","6500800","鶯歌區"
"239006","891-R6","2017/12/12 17:09:51","新北市鶯歌區八德路2巷18弄1號","121.336581666667","24.946835","6500800","鶯歌區"
"239008","527-UM","2017/12/12 17:09:38","新北市鶯歌區文化路337號","121.351971666667","24.951515","6500800","鶯歌區"
"239005","526-UM","2017/12/12 17:09:53","新北市鶯歌區鶯桃路324號","121.333941666667","24.96207","6500800","鶯歌區"
"239001","417-VK","2017/12/12 17:09:35","新北市鶯歌區尖山路140巷12弄5號","121.34645","24.9495016666667","6500800","鶯歌區"
"239003","360-BY","2017/12/12 17:09:47","新北市鶯歌區德昌二街70巷32弄89號","121.329663333333","24.9570666666667","6500800","鶯歌區"
"239002","359-BY","2017/12/12 17:09:45","新北市鶯歌區建國路280號","121.346","24.9531266666667","6500800","鶯歌區"
"239004","193-VK","2017/12/12 17:09:41","新北市鶯歌區文化路256巷15弄16號","121.352155","24.947215","6500800","鶯歌區"
"221012","276-VK","2017/12/12 16:25:41","新北市汐止區汐萬路一段256巷3號","121.653453333333","25.0745916666667","6501100","汐止區"
"221015","567-BX","2017/12/12 14:44:50","新北市汐止區汐萬路一段256巷3號","121.652438333333","25.0746516666667","6501100","汐止區"
"242039","280-VK","2017/12/12 17:09:41","新北市泰山區磚雅厝3號","121.442266666667","25.041645","6500500","新莊區"
