"lineid","car","time","location","longitude","latitude","cityid","cityname"
"234046","148-BY","2017/12/12 19:19:37","新北市永和區得和路376號","121.524571666667","24.99934","6500400","永和區"
"234013","149-BY","2017/12/12 19:19:38","新北市永和區仁愛路122號","121.511551666667","25.0130616666667","6500400","永和區"
"234007","207-UY","2017/12/12 19:19:50","新北市永和區中山路一段230號","121.50794","25.0081783333333","6500400","永和區"
"234081","298-R6","2017/12/12 19:19:55","新北市永和區林森路10巷18弄1號","121.525718333333","25.0064883333333","6500400","永和區"
"234038","336-UY","2017/12/12 19:19:45","新北市永和區民樂街59巷2號","121.527395","24.9982766666667","6500400","永和區"
"234064","337-UY","2017/12/12 19:19:55","新北市永和區永元路17巷6弄2號","121.521463333333","25.000695","6500400","永和區"
"234086","338-UY","2017/12/12 19:19:49","新北市永和區永貞路108號","121.518971666667","25.0044783333333","6500400","永和區"
"234070","552-UM","2017/12/12 19:19:34","新北市永和區中正路700號","121.51636","25.0098683333333","6500400","永和區"
"234054","553-UM","2017/12/12 19:19:50","新北市永和區中興街61號","121.516653333333","25.01165","6500400","永和區"
"234017","745-BX","2017/12/12 19:19:45","新北市永和區文化路144巷31弄8號","121.5124","25.0168033333333","6500400","永和區"
"234030","746-BX","2017/12/12 19:19:38","新北市永和區厚德街64號","121.524138333333","24.9988783333333","6500400","永和區"
"234061","AAD-866","2017/12/12 19:19:35","新北市永和區秀朗路一段120號","121.517048333333","25.0035566666667","6500400","永和區"
"234042","862-TW","2017/12/12 19:19:54","新北市永和區保平路151巷3號","121.510133333333","25.0055683333333","6500400","永和區"
"234050","863-TW","2017/12/12 19:19:40","新北市永和區保福路二段88巷29號","121.511921666667","25.0136966666667","6500400","永和區"
"234026","9371-KE","2017/12/12 19:19:36","新北市永和區安樂路144巷24號","121.51516","24.9996633333333","6500400","永和區"
"234011","9373-KE","2017/12/12 19:19:40","新北市永和區保福路二段23巷21號","121.510075","25.011225","6500400","永和區"
"249001","173-UM","2017/12/12 19:19:47","新北市八里區中華路二段31-1號","121.412385","25.1535833333333","6502300","八里區"
"249003","759-BX","2017/12/12 19:19:50","新北市八里區中山路二段466巷7號","121.398686666667","25.1475866666667","6502300","八里區"
"248020","225-UY","2017/12/12 18:58:16","新北市五股區凌雲路三段57號","121.425288333333","25.12502","6501500","五股區"
"248012","247-BX","2017/12/12 19:19:52","新北市五股區中興路四段48巷16號","121.438601666667","25.083435","6501500","五股區"
"248010","272-BY","2017/12/12 19:19:41","新北市五股區自強路90巷72號","121.430686666667","25.0712483333333","6501500","五股區"
"248004","677-BX","2017/12/12 19:19:45","新北市五股區五福路73號","121.43251","25.09015","6501500","五股區"
"248002","678-BX","2017/12/12 19:19:40","新北市五股區凌雲路一段158巷26號","121.447768333333","25.1037","6501500","五股區"
"234023","9380-KE","2017/12/12 19:19:49","新北市永和區竹林路124巷8號","121.519436666667","25.0113016666667","6500400","永和區"
"234077","969-R7","2017/12/12 19:19:48","新北市永和區民治街72巷12號","121.518201666667","24.99864","6500400","永和區"
"234074","AAC-211","2017/12/12 19:19:44","新北市永和區竹林路112-1號","121.519755","25.0117666666667","6500400","永和區"
"234067","AAC-212","2017/12/12 19:19:51","新北市永和區保平路52號","121.511363333333","25.00705","6500400","永和區"
"234003","AAC-295","2017/12/12 19:19:46","新北市永和區中山路一段117巷2號","121.51097","25.0102216666667","6500400","永和區"
"244013","069-UM","2017/12/12 19:19:53","新北市林口區麗園一街2巷2號","121.376278333333","25.0717166666667","6501700","林口區"
"244019","403-UM","2017/12/12 19:19:49","新北市林口區麗園二街60巷80號","121.381426666667","25.067485","6501700","林口區"
"244023","483-VK","2017/12/12 19:19:42","新北市林口區民富街97號","121.370286666667","25.075055","6501700","林口區"
"244017","485-VK","2017/12/12 19:19:48","新北市林口區瑞樹坑58號","121.343675","25.1263516666667","6501700","林口區"
"244011","656-BX","2017/12/12 19:19:42","新北市林口區竹林路47號","121.387245","25.0777933333333","6501700","林口區"
"243012","AAD-798","2017/12/12 19:19:47","新北市泰山區仁武街102號","121.432445","25.0541783333333","6501600","泰山區"
"243011","297-R6","2017/12/12 19:19:48","新北市泰山區貴子路15巷4弄2號","121.426546666667","25.042185","6501600","泰山區"
"243015","380-SR","2017/12/12 19:19:52","新北市泰山區公園路71號","121.426351666667","25.0553833333333","6501600","泰山區"
"243014","421-VK","2017/12/12 19:19:40","新北市泰山區泰林路二段227號","121.432318333333","25.06197","6501600","泰山區"
"243010","KEA-2215","2017/12/12 19:19:45","新北市泰山區明志路一段492巷2號","121.430241666667","25.054715","6501600","泰山區"
"243009","KEA-2216","2017/12/12 19:18:23","新北市泰山區明志路一段19巷14號","121.434426666667","25.0655833333333","6501600","泰山區"
"243016","680-BX","2017/12/12 19:19:46","新北市泰山區明志路三段165號","121.42476","25.0394166666667","6501600","泰山區"
"222003","436-BY","2017/12/12 19:19:44","新北市深坑區深南路204號","121.62664","25.0160716666667","6501800","深坑區"
"222002","659-BX","2017/12/12 19:19:48","新北市深坑區北深路一段177號","121.632573333333","25.0109116666667","6501800","深坑區"
"231041","001-UM","2017/12/12 19:19:44","新北市新店區溪園路245-6號","121.525441666667","24.9833083333333","6500600","新店區"
"231059","046-UY","2017/12/12 19:19:39","新北市新店區安和路三段11-1號","121.517948333333","24.980735","6500600","新店區"
"231061","047-UY","2017/12/12 19:19:34","新北市新店區安康路一段228號","121.523143333333","24.9636966666667","6500600","新店區"
"231060","106-UY","2017/12/12 19:19:52","新北市新店區安康路二段105-1號","121.512751666667","24.9624366666667","6500600","新店區"
"231051","107-UY","2017/12/12 19:19:46","新北市新店區中央路81號","121.532191666667","24.9766883333333","6500600","新店區"
"231048","108-UY","2017/12/12 19:19:42","新北市新店區中興路一段298號","121.546106666667","24.969445","6500600","新店區"
"231053","187-VK","2017/12/12 19:19:49","新北市新店區自強路251號","121.548146666667","24.91958","6500600","新店區"
"231050","KEA-2219","2017/12/12 19:19:00","新北市新店區竹林路157-1號","121.556636666667","24.9476733333333","6500600","新店區"
"231046","278-BY","2017/12/12 19:19:34","新北市新店區華城路36巷1-1號","121.528423333333","24.9553083333333","6500600","新店區"
"231054","AAD-862","2017/12/12 19:19:53","新北市新店區文中路51號","121.539913333333","24.9565466666667","6500600","新店區"
"231058","3712-VJ","2017/12/12 19:19:47","新北市新店區北新路一段128-3號","121.542521666667","24.97029","6500600","新店區"
"231067","4772-VM","2017/12/12 19:19:19","新北市新店區柴埕路100-2號","121.503126666667","24.9593766666667","6500600","新店區"
"231065","512-UM","2017/12/12 19:19:47","新北市新店區安祥路110巷61號","121.473761666667","24.95691","6500600","新店區"
"231064","515-UM","2017/12/12 19:19:37","新北市新店區安忠路95號","121.510955","24.9566016666667","6500600","新店區"
"231042","616-UM","2017/12/12 19:19:36","新北市新店區北宜路一段3號","121.538318333333","24.9583733333333","6500600","新店區"
"231045","617-UM","2017/12/12 19:19:49","新北市新店區北宜路一段276號","121.546185","24.95268","6500600","新店區"
"231040","619-UM","2017/12/12 19:19:41","新北市新店區三民路20巷2號","121.537628333333","24.970585","6500600","新店區"
"231063","645-TV","2017/12/12 19:19:49","新北市新店區達觀路14巷8號","121.50319","24.94327","6500600","新店區"
"231049","719-UM","2017/12/12 19:19:40","新北市新店區明德路64號","121.541548333333","24.979445","6500600","新店區"
"231062","720-UM","2017/12/12 19:19:52","新北市新店區莒光路85巷2號","121.523216666667","24.9560483333333","6500600","新店區"
"231044","897-TW","2017/12/12 19:19:50","新北市新店區中興路三段313號","121.541861666667","24.9860733333333","6500600","新店區"
"231043","899-TW","2017/12/12 19:19:40","新北市新店區北新路二段190號","121.542945","24.9763533333333","6500600","新店區"
"231066","AKT-0513","2017/12/12 19:19:51","新北市新店區安康路三段355巷8號","121.484823333333","24.9503433333333","6500600","新店區"
"241009","060-VK","2017/12/12 19:19:40","新北市三重區溪尾街230巷44號","121.486055","25.0811283333333","6500200","三重區"
"241017","063-VK","2017/12/12 19:19:39","新北市三重區大同北路182號","121.491608333333","25.0658983333333","6500200","三重區"
"241026","066-VK","2017/12/12 19:19:50","新北市三重區中正南路216號","121.493813333333","25.0551483333333","6500200","三重區"
"241022","267-UM","2017/12/12 19:19:46","新北市三重區中正北路60號","121.486885","25.0643816666667","6500200","三重區"
"241025","271-UM","2017/12/12 19:19:48","新北市三重區中正北路404號","121.475368333333","25.0703483333333","6500200","三重區"
"241007","398-BY","2017/12/12 19:19:54","新北市三重區慈愛街49號","121.486053333333","25.0791583333333","6500200","三重區"
"241031","KEA-2210","2017/12/12 19:19:42","新北市三重區重新路四段228號","121.48586","25.054005","6500200","三重區"
"241020","413-TH","2017/12/12 19:19:36","新北市三重區大智街254號","121.48924","25.0733216666667","6500200","三重區"
"241030","480-VK","2017/12/12 19:19:42","新北市三重區新興路42號","121.491423333333","25.0533583333333","6500200","三重區"
"241006","AAD-863","2017/12/12 19:19:46","新北市三重區車路頭街182號","121.483668333333","25.0772133333333","6500200","三重區"
"241035","743-BX","2017/12/12 19:19:51","新北市三重區新北大道一段3-1號","121.49","25.061175","6500200","三重區"
"241029","942-UM","2017/12/12 19:19:42","新北市三重區集美街229號","121.492266666667","25.0550366666667","6500200","三重區"
"235066","003-UY","2017/12/12 19:19:44","新北市中和區景新街2號","121.502625","24.9996616666667","6500300","中和區"
"235064","005-UY","2017/12/12 19:19:50","新北市中和區連城路23巷7號","121.499083333333","25.00169","6500300","中和區"
"235063","006-UY","2017/12/12 19:19:41","新北市中和區中正路634號","121.485475","24.9961266666667","6500300","中和區"
"235046","031-BX","2017/12/12 19:19:51","新北市中和區忠孝街2-4號","121.509033333333","24.98293","6500300","中和區"
"235056","096-UM","2017/12/12 19:19:42","新北市中和區員山路527號","121.479731666667","25.0068933333333","6500300","中和區"
"235039","097-UM","2017/12/12 19:19:44","新北市中和區安樂路217巷20弄17號","121.5134","24.9989233333333","6500300","中和區"
"235040","150-BY","2017/12/12 19:19:44","新北市中和區保健路48巷3號","121.51","24.996945","6500300","中和區"
"235058","151-BY","2017/12/12 19:19:23","新北市中和區連城路523巷11弄9號","121.481883333333","24.99419","6500300","中和區"
"235055","183-VK","2017/12/12 19:19:40","新北市中和區德光路49號","121.470196666667","25.00406","6500300","中和區"
"235038","185-VK","2017/12/12 19:19:53","新北市中和區大仁街10巷41號","121.519716666667","24.9924","6500300","中和區"
"235049","186-VK","2017/12/12 19:19:42","新北市中和區景新街239號","121.508143333333","24.99443","6500300","中和區"
"235067","255-BX","2017/12/12 19:19:55","新北市中和區民樂路26號","121.482526666667","25.0010866666667","6500300","中和區"
"235044","293-VK","2017/12/12 19:19:42","新北市中和區復興路316號","121.500911666667","24.9903116666667","6500300","中和區"
"235072","301-VK","2017/12/12 19:19:46","新北市中和區連城路265巷1號","121.491391666667","24.9963666666667","6500300","中和區"
"235043","352-BY","2017/12/12 19:19:52","新北市中和區景平路386號","121.51064","24.9930233333333","6500300","中和區"
"235068","377-QA","2017/12/12 19:19:52","新北市中和區連勝街38巷9號","121.49762","24.9980033333333","6500300","中和區"
"235061","378-QA","2017/12/12 19:19:33","新北市中和區員山路394巷12弄10號","121.481225","25.0040783333333","6500300","中和區"
"235071","269-TV","2017/12/12 19:19:55","新北市中和區連城路469巷69號","121.483483333333","24.9942116666667","6500300","中和區"
"235050","4979-A6","2017/12/12 19:19:53","新北市中和區景安路208巷11號","121.503341666667","24.991225","6500300","中和區"
"235069","4980-A6","2017/12/12 19:19:49","新北市中和區景平路736巷3弄10號","121.497563333333","25.0037516666667","6500300","中和區"
"235042","551-UM","2017/12/12 19:19:50","新北市永和區安樂路58巷2號","121.515105","24.9979366666667","6500300","中和區"
"235070","558-UM","2017/12/12 19:19:39","新北市中和區中和路36號","121.49999","25.0015733333333","6500300","中和區"
"235045","565-BX","2017/12/12 19:19:53","新北市中和區景新街423巷49號","121.514756666667","24.9898066666667","6500300","中和區"
"235054","640-BX","2017/12/12 19:19:36","新北市中和區國光街109巷2弄8號","121.469361666667","25.0006766666667","6500300","中和區"
"235060","647-TV","2017/12/12 19:19:43","新北市中和區民有街25號","121.475755","25.0051816666667","6500300","中和區"
"235047","732-UM","2017/12/12 19:19:17","新北市中和區景平路357號","121.504646666667","24.99326","6500300","中和區"
"235057","801-TS","2017/12/12 19:19:38","新北市中和區員山路200號","121.4813","25.000605","6500300","中和區"
"235041","802-TS","2017/12/12 19:19:49","新北市中和區中和路250-1號","121.50753","24.9994333333333","6500300","中和區"
"235052","805-TS","2017/12/12 19:19:41","新北市中和區華新街230號","121.506006666667","24.9816816666667","6500300","中和區"
"235048","896-TW","2017/12/12 19:19:48","新北市中和區忠孝街112號","121.512186666667","24.98536","6500300","中和區"
"235053","900-TW","2017/12/12 19:19:44","新北市中和區華安街19巷1號","121.466918333333","24.9979166666667","6500300","中和區"
"235065","911-UM","2017/12/12 19:19:47","新北市中和區中山路二段136巷8號","121.50183","25.0037566666667","6500300","中和區"
"235051","157-BY","2017/12/12 19:19:36","新北市中和區興南路一段75號","121.510178333333","24.9891783333333","6500300","中和區"
"235037","AAC-213","2017/12/12 19:19:47","新北市中和區秀朗路三段10巷37弄15號","121.524076666667","24.9955233333333","6500300","中和區"
"235059","AAC-215","2017/12/12 19:19:38","新北市中和區圓通路286巷16-5號","121.491575","24.99136","6500300","中和區"
"220068","013-TV","2017/12/12 15:22:06","新北市板橋區民生路二段120號","121.470341666667","25.019755","6500100","板橋區"
"220065","072-UY","2017/12/12 19:19:50","新北市板橋區民族路170巷3號","121.467436666667","25.0074766666667","6500100","板橋區"
"220086","073-UY","2017/12/12 19:19:33","新北市板橋區中正路216巷118號","121.459441666667","25.0192783333333","6500100","板橋區"
"220106","075-UY","2017/12/12 19:19:42","新北市板橋區雙十路三段70巷2號","121.470328333333","25.032385","6500100","板橋區"
"220069","AAD-861","2017/12/12 19:19:53","新北市板橋區華興街31巷17號","121.458396666667","25.0038566666667","6500100","板橋區"
"220102","120-SR","2017/12/12 19:19:46","新北市板橋區文聖街76號","121.477336666667","25.0301733333333","6500100","板橋區"
"247004","336-TH","2017/12/12 19:19:51","新北市五股區成泰路三段544-1號","121.45492","25.1010366666667","6501400","蘆洲區"
"226004","312-R5","2017/12/12 19:19:45","新北市平溪區十分里十分街174號","121.778513333333","25.0438","6502400","平溪區"
"228001","212-TW","2017/12/12 19:19:49","新北市貢寮區真理里新港街26巷6-3號","121.925691666667","25.0546466666667","6502600","貢寮區"
"228002","663-BX","2017/12/12 19:19:40","新北市貢寮區龍門里復興街14號","121.92658","25.026205","6502600","貢寮區"
"228003","828-UM","2017/12/12 19:19:43","新北市貢寮區和美里和美街19-2號","121.912796666667","25.0826083333333","6502600","貢寮區"
"224006","676-BX","2017/12/12 19:19:43","新北市瑞芳區中山路238號","121.800111666667","25.1071233333333","6501200","瑞芳區"
"224008","275-VK","2017/12/12 19:19:42","新北市瑞芳區一坑路189-1號","121.801763333333","25.1091133333333","6501200","瑞芳區"
"224005","271-BY","2017/12/12 19:19:40","新北市瑞芳區員山子路25-1號","121.82231","25.1025466666667","6501200","瑞芳區"
"227003","642-TC","2017/12/12 19:19:39","新北市雙溪區平林里梅竹蹊66-1號","121.860175","25.03579","6502500","雙溪區"
"227009","400-TW","2017/12/12 19:19:38","新北市雙溪區新基里新基北街40號","121.86849","25.03801","6502500","雙溪區"
"253005","032-BX","2017/12/12 19:19:46","新北市石門區小坑14-3號","121.600851666667","25.28718","6502200","石門區"
"253006","295-VK","2017/12/12 19:19:40","新北市石門區楓林17-6號","121.537091666667","25.2920433333333","6502200","石門區"
"222001","KEA-2212","2017/12/12 19:19:47","新北市深坑區北深路二段103號","121.617425","25.003375","6501800","深坑區"
"208002","742-BX","2017/12/12 19:19:39","新北市金山區中華路133號","121.633078333333","25.22095","6502700","金山區"
"208003","665-BX","2017/12/12 19:19:45","新北市金山區中山路116號","121.639256666667","25.2199083333333","6502700","金山區"
"208001","761-BX","2017/12/12 19:19:50","新北市金山區民生路69號","121.64014","25.2196766666667","6502700","金山區"
"251001","011-UM","2017/12/12 19:19:38","新北市淡水區自強路201巷39號","121.462138333333","25.1268466666667","6501000","淡水區"
"251014","180-VK","2017/12/12 19:19:37","新北市淡水區小中寮19-7號","121.484726666667","25.2297216666667","6501000","淡水區"
"251010","413-VK","2017/12/12 19:19:56","新北市淡水區沙崙路27號","121.421286666667","25.181755","6501000","淡水區"
"251012","441-VK","2017/12/12 19:19:42","新北市淡水區中山北路三段164號","121.445716666667","25.19658","6501000","淡水區"
"251016","442-VK","2017/12/12 19:19:39","新北市淡水區下圭柔山119-51號","121.450741666667","25.2084216666667","6501000","淡水區"
"251005","443-VK","2017/12/12 19:19:44","新北市淡水區水源街一段34巷2號","121.443198333333","25.172205","6501000","淡水區"
"251006","561-UM","2017/12/12 19:19:56","新北市淡水區大信街33號","121.442016666667","25.17733","6501000","淡水區"
"251009","575-R6","2017/12/12 19:19:55","新北市淡水區大忠街5巷9號","121.443331666667","25.1765866666667","6501000","淡水區"
"251007","577-R6","2017/12/12 19:19:52","新北市淡水區民生路117巷28號","121.464931666667","25.1395066666667","6501000","淡水區"
"251003","673-BX","2017/12/12 19:19:39","新北市淡水區中山北路一段33號","121.441593333333","25.1752966666667","6501000","淡水區"
"207003","550-UM","2017/12/12 19:19:50","新北市萬里區大鵬里萬里加投79-3號","121.64734","25.2123533333333","6502800","萬里區"
"207004","225-TW","2017/12/12 19:19:41","新北市萬里區萬里里成功新村44號","121.687731666667","25.17464","6502800","萬里區"
"252002","178-VK","2017/12/12 19:19:51","新北市三芝區淡金路二段18-1號","121.502606666667","25.2595083333333","6502100","三芝區"
"252001","292-VK","2017/12/12 19:19:53","新北市三芝區長勤街9巷11弄3號","121.501858333333","25.25469","6502100","三芝區"
"237004","078-UY","2017/12/12 19:19:50","新北市三峽區有木205-1號","121.438985","24.8515633333333","6500900","三峽區"
"237007","153-BY","2017/12/12 19:19:41","新北市三峽區二鬮路108號","121.36048","24.9090216666667","6500900","三峽區"
"237009","210-TH","2017/12/12 19:19:52","新北市三峽區和平街2-1號","121.370453333333","24.9352666666667","6500900","三峽區"
"237013","252-BX","2017/12/12 19:19:46","新北市三峽區光明路75巷23號","121.37747","24.9281533333333","6500900","三峽區"
"237012","275-BY","2017/12/12 19:19:40","新北市三峽區三樹路222巷236弄23號","121.391741666667","24.9430566666667","6500900","三峽區"
"237008","302-VK","2017/12/12 19:19:56","新北市三峽區大同路146號","121.373446666667","24.9267333333333","6500900","三峽區"
"237014","433-BY","2017/12/12 19:19:46","新北市三峽區中山路118號","121.365691666667","24.9358383333333","6500900","三峽區"
"237006","5529-G3","2017/12/12 19:19:54","新北市三峽區中正路一段336巷15弄2號","121.369961666667","24.9249516666667","6500900","三峽區"
"237016","649-BX","2017/12/12 19:12:52","新北市三峽區安坑64-5號","121.46893","24.9295933333333","6500900","三峽區"
"237005","AKY-6261","2017/12/12 19:19:51","新北市三峽區中山路459巷50-1號","121.356316666667","24.93727","6500900","三峽區"
"236070","105-UM","2017/12/12 19:19:52","新北市土城區中央路一段291巷4號","121.444671666667","24.9839733333333","6501300","土城區"
"236079","166-UM","2017/12/11 20:45:57","新北市土城區城林路6巷71號","121.437486666667","24.9784983333333","6501300","土城區"
"236027","269-VK","2017/12/12 19:19:45","新北市土城區中央路二段154號","121.441915","24.9767966666667","6501300","土城區"
"236015","270-VK","2017/12/12 19:19:52","新北市土城區學府路一段21-1號","121.458585","24.9883933333333","6501300","土城區"
"236023","401-BY","2017/12/12 19:19:38","新北市土城區峰廷街3號","121.469136666667","24.9873283333333","6501300","土城區"
"236059","912-UM","2017/12/12 19:19:47","新北市土城區金城路一段49號","121.44119","24.9696983333333","6501300","土城區"
"236049","913-UM","2017/12/12 19:19:39","新北市土城區明德路一段398-1號","121.453671666667","24.97908","6501300","土城區"
"236055","AAC-216","2017/12/12 19:19:40","新北市土城區學府路一段276號","121.44991","24.98296","6501300","土城區"
"238015","755-BX","2017/12/12 19:19:35","新北市樹林區備內街1巷31號","121.412635","24.9863416666667","6500700","樹林區"
"238023","601-UM","2017/12/12 19:19:51","新北市樹林區三興路35號","121.396203333333","25.0147183333333","6500700","樹林區"
"238019","599-UM","2017/12/12 19:19:37","新北市樹林區鎮前街347巷3弄25號","121.417376666667","24.9837933333333","6500700","樹林區"
"238018","571-TV","2017/12/12 19:19:43","新北市樹林區中華路172-3號","121.413871666667","24.9803533333333","6500700","樹林區"
"238024","5061-A6","2017/12/12 19:19:14","新北市樹林區福德街48-4號","121.399045","24.97491","6500700","樹林區"
"238021","KEA-2217","2017/12/12 19:19:39","新北市樹林區柑園街二段386巷1號","121.367685","24.948975","6500700","樹林區"
"238022","KEA-2213","2017/12/12 19:19:40","新北市樹林區東興街3號","121.409801666667","24.98044","6500700","樹林區"
"238025","303-VK","2017/12/12 19:19:45","新北市樹林區中山路二段222號","121.411065","24.9819416666667","6500700","樹林區"
"238017","283-BY","2017/12/12 19:19:41","新北市樹林區光興街11巷2號","121.412251666667","25.00284","6500700","樹林區"
"238014","282-BY","2017/12/12 19:19:39","新北市樹林區保安二街55號","121.424723333333","24.994595","6500700","樹林區"
"238020","268-VK","2017/12/12 19:19:42","新北市樹林區俊英街123巷2號","121.424413333333","25.010665","6500700","樹林區"
"238026","172-UY","2017/12/12 19:19:51","新北市樹林區佳園路三段77號","121.387676666667","24.9526366666667","6500700","樹林區"
"238016","169-UY","2017/12/12 19:19:52","新北市樹林區中山路二段34-2號","121.417021666667","24.9853616666667","6500700","樹林區"
"239007","AAC-297","2017/12/12 19:19:34","新北市鶯歌區中山路138巷3-5號","121.349546666667","24.9581383333333","6500800","鶯歌區"
"239006","891-R6","2017/12/12 19:19:51","新北市鶯歌區永昌街21號","121.342728333333","24.9497483333333","6500800","鶯歌區"
"239008","527-UM","2017/12/12 19:19:38","新北市鶯歌區大湖路532號","121.337096666667","24.9727283333333","6500800","鶯歌區"
"239005","526-UM","2017/12/12 19:19:33","新北市鶯歌區中湖街319號","121.348885","24.9754833333333","6500800","鶯歌區"
"239001","417-VK","2017/12/12 19:19:55","新北市鶯歌區建國路375號","121.338883333333","24.94971","6500800","鶯歌區"
"239003","360-BY","2017/12/12 19:19:47","新北市鶯歌區建國路272號","121.347195","24.9534283333333","6500800","鶯歌區"
"239002","359-BY","2017/12/12 19:19:45","新北市鶯歌區大湖路382號","121.345611666667","24.9730583333333","6500800","鶯歌區"
"239004","193-VK","2017/12/12 19:19:52","新北市鶯歌區二甲路33-11號","121.340021666667","24.93817","6500800","鶯歌區"
"221008","489-VK","2017/12/12 19:19:53","新北市汐止區康寧街281號","121.626106666667","25.0671333333333","6501100","汐止區"
"221036","130-UY","2017/12/12 19:19:42","新北市汐止區汐萬路一段256巷1號","121.651725","25.07486","6501100","汐止區"
"221010","269-BY","2017/12/12 19:19:51","新北市汐止區康寧街901號","121.651358333333","25.075055","6501100","汐止區"
"221012","276-VK","2017/12/12 16:25:41","新北市汐止區汐萬路一段256巷3號","121.653453333333","25.0745916666667","6501100","汐止區"
"221012","278-VK","2017/12/12 19:19:39","新北市汐止區汐萬路一段312號","121.65033","25.074925","6501100","汐止區"
"221023","279-VK","2017/12/12 19:19:45","新北市汐止區康寧街901號","121.650988333333","25.0752533333333","6501100","汐止區"
"221027","281-BY","2017/12/12 19:19:52","新北市汐止區汐萬路一段310號","121.650306666667","25.0747116666667","6501100","汐止區"
"221029","298-VK","2017/12/12 19:19:53","新北市汐止區康寧街901號","121.65156","25.0749583333333","6501100","汐止區"
"221021","299-VK","2017/12/12 19:19:43","新北市汐止區康寧街901號","121.651465","25.0749383333333","6501100","汐止區"
"221031","353-TW","2017/12/12 19:19:41","新北市汐止區汐萬路一段256巷3號","121.652545","25.0745383333333","6501100","汐止區"
"221015","567-BX","2017/12/12 19:19:50","新北市汐止區康寧街901號","121.651755","25.07496","6501100","汐止區"
"221025","623-UM","2017/12/12 19:19:44","新北市汐止區汐萬路一段271號","121.650576666667","25.0743783333333","6501100","汐止區"
"221038","646-BX","2017/12/12 19:19:41","新北市汐止區康寧街901號","121.650705","25.07529","6501100","汐止區"
"221033","647-BX","2017/12/12 19:19:42","新北市汐止區南勢街3號","121.627085","25.03736","6501100","汐止區"
"221002","707-TV","2017/12/12 19:19:47","新北市汐止區大同路一段396號","121.639756666667","25.0597816666667","6501100","汐止區"
"221018","753-BX","2017/12/12 19:19:39","新北市汐止區康寧街901號","121.651585","25.0749116666667","6501100","汐止區"
"220079","145-BY","2017/12/12 19:19:41","新北市板橋區民權路202巷18弄1號","121.460821666667","25.0165933333333","6500100","板橋區"
"220080","200-UY","2017/12/12 19:19:52","新北市板橋區大觀路二段19巷69號","121.4487","25.0029333333333","6500100","板橋區"
"220082","610-BX","2017/12/12 19:19:52","新北市板橋區溪崑二街138號","121.42598","24.9875666666667","6500100","板橋區"
"220101","245-BX","2017/12/12 19:19:39","新北市板橋區莊敬路25巷23號","121.474271666667","25.0269716666667","6500100","板橋區"
"220056","276-BY","2017/12/12 19:19:45","新北市板橋區信義路139號","121.45801","24.9930733333333","6500100","板橋區"
"220072","277-BY","2017/12/12 19:19:39","新北市板橋區金門街339-2號","121.429315","24.98564","6500100","板橋區"
"220071","283-VK","2017/12/12 19:19:44","新北市板橋區大豐街21號","121.462243333333","25.0014283333333","6500100","板橋區"
"220094","285-UM","2017/12/12 19:19:50","新北市板橋區吳鳳路82號","121.466913333333","25.0313716666667","6500100","板橋區"
"220053","285-VK","2017/12/12 19:19:48","新北市板橋區富山街19號","121.478041666667","25.0218116666667","6500100","板橋區"
"220083","286-VK","2017/12/12 19:19:45","新北市板橋區大觀路二段174巷196弄3-2號","121.442625","25.00387","6500100","板橋區"
"220081","287-VK","2017/12/12 19:19:49","新北市板橋區南雅西路一段182號","121.452906666667","25.0081266666667","6500100","板橋區"
"220090","288-VK","2017/12/12 19:19:48","新北市板橋區長江路一段106巷13弄20號","121.460803333333","25.0294583333333","6500100","板橋區"
"220061","293-UM","2017/12/12 19:19:38","新北市板橋區光復街27號","121.481351666667","25.01907","6500100","板橋區"
"220084","296-UM","2017/12/12 19:19:46","新北市板橋區溪北路134號","121.429146666667","24.989","6500100","板橋區"
"220075","297-UM","2017/12/12 19:19:51","新北市板橋區中正路275巷93號","121.451293333333","25.0185216666667","6500100","板橋區"
"220062","305-R5","2017/12/12 19:19:43","新北市板橋區三民路二段153巷36弄2號","121.481135","25.0141483333333","6500100","板橋區"
"220092","307-R5","2017/12/12 19:19:41","新北市板橋區光武街48巷30號","121.46824","25.0270433333333","6500100","板橋區"
"220098","317-R6","2017/12/12 19:19:48","新北市板橋區民有街89巷8弄1號","121.464241666667","25.0273566666667","6500100","板橋區"
"220064","486-VK","2017/12/12 19:19:53","新北市板橋區板新路238號","121.468116666667","25.0160583333333","6500100","板橋區"
"220089","487-VK","2017/12/12 19:19:55","新北市板橋區文化路一段369-1號","121.466913333333","25.0213833333333","6500100","板橋區"
"220088","491-VK","2017/12/12 19:19:47","新北市板橋區雙十路二段36號","121.476076666667","25.02723","6500100","板橋區"
"220035","560-BX","2017/12/12 19:19:44","新北市板橋區中正路431號","121.454206666667","25.0231133333333","6500100","板橋區"
"220103","561-BX","2017/12/12 19:19:43","新北市板橋區文化路一段188巷7弄14號","121.467606666667","25.0197","6500100","板橋區"
"220091","637-BX","2017/12/12 19:19:37","新北市板橋區縣民大道三段185號","121.479486666667","25.024735","6500100","板橋區"
"220057","686-BX","2017/12/12 19:19:51","新北市板橋區重慶路329號","121.463935","24.9983766666667","6500100","板橋區"
"220077","687-BX","2017/12/12 19:19:37","新北市板橋區僑中二街52號","121.446721666667","25.0103666666667","6500100","板橋區"
"220093","689-BX","2017/12/12 19:19:41","新北市板橋區文化路一段279號","121.464738333333","25.01858","6500100","板橋區"
"220054","741-BX","2017/12/12 19:19:38","新北市板橋區校前街36號","121.46087","25.0031966666667","6500100","板橋區"
"220055","827-TW","2017/12/12 19:19:52","新北市板橋區實踐路65巷6-7號","121.464456666667","25.0065216666667","6500100","板橋區"
"220067","829-TW","2017/12/12 19:19:51","新北市板橋區長安街138巷5弄62號","121.47402","25.00963","6500100","板橋區"
"220096","831-TW","2017/12/12 19:19:50","新北市板橋區大同街26巷15號","121.478273333333","25.02686","6500100","板橋區"
"220063","833-TW","2017/12/12 19:19:47","新北市中和區員山路570號","121.478943333333","25.0114033333333","6500100","板橋區"
"220074","895-R6","2017/12/12 19:19:51","新北市板橋區中正路1巷14號","121.455256666667","25.011675","6500100","板橋區"
"220073","985-R7","2017/12/12 19:19:41","新北市板橋區新生街16號","121.45551","25.02109","6500100","板橋區"
"220097","AAC-210","2017/12/12 19:19:51","新北市板橋區幸福路32巷3弄11號","121.460853333333","25.0206683333333","6500100","板橋區"
"220070","AAC-253","2017/12/12 19:19:42","新北市板橋區忠孝路74號","121.461345","25.0019483333333","6500100","板橋區"
