"lineid","car","time","location","longitude","latitude","cityid","cityname"
"234046","148-BY","2017/12/12 19:39:57","新北市永和區永利路218號","121.523443333333","25.0025316666667","6500400","永和區"
"234013","149-BY","2017/12/12 19:39:38","新北市永和區永平路220號","121.509115","25.0105166666667","6500400","永和區"
"234007","207-UY","2017/12/12 19:39:50","新北市中和區中和路454號","121.512001666667","25.0036733333333","6500400","永和區"
"234081","298-R6","2017/12/12 19:39:55","新北市永和區林森路42號","121.525301666667","25.0048766666667","6500400","永和區"
"234038","336-UY","2017/12/12 19:39:45","新北市永和區民樂街31巷2號","121.527711666667","25.0014583333333","6500400","永和區"
"234064","337-UY","2017/12/12 19:39:55","新北市永和區秀朗路一段192巷6弄14號","121.519096666667","25.0023116666667","6500400","永和區"
"234086","338-UY","2017/12/12 19:39:49","新北市永和區林森路48巷1號","121.524625","25.0046016666667","6500400","永和區"
"234070","552-UM","2017/12/12 19:39:54","新北市永和區永和路二段233號","121.515595","25.0142466666667","6500400","永和區"
"234054","553-UM","2017/12/12 19:39:30","新北市永和區竹林路43號","121.517963333333","25.0141583333333","6500400","永和區"
"234017","745-BX","2017/12/12 19:39:45","新北市永和區永和路二段425巷62號","121.513685","25.01734","6500400","永和區"
"234030","746-BX","2017/12/12 19:39:38","新北市永和區民生路37巷16號","121.523586666667","24.9979966666667","6500400","永和區"
"234061","AAD-866","2017/12/12 19:39:55","新北市永和區中正路456號","121.517508333333","25.00294","6500400","永和區"
"234042","862-TW","2017/12/12 19:39:34","新北市永和區中和路373號","121.508293333333","24.9998416666667","6500400","永和區"
"234050","863-TW","2017/12/12 19:39:40","新北市永和區保安路84號","121.509763333333","25.0161966666667","6500400","永和區"
"234026","9371-KE","2017/12/12 19:39:36","新北市永和區中和路507號","121.510821666667","25.0023416666667","6500400","永和區"
"249004","303-UY","2017/12/12 19:39:43","新北市八里區仁愛路10號","121.413301666667","25.1623333333333","6502300","八里區"
"249002","305-UY","2017/12/12 19:39:55","新北市八里區頂寮二街33-1號","121.450438333333","25.1251566666667","6502300","八里區"
"249003","759-BX","2017/12/12 19:39:50","新北市八里區華峰三街60號","121.399051666667","25.1457666666667","6502300","八里區"
"248014","025-BX","2017/12/12 19:39:50","新北市五股區五福路23巷9號","121.433611666667","25.0886683333333","6501500","五股區"
"248016","026-BX","2017/12/12 19:39:44","新北市五股區成泰路三段518號","121.452333333333","25.1025533333333","6501500","五股區"
"248008","095-VK","2017/12/12 19:39:53","新北市五股區四維路118巷13號","121.469333333333","25.0741633333333","6501500","五股區"
"248020","225-UY","2017/12/12 19:39:35","新北市五股區中直路19-2號","121.42348","25.1120933333333","6501500","五股區"
"248012","247-BX","2017/12/12 19:39:52","新北市五股區成泰路二段91巷23-1號","121.437436666667","25.0844533333333","6501500","五股區"
"248010","272-BY","2017/12/12 19:39:41","新北市五股區自強路90巷72號","121.43068","25.07125","6501500","五股區"
"248004","677-BX","2017/12/12 19:39:45","新北市五股區成泰路二段64號","121.437381666667","25.082185","6501500","五股區"
"248002","678-BX","2017/12/12 19:39:40","新北市五股區成泰路三段577巷49號","121.450726666667","25.103195","6501500","五股區"
"234077","969-R7","2017/12/12 19:39:48","新北市永和區民權路3號","121.520095","24.9983266666667","6500400","永和區"
"234074","AAC-211","2017/12/12 19:39:47","新北市永和區竹林路223號","121.52096","25.0085616666667","6500400","永和區"
"234067","AAC-212","2017/12/12 19:39:50","新北市永和區中山路一段191巷7弄5號","121.509501666667","25.0085366666667","6500400","永和區"
"234003","AAC-295","2017/12/12 19:39:45","新北市永和區自由街69號","121.513533333333","25.0052566666667","6500400","永和區"
"244019","403-UM","2017/12/12 19:39:49","新北市林口區麗園一街15號","121.377021666667","25.0691766666667","6501700","林口區"
"244017","485-VK","2017/12/12 19:39:48","新北市八里區長道坑16-2號","121.39476","25.1170716666667","6501700","林口區"
"243012","AAD-798","2017/12/12 19:39:47","新北市泰山區仁愛路100巷58號","121.433863333333","25.0544116666667","6501600","泰山區"
"243011","297-R6","2017/12/12 19:39:48","新北市泰山區明志路三段204巷10弄11號","121.422956666667","25.0386916666667","6501600","泰山區"
"243015","380-SR","2017/12/12 19:39:52","新北市泰山區民權街51號","121.429008333333","25.0504783333333","6501600","泰山區"
"243014","421-VK","2017/12/12 19:39:40","新北市泰山區泰林路二段33-7號","121.435181666667","25.05641","6501600","泰山區"
"243010","KEA-2215","2017/12/12 19:39:45","新北市泰山區民生路33號","121.430676666667","25.05215","6501600","泰山區"
"243009","KEA-2216","2017/12/12 19:39:43","新北市泰山區美寧街58號","121.430871666667","25.0646866666667","6501600","泰山區"
"243016","680-BX","2017/12/12 19:39:46","新北市新莊區新北大道七段36號","121.419608333333","25.0322333333333","6501600","泰山區"
"222003","436-BY","2017/12/12 19:30:10","新北市深坑區深南路51-1號","121.621193333333","25.01001","6501800","深坑區"
"222002","659-BX","2017/12/12 19:39:48","新北市深坑區北深路一段177號","121.632523333333","25.0108866666667","6501800","深坑區"
"231041","001-UM","2017/12/12 19:39:45","新北市新店區中正路500號","121.534006666667","24.9820666666667","6500600","新店區"
"231059","046-UY","2017/12/12 19:39:41","新北市新店區安和路二段197號","121.518023333333","24.9750566666667","6500600","新店區"
"231061","047-UY","2017/12/12 19:39:34","新北市新店區安民街162號","121.516816666667","24.970345","6500600","新店區"
"231060","106-UY","2017/12/12 19:39:48","新北市新店區安康路二段208號","121.51022","24.9595033333333","6500600","新店區"
"231051","107-UY","2017/12/12 19:39:46","新北市新店區中央四街37號","121.52829","24.9746833333333","6500600","新店區"
"231048","108-UY","2017/12/12 19:39:42","新北市新店區五峰路61巷7號","121.548946666667","24.96952","6500600","新店區"
"231053","187-VK","2017/12/12 19:39:50","新北市新店區廣興路5巷19號","121.545636666667","24.9139533333333","6500600","新店區"
"231050","KEA-2219","2017/12/12 19:39:40","新北市新店區郵政路31號","121.556205","24.9514383333333","6500600","新店區"
"231057","256-BX","2017/12/12 19:39:46","新北市新店區橘園一路11號","121.547955","24.9340116666667","6500600","新店區"
"231046","278-BY","2017/12/12 19:39:54","新北市新店區中正路329巷5弄2號","121.53528","24.97433","6500600","新店區"
"231054","AAD-862","2017/12/12 19:39:52","新北市新店區北宜路一段49號","121.538335","24.9569483333333","6500600","新店區"
"231058","3712-VJ","2017/12/12 19:39:47","新北市新店區中正路102巷8弄2號","121.543336666667","24.9710333333333","6500600","新店區"
"231067","4772-VM","2017/12/12 19:39:39","新北市新店區秀山路55號","121.530748333333","24.960395","6500600","新店區"
"231065","512-UM","2017/12/12 19:39:47","新北市新店區安祥路109巷85弄25號","121.478363333333","24.9600083333333","6500600","新店區"
"231064","515-UM","2017/12/12 19:39:37","新北市新店區安和路一段1號","121.516533333333","24.9637616666667","6500600","新店區"
"231042","616-UM","2017/12/12 19:39:36","新北市新店區中興路一段216號","121.543821666667","24.9657966666667","6500600","新店區"
"231045","617-UM","2017/12/12 19:39:48","新北市新店區北宜路二段415號","121.559948333333","24.954495","6500600","新店區"
"231040","619-UM","2017/12/12 19:39:41","新北市新店區北新路一段96巷23號","121.543018333333","24.968815","6500600","新店區"
"231063","645-TV","2017/12/12 19:39:49","新北市新店區達觀路41號","121.502791666667","24.9382533333333","6500600","新店區"
"231049","719-UM","2017/12/12 19:39:40","新北市新店區建國路128巷3-1號","121.538985","24.979365","6500600","新店區"
"231062","720-UM","2017/12/12 19:39:52","新北市新店區永業路18-1號","121.533406666667","24.9559066666667","6500600","新店區"
"231044","897-TW","2017/12/12 19:39:40","新北市新店區北新路三段17號","121.542165","24.97972","6500600","新店區"
"231043","899-TW","2017/12/12 19:39:40","新北市新店區中正路163號","121.541118333333","24.9719216666667","6500600","新店區"
"231066","AKT-0513","2017/12/12 19:39:51","新北市新店區安康路二段341巷16號","121.496958333333","24.9548216666667","6500600","新店區"
"241011","013-R5","2017/12/12 19:39:36","新北市三重區秀江街219號","121.497325","25.0715866666667","6500200","三重區"
"241008","059-VK","2017/12/12 19:39:49","新北市三重區永福街68號","121.478958333333","25.0768733333333","6500200","三重區"
"241009","060-VK","2017/12/12 19:39:40","新北市三重區三和路四段400巷27號","121.479965","25.0792466666667","6500200","三重區"
"241015","062-VK","2017/12/12 19:39:42","新北市三重區福德北路30-1號","121.50204","25.0650833333333","6500200","三重區"
"241017","063-VK","2017/12/12 19:39:39","新北市三重區重陽路三段5巷8弄33號","121.490393333333","25.0663166666667","6500200","三重區"
"241026","066-VK","2017/12/12 19:39:50","新北市三重區光興街61號","121.498711666667","25.060265","6500200","三重區"
"241019","156-TC","2017/12/12 19:39:40","新北市三重區六張街194巷1弄1號","121.488436666667","25.0682533333333","6500200","三重區"
"241022","267-UM","2017/12/12 19:39:50","新北市三重區中正北路166號","121.484181666667","25.0660333333333","6500200","三重區"
"241018","268-UM","2017/12/12 19:39:54","新北市三重區大智街59號","121.492666666667","25.0678733333333","6500200","三重區"
"241032","269-UM","2017/12/12 19:39:52","新北市三重區三陽路133號","121.483121666667","25.05888","6500200","三重區"
"241013","270-UM","2017/12/12 19:39:49","新北市三重區仁賢街2號","121.495626666667","25.0745766666667","6500200","三重區"
"241025","271-UM","2017/12/12 19:39:48","新北市三重區忠孝路三段99巷11號","121.480066666667","25.06458","6500200","三重區"
"241007","398-BY","2017/12/12 19:39:54","新北市三重區仁美街64號","121.48653","25.07832","6500200","三重區"
"241031","KEA-2210","2017/12/12 19:39:42","新北市三重區重新路四段256號","121.485985","25.05329","6500200","三重區"
"241020","413-TH","2017/12/12 19:39:36","新北市三重區自強路三段78號","121.487005","25.0740783333333","6500200","三重區"
"241030","480-VK","2017/12/12 19:39:42","新北市三重區新興路32號","121.49204","25.0533783333333","6500200","三重區"
"241014","543-UM","2017/12/12 19:39:43","新北市三重區河邊北街80號","121.504223333333","25.0688766666667","6500200","三重區"
"241023","545-UM","2017/12/12 19:39:47","新北市三重區忠孝路三段109號","121.479968333333","25.063825","6500200","三重區"
"241001","547-UM","2017/12/12 19:39:53","新北市三重區仁愛街315巷46號","121.493648333333","25.0799366666667","6500200","三重區"
"241006","AAD-863","2017/12/12 19:39:46","新北市三重區聯華街100號","121.485431666667","25.075215","6500200","三重區"
"241035","743-BX","2017/12/12 19:39:51","新北市三重區信義西街1號","121.498268333333","25.064825","6500200","三重區"
"241028","887-TS","2017/12/12 19:39:49","新北市三重區中正南路157號","121.493835","25.056195","6500200","三重區"
"241012","941-UM","2017/12/12 19:39:51","新北市三重區河邊北街256巷41號","121.500356666667","25.0758566666667","6500200","三重區"
"241029","942-UM","2017/12/12 19:39:57","新北市三重區同安街133號","121.493461666667","25.0561283333333","6500200","三重區"
"235066","003-UY","2017/12/12 19:39:44","新北市中和區中和路196巷9弄4號","121.505326666667","24.9991166666667","6500300","中和區"
"235064","005-UY","2017/12/12 19:39:50","新北市中和區南山路72-7號","121.502296666667","24.9960316666667","6500300","中和區"
"235063","006-UY","2017/12/12 19:39:41","新北市中和區連勝街179號","121.494033333333","24.9970366666667","6500300","中和區"
"235046","031-BX","2017/12/12 19:39:51","新北市中和區忠孝街59號","121.511778333333","24.9846066666667","6500300","中和區"
"235056","096-UM","2017/12/12 19:39:42","新北市中和區員山路581巷2-10號","121.477403333333","25.0090233333333","6500300","中和區"
"235039","097-UM","2017/12/12 19:39:44","新北市中和區景平路21號","121.522708333333","24.9902483333333","6500300","中和區"
"235040","150-BY","2017/12/12 19:39:44","新北市中和區保健路44巷31號","121.508805","24.996365","6500300","中和區"
"235058","151-BY","2017/12/12 19:39:49","新北市中和區連城路374巷13號","121.481331666667","24.9959466666667","6500300","中和區"
"235055","183-VK","2017/12/12 19:39:40","新北市中和區中山路三段209號","121.47187","25.00635","6500300","中和區"
"235038","185-VK","2017/12/12 19:39:53","新北市中和區自立路139巷10號","121.522655","24.99382","6500300","中和區"
"235049","186-VK","2017/12/12 19:39:42","新北市中和區安平路12號","121.509188333333","24.9941016666667","6500300","中和區"
"235067","255-BX","2017/12/12 19:39:55","新北市中和區新生街220巷17號","121.482908333333","24.9984866666667","6500300","中和區"
"235044","293-VK","2017/12/12 19:39:42","新北市中和區興南路一段93巷2號","121.509596666667","24.98851","6500300","中和區"
"235072","301-VK","2017/12/12 19:39:46","新北市中和區錦和路93巷2弄1號","121.490351666667","24.99564","6500300","中和區"
"235043","352-BY","2017/12/12 19:39:51","新北市中和區安樂路49號","121.51177","24.9934533333333","6500300","中和區"
"235068","377-QA","2017/12/12 19:39:52","新北市中和區景平路632號","121.500181666667","24.9979283333333","6500300","中和區"
"235061","378-QA","2017/12/12 19:39:53","新北市中和區民利街31巷2弄10號","121.47975","24.9985916666667","6500300","中和區"
"235071","269-TV","2017/12/12 19:39:55","新北市中和區中山路二段437號","121.484721666667","25.004875","6500300","中和區"
"235050","4979-A6","2017/12/12 19:39:53","新北市中和區中正路589巷15號","121.48569","24.9936666666667","6500300","中和區"
"235069","4980-A6","2017/12/12 19:39:49","新北市中和區員山路36巷16-8號","121.485426666667","24.99234","6500300","中和區"
"235042","551-UM","2017/12/12 19:39:50","新北市中和區宜安路150號","121.509406666667","24.9987616666667","6500300","中和區"
"235070","558-UM","2017/12/12 19:39:39","新北市中和區景平路527號","121.498961666667","24.9990516666667","6500300","中和區"
"235045","565-BX","2017/12/12 19:39:53","新北市中和區景新街467巷15弄1號","121.51387","24.9882616666667","6500300","中和區"
"235054","640-BX","2017/12/12 19:39:36","新北市中和區國光街102巷11弄22號","121.47067","25.001395","6500300","中和區"
"235060","647-TV","2017/12/12 19:39:43","新北市中和區員山路314巷7弄4號","121.482176666667","25.0031016666667","6500300","中和區"
"235047","732-UM","2017/12/12 19:39:37","新北市中和區景安路170號","121.50468","24.9926033333333","6500300","中和區"
"235057","801-TS","2017/12/12 19:39:38","新北市中和區員山路238號","121.481261666667","25.0011783333333","6500300","中和區"
"235041","802-TS","2017/12/12 19:39:49","新北市永和區中和路603號","121.512376666667","25.0042033333333","6500300","中和區"
"235052","805-TS","2017/12/12 19:39:41","新北市中和區華新街206巷18號","121.506251666667","24.9826166666667","6500300","中和區"
"235048","896-TW","2017/12/12 19:39:52","新北市中和區忠孝街1巷2-1號","121.509125","24.983075","6500300","中和區"
"235053","900-TW","2017/12/12 19:39:44","新北市中和區國光街142巷44號","121.467681666667","25.0021633333333","6500300","中和區"
"235065","911-UM","2017/12/12 19:39:47","新北市中和區福美路249號","121.49892","25.0051583333333","6500300","中和區"
"235051","157-BY","2017/12/12 19:39:56","新北市中和區南華路59號","121.504356666667","24.9970666666667","6500300","中和區"
"235037","AAC-213","2017/12/12 19:39:27","新北市中和區秀朗路三段10巷29弄3號","121.525051666667","24.9961","6500300","中和區"
"235059","AAC-215","2017/12/12 19:39:38","新北市中和區錦和路201號","121.490946666667","24.9903433333333","6500300","中和區"
"220068","013-TV","2017/12/12 19:28:35","新北市板橋區林森街1巷35號","121.482945","25.0245083333333","6500100","板橋區"
"220065","072-UY","2017/12/12 19:39:50","新北市板橋區國泰街21號","121.46925","25.0067283333333","6500100","板橋區"
"220086","073-UY","2017/12/12 19:39:53","新北市板橋區國光路29號","121.457043333333","25.0175183333333","6500100","板橋區"
"220106","075-UY","2017/12/12 19:39:42","新北市板橋區文化路二段402號","121.473685","25.0313533333333","6500100","板橋區"
"220069","AAD-861","2017/12/12 19:39:53","新北市板橋區縣民大道一段64巷7號","121.455535","25.0037016666667","6500100","板橋區"
"220102","120-SR","2017/12/12 19:39:46","新北市板橋區雙十路二段70巷35號","121.476165","25.02881","6500100","板橋區"
"247008","341-TH","2017/12/12 19:39:38","新北市蘆洲區中山一路176號","121.474208333333","25.0811783333333","6501400","蘆洲區"
"247004","336-TH","2017/12/12 19:39:51","新北市蘆洲區長安街98巷16號","121.462845","25.0816916666667","6501400","蘆洲區"
"226004","312-R5","2017/12/12 19:39:45","新北市平溪區十分里十分街246號","121.777516666667","25.0446866666667","6502400","平溪區"
"228001","212-TW","2017/12/12 19:39:49","新北市貢寮區真理里延平街22-9號","121.924651666667","25.0559516666667","6502600","貢寮區"
"228003","828-UM","2017/12/12 19:39:43","新北市貢寮區真理里美艷山街15-3號","121.92371","25.0679783333333","6502600","貢寮區"
"224010","AGQ-8101","2017/12/12 19:39:46","新北市瑞芳區豎崎路1號","121.843473333333","25.108745","6501200","瑞芳區"
"224002","639-TC","2017/12/12 19:39:46","新北市瑞芳區民享新村1號","121.817523333333","25.1056133333333","6501200","瑞芳區"
"227003","642-TC","2017/12/12 19:39:39","新北市雙溪區雙溪里太平路60號","121.864995","25.0357583333333","6502500","雙溪區"
"227009","400-TW","2017/12/12 19:39:38","新北市雙溪區新基里新基北街22號","121.867226666667","25.0389266666667","6502500","雙溪區"
"222001","KEA-2212","2017/12/12 19:39:47","新北市深坑區北深路二段204號","121.612966666667","25.00155","6501800","深坑區"
"208002","742-BX","2017/12/12 19:39:39","新北市金山區中山路313巷1號","121.635488333333","25.2234883333333","6502700","金山區"
"208003","665-BX","2017/12/12 19:39:38","新北市金山區仁愛路1巷1號","121.6386","25.2200583333333","6502700","金山區"
"208001","761-BX","2017/12/12 19:39:50","新北市金山區重和里六股林口39號","121.602516666667","25.219395","6502700","金山區"
"251004","009-UM","2017/12/12 19:39:50","新北市淡水區中正東路二段153號","121.459946666667","25.146465","6501000","淡水區"
"251001","011-UM","2017/12/12 19:39:50","新北市淡水區民權路49號","121.459743333333","25.13924","6501000","淡水區"
"251014","180-VK","2017/12/12 19:39:37","新北市淡水區北勢子20號","121.475916666667","25.2319983333333","6501000","淡水區"
"251008","181-VK","2017/12/12 19:39:49","新北市淡水區中正路一段22巷6號","121.427786666667","25.175795","6501000","淡水區"
"251010","413-VK","2017/12/12 19:39:36","新北市淡水區崁頂三路135號","121.431423333333","25.201045","6501000","淡水區"
"251012","441-VK","2017/12/12 19:39:42","新北市淡水區中山北路三段156號","121.445608333333","25.1955283333333","6501000","淡水區"
"251016","442-VK","2017/12/12 19:39:39","新北市淡水區下圭柔山119-51號","121.450738333333","25.2083983333333","6501000","淡水區"
"251005","443-VK","2017/12/12 19:39:44","新北市淡水區原德路108巷2號","121.443398333333","25.17356","6501000","淡水區"
"251006","561-UM","2017/12/12 19:39:36","新北市淡水區中山北路一段205號","121.44431","25.1788133333333","6501000","淡水區"
"251009","575-R6","2017/12/12 19:39:35","新北市淡水區中山北路一段217號","121.444405","25.1791683333333","6501000","淡水區"
"251007","577-R6","2017/12/12 19:39:52","新北市淡水區中正東路一段111巷24號","121.455265","25.1605516666667","6501000","淡水區"
"251011","650-BX","2017/12/12 19:39:44","新北市淡水區八勢一街42巷8號","121.46127","25.1552983333333","6501000","淡水區"
"207003","550-UM","2017/12/12 19:39:50","新北市萬里區大鵬里下社1號","121.647836666667","25.21505","6502800","萬里區"
"207004","225-TW","2017/12/12 19:39:41","新北市萬里區萬里里瑪鋉路5-1號","121.686868333333","25.1752833333333","6502800","萬里區"
"252002","178-VK","2017/12/12 19:39:51","新北市三芝區三民街16號","121.504351666667","25.2585533333333","6502100","三芝區"
"252001","292-VK","2017/12/12 19:39:53","新北市三芝區公正街66號","121.4998","25.257475","6502100","三芝區"
"237004","078-UY","2017/12/12 19:39:50","新北市三峽區插角24號","121.40149","24.8734116666667","6500900","三峽區"
"237007","153-BY","2017/12/12 19:39:41","新北市三峽區二鬮路136巷2弄37號","121.35961","24.9090983333333","6500900","三峽區"
"237009","210-TH","2017/12/12 19:39:52","新北市三峽區中園街20號","121.368381666667","24.92693","6500900","三峽區"
"237013","252-BX","2017/12/12 19:39:46","新北市三峽區介壽路二段32號","121.391","24.9352483333333","6500900","三峽區"
"237012","275-BY","2017/12/12 19:39:40","新北市三峽區民生街1號","121.374631666667","24.935345","6500900","三峽區"
"237008","302-VK","2017/12/12 19:39:36","新北市三峽區大同路154號","121.373098333333","24.9269516666667","6500900","三峽區"
"237014","433-BY","2017/12/12 19:39:45","新北市三峽區嘉添227-5號","121.370408333333","24.90961","6500900","三峽區"
"237006","5529-G3","2017/12/12 19:39:54","新北市三峽區中正路一段336巷15弄2號","121.36996","24.92495","6500900","三峽區"
"237016","649-BX","2017/12/12 19:25:38","新北市三峽區安坑27-3號","121.446585","24.928545","6500900","三峽區"
"237005","AKY-6261","2017/12/12 19:39:51","新北市三峽區中山路117號","121.365603333333","24.93589","6500900","三峽區"
"236070","105-UM","2017/12/12 19:39:52","新北市土城區學府路一段129巷22號","121.454538333333","24.9859083333333","6501300","土城區"
"236043","107-UM","2017/12/12 19:39:50","新北市土城區學士路12巷2號","121.453776666667","24.9830566666667","6501300","土城區"
"236079","166-UM","2017/12/11 20:45:57","新北市土城區城林路6巷71號","121.437486666667","24.9784983333333","6501300","土城區"
"236031","253-BX","2017/12/12 19:39:53","新北市土城區福祥街58號","121.441465","24.9814566666667","6501300","土城區"
"236027","269-VK","2017/12/12 19:39:45","新北市土城區中央路二段61巷22號","121.44317","24.9787133333333","6501300","土城區"
"236038","271-VK","2017/12/12 19:39:38","新北市土城區青雲路259號","121.459156666667","24.98083","6501300","土城區"
"236023","401-BY","2017/12/12 19:39:38","新北市土城區峰廷街3號","121.469151666667","24.9873316666667","6501300","土城區"
"236059","912-UM","2017/12/12 19:39:47","新北市土城區中央路二段63號","121.442505","24.97902","6501300","土城區"
"236049","913-UM","2017/12/12 19:39:39","新北市土城區明德路一段97號","121.46557","24.9829833333333","6501300","土城區"
"236063","915-UM","2017/12/12 19:39:54","新北市土城區延平街65號","121.467845","24.992735","6501300","土城區"
"236055","AAC-216","2017/12/12 19:39:50","新北市土城區學府路一段90號","121.456348333333","24.988095","6501300","土城區"
"242032","AAC-296","2017/12/12 19:39:47","新北市新莊區新泰路209號","121.44579","25.0386966666667","6500500","新莊區"
"242027","612-BX","2017/12/12 19:39:40","新北市新莊區三和路12-21號","121.442108333333","25.038605","6500500","新莊區"
"242044","497-BY","2017/12/12 19:39:44","新北市泰山區中山路二段261號","121.434873333333","25.0468183333333","6500500","新莊區"
"242037","133-UY","2017/12/12 19:39:53","新北市新莊區民安路207巷5號","121.426768333333","25.0229616666667","6500500","新莊區"
"242009","173-VK","2017/12/12 19:39:49","新北市新莊區三和路18-23號","121.441836666667","25.038905","6500500","新莊區"
"242013","346-TH","2017/12/12 19:39:46","新北市新莊區中誠街123號","121.449393333333","25.047535","6500500","新莊區"
"242019","348-TH","2017/12/12 19:39:49","新北市新莊區新泰路351號","121.444523333333","25.0423133333333","6500500","新莊區"
"242017","350-TH","2017/12/12 19:39:54","新北市新莊區新泰路357巷3弄53號","121.442448333333","25.0398816666667","6500500","新莊區"
"242011","351-TH","2017/12/12 19:39:51","新北市新莊區中平路441號","121.444125","25.0555416666667","6500500","新莊區"
"238015","755-BX","2017/12/12 19:39:51","新北市樹林區日新街103號","121.421506666667","24.9898816666667","6500700","樹林區"
"238023","601-UM","2017/12/12 19:39:51","新北市樹林區三福街166號","121.404755","25.0159183333333","6500700","樹林區"
"238018","571-TV","2017/12/12 19:39:43","新北市樹林區八德街810號","121.394916666667","24.9687966666667","6500700","樹林區"
"238024","5061-A6","2017/12/12 19:39:54","新北市樹林區佳園路一段72巷15號","121.391751666667","24.9695883333333","6500700","樹林區"
"238021","KEA-2217","2017/12/12 19:39:39","新北市樹林區學勤路486號","121.381926666667","24.94738","6500700","樹林區"
"238022","KEA-2213","2017/12/12 19:39:45","新北市樹林區名園街51巷6弄16號","121.42093","24.9780933333333","6500700","樹林區"
"238025","303-VK","2017/12/12 19:39:47","新北市樹林區中山路二段34號","121.417405","24.9849766666667","6500700","樹林區"
"238017","283-BY","2017/12/12 19:39:43","新北市樹林區保安街二段45巷29-6號","121.413621666667","25.0002233333333","6500700","樹林區"
"238014","282-BY","2017/12/12 19:39:39","新北市樹林區千歲街28巷16號","121.426018333333","24.995505","6500700","樹林區"
"238020","268-VK","2017/12/12 19:39:41","新北市板橋區大觀路三段50巷59號","121.431816666667","24.996065","6500700","樹林區"
"239007","AAC-297","2017/12/12 19:39:55","新北市鶯歌區大湖路326巷22號","121.346218333333","24.969905","6500800","鶯歌區"
"239006","891-R6","2017/12/12 19:39:50","新北市鶯歌區文化路145巷4號","121.356696666667","24.9539816666667","6500800","鶯歌區"
"239003","360-BY","2017/12/12 19:39:47","新北市鶯歌區二甲路13號","121.344486666667","24.9351666666667","6500800","鶯歌區"
"239002","359-BY","2017/12/12 19:39:45","新北市鶯歌區文化路419號","121.355998333333","24.9500983333333","6500800","鶯歌區"
"221008","489-VK","2017/12/12 19:39:53","新北市汐止區康寧街61巷31號","121.619408333333","25.0674566666667","6501100","汐止區"
"221036","130-UY","2017/12/12 19:39:42","新北市汐止區汐萬路一段256巷1號","121.651711666667","25.0748766666667","6501100","汐止區"
"221010","269-BY","2017/12/12 19:39:51","新北市汐止區汐萬路二段23巷2號","121.649546666667","25.0811116666667","6501100","汐止區"
"221012","276-VK","2017/12/12 16:25:41","新北市汐止區汐萬路一段256巷3號","121.653453333333","25.0745916666667","6501100","汐止區"
"221012","278-VK","2017/12/12 19:39:40","新北市汐止區大同路三段533號","121.680978333333","25.0713633333333","6501100","汐止區"
"221023","279-VK","2017/12/12 19:39:46","新北市汐止區中興路248-1號","121.629653333333","25.0686866666667","6501100","汐止區"
"221032","280-BY","2017/12/12 19:39:37","新北市汐止區新台五路一段75號","121.645403333333","25.0605266666667","6501100","汐止區"
"221027","281-BY","2017/12/12 19:39:52","新北市汐止區忠孝東路9號","121.658321666667","25.0659133333333","6501100","汐止區"
"221029","298-VK","2017/12/12 19:39:53","新北市汐止區康寧街901號","121.651556666667","25.0749916666667","6501100","汐止區"
"221021","299-VK","2017/12/12 19:39:47","新北市汐止區南興路28號","121.652245","25.0613616666667","6501100","汐止區"
"221031","353-TW","2017/12/12 19:39:41","新北市汐止區康寧街901號","121.651416666667","25.075025","6501100","汐止區"
"221015","567-BX","2017/12/12 19:39:50","新北市汐止區康寧街901號","121.651728333333","25.0749766666667","6501100","汐止區"
"221025","623-UM","2017/12/12 19:39:44","新北市汐止區秀峰路81巷15弄47號","121.661743333333","25.064905","6501100","汐止區"
"221038","646-BX","2017/12/12 19:39:42","新北市汐止區忠孝東路225號","121.662331666667","25.0669683333333","6501100","汐止區"
"221033","647-BX","2017/12/12 19:39:42","新北市汐止區南勢街1巷1號","121.627038333333","25.0374216666667","6501100","汐止區"
"221002","707-TV","2017/12/12 19:39:53","新北市汐止區大同路一段219巷27號","121.633296666667","25.05839","6501100","汐止區"
"221018","753-BX","2017/12/12 19:39:39","新北市汐止區康寧街901號","121.65131","25.07501","6501100","汐止區"
"220079","145-BY","2017/12/12 19:39:55","新北市板橋區建國街86-3號","121.459575","25.0172966666667","6500100","板橋區"
"220080","200-UY","2017/12/12 19:39:52","新北市板橋區大觀路二段37巷280號","121.449753333333","25.0009533333333","6500100","板橋區"
"220082","610-BX","2017/12/12 19:39:53","新北市板橋區存德街2號","121.429408333333","24.9921316666667","6500100","板橋區"
"220101","245-BX","2017/12/12 19:39:39","新北市板橋區莊敬路231號","121.472566666667","25.0214566666667","6500100","板橋區"
"220056","276-BY","2017/12/12 19:39:45","新北市板橋區四川路二段47巷6弄2號","121.45418","24.99451","6500100","板橋區"
"220072","277-BY","2017/12/12 19:39:39","新北市板橋區金門街215巷2弄1號","121.432521666667","24.9889583333333","6500100","板橋區"
"220071","283-VK","2017/12/12 19:39:44","新北市板橋區信義路112號","121.458291666667","24.992595","6500100","板橋區"
"220094","285-UM","2017/12/12 19:39:50","新北市板橋區宏國路96號","121.470041666667","25.0319466666667","6500100","板橋區"
"220053","285-VK","2017/12/12 19:39:48","新北市板橋區民享街89號","121.476945","25.015875","6500100","板橋區"
"220083","286-VK","2017/12/12 19:39:45","新北市板橋區龍興街71巷13號","121.443171666667","25.0020066666667","6500100","板橋區"
"220081","287-VK","2017/12/12 19:39:49","新北市板橋區大觀路一段75巷3號","121.447391666667","25.0044816666667","6500100","板橋區"
"220090","288-VK","2017/12/12 19:39:48","新北市板橋區新海路431巷7號","121.457946666667","25.0271366666667","6500100","板橋區"
"220061","293-UM","2017/12/12 19:39:37","新北市板橋區中山路一段265巷36弄2號","121.46917","25.0151016666667","6500100","板橋區"
"220084","296-UM","2017/12/12 19:39:52","新北市板橋區滿平二街2巷1弄30號","121.424835","24.9872266666667","6500100","板橋區"
"220075","297-UM","2017/12/12 19:39:53","新北市板橋區大勇街10號","121.455251666667","25.01756","6500100","板橋區"
"220062","305-R5","2017/12/12 19:39:22","新北市板橋區三民路二段83號","121.479506666667","25.0166533333333","6500100","板橋區"
"220092","307-R5","2017/12/12 19:39:55","新北市板橋區文化路一段387巷15號","121.46627","25.022075","6500100","板橋區"
"220098","317-R6","2017/12/12 19:39:52","新北市板橋區四維路279巷64號","121.460493333333","25.0275166666667","6500100","板橋區"
"220064","486-VK","2017/12/12 19:39:53","新北市板橋區中山路一段137號","121.462565","25.0108733333333","6500100","板橋區"
"220089","487-VK","2017/12/12 19:39:55","新北市板橋區英士路76號","121.460121666667","25.0242116666667","6500100","板橋區"
"220088","491-VK","2017/12/12 19:39:57","新北市板橋區民治街5號","121.477301666667","25.0344666666667","6500100","板橋區"
"220035","560-BX","2017/12/12 19:39:44","新北市板橋區新生街96號","121.458346666667","25.022105","6500100","板橋區"
"220103","561-BX","2017/12/12 19:39:43","新北市板橋區文化路一段286巷6號","121.467805","25.0213716666667","6500100","板橋區"
"220091","637-BX","2017/12/12 19:39:37","新北市板橋區懷德街191巷23號","121.480535","25.0299033333333","6500100","板橋區"
"220057","686-BX","2017/12/12 19:39:51","新北市板橋區和平路101巷1號","121.46237","24.9948233333333","6500100","板橋區"
"220077","687-BX","2017/12/12 19:39:57","新北市板橋區僑中一街110號","121.446341666667","25.0116866666667","6500100","板橋區"
"220093","689-BX","2017/12/12 19:39:41","新北市板橋區長江路一段5號","121.457848333333","25.0287133333333","6500100","板橋區"
"220054","741-BX","2017/12/12 19:39:38","新北市板橋區忠孝路239巷45號","121.467511666667","25.0036966666667","6500100","板橋區"
"220055","827-TW","2017/12/12 19:39:52","新北市板橋區國慶路149巷21弄8號","121.460545","24.9973583333333","6500100","板橋區"
"220067","829-TW","2017/12/12 19:39:51","新北市板橋區長安街251巷28-3號","121.472143333333","25.0110316666667","6500100","板橋區"
"220096","831-TW","2017/12/12 19:39:50","新北市板橋區民生路二段234巷63號","121.469928333333","25.0225433333333","6500100","板橋區"
"220063","833-TW","2017/12/12 19:39:47","新北市板橋區林森街3巷1弄6號","121.482555","25.0236383333333","6500100","板橋區"
"220074","895-R6","2017/12/12 19:39:51","新北市板橋區福德街2巷2號","121.456111666667","25.0092","6500100","板橋區"
"220073","985-R7","2017/12/12 19:39:41","新北市板橋區國光路31巷32號","121.457741666667","25.01835","6500100","板橋區"
"220097","AAC-210","2017/12/12 19:39:55","新北市板橋區漢生西路89巷2弄26號","121.461678333333","25.0198883333333","6500100","板橋區"
"220070","AAC-253","2017/12/12 19:39:55","新北市板橋區民族路308號","121.470711666667","25.006665","6500100","板橋區"
