"lineid","car","time","location","longitude","latitude","cityid","cityname"
"234046","148-BY","2017/12/12 19:59:57","新北市永和區成功路一段8號","121.527016666667","25.0054316666667","6500400","永和區"
"234013","149-BY","2017/12/12 19:59:37","新北市永和區保生路55號","121.504733333333","25.0105866666667","6500400","永和區"
"234007","207-UY","2017/12/12 19:59:50","新北市永和區保生路22巷21號","121.507256666667","25.0083033333333","6500400","永和區"
"234081","298-R6","2017/12/12 19:59:55","新北市永和區林森路112巷12弄34號","121.52276","25.0046366666667","6500400","永和區"
"234038","336-UY","2017/12/12 19:59:45","新北市永和區成功路二段133號","121.526645","24.998085","6500400","永和區"
"234064","337-UY","2017/12/12 19:59:55","新北市永和區中正路412巷2弄11號","121.518505","25.001885","6500400","永和區"
"234086","338-UY","2017/12/12 19:59:50","新北市永和區福和路283號","121.517405","25.0072666666667","6500400","永和區"
"234070","552-UM","2017/12/12 19:59:54","新北市永和區國光路16號","121.518968333333","25.0083216666667","6500400","永和區"
"234054","553-UM","2017/12/12 19:59:50","新北市永和區竹林路39巷48號","121.52028","25.0153216666667","6500400","永和區"
"234017","745-BX","2017/12/12 19:59:44","新北市永和區文化路75號","121.513771666667","25.01511","6500400","永和區"
"234030","746-BX","2017/12/12 19:59:38","新北市永和區民生路22巷33號","121.520751666667","24.99689","6500400","永和區"
"234061","AAD-866","2017/12/12 19:59:55","新北市永和區中正路283巷7號","121.51705","25.0006783333333","6500400","永和區"
"234042","862-TW","2017/12/12 19:59:54","新北市永和區雙和街17巷2號","121.509385","25.0019316666667","6500400","永和區"
"234050","863-TW","2017/12/12 19:59:40","新北市永和區保安路250號","121.506348333333","25.01255","6500400","永和區"
"234026","9371-KE","2017/12/12 19:59:36","新北市中和區中和路402-3號","121.511325","25.00287","6500400","永和區"
"234011","9373-KE","2017/12/12 19:59:40","新北市永和區仁愛路352巷112弄17號","121.501098333333","25.0086516666667","6500400","永和區"
"249005","172-UM","2017/12/12 19:59:58","新北市八里區楓林路1-11號","121.385371666667","25.1311983333333","6502300","八里區"
"249001","173-UM","2017/12/12 19:59:40","新北市八里區中華路二段249-2號","121.404188333333","25.1484083333333","6502300","八里區"
"249004","303-UY","2017/12/12 19:59:43","新北市八里區中華路一段333-1號","121.41349","25.1536283333333","6502300","八里區"
"249002","305-UY","2017/12/12 19:59:55","新北市八里區頂寮一街1號","121.452191666667","25.124","6502300","八里區"
"249003","759-BX","2017/12/12 19:59:50","新北市八里區中華路二段560巷3號","121.398598333333","25.1450366666667","6502300","八里區"
"248014","025-BX","2017/12/12 19:59:49","新北市五股區五福路11-6號","121.43421","25.0887","6501500","五股區"
"248016","026-BX","2017/12/12 19:59:44","新北市五股區成泰路三段577巷80弄25號","121.449558333333","25.104585","6501500","五股區"
"248008","095-VK","2017/12/12 19:59:53","新北市五股區四維路30巷15號","121.468141666667","25.0715433333333","6501500","五股區"
"248020","225-UY","2017/12/12 19:59:35","新北市五股區凌雲路三段46號","121.430735","25.1086816666667","6501500","五股區"
"248012","247-BX","2017/12/12 19:59:52","新北市五股區民義路一段112-7號","121.435181666667","25.08532","6501500","五股區"
"248010","272-BY","2017/12/12 19:59:44","新北市五股區登林路100-1號","121.428048333333","25.0701483333333","6501500","五股區"
"248004","677-BX","2017/12/12 19:59:45","新北市五股區成泰路一段8巷2-3號","121.434928333333","25.0668933333333","6501500","五股區"
"248002","678-BX","2017/12/12 19:59:40","新北市五股區成泰路三段487號","121.450785","25.0993133333333","6501500","五股區"
"234023","9380-KE","2017/12/12 19:59:44","新北市永和區中正路702巷18號","121.516461666667","25.0105116666667","6500400","永和區"
"234077","969-R7","2017/12/12 19:59:48","新北市永和區智光街94號","121.516173333333","24.99693","6500400","永和區"
"234074","AAC-211","2017/12/12 19:59:43","新北市永和區豫溪街191巷5號","121.523676666667","25.0104433333333","6500400","永和區"
"234067","AAC-212","2017/12/12 19:59:47","新北市永和區中山路一段226號","121.508118333333","25.0081383333333","6500400","永和區"
"234003","AAC-295","2017/12/12 19:59:46","新北市永和區中正路708號","121.516046666667","25.0099883333333","6500400","永和區"
"243012","AAD-798","2017/12/12 19:59:47","新北市泰山區福興三街28號","121.43406","25.0575716666667","6501600","泰山區"
"243011","297-R6","2017/12/12 19:59:48","新北市泰山區明志路三段523號","121.4207","25.03035","6501600","泰山區"
"243015","380-SR","2017/12/12 19:59:52","新北市泰山區明志路二段100號","121.428213333333","25.0518716666667","6501600","泰山區"
"243014","421-VK","2017/12/12 19:59:40","新北市泰山區泰林路二段138號","121.434258333333","25.059725","6501600","泰山區"
"243010","KEA-2215","2017/12/12 19:59:45","新北市泰山區中華街10巷1號","121.427866666667","25.052485","6501600","泰山區"
"243009","KEA-2216","2017/12/12 19:59:43","新北市泰山區泰林路二段142巷13弄7號","121.434665","25.06062","6501600","泰山區"
"243016","680-BX","2017/12/12 19:59:26","新北市泰山區貴鳳街1號","121.421518333333","25.031615","6501600","泰山區"
"222003","436-BY","2017/12/12 19:59:35","新北市深坑區埔新街14號","121.620748333333","25.0039433333333","6501800","深坑區"
"222002","659-BX","2017/12/12 19:59:48","新北市深坑區北深路二段81巷27號","121.618635","25.0023166666667","6501800","深坑區"
"231041","001-UM","2017/12/12 19:59:44","新北市新店區中正路352號","121.535918333333","24.9754916666667","6500600","新店區"
"231059","046-UY","2017/12/12 19:59:39","新北市新店區安康路二段147號","121.511221666667","24.9598666666667","6500600","新店區"
"231061","047-UY","2017/12/12 19:59:54","新北市新店區安民街320號","121.517605","24.974355","6500600","新店區"
"231060","106-UY","2017/12/12 19:59:41","新北市新店區安康路二段434號","121.495915","24.954955","6500600","新店區"
"231051","107-UY","2017/12/12 19:59:47","新北市新店區中央五街16號","121.529506666667","24.9743066666667","6500600","新店區"
"231048","108-UY","2017/12/12 19:59:42","新北市新店區寶橋路215號","121.54875","24.9772","6500600","新店區"
"231053","187-VK","2017/12/12 19:59:49","新北市新店區新烏路三段290巷1號","121.54898","24.897755","6500600","新店區"
"231050","KEA-2219","2017/12/12 19:59:40","新北市新店區北宜路二段5號","121.547688333333","24.9519433333333","6500600","新店區"
"231057","256-BX","2017/12/12 19:59:46","新北市新店區花園二路一段11號","121.555486666667","24.93251","6500600","新店區"
"231054","AAD-862","2017/12/12 19:59:53","新北市新店區光明街140號","121.539321666667","24.96137","6500600","新店區"
"231058","3712-VJ","2017/12/12 19:59:47","新北市新店區安康路二段414巷2號","121.495765","24.9577633333333","6500600","新店區"
"231056","3713-VJ","2017/12/12 19:59:41","新北市新店區民權路42巷52號","121.538475","24.98395","6500600","新店區"
"231055","4716-K9","2017/12/12 19:59:44","新北市新店區中華路83巷67號","121.538346666667","24.9672683333333","6500600","新店區"
"231067","4772-VM","2017/12/12 19:59:39","新北市新店區秀山路11巷12弄15號","121.531446666667","24.9595366666667","6500600","新店區"
"231065","512-UM","2017/12/12 19:59:47","新北市新店區安祥路106-6號","121.477761666667","24.961555","6500600","新店區"
"231064","515-UM","2017/12/12 19:59:37","新北市新店區光華街20號","121.517123333333","24.9692516666667","6500600","新店區"
"231042","616-UM","2017/12/12 19:59:37","新北市新店區中興路二段100巷1號","121.547475","24.9716","6500600","新店區"
"231045","617-UM","2017/12/12 19:59:48","新北市新店區北宜路二段82-11號","121.554565","24.953495","6500600","新店區"
"231040","619-UM","2017/12/12 19:59:41","新北市新店區中正路100號","121.543316666667","24.9704533333333","6500600","新店區"
"231063","645-TV","2017/12/12 19:59:49","新北市新店區黎明路61巷1號","121.502501666667","24.9470433333333","6500600","新店區"
"231068","718-UY","2017/12/12 19:59:40","新北市新店區安華路28-1號","121.519255","24.9610233333333","6500600","新店區"
"231049","719-UM","2017/12/12 19:59:43","新北市新店區明德路38號","121.541463333333","24.977885","6500600","新店區"
"231062","720-UM","2017/12/12 19:59:52","新北市新店區秀山路66號","121.530651666667","24.96084","6500600","新店區"
"231044","897-TW","2017/12/12 19:59:40","新北市新店區中正路602號","121.53401","24.988095","6500600","新店區"
"231043","899-TW","2017/12/12 19:59:40","新北市新店區中正路263-3號","121.538326666667","24.97377","6500600","新店區"
"231066","AKT-0513","2017/12/12 19:59:52","新北市新店區柴埕路52巷3號","121.511835","24.9644866666667","6500600","新店區"
"241011","013-R5","2017/12/12 19:59:56","新北市三重區三和路三段18號","121.496778333333","25.0703766666667","6500200","三重區"
"241008","059-VK","2017/12/12 19:59:45","新北市三重區永福街179巷28號","121.478018333333","25.0747566666667","6500200","三重區"
"241009","060-VK","2017/12/12 19:59:49","新北市三重區三和路四段388-2號","121.481908333333","25.0791116666667","6500200","三重區"
"241015","062-VK","2017/12/12 19:59:42","新北市三重區三和路二段23號","121.501138333333","25.06699","6500200","三重區"
"241017","063-VK","2017/12/12 19:59:39","新北市三重區自強路一段179號","121.492495","25.067655","6500200","三重區"
"241026","066-VK","2017/12/12 19:59:49","新北市三重區仁慈街32號","121.502341666667","25.06322","6500200","三重區"
"241003","091-VK","2017/12/12 19:59:49","新北市三重區仁愛街445巷9號","121.490326666667","25.08255","6500200","三重區"
"241019","156-TC","2017/12/12 19:59:40","新北市三重區自強路二段9號","121.490113333333","25.068955","6500200","三重區"
"241024","265-UM","2017/12/12 19:59:38","新北市三重區力行路一段176號","121.482075","25.07147","6500200","三重區"
"241016","266-UM","2017/12/12 19:59:49","新北市三重區正義北路36巷16號","121.49653","25.06336","6500200","三重區"
"241022","267-UM","2017/12/12 19:59:46","新北市三重區過圳街31巷2號","121.489248333333","25.060565","6500200","三重區"
"241018","268-UM","2017/12/12 19:59:34","新北市三重區自強路一段236號","121.493281666667","25.067085","6500200","三重區"
"241032","269-UM","2017/12/12 19:59:50","新北市三重區朝陽街46號","121.483333333333","25.0570316666667","6500200","三重區"
"241013","270-UM","2017/12/12 19:59:49","新北市三重區三和路三段125巷20號","121.493443333333","25.0736366666667","6500200","三重區"
"241025","271-UM","2017/12/12 19:59:48","新北市三重區頂崁街210巷33號","121.475535","25.0681266666667","6500200","三重區"
"241007","398-BY","2017/12/12 19:59:55","新北市三重區溪尾街100號","121.489651666667","25.078755","6500200","三重區"
"241031","KEA-2210","2017/12/12 19:59:42","新北市三重區重新路四段184巷16號","121.487063333333","25.05501","6500200","三重區"
"241020","413-TH","2017/12/12 19:59:36","新北市三重區大智街179巷13號","121.490365","25.0727316666667","6500200","三重區"
"241004","475-VK","2017/12/12 19:59:43","新北市三重區仁愛街425巷94號","121.49228","25.08273","6500200","三重區"
"241030","480-VK","2017/12/12 19:59:42","新北市三重區重新路四段248-1號","121.486236666667","25.0533916666667","6500200","三重區"
"241014","543-UM","2017/12/12 19:59:43","新北市三重區介壽路1號","121.499025","25.0688433333333","6500200","三重區"
"241023","545-UM","2017/12/12 19:59:47","新北市三重區大有街1-1號","121.477705","25.0656116666667","6500200","三重區"
"241001","547-UM","2017/12/12 19:59:53","新北市三重區仁愛街269巷6-1號","121.493245","25.0789616666667","6500200","三重區"
"241006","AAD-863","2017/12/12 19:59:46","新北市三重區力行路二段90號","121.482025","25.07449","6500200","三重區"
"241035","743-BX","2017/12/12 19:59:51","新北市三重區大榮街7號","121.498205","25.0630466666667","6500200","三重區"
"241028","887-TS","2017/12/12 19:59:49","新北市三重區中正南路41巷1號","121.493871666667","25.05987","6500200","三重區"
"241012","941-UM","2017/12/12 19:59:51","新北市三重區仁厚街92號","121.501001666667","25.0769116666667","6500200","三重區"
"241029","942-UM","2017/12/12 19:59:37","新北市三重區重新路三段204號","121.49009","25.0584666666667","6500200","三重區"
"241033","AAC-255","2017/12/12 19:59:45","新北市三重區中興北街73號","121.469558333333","25.04765","6500200","三重區"
"235066","003-UY","2017/12/12 19:59:44","新北市中和區中山路二段9號","121.505253333333","25.0056816666667","6500300","中和區"
"235063","006-UY","2017/12/12 19:59:41","新北市中和區連城路263巷7弄2號","121.492288333333","24.9957233333333","6500300","中和區"
"235046","031-BX","2017/12/12 19:59:51","新北市中和區興南路一段93巷73號","121.510415","24.9866283333333","6500300","中和區"
"235056","096-UM","2017/12/12 19:59:53","新北市中和區中山路三段136巷7號","121.473416666667","25.0071683333333","6500300","中和區"
"235039","097-UM","2017/12/12 19:59:44","新北市中和區景平路172號","121.517","24.9926933333333","6500300","中和區"
"235040","150-BY","2017/12/12 19:59:44","新北市中和區保健路10巷21弄2號","121.507786666667","24.996785","6500300","中和區"
"235058","151-BY","2017/12/12 19:59:04","新北市中和區員山路150巷2弄24號","121.481491666667","24.997565","6500300","中和區"
"235055","183-VK","2017/12/12 19:59:40","新北市中和區民生街35巷2弄2號","121.470311666667","25.0051916666667","6500300","中和區"
"235049","186-VK","2017/12/12 19:59:42","新北市中和區中興街41號","121.50085","24.9942466666667","6500300","中和區"
"235067","255-BX","2017/12/12 19:59:35","新北市中和區新生街233巷2號","121.484088333333","24.9990833333333","6500300","中和區"
"235044","293-VK","2017/12/12 19:59:42","新北市中和區板南路162號","121.501661666667","24.9927716666667","6500300","中和區"
"235043","352-BY","2017/12/12 19:59:51","新北市中和區興南路二段159巷12號","121.505218333333","24.9831316666667","6500300","中和區"
"235068","377-QA","2017/12/12 19:59:32","新北市中和區景平路736巷3弄5號","121.49737","25.0037516666667","6500300","中和區"
"235061","378-QA","2017/12/12 19:59:53","新北市中和區員山路174巷20號","121.481988333333","24.9996783333333","6500300","中和區"
"235050","4979-A6","2017/12/12 19:59:53","新北市中和區景平路239巷3號","121.509963333333","24.9927383333333","6500300","中和區"
"235069","4980-A6","2017/12/12 19:59:49","新北市中和區景新街96巷6號","121.504638333333","24.9983016666667","6500300","中和區"
"235070","558-UM","2017/12/12 19:59:39","新北市中和區圓通路107號","121.499503333333","24.9966333333333","6500300","中和區"
"235054","640-BX","2017/12/12 19:59:56","新北市中和區莒光路149號","121.472651666667","25.0011083333333","6500300","中和區"
"235060","647-TV","2017/12/12 19:59:43","新北市中和區新生街114巷2號","121.4833","25.00247","6500300","中和區"
"235047","732-UM","2017/12/12 19:59:37","新北市中和區和平街74號","121.507798333333","24.9911816666667","6500300","中和區"
"235041","802-TS","2017/12/12 19:59:49","新北市中和區安平路17號","121.509185","24.9941583333333","6500300","中和區"
"235052","805-TS","2017/12/12 19:59:41","新北市中和區華新街192巷22弄17號","121.506776666667","24.9833116666667","6500300","中和區"
"235048","896-TW","2017/12/12 19:59:53","新北市中和區景新街426號","121.513026666667","24.988755","6500300","中和區"
"235053","900-TW","2017/12/12 19:59:44","新北市中和區民德路258號","121.46798","24.99711","6500300","中和區"
"235065","911-UM","2017/12/12 19:59:47","新北市中和區福祥路90巷7弄11號","121.499438333333","25.0063133333333","6500300","中和區"
"235051","157-BY","2017/12/12 19:59:36","新北市中和區復興路346號","121.500151666667","24.9903533333333","6500300","中和區"
"235037","AAC-213","2017/12/12 19:59:47","新北市中和區自立路153號","121.522638333333","24.9928683333333","6500300","中和區"
"235059","AAC-215","2017/12/12 19:59:38","新北市中和區圓通路353號","121.491488333333","24.99017","6500300","中和區"
"220068","013-TV","2017/12/12 19:43:33","新北市板橋區中山路二段531巷43號","121.482266666667","25.0230483333333","6500100","板橋區"
"220065","072-UY","2017/12/12 19:59:50","新北市板橋區民族路69巷14號","121.465743333333","25.0095433333333","6500100","板橋區"
"220106","075-UY","2017/12/12 19:59:42","新北市板橋區民治街96巷22號","121.478588333333","25.0321933333333","6500100","板橋區"
"220069","AAD-861","2017/12/12 19:59:53","新北市板橋區大明街18-8號","121.458825","25.00261","6500100","板橋區"
"220102","120-SR","2017/12/12 19:59:45","新北市板橋區仁化街42巷13號","121.475566666667","25.0310283333333","6500100","板橋區"
"247020","500-BY","2017/12/12 19:59:55","新北市蘆洲區民義街70號","121.473146666667","25.08996","6501400","蘆洲區"
"247008","341-TH","2017/12/12 19:59:38","新北市蘆洲區信義路73巷9-1號","121.476086666667","25.0803866666667","6501400","蘆洲區"
"247010","339-TH","2017/12/12 19:59:43","新北市蘆洲區集賢路217號","121.482786666667","25.086685","6501400","蘆洲區"
"247002","337-TH","2017/12/12 19:59:52","新北市蘆洲區長安街270號","121.457525","25.0869233333333","6501400","蘆洲區"
"247004","336-TH","2017/12/12 19:59:51","新北市蘆洲區永康街59號","121.456558333333","25.0852666666667","6501400","蘆洲區"
"247016","057-VK","2017/12/12 19:59:52","新北市蘆洲區正和街16巷18號","121.469563333333","25.083105","6501400","蘆洲區"
"247006","056-VK","2017/12/12 19:59:43","新北市蘆洲區九芎街101號","121.465935","25.0795916666667","6501400","蘆洲區"
"247014","007-UY","2017/12/12 19:59:44","新北市蘆洲區中山二路218號","121.469956666667","25.079855","6501400","蘆洲區"
"247024","002-UY","2017/12/12 19:59:46","新北市蘆洲區光明路112巷29弄13號","121.464158333333","25.08767","6501400","蘆洲區"
"226004","312-R5","2017/12/12 19:59:45","新北市平溪區石底里公園街18-3號","121.733265","25.02588","6502400","平溪區"
"228003","828-UM","2017/12/12 19:59:43","新北市貢寮區仁理村仁和路76號","121.922695","25.0501866666667","6502600","貢寮區"
"227003","642-TC","2017/12/12 19:59:39","新北市雙溪區雙溪里長安街16號","121.864981666667","25.0346633333333","6502500","雙溪區"
"227009","400-TW","2017/12/12 19:59:38","新北市雙溪區新基里新基南街25號","121.86628","25.0381333333333","6502500","雙溪區"
"222001","KEA-2212","2017/12/12 19:59:47","新北市深坑區北深路三段165-1號","121.602155","25.0034466666667","6501800","深坑區"
"208002","742-BX","2017/12/12 19:59:39","新北市金山區龜子山路33號","121.639338333333","25.2172383333333","6502700","金山區"
"208003","665-BX","2017/12/12 19:59:38","新北市金山區永興里跳石4號","121.63385","25.254585","6502700","金山區"
"208001","761-BX","2017/12/12 19:59:50","新北市金山區南勢41號","121.629071666667","25.219815","6502700","金山區"
"251004","009-UM","2017/12/12 19:59:50","新北市淡水區民權路173巷15號","121.460725","25.1355866666667","6501000","淡水區"
"251001","011-UM","2017/12/12 19:59:58","新北市淡水區北投子14-3號","121.44927","25.183185","6501000","淡水區"
"251014","180-VK","2017/12/12 19:59:47","新北市淡水區石頭厝2號","121.458318333333","25.2356166666667","6501000","淡水區"
"251008","181-VK","2017/12/12 19:59:49","新北市淡水區淡海路72巷2號","121.423285","25.180955","6501000","淡水區"
"251010","413-VK","2017/12/12 19:59:35","新北市淡水區崁頂里77號","121.430418333333","25.2030833333333","6501000","淡水區"
"251012","441-VK","2017/12/12 19:59:42","新北市淡水區下圭柔山114-4號","121.446198333333","25.20838","6501000","淡水區"
"251016","442-VK","2017/12/12 19:59:39","新北市淡水區番子田16-13號","121.453758333333","25.2317033333333","6501000","淡水區"
"251005","443-VK","2017/12/12 19:59:44","新北市淡水區學府路136巷43號","121.452095","25.1726583333333","6501000","淡水區"
"251006","561-UM","2017/12/12 19:59:56","新北市淡水區北新路8號","121.444443333333","25.1773883333333","6501000","淡水區"
"251009","575-R6","2017/12/12 19:59:54","新北市淡水區英專路28巷2弄11號","121.445936666667","25.169495","6501000","淡水區"
"251011","650-BX","2017/12/12 19:59:44","新北市淡水區崁頂55-3號","121.442268333333","25.1966933333333","6501000","淡水區"
"207003","550-UM","2017/12/12 19:59:50","新北市萬里區磺潭里公館崙5號","121.641903333333","25.2142366666667","6502800","萬里區"
"207004","225-TW","2017/12/12 19:59:41","新北市萬里區北基里忠二街35號","121.685671666667","25.17576","6502800","萬里區"
"252002","178-VK","2017/12/12 19:59:51","新北市三芝區三民街39巷36號","121.505408333333","25.2575866666667","6502100","三芝區"
"252001","292-VK","2017/12/12 19:59:53","新北市三芝區公正街66號","121.49979","25.2574533333333","6502100","三芝區"
"237004","078-UY","2017/12/12 19:59:50","新北市三峽區嘉添179號","121.36944","24.9115033333333","6500900","三峽區"
"237007","153-BY","2017/12/12 19:59:41","新北市三峽區二鬮路136巷20弄1號","121.3562","24.909955","6500900","三峽區"
"237012","275-BY","2017/12/12 19:59:40","新北市三峽區中華路3巷6-1號","121.374995","24.9311433333333","6500900","三峽區"
"237008","302-VK","2017/12/12 19:59:56","新北市三峽區中正路一段174巷16號","121.371856666667","24.9289383333333","6500900","三峽區"
"237014","433-BY","2017/12/12 19:59:45","新北市三峽區中正路一段32號","121.375838333333","24.930735","6500900","三峽區"
"237006","5529-G3","2017/12/12 19:59:54","新北市三峽區中正路二段168號","121.366093333333","24.9156416666667","6500900","三峽區"
"237016","649-BX","2017/12/12 19:25:38","新北市三峽區安坑27-3號","121.446585","24.928545","6500900","三峽區"
"237005","AKY-6261","2017/12/12 19:59:51","新北市三峽區三樹路44巷20號","121.378513333333","24.9375383333333","6500900","三峽區"
"236070","105-UM","2017/12/12 19:59:52","新北市土城區水源街32巷14號","121.441243333333","24.9758816666667","6501300","土城區"
"236043","107-UM","2017/12/12 19:59:50","新北市土城區學府路一段141號","121.45375","24.9861","6501300","土城區"
"236079","166-UM","2017/12/11 20:45:57","新北市土城區城林路6巷71號","121.437486666667","24.9784983333333","6501300","土城區"
"236031","253-BX","2017/12/12 19:59:53","新北市土城區中央路一段283號","121.444483333333","24.98461","6501300","土城區"
"236027","269-VK","2017/12/12 19:59:45","新北市土城區中央路二段98號","121.442193333333","24.9784783333333","6501300","土城區"
"236015","270-VK","2017/12/12 19:59:52","新北市土城區廣福街128號","121.456335","24.9928333333333","6501300","土城區"
"236038","271-VK","2017/12/12 19:59:47","新北市土城區國際路52號","121.466355","24.9787416666667","6501300","土城區"
"236023","401-BY","2017/12/12 19:59:58","新北市土城區延吉街137巷10號","121.470901666667","24.985625","6501300","土城區"
"236059","912-UM","2017/12/12 19:59:47","新北市土城區中央路一段223號","121.445721666667","24.986485","6501300","土城區"
"236049","913-UM","2017/12/12 19:59:53","新北市土城區金城路三段260號","121.473885","24.99072","6501300","土城區"
"236063","915-UM","2017/12/12 19:59:54","新北市土城區金城路三段73巷9弄1號","121.4663","24.9876466666667","6501300","土城區"
"236055","AAC-216","2017/12/12 19:59:41","新北市土城區學府路一段64號","121.457121666667","24.9883166666667","6501300","土城區"
"242032","AAC-296","2017/12/12 19:59:47","新北市新莊區公園一路40號","121.443418333333","25.0355983333333","6500500","新莊區"
"242029","986-R7","2017/12/12 19:59:43","新北市新莊區中平路377巷1-5號","121.44447","25.0523716666667","6500500","新莊區"
"242051","751-BX","2017/12/12 19:59:48","新北市新莊區西盛街188號","121.428158333333","25.0185083333333","6500500","新莊區"
"242023","613-BX","2017/12/12 19:59:38","新北市新莊區化成路406號","121.465971666667","25.050665","6500500","新莊區"
"242027","612-BX","2017/12/12 19:59:40","新北市新莊區立信三街77號","121.444033333333","25.0512283333333","6500500","新莊區"
"242044","497-BY","2017/12/12 19:59:44","新北市新莊區中正路742巷3弄16號","121.412823333333","25.0232316666667","6500500","新莊區"
"242048","441-UM","2017/12/12 19:59:41","新北市新莊區四維路3號","121.423916666667","25.025125","6500500","新莊區"
"242034","415-TV","2017/12/12 19:59:55","新北市新莊區建中街84號","121.447205","25.0366983333333","6500500","新莊區"
"242042","400-BY","2017/12/12 19:59:58","新北市新莊區青山路一段195號","121.398268333333","25.03137","6500500","新莊區"
"242061","362-BY","2017/12/12 19:59:52","新北市新莊區瓊泰路7號","121.444796666667","25.02856","6500500","新莊區"
"242058","353-BY","2017/12/12 19:59:38","新北市新莊區八德街115號","121.424073333333","25.0208033333333","6500500","新莊區"
"242037","133-UY","2017/12/12 19:59:52","新北市新莊區建安街23號","121.428926666667","25.02601","6500500","新莊區"
"242021","135-UY","2017/12/12 19:59:44","新北市新莊區建中街32巷15號","121.448763333333","25.03807","6500500","新莊區"
"242009","173-VK","2017/12/12 19:59:50","新北市新莊區幸福路620號","121.451325","25.0494","6500500","新莊區"
"242015","175-VK","2017/12/12 19:59:53","新北市新莊區復興路一段31號","121.44642","25.0420183333333","6500500","新莊區"
"242002","176-VK","2017/12/12 19:59:53","新北市新莊區中正路219號","121.450913333333","25.0358116666667","6500500","新莊區"
"242013","346-TH","2017/12/12 19:59:46","新北市新莊區幸福路670巷17號","121.45093","25.0503316666667","6500500","新莊區"
"242007","347-TH","2017/12/12 19:59:44","新北市新莊區思源路593巷11號","121.458856666667","25.059525","6500500","新莊區"
"242019","348-TH","2017/12/12 19:59:49","新北市新莊區民生街28號","121.456338333333","25.04222","6500500","新莊區"
"242056","349-TH","2017/12/12 19:59:50","新北市新莊區中正路347巷28號","121.447158333333","25.0341016666667","6500500","新莊區"
"242017","350-TH","2017/12/12 19:59:34","新北市新莊區中安街5巷3號","121.452678333333","25.0456716666667","6500500","新莊區"
"242011","351-TH","2017/12/12 19:59:51","新北市新莊區中港路531巷116號","121.449955","25.0517483333333","6500500","新莊區"
"238015","755-BX","2017/12/12 19:59:55","新北市樹林區中山路三段210-2號","121.38196","24.9657666666667","6500700","樹林區"
"238021","KEA-2217","2017/12/12 19:59:48","新北市樹林區佳園路三段113巷17號","121.387571666667","24.9502266666667","6500700","樹林區"
"239003","360-BY","2017/12/12 19:59:47","新北市鶯歌區二甲路13-16號","121.344565","24.9352433333333","6500800","鶯歌區"
"239002","359-BY","2017/12/12 19:46:45","新北市鶯歌區環河路177-3號","121.346243333333","24.9352","6500800","鶯歌區"
"221008","489-VK","2017/12/12 19:59:53","新北市汐止區忠一街9巷7號","121.620543333333","25.0732066666667","6501100","汐止區"
"221036","130-UY","2017/12/12 19:59:58","新北市汐止區新台五路二段85巷18號","121.664246666667","25.06741","6501100","汐止區"
"221010","269-BY","2017/12/12 19:59:51","新北市汐止區連峰街227號","121.644983333333","25.0813333333333","6501100","汐止區"
"221012","276-VK","2017/12/12 16:25:41","新北市汐止區汐萬路一段256巷3號","121.653453333333","25.0745916666667","6501100","汐止區"
"221012","278-VK","2017/12/12 19:59:39","新北市汐止區大同路三段284號","121.67795","25.071245","6501100","汐止區"
"221023","279-VK","2017/12/12 19:59:45","新北市汐止區明峰街206號","121.627603333333","25.0693","6501100","汐止區"
"221032","280-BY","2017/12/12 19:59:37","新北市汐止區橫科路18巷15號","121.617748333333","25.0501716666667","6501100","汐止區"
"221027","281-BY","2017/12/12 19:59:52","新北市汐止區中正路60號","121.661793333333","25.0700766666667","6501100","汐止區"
"221029","298-VK","2017/12/12 19:59:53","新北市汐止區樟樹一路137巷26號","121.641033333333","25.065895","6501100","汐止區"
"221021","299-VK","2017/12/12 19:59:43","新北市汐止區水源路一段138號","121.656093333333","25.062495","6501100","汐止區"
"221031","353-TW","2017/12/12 19:59:41","新北市汐止區福德一路176巷2號","121.635718333333","25.0662333333333","6501100","汐止區"
"221015","567-BX","2017/12/12 19:59:50","新北市汐止區鄉長路一段31-1號","121.665278333333","25.07465","6501100","汐止區"
"221035","622-UM","2017/12/12 19:59:50","新北市汐止區長江街43號","121.655713333333","25.071235","6501100","汐止區"
"221025","623-UM","2017/12/12 19:59:44","新北市汐止區秀峰路118號","121.660035","25.0634","6501100","汐止區"
"221038","646-BX","2017/12/12 19:59:41","新北市汐止區忠孝東路487-3號","121.666101666667","25.0738866666667","6501100","汐止區"
"221033","647-BX","2017/12/12 19:59:42","新北市汐止區東勢街215巷3弄1號","121.634261666667","25.0428616666667","6501100","汐止區"
"221018","753-BX","2017/12/12 19:59:39","新北市汐止區茄苳路45號","121.665961666667","25.07093","6501100","汐止區"
"220079","145-BY","2017/12/12 19:59:41","新北市板橋區南雅西路二段175巷1號","121.451588333333","25.0124416666667","6500100","板橋區"
"220080","200-UY","2017/12/12 19:59:52","新北市板橋區大觀路二段169巷23號","121.446461666667","24.999815","6500100","板橋區"
"220082","610-BX","2017/12/12 19:59:49","新北市板橋區金門街153號","121.432688333333","24.9905233333333","6500100","板橋區"
"220101","245-BX","2017/12/12 19:59:39","新北市板橋區莒光路180巷23號","121.47311","25.0226266666667","6500100","板橋區"
"220072","277-BY","2017/12/12 19:59:39","新北市板橋區篤行路二段31巷8號","121.432273333333","24.9925883333333","6500100","板橋區"
"220071","283-VK","2017/12/12 19:59:47","新北市板橋區和平路174巷36弄1號","121.464908333333","24.99426","6500100","板橋區"
"220094","285-UM","2017/12/12 19:59:50","新北市板橋區文德路20號","121.462666666667","25.024435","6500100","板橋區"
"220053","285-VK","2017/12/12 19:59:48","新北市板橋區永豐街115號","121.474391666667","25.0195666666667","6500100","板橋區"
"220083","286-VK","2017/12/12 19:59:45","新北市板橋區僑中二街10巷38號","121.445428333333","25.01118","6500100","板橋區"
"220081","287-VK","2017/12/12 19:59:49","新北市板橋區大觀路一段28巷104號","121.45012","25.0111216666667","6500100","板橋區"
"220090","288-VK","2017/12/12 19:59:48","新北市板橋區幸福路32巷46號","121.460526666667","25.0219216666667","6500100","板橋區"
"220061","293-UM","2017/12/12 19:59:58","新北市板橋區觀光街5號","121.471615","25.0157533333333","6500100","板橋區"
"220084","296-UM","2017/12/12 19:59:46","新北市板橋區板林路200號","121.424585","24.98844","6500100","板橋區"
"220075","297-UM","2017/12/12 19:59:51","新北市板橋區金華街10巷65號","121.457741666667","25.0203433333333","6500100","板橋區"
"220062","305-R5","2017/12/12 19:59:43","新北市板橋區萬安街85巷1弄11號","121.484411666667","25.0249733333333","6500100","板橋區"
"220092","307-R5","2017/12/12 19:59:41","新北市板橋區互助街102號","121.45984","25.026105","6500100","板橋區"
"220098","317-R6","2017/12/12 19:59:48","新北市板橋區新海路72巷44號","121.462121666667","25.0229266666667","6500100","板橋區"
"220064","486-VK","2017/12/12 19:59:53","新北市板橋區海山路1號","121.469578333333","25.009625","6500100","板橋區"
"220089","487-VK","2017/12/12 19:59:35","新北市板橋區新海路385巷32號","121.457431666667","25.0254616666667","6500100","板橋區"
"220088","491-VK","2017/12/12 19:59:37","新北市板橋區懷德街183號","121.479605","25.0298083333333","6500100","板橋區"
"220035","560-BX","2017/12/12 19:59:44","新北市板橋區新生街27號","121.456385","25.0211816666667","6500100","板橋區"
"220103","561-BX","2017/12/12 19:59:45","新北市板橋區陽明街27巷2號","121.465461666667","25.0218733333333","6500100","板橋區"
"220091","637-BX","2017/12/12 19:59:57","新北市板橋區文聖街101巷13號","121.4782","25.0297316666667","6500100","板橋區"
"220057","686-BX","2017/12/12 19:59:51","新北市板橋區信義路29號","121.456945","24.9964983333333","6500100","板橋區"
"220093","689-BX","2017/12/12 19:59:41","新北市板橋區長江路三段114號","121.47504","25.0344216666667","6500100","板橋區"
"220054","741-BX","2017/12/12 19:59:44","新北市板橋區實踐路93巷18號","121.464733333333","25.0054333333333","6500100","板橋區"
"220055","827-TW","2017/12/12 19:59:52","新北市板橋區仁愛路62巷22號","121.460078333333","24.997975","6500100","板橋區"
"220067","829-TW","2017/12/12 19:59:55","新北市板橋區中山路一段184-1號","121.469263333333","25.0126233333333","6500100","板橋區"
"220096","831-TW","2017/12/12 19:59:50","新北市板橋區文化路一段370-1號","121.469831666667","25.0235616666667","6500100","板橋區"
"220063","833-TW","2017/12/12 19:59:27","新北市板橋區三民路一段78號","121.479445","25.0219233333333","6500100","板橋區"
"220074","895-R6","2017/12/12 19:59:54","新北市板橋區縣民大道一段275號","121.460521666667","25.0099416666667","6500100","板橋區"
"220073","985-R7","2017/12/12 19:59:52","新北市板橋區南雅西路二段24號","121.45293","25.0095783333333","6500100","板橋區"
"220097","AAC-210","2017/12/12 19:59:51","新北市板橋區光正街18巷2號","121.462736666667","25.0171933333333","6500100","板橋區"
"220070","AAC-253","2017/12/12 19:59:38","新北市板橋區成都街22號","121.46091","25.004815","6500100","板橋區"
