"lineid","car","time","location","longitude","latitude","cityid","cityname"
"234013","149-BY","2017/12/12 20:19:38","新北市永和區保生路40巷1號","121.505856666667","25.0083283333333","6500400","永和區"
"234007","207-UY","2017/12/12 20:19:50","新北市永和區仁愛路306巷79號","121.501811666667","25.009615","6500400","永和區"
"234081","298-R6","2017/12/12 20:19:45","新北市永和區福和路19巷1弄23號","121.524565","25.00779","6500400","永和區"
"234038","336-UY","2017/12/12 20:19:46","新北市永和區成功路一段89號","121.526895","25.0028316666667","6500400","永和區"
"234064","337-UY","2017/12/12 20:19:55","新北市永和區得和路108號","121.518308333333","25.0001283333333","6500400","永和區"
"234086","338-UY","2017/12/12 20:19:49","新北市永和區永和路二段8號","121.514658333333","25.0101266666667","6500400","永和區"
"234070","552-UM","2017/12/12 20:19:53","新北市永和區福和路263巷11號","121.517985","25.0067933333333","6500400","永和區"
"234054","553-UM","2017/12/12 20:19:50","新北市永和區光復街2巷16弄1號","121.517061666667","25.0164333333333","6500400","永和區"
"234017","745-BX","2017/12/12 20:19:45","新北市永和區仁愛路44號","121.51417","25.0134233333333","6500400","永和區"
"234030","746-BX","2017/12/12 20:19:55","新北市永和區民有街100號","121.517705","24.9957533333333","6500400","永和區"
"234061","AAD-866","2017/12/12 20:19:55","新北市永和區安樂路148號","121.514276666667","25.0004966666667","6500400","永和區"
"234042","862-TW","2017/12/12 20:19:34","新北市中和區中安街168號","121.510818333333","24.9999016666667","6500400","永和區"
"234050","863-TW","2017/12/12 20:19:40","新北市永和區新生路19號","121.509405","25.0167","6500400","永和區"
"249005","172-UM","2017/12/12 20:19:38","新北市八里區下罟子2-17號","121.388271666667","25.1410933333333","6502300","八里區"
"249001","173-UM","2017/12/12 20:19:40","新北市八里區中華路二段536-4號","121.399066666667","25.1451916666667","6502300","八里區"
"249004","303-UY","2017/12/12 20:19:43","新北市八里區中山路一段326號","121.41286","25.1591733333333","6502300","八里區"
"249002","305-UY","2017/12/12 20:19:56","新北市八里區龍米路二段32巷11號","121.448878333333","25.140275","6502300","八里區"
"249003","759-BX","2017/12/12 20:19:50","新北市八里區中山路二段447巷21號","121.397321666667","25.145245","6502300","八里區"
"248016","026-BX","2017/12/12 20:19:44","新北市五股區天乙路34號","121.448463333333","25.1034683333333","6501500","五股區"
"248012","247-BX","2017/12/12 20:19:52","新北市五股區民義路一段212號","121.430573333333","25.0894083333333","6501500","五股區"
"248010","272-BY","2017/12/12 20:19:41","新北市泰山區新五路一段106-6號","121.440133333333","25.06185","6501500","五股區"
"248004","677-BX","2017/12/12 20:19:45","新北市五股區中興路四段23號","121.438796666667","25.0827566666667","6501500","五股區"
"248002","678-BX","2017/12/12 20:19:40","新北市五股區成泰路三段165號","121.445191666667","25.0918283333333","6501500","五股區"
"234023","9380-KE","2017/12/12 20:19:44","新北市永和區勵行街44號","121.516681666667","25.0135566666667","6500400","永和區"
"234077","969-R7","2017/12/12 20:19:48","新北市永和區中正路106號","121.514441666667","24.995875","6500400","永和區"
"234074","AAC-211","2017/12/12 20:19:44","新北市永和區竹林路201巷24弄7號","121.522596666667","25.0097133333333","6500400","永和區"
"234067","AAC-212","2017/12/12 20:19:47","新北市永和區保平路266號","121.50874","25.005205","6500400","永和區"
"234003","AAC-295","2017/12/12 20:19:45","新北市永和區永和路一段125號","121.514006666667","25.0082233333333","6500400","永和區"
"244024","837-TS","2017/12/12 20:07:04","新北市林口區粉寮路二段160巷28號","121.405175","25.0907516666667","6501700","林口區"
"243012","AAD-798","2017/12/12 20:19:47","新北市泰山區楓江路127-3號","121.439205","25.0646316666667","6501600","泰山區"
"243011","297-R6","2017/12/12 20:19:48","新北市泰山區新北大道六段313巷13弄11號","121.42465","25.0338533333333","6501600","泰山區"
"243015","380-SR","2017/12/12 20:19:32","新北市泰山區全興路111號","121.43398","25.0566566666667","6501600","泰山區"
"243014","421-VK","2017/12/12 20:19:49","新北市泰山區泰林路二段395號","121.427115","25.0642616666667","6501600","泰山區"
"243010","KEA-2215","2017/12/12 20:19:45","新北市泰山區明志路二段254巷2號","121.42671","25.0476816666667","6501600","泰山區"
"243009","KEA-2216","2017/12/12 20:19:43","新北市泰山區泰林路二段306巷4號","121.430993333333","25.0631966666667","6501600","泰山區"
"243016","680-BX","2017/12/12 20:19:48","新北市泰山區明志路三段123巷1弄7號","121.425101666667","25.0409233333333","6501600","泰山區"
"222003","436-BY","2017/12/12 20:19:55","新北市深坑區文化街86號","121.617603333333","25.0019583333333","6501800","深坑區"
"222002","659-BX","2017/12/12 20:19:48","新北市深坑區萬福路75巷26號","121.599091666667","25.0097766666667","6501800","深坑區"
"231041","001-UM","2017/12/12 20:19:44","新北市新店區民權路44號","121.540176666667","24.9830233333333","6500600","新店區"
"231059","046-UY","2017/12/12 20:19:39","新北市新店區安德街116巷10號","121.509028333333","24.96092","6500600","新店區"
"231061","047-UY","2017/12/12 20:19:54","新北市新店區光華街38巷11號","121.515825","24.9703116666667","6500600","新店區"
"231060","106-UY","2017/12/12 20:19:41","新北市新店區錦秀路11巷92弄1號","121.480256666667","24.9427033333333","6500600","新店區"
"231051","107-UY","2017/12/12 20:19:46","新北市新店區中央六街47號","121.528363333333","24.9756516666667","6500600","新店區"
"231048","108-UY","2017/12/12 20:19:42","新北市新店區寶橋路98號","121.546851666667","24.976","6500600","新店區"
"231053","187-VK","2017/12/12 20:19:49","新北市新店區新烏路二段369巷353-1號","121.550573333333","24.9102666666667","6500600","新店區"
"231050","KEA-2219","2017/12/12 20:19:40","新北市新店區北新路一段96巷23號","121.542788333333","24.9687616666667","6500600","新店區"
"231057","256-BX","2017/12/12 20:19:46","新北市新店區花園五路二段27號","121.55475","24.9347483333333","6500600","新店區"
"231054","AAD-862","2017/12/12 20:19:52","新北市新店區檳榔路109號","121.544428333333","24.961655","6500600","新店區"
"231058","3712-VJ","2017/12/12 20:19:40","新北市新店區中央路153號","121.529861666667","24.9730216666667","6500600","新店區"
"231056","3713-VJ","2017/12/12 20:19:41","新北市新店區中正路275巷35號","121.536716666667","24.97279","6500600","新店區"
"231055","4716-K9","2017/12/12 20:19:43","新北市新店區中華路1號","121.541211666667","24.9672116666667","6500600","新店區"
"231067","4772-VM","2017/12/12 20:19:39","新北市新店區溪洲路8巷2-1號","121.533548333333","24.9614566666667","6500600","新店區"
"231065","512-UM","2017/12/12 20:19:47","新北市新店區安祥路104巷6弄36號","121.483096666667","24.9629466666667","6500600","新店區"
"231064","515-UM","2017/12/12 20:19:37","新北市新店區安和路二段166號","121.519736666667","24.9737716666667","6500600","新店區"
"231042","616-UM","2017/12/12 20:19:36","新北市新店區中興路二段224號","121.547905","24.9750533333333","6500600","新店區"
"231045","617-UM","2017/12/12 20:19:49","新北市新店區新坡一街91號","121.548785","24.9642483333333","6500600","新店區"
"231040","619-UM","2017/12/12 20:19:41","新北市新店區中正路106號","121.543113333333","24.97062","6500600","新店區"
"231063","645-TV","2017/12/12 20:19:49","新北市新店區車子路1-1號","121.504768333333","24.9578","6500600","新店區"
"231068","718-UY","2017/12/12 20:19:40","新北市新店區寶安街31號","121.541971666667","24.9823733333333","6500600","新店區"
"231049","719-UM","2017/12/12 20:19:40","新北市新店區環河路1-2號","121.538193333333","24.9616583333333","6500600","新店區"
"231062","720-UM","2017/12/12 20:19:52","新北市新店區安泰路7巷16號","121.485645","24.95096","6500600","新店區"
"231044","897-TW","2017/12/12 20:19:39","新北市新店區北新路三段97號","121.541455","24.981865","6500600","新店區"
"231043","899-TW","2017/12/12 20:19:40","新北市新店區建國路133號","121.539346666667","24.978265","6500600","新店區"
"231066","AKT-0513","2017/12/12 20:19:51","新北市新店區安興路112號","121.514631666667","24.9776516666667","6500600","新店區"
"241011","013-R5","2017/12/12 20:19:56","新北市三重區龍門路157號","121.498705","25.0730566666667","6500200","三重區"
"241008","059-VK","2017/12/12 20:19:45","新北市三重區永福街211巷11號","121.47955","25.074115","6500200","三重區"
"241009","060-VK","2017/12/12 20:19:40","新北市三重區三和路四段382巷44號","121.481181666667","25.0784433333333","6500200","三重區"
"241015","062-VK","2017/12/12 20:19:42","新北市三重區重新路一段140號","121.50028","25.0627783333333","6500200","三重區"
"241017","063-VK","2017/12/12 20:19:39","新北市三重區自強路一段207號","121.491546666667","25.06834","6500200","三重區"
"241026","066-VK","2017/12/12 20:19:50","新北市三重區環河南路3號","121.50401","25.063615","6500200","三重區"
"241002","090-VK","2017/12/12 20:19:45","新北市三重區仁義街143巷2號","121.497356666667","25.080595","6500200","三重區"
"241003","091-VK","2017/12/12 20:19:49","新北市三重區富華街102號","121.491296666667","25.0836566666667","6500200","三重區"
"241019","156-TC","2017/12/12 20:19:40","新北市三重區忠孝路一段21號","121.491953333333","25.071925","6500200","三重區"
"241005","262-UM","2017/12/12 20:19:35","新北市三重區分子尾街86號","121.488991666667","25.0824083333333","6500200","三重區"
"241024","265-UM","2017/12/12 20:19:38","新北市三重區忠孝路三段15巷10號","121.481118333333","25.06749","6500200","三重區"
"241016","266-UM","2017/12/12 20:19:49","新北市三重區大同北路97-2號","121.494458333333","25.063645","6500200","三重區"
"241022","267-UM","2017/12/12 20:19:46","新北市三重區市前街14號","121.489128333333","25.062345","6500200","三重區"
"241018","268-UM","2017/12/12 20:19:54","新北市三重區雙園街115號","121.493538333333","25.0672133333333","6500200","三重區"
"241032","269-UM","2017/12/12 20:19:50","新北市三重區捷運路19巷8弄16號","121.484343333333","25.0571966666667","6500200","三重區"
"241013","270-UM","2017/12/12 20:19:49","新北市三重區三和路三段165號","121.491738333333","25.074035","6500200","三重區"
"241025","271-UM","2017/12/12 20:19:48","新北市三重區三民街271號","121.479328333333","25.068045","6500200","三重區"
"241007","398-BY","2017/12/12 20:19:54","新北市三重區溪尾街108巷23號","121.488558333333","25.07868","6500200","三重區"
"241031","KEA-2210","2017/12/12 20:19:42","新北市三重區三寧街15號","121.489523333333","25.0597883333333","6500200","三重區"
"241020","413-TH","2017/12/12 20:19:36","新北市三重區忠孝路一段21巷11-1號","121.491801666667","25.0727783333333","6500200","三重區"
"241004","475-VK","2017/12/12 20:19:50","新北市三重區仁愛街376號","121.49123","25.0806783333333","6500200","三重區"
"241030","480-VK","2017/12/12 20:19:42","新北市三重區環河南路254巷53號","121.488071666667","25.0522483333333","6500200","三重區"
"241014","543-UM","2017/12/12 20:19:42","新北市三重區長榮路75號","121.502575","25.0691133333333","6500200","三重區"
"241023","545-UM","2017/12/12 20:19:47","新北市三重區忠孝路三段99巷4號","121.480193333333","25.06423","6500200","三重區"
"241001","547-UM","2017/12/12 20:19:53","新北市三重區溪尾街42-1號","121.491018333333","25.0769083333333","6500200","三重區"
"241035","743-BX","2017/12/12 20:19:51","新北市三重區重新路二段24號","121.499251666667","25.0626733333333","6500200","三重區"
"241028","887-TS","2017/12/12 20:19:29","新北市三重區大同南路162號","121.49664","25.0574233333333","6500200","三重區"
"241012","941-UM","2017/12/12 20:19:51","新北市三重區河邊北街379-1號","121.501741666667","25.0764666666667","6500200","三重區"
"241029","942-UM","2017/12/12 20:19:37","新北市三重區光明路116號","121.49276","25.0560733333333","6500200","三重區"
"241033","AAC-255","2017/12/12 20:19:45","新北市三重區五谷王北街77號","121.47575","25.05034","6500200","三重區"
"235066","003-UY","2017/12/12 20:19:44","新北市中和區中山路二段3巷22弄12號","121.506116666667","25.0048583333333","6500300","中和區"
"235039","097-UM","2017/12/12 20:19:44","新北市中和區大勇街25巷11弄1號","121.51644","24.9932783333333","6500300","中和區"
"235040","150-BY","2017/12/12 20:19:44","新北市中和區安平路38號","121.509985","24.99497","6500300","中和區"
"235068","377-QA","2017/12/12 20:19:08","新北市中和區勝利路35巷9弄18號","121.499823333333","25.0072966666667","6500300","中和區"
"235061","378-QA","2017/12/12 20:19:53","新北市中和區民享街86巷2號","121.474366666667","25.0010366666667","6500300","中和區"
"235050","4979-A6","2017/12/12 20:19:53","新北市中和區景平路404號","121.508973333333","24.9930266666667","6500300","中和區"
"235069","4980-A6","2017/12/12 20:19:49","新北市中和區中正路446號","121.49099","24.9943383333333","6500300","中和區"
"235070","558-UM","2017/12/12 20:19:39","新北市中和區中正路758號","121.485315","24.9992233333333","6500300","中和區"
"235047","732-UM","2017/12/12 20:06:57","新北市中和區景平路347號","121.505133333333","24.9933766666667","6500300","中和區"
"235065","911-UM","2017/12/12 20:19:47","新北市中和區福美路258號","121.498298333333","25.0051466666667","6500300","中和區"
"235059","AAC-215","2017/12/12 20:19:38","新北市中和區員山路30-11號","121.484083333333","24.9877633333333","6500300","中和區"
"220065","072-UY","2017/12/12 20:15:50","新北市三重區光復路二段143巷16號","121.473816666667","25.0607416666667","6500100","板橋區"
"220102","120-SR","2017/12/12 20:19:45","新北市板橋區漢生東路83巷2號","121.466925","25.0157783333333","6500100","板橋區"
"247022","893-R6","2017/12/12 20:19:48","新北市蘆洲區三民路263號","121.468176666667","25.0893116666667","6501400","蘆洲區"
"247012","546-UM","2017/12/12 20:19:48","新北市蘆洲區中興街15巷6號","121.480485","25.0872383333333","6501400","蘆洲區"
"247020","500-BY","2017/12/12 20:19:35","新北市蘆洲區仁愛街76號","121.470816666667","25.09435","6501400","蘆洲區"
"247008","341-TH","2017/12/12 20:19:38","新北市蘆洲區集賢路228號","121.482418333333","25.0863283333333","6501400","蘆洲區"
"247010","339-TH","2017/12/12 20:19:43","新北市蘆洲區信義路257號","121.478995","25.0847316666667","6501400","蘆洲區"
"247002","337-TH","2017/12/12 20:19:32","新北市蘆洲區環堤大道108號","121.455536666667","25.0866083333333","6501400","蘆洲區"
"247004","336-TH","2017/12/12 20:19:51","新北市蘆洲區永康街1巷23號","121.459846666667","25.0853366666667","6501400","蘆洲區"
"247016","057-VK","2017/12/12 20:19:52","新北市蘆洲區光華路132巷19號","121.465666666667","25.083215","6501400","蘆洲區"
"247006","056-VK","2017/12/12 20:19:43","新北市蘆洲區九芎街167巷10號","121.465138333333","25.0784833333333","6501400","蘆洲區"
"247014","007-UY","2017/12/12 20:19:44","新北市蘆洲區成功路58號","121.472538333333","25.0803083333333","6501400","蘆洲區"
"247024","002-UY","2017/12/12 20:19:46","新北市蘆洲區光榮路120巷8弄39號","121.464588333333","25.0878983333333","6501400","蘆洲區"
"247018","001-UY","2017/12/12 20:19:46","新北市蘆洲區民族路410號","121.474516666667","25.0914983333333","6501400","蘆洲區"
"222001","KEA-2212","2017/12/12 20:19:47","新北市深坑區北深路三段247號","121.599428333333","25.0042683333333","6501800","深坑區"
"251004","009-UM","2017/12/12 20:19:50","新北市淡水區民權路99-5號","121.459966666667","25.1378966666667","6501000","淡水區"
"251014","180-VK","2017/12/12 20:19:37","新北市淡水區石頭厝1號","121.458741666667","25.23553","6501000","淡水區"
"251008","181-VK","2017/12/12 20:19:49","新北市淡水區淡海路180巷27號","121.42179","25.1845666666667","6501000","淡水區"
"251010","413-VK","2017/12/12 20:19:35","新北市淡水區新民街一段132號","121.427766666667","25.18887","6501000","淡水區"
"251012","441-VK","2017/12/12 20:19:42","新北市淡水區淡金路三段436號","121.450653333333","25.213565","6501000","淡水區"
"251016","442-VK","2017/12/12 20:19:39","新北市淡水區淡金路五段20號","121.452681666667","25.23215","6501000","淡水區"
"251006","561-UM","2017/12/12 20:19:56","新北市淡水區淡金路一段575號","121.452453333333","25.1803883333333","6501000","淡水區"
"251002","672-BX","2017/12/12 20:19:38","新北市淡水區中正路108號","121.441945","25.1696383333333","6501000","淡水區"
"251003","673-BX","2017/12/12 20:19:38","新北市淡水區中山北路一段229號","121.44446","25.1795266666667","6501000","淡水區"
"207004","225-TW","2017/12/12 20:19:41","新北市萬里區北基里仁一街2號","121.68291","25.1757233333333","6502800","萬里區"
"252002","178-VK","2017/12/12 20:19:51","新北市三芝區中正路一段57號","121.503448333333","25.25797","6502100","三芝區"
"252001","292-VK","2017/12/12 20:19:53","新北市三芝區中山路一段14號","121.500688333333","25.2580266666667","6502100","三芝區"
"237004","078-UY","2017/12/12 20:19:50","新北市三峽區大義路398號","121.375868333333","24.949525","6500900","三峽區"
"237006","5529-G3","2017/12/12 20:19:54","新北市三峽區中正路二段41號","121.36672","24.9187166666667","6500900","三峽區"
"236070","105-UM","2017/12/12 20:19:52","新北市土城區中央路三段147巷2弄14號","121.432023333333","24.96493","6501300","土城區"
"236031","253-BX","2017/12/12 20:19:53","新北市土城區學成路128巷8弄1號","121.449491666667","24.9899416666667","6501300","土城區"
"236027","269-VK","2017/12/12 20:19:45","新北市土城區中央路一段249巷12號","121.445783333333","24.9854816666667","6501300","土城區"
"236015","270-VK","2017/12/12 20:19:52","新北市土城區廣明街90巷25號","121.455546666667","24.9946183333333","6501300","土城區"
"236038","271-VK","2017/12/12 20:19:37","新北市土城區明德路一段109號","121.465545","24.98187","6501300","土城區"
"236023","401-BY","2017/12/12 20:19:38","新北市土城區延吉街23巷37號","121.474281666667","24.9875383333333","6501300","土城區"
"236059","912-UM","2017/12/12 20:19:47","新北市土城區中央路三段38號","121.438241666667","24.9685766666667","6501300","土城區"
"236055","AAC-216","2017/12/12 20:19:40","新北市土城區自由街21號","121.42233","24.9669133333333","6501300","土城區"
"242032","AAC-296","2017/12/12 20:19:46","新北市新莊區三泰路7號","121.440163333333","25.0341216666667","6500500","新莊區"
"242029","986-R7","2017/12/12 20:19:52","新北市新莊區中原路221號","121.450225","25.0542433333333","6500500","新莊區"
"242051","751-BX","2017/12/12 20:19:48","新北市新莊區民安西路240號","121.425956666667","25.014215","6500500","新莊區"
"242023","613-BX","2017/12/12 20:19:38","新北市新莊區化成路784號","121.46516","25.0591833333333","6500500","新莊區"
"242027","612-BX","2017/12/12 20:19:49","新北市新莊區幸福路584號","121.453801666667","25.0493083333333","6500500","新莊區"
"242044","497-BY","2017/12/12 20:19:44","新北市新莊區中正路新建巷28弄55號","121.41383","25.0215183333333","6500500","新莊區"
"242048","441-UM","2017/12/12 20:19:43","新北市新莊區龍安路218號","121.420173333333","25.0198466666667","6500500","新莊區"
"242054","440-UM","2017/12/12 20:19:43","新北市新莊區西盛街364號","121.427936666667","25.0136183333333","6500500","新莊區"
"242034","415-TV","2017/12/12 20:19:52","新北市新莊區建中街90巷3弄4號","121.446656666667","25.0372983333333","6500500","新莊區"
"242042","400-BY","2017/12/12 20:19:39","新北市新莊區天祥街60號","121.416326666667","25.0291016666667","6500500","新莊區"
"242061","362-BY","2017/12/12 20:16:52","新北市新莊區瓊林路60-2號","121.439525","25.0209666666667","6500500","新莊區"
"242058","353-BY","2017/12/12 20:19:46","新北市新莊區四維路205號","121.421803333333","25.0204566666667","6500500","新莊區"
"242037","133-UY","2017/12/12 20:19:52","新北市新莊區後港一路56巷24弄2號","121.426633333333","25.0253616666667","6500500","新莊區"
"242021","135-UY","2017/12/12 20:19:44","新北市新莊區和興街43號","121.446635","25.0403566666667","6500500","新莊區"
"242046","172-VK","2017/12/12 20:19:46","新北市新莊區中正路新生巷7弄10號","121.417523333333","25.023475","6500500","新莊區"
"242009","173-VK","2017/12/12 20:19:49","新北市新莊區昌平街1號","121.454878333333","25.051335","6500500","新莊區"
"242015","175-VK","2017/12/12 20:19:53","新北市新莊區永樂街235巷8號","121.446648333333","25.0441566666667","6500500","新莊區"
"242002","176-VK","2017/12/12 20:19:33","新北市新莊區化成路32號","121.464968333333","25.0430383333333","6500500","新莊區"
"242013","346-TH","2017/12/12 20:19:46","新北市新莊區中和街155巷24弄30號","121.446645","25.0510316666667","6500500","新莊區"
"242007","347-TH","2017/12/12 20:19:44","新北市新莊區福壽街112巷24號","121.459253333333","25.0506516666667","6500500","新莊區"
"242019","348-TH","2017/12/12 20:19:49","新北市新莊區復興路二段179號","121.458855","25.0445783333333","6500500","新莊區"
"242056","349-TH","2017/12/12 20:19:50","新北市新莊區豐年街28巷22號","121.445258333333","25.0323516666667","6500500","新莊區"
"242017","350-TH","2017/12/12 20:19:54","新北市新莊區中港二街120號","121.44865","25.0457066666667","6500500","新莊區"
"242011","351-TH","2017/12/12 20:19:51","新北市新莊區中信街23巷1號","121.450983333333","25.05054","6500500","新莊區"
"238021","KEA-2217","2017/12/12 20:19:39","新北市樹林區佳園路三段99巷71號","121.393956666667","24.95209","6500700","樹林區"
"239002","359-BY","2017/12/12 20:19:45","新北市鶯歌區二甲路12-2號","121.345661666667","24.9349883333333","6500800","鶯歌區"
"221008","489-VK","2017/12/12 20:19:53","新北市汐止區康寧街81號","121.619598333333","25.066425","6501100","汐止區"
"221036","130-UY","2017/12/12 20:19:42","新北市汐止區仁愛路152巷27號","121.664901666667","25.0638366666667","6501100","汐止區"
"221010","269-BY","2017/12/12 20:19:51","新北市汐止區八連路二段636-3號","121.625608333333","25.1103733333333","6501100","汐止區"
"221012","276-VK","2017/12/12 16:25:41","新北市汐止區汐萬路一段256巷3號","121.653453333333","25.0745916666667","6501100","汐止區"
"221012","278-VK","2017/12/12 20:19:39","新北市汐止區保新街158號","121.689783333333","25.068275","6501100","汐止區"
"221023","279-VK","2017/12/12 20:19:45","新北市汐止區湖東街5巷9號","121.634063333333","25.0730233333333","6501100","汐止區"
"221032","280-BY","2017/12/12 20:19:37","新北市汐止區民權街二段30號","121.619408333333","25.0498283333333","6501100","汐止區"
"221027","281-BY","2017/12/12 20:19:52","新北市汐止區大同路二段491號","121.66091","25.0684366666667","6501100","汐止區"
"221029","298-VK","2017/12/12 20:19:53","新北市汐止區樟樹二路101-1號","121.639821666667","25.0630216666667","6501100","汐止區"
"221021","299-VK","2017/12/12 20:19:43","新北市汐止區水源路一段293號","121.65431","25.058205","6501100","汐止區"
"221031","353-TW","2017/12/12 20:19:41","新北市汐止區中興路150巷15號","121.633061666667","25.0650616666667","6501100","汐止區"
"221015","567-BX","2017/12/12 20:19:50","新北市汐止區建成路160巷16號","121.661825","25.0740216666667","6501100","汐止區"
"221035","622-UM","2017/12/12 20:19:50","新北市汐止區長江街101-5號","121.658726666667","25.0731933333333","6501100","汐止區"
"221025","623-UM","2017/12/12 20:19:44","新北市汐止區水源路二段72巷9弄3號","121.655711666667","25.0556766666667","6501100","汐止區"
"221038","646-BX","2017/12/12 20:19:41","新北市汐止區忠孝東路478號","121.666238333333","25.0736983333333","6501100","汐止區"
"221033","647-BX","2017/12/12 20:19:42","新北市汐止區東勢街215巷16號","121.634995","25.0433833333333","6501100","汐止區"
"221018","753-BX","2017/12/12 20:19:38","新北市汐止區茄安路43號","121.674078333333","25.068695","6501100","汐止區"
"220080","200-UY","2017/12/12 20:18:32","新北市新莊區環漢路三段1號","121.443238333333","25.0231466666667","6500100","板橋區"
"220101","245-BX","2017/12/12 20:19:39","新北市板橋區雙十路一段44巷36號","121.477385","25.0249083333333","6500100","板橋區"
"220083","286-VK","2017/12/12 20:19:45","新北市板橋區僑中二街92巷23號","121.445095","25.0090333333333","6500100","板橋區"
"220081","287-VK","2017/12/12 20:19:49","新北市板橋區僑中一街80巷5弄10號","121.447381666667","25.0126016666667","6500100","板橋區"
"220061","293-UM","2017/12/12 20:19:37","新北市板橋區館前東路1號","121.459598333333","25.0073016666667","6500100","板橋區"
"220062","305-R5","2017/12/12 20:19:43","新北市八里區下罟子17號","121.380765","25.1436666666667","6500100","板橋區"
"220089","487-VK","2017/12/12 20:19:35","新北市板橋區四維路174號","121.46469","25.0263466666667","6500100","板橋區"
"242039","280-VK","2017/12/12 20:19:41","新北市新莊區龍安路457號","121.424511666667","25.01837","6500500","新莊區"
"220103","561-BX","2017/12/12 20:19:43","新北市板橋區陽明街279巷1弄1號","121.461858333333","25.0260616666667","6500100","板橋區"
"220055","827-TW","2017/12/12 20:19:52","新北市板橋區仁愛路23號","121.45888","24.9994416666667","6500100","板橋區"
"220097","AAC-210","2017/12/12 20:19:51","新北市板橋區文化路一段101巷11號","121.46076","25.0145633333333","6500100","板橋區"
"220070","AAC-253","2017/12/12 20:19:55","新北市板橋區四川路二段245巷3號","121.450486666667","24.9933416666667","6500100","板橋區"
