"lineid","car","time","location","longitude","latitude","cityid","cityname"
"234013","149-BY","2017/12/12 20:49:38","新北市新店區薏仁坑路自強巷1號","121.49791","24.95776","6500400","永和區"
"249004","303-UY","2017/12/12 20:49:43","新北市八里區中山路一段63號","121.418351666667","25.1594433333333","6502300","八里區"
"234074","AAC-211","2017/12/12 20:49:43","新北市永和區環河東路二段20號","121.522276666667","25.01311","6500400","永和區"
"244024","837-TS","2017/12/12 20:07:04","新北市林口區粉寮路二段160巷28號","121.405175","25.0907516666667","6501700","林口區"
"222003","436-BY","2017/12/12 20:49:55","新北市深坑區文山路三段48-1號","121.609903333333","24.9985533333333","6501800","深坑區"
"222002","659-BX","2017/12/12 20:49:48","新北市深坑區北深路三段93巷11號","121.6054","25.00104","6501800","深坑區"
"231041","001-UM","2017/12/12 20:49:25","新北市新店區中正路700巷3號","121.53376","24.9913216666667","6500600","新店區"
"231059","046-UY","2017/12/12 20:49:39","新北市新店區僑信路114巷42號","121.499103333333","24.9462633333333","6500600","新店區"
"231061","047-UY","2017/12/12 20:49:54","新北市新店區新和街93巷8號","121.5208","24.9866916666667","6500600","新店區"
"231060","106-UY","2017/12/12 20:49:41","新北市新店區安康路三段740號","121.473825","24.9419716666667","6500600","新店區"
"231051","107-UY","2017/12/12 20:49:46","新北市新店區中央路204號","121.530396666667","24.974065","6500600","新店區"
"231048","108-UY","2017/12/12 20:49:42","新北市新店區寶元路一段109號","121.545786666667","24.9832216666667","6500600","新店區"
"231053","187-VK","2017/12/12 20:49:49","新北市新店區新烏路二段50巷3號","121.548481666667","24.9281666666667","6500600","新店區"
"231050","KEA-2219","2017/12/12 20:49:40","新北市新店區中正路247巷25弄2號","121.538506666667","24.9724516666667","6500600","新店區"
"231057","256-BX","2017/12/12 20:49:46","新北市新店區新烏路一段215號","121.548913333333","24.9311166666667","6500600","新店區"
"231054","AAD-862","2017/12/12 20:49:52","新北市新店區行政街17巷14號","121.542975","24.9670916666667","6500600","新店區"
"231058","3712-VJ","2017/12/12 20:49:40","新北市新店區中央四街5-1號","121.530238333333","24.9737816666667","6500600","新店區"
"231056","3713-VJ","2017/12/12 20:49:58","新北市新店區中央七街61巷28號","121.52956","24.97573","6500600","新店區"
"231065","512-UM","2017/12/12 20:49:47","新北市新店區安祥路69巷17號","121.481891666667","24.961345","6500600","新店區"
"231064","515-UM","2017/12/12 20:49:37","新北市新店區安民街378號","121.516421666667","24.97644","6500600","新店區"
"231042","616-UM","2017/12/12 20:49:36","新北市新店區寶高路120巷1號","121.554611666667","24.9760133333333","6500600","新店區"
"231040","619-UM","2017/12/12 20:49:41","新北市新店區中正路276號","121.538805","24.9736466666667","6500600","新店區"
"231063","645-TV","2017/12/12 20:49:49","新北市新店區如意街7-2號","121.495193333333","24.948615","6500600","新店區"
"231068","718-UY","2017/12/12 20:49:42","新北市新店區寶元路一段84巷2號","121.544371666667","24.9838983333333","6500600","新店區"
"231049","719-UM","2017/12/12 20:49:40","新北市新店區安康路一段226號","121.523498333333","24.9636316666667","6500600","新店區"
"231062","720-UM","2017/12/12 20:49:52","新北市新店區裕合街361號","121.48915","24.9482233333333","6500600","新店區"
"231044","897-TW","2017/12/12 20:49:40","新北市新店區民族路192號","121.536261666667","24.9754433333333","6500600","新店區"
"231043","899-TW","2017/12/12 20:49:42","新北市新店區建國路31號","121.540285","24.9741666666667","6500600","新店區"
"231066","AKT-0513","2017/12/12 20:49:51","新北市新店區安興路112號","121.514638333333","24.9776733333333","6500600","新店區"
"241011","013-R5","2017/12/12 20:49:56","新北市三重區龍濱路249號","121.501571666667","25.072485","6500200","三重區"
"241008","059-VK","2017/12/12 20:49:45","新北市三重區永福街72巷11號","121.479415","25.076835","6500200","三重區"
"241009","060-VK","2017/12/12 20:49:40","新北市三重區三和路四段388-2號","121.482028333333","25.0791116666667","6500200","三重區"
"241015","062-VK","2017/12/12 20:49:42","新北市三重區自強路一段4號","121.498926666667","25.068425","6500200","三重區"
"241017","063-VK","2017/12/12 20:49:39","新北市三重區自強路一段179號","121.4923","25.06785","6500200","三重區"
"241002","090-VK","2017/12/12 20:49:45","新北市三重區仁義街157巷63號","121.49856","25.08172","6500200","三重區"
"241019","156-TC","2017/12/12 20:49:40","新北市三重區自強路二段74巷19號","121.488011666667","25.0699116666667","6500200","三重區"
"241005","262-UM","2017/12/12 20:49:55","新北市三重區五華街141巷17號","121.491738333333","25.0851566666667","6500200","三重區"
"241024","265-UM","2017/12/12 20:49:38","新北市三重區國道路一段58巷15號","121.481325","25.0720583333333","6500200","三重區"
"241016","266-UM","2017/12/12 20:49:49","新北市三重區自強路一段236號","121.493285","25.0670366666667","6500200","三重區"
"241022","267-UM","2017/12/12 20:49:45","新北市三重區過圳街27-5號","121.488033333333","25.0624083333333","6500200","三重區"
"241018","268-UM","2017/12/12 20:49:54","新北市三重區正義北路275-1號","121.495271666667","25.070195","6500200","三重區"
"241032","269-UM","2017/12/12 20:49:50","新北市三重區重陽路一段120巷35號","121.485098333333","25.0601716666667","6500200","三重區"
"241013","270-UM","2017/12/12 20:49:49","新北市三重區三和路三段68號","121.494886666667","25.0716583333333","6500200","三重區"
"241025","271-UM","2017/12/12 20:49:48","新北市三重區貴陽街14號","121.48417","25.061805","6500200","三重區"
"241007","398-BY","2017/12/12 20:49:53","新北市三重區慈愛街8號","121.48445","25.0784183333333","6500200","三重區"
"241031","KEA-2210","2017/12/12 20:49:42","新北市三重區重陽路一段113巷2弄2號","121.487505","25.059835","6500200","三重區"
"241020","413-TH","2017/12/12 20:49:56","新北市三重區忠孝路一段101號","121.489463333333","25.0721233333333","6500200","三重區"
"241004","475-VK","2017/12/12 20:49:43","新北市三重區分子尾街19號","121.489555","25.0810233333333","6500200","三重區"
"241030","480-VK","2017/12/12 20:49:42","新北市三重區昌隆街26號","121.491985","25.052315","6500200","三重區"
"241014","543-UM","2017/12/12 20:49:42","新北市三重區長壽街120巷60號","121.501735","25.0703683333333","6500200","三重區"
"241023","545-UM","2017/12/12 20:49:47","新北市三重區忠孝路三段84巷1號","121.480231666667","25.064415","6500200","三重區"
"241001","547-UM","2017/12/12 20:49:53","新北市三重區自強路三段79號","121.487281666667","25.0745566666667","6500200","三重區"
"241006","AAD-863","2017/12/12 20:49:46","新北市三重區車路頭街137號","121.484168333333","25.07621","6500200","三重區"
"241028","887-TS","2017/12/12 20:49:49","新北市三重區中正南路41巷1號","121.49379","25.059955","6500200","三重區"
"241012","941-UM","2017/12/12 20:49:51","新北市三重區龍濱路205巷1號","121.50217","25.0717216666667","6500200","三重區"
"241029","942-UM","2017/12/12 20:49:37","新北市三重區重安街22號","121.490435","25.058115","6500200","三重區"
"241033","AAC-255","2017/12/12 20:49:44","新北市三重區光復路二段1號","121.472261666667","25.05329","6500200","三重區"
"235040","150-BY","2017/12/12 20:49:44","新北市新店區安豐路48號","121.500355","24.9538966666667","6500300","中和區"
"235069","4980-A6","2017/12/12 20:49:49","新北市中和區連城路469巷70弄24號","121.482565","24.9939483333333","6500300","中和區"
"220065","072-UY","2017/12/12 20:15:50","新北市三重區光復路二段143巷16號","121.473816666667","25.0607416666667","6500100","板橋區"
"247022","893-R6","2017/12/12 20:49:48","新北市蘆洲區民義街9巷9號","121.47098","25.08903","6501400","蘆洲區"
"247012","546-UM","2017/12/12 20:49:48","新北市蘆洲區集賢路217號","121.482795","25.0867","6501400","蘆洲區"
"247020","500-BY","2017/12/12 20:49:55","新北市蘆洲區仁愛街64號","121.471435","25.0938783333333","6501400","蘆洲區"
"247008","341-TH","2017/12/12 20:49:38","新北市蘆洲區永安北路二段10號","121.481063333333","25.0806066666667","6501400","蘆洲區"
"247010","339-TH","2017/12/12 20:49:43","新北市蘆洲區鷺江街76號","121.477005","25.0838566666667","6501400","蘆洲區"
"247002","337-TH","2017/12/12 20:49:52","新北市蘆洲區長安街242號","121.457613333333","25.0859766666667","6501400","蘆洲區"
"247004","336-TH","2017/12/12 20:49:51","新北市蘆洲區長安街100號","121.461636666667","25.0809266666667","6501400","蘆洲區"
"247016","057-VK","2017/12/12 20:49:52","新北市蘆洲區中山二路211號","121.470486666667","25.0803383333333","6501400","蘆洲區"
"247006","056-VK","2017/12/12 20:49:43","新北市蘆洲區永安南路二段16巷8號","121.467836666667","25.0772483333333","6501400","蘆洲區"
"247014","007-UY","2017/12/12 20:49:44","新北市蘆洲區三民路33號","121.475426666667","25.08302","6501400","蘆洲區"
"247024","002-UY","2017/12/12 20:49:46","新北市蘆洲區長樂路140號","121.4621","25.0901583333333","6501400","蘆洲區"
"222001","KEA-2212","2017/12/12 20:49:47","新北市深坑區北深路三段129號","121.604121666667","25.0024466666667","6501800","深坑區"
"251001","011-UM","2017/12/12 20:49:38","新北市淡水區淡金路218號","121.460515","25.1671533333333","6501000","淡水區"
"251014","180-VK","2017/12/12 20:49:37","新北市淡水區公埔子32-8號","121.461745","25.2323933333333","6501000","淡水區"
"251010","413-VK","2017/12/12 20:49:55","新北市淡水區沙崙路145號","121.423423333333","25.182975","6501000","淡水區"
"251012","441-VK","2017/12/12 20:49:42","新北市淡水區興仁路162號","121.45158","25.2209083333333","6501000","淡水區"
"251016","442-VK","2017/12/12 20:49:39","新北市淡水區淡金路四段476號","121.451906666667","25.2237716666667","6501000","淡水區"
"251005","443-VK","2017/12/12 20:49:44","新北市淡水區淡金路二段519號","121.44696","25.190835","6501000","淡水區"
"251007","577-R6","2017/12/12 20:49:52","新北市淡水區鄧公路31巷1號","121.45131","25.1709383333333","6501000","淡水區"
"251011","650-BX","2017/12/12 20:49:44","新北市淡水區新民街一段13號","121.433118333333","25.1848566666667","6501000","淡水區"
"251002","672-BX","2017/12/12 20:49:38","新北市淡水區英專路42號","121.445623333333","25.170295","6501000","淡水區"
"251003","673-BX","2017/12/12 20:49:38","新北市淡水區中山北路一段247巷82號","121.442435","25.17935","6501000","淡水區"
"252002","178-VK","2017/12/12 20:49:51","新北市三芝區淡金路二段76-2號","121.504026666667","25.2610916666667","6502100","三芝區"
"236055","AAC-216","2017/12/12 20:49:40","新北市土城區城林路6巷80號","121.438748333333","24.9796883333333","6501300","土城區"
"242029","986-R7","2017/12/12 20:49:43","新北市新莊區中華路二段35號","121.45348","25.04644","6500500","新莊區"
"242051","751-BX","2017/12/12 20:48:48","新北市新莊區民安西路76號","121.42717","25.0198233333333","6500500","新莊區"
"242048","441-UM","2017/12/12 20:49:41","新北市新莊區新樹路208號","121.433996666667","25.02058","6500500","新莊區"
"242034","415-TV","2017/12/12 20:49:55","新北市新莊區中正路343號","121.44722","25.03491","6500500","新莊區"
"242061","362-BY","2017/12/12 20:49:52","新北市板橋區金門街215巷121-1號","121.434053333333","24.9866133333333","6500500","新莊區"
"242037","133-UY","2017/12/12 20:49:52","新北市新莊區中正路453號","121.442946666667","25.03403","6500500","新莊區"
"242046","172-VK","2017/12/12 20:49:46","新北市板橋區大觀路三段59巷47號","121.435113333333","24.99281","6500500","新莊區"
"242015","175-VK","2017/12/12 20:49:53","新北市新莊區復興路一段61號","121.447546666667","25.0423583333333","6500500","新莊區"
"242002","176-VK","2017/12/12 20:49:53","新北市新莊區中港路五守新村23巷2號","121.454991666667","25.03843","6500500","新莊區"
"242007","347-TH","2017/12/12 20:49:44","新北市新莊區思源路59號","121.459996666667","25.0402916666667","6500500","新莊區"
"242056","349-TH","2017/12/12 20:49:50","新北市新莊區瓊泰路94巷2號","121.443393333333","25.0293716666667","6500500","新莊區"
"221036","130-UY","2017/12/12 20:49:42","新北市汐止區忠孝東路274號","121.66344","25.06809","6501100","汐止區"
"221012","276-VK","2017/12/12 16:25:41","新北市汐止區汐萬路一段256巷3號","121.653453333333","25.0745916666667","6501100","汐止區"
"221027","281-BY","2017/12/12 20:49:52","新北市汐止區汐萬路一段141號","121.653543333333","25.0711516666667","6501100","汐止區"
"221029","298-VK","2017/12/12 20:49:53","新北市汐止區汐萬路一段256巷3號","121.652316666667","25.0746733333333","6501100","汐止區"
"221021","299-VK","2017/12/12 20:49:43","新北市汐止區新台五路一段210-1號","121.655643333333","25.0630866666667","6501100","汐止區"
"221015","567-BX","2017/12/12 20:49:50","新北市汐止區大同路二段683號","121.665046666667","25.0720866666667","6501100","汐止區"
"221035","622-UM","2017/12/12 20:49:50","新北市汐止區汐萬路一段310號","121.650451666667","25.0749816666667","6501100","汐止區"
"221038","646-BX","2017/12/12 20:49:41","新北市汐止區汐萬路一段256巷1號","121.651966666667","25.0747433333333","6501100","汐止區"
"221033","647-BX","2017/12/12 20:49:42","台北市南港區合順街8巷7弄38號","121.620266666667","25.041875","6501100","汐止區"
"221018","753-BX","2017/12/12 20:49:39","新北市汐止區大同路二段609號","121.66413","25.0707333333333","6501100","汐止區"
"220080","200-UY","2017/12/12 20:49:52","新北市八里區中山路三段409號","121.368428333333","25.13499","6500100","板橋區"
"220062","305-R5","2017/12/12 20:49:43","新北市板橋區長江路3段1巷15弄1-1號","121.472951666667","25.0367916666667","6500100","板橋區"
"242039","280-VK","2017/12/12 20:49:41","新北市新莊區瓊林北路12號","121.43912","25.0219383333333","6500500","新莊區"
"220070","AAC-253","2017/12/12 20:49:55","新北市八里區中山路三段380號","121.36892","25.136285","6500100","板橋區"
