"lineid","car","time","location","longitude","latitude","cityid","cityname"
"231008","188-VK","2017/07/01 11:26:29","新北市新店區成功路58-1號","121.538566666667","24.899995","6500600","新店區"
"231007","189-VK","2017/07/01 11:29:10","新北市新店區華城路6-1號","121.529286666667","24.9585366666667","6500600","新店區"
"247002","402-BY","2017/07/01 10:46:51","新北市五股區中興路三段3-6號","121.449566666667","25.078715","6501400","蘆洲區"
"227006","282-VK","2017/07/01 11:28:35","新北市雙溪區魚行里坤溪8號","121.866705","25.0207883333333","6502500","雙溪區"
"239005","526-UM","2017/07/01 11:29:06","新北市鶯歌區二甲路13-16號","121.344753333333","24.9351916666667","6500800","鶯歌區"
"239001","417-VK","2017/07/01 11:29:20","新北市鶯歌區二甲路12-2號","121.345798333333","24.935015","6500800","鶯歌區"
