"lineid","car","time","location","longitude","latitude","cityid","cityname"
"234044","148-BY","2017/07/01 13:09:18","新北市永和區永元路20號","121.52229","25.0003866666667","6500400","永和區"
"234012","149-BY","2017/07/01 13:09:10","新北市永和區保福路二段55號","121.510948333333","25.0121233333333","6500400","永和區"
"234005","207-UY","2017/07/01 13:09:14","新北市永和區中山路一段249號","121.507818333333","25.00742","6500400","永和區"
"234078","298-R6","2017/07/01 13:09:09","新北市永和區永貞路39巷6弄2號","121.52174","25.0065733333333","6500400","永和區"
"234036","336-UY","2017/07/01 13:09:10","新北市永和區民樂街70號","121.527401666667","24.99841","6500400","永和區"
"234062","337-UY","2017/07/01 13:09:20","新北市永和區秀朗路二段49號","121.521685","25.0022333333333","6500400","永和區"
"234084","338-UY","2017/07/01 13:09:08","新北市永和區永貞路94號","121.519295","25.0045516666667","6500400","永和區"
"234068","552-UM","2017/07/01 13:09:03","新北市永和區豫溪街74巷7弄9號","121.517676666667","25.00989","6500400","永和區"
"234052","553-UM","2017/07/01 13:09:11","新北市永和區中興街133巷4號","121.518693333333","25.012595","6500400","永和區"
"234015","745-BX","2017/07/01 13:09:14","新北市永和區忠孝街50號","121.514243333333","25.015755","6500400","永和區"
"234030","746-BX","2017/07/01 13:09:20","新北市永和區民生路21號","121.522851666667","24.9988583333333","6500400","永和區"
"234060","AAD-866","2017/07/01 13:09:08","新北市永和區安樂路304巷7號","121.514545","25.0050583333333","6500400","永和區"
"234040","862-TW","2017/07/01 13:09:15","新北市永和區永貞路334號","121.511158333333","25.0055316666667","6500400","永和區"
"234048","863-TW","2017/07/01 13:09:17","新北市永和區文化路135巷26弄1號","121.510585","25.014375","6500400","永和區"
"234025","9371-KE","2017/07/01 13:09:23","新北市永和區水源街14巷2號","121.512361666667","25.004905","6500400","永和區"
"234010","9373-KE","2017/07/01 13:09:19","新北市永和區文化路124號","121.513046666667","25.0153166666667","6500400","永和區"
"248019","225-UY","2017/07/01 13:09:18","新北市五股區成泰路三段101-1號","121.444191666667","25.0902183333333","6501500","五股區"
"234022","9380-KE","2017/07/01 13:09:24","新北市永和區中興街10巷48號","121.51609","25.0110483333333","6500400","永和區"
"234076","969-R7","2017/07/01 13:09:01","新北市永和區民光街11號","121.515541666667","24.99616","6500400","永和區"
"234072","AAC-211","2017/07/01 13:09:15","新北市永和區竹林路198號","121.520475","25.0096416666667","6500400","永和區"
"234066","AAC-212","2017/07/01 13:09:17","新北市永和區永和路一段63號","121.513091666667","25.00692","6500400","永和區"
"234001","AAC-295","2017/07/01 13:07:50","新北市永和區和平街10號","121.514015","25.0100333333333","6500400","永和區"
"244005","248-BX","2017/07/01 13:09:07","新北市林口區頭湖92-2號","121.368556666667","25.08043","6501700","林口區"
"231025","0291-UT","2017/07/01 13:09:15","新北市新店區安華路28-1號","121.519645","24.9607283333333","6500600","新店區"
"231028","046-UY","2017/07/01 13:09:04","新北市新店區安華路28-1號","121.519573333333","24.96081","6500600","新店區"
"231030","047-UY","2017/07/01 12:38:12","新北市新店區安華路28-1號","121.519308333333","24.960905","6500600","新店區"
"231029","106-UY","2017/07/01 13:09:04","新北市新店區安華路28-1號","121.519626666667","24.9608016666667","6500600","新店區"
"231018","107-UY","2017/07/01 13:09:17","新北市新店區安華路28-1號","121.519318333333","24.9612666666667","6500600","新店區"
"231012","108-UY","2017/07/01 13:09:10","新北市新店區安華路28-1號","121.519605","24.9611966666667","6500600","新店區"
"231020","187-VK","2017/07/01 13:09:15","新北市新店區安華路28-1號","121.519426666667","24.9612233333333","6500600","新店區"
"231008","188-VK","2017/07/01 13:09:20","新北市新店區屈尺路161-1號","121.542466666667","24.923295","6500600","新店區"
"231026","256-BX","2017/07/01 13:09:15","新北市新店區安華路28-1號","121.51977","24.96115","6500600","新店區"
"231034","268-BY","2017/07/01 13:09:07","新北市新店區安華路1-1號","121.519331666667","24.9605283333333","6500600","新店區"
"231010","278-BY","2017/07/01 13:09:12","新北市新店區安華路28-1號","121.519636666667","24.9611233333333","6500600","新店區"
"231017","AAD-862","2017/07/01 13:09:05","新北市新店區安華路28-1號","121.519758333333","24.9611433333333","6500600","新店區"
"231002","355-BY","2017/07/01 13:09:16","新北市新店區安華路28-1號","121.519255","24.960885","6500600","新店區"
"231027","3712-VJ","2017/07/01 13:09:08","新北市新店區安華路28-1號","121.519281666667","24.9606583333333","6500600","新店區"
"231038","4715-K9","2017/07/01 13:09:15","新北市新店區安華路1-1號","121.51939","24.9604316666667","6500600","新店區"
"231036","512-UM","2017/07/01 13:09:22","新北市新店區安華路28-1號","121.51939","24.961415","6500600","新店區"
"231023","513-UM","2017/07/01 13:09:14","新北市新店區安華路28-1號","121.519681666667","24.9609583333333","6500600","新店區"
"231035","515-UM","2017/07/01 13:09:04","新北市新店區安華路28-1號","121.519851666667","24.961325","6500600","新店區"
"231003","616-UM","2017/07/01 13:09:18","新北市新店區安華路1-1號","121.519491666667","24.9604416666667","6500600","新店區"
"231006","617-UM","2017/07/01 13:09:15","新北市新店區安華路28-1號","121.51935","24.9609483333333","6500600","新店區"
"231030","618-UM","2017/07/01 03:08:45","新北市新店區安華路28-1號","121.519588333333","24.9608383333333","6500600","新店區"
"231001","619-UM","2017/07/01 13:09:18","新北市新店區安華路28-1號","121.519733333333","24.960995","6500600","新店區"
"231013","719-UM","2017/07/01 13:09:10","新北市新店區安華路28-1號","121.5195","24.9613366666667","6500600","新店區"
"231033","720-UM","2017/07/01 13:09:06","新北市新店區安華路28-1號","121.519153333333","24.9612666666667","6500600","新店區"
"231005","897-TW","2017/07/01 13:09:15","新北市新店區安華路28-1號","121.51967","24.9606566666667","6500600","新店區"
"231004","899-TW","2017/07/01 13:09:13","新北市新店區安華路28-1號","121.518903333333","24.960975","6500600","新店區"
"231037","AKT-0513","2017/07/01 13:09:13","新北市新店區安華路1-1號","121.519475","24.960475","6500600","新店區"
"235030","003-UY","2017/07/01 13:09:06","新北市中和區廣福路87號","121.501985","25.0009366666667","6500300","中和區"
"235028","005-UY","2017/07/01 13:09:04","新北市中和區中正路281-1號","121.494888333333","24.99375","6500300","中和區"
"235027","006-UY","2017/07/01 13:09:10","新北市中和區員山路36巷16-3號","121.48508","24.9913233333333","6500300","中和區"
"235026","031-BX","2017/07/01 13:09:19","新北市中和區中山路二段472號","121.488165","25.0047233333333","6500300","中和區"
"235004","150-BY","2017/07/01 13:09:12","新北市中和區和城路一段271巷1號","121.48543","24.9917133333333","6500300","中和區"
"235022","151-BY","2017/07/01 13:09:22","新北市中和區圓通路367巷58號","121.492215","24.9844633333333","6500300","中和區"
"235019","183-VK","2017/07/01 13:09:07","新北市中和區員山路36巷16-2號","121.485193333333","24.9914","6500300","中和區"
"235002","185-VK","2017/07/01 13:09:03","新北市永和區民生路67巷46號","121.525068333333","24.9974583333333","6500300","中和區"
"235031","255-BX","2017/07/01 13:09:06","新北市中和區中正路891號","121.484235","25.0045066666667","6500300","中和區"
"235036","301-VK","2017/07/01 13:09:17","新北市中和區員山路36巷12號","121.483906666667","24.9909366666667","6500300","中和區"
"235015","376-QA","2017/07/01 13:08:34","新北市中和區中正路305號","121.492453333333","24.993875","6500300","中和區"
"235025","378-QA","2017/07/01 13:09:12","新北市中和區員山路36巷16-2號","121.485306666667","24.99166","6500300","中和區"
"235014","4979-A6","2017/07/01 13:09:10","新北市中和區中正路571巷2弄1號","121.486478333333","24.993435","6500300","中和區"
"235033","4980-A6","2017/07/01 13:09:14","新北市中和區中正路571巷1弄4號","121.486868333333","24.993665","6500300","中和區"
"235006","551-UM","2017/07/01 13:09:18","新北市中和區景平路279-5號","121.507608333333","24.9930933333333","6500300","中和區"
"235018","640-BX","2017/07/01 13:09:03","新北市中和區中正路637巷52弄1號","121.485536666667","24.993455","6500300","中和區"
"235035","783-BX","2017/07/01 13:09:02","新北市中和區板南路520巷2號","121.483678333333","25.00879","6500300","中和區"
"235005","802-TS","2017/07/01 13:09:12","新北市中和區和城路一段271巷1號","121.485463333333","24.9916383333333","6500300","中和區"
"235016","805-TS","2017/07/01 13:09:18","新北市中和區錦和路350-1號","121.490448333333","24.9935483333333","6500300","中和區"
"235001","AAC-213","2017/07/01 13:09:09","新北市中和區中正路271號","121.495806666667","24.99377","6500300","中和區"
"235023","AAC-215","2017/07/01 13:09:11","新北市中和區員山路36巷16-3號","121.485143333333","24.9913433333333","6500300","中和區"
"220013","072-UY","2017/07/01 13:09:07","新北市板橋區民生路二段22號","121.472861666667","25.016595","6500100","板橋區"
"247002","402-BY","2017/07/01 13:09:18","新北市蘆洲區長安街307號","121.457696666667","25.0851816666667","6501400","蘆洲區"
"228005","097-TW","2017/07/01 13:09:13","新北市貢寮區仁理村研海街62-2號","121.925658333333","25.0450683333333","6502600","貢寮區"
"228004","212-TW","2017/07/01 13:09:18","新北市貢寮區吉林里內寮街71-1號","121.892761666667","24.9734466666667","6502600","貢寮區"
"208004","AAC-292","2017/07/01 13:09:19","新北市金山區中山路192號","121.637781666667","25.2215616666667","6502700","金山區"
"207002","749-BX","2017/07/01 13:09:08","新北市萬里區崁腳里內崁路10-1號","121.641623333333","25.1594533333333","6502800","萬里區"
"207001","463-BY","2017/07/01 13:09:09","新北市萬里區萬里里瑪鋉路20號","121.68867","25.1768366666667","6502800","萬里區"
"252005","073-UM","2017/07/01 13:09:07","新北市三芝區八賢里八連溪19號","121.510841666667","25.2418916666667","6502100","三芝區"
"236006","498-BY","2017/07/01 13:09:13","新北市土城區亞洲路112號","121.434153333333","24.972175","6501300","土城區"
"238021","311-TH","2017/07/01 13:07:48","新北市樹林區東豐街49巷56號","121.415845","24.9743866666667","6500700","樹林區"
"221010","276-VK","2017/07/01 13:09:24","新北市汐止區大同路二段364號","121.657518333333","25.0672166666667","6501100","汐止區"
"221032","280-BY","2017/07/01 13:09:07","新北市汐止區龍安路171號","121.653658333333","25.0632966666667","6501100","汐止區"
"221002","753-BX","2017/07/01 13:09:10","新北市汐止區福德一路342巷1弄8號","121.629158333333","25.0632616666667","6501100","汐止區"
"220011","609-BX","2017/07/01 00:57:04","新北市板橋區民生路二段36-1號","121.472475","25.01653","6500100","板橋區"
