"lineid","car","time","location","longitude","latitude","cityid","cityname"
"234005","207-UY","2017/07/01 14:29:14","新北市永和區安樂路166號","121.514625","25.00085","6500400","永和區"
"234078","298-R6","2017/07/01 14:29:07","新北市永和區永貞路80號","121.520143333333","25.0051266666667","6500400","永和區"
"234036","336-UY","2017/07/01 14:29:10","新北市永和區成功路二段201巷10弄10號","121.527785","24.9957933333333","6500400","永和區"
"234062","337-UY","2017/07/01 14:29:20","新北市永和區中正路417號","121.517108333333","25.004915","6500400","永和區"
"234084","338-UY","2017/07/01 14:29:08","新北市永和區永和路二段314號","121.516171666667","25.01619","6500400","永和區"
"234052","553-UM","2017/07/01 14:29:11","新北市永和區環河東路一段80號","121.519586666667","25.016515","6500400","永和區"
"234030","746-BX","2017/07/01 14:29:20","新北市板橋區文化路二段656號","121.480576666667","25.0383983333333","6500400","永和區"
"234060","AAD-866","2017/07/01 14:29:08","新北市永和區安樂路194巷30號","121.516513333333","25.0011533333333","6500400","永和區"
"234040","862-TW","2017/07/01 14:29:15","新北市永和區安樂路248號","121.514705","25.0032716666667","6500400","永和區"
"234048","863-TW","2017/07/01 14:29:17","新北市永和區環河西路二段107號","121.506435","25.014625","6500400","永和區"
"234025","9371-KE","2017/07/01 14:29:23","新北市永和區安樂路144巷24號","121.515045","24.99959","6500400","永和區"
"248019","225-UY","2017/07/01 14:16:18","新北市五股區壟路16號","121.415413333333","25.0855966666667","6501500","五股區"
"234022","9380-KE","2017/07/01 14:29:04","新北市永和區保生路55-1號","121.504506666667","25.0108733333333","6500400","永和區"
"234072","AAC-211","2017/07/01 14:29:15","新北市永和區環河東路二段20號","121.522281666667","25.0131516666667","6500400","永和區"
"234066","AAC-212","2017/07/01 14:29:17","新北市永和區保平路236巷1弄1號","121.509101666667","25.0057433333333","6500400","永和區"
"234001","AAC-295","2017/07/01 14:27:30","新北市永和區自強街4號","121.514295","25.0080033333333","6500400","永和區"
"231025","0291-UT","2017/07/01 14:29:15","新北市新店區民族路106號","121.538906666667","24.9780466666667","6500600","新店區"
"231028","046-UY","2017/07/01 14:29:04","新北市新店區安成街2巷1號","121.510853333333","24.96025","6500600","新店區"
"231030","047-UY","2017/07/01 12:38:12","新北市新店區安華路28-1號","121.519308333333","24.960905","6500600","新店區"
"231029","106-UY","2017/07/01 14:29:04","新北市新店區安康路二段335號","121.498995","24.95628","6500600","新店區"
"231018","107-UY","2017/07/01 14:29:16","新北市新店區中央三街55號","121.527273333333","24.9747466666667","6500600","新店區"
"231012","108-UY","2017/07/01 14:29:20","新北市新店區中興路二段240號","121.547876666667","24.9756016666667","6500600","新店區"
"231020","187-VK","2017/07/01 14:29:15","新北市新店區桂山路37號","121.561791666667","24.9044116666667","6500600","新店區"
"231034","268-BY","2017/07/01 14:29:07","新北市新店區車子路11號","121.502946666667","24.951565","6500600","新店區"
"231017","AAD-862","2017/07/01 14:29:05","新北市新店區北宜路三段86號","121.577633333333","24.9514883333333","6500600","新店區"
"231002","355-BY","2017/07/01 14:29:16","新北市新店區中正路397號","121.534505","24.9774283333333","6500600","新店區"
"231027","3712-VJ","2017/07/01 14:29:08","新北市新店區北新路二段228巷11號","121.54347","24.977275","6500600","新店區"
"231038","4715-K9","2017/07/01 14:29:14","新北市新店區溪洲路93號","121.53308","24.9610766666667","6500600","新店區"
"231036","512-UM","2017/07/01 14:29:19","新北市新店區安祥路109巷151弄12號","121.478125","24.9588866666667","6500600","新店區"
"231023","513-UM","2017/07/01 14:29:14","新北市新店區北宜路一段3號","121.53851","24.9584233333333","6500600","新店區"
"231035","515-UM","2017/07/01 14:29:04","新北市新店區安光路10-1號","121.51361","24.9641816666667","6500600","新店區"
"231003","616-UM","2017/07/01 14:29:18","新北市新店區中興路一段267-4號","121.544968333333","24.9679416666667","6500600","新店區"
"231006","617-UM","2017/07/01 14:29:15","新北市新店區北宜路二段340號","121.562671666667","24.9537366666667","6500600","新店區"
"231030","618-UM","2017/07/01 14:29:09","新北市新店區安民街67號","121.516478333333","24.966695","6500600","新店區"
"231001","619-UM","2017/07/01 14:29:18","新北市新店區北新路一段96巷23號","121.54304","24.9688216666667","6500600","新店區"
"231013","719-UM","2017/07/01 14:29:09","新北市新店區民權路100-1號","121.536275","24.9833533333333","6500600","新店區"
"231005","897-TW","2017/07/01 14:29:15","新北市新店區北新路二段260號","121.543116666667","24.9783816666667","6500600","新店區"
"231004","899-TW","2017/07/01 14:29:13","新北市新店區中正路263-5號","121.538241666667","24.9738733333333","6500600","新店區"
"235030","003-UY","2017/07/01 14:29:06","新北市中和區中和路102號","121.50273","24.99974","6500300","中和區"
"235028","005-UY","2017/07/01 14:29:03","新北市中和區南山路81巷60號","121.504083333333","24.99805","6500300","中和區"
"235027","006-UY","2017/07/01 14:29:10","新北市中和區連城路203巷10弄9號","121.494893333333","24.996865","6500300","中和區"
"235026","031-BX","2017/07/01 14:29:19","新北市中和區中山路二段488-1號","121.487518333333","25.00487","6500300","中和區"
"235020","096-UM","2017/07/01 14:29:16","新北市中和區員山路514巷16號","121.479613333333","25.00951","6500300","中和區"
"235003","097-UM","2017/07/01 14:29:18","新北市中和區秀峰街70號","121.520408333333","24.9906616666667","6500300","中和區"
"235004","150-BY","2017/07/01 14:29:12","新北市中和區宜安路1巷37號","121.512306666667","24.9940116666667","6500300","中和區"
"235022","151-BY","2017/07/01 14:29:22","新北市中和區連城路503號","121.482533333333","24.99549","6500300","中和區"
"235019","183-VK","2017/07/01 14:29:09","新北市中和區中山路三段181巷30號","121.473171666667","25.0049933333333","6500300","中和區"
"235002","185-VK","2017/07/01 14:29:03","新北市中和區大仁街20巷50號","121.520228333333","24.9932516666667","6500300","中和區"
"235013","186-VK","2017/07/01 14:29:12","新北市中和區安和路9號","121.511471666667","24.9935133333333","6500300","中和區"
"235031","255-BX","2017/07/01 14:29:05","新北市中和區連城路461號","121.484253333333","24.996075","6500300","中和區"
"235008","293-VK","2017/07/01 14:29:06","新北市中和區中興街263-1號","121.500003333333","24.9887766666667","6500300","中和區"
"235036","301-VK","2017/07/01 14:29:17","新北市中和區中山路二段3巷22弄9號","121.506325","25.005","6500300","中和區"
"235007","352-BY","2017/07/01 14:29:13","新北市中和區景平路296號","121.512833333333","24.9926","6500300","中和區"
"235015","376-QA","2017/07/01 14:29:20","新北市中和區興南路一段83號","121.509981666667","24.989015","6500300","中和區"
"235032","377-QA","2017/07/01 14:29:17","新北市中和區連勝街57巷9號","121.49805","24.9970066666667","6500300","中和區"
"235025","378-QA","2017/07/01 14:29:12","新北市中和區民利街9巷2弄16號","121.480096666667","24.998685","6500300","中和區"
"235014","4979-A6","2017/07/01 14:29:10","新北市中和區員山路36巷16-3號","121.484736666667","24.99126","6500300","中和區"
"235033","4980-A6","2017/07/01 14:29:14","新北市中和區中正路458號","121.49055","24.9939516666667","6500300","中和區"
"235006","551-UM","2017/07/01 14:29:18","新北市中和區中和路350巷15弄21號","121.510941666667","25.0013366666667","6500300","中和區"
"235034","558-UM","2017/07/01 14:29:14","新北市中和區中和路2號","121.49942","25.002485","6500300","中和區"
"235009","565-BX","2017/07/01 14:29:17","新北市中和區景新街467巷38弄6號","121.514816666667","24.98863","6500300","中和區"
"235018","640-BX","2017/07/01 14:29:03","新北市中和區國光街109巷27號","121.469473333333","24.99939","6500300","中和區"
"235024","647-TV","2017/07/01 14:29:15","新北市中和區員山路294巷17號","121.48223","25.0024316666667","6500300","中和區"
"235011","732-UM","2017/07/01 14:29:19","新北市中和區景平路241巷19號","121.50913","24.99254","6500300","中和區"
"235035","783-BX","2017/07/01 14:29:22","新北市中和區中正路768號","121.485268333333","24.99982","6500300","中和區"
"235021","801-TS","2017/07/01 14:29:22","新北市中和區員山路469巷1號","121.480191666667","25.0045466666667","6500300","中和區"
"235005","802-TS","2017/07/01 14:29:11","新北市中和區宜安路102號","121.510513333333","24.9978916666667","6500300","中和區"
"235016","805-TS","2017/07/01 14:29:18","新北市中和區華新街143巷19號","121.506596666667","24.9809383333333","6500300","中和區"
"235012","896-TW","2017/07/01 14:29:09","新北市中和區忠孝街72號","121.511993333333","24.9841616666667","6500300","中和區"
"235017","900-TW","2017/07/01 14:29:14","新北市中和區華順街30巷5號","121.467185","24.9990583333333","6500300","中和區"
"235003","157-BY","2017/07/01 14:29:05","新北市中和區忠孝街37巷6號","121.51097","24.98385","6500300","中和區"
"235001","AAC-213","2017/07/01 14:29:09","新北市中和區秀朗路三段60巷29號","121.525315","24.9949516666667","6500300","中和區"
"235023","AAC-215","2017/07/01 14:29:11","新北市中和區圓通路252巷5弄1號","121.493505","24.9913683333333","6500300","中和區"
"220016","013-TV","2017/07/01 14:29:15","新北市板橋區中山路二段531巷40號","121.48259","25.0225883333333","6500100","板橋區"
"220013","072-UY","2017/07/01 14:29:07","新北市板橋區國泰街39巷4弄31號","121.467753333333","25.0058483333333","6500100","板橋區"
"220034","073-UY","2017/07/01 14:29:14","新北市板橋區中正路236巷47號","121.457846666667","25.0195583333333","6500100","板橋區"
"220017","AAD-861","2017/07/01 14:29:22","新北市板橋區四川路一段106號","121.459766666667","25.0046283333333","6500100","板橋區"
"220105","120-SR","2017/07/01 14:29:03","新北市板橋區江寧路三段131巷2號","121.47369","25.0333833333333","6500100","板橋區"
"247019","893-R6","2017/07/01 14:29:13","新北市蘆洲區民族路492號","121.46992","25.0908933333333","6501400","蘆洲區"
"247009","546-UM","2017/07/01 14:29:11","新北市蘆洲區信義路146號","121.479515","25.0831383333333","6501400","蘆洲區"
"247017","500-BY","2017/07/01 14:29:15","新北市蘆洲區復興路227巷26號","121.479418333333","25.0911466666667","6501400","蘆洲區"
"247002","402-BY","2017/07/01 14:29:18","新北市八里區荖阡坑路22-7號","121.398565","25.1365166666667","6501400","蘆洲區"
"247005","341-TH","2017/07/01 14:29:02","新北市蘆洲區長安街46巷10號","121.463788333333","25.080085","6501400","蘆洲區"
"247007","339-TH","2017/07/01 14:29:08","新北市蘆洲區民生街9號","121.475973333333","25.0791283333333","6501400","蘆洲區"
"247023","337-TH","2017/07/01 14:29:04","新北市蘆洲區中正路245號","121.46769","25.0870433333333","6501400","蘆洲區"
"247001","335-TH","2017/07/01 14:29:21","新北市蘆洲區永樂街38巷45弄5號","121.457983333333","25.0898166666667","6501400","蘆洲區"
"247013","057-VK","2017/07/01 14:29:21","新北市蘆洲區中山二路170號","121.470808333333","25.0808066666667","6501400","蘆洲區"
"247003","056-VK","2017/07/01 14:29:04","新北市蘆洲區長安街152號","121.459916666667","25.0825683333333","6501400","蘆洲區"
"247011","007-UY","2017/07/01 14:29:09","新北市蘆洲區中興街132號","121.482201666667","25.0894333333333","6501400","蘆洲區"
"247021","002-UY","2017/07/01 14:29:14","新北市蘆洲區中正路507號","121.461561666667","25.0972383333333","6501400","蘆洲區"
"247015","001-UY","2017/07/01 14:29:19","新北市蘆洲區光華路69號","121.468171666667","25.082705","6501400","蘆洲區"
"228005","097-TW","2017/07/01 14:29:13","新北市貢寮區美豐里巫里岸9-1號","121.901958333333","25.0700566666667","6502600","貢寮區"
"228004","212-TW","2017/07/01 14:29:18","新北市貢寮區雙玉里田寮洋街33-1號","121.932248333333","25.0135783333333","6502600","貢寮區"
"208004","AAC-292","2017/07/01 14:29:11","新北市金山區重和里六股林口53-2號","121.602043333333","25.2198733333333","6502700","金山區"
"207002","749-BX","2017/07/01 14:24:48","新北市萬里區溪底里富士坪路24-2號","121.620723333333","25.1523","6502800","萬里區"
"207001","463-BY","2017/07/01 14:29:09","新北市萬里區磺潭里清水13號","121.639268333333","25.1991383333333","6502800","萬里區"
"252005","073-UM","2017/07/01 14:29:07","新北市三芝區橫山里大坑34號","121.52752","25.255195","6502100","三芝區"
"236068","105-UM","2017/07/01 14:29:05","新北市土城區永豐路205-5號","121.474706666667","24.9779","6501300","土城區"
"236041","107-UM","2017/07/01 14:29:24","新北市土城區裕民路61巷4號","121.449385","24.988025","6501300","土城區"
"236075","166-UM","2017/07/01 14:29:16","新北市土城區大暖路6號","121.423095","24.96075","6501300","土城區"
"236029","253-BX","2017/07/01 14:29:16","新北市土城區水源街81巷7號","121.43942","24.9758416666667","6501300","土城區"
"236025","269-VK","2017/07/01 14:29:04","新北市土城區承天路28-4號","121.43985","24.963155","6501300","土城區"
"236013","270-VK","2017/07/01 14:29:16","新北市土城區青雲路39巷7號","121.460323333333","24.9875283333333","6501300","土城區"
"236035","271-VK","2017/07/01 14:29:16","新北市土城區青雲路451巷6號","121.459563333333","24.97466","6501300","土城區"
"236017","401-BY","2017/07/01 14:29:12","新北市土城區永豐路202巷5-2號","121.466328333333","24.9833033333333","6501300","土城區"
"236057","912-UM","2017/07/01 14:29:13","新北市土城區中央路四段466號","121.409971666667","24.9505566666667","6501300","土城區"
"236045","913-UM","2017/07/01 14:29:18","新北市土城區青雲路409號","121.458871666667","24.9757383333333","6501300","土城區"
"236061","915-UM","2017/07/01 14:29:18","新北市土城區延壽路111巷2-1號","121.469105","24.9937","6501300","土城區"
"236054","AAC-216","2017/07/01 14:29:06","新北市土城區中華路二段133號","121.439038333333","24.9763666666667","6501300","土城區"
"238021","311-TH","2017/07/01 13:07:48","新北市樹林區東豐街49巷56號","121.415845","24.9743866666667","6500700","樹林區"
"221010","276-VK","2017/07/01 13:36:38","新北市汐止區汐萬路一段256巷3號","121.653433333333","25.0746016666667","6501100","汐止區"
"221032","280-BY","2017/07/01 14:27:47","台北市文山區指南路三段115-8號","121.582458333333","24.9781633333333","6501100","汐止區"
"220027","145-BY","2017/07/01 14:29:11","新北市板橋區民權路202巷18弄1號","121.460815","25.01661","6500100","板橋區"
"220028","200-UY","2017/07/01 14:29:18","新北市板橋區大觀路二段3巷38號","121.448436666667","25.00359","6500100","板橋區"
"220030","610-BX","2017/07/01 14:29:10","新北市板橋區金門街362號","121.4274","24.9841066666667","6500100","板橋區"
"220050","245-BX","2017/07/01 14:29:12","新北市板橋區縣民大道三段133巷6號","121.477571666667","25.023445","6500100","板橋區"
"220052","257-TC","2017/07/01 14:29:08","新北市板橋區文化路一段270巷3弄2號","121.467545","25.0208016666667","6500100","板橋區"
"220004","276-BY","2017/07/01 14:29:21","新北市板橋區信義路1巷26弄48號","121.459283333333","24.996515","6500100","板橋區"
"220020","277-BY","2017/07/01 14:29:22","新北市板橋區金門街236號","121.430721666667","24.98735","6500100","板橋區"
"220021","282-UM","2017/07/01 14:29:01","新北市板橋區新生街92號","121.458201666667","25.0217766666667","6500100","板橋區"
"220043","283-UM","2017/07/01 14:29:20","新北市板橋區吳鳳路50巷73號","121.469753333333","25.03031","6500100","板橋區"
"220019","283-VK","2017/07/01 14:29:15","新北市板橋區重慶路236號","121.462645","25.0014533333333","6500100","板橋區"
"220001","285-VK","2017/07/01 14:29:17","新北市板橋區富山街15號","121.478156666667","25.02177","6500100","板橋區"
"220031","286-VK","2017/07/01 14:29:15","新北市板橋區大觀路一段38巷156弄2號","121.442408333333","25.0044666666667","6500100","板橋區"
"220029","287-VK","2017/07/01 14:29:13","新北市板橋區南雅南路一段106號","121.45495","25.004315","6500100","板橋區"
"220039","288-VK","2017/07/01 14:29:08","新北市板橋區裕民街74號","121.460898333333","25.028385","6500100","板橋區"
"220009","293-UM","2017/07/01 14:29:12","新北市板橋區中山路二段255巷7號","121.477","25.0179016666667","6500100","板橋區"
"220032","296-UM","2017/07/01 14:29:11","新北市板橋區篤行路三段玉平巷76弄2號","121.428005","24.985595","6500100","板橋區"
"220023","297-UM","2017/07/01 14:29:06","新北市板橋區南雅西路一段110號","121.452923333333","25.0063066666667","6500100","板橋區"
"220041","299-UM","2017/07/01 14:29:16","新北市板橋區光武街2巷43號","121.468318333333","25.0258616666667","6500100","板橋區"
"220010","305-R5","2017/07/01 03:28:31","新北市板橋區民生路二段56-1號","121.472365","25.0169433333333","6500100","板橋區"
"220047","317-R6","2017/07/01 14:29:08","新北市板橋區民生路三段263巷4弄2號","121.463781666667","25.0296383333333","6500100","板橋區"
"220012","486-VK","2017/07/01 14:29:21","新北市板橋區中山路一段37號","121.460541666667","25.008785","6500100","板橋區"
"220038","487-VK","2017/07/01 14:29:16","新北市板橋區文化路一段213號","121.463543333333","25.01693","6500100","板橋區"
"220037","491-VK","2017/07/01 14:29:09","新北市板橋區雙十路二段85號","121.475548333333","25.0272716666667","6500100","板橋區"
"220104","560-BX","2017/07/01 14:29:16","新北市板橋區中正路399巷2號","121.453946666667","25.0222616666667","6500100","板橋區"
"220011","609-BX","2017/07/01 14:29:20","新北市板橋區三民路二段99號","121.479291666667","25.0162316666667","6500100","板橋區"
"220040","637-BX","2017/07/01 14:29:20","新北市板橋區文聖街132號","121.478363333333","25.0282166666667","6500100","板橋區"
"220005","686-BX","2017/07/01 14:29:14","新北市板橋區和平路143巷14號","121.463158333333","24.9960433333333","6500100","板橋區"
"220025","687-BX","2017/07/01 14:29:11","新北市板橋區僑中二街52號","121.446738333333","25.0102216666667","6500100","板橋區"
"220042","689-BX","2017/07/01 14:29:22","新北市板橋區新海路174號","121.460668333333","25.0235783333333","6500100","板橋區"
"220002","741-BX","2017/07/01 14:29:08","新北市板橋區光明街86號","121.461856666667","25.0027733333333","6500100","板橋區"
"220003","827-TW","2017/07/01 14:29:17","新北市板橋區重慶路290巷18號","121.462516666667","24.99882","6500100","板橋區"
"220014","829-TW","2017/07/01 14:29:14","新北市板橋區漢生東路299巷24號","121.472545","25.0087316666667","6500100","板橋區"
"220051","830-TW","2017/07/01 14:29:13","新北市板橋區松柏街25-4號","121.474898333333","25.0300416666667","6500100","板橋區"
"220045","831-TW","2017/07/01 14:29:20","新北市板橋區莊敬路168號","121.471756666667","25.022505","6500100","板橋區"
"220022","895-R6","2017/07/01 14:29:22","新北市板橋區館前西路150-5號","121.455613333333","25.0086383333333","6500100","板橋區"
"220046","AAC-210","2017/07/01 14:29:17","新北市板橋區漢生西路163號","121.463193333333","25.0231466666667","6500100","板橋區"
"220018","AAC-253","2017/07/01 14:29:08","新北市板橋區忠孝路156號","121.46402","25.002455","6500100","板橋區"
