"lineid","car","time","location","longitude","latitude","cityid","cityname"
"234062","337-UY","2017/07/01 14:39:01","新北市中和區永和路103巷15弄4號","121.494753333333","25.0077833333333","6500400","永和區"
"234084","338-UY","2017/07/01 14:39:08","新北市永和區光復街21號","121.516451666667","25.01741","6500400","永和區"
"234030","746-BX","2017/07/01 14:38:40","新北市五股區中直路17-4號","121.422671666667","25.1113316666667","6500400","永和區"
"234060","AAD-866","2017/07/01 14:39:08","新北市永和區中正路381號","121.517276666667","25.003635","6500400","永和區"
"234040","862-TW","2017/07/01 14:39:15","新北市永和區永和路一段157-1號","121.514346666667","25.0097016666667","6500400","永和區"
"234025","9371-KE","2017/07/01 14:39:03","新北市永和區中和路501巷5號","121.510453333333","25.002555","6500400","永和區"
"248019","225-UY","2017/07/01 14:16:18","新北市五股區壟路16號","121.415413333333","25.0855966666667","6501500","五股區"
"234066","AAC-212","2017/07/01 14:39:17","新北市永和區保平路292巷46弄2號","121.507493333333","25.0053583333333","6500400","永和區"
"234001","AAC-295","2017/07/01 14:36:50","新北市永和區中正路618-1號","121.517068333333","25.0077566666667","6500400","永和區"
"231025","0291-UT","2017/07/01 14:39:15","新北市新店區民族路163號","121.537691666667","24.9766383333333","6500600","新店區"
"231028","046-UY","2017/07/01 14:39:04","新北市新店區安德街60巷21號","121.51089","24.9629866666667","6500600","新店區"
"231030","047-UY","2017/07/01 12:38:12","新北市新店區安華路28-1號","121.519308333333","24.960905","6500600","新店區"
"231029","106-UY","2017/07/01 14:39:04","新北市新店區安康路三段242-1號","121.487815","24.9517516666667","6500600","新店區"
"231018","107-UY","2017/07/01 14:39:16","新北市新店區中央五街1號","121.530221666667","24.97408","6500600","新店區"
"231012","108-UY","2017/07/01 14:39:10","新北市新店區寶橋路76號","121.546638333333","24.974885","6500600","新店區"
"231020","187-VK","2017/07/01 14:39:15","新北市新店區新烏路二段50巷5號","121.548601666667","24.9272216666667","6500600","新店區"
"231034","268-BY","2017/07/01 14:39:07","新北市新店區黎明路52巷1號","121.502326666667","24.9485633333333","6500600","新店區"
"231017","AAD-862","2017/07/01 14:39:05","新北市新店區北宜路三段225-1號","121.593011666667","24.953135","6500600","新店區"
"231002","355-BY","2017/07/01 14:39:16","新北市新店區中正路468號","121.534","24.97952","6500600","新店區"
"231027","3712-VJ","2017/07/01 14:39:08","新北市新店區中正路76巷11弄19號","121.54371","24.9717166666667","6500600","新店區"
"231038","4715-K9","2017/07/01 14:39:14","新北市新店區安康路一段89號","121.529231666667","24.9615","6500600","新店區"
"231036","512-UM","2017/07/01 14:39:19","新北市新店區安祥路106巷56號","121.476446666667","24.9613583333333","6500600","新店區"
"231023","513-UM","2017/07/01 14:39:19","新北市新店區檳榔路25號","121.541716666667","24.9637366666667","6500600","新店區"
"231035","515-UM","2017/07/01 14:39:10","新北市新店區安康路二段118-11號","121.513121666667","24.9635033333333","6500600","新店區"
"231003","616-UM","2017/07/01 14:39:18","新北市新店區中興路一段306號","121.546381666667","24.9699416666667","6500600","新店區"
"231006","617-UM","2017/07/01 14:39:15","新北市新店區北宜路二段82-1號","121.553593333333","24.9532933333333","6500600","新店區"
"231030","618-UM","2017/07/01 14:39:09","新北市新店區安民街202號","121.517201666667","24.97186","6500600","新店區"
"231001","619-UM","2017/07/01 14:39:18","新北市新店區北新路二段2號","121.542895","24.9706883333333","6500600","新店區"
"231013","719-UM","2017/07/01 14:39:10","新北市新店區明德路22號","121.54212","24.9770066666667","6500600","新店區"
"231005","897-TW","2017/07/01 14:39:19","新北市新店區北新路三段236號","121.540836666667","24.9852716666667","6500600","新店區"
"231004","899-TW","2017/07/01 14:39:13","新北市新店區中正路263-5號","121.538173333333","24.9739366666667","6500600","新店區"
"235030","003-UY","2017/07/01 14:39:06","新北市中和區安和路159號","121.506238333333","24.9971983333333","6500300","中和區"
"235028","005-UY","2017/07/01 14:39:03","新北市中和區南山路127巷18弄9號","121.503663333333","24.9968983333333","6500300","中和區"
"235027","006-UY","2017/07/01 14:39:10","新北市中和區連城路237-1號","121.493865","24.9973866666667","6500300","中和區"
"235026","031-BX","2017/07/01 14:39:19","新北市中和區中山路二段369號","121.487526666667","25.00483","6500300","中和區"
"235020","096-UM","2017/07/01 14:39:16","新北市中和區員山路514巷16號","121.479711666667","25.00963","6500300","中和區"
"235003","097-UM","2017/07/01 14:39:18","新北市中和區景平路73號","121.518963333333","24.9913816666667","6500300","中和區"
"235004","150-BY","2017/07/01 14:39:12","新北市中和區宜安路11巷11號","121.512845","24.9951566666667","6500300","中和區"
"235022","151-BY","2017/07/01 14:39:02","新北市中和區連城路374巷4弄1號","121.481516666667","24.995785","6500300","中和區"
"235019","183-VK","2017/07/01 14:39:08","新北市中和區德光路27巷21號","121.47109","25.003285","6500300","中和區"
"235002","185-VK","2017/07/01 14:39:03","新北市中和區立人街39號","121.520803333333","24.994155","6500300","中和區"
"235013","186-VK","2017/07/01 14:39:12","新北市中和區安平路14號","121.509216666667","24.9941066666667","6500300","中和區"
"235031","255-BX","2017/07/01 14:39:05","新北市中和區新生街268號","121.483445","24.9971416666667","6500300","中和區"
"235008","293-VK","2017/07/01 14:39:06","新北市中和區復興路291號","121.501811666667","24.9902883333333","6500300","中和區"
"235036","301-VK","2017/07/01 14:39:17","新北市中和區中山路二段3巷22弄36號","121.505825","25.0041733333333","6500300","中和區"
"235007","352-BY","2017/07/01 14:39:13","新北市中和區景平路460號","121.50588","24.9935633333333","6500300","中和區"
"235015","376-QA","2017/07/01 14:39:14","新北市中和區中興街148號","121.498975","24.9917083333333","6500300","中和區"
"235032","377-QA","2017/07/01 14:39:18","新北市中和區枋寮街81號","121.500931666667","25.0013133333333","6500300","中和區"
"235025","378-QA","2017/07/01 14:39:12","新北市中和區員山路174巷9號","121.482003333333","24.9999433333333","6500300","中和區"
"235014","4979-A6","2017/07/01 14:39:10","新北市中和區景平路335-3號","121.505498333333","24.9931916666667","6500300","中和區"
"235006","551-UM","2017/07/01 14:39:18","新北市中和區保健路2巷30號","121.507025","24.99744","6500300","中和區"
"235034","558-UM","2017/07/01 14:39:14","新北市中和區中和路25號","121.499821666667","25.0020383333333","6500300","中和區"
"235009","565-BX","2017/07/01 14:39:17","新北市中和區景新街437巷30號","121.514826666667","24.9894783333333","6500300","中和區"
"235018","640-BX","2017/07/01 14:39:03","新北市中和區國光街112巷24弄2號","121.470676666667","25.002405","6500300","中和區"
"235024","647-TV","2017/07/01 14:39:15","新北市中和區員山路314巷7弄2號","121.482226666667","25.0030716666667","6500300","中和區"
"235011","732-UM","2017/07/01 14:39:19","新北市中和區景平路329巷2弄10號","121.50544","24.99294","6500300","中和區"
"235035","783-BX","2017/07/01 14:39:21","新北市中和區中正路639號","121.48524","24.9955883333333","6500300","中和區"
"235021","801-TS","2017/07/01 14:39:22","新北市中和區中山路三段2號","121.479761666667","25.0060966666667","6500300","中和區"
"235005","802-TS","2017/07/01 14:39:12","新北市中和區景安路50號","121.506573333333","24.9982083333333","6500300","中和區"
"235016","805-TS","2017/07/01 14:39:18","新北市中和區華新街143巷70號","121.506271666667","24.9791133333333","6500300","中和區"
"235012","896-TW","2017/07/01 14:39:04","新北市新店區安和路三段136號","121.516248333333","24.9860316666667","6500300","中和區"
"235017","900-TW","2017/07/01 14:39:14","新北市中和區民德路197號","121.469335","24.9979633333333","6500300","中和區"
"235003","157-BY","2017/07/01 14:39:05","新北市中和區忠孝街39-2號","121.511556666667","24.9839833333333","6500300","中和區"
"235001","AAC-213","2017/07/01 14:39:09","新北市中和區秀朗路三段50巷21號","121.52458","24.9951283333333","6500300","中和區"
"235023","AAC-215","2017/07/01 14:39:11","新北市中和區圓通路321-5號","121.49258","24.9907316666667","6500300","中和區"
"220016","013-TV","2017/07/01 14:39:15","新北市板橋區中山路二段416巷36-1號","121.483111666667","25.0197916666667","6500100","板橋區"
"220013","072-UY","2017/07/01 14:39:07","新北市板橋區實踐路93巷101號","121.467241666667","25.00591","6500100","板橋區"
"220034","073-UY","2017/07/01 14:39:14","新北市板橋區國光路168號","121.460318333333","25.01822","6500100","板橋區"
"220017","AAD-861","2017/07/01 14:39:22","新北市板橋區貴興路29號","121.457656666667","25.004095","6500100","板橋區"
"220105","120-SR","2017/07/01 14:39:22","新北市板橋區民治街26巷12號","121.477411666667","25.0336916666667","6500100","板橋區"
"247002","402-BY","2017/07/01 14:39:18","新北市林口區太平里180號","121.36838","25.1343033333333","6501400","蘆洲區"
"247005","341-TH","2017/07/01 14:39:22","新北市蘆洲區長榮路1號","121.46379","25.0817716666667","6501400","蘆洲區"
"247007","339-TH","2017/07/01 14:39:08","新北市蘆洲區信義路27巷1號","121.47404","25.0793433333333","6501400","蘆洲區"
"247023","337-TH","2017/07/01 14:39:04","新北市蘆洲區中山二路222巷21弄6號","121.469018333333","25.0802433333333","6501400","蘆洲區"
"247001","335-TH","2017/07/01 14:39:21","新北市蘆洲區長安街276號","121.457333333333","25.0870616666667","6501400","蘆洲區"
"247013","057-VK","2017/07/01 14:39:21","新北市蘆洲區中央路30號","121.473565","25.0829383333333","6501400","蘆洲區"
"247003","056-VK","2017/07/01 14:39:25","新北市蘆洲區長安街194巷5號","121.459123333333","25.0842166666667","6501400","蘆洲區"
"247011","007-UY","2017/07/01 14:39:09","新北市蘆洲區中興街72號","121.482218333333","25.0880233333333","6501400","蘆洲區"
"247015","001-UY","2017/07/01 14:39:09","新北市蘆洲區和平路189號","121.466253333333","25.0813216666667","6501400","蘆洲區"
"228005","097-TW","2017/07/01 14:39:13","新北市貢寮區美豐里雞母嶺街6-6號","121.902053333333","25.0642416666667","6502600","貢寮區"
"228004","212-TW","2017/07/01 14:39:18","新北市貢寮區福隆里龜壽谷街30-5號","121.946793333333","25.014045","6502600","貢寮區"
"208004","AAC-292","2017/07/01 14:39:11","新北市金山區兩湖里倒照湖37號","121.591306666667","25.23643","6502700","金山區"
"207002","749-BX","2017/07/01 14:39:08","新北市萬里區崁腳里崁腳路73號","121.647603333333","25.1596033333333","6502800","萬里區"
"207001","463-BY","2017/07/01 14:39:09","新北市萬里區磺潭里員潭路59號","121.643085","25.190135","6502800","萬里區"
"252005","073-UM","2017/07/01 14:39:07","新北市三芝區茂長里陳厝坑51-2號","121.511086666667","25.2524633333333","6502100","三芝區"
"236068","105-UM","2017/07/01 14:39:17","新北市土城區永豐路255巷21弄1號","121.475056666667","24.9739816666667","6501300","土城區"
"236041","107-UM","2017/07/01 14:39:04","新北市土城區學成路108巷9號","121.450168333333","24.9896016666667","6501300","土城區"
"236075","166-UM","2017/07/01 14:39:20","新北市土城區頂埔街33號","121.417008333333","24.9588366666667","6501300","土城區"
"236029","253-BX","2017/07/01 14:39:19","新北市土城區福仁街77號","121.439343333333","24.9741933333333","6501300","土城區"
"236025","269-VK","2017/07/01 14:39:20","新北市土城區和平路11號","121.442806666667","24.9741716666667","6501300","土城區"
"236013","270-VK","2017/07/01 14:39:16","新北市土城區清水路207巷11號","121.459945","24.9823216666667","6501300","土城區"
"236035","271-VK","2017/07/01 14:39:18","新北市土城區明德路一段313巷9號","121.459735","24.9758283333333","6501300","土城區"
"236017","401-BY","2017/07/01 14:39:13","新北市土城區明德路一段36號","121.465166666667","24.9845233333333","6501300","土城區"
"236057","912-UM","2017/07/01 14:39:13","新北市土城區中央路四段47號","121.422108333333","24.96153","6501300","土城區"
"236045","913-UM","2017/07/01 14:39:18","新北市土城區明德路一段24號","121.465016666667","24.9848416666667","6501300","土城區"
"236061","915-UM","2017/07/01 14:39:09","新北市土城區延壽路13巷6號","121.470821666667","24.9905533333333","6501300","土城區"
"236054","AAC-216","2017/07/01 14:39:17","新北市土城區中華路一段135號","121.444228333333","24.9865333333333","6501300","土城區"
"238021","311-TH","2017/07/01 13:07:48","新北市樹林區東豐街49巷56號","121.415845","24.9743866666667","6500700","樹林區"
"221010","276-VK","2017/07/01 13:36:38","新北市汐止區汐萬路一段256巷3號","121.653433333333","25.0746016666667","6501100","汐止區"
"221032","280-BY","2017/07/01 14:39:07","新北市汐止區橫科路407巷30弄28號","121.627366666667","25.0484166666667","6501100","汐止區"
"220027","145-BY","2017/07/01 14:39:11","新北市板橋區復興街28號","121.458081666667","25.01739","6500100","板橋區"
"220028","200-UY","2017/07/01 14:39:18","新北市板橋區大觀路二段37巷246號","121.449715","25.00187","6500100","板橋區"
"220030","610-BX","2017/07/01 14:39:21","新北市板橋區金門街180-3號","121.432771666667","24.99101","6500100","板橋區"
"220050","245-BX","2017/07/01 14:39:12","新北市板橋區莊敬路252號","121.473978333333","25.0213766666667","6500100","板橋區"
"220052","257-TC","2017/07/01 14:39:08","新北市板橋區文化路一段339號","121.466453333333","25.02064","6500100","板橋區"
"220004","276-BY","2017/07/01 14:39:21","新北市板橋區四川路二段47巷4弄1號","121.454188333333","24.9945633333333","6500100","板橋區"
"220020","277-BY","2017/07/01 14:39:13","新北市板橋區金門街253巷6弄2號","121.432446666667","24.9885816666667","6500100","板橋區"
"220021","282-UM","2017/07/01 14:39:01","新北市板橋區瑞安街10號","121.454815","25.02332","6500100","板橋區"
"220043","283-UM","2017/07/01 14:39:14","新北市板橋區長江路二段256號","121.469206666667","25.032455","6500100","板橋區"
"220019","283-VK","2017/07/01 14:39:23","新北市板橋區忠孝路48巷4弄11號","121.46048","25.0006183333333","6500100","板橋區"
"220001","285-VK","2017/07/01 14:39:17","新北市板橋區懷仁街77巷32號","121.477751666667","25.0192916666667","6500100","板橋區"
"220031","286-VK","2017/07/01 14:39:15","新北市板橋區龍興街65巷78號","121.441935","25.0022383333333","6500100","板橋區"
"220029","287-VK","2017/07/01 14:39:13","新北市板橋區大觀路一段29巷20號","121.449133333333","25.0053333333333","6500100","板橋區"
"220039","288-VK","2017/07/01 14:39:08","新北市板橋區新海路431巷1號","121.457808333333","25.0274983333333","6500100","板橋區"
"220009","293-UM","2017/07/01 14:39:12","新北市板橋區中山路一段265巷36弄2號","121.469116666667","25.0149416666667","6500100","板橋區"
"220032","296-UM","2017/07/01 14:39:11","新北市板橋區滿平二街32-3號","121.425181666667","24.9874633333333","6500100","板橋區"
"220023","297-UM","2017/07/01 14:39:06","新北市板橋區中正路253巷27號","121.454248333333","25.0176866666667","6500100","板橋區"
"220041","299-UM","2017/07/01 14:39:16","新北市板橋區陽明街46-3號","121.465603333333","25.02196","6500100","板橋區"
"220010","305-R5","2017/07/01 03:28:31","新北市板橋區民生路二段56-1號","121.472365","25.0169433333333","6500100","板橋區"
"220047","317-R6","2017/07/01 14:39:08","新北市板橋區四維路269巷61號","121.460785","25.0271266666667","6500100","板橋區"
"220012","486-VK","2017/07/01 14:39:19","新北市板橋區民族路19號","121.461803333333","25.0096783333333","6500100","板橋區"
"220038","487-VK","2017/07/01 14:39:16","新北市板橋區漢生西路89巷5弄3號","121.460906666667","25.0195933333333","6500100","板橋區"
"220037","491-VK","2017/07/01 14:38:29","新北市板橋區文化路二段453號","121.475388333333","25.03366","6500100","板橋區"
"220104","560-BX","2017/07/01 14:39:16","新北市板橋區新生街98巷24號","121.45909","25.02128","6500100","板橋區"
"220011","609-BX","2017/07/01 14:39:16","新北市板橋區三民路一段31巷89弄2號","121.481543333333","25.02341","6500100","板橋區"
"220040","637-BX","2017/07/01 14:39:20","新北市板橋區懷德街139巷20弄8號","121.480143333333","25.0305666666667","6500100","板橋區"
"220005","686-BX","2017/07/01 14:39:14","新北市板橋區和平路182號","121.463596666667","24.9957533333333","6500100","板橋區"
"220025","687-BX","2017/07/01 14:39:11","新北市板橋區僑中三街23號","121.44589","25.0045816666667","6500100","板橋區"
"220042","689-BX","2017/07/01 14:39:13","新北市板橋區新海路362-1號","121.459713333333","25.02527","6500100","板橋區"
"220002","741-BX","2017/07/01 14:39:19","新北市板橋區忠孝路204號","121.465898333333","25.00264","6500100","板橋區"
"220003","827-TW","2017/07/01 14:39:10","新北市板橋區國慶路149巷13弄1-4號","121.460981666667","24.99709","6500100","板橋區"
"220014","829-TW","2017/07/01 14:39:21","新北市板橋區長安街138巷1弄234號","121.474603333333","25.01077","6500100","板橋區"
"220051","830-TW","2017/07/01 14:39:13","新北市板橋區松柏街31號","121.47512","25.0302633333333","6500100","板橋區"
"220045","831-TW","2017/07/01 14:39:24","新北市板橋區文化路一段366-1號","121.469195","25.02354","6500100","板橋區"
"220022","895-R6","2017/07/01 14:39:22","新北市板橋區府中路29-2號","121.458493333333","25.0079816666667","6500100","板橋區"
"220046","AAC-210","2017/07/01 14:39:12","新北市板橋區幸福路32巷3號","121.46151","25.020615","6500100","板橋區"
"220018","AAC-253","2017/07/01 14:39:08","新北市板橋區四川路一段46號","121.459543333333","25.0058833333333","6500100","板橋區"
