"lineid","car","time","location","longitude","latitude","cityid","cityname"
"234025","9371-KE","2017/07/01 14:49:03","新北市永和區雙和街27號","121.509063333333","25.00206","6500400","永和區"
"248019","225-UY","2017/07/01 14:16:18","新北市五股區壟路16號","121.415413333333","25.0855966666667","6501500","五股區"
"234066","AAC-212","2017/07/01 14:49:17","新北市永和區保生路64號","121.505166666667","25.00886","6500400","永和區"
"231025","0291-UT","2017/07/01 14:49:15","新北市新店區建國路131號","121.539495","24.9781816666667","6500600","新店區"
"231028","046-UY","2017/07/01 14:49:04","新北市新店區安德街173號","121.508685","24.95895","6500600","新店區"
"231030","047-UY","2017/07/01 12:38:12","新北市新店區安華路28-1號","121.519308333333","24.960905","6500600","新店區"
"231029","106-UY","2017/07/01 14:49:04","新北市新店區錦秀路11巷90弄2號","121.480408333333","24.9431","6500600","新店區"
"231018","107-UY","2017/07/01 14:49:16","新北市新店區中央二街3號","121.5292","24.9730633333333","6500600","新店區"
"231012","108-UY","2017/07/01 14:49:10","新北市新店區永華街45號","121.544223333333","24.9760316666667","6500600","新店區"
"231020","187-VK","2017/07/01 14:49:15","新北市新店區梅崗一路9號","121.556088333333","24.9296233333333","6500600","新店區"
"231034","268-BY","2017/07/01 14:49:07","新北市新店區安康路二段408號","121.496753333333","24.95522","6500600","新店區"
"231017","AAD-862","2017/07/01 14:49:05","新北市新店區北宜路三段168號","121.586515","24.9521583333333","6500600","新店區"
"231002","355-BY","2017/07/01 14:49:19","新北市新店區民權路43號","121.540136666667","24.9828316666667","6500600","新店區"
"231027","3712-VJ","2017/07/01 14:49:08","新北市新店區中正路328巷3號","121.53695","24.9753383333333","6500600","新店區"
"231024","3713-VJ","2017/07/01 14:49:08","新北市新店區新生街1號","121.54038","24.9656566666667","6500600","新店區"
"231036","512-UM","2017/07/01 14:49:19","新北市新店區安祥路106巷88號","121.474546666667","24.9597","6500600","新店區"
"231023","513-UM","2017/07/01 14:49:14","新北市新店區檳榔路109號","121.544451666667","24.9616616666667","6500600","新店區"
"231035","515-UM","2017/07/01 14:49:04","新北市新店區安樂街10號","121.520325","24.973615","6500600","新店區"
"231003","616-UM","2017/07/01 14:49:18","新北市新店區中興路二段55-1號","121.546523333333","24.97035","6500600","新店區"
"231006","617-UM","2017/07/01 14:49:15","新北市新店區北宜路一段127巷4號","121.541483333333","24.9529133333333","6500600","新店區"
"231030","618-UM","2017/07/01 14:49:09","新北市新店區安民街383號","121.516176666667","24.9764916666667","6500600","新店區"
"231001","619-UM","2017/07/01 14:49:18","新北市新店區三民路149-1號","121.533956666667","24.9731466666667","6500600","新店區"
"231039","718-UY","2017/07/01 14:49:08","新北市新店區安康路一段79巷1號","121.52981","24.96124","6500600","新店區"
"231013","719-UM","2017/07/01 14:49:10","新北市新店區北新路二段59巷11號","121.5424","24.9734266666667","6500600","新店區"
"231005","897-TW","2017/07/01 14:49:15","新北市新店區復興路2號","121.532365","24.9882583333333","6500600","新店區"
"231004","899-TW","2017/07/01 14:49:13","新北市新店區民族路100號","121.539261666667","24.9780866666667","6500600","新店區"
"235030","003-UY","2017/07/01 14:49:23","新北市中和區中和路265號","121.505463333333","24.9998666666667","6500300","中和區"
"235026","031-BX","2017/07/01 14:49:19","新北市中和區建六路67巷14號","121.486743333333","25.00275","6500300","中和區"
"235020","096-UM","2017/07/01 14:49:16","新北市中和區中山路三段114巷68號","121.475993333333","25.007585","6500300","中和區"
"235003","097-UM","2017/07/01 14:49:18","新北市中和區安平路186號","121.513023333333","24.99896","6500300","中和區"
"235004","150-BY","2017/07/01 14:49:12","新北市中和區安平路59號","121.509638333333","24.994975","6500300","中和區"
"235022","151-BY","2017/07/01 14:49:22","新北市中和區員山路146巷22號","121.482373333333","24.9967883333333","6500300","中和區"
"235019","183-VK","2017/07/01 14:49:08","新北市中和區民生街21-1號","121.471003333333","25.0057266666667","6500300","中和區"
"235002","185-VK","2017/07/01 14:49:03","新北市中和區自立路99巷16號","121.52286","24.9947716666667","6500300","中和區"
"235013","186-VK","2017/07/01 14:49:12","新北市中和區中正路58號","121.501638333333","24.9936083333333","6500300","中和區"
"235031","255-BX","2017/07/01 14:49:05","新北市中和區新生街281號","121.483793333333","24.99769","6500300","中和區"
"235008","293-VK","2017/07/01 14:49:06","新北市中和區捷運路153號","121.506506666667","24.99105","6500300","中和區"
"235036","301-VK","2017/07/01 14:49:17","新北市中和區中和路88號","121.50091","25.0001383333333","6500300","中和區"
"235007","352-BY","2017/07/01 14:49:13","新北市中和區安和路69號","121.508373333333","24.9950883333333","6500300","中和區"
"235015","376-QA","2017/07/01 14:49:14","新北市中和區復興路327巷3號","121.500868333333","24.9899933333333","6500300","中和區"
"235032","377-QA","2017/07/01 14:49:17","新北市中和區福美路249號","121.498963333333","25.0051","6500300","中和區"
"235014","4979-A6","2017/07/01 14:48:30","新北市中和區景平路259巷11號","121.507843333333","24.992595","6500300","中和區"
"235033","4980-A6","2017/07/01 14:49:14","新北市中和區中正路406號","121.492343333333","24.9940466666667","6500300","中和區"
"235034","558-UM","2017/07/01 14:49:14","新北市中和區景平路529號","121.498993333333","24.99912","6500300","中和區"
"235009","565-BX","2017/07/01 14:49:17","新北市中和區景新街417號","121.512855","24.989415","6500300","中和區"
"235018","640-BX","2017/07/01 14:49:23","新北市中和區莒光路109號","121.47246","25.0026066666667","6500300","中和區"
"235024","647-TV","2017/07/01 14:49:21","新北市中和區新生街16巷18號","121.48248","25.004445","6500300","中和區"
"235011","732-UM","2017/07/01 14:49:19","新北市中和區和平街9號","121.509","24.9901866666667","6500300","中和區"
"235035","783-BX","2017/07/01 14:49:01","新北市中和區中正路637巷5號","121.484835","24.99529","6500300","中和區"
"235021","801-TS","2017/07/01 14:49:22","新北市中和區員山路160號","121.481378333333","24.99954","6500300","中和區"
"235005","802-TS","2017/07/01 14:49:11","新北市中和區宜安路74號","121.511223333333","24.9973066666667","6500300","中和區"
"235016","805-TS","2017/07/01 14:49:18","新北市中和區華新街192巷31號","121.50627","24.9832966666667","6500300","中和區"
"235012","896-TW","2017/07/01 14:49:13","新北市中和區忠孝街2-13號","121.509445","24.9827583333333","6500300","中和區"
"235017","900-TW","2017/07/01 14:49:15","新北市中和區國光街140巷2號","121.46844","25.0013966666667","6500300","中和區"
"235003","157-BY","2017/07/01 14:49:05","新北市中和區四維街21號","121.512935","24.987025","6500300","中和區"
"235001","AAC-213","2017/07/01 14:49:09","新北市中和區秀朗路三段10巷14弄53-1號","121.523445","24.9964933333333","6500300","中和區"
"235023","AAC-215","2017/07/01 14:49:11","新北市中和區圓通路305巷25弄8號","121.494888333333","24.9895816666667","6500300","中和區"
"220016","013-TV","2017/07/01 14:49:21","新北市板橋區光復街170號","121.485138333333","25.0197","6500100","板橋區"
"220013","072-UY","2017/07/01 14:49:07","新北市板橋區國泰街39巷2弄2號","121.46838","25.00638","6500100","板橋區"
"220034","073-UY","2017/07/01 14:49:13","新北市板橋區中正路1巷4號","121.455681666667","25.0118983333333","6500100","板橋區"
"220017","AAD-861","2017/07/01 14:49:22","新北市板橋區稚暉街29號","121.456858333333","25.0042283333333","6500100","板橋區"
"220105","120-SR","2017/07/01 14:49:02","新北市板橋區民治街57巷22號","121.480088333333","25.0338","6500100","板橋區"
"247002","402-BY","2017/07/01 14:49:18","新北市八里區中山路三段361號","121.375615","25.13849","6501400","蘆洲區"
"247007","339-TH","2017/07/01 14:49:08","新北市蘆洲區中山二路300巷2號","121.46857","25.0772316666667","6501400","蘆洲區"
"247001","335-TH","2017/07/01 14:49:01","新北市蘆洲區長安街313巷22號","121.456206666667","25.0861066666667","6501400","蘆洲區"
"247003","056-VK","2017/07/01 14:49:17","新北市蘆洲區長安街267巷27號","121.457231666667","25.0830666666667","6501400","蘆洲區"
"228005","097-TW","2017/07/01 14:49:17","新北市貢寮區美豐里丹裡街65號","121.909078333333","25.058905","6502600","貢寮區"
"228004","212-TW","2017/07/01 14:49:18","新北市貢寮區福隆里裕隆街2號","121.946635","25.015475","6502600","貢寮區"
"208004","AAC-292","2017/07/01 14:49:11","新北市金山區半嶺11號","121.612393333333","25.23688","6502700","金山區"
"207002","749-BX","2017/07/01 14:49:08","新北市萬里區崁腳里崁腳路73號","121.647625","25.1595966666667","6502800","萬里區"
"207001","463-BY","2017/07/01 14:47:49","新北市萬里區雙興里豐稟路16號","121.649291666667","25.1801416666667","6502800","萬里區"
"252005","073-UM","2017/07/01 14:49:07","新北市三芝區埔坪里埔頭坑138號","121.514516666667","25.2469816666667","6502100","三芝區"
"236068","105-UM","2017/07/01 14:49:05","新北市土城區金城路三段8號","121.464528333333","24.9861216666667","6501300","土城區"
"236041","107-UM","2017/07/01 14:49:04","新北市土城區裕民路92巷25弄3號","121.449688333333","24.98592","6501300","土城區"
"236075","166-UM","2017/07/01 14:49:16","新北市土城區中央路四段67巷6號","121.417833333333","24.9575683333333","6501300","土城區"
"236029","253-BX","2017/07/01 14:49:07","新北市土城區忠義路26巷8號","121.43996","24.9700216666667","6501300","土城區"
"236025","269-VK","2017/07/01 14:49:23","新北市土城區光明街47號","121.442196666667","24.9735616666667","6501300","土城區"
"236013","270-VK","2017/07/01 14:49:16","新北市土城區金城路二段354巷4號","121.460773333333","24.98481","6501300","土城區"
"236035","271-VK","2017/07/01 14:49:15","新北市土城區明德路一段195巷3弄1號","121.464213333333","24.9785216666667","6501300","土城區"
"236017","401-BY","2017/07/01 14:49:12","新北市土城區延吉街251號","121.467671666667","24.9849283333333","6501300","土城區"
"236057","912-UM","2017/07/01 14:49:13","新北市土城區中央路三段155號","121.432048333333","24.9653916666667","6501300","土城區"
"236045","913-UM","2017/07/01 14:49:18","新北市土城區廣福街68巷24號","121.458778333333","24.990435","6501300","土城區"
"236061","915-UM","2017/07/01 14:49:09","新北市土城區金城路三段207巷6弄5號","121.470351666667","24.9900916666667","6501300","土城區"
"236054","AAC-216","2017/07/01 14:49:06","新北市土城區裕民路149號","121.452065","24.9859466666667","6501300","土城區"
"238021","311-TH","2017/07/01 13:07:48","新北市樹林區東豐街49巷56號","121.415845","24.9743866666667","6500700","樹林區"
"221010","276-VK","2017/07/01 13:36:38","新北市汐止區汐萬路一段256巷3號","121.653433333333","25.0746016666667","6501100","汐止區"
"221032","280-BY","2017/07/01 14:49:07","新北市汐止區橫科路407巷30弄28號","121.627448333333","25.0485483333333","6501100","汐止區"
"220027","145-BY","2017/07/01 14:49:11","新北市板橋區建國街54巷42號","121.46002","25.01705","6500100","板橋區"
"220028","200-UY","2017/07/01 14:49:19","新北市板橋區大觀路二段37巷57號","121.449383333333","25.0026033333333","6500100","板橋區"
"220030","610-BX","2017/07/01 14:49:10","新北市板橋區大觀路三段180巷30號","121.42988","24.993685","6500100","板橋區"
"220050","245-BX","2017/07/01 14:49:12","新北市板橋區縣民大道三段93巷28號","121.474831666667","25.02254","6500100","板橋區"
"220052","257-TC","2017/07/01 14:49:08","新北市板橋區陽明街73巷4號","121.463765","25.0228733333333","6500100","板橋區"
"220020","277-BY","2017/07/01 14:49:13","新北市板橋區金門街215巷22號","121.433116666667","24.98964","6500100","板橋區"
"220021","282-UM","2017/07/01 14:49:21","新北市板橋區大仁街85號","121.453666666667","25.016025","6500100","板橋區"
"220043","283-UM","2017/07/01 14:49:05","新北市板橋區長江路一段1號","121.457428333333","25.02864","6500100","板橋區"
"220019","283-VK","2017/07/01 14:49:15","新北市板橋區信義路139號","121.458041666667","24.9929933333333","6500100","板橋區"
"220001","285-VK","2017/07/01 14:49:17","新北市板橋區民享街66號","121.476446666667","25.0153083333333","6500100","板橋區"
"220031","286-VK","2017/07/01 14:49:15","新北市板橋區僑中二街8巷20-4號","121.446285","25.0113266666667","6500100","板橋區"
"220029","287-VK","2017/07/01 14:49:13","新北市板橋區大觀路一段27號","121.450055","25.00843","6500100","板橋區"
"220039","288-VK","2017/07/01 14:49:08","新北市板橋區龍泉街94號","121.456451666667","25.02499","6500100","板橋區"
"220009","293-UM","2017/07/01 14:49:12","新北市板橋區中山路一段283巷22號","121.47039","25.0152633333333","6500100","板橋區"
"220032","296-UM","2017/07/01 14:49:11","新北市板橋區溪崑二街130巷2號","121.425701666667","24.988075","6500100","板橋區"
"220023","297-UM","2017/07/01 14:49:06","新北市板橋區大勇街11號","121.455371666667","25.0175266666667","6500100","板橋區"
"220041","299-UM","2017/07/01 14:49:21","新北市板橋區四維路259巷63號","121.460981666667","25.0268466666667","6500100","板橋區"
"220010","305-R5","2017/07/01 14:48:08","新北市板橋區中山路二段416巷38弄29號","121.481745","25.019345","6500100","板橋區"
"220047","317-R6","2017/07/01 14:49:08","新北市板橋區裕民街130號","121.458991666667","25.0274","6500100","板橋區"
"220012","486-VK","2017/07/01 14:49:21","新北市板橋區實踐路37號","121.463746666667","25.0070233333333","6500100","板橋區"
"220038","487-VK","2017/07/01 14:49:16","新北市板橋區龍泉街135號","121.45771","25.0239383333333","6500100","板橋區"
"220037","491-VK","2017/07/01 14:47:48","新北市板橋區仁化街76號","121.476165","25.0318783333333","6500100","板橋區"
"220104","560-BX","2017/07/01 14:49:16","新北市板橋區金華街83號","121.458061666667","25.0207683333333","6500100","板橋區"
"220011","609-BX","2017/07/01 14:49:16","新北市板橋區中山路二段553巷4弄4號","121.48346","25.0226133333333","6500100","板橋區"
"220040","637-BX","2017/07/01 14:49:20","新北市板橋區民治街81巷7號","121.479883333333","25.032205","6500100","板橋區"
"220005","686-BX","2017/07/01 14:49:14","新北市板橋區廣和街62號","121.46212","24.9939283333333","6500100","板橋區"
"220025","687-BX","2017/07/01 14:49:11","新北市板橋區僑中一街125巷1號","121.445695","25.01172","6500100","板橋區"
"220042","689-BX","2017/07/01 14:49:13","新北市板橋區民生路三段323號","121.4636","25.0312033333333","6500100","板橋區"
"220002","741-BX","2017/07/01 14:49:19","新北市板橋區實踐路93巷86號","121.46698","25.0046466666667","6500100","板橋區"
"220003","827-TW","2017/07/01 14:49:10","新北市板橋區仁愛路64號","121.459871666667","24.9993516666667","6500100","板橋區"
"220014","829-TW","2017/07/01 14:49:10","新北市板橋區中山路一段184-1號","121.469303333333","25.012665","6500100","板橋區"
"220051","830-TW","2017/07/01 14:49:20","新北市板橋區仁化街42巷13號","121.475575","25.0311033333333","6500100","板橋區"
"220045","831-TW","2017/07/01 14:49:20","新北市板橋區莊敬路167號","121.470993333333","25.0239166666667","6500100","板橋區"
"220022","895-R6","2017/07/01 14:49:22","新北市板橋區府中路24號","121.45963","25.0097516666667","6500100","板橋區"
"220046","AAC-210","2017/07/01 14:49:12","新北市板橋區文化路一段285巷1弄2號","121.464236666667","25.0186516666667","6500100","板橋區"
"220018","AAC-253","2017/07/01 14:49:08","新北市板橋區民族路260號","121.469433333333","25.0071116666667","6500100","板橋區"
