"lineid","car","time","location","longitude","latitude","cityid","cityname"
"248018","225-UY","2017/07/01 15:28:09","新北市五股區中興路二段83巷26-6號","121.460015","25.0751566666667","6501500","五股區"
"231030","047-UY","2017/07/01 12:38:12","新北市新店區安華路28-1號","121.519308333333","24.960905","6500600","新店區"
"231018","107-UY","2017/07/01 16:09:16","新北市新店區中正路680巷51弄11號","121.535448333333","24.9895216666667","6500600","新店區"
"231012","108-UY","2017/07/01 16:09:10","新北市新店區薏仁坑路自強巷6號","121.496573333333","24.9583083333333","6500600","新店區"
"231034","268-BY","2017/07/01 16:08:47","新北市新店區如意街41號","121.493606666667","24.9482816666667","6500600","新店區"
"231046","278-BY","2017/07/01 16:09:06","新北市新店區永業路47號","121.53222","24.9549933333333","6500600","新店區"
"231030","618-UM","2017/07/01 16:09:09","新北市新店區薏仁坑路6號","121.500343333333","24.9580083333333","6500600","新店區"
"241011","013-R5","2017/07/01 16:09:03","新北市三重區正義北路310號","121.495211666667","25.06998","6500200","三重區"
"241028","022-UY","2017/07/01 16:09:07","新北市三重區正義南路107號","121.498258333333","25.05859","6500200","三重區"
"241008","059-VK","2017/07/01 16:09:15","新北市三重區力行路二段136巷1弄15號","121.482146666667","25.0765216666667","6500200","三重區"
"241015","062-VK","2017/07/01 16:09:06","新北市三重區環河南路121-1號","121.497801666667","25.0553016666667","6500200","三重區"
"241017","063-VK","2017/07/01 16:09:12","新北市三重區大同北路148巷59號","121.490605","25.0646783333333","6500200","三重區"
"241024","065-VK","2017/07/01 16:09:16","新北市三重區力行路一段48號","121.485966666667","25.0682066666667","6500200","三重區"
"241026","066-VK","2017/07/01 16:09:11","新北市三重區福裕街137號","121.49623","25.0612466666667","6500200","三重區"
"241002","090-VK","2017/07/01 16:09:01","新北市三重區仁義街47號","121.498355","25.0788316666667","6500200","三重區"
"241003","091-VK","2017/07/01 16:09:11","新北市三重區自強路五段100號","121.496753333333","25.0836433333333","6500200","三重區"
"241005","262-UM","2017/07/01 16:09:17","新北市三重區溪尾街300-2號","121.487385","25.08372","6500200","三重區"
"241022","265-UM","2017/07/01 16:09:06","新北市三重區三民街173號","121.483261666667","25.0651266666667","6500200","三重區"
"241016","266-UM","2017/07/01 16:09:17","新北市三重區大仁街37號","121.492941666667","25.0654","6500200","三重區"
"241018","268-UM","2017/07/01 16:09:08","新北市三重區明志街69號","121.491056666667","25.0637916666667","6500200","三重區"
"241013","270-UM","2017/07/01 16:09:12","新北市三重區安樂街16號","121.496816666667","25.069765","6500200","三重區"
"241025","271-UM","2017/07/01 16:09:17","新北市三重區忠孝路三段40巷6弄1號","121.482008333333","25.0663533333333","6500200","三重區"
"241007","398-BY","2017/07/01 16:09:07","新北市三重區三和路四段145巷5號","121.484531666667","25.0783533333333","6500200","三重區"
"241023","412-TH","2017/07/01 16:09:18","新北市三重區力行路一段80號","121.484063333333","25.069545","6500200","三重區"
"241020","413-TH","2017/07/01 16:09:06","新北市三重區後竹圍街266號","121.483878333333","25.0712266666667","6500200","三重區"
"241004","475-VK","2017/07/01 16:09:20","新北市三重區五華街70號","121.493438333333","25.0818933333333","6500200","三重區"
"241019","478-VK","2017/07/01 16:09:14","新北市三重區重陽路三段97號","121.490251666667","25.0679433333333","6500200","三重區"
"241030","480-VK","2017/07/01 16:09:18","新北市三重區重新路四段121號","121.484426666667","25.0522783333333","6500200","三重區"
"241014","543-UM","2017/07/01 16:09:12","新北市三重區環河南路112號","121.498425","25.055835","6500200","三重區"
"241001","547-UM","2017/07/01 16:09:01","新北市三重區自強路四段32-2號","121.489083333333","25.0770916666667","6500200","三重區"
"241006","AAD-863","2017/07/01 16:09:14","新北市三重區力行路二段151號","121.48356","25.0775116666667","6500200","三重區"
"241012","941-UM","2017/07/01 16:09:13","新北市三重區正義北路115號","121.49708","25.0658833333333","6500200","三重區"
"241029","942-UM","2017/07/01 16:09:01","新北市三重區同安東街15號","121.497326666667","25.0570766666667","6500200","三重區"
"241033","AAC-255","2017/07/01 16:09:19","新北市三重區五谷王南街50-1號","121.473828333333","25.0445583333333","6500200","三重區"
"235026","031-BX","2017/07/01 16:09:19","新北市中和區中山路二段332巷15號","121.49415","25.0028916666667","6500300","中和區"
"235001","AAC-213","2017/07/01 16:09:09","新北市新店區薏仁坑路自強巷1號","121.497781666667","24.957635","6500300","中和區"
"247002","402-BY","2017/07/01 16:09:18","新北市五股區新五路二段258號","121.44092","25.0820383333333","6501400","蘆洲區"
"247001","335-TH","2017/07/01 15:30:05","新北市五股區中興路三段2巷10號","121.448951666667","25.0814583333333","6501400","蘆洲區"
"224007","273-VK","2017/07/01 16:09:00","新北市瑞芳區粗坑口路86巷14號","121.761173333333","25.0992783333333","6501200","瑞芳區"
"224005","271-BY","2017/07/01 16:09:12","新北市瑞芳區明燈路二段66號","121.80931","25.1075416666667","6501200","瑞芳區"
"227010","642-TC","2017/07/01 16:09:20","新北市雙溪區三港里雙澳路72號","121.881855","25.0545383333333","6502500","雙溪區"
"227002","400-TW","2017/07/01 16:09:15","新北市雙溪區上林里內平林46號","121.83338","25.03047","6502500","雙溪區"
"251008","181-VK","2017/07/01 16:09:05","新北市淡水區文化路63號","121.438243333333","25.17283","6501000","淡水區"
"238021","311-TH","2017/07/01 13:07:48","新北市樹林區東豐街49巷56號","121.415845","24.9743866666667","6500700","樹林區"
"221010","276-VK","2017/07/01 15:29:27","新北市汐止區汐萬路一段256巷3號","121.65342","25.0745966666667","6501100","汐止區"
