"lineid","car","time","location","longitude","latitude","cityid","cityname"
"248018","225-UY","2017/07/01 15:28:09","新北市五股區中興路二段83巷26-6號","121.460015","25.0751566666667","6501500","五股區"
"231030","047-UY","2017/07/01 12:38:12","新北市新店區安華路28-1號","121.519308333333","24.960905","6500600","新店區"
"231018","107-UY","2017/07/01 16:19:16","新北市新店區中正路694巷15號","121.535363333333","24.9908733333333","6500600","新店區"
"231046","278-BY","2017/07/01 16:19:06","新北市新店區灣潭路3-3號","121.538201666667","24.9507966666667","6500600","新店區"
"241011","013-R5","2017/07/01 16:19:23","新北市三重區仁愛街12號","121.496781666667","25.0711633333333","6500200","三重區"
"241028","022-UY","2017/07/01 16:19:07","新北市三重區正義南路181巷1號","121.49894","25.0571083333333","6500200","三重區"
"241008","059-VK","2017/07/01 16:19:15","新北市三重區力行路二段136巷45弄12號","121.479126666667","25.075425","6500200","三重區"
"241009","060-VK","2017/07/01 16:19:06","新北市三重區仁愛街519號","121.487295","25.08221","6500200","三重區"
"241015","062-VK","2017/07/01 16:19:06","新北市三重區福德北路79號","121.501878333333","25.065865","6500200","三重區"
"241017","063-VK","2017/07/01 16:19:12","新北市三重區大同北路85號","121.494826666667","25.0636216666667","6500200","三重區"
"241024","065-VK","2017/07/01 16:19:16","新北市三重區中正北路358號","121.47737","25.069445","6500200","三重區"
"241026","066-VK","2017/07/01 16:19:11","新北市三重區正義南路39號","121.49811","25.0609183333333","6500200","三重區"
"241002","090-VK","2017/07/01 16:19:01","新北市三重區仁義街47號","121.498345","25.0788183333333","6500200","三重區"
"241003","091-VK","2017/07/01 16:19:11","新北市三重區五華街57巷36號","121.49408","25.08339","6500200","三重區"
"241005","262-UM","2017/07/01 16:19:17","新北市三重區溪尾街300-2號","121.487341666667","25.0837333333333","6500200","三重區"
"241022","265-UM","2017/07/01 16:19:06","新北市三重區新北大道一段7號","121.489943333333","25.0612683333333","6500200","三重區"
"241016","266-UM","2017/07/01 16:19:17","新北市三重區大仁街94號","121.492991666667","25.065525","6500200","三重區"
"241018","268-UM","2017/07/01 16:19:08","新北市三重區重陽路三段5巷3-1號","121.490536666667","25.0653033333333","6500200","三重區"
"241013","270-UM","2017/07/01 16:19:03","新北市三重區三和路三段90號","121.494423333333","25.07194","6500200","三重區"
"241025","271-UM","2017/07/01 16:19:17","新北市三重區中正北路560巷100弄2號","121.472411666667","25.0682116666667","6500200","三重區"
"241007","398-BY","2017/07/01 16:19:07","新北市三重區仁美街83號","121.486263333333","25.079565","6500200","三重區"
"241023","412-TH","2017/07/01 16:19:18","新北市三重區中正北路145巷4弄10號","121.482935","25.0678583333333","6500200","三重區"
"241020","413-TH","2017/07/01 16:19:06","新北市三重區車路頭街17巷16號","121.484376666667","25.0706133333333","6500200","三重區"
"241004","475-VK","2017/07/01 16:19:20","新北市三重區五華街70號","121.493426666667","25.081885","6500200","三重區"
"241019","478-VK","2017/07/01 16:19:14","新北市三重區重陽路三段97號","121.490378333333","25.0680216666667","6500200","三重區"
"241030","480-VK","2017/07/01 16:19:18","新北市三重區重新路四段121號","121.484706666667","25.0523366666667","6500200","三重區"
"241014","543-UM","2017/07/01 16:19:12","新北市三重區河邊北街100巷19號","121.503135","25.0702866666667","6500200","三重區"
"241001","547-UM","2017/07/01 16:19:21","新北市三重區自強路四段87號","121.491098333333","25.0794266666667","6500200","三重區"
"241006","AAD-863","2017/07/01 16:19:14","新北市三重區永福街46巷41弄21號","121.481728333333","25.0771383333333","6500200","三重區"
"241012","941-UM","2017/07/01 16:19:13","新北市三重區龍門路86號","121.497191666667","25.0726983333333","6500200","三重區"
"241029","942-UM","2017/07/01 16:19:01","新北市三重區中正南路212號","121.49386","25.0553516666667","6500200","三重區"
"241033","AAC-255","2017/07/01 16:19:19","新北市三重區重新路五段442號","121.474825","25.047135","6500200","三重區"
"235026","031-BX","2017/07/01 16:18:59","新北市中和區錦和路69號","121.489323333333","24.9981716666667","6500300","中和區"
"235001","AAC-213","2017/07/01 16:19:09","新北市新店區安和路一段43號","121.51725","24.9654416666667","6500300","中和區"
"247001","335-TH","2017/07/01 15:30:05","新北市五股區中興路三段2巷10號","121.448951666667","25.0814583333333","6501400","蘆洲區"
"224008","275-VK","2017/07/01 16:19:07","新北市瑞芳區明燈路三段100號","121.80526","25.10837","6501200","瑞芳區"
"224007","273-VK","2017/07/01 16:19:20","新北市瑞芳區大埔路276號","121.759795","25.10254","6501200","瑞芳區"
"224005","271-BY","2017/07/01 16:18:52","新北市瑞芳區明燈路二段44-1號","121.809548333333","25.1082183333333","6501200","瑞芳區"
"227010","642-TC","2017/07/01 16:19:20","新北市雙溪區三港里雙澳路80號","121.883816666667","25.0538533333333","6502500","雙溪區"
"227002","400-TW","2017/07/01 16:19:15","新北市雙溪區上林里內平林80號","121.828325","25.0279166666667","6502500","雙溪區"
"251008","181-VK","2017/07/01 16:19:05","新北市淡水區中正東路二段153號","121.459625","25.1461083333333","6501000","淡水區"
"238021","311-TH","2017/07/01 13:07:48","新北市樹林區東豐街49巷56號","121.415845","24.9743866666667","6500700","樹林區"
"221010","276-VK","2017/07/01 15:29:27","新北市汐止區汐萬路一段256巷3號","121.65342","25.0745966666667","6501100","汐止區"
"220002","741-BX","2017/07/01 16:19:08","新北市板橋區民生路二段36-1號","121.472653333333","25.0165833333333","6500100","板橋區"
