"lineid","car","time","location","longitude","latitude","cityid","cityname"
"249001","173-UM","2017/07/01 17:19:10","新北市八里區中華路二段165巷2-1號","121.407585","25.150955","6502300","八里區"
"249004","303-UY","2017/07/01 17:19:09","新北市八里區中山路一段90號","121.421038333333","25.1596966666667","6502300","八里區"
"249002","305-UY","2017/07/01 17:19:02","新北市八里區龍米路二段117巷1號","121.446856666667","25.1430066666667","6502300","八里區"
"249003","593-UM","2017/07/01 17:19:06","新北市八里區商港路82號","121.395606666667","25.1465","6502300","八里區"
"249005","759-BX","2017/07/01 17:18:46","新北市八里區荖阡坑路50-1號","121.410723333333","25.121185","6502300","八里區"
"248018","225-UY","2017/07/01 15:28:09","新北市五股區中興路二段83巷26-6號","121.460015","25.0751566666667","6501500","五股區"
"244013","069-UM","2017/07/01 17:19:08","新北市林口區粉寮69號","121.405013333333","25.0908083333333","6501700","林口區"
"244007","080-UY","2017/07/01 17:19:10","新北市林口區中華路283號","121.38331","25.0911416666667","6501700","林口區"
"244019","403-UM","2017/07/01 17:19:21","新北市林口區公園路233-4號","121.376068333333","25.0755783333333","6501700","林口區"
"244009","410-SL","2017/07/01 17:19:06","新北市林口區文化北路二段550巷26號","121.378533333333","25.09203","6501700","林口區"
"244023","483-VK","2017/07/01 17:19:08","新北市林口區仁愛路一段667巷25號","121.387491666667","25.075765","6501700","林口區"
"244021","657-BX","2017/07/01 17:18:22","新北市林口區粉寮路二段94號","121.40449","25.0890316666667","6501700","林口區"
"231030","047-UY","2017/07/01 12:38:12","新北市新店區安華路28-1號","121.519308333333","24.960905","6500600","新店區"
"231046","278-BY","2017/07/01 17:19:06","新北市新店區直潭路92號","121.530935","24.937665","6500600","新店區"
"241011","013-R5","2017/07/01 17:19:03","新北市三重區河邊北街100巷3號","121.503711666667","25.0703966666667","6500200","三重區"
"241028","022-UY","2017/07/01 17:19:07","新北市三重區仁化商場3號","121.493521666667","25.0595883333333","6500200","三重區"
"241008","059-VK","2017/07/01 17:19:15","新北市三重區永福街72巷37-6號","121.480606666667","25.0763283333333","6500200","三重區"
"241009","060-VK","2017/07/01 17:19:06","新北市三重區仁愛街622號","121.483503333333","25.08062","6500200","三重區"
"241015","062-VK","2017/07/01 17:19:06","新北市三重區長元街82-1號","121.501898333333","25.0663316666667","6500200","三重區"
"241017","063-VK","2017/07/01 17:19:12","新北市三重區大同北路67號","121.495106666667","25.06362","6500200","三重區"
"241024","065-VK","2017/07/01 17:19:16","新北市三重區後竹圍街285號","121.478998333333","25.0699766666667","6500200","三重區"
"241026","066-VK","2017/07/01 17:19:11","新北市三重區文化南路31-2號","121.500046666667","25.06173","6500200","三重區"
"241002","090-VK","2017/07/01 17:19:21","新北市三重區仁愛街357巷23號","121.492633333333","25.0803616666667","6500200","三重區"
"241003","091-VK","2017/07/01 17:19:11","新北市三重區富福街51號","121.491735","25.0843166666667","6500200","三重區"
"241031","156-TC","2017/07/01 17:19:14","新北市三重區新北大道一段7號","121.489653333333","25.06135","6500200","三重區"
"241005","262-UM","2017/07/01 17:19:17","新北市蘆洲區重陽一街1號","121.481866666667","25.0814066666667","6500200","三重區"
"241022","265-UM","2017/07/01 17:19:06","新北市三重區重陽路二段34巷9號","121.486556666667","25.0632916666667","6500200","三重區"
"241016","266-UM","2017/07/01 17:19:17","新北市三重區新北大道一段6號","121.488853333333","25.06154","6500200","三重區"
"241018","268-UM","2017/07/01 17:19:08","新北市三重區安慶街143號","121.494481666667","25.0688016666667","6500200","三重區"
"241032","269-UM","2017/07/01 17:19:10","新北市三重區中華路2巷27號","121.4824","25.0605916666667","6500200","三重區"
"241013","270-UM","2017/07/01 17:19:03","新北市三重區三和路三段107巷36號","121.495343333333","25.0732016666667","6500200","三重區"
"241025","271-UM","2017/07/01 17:19:20","新北市三重區中正北路253號","121.475446666667","25.0707266666667","6500200","三重區"
"241007","398-BY","2017/07/01 17:19:07","新北市三重區三和路四段155巷31號","121.484795","25.0786983333333","6500200","三重區"
"241023","412-TH","2017/07/01 17:19:18","新北市三重區三民街188號","121.481741666667","25.0658583333333","6500200","三重區"
"241020","413-TH","2017/07/01 17:19:06","新北市三重區忠孝路一段179號","121.487373333333","25.0718883333333","6500200","三重區"
"241004","475-VK","2017/07/01 17:19:00","新北市三重區五華街122巷19號","121.49115","25.0827566666667","6500200","三重區"
"241019","478-VK","2017/07/01 17:19:14","新北市三重區忠孝路二段80號","121.484263333333","25.0695683333333","6500200","三重區"
"241030","480-VK","2017/07/01 17:19:18","新北市三重區成功路73巷19號","121.489648333333","25.0521883333333","6500200","三重區"
"241014","543-UM","2017/07/01 17:19:12","新北市三重區長榮路8號","121.500236666667","25.0685166666667","6500200","三重區"
"241001","547-UM","2017/07/01 17:19:21","新北市三重區仁愛街269巷4號","121.49314","25.0788466666667","6500200","三重區"
"241006","AAD-863","2017/07/01 17:19:14","新北市三重區車路頭街139巷1弄10號","121.4848","25.0764266666667","6500200","三重區"
"241012","941-UM","2017/07/01 17:19:13","新北市三重區河邊北街242號","121.501961666667","25.0758216666667","6500200","三重區"
"241029","942-UM","2017/07/01 17:19:21","新北市三重區重新路四段2號","121.489491666667","25.05843","6500200","三重區"
"241033","AAC-255","2017/07/01 17:19:19","新北市三重區中興北街136巷41號","121.467418333333","25.056035","6500200","三重區"
"235061","378-QA","2017/07/01 17:12:48","新北市中和區員山路36巷16-2號","121.485348333333","24.9917383333333","6500300","中和區"
"235071","783-BX","2017/07/01 17:19:07","新北市中和區員山路36巷16-2號","121.485286666667","24.9911216666667","6500300","中和區"
"247020","893-R6","2017/07/01 17:19:20","新北市蘆洲區民族路426巷1號","121.473516666667","25.0922166666667","6501400","蘆洲區"
"247010","546-UM","2017/07/01 17:19:11","新北市蘆洲區中山一路120巷7弄33號","121.4769","25.0825166666667","6501400","蘆洲區"
"247018","500-BY","2017/07/01 17:19:17","新北市蘆洲區民權路98號","121.474145","25.0880316666667","6501400","蘆洲區"
"247006","341-TH","2017/07/01 17:19:03","新北市蘆洲區長安街49巷4弄2號","121.462953333333","25.079185","6501400","蘆洲區"
"247008","339-TH","2017/07/01 17:19:16","新北市蘆洲區永安北路一段72巷42號","121.47629","25.0770016666667","6501400","蘆洲區"
"247024","337-TH","2017/07/01 17:19:12","新北市蘆洲區長榮路256號","121.460448333333","25.0859066666667","6501400","蘆洲區"
"247002","335-TH","2017/07/01 17:19:09","新北市蘆洲區永樂街38巷31號","121.458196666667","25.0893716666667","6501400","蘆洲區"
"247014","057-VK","2017/07/01 17:19:13","新北市蘆洲區光華路1號","121.469895","25.08351","6501400","蘆洲區"
"247004","056-VK","2017/07/01 17:19:04","新北市蘆洲區中原路13-5號","121.460803333333","25.08312","6501400","蘆洲區"
"247012","007-UY","2017/07/01 17:19:19","新北市蘆洲區信義路248號","121.47844","25.0864883333333","6501400","蘆洲區"
"247022","002-UY","2017/07/01 17:19:14","新北市蘆洲區三民路128巷35號","121.469946666667","25.0896","6501400","蘆洲區"
"247016","001-UY","2017/07/01 17:19:15","新北市蘆洲區中正路185巷26號","121.467948333333","25.08523","6501400","蘆洲區"
"228003","097-TW","2017/07/01 17:19:09","新北市貢寮區福隆里興隆街21-1號","121.943558333333","25.01654","6502600","貢寮區"
"228001","212-TW","2017/07/01 17:19:06","新北市貢寮區仁理村仁和路1號","121.924153333333","25.047805","6502600","貢寮區"
"228002","585-TW","2017/07/01 17:19:13","新北市貢寮區雙玉里下雙溪街28號","121.924735","25.0114833333333","6502600","貢寮區"
"224010","AGQ-8101","2017/07/01 08:58:12","新北市瑞芳區中山路198號","121.801178333333","25.1068816666667","6501200","瑞芳區"
"224006","676-BX","2017/07/01 17:19:18","新北市瑞芳區大寮路62號","121.781808333333","25.0981666666667","6501200","瑞芳區"
"224009","285-BY","2017/07/01 17:19:09","新北市瑞芳區汽車路157號","121.838411666667","25.1099","6501200","瑞芳區"
"224008","275-VK","2017/07/01 17:19:06","新北市瑞芳區侯硐路111號","121.831173333333","25.089565","6501200","瑞芳區"
"224005","271-BY","2017/07/01 17:19:12","新北市瑞芳區鼻頭路99號","121.91591","25.1238666666667","6501200","瑞芳區"
"227010","642-TC","2017/07/01 17:16:20","新北市雙溪區三貂里十三層5號","121.850935","25.0644916666667","6502500","雙溪區"
"227002","400-TW","2017/07/01 17:19:15","新北市雙溪區上林里內平林90號","121.828146666667","25.0277683333333","6502500","雙溪區"
"251004","009-UM","2017/07/01 17:19:05","新北市淡水區中正東路二段88巷15號","121.459125","25.1506166666667","6501000","淡水區"
"251014","180-VK","2017/07/01 17:19:21","新北市淡水區番子田114號","121.46362","25.22988","6501000","淡水區"
"251008","181-VK","2017/07/01 17:19:05","新北市淡水區大同路287號","121.46818","25.142575","6501000","淡水區"
"251010","413-VK","2017/07/01 17:19:13","新北市淡水區中正路二段31號","121.419675","25.182025","6501000","淡水區"
"251012","441-VK","2017/07/01 17:19:12","新北市淡水區中山北路一段158號","121.444346666667","25.177875","6501000","淡水區"
"251016","442-VK","2017/07/01 17:19:07","新北市淡水區社厝坑6-1號","121.468266666667","25.189385","6501000","淡水區"
"251005","443-VK","2017/07/01 17:19:10","新北市淡水區鄧公路23巷1-5號","121.450253333333","25.17","6501000","淡水區"
"251006","561-UM","2017/07/01 17:19:07","新北市淡水區重建街3巷27號","121.44061","25.1747333333333","6501000","淡水區"
"251009","575-R6","2017/07/01 17:19:06","新北市淡水區三民街20號","121.439021666667","25.1718066666667","6501000","淡水區"
"251007","577-R6","2017/07/01 17:19:08","新北市淡水區民生路47-4號","121.462098333333","25.1380566666667","6501000","淡水區"
"251011","650-BX","2017/07/01 17:19:23","新北市淡水區坪頂路128號","121.465155","25.161055","6501000","淡水區"
"251002","672-BX","2017/07/01 17:19:20","新北市淡水區中正路二段31號","121.419398333333","25.1817383333333","6501000","淡水區"
"251003","673-BX","2017/07/01 17:19:09","新北市淡水區中正路二段31號","121.419256666667","25.1822166666667","6501000","淡水區"
"207003","550-UM","2017/07/01 17:19:11","新北市萬里區萬里里瑪鋉路244號","121.689085","25.1805666666667","6502800","萬里區"
"252002","178-VK","2017/07/01 17:19:05","新北市三芝區忠孝街1-15號","121.505608333333","25.253965","6502100","三芝區"
"252001","702-TV","2017/07/01 17:19:09","新北市三芝區長安街119號","121.498078333333","25.2596216666667","6502100","三芝區"
"242021","AAC-296","2017/07/01 17:19:09","新北市新莊區新泰路500號","121.442471666667","25.0462733333333","6500500","新莊區"
"242029","986-R7","2017/07/01 17:19:10","新北市新莊區中環路二段392-1號","121.442393333333","25.0455166666667","6500500","新莊區"
"242025","615-BX","2017/07/01 17:19:16","新北市新莊區中港一街142號","121.446975","25.0449933333333","6500500","新莊區"
"242023","613-BX","2017/07/01 17:19:17","新北市新莊區中港一街142號","121.446441666667","25.0450983333333","6500500","新莊區"
"242027","612-BX","2017/07/01 17:19:04","新北市新莊區中港一街161號","121.447261666667","25.0449733333333","6500500","新莊區"
"242036","566-BX","2017/07/01 17:19:09","新北市新莊區新樹路132號","121.435668333333","25.0236183333333","6500500","新莊區"
"242042","497-BY","2017/07/01 17:19:14","新北市新莊區中正路475號","121.441575","25.0338033333333","6500500","新莊區"
"242004","442-UM","2017/07/01 17:19:06","新北市新莊區中港一街142號","121.446836666667","25.0448816666667","6500500","新莊區"
"242046","441-UM","2017/07/01 17:19:12","新北市新莊區新樹路65-7號","121.439375","25.0307566666667","6500500","新莊區"
"242051","440-UM","2017/07/01 17:19:09","新北市新莊區瓊林南路1號","121.43868","25.0207016666667","6500500","新莊區"
"242031","415-TV","2017/07/01 17:18:59","新北市新莊區新泰路417-6號","121.44311","25.0447233333333","6500500","新莊區"
"242002","413-TV","2017/07/01 17:19:14","新北市新莊區瓊林路52號","121.445775","25.0287516666667","6500500","新莊區"
"242039","400-BY","2017/07/01 17:19:19","新北市新莊區中正路481號","121.44146","25.03381","6500500","新莊區"
"242061","362-BY","2017/07/01 17:19:12","新北市新莊區新泰路357巷2-2號","121.441978333333","25.0409533333333","6500500","新莊區"
"242058","353-BY","2017/07/01 17:19:13","新北市新莊區新泰路357巷2-2號","121.441926666667","25.0413966666667","6500500","新莊區"
"242011","132-UY","2017/07/01 17:19:11","新北市新莊區中誠街11號","121.451915","25.0480766666667","6500500","新莊區"
"242034","133-UY","2017/07/01 17:19:13","新北市新莊區瓊林路52號","121.445801666667","25.0287583333333","6500500","新莊區"
"242019","135-UY","2017/07/01 17:19:13","新北市新莊區中港一街161號","121.44736","25.04497","6500500","新莊區"
"242044","172-VK","2017/07/01 17:19:17","新北市新莊區富國路101-1號","121.421383333333","25.0255566666667","6500500","新莊區"
"242007","173-VK","2017/07/01 00:35:49","新北市新莊區三和路12-21號","121.442091666667","25.0386783333333","6500500","新莊區"
"242013","175-VK","2017/07/01 17:19:08","新北市新莊區中和街110號","121.447668333333","25.0469916666667","6500500","新莊區"
"242056","176-VK","2017/07/01 17:19:17","新北市新莊區中環路一段285號","121.442156666667","25.03173","6500500","新莊區"
"242048","347-TH","2017/07/01 17:19:08","新北市新莊區龍安路116號","121.418955","25.020445","6500500","新莊區"
"242017","348-TH","2017/07/01 17:19:16","新北市新莊區中港一街161號","121.44705","25.0450233333333","6500500","新莊區"
"242053","349-TH","2017/07/01 17:19:18","新北市新莊區瓊林路59-89號","121.442176666667","25.024415","6500500","新莊區"
"242015","350-TH","2017/07/01 17:19:14","新北市新莊區建中街154號","121.444763333333","25.036485","6500500","新莊區"
"242009","351-TH","2017/07/01 17:19:18","新北市新莊區中環路三段2-1號","121.442796666667","25.05565","6500500","新莊區"
"238015","755-BX","2017/07/01 17:19:09","新北市樹林區大安路349號","121.416445","24.990525","6500700","樹林區"
"238019","599-UM","2017/07/01 17:19:15","新北市樹林區八德街251巷10弄2號","121.42227","24.9787216666667","6500700","樹林區"
"238018","571-TV","2017/07/01 17:19:12","新北市樹林區中華路3號","121.424865","24.9837316666667","6500700","樹林區"
"238024","5061-A6","2017/07/01 17:19:14","新北市樹林區博愛一街29巷68號","121.425816666667","24.9915466666667","6500700","樹林區"
"238022","312-TH","2017/07/01 17:19:09","新北市樹林區國凱街65號","121.422043333333","24.979785","6500700","樹林區"
"238021","311-TH","2017/07/01 17:13:00","新北市樹林區西圳街一段165巷20弄11號","121.395641666667","24.9602116666667","6500700","樹林區"
"238025","303-VK","2017/07/01 17:19:07","新北市樹林區大安路593號","121.411823333333","24.9829633333333","6500700","樹林區"
"238017","283-BY","2017/07/01 17:19:21","新北市樹林區大安路261號","121.419141666667","24.9939533333333","6500700","樹林區"
"238014","282-BY","2017/07/01 17:19:21","新北市樹林區中華路190-6號","121.410078333333","24.9805316666667","6500700","樹林區"
"238020","268-VK","2017/07/01 17:19:04","新北市樹林區中山路二段204號","121.411231666667","24.9822933333333","6500700","樹林區"
"238026","172-UY","2017/07/01 17:19:07","新北市樹林區東豐街85號","121.409911666667","24.9739183333333","6500700","樹林區"
"238016","169-UY","2017/07/01 17:19:06","新北市樹林區中山路二段222號","121.411023333333","24.9819033333333","6500700","樹林區"
"239007","AAC-297","2017/07/01 17:19:05","新北市鶯歌區光復街10-2號","121.351686666667","24.95526","6500800","鶯歌區"
"239006","891-R6","2017/07/01 17:19:03","新北市鶯歌區福昌街29巷2號","121.332668333333","24.9610166666667","6500800","鶯歌區"
"239008","527-UM","2017/07/01 17:19:18","新北市鶯歌區西湖街289巷5號","121.33958","24.968805","6500800","鶯歌區"
"239005","526-UM","2017/07/01 17:19:11","新北市鶯歌區福德三街15號","121.329638333333","24.96747","6500800","鶯歌區"
"239001","417-VK","2017/07/01 17:19:04","新北市鶯歌區尖山路234號","121.343066666667","24.9466866666667","6500800","鶯歌區"
"239003","360-BY","2017/07/01 17:19:11","新北市鶯歌區德昌二街3巷1-1號","121.333166666667","24.959495","6500800","鶯歌區"
"239002","359-BY","2017/07/01 17:19:17","新北市鶯歌區建國路158號","121.350466666667","24.95365","6500800","鶯歌區"
"239004","193-VK","2017/07/01 17:19:01","新北市鶯歌區文化路501-13號","121.353488333333","24.9487333333333","6500800","鶯歌區"
"221010","276-VK","2017/07/01 15:29:27","新北市汐止區汐萬路一段256巷3號","121.65342","25.0745966666667","6501100","汐止區"
"220002","741-BX","2017/07/01 16:37:03","新北市板橋區民生路二段36-1號","121.472546666667","25.0165666666667","6500100","板橋區"
