"lineid","car","time","location","longitude","latitude","cityid","cityname"
"234026","9371-KE","2017/07/01 17:49:11","新北市永和區中山路一段119號","121.5109","25.010055","6500400","永和區"
"249001","173-UM","2017/07/01 17:49:10","新北市八里區龍米路二段135號","121.444705","25.1481266666667","6502300","八里區"
"249004","303-UY","2017/07/01 17:49:09","新北市八里區中華路一段81巷22號","121.419586666667","25.15554","6502300","八里區"
"249002","305-UY","2017/07/01 17:49:22","新北市八里區龍形五街37巷6號","121.448818333333","25.1327633333333","6502300","八里區"
"249003","593-UM","2017/07/01 17:49:06","新北市八里區中山路二段212號","121.405348333333","25.1518183333333","6502300","八里區"
"249005","759-BX","2017/07/01 17:49:06","新北市八里區荖阡坑路34-3號","121.402301666667","25.13199","6502300","八里區"
"248014","025-BX","2017/07/01 17:49:08","新北市五股區中興路二段63巷17號","121.46024","25.0754483333333","6501500","五股區"
"248006","077-UY","2017/07/01 17:49:01","新北市五股區中興路二段83巷26-6號","121.460055","25.0750483333333","6501500","五股區"
"248008","095-VK","2017/07/01 17:49:05","新北市五股區中興路二段37巷28號","121.46027","25.0750783333333","6501500","五股區"
"248018","225-UY","2017/07/01 15:28:09","新北市五股區中興路二段83巷26-6號","121.460015","25.0751566666667","6501500","五股區"
"232011","375-UM","2017/07/01 17:49:20","新北市坪林區北宜路八段76號","121.705346666667","24.9351483333333","6502000","坪林區"
"244013","069-UM","2017/07/01 17:49:08","新北市林口區中正路505巷5號","121.383368333333","25.0772616666667","6501700","林口區"
"244007","080-UY","2017/07/01 17:49:10","新北市林口區佳林路35號","121.386661666667","25.0818983333333","6501700","林口區"
"244019","403-UM","2017/07/01 17:49:08","新北市林口區公園路168號","121.372355","25.0720366666667","6501700","林口區"
"244009","410-SL","2017/07/01 17:49:06","新北市林口區民享路157號","121.382033333333","25.0833366666667","6501700","林口區"
"244023","483-VK","2017/07/01 17:49:08","新北市林口區興林路346號","121.388576666667","25.0699716666667","6501700","林口區"
"244017","485-VK","2017/07/01 17:49:23","新北市林口區忠孝路403號","121.369958333333","25.07099","6501700","林口區"
"244021","657-BX","2017/07/01 17:49:22","新北市林口區仁愛路一段123巷7號","121.39874","25.0711916666667","6501700","林口區"
"244011","701-TV","2017/07/01 17:49:10","新北市林口區竹林路1-10號","121.386386666667","25.07683","6501700","林口區"
"244025","837-TS","2017/07/01 17:49:15","新北市林口區忠孝三路42號","121.360063333333","25.0699116666667","6501700","林口區"
"243010","548-UM","2017/07/01 17:49:14","新北市泰山區黎明路25號","121.422018333333","25.06081","6501600","泰山區"
"222003","436-BY","2017/07/01 17:49:07","新北市深坑區阿柔洋60-1號","121.608571666667","24.998515","6501800","深坑區"
"222002","659-BX","2017/07/01 17:48:59","新北市深坑區平埔街22巷17弄1號","121.614918333333","25.0008733333333","6501800","深坑區"
"231030","047-UY","2017/07/01 12:38:12","新北市新店區安華路28-1號","121.519308333333","24.960905","6500600","新店區"
"231046","278-BY","2017/07/01 17:49:06","新北市新店區下石厝路18號","121.533518333333","24.9280183333333","6500600","新店區"
"241024","065-VK","2017/07/01 17:49:16","新北市三重區力行路二段29號","121.482013333333","25.0728516666667","6500200","三重區"
"241002","090-VK","2017/07/01 17:49:21","新北市三重區福隆路47號","121.491001666667","25.0777333333333","6500200","三重區"
"241031","156-TC","2017/07/01 17:49:14","新北市三重區重新路四段121號","121.484828333333","25.05201","6500200","三重區"
"241005","262-UM","2017/07/01 17:49:17","新北市三重區集賢路87-1號","121.493643333333","25.0868933333333","6500200","三重區"
"241016","266-UM","2017/07/01 17:49:17","新北市三重區重新路二段132-1號","121.496088333333","25.0615233333333","6500200","三重區"
"241033","AAC-255","2017/07/01 17:49:19","新北市三重區重新路五段527號","121.471176666667","25.0461833333333","6500200","三重區"
"235061","378-QA","2017/07/01 17:12:48","新北市中和區員山路36巷16-2號","121.485348333333","24.9917383333333","6500300","中和區"
"235071","783-BX","2017/07/01 17:49:07","新北市中和區員山路36巷16-3號","121.485181666667","24.991205","6500300","中和區"
"247020","893-R6","2017/07/01 17:49:00","新北市蘆洲區民義街71巷22號","121.472681666667","25.0906583333333","6501400","蘆洲區"
"247010","546-UM","2017/07/01 17:49:11","新北市蘆洲區信義路224號","121.478958333333","25.085305","6501400","蘆洲區"
"247018","500-BY","2017/07/01 17:49:17","新北市蘆洲區復興路227巷2弄1號","121.480046666667","25.0901366666667","6501400","蘆洲區"
"247006","341-TH","2017/07/01 17:49:03","新北市蘆洲區永安南路二段76號","121.464525","25.0780816666667","6501400","蘆洲區"
"247008","339-TH","2017/07/01 17:49:16","新北市蘆洲區中山一路197巷4弄21號","121.47401","25.0805266666667","6501400","蘆洲區"
"247024","337-TH","2017/07/01 17:49:11","新北市蘆洲區光明路85巷30號","121.461156666667","25.0880633333333","6501400","蘆洲區"
"247002","335-TH","2017/07/01 17:49:09","新北市蘆洲區永平街32巷33弄23號","121.458483333333","25.0924383333333","6501400","蘆洲區"
"247014","057-VK","2017/07/01 17:49:13","新北市蘆洲區中原路81號","121.458121666667","25.0818083333333","6501400","蘆洲區"
"247004","056-VK","2017/07/01 17:49:04","新北市蘆洲區永安南路二段342號","121.45653","25.0829933333333","6501400","蘆洲區"
"247012","007-UY","2017/07/01 17:49:18","新北市蘆洲區民族路171號","121.479208333333","25.08839","6501400","蘆洲區"
"247022","002-UY","2017/07/01 17:49:14","新北市蘆洲區中正路355號","121.465203333333","25.0899133333333","6501400","蘆洲區"
"247016","001-UY","2017/07/01 17:49:15","新北市蘆洲區長興路50巷41號","121.465068333333","25.084825","6501400","蘆洲區"
"228003","097-TW","2017/07/01 17:49:09","新北市貢寮區真理里美艷山街3-1號","121.926028333333","25.0595433333333","6502600","貢寮區"
"228001","212-TW","2017/07/01 17:49:06","新北市貢寮區仁理村仁愛路95-1號","121.927701666667","25.0554816666667","6502600","貢寮區"
"228002","585-TW","2017/07/01 17:49:13","新北市貢寮區福隆里龜壽谷街13號","121.956765","25.0057433333333","6502600","貢寮區"
"224006","676-BX","2017/07/01 17:49:03","新北市瑞芳區傑魚坑路51號","121.793488333333","25.1104666666667","6501200","瑞芳區"
"224002","639-TC","2017/07/01 17:43:02","新北市瑞芳區明燈路二段46號","121.809505","25.108155","6501200","瑞芳區"
"224009","285-BY","2017/07/01 17:49:09","新北市瑞芳區金光路376號","121.850636666667","25.110995","6501200","瑞芳區"
"224008","275-VK","2017/07/01 17:49:10","新北市瑞芳區明燈路一段100號","121.81923","25.1078166666667","6501200","瑞芳區"
"224005","271-BY","2017/07/01 17:49:12","新北市瑞芳區瑞濱路55-3號","121.825115","25.1209066666667","6501200","瑞芳區"
"253006","032-BX","2017/07/01 17:49:16","新北市石門區中央路6號","121.56654","25.29144","6502200","石門區"
"208003","665-BX","2017/07/01 17:49:01","新北市金山區磺清路135號","121.639428333333","25.22777","6502700","金山區"
"208001","761-BX","2017/07/01 17:49:21","新北市金山區磺清路135號","121.639351666667","25.2277766666667","6502700","金山區"
"251004","009-UM","2017/07/01 17:49:05","新北市淡水區民權一街17巷16號","121.459466666667","25.1365933333333","6501000","淡水區"
"251014","180-VK","2017/07/01 17:49:01","新北市淡水區公埔子16-6號","121.480985","25.2245566666667","6501000","淡水區"
"251008","181-VK","2017/07/01 17:49:05","新北市淡水區八勢路一段139號","121.467216666667","25.1578283333333","6501000","淡水區"
"251010","413-VK","2017/07/01 17:49:13","新北市淡水區中正路二段96號","121.417625","25.185745","6501000","淡水區"
"251012","441-VK","2017/07/01 17:49:12","新北市淡水區北新路一段339號","121.466608333333","25.1822733333333","6501000","淡水區"
"251016","442-VK","2017/07/01 17:49:07","新北市淡水區埤島39-15號","121.452723333333","25.19587","6501000","淡水區"
"251005","443-VK","2017/07/01 17:49:10","新北市淡水區學府路96號","121.449601666667","25.1711716666667","6501000","淡水區"
"251001","559-UM","2017/07/01 17:49:05","新北市淡水區民權路92巷35-1號","121.46217","25.126725","6501000","淡水區"
"251006","561-UM","2017/07/01 17:49:07","新北市淡水區大信街1巷25號","121.44016","25.176745","6501000","淡水區"
"251009","575-R6","2017/07/01 17:49:06","新北市淡水區長興街31-1號","121.44401","25.1713133333333","6501000","淡水區"
"251007","577-R6","2017/07/01 17:49:08","新北市淡水區民生路16巷29號","121.461733333333","25.1374966666667","6501000","淡水區"
"251011","650-BX","2017/07/01 17:42:23","新北市淡水區小坪頂23-4號","121.48354","25.1510033333333","6501000","淡水區"
"251002","672-BX","2017/07/01 17:49:19","新北市淡水區中山路88號","121.44293","25.17056","6501000","淡水區"
"251003","673-BX","2017/07/01 17:49:09","新北市淡水區大忠街13號","121.44337","25.1759566666667","6501000","淡水區"
"207003","550-UM","2017/07/01 17:49:11","新北市萬里區野柳里東澳路66號","121.692713333333","25.200945","6502800","萬里區"
"207004","225-TW","2017/07/01 17:49:11","新北市萬里區萬里里瑪鋉頂街61號","121.688155","25.1805466666667","6502800","萬里區"
"252002","178-VK","2017/07/01 17:49:05","新北市三芝區智成街47號","121.504205","25.2562583333333","6502100","三芝區"
"252001","702-TV","2017/07/01 17:49:09","新北市三芝區淡金路一段32號","121.500285","25.2591516666667","6502100","三芝區"
"237004","078-UY","2017/07/01 17:49:12","新北市三峽區中山路110號","121.365776666667","24.9358083333333","6500900","三峽區"
"237009","210-TH","2017/07/01 17:48:59","新北市三峽區大勇路35-1號","121.36723","24.9361566666667","6500900","三峽區"
"237013","252-BX","2017/07/01 17:49:03","新北市三峽區安溪路309巷9號","121.373443333333","24.9333033333333","6500900","三峽區"
"237012","275-BY","2017/07/01 17:49:16","新北市三峽區復興路480巷7-2號","121.357753333333","24.9397733333333","6500900","三峽區"
"237008","302-VK","2017/07/01 17:49:12","新北市三峽區中園街237-1號","121.366788333333","24.919435","6500900","三峽區"
"237014","433-BY","2017/07/01 17:49:16","新北市三峽區文化路120巷8號","121.371181666667","24.936545","6500900","三峽區"
"237006","5529-G3","2017/07/01 17:49:10","新北市三峽區介壽路二段38巷67號","121.391626666667","24.9342066666667","6500900","三峽區"
"237011","572-TV","2017/07/01 17:49:06","新北市三峽區大同路64號","121.376636666667","24.92826","6500900","三峽區"
"237016","649-BX","2017/07/01 17:49:03","新北市三峽區白雞127號","121.394143333333","24.909275","6500900","三峽區"
"237010","706-TV","2017/07/01 17:49:18","新北市三峽區和平街26-1號","121.370185","24.9366183333333","6500900","三峽區"
"237005","AKY-6261","2017/07/01 17:49:06","新北市三峽區中山路323號","121.360748333333","24.9380333333333","6500900","三峽區"
"236073","105-UM","2017/07/01 17:49:06","新北市土城區明德路二段8巷2號","121.452328333333","24.980295","6501300","土城區"
"236043","107-UM","2017/07/01 17:49:14","新北市土城區城林路6巷80號","121.438543333333","24.9797333333333","6501300","土城區"
"236079","166-UM","2017/07/01 17:49:08","新北市土城區中央路三段130-4號","121.43442","24.9657366666667","6501300","土城區"
"236031","253-BX","2017/07/01 17:49:02","新北市土城區城林路6巷80號","121.438445","24.979805","6501300","土城區"
"236015","270-VK","2017/07/01 17:49:16","新北市土城區城林路6巷80號","121.438521666667","24.979575","6501300","土城區"
"236038","271-VK","2017/07/01 17:49:15","新北市土城區城林路6巷80號","121.438426666667","24.9797483333333","6501300","土城區"
"236059","912-UM","2017/07/01 17:49:13","新北市土城區中央路二段280號","121.440898333333","24.97409","6501300","土城區"
"236049","913-UM","2017/07/01 17:37:49","新北市土城區城林路6巷80號","121.43842","24.979615","6501300","土城區"
"236055","AAC-216","2017/07/01 17:49:02","新北市土城區城林路6巷80號","121.438453333333","24.9795883333333","6501300","土城區"
"242021","AAC-296","2017/07/01 17:49:13","新北市新莊區中華路一段234號","121.45264","25.04332","6500500","新莊區"
"242029","986-R7","2017/07/01 17:49:10","新北市新莊區復興路一段63號","121.447661666667","25.0424383333333","6500500","新莊區"
"242025","615-BX","2017/07/01 17:49:16","新北市新莊區新北大道二段286號","121.465428333333","25.0614","6500500","新莊區"
"242023","613-BX","2017/07/01 17:49:17","新北市新莊區福樂街40號","121.457885","25.04569","6500500","新莊區"
"242027","612-BX","2017/07/01 17:49:18","新北市新莊區福壽街151號","121.457981666667","25.0531816666667","6500500","新莊區"
"242036","566-BX","2017/07/01 17:49:14","新北市新莊區後港一路96號","121.427773333333","25.02676","6500500","新莊區"
"242042","497-BY","2017/07/01 17:49:14","新北市泰山區貴陽街29號","121.422155","25.0331783333333","6500500","新莊區"
"242004","442-UM","2017/07/01 17:49:06","新北市新莊區思源路177巷5弄2號","121.459316666667","25.0450916666667","6500500","新莊區"
"242046","441-UM","2017/07/01 17:49:19","新北市新莊區建國一路80號","121.434506666667","25.0304133333333","6500500","新莊區"
"242051","440-UM","2017/07/01 17:49:09","新北市新莊區西盛街269巷21號","121.428906666667","25.0156366666667","6500500","新莊區"
"242031","415-TV","2017/07/01 17:49:19","新北市新莊區新泰路321巷32號","121.443156666667","25.0413","6500500","新莊區"
"242002","413-TV","2017/07/01 17:49:14","新北市新莊區景德路106號","121.451506666667","25.0343683333333","6500500","新莊區"
"242039","400-BY","2017/07/01 17:49:19","新北市新莊區民安路170號","121.425025","25.02406","6500500","新莊區"
"242061","362-BY","2017/07/01 17:49:12","新北市新莊區新樹路294號","121.432746666667","25.0070083333333","6500500","新莊區"
"242058","353-BY","2017/07/01 17:49:13","新北市新莊區中正路730-6號","121.414778333333","25.0235483333333","6500500","新莊區"
"242011","132-UY","2017/07/01 17:49:11","新北市新莊區中港路719號","121.450468333333","25.0576433333333","6500500","新莊區"
"242034","133-UY","2017/07/01 17:49:13","新北市新莊區新莊路805號","121.440623333333","25.0326883333333","6500500","新莊區"
"242019","135-UY","2017/07/01 17:49:13","新北市新莊區中港路264號","121.453461666667","25.0437716666667","6500500","新莊區"
"242044","172-VK","2017/07/01 17:49:18","新北市新莊區中正路829巷22弄47號","121.420551666667","25.0265333333333","6500500","新莊區"
"242007","173-VK","2017/07/01 17:49:15","新北市新莊區福壽街59巷2號","121.458023333333","25.0491016666667","6500500","新莊區"
"242013","175-VK","2017/07/01 17:49:08","新北市新莊區中誠街164號","121.448145","25.04742","6500500","新莊區"
"242056","176-VK","2017/07/01 17:49:17","新北市新莊區瓊林路38巷37號","121.446651666667","25.0304483333333","6500500","新莊區"
"242048","347-TH","2017/07/01 17:49:08","新北市新莊區萬安街60巷15號","121.420426666667","25.023195","6500500","新莊區"
"242017","348-TH","2017/07/01 17:49:16","新北市新莊區永安街155號","121.449186666667","25.0443466666667","6500500","新莊區"
"242053","349-TH","2017/07/01 17:49:18","新北市新莊區民安西路468-1號","121.431621666667","25.0078533333333","6500500","新莊區"
"242015","350-TH","2017/07/01 17:49:22","新北市新莊區新泰路502巷34號","121.443481666667","25.0465133333333","6500500","新莊區"
"242009","351-TH","2017/07/01 17:49:18","新北市新莊區昌平街59巷9號","121.454133333333","25.0531616666667","6500500","新莊區"
"238015","755-BX","2017/07/01 17:49:09","新北市樹林區樹德街136巷13弄8號","121.419733333333","24.9931966666667","6500700","樹林區"
"238023","601-UM","2017/07/01 17:49:15","新北市樹林區三福街62號","121.405058333333","25.0162516666667","6500700","樹林區"
"238019","599-UM","2017/07/01 17:49:03","新北市樹林區太順街28號","121.419446666667","24.9800416666667","6500700","樹林區"
"238018","571-TV","2017/07/01 17:49:12","新北市樹林區鎮前街8號","121.426333333333","24.9935183333333","6500700","樹林區"
"238024","5061-A6","2017/07/01 17:49:14","新北市樹林區八德街67號","121.399698333333","24.96933","6500700","樹林區"
"238022","312-TH","2017/07/01 17:49:09","新北市樹林區太元街17號","121.418176666667","24.9802333333333","6500700","樹林區"
"238021","311-TH","2017/07/01 17:13:00","新北市樹林區西圳街一段165巷20弄11號","121.395641666667","24.9602116666667","6500700","樹林區"
"238025","303-VK","2017/07/01 17:49:07","新北市樹林區中正路460號","121.412748333333","25.0123433333333","6500700","樹林區"
"238017","283-BY","2017/07/01 17:49:01","新北市樹林區三德街20-4號","121.414006666667","25.0129716666667","6500700","樹林區"
"238014","282-BY","2017/07/01 17:49:21","新北市樹林區保安街一段293號","121.41793","24.99733","6500700","樹林區"
"238020","268-VK","2017/07/01 17:49:04","新北市樹林區俊英街284號","121.423695","25.0137766666667","6500700","樹林區"
"238026","172-UY","2017/07/01 17:42:47","新北市樹林區新興街19巷26號","121.40148","24.9733733333333","6500700","樹林區"
"238016","169-UY","2017/07/01 17:49:06","新北市樹林區復興路252號","121.418353333333","24.9890666666667","6500700","樹林區"
"239007","AAC-297","2017/07/01 17:49:05","新北市鶯歌區鶯桃路94巷17號","121.340338333333","24.954175","6500800","鶯歌區"
"239006","891-R6","2017/07/01 17:49:03","新北市鶯歌區鶯桃路413巷70號","121.330025","24.963075","6500800","鶯歌區"
"239008","527-UM","2017/07/01 17:49:18","新北市鶯歌區香賓街11巷1號","121.33675","24.9794866666667","6500800","鶯歌區"
"239005","526-UM","2017/07/01 17:49:11","新北市鶯歌區鳳吉五街23號","121.327133333333","24.9725966666667","6500800","鶯歌區"
"239001","417-VK","2017/07/01 17:49:14","新北市鶯歌區中正三路460-1號","121.321155","24.9342533333333","6500800","鶯歌區"
"239003","360-BY","2017/07/01 17:49:07","新北市鶯歌區永吉街46巷17號","121.33514","24.9574083333333","6500800","鶯歌區"
"239002","359-BY","2017/07/01 17:49:17","新北市鶯歌區中山路329巷22弄15-3號","121.344506666667","24.9558566666667","6500800","鶯歌區"
"239004","193-VK","2017/07/01 17:49:21","新北市鶯歌區文化路324巷1-37號","121.352245","24.9458783333333","6500800","鶯歌區"
"221008","489-VK","2017/07/01 17:49:21","新北市汐止區康寧街901號","121.65142","25.0750416666667","6501100","汐止區"
"221036","130-UY","2017/07/01 17:49:00","新北市汐止區長江街190號","121.66022","25.0764316666667","6501100","汐止區"
"221015","131-UY","2017/07/01 17:49:16","新北市汐止區長江街57巷2號","121.6564","25.0715683333333","6501100","汐止區"
"221010","269-BY","2017/07/01 17:49:13","新北市汐止區汐萬路二段122巷40號","121.648238333333","25.08682","6501100","汐止區"
"221010","276-VK","2017/07/01 15:29:27","新北市汐止區汐萬路一段256巷3號","121.65342","25.0745966666667","6501100","汐止區"
"221031","277-VK","2017/07/01 01:05:12","新北市汐止區汐萬路一段256巷3號","121.652576666667","25.0744766666667","6501100","汐止區"
"221012","278-VK","2017/07/01 17:49:10","新北市汐止區長江街57巷1號","121.656265","25.071525","6501100","汐止區"
"221023","279-VK","2017/07/01 15:11:27","新北市汐止區汐萬路一段256巷1號","121.651903333333","25.075025","6501100","汐止區"
"221032","280-BY","2017/07/01 17:49:21","新北市汐止區民權街一段16號","121.621178333333","25.05293","6501100","汐止區"
"221038","297-VK","2017/07/01 17:49:10","新北市汐止區汐萬路一段208號","121.652071666667","25.0723433333333","6501100","汐止區"
"221029","298-VK","2017/07/01 17:49:19","新北市汐止區康寧街901號","121.6517","25.0749333333333","6501100","汐止區"
"221021","299-VK","2017/07/01 17:49:18","新北市汐止區禮門街7號","121.656616666667","25.0674816666667","6501100","汐止區"
"221035","622-UM","2017/07/01 17:49:04","新北市汐止區汐萬路一段211巷15號","121.651483333333","25.071845","6501100","汐止區"
"221025","623-UM","2017/07/01 17:49:12","新北市汐止區新台五路一段207號","121.656611666667","25.06352","6501100","汐止區"
"221033","647-BX","2017/07/01 17:49:05","新北市汐止區橫科路73巷20弄16號","121.619723333333","25.0515866666667","6501100","汐止區"
"221002","707-TV","2017/07/01 17:49:16","新北市汐止區康寧街901號","121.651523333333","25.07501","6501100","汐止區"
"220002","741-BX","2017/07/01 16:37:03","新北市板橋區民生路二段36-1號","121.472546666667","25.0165666666667","6500100","板橋區"
