"lineid","car","time","location","longitude","latitude","cityid","cityname"
"234046","148-BY","2017/07/01 18:59:02","新北市永和區秀朗路二段196巷4號","121.526108333333","25.0006883333333","6500400","永和區"
"234013","149-BY","2017/07/01 18:59:16","新北市永和區信義路17巷7號","121.513988333333","25.0117016666667","6500400","永和區"
"234007","207-UY","2017/07/01 18:59:21","新北市永和區中山路一段75號","121.512438333333","25.0106966666667","6500400","永和區"
"234081","298-R6","2017/07/01 18:59:03","新北市永和區國中路150號","121.522691666667","25.0067466666667","6500400","永和區"
"234038","336-UY","2017/07/01 18:59:03","新北市永和區民樂街77巷1號","121.527423333333","24.9967433333333","6500400","永和區"
"234064","337-UY","2017/07/01 18:59:15","新北市永和區秀朗路一段198號","121.519441666667","25.0031583333333","6500400","永和區"
"234086","338-UY","2017/07/01 18:59:13","新北市永和區永利路18號","121.518016666667","25.0057466666667","6500400","永和區"
"234070","552-UM","2017/07/01 18:59:08","新北市永和區豫溪街95巷10弄1號","121.517943333333","25.010865","6500400","永和區"
"234054","553-UM","2017/07/01 18:59:08","新北市永和區竹林路64號","121.518301666667","25.0134216666667","6500400","永和區"
"234030","746-BX","2017/07/01 18:59:11","新北市永和區秀朗路二段289號","121.526196666667","24.9980666666667","6500400","永和區"
"234061","AAD-866","2017/07/01 18:59:05","新北市永和區福和路299號","121.51649","25.0071983333333","6500400","永和區"
"234017","845-RS","2017/07/01 18:59:13","新北市永和區永和路二段297號","121.515961666667","25.0160333333333","6500400","永和區"
"234042","862-TW","2017/07/01 18:59:07","新北市永和區永貞路304號","121.511991666667","25.0048133333333","6500400","永和區"
"234050","863-TW","2017/07/01 18:59:21","新北市永和區文化路153號","121.51052","25.0162433333333","6500400","永和區"
"234026","9371-KE","2017/07/01 18:59:10","新北市永和區自由街58號","121.513763333333","25.0059716666667","6500400","永和區"
"234011","9373-KE","2017/07/01 18:59:05","新北市永和區忠孝街34巷18號","121.514523333333","25.0167966666667","6500400","永和區"
"249001","173-UM","2017/07/01 18:59:10","新北市八里區龍米路二段190號","121.433878333333","25.1584716666667","6502300","八里區"
"249005","759-BX","2017/07/01 18:59:11","新北市八里區長道坑6號","121.39768","25.1235466666667","6502300","八里區"
"248006","077-UY","2017/07/01 18:59:21","新北市五股區中興路一段63號","121.467855","25.0725916666667","6501500","五股區"
"248008","095-VK","2017/07/01 18:59:05","新北市五股區中興路一段118巷6弄3號","121.466245","25.0740783333333","6501500","五股區"
"248018","225-UY","2017/07/01 18:59:08","新北市五股區凌雲路三段57號","121.425275","25.1250233333333","6501500","五股區"
"248012","247-BX","2017/06/30 21:11:03","新北市五股區中興路二段103巷16號","121.458853333333","25.0755466666667","6501500","五股區"
"248016","261-SL","2017/07/01 18:59:15","新北市五股區成泰路三段543巷23號","121.450515","25.1024616666667","6501500","五股區"
"248010","272-BY","2017/07/01 18:59:22","新北市五股區水碓九路11號","121.427766666667","25.0717533333333","6501500","五股區"
"248004","677-BX","2017/07/01 18:59:10","新北市五股區民義路三段1號","121.403618333333","25.1130066666667","6501500","五股區"
"248002","678-BX","2017/07/01 18:59:05","新北市五股區成泰路三段454號","121.451431666667","25.1003966666667","6501500","五股區"
"234023","9380-KE","2017/07/01 18:59:18","新北市永和區竹林路91巷55弄1號","121.521928333333","25.0137516666667","6500400","永和區"
"234077","969-R7","2017/07/01 18:59:20","新北市永和區智光街22號","121.517953333333","24.9993","6500400","永和區"
"234074","AAC-211","2017/07/01 18:59:00","新北市永和區環河東路二段92號","121.524065","25.01046","6500400","永和區"
"234067","AAC-212","2017/07/01 18:59:02","新北市永和區中和路625號","121.512976666667","25.0049216666667","6500400","永和區"
"234003","AAC-295","2017/07/01 18:57:31","新北市永和區和平街26號","121.513576666667","25.0099966666667","6500400","永和區"
"232011","375-UM","2017/07/01 18:59:03","新北市坪林區水聳淒坑20-2號","121.711343333333","24.93399","6502000","坪林區"
"244013","069-UM","2017/07/01 18:59:08","新北市林口區麗園一街6巷3-2號","121.37613","25.0699866666667","6501700","林口區"
"244007","080-UY","2017/07/01 18:59:10","新北市林口區太平里25-5號","121.376793333333","25.117125","6501700","林口區"
"244019","403-UM","2017/07/01 18:59:08","新北市林口區麗園二街41號","121.380705","25.0690016666667","6501700","林口區"
"244009","410-SL","2017/07/01 18:59:06","新北市林口區竹林路348巷26號","121.393026666667","25.0835966666667","6501700","林口區"
"244023","483-VK","2017/07/01 18:59:07","新北市林口區文林六街56號","121.371051666667","25.081695","6501700","林口區"
"244017","485-VK","2017/07/01 18:59:03","新北市林口區文化二路一段120巷5號","121.367925","25.0700016666667","6501700","林口區"
"244011","701-TV","2017/07/01 18:59:10","新北市林口區仁愛路一段356號","121.390261666667","25.0765966666667","6501700","林口區"
"244025","837-TS","2017/07/01 18:59:15","新北市林口區文化三路一段447巷29號","121.367768333333","25.07518","6501700","林口區"
"243013","AAD-798","2017/07/01 18:59:12","新北市泰山區明志路三段243號","121.423508333333","25.0376183333333","6501600","泰山區"
"243009","297-R6","2017/07/01 18:59:17","新北市泰山區泰林路二段353號","121.428293333333","25.0636683333333","6501600","泰山區"
"243015","380-SR","2017/07/01 18:59:20","新北市泰山區明志路一段193號","121.432806666667","25.061725","6501600","泰山區"
"243014","421-VK","2017/07/01 18:59:20","新北市泰山區泰林路二段595號","121.421673333333","25.0634916666667","6501600","泰山區"
"243010","548-UM","2017/07/01 18:59:05","新北市泰山區辭修路24號","121.429041666667","25.0581516666667","6501600","泰山區"
"243011","549-UM","2017/07/01 18:59:12","新北市泰山區明志路二段298巷10號","121.42612","25.0466616666667","6501600","泰山區"
"243012","646-TV","2017/07/01 18:59:21","新北市泰山區仁德路112號","121.43279","25.0569366666667","6501600","泰山區"
"243016","680-BX","2017/07/01 18:59:14","新北市泰山區明志路二段201號","121.427516666667","25.0490983333333","6501600","泰山區"
"222003","436-BY","2017/07/01 18:59:07","新北市深坑區深南路51-1號","121.621401666667","25.0101433333333","6501800","深坑區"
"222002","659-BX","2017/07/01 18:59:19","新北市深坑區文山路一段35號","121.627996666667","25.0025916666667","6501800","深坑區"
"222001","696-SL","2017/07/01 18:59:02","新北市深坑區北深路一段194號","121.633618333333","25.0108283333333","6501800","深坑區"
"231056","0291-UT","2017/07/01 18:59:01","新北市新店區二十張路33巷26號","121.539428333333","24.98049","6500600","新店區"
"231059","046-UY","2017/07/01 18:59:12","新北市新店區安康路一段355號","121.519951666667","24.9638","6500600","新店區"
"231030","047-UY","2017/07/01 12:38:12","新北市新店區安華路28-1號","121.519308333333","24.960905","6500600","新店區"
"231060","106-UY","2017/07/01 18:59:06","新北市新店區車子路20號","121.505443333333","24.9546316666667","6500600","新店區"
"231051","107-UY","2017/07/01 18:59:08","新北市新店區百忍街11號","121.534688333333","24.9755916666667","6500600","新店區"
"231048","108-UY","2017/07/01 18:59:05","新北市新店區德正街27巷29弄28號","121.545763333333","24.9722483333333","6500600","新店區"
"231052","187-VK","2017/07/01 18:59:20","新北市新店區屈尺路8號","121.549081666667","24.9226016666667","6500600","新店區"
"231063","268-BY","2017/07/01 18:59:09","新北市新店區車子路110號","121.505235","24.9520716666667","6500600","新店區"
"231046","278-BY","2017/07/01 18:59:06","新北市新店區直潭四街52號","121.53284","24.9413083333333","6500600","新店區"
"231050","AAD-862","2017/07/01 18:59:11","新北市新店區新烏路一段11巷13號","121.547565","24.95096","6500600","新店區"
"231041","355-BY","2017/07/01 18:59:23","新北市新店區環河路29巷1號","121.536916666667","24.961345","6500600","新店區"
"231058","3712-VJ","2017/07/01 18:59:13","新北市新店區中興路一段188號","121.543268333333","24.96489","6500600","新店區"
"231055","3713-VJ","2017/07/01 18:59:05","新北市新店區新生街13巷24號","121.538965","24.9663066666667","6500600","新店區"
"231067","4772-VM","2017/07/01 18:59:01","新北市新店區安康路一段291巷50號","121.52291","24.9613816666667","6500600","新店區"
"231065","512-UM","2017/07/01 18:59:09","新北市新店區安祥路147巷76號","121.475923333333","24.9556616666667","6500600","新店區"
"231054","513-UM","2017/07/01 18:59:21","新北市新店區新店路27號","121.540068333333","24.95274","6500600","新店區"
"231064","515-UM","2017/07/01 18:59:14","新北市新店區安康路一段355號","121.519943333333","24.9637066666667","6500600","新店區"
"231042","616-UM","2017/07/01 18:59:05","新北市新店區中正路84號","121.543701666667","24.97037","6500600","新店區"
"231045","617-UM","2017/07/01 18:59:14","新北市新店區光明街53號","121.538636666667","24.9602083333333","6500600","新店區"
"231061","618-UM","2017/07/01 18:59:13","新北市新店區安康路一段299-3號","121.520991666667","24.9638983333333","6500600","新店區"
"231040","619-UM","2017/07/01 18:59:18","新北市新店區中正路396號","121.534578333333","24.97738","6500600","新店區"
"231049","719-UM","2017/07/01 18:59:05","新北市新店區中正路454-5號","121.534516666667","24.9790466666667","6500600","新店區"
"231062","720-UM","2017/07/01 18:59:15","新北市新店區車子路1-1號","121.504663333333","24.9579516666667","6500600","新店區"
"231044","897-TW","2017/07/01 18:59:09","新北市新店區寶中路99號","121.548868333333","24.98026","6500600","新店區"
"231043","899-TW","2017/07/01 18:59:01","新北市新店區北新路二段15號","121.542675","24.9714733333333","6500600","新店區"
"231066","AKT-0513","2017/07/01 18:59:09","新北市新店區安祥路30-1號","121.493251666667","24.956095","6500600","新店區"
"241031","156-TC","2017/07/01 18:59:14","新北市三重區重新路四段121號","121.484908333333","25.0520583333333","6500200","三重區"
"241029","942-UM","2017/07/01 18:59:07","新北市三重區重安街14號","121.490316666667","25.0582033333333","6500200","三重區"
"235066","003-UY","2017/07/01 18:59:06","新北市中和區中山路二段131巷5弄5號","121.50293","25.002905","6500300","中和區"
"235064","005-UY","2017/07/01 18:59:14","新北市中和區景平路545巷10號","121.497966666667","24.9991216666667","6500300","中和區"
"235063","006-UY","2017/07/01 18:59:14","新北市中和區中正路466號","121.490065","24.9942716666667","6500300","中和區"
"235062","031-BX","2017/07/01 18:59:08","新北市中和區中山路二段356號","121.492871666667","25.00291","6500300","中和區"
"235056","096-UM","2017/07/01 18:59:10","新北市中和區員山路466巷22號","121.48115","25.006475","6500300","中和區"
"235039","097-UM","2017/07/01 18:59:05","新北市中和區宜安路52巷21號","121.512598333333","24.9974516666667","6500300","中和區"
"235040","150-BY","2017/07/01 18:59:17","新北市中和區安樂路85號","121.512828333333","24.9945616666667","6500300","中和區"
"235058","151-BY","2017/07/01 18:59:10","新北市中和區連城路532號","121.475696666667","24.9915933333333","6500300","中和區"
"235055","183-VK","2017/07/01 18:59:07","新北市中和區民生街85巷3弄1號","121.469051666667","25.0044233333333","6500300","中和區"
"235038","185-VK","2017/07/01 18:59:06","新北市中和區大勇街45巷3號","121.517796666667","24.9946966666667","6500300","中和區"
"235049","186-VK","2017/07/01 18:59:21","新北市中和區景安路177巷35號","121.507003333333","24.9946483333333","6500300","中和區"
"235067","255-BX","2017/07/01 18:59:11","新北市中和區中正路849巷1號","121.484658333333","25.0027083333333","6500300","中和區"
"235044","293-VK","2017/07/01 18:59:10","新北市中和區中興街137號","121.500018333333","24.991385","6500300","中和區"
"235072","301-VK","2017/07/01 18:59:16","新北市中和區中山路二段109號","121.503121666667","25.0038733333333","6500300","中和區"
"235043","352-BY","2017/07/01 18:59:18","新北市中和區秀朗路三段99號","121.526571666667","24.99493","6500300","中和區"
"235051","376-QA","2017/07/01 18:59:20","新北市中和區忠孝街11巷1號","121.509851666667","24.9830966666667","6500300","中和區"
"235068","377-QA","2017/07/01 18:59:02","新北市中和區中正路211巷36弄4號","121.497235","24.9927716666667","6500300","中和區"
"235061","378-QA","2017/07/01 18:59:15","新北市中和區民治街134巷12號","121.474806666667","25.0020233333333","6500300","中和區"
"235050","4979-A6","2017/07/01 18:59:20","新北市中和區華新街50巷3號","121.50774","24.9839266666667","6500300","中和區"
"235069","4980-A6","2017/07/01 18:59:04","新北市中和區南山路50號","121.502006666667","24.9974666666667","6500300","中和區"
"235042","551-UM","2017/07/01 18:59:05","新北市中和區秀朗路三段78巷1弄28號","121.525226666667","24.993345","6500300","中和區"
"235070","558-UM","2017/07/01 18:59:10","新北市中和區圓通路25號","121.501125","24.9979433333333","6500300","中和區"
"235045","565-BX","2017/07/01 18:59:11","新北市中和區復興路12號","121.505821666667","24.9898","6500300","中和區"
"235054","640-BX","2017/07/01 18:59:11","新北市中和區民享街35巷19號","121.47505","25.004055","6500300","中和區"
"235060","647-TV","2017/07/01 18:59:00","新北市中和區中山路三段177號","121.472885","25.0061083333333","6500300","中和區"
"235047","732-UM","2017/07/01 18:59:18","新北市中和區興南路二段32巷7號","121.507003333333","24.985625","6500300","中和區"
"235071","783-BX","2017/07/01 18:59:06","新北市中和區員山路36巷16-2號","121.485448333333","24.9911816666667","6500300","中和區"
"235057","801-TS","2017/07/01 18:59:18","新北市中和區民利街14巷10號","121.480713333333","24.9995633333333","6500300","中和區"
"235041","802-TS","2017/07/01 18:59:00","新北市中和區中安街178巷13弄8號","121.51031","24.99851","6500300","中和區"
"235052","805-TS","2017/07/01 18:59:14","新北市中和區興南路二段399巷11號","121.499431666667","24.9799966666667","6500300","中和區"
"235048","896-TW","2017/07/01 18:59:17","新北市中和區忠孝街1巷1號","121.508755","24.9831966666667","6500300","中和區"
"235053","900-TW","2017/07/01 18:59:10","新北市中和區民德路306巷8號","121.46691","24.9953333333333","6500300","中和區"
"235040","157-BY","2017/07/01 18:59:10","新北市中和區興南路一段137號","121.508821666667","24.987485","6500300","中和區"
"235037","AAC-213","2017/07/01 18:59:13","新北市中和區景平路73號","121.518873333333","24.9913083333333","6500300","中和區"
"235059","AAC-215","2017/07/01 18:59:09","新北市中和區圓通路367巷18-4號","121.49181","24.9886416666667","6500300","中和區"
"220068","013-TV","2017/07/01 18:59:04","新北市板橋區中山路二段465巷13號","121.481501666667","25.020955","6500100","板橋區"
"220065","072-UY","2017/07/01 18:59:18","新北市板橋區民族路247巷9弄4號","121.47124","25.0079883333333","6500100","板橋區"
"220086","073-UY","2017/07/01 18:59:03","新北市板橋區大智街10號","121.456055","25.0148216666667","6500100","板橋區"
"220069","AAD-861","2017/07/01 18:59:07","新北市板橋區中山路一段27號","121.46039","25.0086","6500100","板橋區"
"220106","120-SR","2017/07/01 18:59:19","新北市板橋區文化路二段124巷22號","121.471145","25.0257716666667","6500100","板橋區"
"247006","341-TH","2017/07/01 18:59:03","新北市五股區中興路三段163號","121.4493","25.080675","6501400","蘆洲區"
"247002","335-TH","2017/07/01 18:58:51","新北市五股區中興路三段163號","121.449155","25.08087","6501400","蘆洲區"
"247014","057-VK","2017/07/01 18:59:01","新北市五股區中興路三段163號","121.449285","25.0806483333333","6501400","蘆洲區"
"226004","312-R5","2017/07/01 18:59:16","新北市平溪區靜安路三段86號","121.76955","25.0344616666667","6502400","平溪區"
"228003","097-TW","2017/07/01 18:59:08","新北市貢寮區和美里龍洞街33-1號","121.916178333333","25.110945","6502600","貢寮區"
"228001","212-TW","2017/07/01 18:59:06","新北市貢寮區仁理村保健街69號","121.923645","25.0516016666667","6502600","貢寮區"
"228002","585-TW","2017/07/01 18:59:13","新北市貢寮區福隆里東興街104號","121.945943333333","25.0169233333333","6502600","貢寮區"
"224010","AGQ-8101","2017/07/01 18:57:26","新北市瑞芳區基山街68號","121.844815","25.10853","6501200","瑞芳區"
"224006","676-BX","2017/07/01 18:59:18","新北市瑞芳區中正路23號","121.807946666667","25.1071183333333","6501200","瑞芳區"
"224011","420-VK","2017/07/01 18:59:05","新北市瑞芳區崙頂路3-1號","121.847056666667","25.104675","6501200","瑞芳區"
"224009","285-BY","2017/07/01 18:59:09","新北市瑞芳區祈堂路53-1號","121.859416666667","25.110835","6501200","瑞芳區"
"224008","275-VK","2017/07/01 18:59:07","新北市瑞芳區逢甲路337號","121.80098","25.1122083333333","6501200","瑞芳區"
"224007","273-VK","2017/07/01 18:59:00","新北市瑞芳區大埔路慶安新村3號","121.762245","25.10062","6501200","瑞芳區"
"224005","271-BY","2017/07/01 18:58:12","新北市瑞芳區濱二路40-1號","121.832588333333","25.1169983333333","6501200","瑞芳區"
"227010","642-TC","2017/07/01 18:59:19","新北市雙溪區牡丹里中正路58巷23號","121.866473333333","25.0416833333333","6502500","雙溪區"
"227002","400-TW","2017/07/01 18:59:19","新北市雙溪區平林里康福家園10號","121.858756666667","25.03734","6502500","雙溪區"
"253006","032-BX","2017/07/01 18:59:16","新北市石門區下員坑42-1號","121.51791","25.27813","6502200","石門區"
"253005","295-VK","2017/07/01 18:59:15","新北市石門區中央路37-2號","121.568708333333","25.295615","6502200","石門區"
"208003","665-BX","2017/07/01 18:59:01","新北市金山區中正路29號","121.635285","25.2221066666667","6502700","金山區"
"208001","761-BX","2017/07/01 18:59:21","新北市金山區中山路69號","121.640878333333","25.2181633333333","6502700","金山區"
"251014","180-VK","2017/07/01 18:59:00","新北市淡水區小中寮32-1號","121.491535","25.2260766666667","6501000","淡水區"
"251010","413-VK","2017/07/01 18:59:12","新北市淡水區中正路二段22巷43號","121.421406666667","25.1824266666667","6501000","淡水區"
"251012","441-VK","2017/07/01 18:59:12","新北市淡水區新春街126巷15弄1號","121.440346666667","25.1808966666667","6501000","淡水區"
"251016","442-VK","2017/07/01 18:59:07","新北市淡水區淡金路三段333號","121.448855","25.2063383333333","6501000","淡水區"
"251005","443-VK","2017/07/01 18:59:10","新北市淡水區中正路18巷6號","121.43766","25.1728033333333","6501000","淡水區"
"251001","559-UM","2017/07/01 18:59:05","新北市淡水區自強路58-1號","121.463261666667","25.1276033333333","6501000","淡水區"
"251009","575-R6","2017/07/01 18:59:06","新北市淡水區重建街58號","121.439951666667","25.1717433333333","6501000","淡水區"
"251007","577-R6","2017/07/01 18:59:08","新北市淡水區民生路133號","121.465528333333","25.1388333333333","6501000","淡水區"
"251011","650-BX","2017/07/01 18:59:02","新北市淡水區中正東路二段17-4號","121.458301666667","25.1576066666667","6501000","淡水區"
"251002","672-BX","2017/07/01 18:59:19","新北市淡水區中正東路71號","121.44719","25.1675933333333","6501000","淡水區"
"251003","673-BX","2017/07/01 18:59:09","新北市淡水區中山北路一段149巷28號","121.44309","25.1780483333333","6501000","淡水區"
"207003","550-UM","2017/07/01 18:59:11","新北市萬里區大鵬里頂社30號","121.656126666667","25.2111283333333","6502800","萬里區"
"207004","225-TW","2017/07/01 18:59:11","新北市萬里區萬里里獅頭路23號","121.693226666667","25.1782783333333","6502800","萬里區"
"252002","178-VK","2017/07/01 18:59:18","新北市三芝區中正路一段82號","121.504153333333","25.2572933333333","6502100","三芝區"
"252003","249-BX","2017/07/01 18:59:04","新北市三芝區後厝里北勢子41-7號","121.472626666667","25.2529233333333","6502100","三芝區"
"252001","702-TV","2017/07/01 18:59:09","新北市三芝區中興街二段260號","121.501756666667","25.2530383333333","6502100","三芝區"
"208002","170-UY","2017/07/01 18:59:02","新北市金山區信義路32號","121.635296666667","25.2196816666667","6502700","金山區"
"237004","078-UY","2017/07/01 18:58:52","新北市三峽區有木188號","121.4485","24.8394416666667","6500900","三峽區"
"237007","153-BY","2017/07/01 18:59:01","新北市三峽區大埔路117號","121.366548333333","24.9066683333333","6500900","三峽區"
"237013","252-BX","2017/07/01 18:59:03","新北市三峽區光明路69巷31號","121.376893333333","24.9292216666667","6500900","三峽區"
"237012","275-BY","2017/07/01 18:59:16","新北市三峽區三樹路222巷41號","121.382146666667","24.94249","6500900","三峽區"
"237008","302-VK","2017/07/01 18:59:12","新北市三峽區正義街123號","121.368578333333","24.9169916666667","6500900","三峽區"
"237014","433-BY","2017/07/01 18:59:16","新北市鶯歌區三鶯路5號","121.356821666667","24.9406433333333","6500900","三峽區"
"237006","5529-G3","2017/07/01 18:59:10","新北市三峽區溪東路134號","121.404671666667","24.93331","6500900","三峽區"
"237011","572-TV","2017/07/01 18:59:06","新北市三峽區介壽路三段138號","121.400453333333","24.9429466666667","6500900","三峽區"
"237016","649-BX","2017/07/01 18:59:03","新北市三峽區安坑48-1號","121.458231666667","24.93223","6500900","三峽區"
"237010","706-TV","2017/07/01 18:59:18","新北市三峽區復興路174巷8-2號","121.37076","24.93917","6500900","三峽區"
"237005","AKY-6261","2017/07/01 18:59:06","新北市三峽區中山路459巷163-3號","121.349025","24.93337","6500900","三峽區"
"236073","105-UM","2017/07/01 18:59:06","新北市土城區青雲路113號","121.458805","24.9845716666667","6501300","土城區"
"236043","107-UM","2017/07/01 18:59:14","新北市土城區裕民路136巷6弄1號","121.450775","24.9854366666667","6501300","土城區"
"236079","166-UM","2017/07/01 18:59:08","新北市土城區中央路四段67巷2弄1號","121.417585","24.9578183333333","6501300","土城區"
"236031","253-BX","2017/07/01 18:59:22","新北市土城區興城路75號","121.440111666667","24.97076","6501300","土城區"
"236027","269-VK","2017/07/01 18:59:17","新北市土城區中正路56巷7號","121.44414","24.97498","6501300","土城區"
"236015","270-VK","2017/07/01 18:59:16","新北市土城區延和路13巷14號","121.463685","24.9884783333333","6501300","土城區"
"236038","271-VK","2017/07/01 18:59:15","新北市土城區仁愛路54巷1-3號","121.462373333333","24.978515","6501300","土城區"
"236023","401-BY","2017/07/01 18:59:05","新北市土城區明峰街50號","121.467745","24.9864733333333","6501300","土城區"
"236059","912-UM","2017/07/01 18:59:12","新北市土城區清水路3號","121.452896666667","24.9802216666667","6501300","土城區"
"236049","913-UM","2017/07/01 18:59:09","新北市土城區青雲路227號","121.459183333333","24.9817066666667","6501300","土城區"
"236063","915-UM","2017/07/01 18:59:09","新北市土城區金城路三段139巷10號","121.467901666667","24.9886766666667","6501300","土城區"
"236055","AAC-216","2017/07/01 18:59:22","新北市土城區裕民路30號","121.44788","24.9885","6501300","土城區"
"238023","601-UM","2017/07/01 18:59:15","新北市樹林區工興街14巷9號","121.399353333333","25.0138683333333","6500700","樹林區"
"238019","599-UM","2017/07/01 18:59:03","新北市樹林區東榮街171巷2弄1號","121.414196666667","24.9809683333333","6500700","樹林區"
"238018","571-TV","2017/07/01 18:59:12","新北市樹林區鎮前街267號","121.419986666667","24.9859616666667","6500700","樹林區"
"238024","5061-A6","2017/07/01 18:59:14","新北市樹林區八德街592號","121.397645","24.9701783333333","6500700","樹林區"
"238022","312-TH","2017/07/01 18:59:09","新北市樹林區中華路393號","121.411338333333","24.9804766666667","6500700","樹林區"
"238021","311-TH","2017/07/01 18:59:02","新北市樹林區西圳街二段82-3號","121.38543","24.95833","6500700","樹林區"
"238025","303-VK","2017/07/01 18:59:07","新北市樹林區民和街83巷10號","121.37873","24.973085","6500700","樹林區"
"238017","283-BY","2017/07/01 18:59:01","新北市樹林區光興街254號","121.40716","25.005035","6500700","樹林區"
"238014","282-BY","2017/07/01 18:59:21","新北市樹林區潭興街143巷11號","121.425403333333","25.0000516666667","6500700","樹林區"
"238020","268-VK","2017/07/01 18:59:04","新北市樹林區俊英街79號","121.425993333333","25.0076133333333","6500700","樹林區"
"238026","172-UY","2017/07/01 18:59:07","新北市樹林區吉祥街3巷1號","121.392173333333","24.9729416666667","6500700","樹林區"
"238016","169-UY","2017/07/01 18:59:06","新北市樹林區文化街28號","121.419303333333","24.9877916666667","6500700","樹林區"
"239007","AAC-297","2017/07/01 18:59:04","新北市鶯歌區中山路6號","121.35302","24.9573416666667","6500800","鶯歌區"
"239006","891-R6","2017/07/01 18:59:03","新北市鶯歌區鶯桃路96-1號","121.339756666667","24.9537133333333","6500800","鶯歌區"
"239008","527-UM","2017/07/01 18:59:18","新北市鶯歌區國際二路16巷5號","121.337603333333","24.97488","6500800","鶯歌區"
"239005","526-UM","2017/07/01 18:59:10","新北市鶯歌區大湖路361巷9號","121.330991666667","24.977455","6500800","鶯歌區"
"239001","417-VK","2017/07/01 18:59:04","新北市鶯歌區永明街13號","121.3383","24.95534","6500800","鶯歌區"
"239003","360-BY","2017/07/01 18:59:09","新北市鶯歌區鶯桃路658巷1號","121.329173333333","24.96932","6500800","鶯歌區"
"239002","359-BY","2017/07/01 18:59:17","新北市鶯歌區中山路202號","121.345928333333","24.9573583333333","6500800","鶯歌區"
"239004","193-VK","2017/07/01 18:59:20","新北市鶯歌區中正三路387號","121.326485","24.934495","6500800","鶯歌區"
"221008","489-VK","2017/07/01 18:59:21","新北市汐止區康寧街753巷2弄12號","121.639501666667","25.074125","6501100","汐止區"
"221036","130-UY","2017/07/01 18:59:20","新北市汐止區南昌街16號","121.662951666667","25.0685533333333","6501100","汐止區"
"221015","131-UY","2017/07/01 18:59:16","新北市汐止區橋東街61號","121.665596666667","25.0749816666667","6501100","汐止區"
"221010","269-BY","2017/07/01 18:59:13","新北市汐止區康寧街901號","121.651365","25.0749966666667","6501100","汐止區"
"221010","276-VK","2017/07/01 15:29:27","新北市汐止區汐萬路一段256巷3號","121.65342","25.0745966666667","6501100","汐止區"
"221031","277-VK","2017/07/01 01:05:12","新北市汐止區汐萬路一段256巷3號","121.652576666667","25.0744766666667","6501100","汐止區"
"221012","278-VK","2017/07/01 18:59:10","新北市汐止區康寧街901號","121.650811666667","25.075285","6501100","汐止區"
"221023","279-VK","2017/07/01 18:59:05","新北市汐止區康寧街901號","121.650983333333","25.0753033333333","6501100","汐止區"
"221032","280-BY","2017/07/01 18:59:00","新北市汐止區橫科路407巷25弄11號","121.625958333333","25.048535","6501100","汐止區"
"221027","281-BY","2017/07/01 18:53:19","新北市汐止區康寧街901號","121.650845","25.0752766666667","6501100","汐止區"
"221038","297-VK","2017/07/01 18:59:10","新北市汐止區康寧街901號","121.651533333333","25.0749833333333","6501100","汐止區"
"221029","298-VK","2017/07/01 18:59:19","新北市汐止區樟樹一路234號","121.642086666667","25.0668066666667","6501100","汐止區"
"221021","299-VK","2017/07/01 18:59:18","新北市汐止區康寧街901號","121.65157","25.074985","6501100","汐止區"
"221025","623-UM","2017/07/01 18:59:12","新北市汐止區汐萬路一段288號","121.650723333333","25.074305","6501100","汐止區"
"221033","647-BX","2017/07/01 18:59:05","新北市汐止區南勢街1巷1號","121.627025","25.03737","6501100","汐止區"
"221002","707-TV","2017/07/01 18:59:15","新北市汐止區大同路一段2號","121.621036666667","25.0550233333333","6501100","汐止區"
"221018","753-BX","2017/07/01 18:59:05","新北市汐止區汐萬路一段24號","121.655713333333","25.0679766666667","6501100","汐止區"
"220079","145-BY","2017/07/01 18:59:10","新北市板橋區民權路260巷1弄11號","121.45818","25.015915","6500100","板橋區"
"220082","610-BX","2017/07/01 18:59:20","新北市板橋區篤行路三段20-1號","121.428761666667","24.98707","6500100","板橋區"
"220101","245-BX","2017/07/01 18:59:18","新北市板橋區文化路二段182巷3弄1號","121.471316666667","25.0272066666667","6500100","板橋區"
"220103","257-TC","2017/07/01 18:59:04","新北市板橋區民生路二段121號","121.470783333333","25.0184766666667","6500100","板橋區"
"220056","276-BY","2017/07/01 18:59:21","新北市板橋區信義路76號","121.457516666667","24.9934283333333","6500100","板橋區"
"220072","277-BY","2017/07/01 18:59:17","新北市板橋區大觀路三段5-4號","121.432771666667","24.9959266666667","6500100","板橋區"
"220094","283-UM","2017/07/01 18:59:05","新北市板橋區文化路二段28號","121.46931","25.0248866666667","6500100","板橋區"
"220071","283-VK","2017/07/01 18:59:20","新北市板橋區區運路27號","121.465986666667","25.0101816666667","6500100","板橋區"
"220053","285-VK","2017/07/01 18:59:18","新北市板橋區中山路二段89巷35號","121.473735","25.0169883333333","6500100","板橋區"
"220083","286-VK","2017/07/01 18:59:10","新北市板橋區大觀路一段38巷156弄147號","121.443823333333","25.0089433333333","6500100","板橋區"
"220081","287-VK","2017/07/01 18:59:12","新北市板橋區光華街15巷1-1號","121.453883333333","25.011805","6500100","板橋區"
"220090","288-VK","2017/07/01 18:59:03","新北市板橋區四維路132號","121.465286666667","25.0252416666667","6500100","板橋區"
"220061","293-UM","2017/07/01 18:59:14","新北市板橋區富山街109巷2號","121.476093333333","25.02188","6500100","板橋區"
"220084","296-UM","2017/07/01 18:59:07","新北市板橋區大觀路二段156巷32號","121.441305","24.9999683333333","6500100","板橋區"
"220075","297-UM","2017/07/01 18:59:02","新北市板橋區南雅東路100巷15號","121.454003333333","25.0077533333333","6500100","板橋區"
"220092","299-UM","2017/07/01 18:59:03","新北市板橋區漢生東路83巷2-1號","121.467048333333","25.0157983333333","6500100","板橋區"
"220062","305-R5","2017/07/01 18:59:17","新北市板橋區民享街56號","121.47608","25.015095","6500100","板橋區"
"220098","317-R6","2017/07/01 18:59:17","新北市板橋區民有街18號","121.466306666667","25.024975","6500100","板橋區"
"220080","461-BY","2017/07/01 18:59:08","新北市板橋區大觀路二段265巷60弄7號","121.442453333333","24.997995","6500100","板橋區"
"220064","486-VK","2017/07/01 18:59:10","新北市板橋區縣民大道二段106號","121.466756666667","25.0152666666667","6500100","板橋區"
"220089","487-VK","2017/07/01 18:59:02","新北市板橋區文化路二段294號","121.472085","25.0296066666667","6500100","板橋區"
"220088","491-VK","2017/07/01 18:58:53","新北市板橋區民生路二段148號","121.47124","25.0199083333333","6500100","板橋區"
"220035","560-BX","2017/07/01 18:59:05","新北市板橋區中正路275巷26號","121.454875","25.0187316666667","6500100","板橋區"
"220063","609-BX","2017/07/01 18:59:16","新北市板橋區中山路二段126號","121.476226666667","25.0168783333333","6500100","板橋區"
"220091","637-BX","2017/07/01 18:58:59","新北市板橋區莒光路165巷4-4號","121.4741","25.023945","6500100","板橋區"
"220057","686-BX","2017/07/01 18:59:18","新北市板橋區民權路45號","121.462211666667","25.0113583333333","6500100","板橋區"
"220077","687-BX","2017/07/01 18:59:03","新北市板橋區龍興街56號","121.443328333333","25.0013116666667","6500100","板橋區"
"220093","689-BX","2017/07/01 18:59:16","新北市板橋區民生路三段66號","121.4669","25.02561","6500100","板橋區"
"220054","741-BX","2017/07/01 18:59:22","新北市板橋區後埔街18號","121.460353333333","25.006655","6500100","板橋區"
"220055","827-TW","2017/07/01 18:59:02","新北市板橋區新站路16號","121.46699","25.01262","6500100","板橋區"
"220067","829-TW","2017/07/01 18:59:13","新北市板橋區三民路二段正隆巷12弄16號","121.477826666667","25.0134133333333","6500100","板橋區"
"220102","830-TW","2017/07/01 18:59:12","新北市板橋區萬板路710號","121.481798333333","25.02712","6500100","板橋區"
"220096","831-TW","2017/07/01 18:59:09","新北市板橋區莒光路60號","121.470998333333","25.0241033333333","6500100","板橋區"
"220074","895-R6","2017/07/01 18:59:11","新北市板橋區西門街59號","121.454411666667","25.00921","6500100","板橋區"
"220073","985-R7","2017/07/01 18:59:16","新北市板橋區中正路157號","121.456456666667","25.0160483333333","6500100","板橋區"
"220097","AAC-210","2017/07/01 18:59:04","新北市板橋區四維路139號","121.465105","25.0253183333333","6500100","板橋區"
"220070","AAC-253","2017/07/01 18:59:16","新北市板橋區中山路一段68號","121.461488333333","25.00987","6500100","板橋區"
