"lineid","car","time","location","longitude","latitude","cityid","cityname"
"234046","148-BY","2017/07/01 19:29:02","新北市永和區秀朗路二段121號","121.52415","25.0016766666667","6500400","永和區"
"234013","149-BY","2017/07/01 19:29:16","新北市永和區中山路一段201號","121.509038333333","25.008605","6500400","永和區"
"234007","207-UY","2017/07/01 19:29:21","新北市永和區永和路一段122號","121.513915","25.0077916666667","6500400","永和區"
"234081","298-R6","2017/07/01 19:29:03","新北市永和區林森路10巷18弄1號","121.525721666667","25.0064816666667","6500400","永和區"
"234038","336-UY","2017/07/01 19:29:03","新北市永和區民樂街28號","121.527448333333","25.0015166666667","6500400","永和區"
"234064","337-UY","2017/07/01 19:29:15","新北市永和區永元路17巷25弄7號","121.520925","25.0016766666667","6500400","永和區"
"234086","338-UY","2017/07/01 19:29:21","新北市永和區林森路48巷2號","121.524786666667","25.0046466666667","6500400","永和區"
"234070","552-UM","2017/07/01 19:29:08","新北市永和區永和路二段234號","121.51581","25.01452","6500400","永和區"
"234054","553-UM","2017/07/01 19:29:08","新北市永和區永和路二段170號","121.515478333333","25.0131933333333","6500400","永和區"
"234030","746-BX","2017/07/01 19:29:05","新北市永和區民族街81巷60號","121.52015","24.9964583333333","6500400","永和區"
"234061","AAD-866","2017/07/01 19:29:13","新北市永和區中正路606號","121.517053333333","25.007025","6500400","永和區"
"234017","845-RS","2017/07/01 19:29:13","新北市永和區環河西路一段1號","121.515343333333","25.0179533333333","6500400","永和區"
"234042","862-TW","2017/07/01 19:29:13","新北市永和區中和路597巷2號","121.512251666667","25.0044966666667","6500400","永和區"
"234050","863-TW","2017/07/01 19:29:10","新北市永和區信義路82號","121.512616666667","25.01343","6500400","永和區"
"234026","9371-KE","2017/07/01 19:29:10","新北市永和區安樂路104巷2弄6號","121.514508333333","24.99963","6500400","永和區"
"234011","9373-KE","2017/07/01 19:29:04","新北市永和區保生路55-1號","121.50451","25.0109066666667","6500400","永和區"
"249003","593-UM","2017/07/01 19:29:05","新北市八里區商港六路23號","121.396586666667","25.1485366666667","6502300","八里區"
"248014","025-BX","2017/07/01 19:29:16","新北市五股區民義路一段185-19號","121.43122","25.087445","6501500","五股區"
"248008","095-VK","2017/07/01 19:29:05","新北市五股區中興路一段95巷15號","121.466556666667","25.0722033333333","6501500","五股區"
"248018","225-UY","2017/07/01 19:29:08","新北市五股區凌雲路三段74-4號","121.431688333333","25.1160183333333","6501500","五股區"
"248012","247-BX","2017/06/30 21:11:03","新北市五股區中興路二段103巷16號","121.458853333333","25.0755466666667","6501500","五股區"
"248016","261-SL","2017/07/01 19:29:15","新北市五股區成洲五路12號","121.452445","25.1015166666667","6501500","五股區"
"248010","272-BY","2017/07/01 19:29:02","新北市五股區水碓一路23號","121.430655","25.0712533333333","6501500","五股區"
"248004","677-BX","2017/07/01 19:29:10","新北市五股區五福路92號","121.432556666667","25.0902683333333","6501500","五股區"
"248002","678-BX","2017/07/01 19:29:05","新北市五股區凌雲路一段158巷14-1號","121.447831666667","25.10344","6501500","五股區"
"234023","9380-KE","2017/07/01 19:29:18","新北市永和區竹林路91巷21弄11號","121.520868333333","25.012485","6500400","永和區"
"234077","969-R7","2017/07/01 19:29:00","新北市永和區民權路58巷3號","121.519558333333","24.9982916666667","6500400","永和區"
"234074","AAC-211","2017/07/01 19:29:20","新北市永和區環河東路一段64號","121.51909","25.0169233333333","6500400","永和區"
"234067","AAC-212","2017/07/01 19:29:02","新北市永和區保平路178號","121.510755","25.0066266666667","6500400","永和區"
"234003","AAC-295","2017/07/01 19:26:50","新北市永和區永和路一段212號","121.514361666667","25.0094983333333","6500400","永和區"
"244019","403-UM","2017/07/01 19:29:08","新北市林口區麗園一街13號","121.376895","25.06931","6501700","林口區"
"244023","483-VK","2017/07/01 19:29:08","新北市林口區文化一路一段237號","121.379786666667","25.07678","6501700","林口區"
"244011","701-TV","2017/07/01 19:29:10","新北市林口區湖南里70-9號","121.375923333333","25.0897016666667","6501700","林口區"
"244025","837-TS","2017/07/01 19:29:15","新北市林口區太平里180號","121.368235","25.1344566666667","6501700","林口區"
"243013","AAD-798","2017/07/01 19:29:20","新北市泰山區明志路三段145巷53弄2號","121.426771666667","25.0392133333333","6501600","泰山區"
"243009","297-R6","2017/07/01 19:29:10","新北市泰山區半山雅3號","121.431348333333","25.06744","6501600","泰山區"
"243015","380-SR","2017/07/01 19:29:20","新北市泰山區明志路二段71號","121.429043333333","25.0523683333333","6501600","泰山區"
"243014","421-VK","2017/07/01 19:29:20","新北市泰山區仁義路220巷53號","121.432103333333","25.05272","6501600","泰山區"
"243010","548-UM","2017/07/01 19:29:05","新北市泰山區民族街10巷1號","121.429188333333","25.0517666666667","6501600","泰山區"
"243011","549-UM","2017/07/01 19:29:12","新北市泰山區貴子路17-15號","121.427485","25.041165","6501600","泰山區"
"243012","646-TV","2017/07/01 19:29:21","新北市泰山區仁義路220巷6號","121.4328","25.0540666666667","6501600","泰山區"
"243016","680-BX","2017/07/01 19:29:03","新北市泰山區明志路三段345號","121.422091666667","25.035275","6501600","泰山區"
"222003","436-BY","2017/07/01 19:29:07","新北市深坑區深南路88巷1號","121.620993333333","25.0117316666667","6501800","深坑區"
"222002","659-BX","2017/07/01 19:29:19","新北市深坑區北深路一段177號","121.632575","25.0108666666667","6501800","深坑區"
"222001","696-SL","2017/07/01 19:29:02","新北市深坑區北深路二段130號","121.615925","25.0029333333333","6501800","深坑區"
"231059","046-UY","2017/07/01 19:29:12","新北市新店區安和路三段83號","121.517825","24.9838033333333","6500600","新店區"
"231030","047-UY","2017/07/01 12:38:12","新北市新店區安華路28-1號","121.519308333333","24.960905","6500600","新店區"
"231060","106-UY","2017/07/01 19:29:06","新北市新店區安康路二段64號","121.514868333333","24.963635","6500600","新店區"
"231051","107-UY","2017/07/01 19:29:08","新北市新店區中央路97號","121.531303333333","24.9750266666667","6500600","新店區"
"231048","108-UY","2017/07/01 19:29:05","新北市新店區中興路一段222號","121.54446","24.965765","6500600","新店區"
"231052","187-VK","2017/07/01 19:29:12","新北市新店區新烏路二段317號","121.549791666667","24.9109433333333","6500600","新店區"
"231057","256-BX","2017/07/01 19:29:13","新北市新店區花園一路三段57號","121.549531666667","24.9329483333333","6500600","新店區"
"231063","268-BY","2017/07/01 19:29:09","新北市新店區達觀路16號","121.50327","24.94076","6500600","新店區"
"231046","278-BY","2017/07/01 19:29:06","新北市新店區環河路1-2號","121.53819","24.96163","6500600","新店區"
"231050","AAD-862","2017/07/01 19:28:11","新北市新店區秀水路32號","121.554955","24.955225","6500600","新店區"
"231041","355-BY","2017/07/01 19:29:03","新北市新店區中正路616號","121.533951666667","24.9886983333333","6500600","新店區"
"231058","3712-VJ","2017/07/01 19:29:13","新北市新店區北新路二段228巷13號","121.543448333333","24.97713","6500600","新店區"
"231067","4772-VM","2017/07/01 19:29:01","新北市新店區薏仁坑路自強巷1號","121.497275","24.9577166666667","6500600","新店區"
"231065","512-UM","2017/07/01 19:29:09","新北市新店區安祥路109巷1弄73號","121.478418333333","24.96056","6500600","新店區"
"231054","513-UM","2017/07/01 19:29:21","新北市新店區文中路40號","121.539735","24.95654","6500600","新店區"
"231064","515-UM","2017/07/01 19:29:14","新北市新店區安忠路36號","121.514386666667","24.9612633333333","6500600","新店區"
"231042","616-UM","2017/07/01 19:29:05","新北市新店區中興路一段90號","121.539986666667","24.960385","6500600","新店區"
"231045","617-UM","2017/07/01 19:29:14","新北市新店區北宜路二段209號","121.553126666667","24.9534416666667","6500600","新店區"
"231061","618-UM","2017/07/01 19:29:13","新北市新店區安民街45號","121.516015","24.96569","6500600","新店區"
"231040","619-UM","2017/07/01 19:29:18","新北市新店區中華路1號","121.541235","24.96725","6500600","新店區"
"231049","719-UM","2017/07/01 19:29:01","新北市新店區北新路三段105巷11號","121.540655","24.982095","6500600","新店區"
"231062","720-UM","2017/07/01 19:29:15","新北市新店區安康路一段92號","121.52798","24.9619716666667","6500600","新店區"
"231044","897-TW","2017/07/01 19:29:09","新北市新店區寶強路6-1號","121.543651666667","24.9788416666667","6500600","新店區"
"231043","899-TW","2017/07/01 19:29:01","新北市新店區北新路二段228巷1號","121.54291","24.97775","6500600","新店區"
"231066","AKT-0513","2017/07/01 19:29:09","新北市新店區安康路三段207巷19號","121.488481666667","24.9508183333333","6500600","新店區"
"241011","013-R5","2017/07/01 19:29:10","新北市三重區龍濱路174號","121.501368333333","25.0728616666667","6500200","三重區"
"241028","022-UY","2017/07/01 19:29:05","新北市三重區中寮街49號","121.492851666667","25.05858","6500200","三重區"
"241008","059-VK","2017/07/01 19:29:14","新北市三重區永福街135巷36號","121.477318333333","25.07725","6500200","三重區"
"241009","060-VK","2017/07/01 19:29:06","新北市三重區溪尾街242巷65號","121.486143333333","25.0814866666667","6500200","三重區"
"241017","063-VK","2017/07/01 19:29:12","新北市三重區大仁街58號","121.492236666667","25.0649333333333","6500200","三重區"
"241026","066-VK","2017/07/01 19:29:05","新北市三重區文化南路47巷41號","121.499155","25.0611483333333","6500200","三重區"
"241031","156-TC","2017/07/01 19:29:14","新北市三重區集美街24-1號","121.488376666667","25.0547466666667","6500200","三重區"
"241022","265-UM","2017/07/01 19:29:11","新北市三重區三民街112號","121.485055","25.063425","6500200","三重區"
"241032","269-UM","2017/07/01 19:29:17","新北市三重區三陽路102號","121.483656666667","25.05869","6500200","三重區"
"241025","271-UM","2017/07/01 19:29:21","新北市三重區頂崁街210巷28弄12號","121.475746666667","25.067335","6500200","三重區"
"241007","398-BY","2017/07/01 19:29:00","新北市三重區溪尾街146號","121.4891","25.0798616666667","6500200","三重區"
"241020","413-TH","2017/07/01 19:29:06","新北市三重區三和路四段42號","121.490318333333","25.074615","6500200","三重區"
"241030","480-VK","2017/07/01 19:29:18","新北市三重區成功路41巷9號","121.49027","25.05151","6500200","三重區"
"241006","AAD-863","2017/07/01 19:29:01","新北市三重區後竹圍街205巷67弄2號","121.485161666667","25.0731983333333","6500200","三重區"
"241035","743-BX","2017/07/01 19:29:15","新北市三重區長元西街35號","121.498075","25.0653883333333","6500200","三重區"
"241023","887-TS","2017/07/01 19:29:20","新北市三重區頂崁街99號","121.478021666667","25.0638366666667","6500200","三重區"
"241029","942-UM","2017/07/01 19:29:08","新北市三重區重安街142號","121.495408333333","25.0550383333333","6500200","三重區"
"235066","003-UY","2017/07/01 19:29:06","新北市中和區中和路155號","121.502661666667","24.9999816666667","6500300","中和區"
"235064","005-UY","2017/07/01 19:29:14","新北市中和區連城路45號","121.498253333333","25.0018833333333","6500300","中和區"
"235063","006-UY","2017/07/01 19:29:04","新北市中和區連勝街122號","121.494585","24.9962866666667","6500300","中和區"
"235056","096-UM","2017/07/01 19:29:16","新北市中和區民富街30號","121.476806666667","25.0064516666667","6500300","中和區"
"235039","097-UM","2017/07/01 19:29:05","新北市中和區秀峰街81巷2號","121.52157","24.9902333333333","6500300","中和區"
"235040","150-BY","2017/07/01 19:29:17","新北市中和區保健路46巷22弄2號","121.508821666667","24.9959316666667","6500300","中和區"
"235058","151-BY","2017/07/01 19:29:10","新北市中和區員山路36巷16-6號","121.485301666667","24.9920533333333","6500300","中和區"
"235055","183-VK","2017/07/01 19:29:07","新北市中和區德光路40號","121.470181666667","25.0042566666667","6500300","中和區"
"235038","185-VK","2017/07/01 19:29:06","新北市中和區大仁街20巷11號","121.51814","24.9932516666667","6500300","中和區"
"235049","186-VK","2017/07/01 19:29:01","新北市中和區景平路396-2號","121.509771666667","24.9932366666667","6500300","中和區"
"235067","255-BX","2017/07/01 19:29:11","新北市中和區民樂路81號","121.484748333333","25.00138","6500300","中和區"
"235044","293-VK","2017/07/01 19:29:09","新北市中和區中興街263巷8號","121.500188333333","24.9888416666667","6500300","中和區"
"235072","301-VK","2017/07/01 19:29:16","新北市中和區連城路265巷6弄1號","121.491481666667","24.9958166666667","6500300","中和區"
"235043","352-BY","2017/07/01 19:29:18","新北市中和區景平路341號","121.505301666667","24.9934066666667","6500300","中和區"
"235051","376-QA","2017/07/01 19:29:20","新北市中和區景新街71號","121.504935","24.9988316666667","6500300","中和區"
"235068","377-QA","2017/07/01 19:29:02","新北市中和區連勝街51號","121.497863333333","24.99728","6500300","中和區"
"235061","378-QA","2017/07/01 19:29:15","新北市中和區員山路143巷27弄4號","121.479295","24.9956033333333","6500300","中和區"
"235050","4979-A6","2017/07/01 19:29:20","新北市中和區中正路434號","121.491355","24.99409","6500300","中和區"
"235069","4980-A6","2017/07/01 19:29:11","新北市中和區景平路736巷1弄2號","121.49706","25.00385","6500300","中和區"
"235042","551-UM","2017/07/01 19:29:05","新北市中和區中和路378巷14弄1號","121.511398333333","25.0016566666667","6500300","中和區"
"235070","558-UM","2017/07/01 19:29:10","新北市中和區連城路5號","121.49933","25.00215","6500300","中和區"
"235045","565-BX","2017/07/01 19:29:11","新北市中和區景新街437巷21號","121.514346666667","24.9893816666667","6500300","中和區"
"235054","640-BX","2017/07/01 19:29:11","新北市中和區國光街109巷27號","121.469415","24.9994216666667","6500300","中和區"
"235060","647-TV","2017/07/01 19:29:20","新北市中和區員山路471號","121.48","25.00468","6500300","中和區"
"235047","732-UM","2017/07/01 19:29:18","新北市中和區景平路241巷38號","121.508496666667","24.9924183333333","6500300","中和區"
"235071","783-BX","2017/07/01 19:29:06","新北市中和區連城路469巷21弄22號","121.484216666667","24.9950533333333","6500300","中和區"
"235057","801-TS","2017/07/01 19:29:14","新北市中和區員山路423巷13號","121.480486666667","25.002885","6500300","中和區"
"235041","802-TS","2017/07/01 19:29:00","新北市中和區中和路252巷3號","121.507743333333","24.99929","6500300","中和區"
"235052","805-TS","2017/07/01 19:29:14","新北市中和區華新街143巷51號","121.506411666667","24.9801533333333","6500300","中和區"
"235048","896-TW","2017/07/01 19:29:17","新北市中和區景新街436號","121.51289","24.9883316666667","6500300","中和區"
"235053","900-TW","2017/07/01 19:29:10","新北市中和區華安街17巷14號","121.467245","24.998235","6500300","中和區"
"235040","157-BY","2017/07/01 19:29:10","新北市中和區忠孝街37巷30號","121.51084","24.9842333333333","6500300","中和區"
"235037","AAC-213","2017/07/01 19:29:13","新北市中和區秀朗路三段128巷38弄1號","121.524796666667","24.9941566666667","6500300","中和區"
"235059","AAC-215","2017/07/01 19:29:09","新北市中和區圓通路252巷18弄1號","121.492331666667","24.9925983333333","6500300","中和區"
"220068","013-TV","2017/07/01 19:29:03","新北市板橋區中山路二段424號","121.483745","25.021555","6500100","板橋區"
"220065","072-UY","2017/07/01 19:29:19","新北市板橋區國泰街75巷39-7號","121.468155","25.0050716666667","6500100","板橋區"
"220086","073-UY","2017/07/01 19:29:03","新北市板橋區中正路216巷10號","121.456411666667","25.018445","6500100","板橋區"
"220069","AAD-861","2017/07/01 19:29:07","新北市板橋區大明街20巷31號","121.458575","25.0036466666667","6500100","板橋區"
"220106","120-SR","2017/07/01 19:29:10","新北市板橋區江寧路三段87巷2弄38號","121.473171666667","25.0333166666667","6500100","板橋區"
"247006","341-TH","2017/07/01 19:29:03","新北市五股區中興路三段2巷10號","121.449138333333","25.081125","6501400","蘆洲區"
"247002","335-TH","2017/07/01 19:29:14","新北市五股區中興路三段2巷10號","121.448513333333","25.08234","6501400","蘆洲區"
"247014","057-VK","2017/07/01 19:29:01","新北市蘆洲區忠孝路66號","121.471766666667","25.0852183333333","6501400","蘆洲區"
"247004","056-VK","2017/07/01 19:29:05","新北市蘆洲區長安街251號","121.458963333333","25.083315","6501400","蘆洲區"
"226004","312-R5","2017/07/01 19:29:16","新北市平溪區十分里十分街56-1號","121.775573333333","25.0413983333333","6502400","平溪區"
"228003","097-TW","2017/07/01 19:29:09","新北市貢寮區和美里和美街22-1號","121.912853333333","25.08261","6502600","貢寮區"
"228001","212-TW","2017/07/01 19:29:06","新北市貢寮區真理里大澳街46號","121.925136666667","25.0563733333333","6502600","貢寮區"
"228002","585-TW","2017/07/01 19:29:13","新北市貢寮區龍門里龍門街76號","121.931303333333","25.0270183333333","6502600","貢寮區"
"224010","AGQ-8101","2017/07/01 19:28:06","新北市瑞芳區基山街99號","121.84468","25.1084933333333","6501200","瑞芳區"
"224011","420-VK","2017/07/01 19:29:05","新北市瑞芳區崙頂路3-1號","121.847045","25.1046866666667","6501200","瑞芳區"
"227010","642-TC","2017/07/01 19:29:19","新北市雙溪區新基里新基北街43號","121.868165","25.0396916666667","6502500","雙溪區"
"227002","400-TW","2017/07/01 19:29:19","新北市雙溪區雙溪里光復街20號","121.865146666667","25.0354466666667","6502500","雙溪區"
"253006","032-BX","2017/07/01 19:29:16","新北市石門區老梅路14號","121.545291666667","25.28759","6502200","石門區"
"208003","665-BX","2017/07/01 19:29:00","新北市金山區中山路263巷14號","121.636406666667","25.2215116666667","6502700","金山區"
"208001","761-BX","2017/07/01 19:29:01","新北市金山區金包里街117號","121.63753","25.2225016666667","6502700","金山區"
"251014","180-VK","2017/07/01 19:29:00","新北市淡水區小中寮19-7號","121.48477","25.2296","6501000","淡水區"
"251010","413-VK","2017/07/01 19:29:12","新北市淡水區中正路二段138-5號","121.42175","25.187455","6501000","淡水區"
"251016","442-VK","2017/07/01 19:29:06","新北市淡水區淡金路三段350巷18號","121.450806666667","25.2083833333333","6501000","淡水區"
"251005","443-VK","2017/07/01 19:29:10","新北市淡水區水源街一段47巷20號","121.443936666667","25.1729483333333","6501000","淡水區"
"251001","559-UM","2017/07/01 19:29:05","新北市淡水區民權路175-3號","121.459901666667","25.1357016666667","6501000","淡水區"
"251006","561-UM","2017/07/01 19:29:07","新北市淡水區大義街45號","121.441695","25.17825","6501000","淡水區"
"251009","575-R6","2017/07/01 19:29:06","新北市淡水區大忠街5巷9號","121.44342","25.17653","6501000","淡水區"
"251007","577-R6","2017/07/01 19:29:08","新北市淡水區坪頂路11號","121.455683333333","25.160385","6501000","淡水區"
"251011","650-BX","2017/07/01 19:29:02","新北市淡水區中正東路二段143巷2弄1號","121.460678333333","25.1473433333333","6501000","淡水區"
"251003","673-BX","2017/07/01 19:29:09","新北市淡水區中山北路三段159號","121.44531","25.19643","6501000","淡水區"
"207003","550-UM","2017/07/01 19:29:17","新北市萬里區大鵬里萬里加投158號","121.643945","25.2150833333333","6502800","萬里區"
"207004","225-TW","2017/07/01 19:29:11","新北市萬里區萬里里瑪鋉頂街41號","121.68915","25.1788166666667","6502800","萬里區"
"252002","178-VK","2017/07/01 19:29:18","新北市三芝區淡金路二段18-1號","121.502668333333","25.2595383333333","6502100","三芝區"
"252001","702-TV","2017/07/01 19:29:09","新北市三芝區長勤街50號","121.500311666667","25.2554716666667","6502100","三芝區"
"208002","170-UY","2017/07/01 19:29:02","新北市金山區仁愛路83號","121.634666666667","25.221365","6502700","金山區"
"237004","078-UY","2017/07/01 19:29:12","新北市三峽區有木135-5號","121.437615","24.852675","6500900","三峽區"
"237007","153-BY","2017/07/01 19:29:01","新北市三峽區二鬮路178號","121.359071666667","24.9068533333333","6500900","三峽區"
"237009","210-TH","2017/07/01 19:28:59","新北市三峽區民權街65號","121.369585","24.9331483333333","6500900","三峽區"
"237013","252-BX","2017/07/01 19:29:03","新北市三峽區介壽路一段251號","121.379513333333","24.9302116666667","6500900","三峽區"
"237012","275-BY","2017/07/01 19:29:16","新北市三峽區三樹路98巷177號","121.384606666667","24.9402433333333","6500900","三峽區"
"237008","302-VK","2017/07/01 19:29:12","新北市三峽區大同路128號","121.373873333333","24.92683","6500900","三峽區"
"237014","433-BY","2017/07/01 19:29:16","新北市三峽區大同路202-2號","121.368","24.9273283333333","6500900","三峽區"
"237006","5529-G3","2017/07/01 19:29:10","新北市三峽區中正路一段336巷15弄2號","121.369966666667","24.9249283333333","6500900","三峽區"
"237011","572-TV","2017/07/01 19:29:06","新北市三峽區中正路一段524號","121.3695","24.9201166666667","6500900","三峽區"
"237016","649-BX","2017/07/01 19:29:23","新北市三峽區成福路79號","121.418788333333","24.9294916666667","6500900","三峽區"
"237010","706-TV","2017/07/01 19:29:17","新北市三峽區復興路130號","121.372073333333","24.93801","6500900","三峽區"
"237005","AKY-6261","2017/07/01 19:29:05","新北市三峽區復興路367巷3號","121.363725","24.9380766666667","6500900","三峽區"
"236073","105-UM","2017/07/01 19:29:21","新北市土城區學府路一段129巷2號","121.454231666667","24.9862716666667","6501300","土城區"
"236079","166-UM","2017/07/01 19:23:08","新北市土城區龍泉路8號","121.409411666667","24.9497716666667","6501300","土城區"
"236027","269-VK","2017/07/01 19:29:02","新北市土城區中央路二段61巷28號","121.44351","24.97886","6501300","土城區"
"236015","270-VK","2017/07/01 19:29:16","新北市土城區廣福街113號","121.456355","24.9924816666667","6501300","土城區"
"236059","912-UM","2017/07/01 19:29:12","新北市土城區中央路二段219號","121.440995","24.97403","6501300","土城區"
"236049","913-UM","2017/07/01 19:29:11","新北市土城區清水路201號","121.459983333333","24.9816766666667","6501300","土城區"
"238015","755-BX","2017/07/01 19:29:16","新北市樹林區文化街45號","121.418246666667","24.9882833333333","6500700","樹林區"
"238023","601-UM","2017/07/01 19:29:15","桃園市龜山區萬壽路一段366號","121.4013","25.01685","6500700","樹林區"
"238019","599-UM","2017/07/01 19:29:23","新北市樹林區鎮前街411巷5號","121.415301666667","24.9831833333333","6500700","樹林區"
"238018","571-TV","2017/07/01 19:29:12","新北市樹林區中華路116號","121.417976666667","24.98083","6500700","樹林區"
"238024","5061-A6","2017/07/01 19:29:14","新北市樹林區福德街48-2號","121.399283333333","24.974675","6500700","樹林區"
"238022","312-TH","2017/07/01 19:29:09","新北市樹林區中山路二段151巷8弄20號","121.40596","24.9776383333333","6500700","樹林區"
"238021","311-TH","2017/07/01 19:29:12","新北市樹林區柑園街二段252號","121.371003333333","24.9507416666667","6500700","樹林區"
"238025","303-VK","2017/07/01 19:29:07","新北市樹林區中山路一段67號","121.423675","24.9919016666667","6500700","樹林區"
"238017","283-BY","2017/07/01 19:29:01","新北市樹林區保安街二段103號","121.415653333333","25.0013633333333","6500700","樹林區"
"238014","282-BY","2017/07/01 19:29:21","新北市樹林區千歲街6巷5號","121.425388333333","24.995315","6500700","樹林區"
"238020","268-VK","2017/07/01 19:29:04","新北市樹林區俊英街125巷10號","121.423606666667","25.010935","6500700","樹林區"
"238026","172-UY","2017/07/01 19:29:07","新北市樹林區佳園路三段97號","121.387583333333","24.9521883333333","6500700","樹林區"
"238016","169-UY","2017/07/01 19:29:06","新北市樹林區復興路464巷52號","121.41284","24.983525","6500700","樹林區"
"239007","AAC-297","2017/07/01 19:29:04","新北市鶯歌區大湖路326巷50號","121.346006666667","24.9692166666667","6500800","鶯歌區"
"239006","891-R6","2017/07/01 19:29:18","新北市鶯歌區文化路66號","121.355991666667","24.9544916666667","6500800","鶯歌區"
"239001","417-VK","2017/07/01 19:29:04","新北市鶯歌區鶯桃路7號","121.344051666667","24.9503566666667","6500800","鶯歌區"
"239003","360-BY","2017/07/01 19:29:09","新北市鶯歌區中山路129號","121.349508333333","24.9569933333333","6500800","鶯歌區"
"239002","359-BY","2017/07/01 19:29:17","新北市鶯歌區大湖路94號","121.342623333333","24.96296","6500800","鶯歌區"
"239004","193-VK","2017/07/01 19:29:20","新北市鶯歌區二甲路83-4號","121.339556666667","24.9326766666667","6500800","鶯歌區"
"221008","489-VK","2017/07/01 19:29:01","新北市汐止區康寧街145號","121.622075","25.06681","6501100","汐止區"
"221036","130-UY","2017/07/01 19:29:20","新北市汐止區汐萬路一段256巷1號","121.651833333333","25.0748233333333","6501100","汐止區"
"221015","131-UY","2017/07/01 19:29:16","新北市汐止區汐萬路一段256巷1號","121.651775","25.07484","6501100","汐止區"
"221010","269-BY","2017/07/01 19:29:13","新北市汐止區康寧街901號","121.651351666667","25.0749216666667","6501100","汐止區"
"221010","276-VK","2017/07/01 15:29:27","新北市汐止區汐萬路一段256巷3號","121.65342","25.0745966666667","6501100","汐止區"
"221031","277-VK","2017/07/01 01:05:12","新北市汐止區汐萬路一段256巷3號","121.652576666667","25.0744766666667","6501100","汐止區"
"221012","278-VK","2017/07/01 19:29:09","新北市汐止區保長路147巷1號","121.67595","25.077185","6501100","汐止區"
"221023","279-VK","2017/07/01 19:29:05","新北市汐止區康寧街688號","121.637115","25.07173","6501100","汐止區"
"221032","280-BY","2017/07/01 19:29:00","新北市汐止區汐萬路一段150號","121.652711666667","25.0711516666667","6501100","汐止區"
"221027","281-BY","2017/07/01 19:29:14","新北市汐止區忠孝東路9號","121.658291666667","25.0659533333333","6501100","汐止區"
"221038","297-VK","2017/07/01 19:29:10","新北市汐止區康寧街901號","121.651483333333","25.0750066666667","6501100","汐止區"
"221029","298-VK","2017/07/01 19:29:19","新北市汐止區康寧街901號","121.65136","25.0749733333333","6501100","汐止區"
"221021","299-VK","2017/07/01 19:29:18","新北市汐止區康寧街901號","121.651535","25.07494","6501100","汐止區"
"221025","623-UM","2017/07/01 19:29:12","新北市汐止區秀峰路9號","121.659238333333","25.0664733333333","6501100","汐止區"
"221033","647-BX","2017/07/01 19:29:05","新北市汐止區南勢街1巷1號","121.62704","25.037405","6501100","汐止區"
"221002","707-TV","2017/07/01 19:29:15","新北市汐止區大同路一段349-1號","121.639293333333","25.0597516666667","6501100","汐止區"
"220079","145-BY","2017/07/01 19:29:10","新北市板橋區民權路202巷13弄19號","121.459881666667","25.0160566666667","6500100","板橋區"
"220082","610-BX","2017/07/01 19:29:12","新北市板橋區金門街353號","121.428788333333","24.985135","6500100","板橋區"
"220101","245-BX","2017/07/01 19:28:58","新北市板橋區縣民大道三段121巷22號","121.47661","25.02341","6500100","板橋區"
"220103","257-TC","2017/07/01 19:29:04","新北市板橋區文化路一段188巷1弄6號","121.466633333333","25.01983","6500100","板橋區"
"220056","276-BY","2017/07/01 19:29:21","新北市板橋區信義路1巷26弄30號","121.458296666667","24.9965466666667","6500100","板橋區"
"220072","277-BY","2017/07/01 19:29:17","新北市板橋區篤行路二段161巷2號","121.429635","24.9875616666667","6500100","板橋區"
"220094","283-UM","2017/07/01 19:29:14","新北市板橋區吳鳳路15-2號","121.467756666667","25.030395","6500100","板橋區"
"220071","283-VK","2017/07/01 19:29:22","新北市板橋區重慶路283號","121.463828333333","24.9994133333333","6500100","板橋區"
"220053","285-VK","2017/07/01 19:29:17","新北市板橋區永豐街126號","121.477431666667","25.02128","6500100","板橋區"
"220083","286-VK","2017/07/01 19:29:02","新北市板橋區龍興街95巷12號","121.443571666667","25.00263","6500100","板橋區"
"220081","287-VK","2017/07/01 19:29:12","新北市板橋區南雅東路29巷11號","121.453566666667","25.005465","6500100","板橋區"
"220090","288-VK","2017/07/01 19:29:02","新北市板橋區裕民街94巷1弄2號","121.460025","25.028385","6500100","板橋區"
"220061","293-UM","2017/07/01 19:29:14","新北市板橋區中山路二段291-11號","121.478288333333","25.0181066666667","6500100","板橋區"
"220084","296-UM","2017/07/01 19:29:07","新北市板橋區滿平街136巷8弄2號","121.427916666667","24.9873066666667","6500100","板橋區"
"220075","297-UM","2017/07/01 19:29:02","新北市板橋區中正路305巷16-1號","121.45471","25.0190616666667","6500100","板橋區"
"220092","299-UM","2017/07/01 19:29:06","新北市板橋區文化路二段125巷23號","121.469778333333","25.02752","6500100","板橋區"
"220062","305-R5","2017/07/01 19:29:16","新北市板橋區三民路二段153巷6號","121.479766666667","25.0149283333333","6500100","板橋區"
"220098","317-R6","2017/07/01 19:29:17","新北市板橋區四維路266巷5弄16號","121.463633333333","25.028915","6500100","板橋區"
"220080","461-BY","2017/07/01 19:29:07","新北市板橋區大觀路二段19巷68號","121.448626666667","25.0028916666667","6500100","板橋區"
"220064","486-VK","2017/07/01 19:29:10","新北市板橋區中山路一段22號","121.460301666667","25.00794","6500100","板橋區"
"220089","487-VK","2017/07/01 19:29:02","新北市板橋區文化路一段117號","121.461943333333","25.0147966666667","6500100","板橋區"
"220088","491-VK","2017/07/01 19:28:33","新北市板橋區雙十路二段6-11號","121.476658333333","25.0264216666667","6500100","板橋區"
"220035","560-BX","2017/07/01 19:29:14","新北市板橋區中正路332-9號","121.454311666667","25.0228283333333","6500100","板橋區"
"220063","609-BX","2017/07/01 19:29:10","新北市板橋區萬安街53巷35弄1號","121.48273","25.0234566666667","6500100","板橋區"
"220091","637-BX","2017/07/01 19:29:19","新北市板橋區文聖街149巷22號","121.479566666667","25.02858","6500100","板橋區"
"220057","686-BX","2017/07/01 19:29:18","新北市中和區壽德街26號","121.466623333333","24.9940816666667","6500100","板橋區"
"220077","687-BX","2017/07/01 19:29:15","新北市板橋區僑中二街98號","121.446148333333","25.0084816666667","6500100","板橋區"
"220093","689-BX","2017/07/01 19:29:17","新北市板橋區新海路150號","121.460568333333","25.0238116666667","6500100","板橋區"
"220054","741-BX","2017/07/01 19:29:01","新北市板橋區光明街128號","121.463563333333","25.0030216666667","6500100","板橋區"
"220055","827-TW","2017/07/01 19:29:21","新北市板橋區重慶路278-1號","121.46312","24.9996933333333","6500100","板橋區"
"220067","829-TW","2017/07/01 19:29:12","新北市板橋區長安街138巷9號","121.473006666667","25.0092683333333","6500100","板橋區"
"220102","830-TW","2017/07/01 19:29:11","新北市板橋區松柏街22巷36號","121.47505","25.0289616666667","6500100","板橋區"
"220096","831-TW","2017/07/01 19:29:09","新北市板橋區大同街35巷8號","121.477653333333","25.02765","6500100","板橋區"
"220074","895-R6","2017/07/01 19:29:11","新北市板橋區中正路1巷18-1號","121.455166666667","25.011545","6500100","板橋區"
"220073","985-R7","2017/07/01 19:29:16","新北市板橋區瑞安街19號","121.455183333333","25.0231366666667","6500100","板橋區"
"220097","AAC-210","2017/07/01 19:29:04","新北市板橋區新海路186號","121.460786666667","25.023495","6500100","板橋區"
"220070","AAC-253","2017/07/01 19:29:16","新北市板橋區重慶路183號","121.462891666667","25.0023333333333","6500100","板橋區"
