"lineid","car","time","location","longitude","latitude","cityid","cityname"
"234046","148-BY","2017/07/01 19:49:02","新北市永和區秀朗路二段173巷8弄1號","121.525738333333","25.0022366666667","6500400","永和區"
"234013","149-BY","2017/07/01 19:49:16","新北市永和區仁愛路190號","121.509698333333","25.0125066666667","6500400","永和區"
"234007","207-UY","2017/07/01 19:49:21","新北市中和區中和路200號","121.505421666667","24.999655","6500400","永和區"
"234081","298-R6","2017/07/01 19:49:03","新北市永和區林森路20巷1號","121.52609","25.0053733333333","6500400","永和區"
"234038","336-UY","2017/07/01 19:49:13","新北市永和區成功路二段92號","121.52661","24.9984583333333","6500400","永和區"
"234064","337-UY","2017/07/01 19:49:15","新北市永和區中正路414號","121.517738333333","25.002075","6500400","永和區"
"234086","338-UY","2017/07/01 19:49:13","新北市永和區永利路6-1號","121.517646666667","25.0059283333333","6500400","永和區"
"234070","552-UM","2017/07/01 19:49:14","新北市永和區國光路25號","121.519645","25.0083816666667","6500400","永和區"
"234054","553-UM","2017/07/01 19:49:08","新北市永和區竹林路75巷25弄8號","121.520153333333","25.0144583333333","6500400","永和區"
"234030","746-BX","2017/07/01 19:49:21","新北市永和區民生路47巷44號","121.524898333333","24.99778","6500400","永和區"
"234061","AAD-866","2017/07/01 19:49:11","新北市永和區中正路256號","121.516706666667","24.9985116666667","6500400","永和區"
"234017","845-RS","2017/07/01 19:49:13","新北市永和區文化路5號","121.515506666667","25.0149416666667","6500400","永和區"
"234042","862-TW","2017/07/01 19:49:07","新北市永和區中和路305巷16弄1號","121.507423333333","25.0014","6500400","永和區"
"234050","863-TW","2017/07/01 19:48:10","新北市永和區保福路三段1-1號","121.508418333333","25.0153766666667","6500400","永和區"
"234026","9371-KE","2017/07/01 19:49:10","新北市永和區雙和街52巷2號","121.509005","25.0031433333333","6500400","永和區"
"234011","9373-KE","2017/07/01 19:49:04","新北市永和區保福路二段14號","121.511061666667","25.0112583333333","6500400","永和區"
"249001","173-UM","2017/07/01 19:49:15","新北市八里區中華路二段252號","121.405388333333","25.149665","6502300","八里區"
"249004","303-UY","2017/07/01 19:49:02","新北市八里區仁愛路35號","121.413465","25.16068","6502300","八里區"
"249002","305-UY","2017/07/01 19:49:01","新北市八里區頂寮五街18號","121.451421666667","25.1262816666667","6502300","八里區"
"249003","593-UM","2017/07/01 19:49:05","新北市八里區中華路二段560巷17號","121.39841","25.1451416666667","6502300","八里區"
"248014","025-BX","2017/07/01 19:49:16","新北市五股區五福路32巷23號","121.434893333333","25.090015","6501500","五股區"
"248008","095-VK","2017/07/01 19:49:12","新北市五股區四維路169號","121.467673333333","25.0750866666667","6501500","五股區"
"248018","225-UY","2017/07/01 19:49:08","新北市五股區中直路25號","121.421545","25.113845","6501500","五股區"
"248012","247-BX","2017/06/30 21:11:03","新北市五股區中興路二段103巷16號","121.458853333333","25.0755466666667","6501500","五股區"
"248016","261-SL","2017/07/01 19:49:15","新北市五股區成泰路三段601巷17-1號","121.451781666667","25.103275","6501500","五股區"
"248010","272-BY","2017/07/01 19:49:02","新北市五股區登林路貿商巷2弄2號","121.430566666667","25.0695883333333","6501500","五股區"
"248004","677-BX","2017/07/01 19:49:10","新北市五股區成泰路一段237-9號","121.436513333333","25.080135","6501500","五股區"
"248002","678-BX","2017/07/01 19:49:05","新北市五股區成泰路四段15-3號","121.453133333333","25.106895","6501500","五股區"
"234077","969-R7","2017/07/01 19:49:00","新北市永和區民治街97巷8號","121.516811666667","24.9981","6500400","永和區"
"234074","AAC-211","2017/07/01 19:49:12","新北市永和區竹林路179巷4號","121.520963333333","25.009785","6500400","永和區"
"234067","AAC-212","2017/07/01 19:49:02","新北市永和區永平路173巷7號","121.510155","25.008405","6500400","永和區"
"234003","AAC-295","2017/07/01 19:46:31","新北市永和區永和路一段120號","121.51401","25.0077266666667","6500400","永和區"
"244011","701-TV","2017/07/01 19:49:10","新北市林口區太平里180號","121.368003333333","25.1344833333333","6501700","林口區"
"244025","837-TS","2017/07/01 19:49:15","新北市八里區長道坑36-1號","121.39914","25.0892133333333","6501700","林口區"
"243013","AAD-798","2017/07/01 19:49:12","新北市泰山區應化街13號","121.423866666667","25.0436883333333","6501600","泰山區"
"243009","297-R6","2017/07/01 19:49:10","新北市泰山區美寧街68號","121.430995","25.0645883333333","6501600","泰山區"
"243015","380-SR","2017/07/01 19:49:00","新北市泰山區文程路21號","121.428458333333","25.0493016666667","6501600","泰山區"
"243014","421-VK","2017/07/01 19:49:00","新北市泰山區泰林路二段33-8號","121.435121666667","25.0565766666667","6501600","泰山區"
"243010","548-UM","2017/07/01 19:49:05","新北市泰山區民生路33號","121.43068","25.052195","6501600","泰山區"
"243011","549-UM","2017/07/01 19:49:12","新北市泰山區明志路三段196巷21弄28號","121.422423333333","25.038575","6501600","泰山區"
"243012","646-TV","2017/07/01 19:49:02","新北市泰山區全興路18巷1號","121.43205","25.05871","6501600","泰山區"
"243016","680-BX","2017/07/01 19:49:03","新北市泰山區新北大道七段2號","121.420483333333","25.0321483333333","6501600","泰山區"
"222003","436-BY","2017/07/01 19:49:07","新北市深坑區深南路51-1號","121.621145","25.0100433333333","6501800","深坑區"
"222002","659-BX","2017/07/01 19:49:19","新北市深坑區北深路二段2巷1號","121.621181666667","25.0045183333333","6501800","深坑區"
"222001","696-SL","2017/07/01 19:49:21","新北市深坑區北深路三段59號","121.607385","25.0014316666667","6501800","深坑區"
"231056","0291-UT","2017/07/01 19:49:01","新北市新店區中央一街22號","121.527798333333","24.9728833333333","6500600","新店區"
"231059","046-UY","2017/07/01 19:49:12","新北市新店區吉安街2號","121.517336666667","24.9656816666667","6500600","新店區"
"231030","047-UY","2017/07/01 12:38:12","新北市新店區安華路28-1號","121.519308333333","24.960905","6500600","新店區"
"231060","106-UY","2017/07/01 19:49:06","新北市新店區安康路二段204號","121.510228333333","24.9596283333333","6500600","新店區"
"231051","107-UY","2017/07/01 19:49:08","新北市新店區中央二街36號","121.527853333333","24.973885","6500600","新店區"
"231048","108-UY","2017/07/01 19:49:05","新北市新店區寶興路61巷1號","121.550808333333","24.97201","6500600","新店區"
"231052","187-VK","2017/07/01 19:49:12","新北市新店區新烏路三段229號","121.547115","24.8965766666667","6500600","新店區"
"231057","256-BX","2017/07/01 19:49:13","新北市新店區花園二路三段19號","121.556665","24.931385","6500600","新店區"
"231063","268-BY","2017/07/01 19:49:09","新北市新店區黎明路3號","121.503675","24.9525033333333","6500600","新店區"
"231046","278-BY","2017/07/01 19:49:06","新北市新店區福園街13-1號","121.533123333333","24.972825","6500600","新店區"
"231050","AAD-862","2017/07/01 19:48:51","新北市新店區北宜路二段579巷43號","121.564936666667","24.9549483333333","6500600","新店區"
"231041","355-BY","2017/07/01 19:49:17","新北市新店區中央路200號","121.530488333333","24.9743183333333","6500600","新店區"
"231055","3713-VJ","2017/07/01 19:49:05","新北市新店區新生街5巷6號","121.539986666667","24.9658383333333","6500600","新店區"
"231067","4772-VM","2017/07/01 19:49:01","新北市新店區精忠路10-1號","121.53266","24.9590583333333","6500600","新店區"
"231065","512-UM","2017/07/01 19:49:09","新北市新店區安祥路109巷151弄10號","121.478185","24.958945","6500600","新店區"
"231054","513-UM","2017/07/01 19:49:21","新北市新店區光明街138巷8號","121.539713333333","24.9611333333333","6500600","新店區"
"231064","515-UM","2017/07/01 19:49:14","新北市新店區安和路二段77-1號","121.518433333333","24.9687316666667","6500600","新店區"
"231042","616-UM","2017/07/01 19:49:05","新北市新店區中興路一段271號","121.54505","24.968085","6500600","新店區"
"231045","617-UM","2017/07/01 19:49:13","新北市新店區中生路66號","121.564596666667","24.9526533333333","6500600","新店區"
"231061","618-UM","2017/07/01 19:49:13","新北市新店區安民街301號","121.517526666667","24.973745","6500600","新店區"
"231040","619-UM","2017/07/01 19:49:18","新北市新店區中正路75巷71號","121.543113333333","24.9690733333333","6500600","新店區"
"231049","719-UM","2017/07/01 19:49:01","新北市新店區民權路102號","121.536068333333","24.9829583333333","6500600","新店區"
"231062","720-UM","2017/07/01 19:49:15","新北市新店區永業路117號","121.528426666667","24.948115","6500600","新店區"
"231044","897-TW","2017/07/01 19:49:09","新北市新店區復興路91號","121.534981666667","24.9877216666667","6500600","新店區"
"231043","899-TW","2017/07/01 19:49:13","新北市新店區中正路187號","121.540651666667","24.9722233333333","6500600","新店區"
"231066","AKT-0513","2017/07/01 19:49:09","新北市新店區安康路二段341巷50號","121.49668","24.95429","6500600","新店區"
"241011","013-R5","2017/07/01 19:49:10","新北市三重區介壽路39巷52號","121.499933333333","25.0704416666667","6500200","三重區"
"241028","022-UY","2017/07/01 19:49:05","新北市三重區中正南路157號","121.493888333333","25.0562266666667","6500200","三重區"
"241008","059-VK","2017/07/01 19:49:14","新北市三重區永福街147-8號","121.478753333333","25.076215","6500200","三重區"
"241009","060-VK","2017/07/01 19:49:06","新北市三重區三和路四段396巷26號","121.480196666667","25.0787733333333","6500200","三重區"
"241015","062-VK","2017/07/01 19:49:05","新北市三重區三和路一段2號","121.503846666667","25.0642483333333","6500200","三重區"
"241017","063-VK","2017/07/01 19:49:12","新北市三重區重陽路三段5巷8弄10號","121.489488333333","25.0664166666667","6500200","三重區"
"241024","065-VK","2017/07/01 19:49:15","新北市三重區大勇街82巷6號","121.479403333333","25.0715666666667","6500200","三重區"
"241026","066-VK","2017/07/01 19:49:05","新北市三重區文化南路42號","121.50039","25.060185","6500200","三重區"
"241003","091-VK","2017/07/01 19:49:22","新北市三重區五華街93巷73號","121.493515","25.0846666666667","6500200","三重區"
"241031","156-TC","2017/07/01 19:49:14","新北市三重區重新路四段248號","121.486081666667","25.0533983333333","6500200","三重區"
"241005","262-UM","2017/07/01 19:49:17","新北市三重區溪尾街300號","121.487513333333","25.08357","6500200","三重區"
"241022","265-UM","2017/07/01 19:49:11","新北市三重區新北大道一段7號","121.489811666667","25.0614983333333","6500200","三重區"
"241016","266-UM","2017/07/01 19:49:01","新北市三重區正德街43號","121.495836666667","25.0627433333333","6500200","三重區"
"241018","268-UM","2017/07/01 19:49:13","新北市三重區雙園街57巷1號","121.494876666667","25.0675766666667","6500200","三重區"
"241032","269-UM","2017/07/01 19:49:17","新北市三重區重陽路一段10號","121.486146666667","25.0576433333333","6500200","三重區"
"241013","270-UM","2017/07/01 19:49:13","新北市三重區仁愛街114號","121.49509","25.074425","6500200","三重區"
"241025","271-UM","2017/07/01 19:49:01","新北市三重區頂崁街210巷16號","121.476471666667","25.06776","6500200","三重區"
"241007","398-BY","2017/07/01 19:49:20","新北市三重區三和路四段147號","121.484266666667","25.0782983333333","6500200","三重區"
"241020","413-TH","2017/07/01 19:49:05","新北市三重區三和路四段95號","121.487983333333","25.0759466666667","6500200","三重區"
"241004","475-VK","2017/07/01 19:48:59","新北市三重區五華街74號","121.493455","25.0819283333333","6500200","三重區"
"241019","478-VK","2017/07/01 19:49:14","新北市三重區自強路二段74巷25號","121.487708333333","25.0696666666667","6500200","三重區"
"241030","480-VK","2017/07/01 19:49:18","新北市三重區環河南路254巷62號","121.489248333333","25.0514883333333","6500200","三重區"
"241014","543-UM","2017/07/01 19:49:16","新北市三重區長安街84號","121.501605","25.067535","6500200","三重區"
"241001","547-UM","2017/07/01 19:49:17","新北市三重區仁愛街327巷82號","121.493931666667","25.0805616666667","6500200","三重區"
"241006","AAD-863","2017/07/01 19:49:21","新北市三重區永福街269號","121.481655","25.074165","6500200","三重區"
"241035","743-BX","2017/07/01 19:49:15","新北市三重區大榮街7號","121.498133333333","25.0631966666667","6500200","三重區"
"241023","887-TS","2017/07/01 19:49:00","新北市三重區大有街1-1號","121.477663333333","25.0656666666667","6500200","三重區"
"241012","941-UM","2017/07/01 19:49:13","新北市三重區仁興街28巷43號","121.498118333333","25.0751116666667","6500200","三重區"
"241029","942-UM","2017/07/01 19:49:07","新北市三重區重安街14號","121.490398333333","25.0583033333333","6500200","三重區"
"241033","AAC-255","2017/07/01 19:49:19","新北市三重區五谷王南街46巷17號","121.475005","25.0451816666667","6500200","三重區"
"235066","003-UY","2017/07/01 19:49:06","新北市中和區中和路174號","121.504643333333","24.99956","6500300","中和區"
"235064","005-UY","2017/07/01 19:49:14","新北市中和區南山路81巷68號","121.504083333333","24.997795","6500300","中和區"
"235063","006-UY","2017/07/01 19:49:04","新北市中和區連城路170號","121.4935","24.997285","6500300","中和區"
"235056","096-UM","2017/07/01 19:49:10","新北市中和區中山路三段100號","121.477081666667","25.00585","6500300","中和區"
"235039","097-UM","2017/07/01 19:49:05","新北市中和區秀峰街113號","121.520345","24.99058","6500300","中和區"
"235040","150-BY","2017/07/01 19:49:18","新北市中和區安和路39號","121.509675","24.9949016666667","6500300","中和區"
"235058","151-BY","2017/07/01 19:49:10","新北市中和區員山路134號","121.481231666667","24.9963083333333","6500300","中和區"
"235055","183-VK","2017/07/01 19:49:07","新北市中和區中山路三段179巷3號","121.472925","25.0059666666667","6500300","中和區"
"235038","185-VK","2017/07/01 19:49:05","新北市中和區自立路15巷4號","121.522696666667","24.99583","6500300","中和區"
"235049","186-VK","2017/07/01 19:49:21","新北市中和區景平路554號","121.50223","24.9948433333333","6500300","中和區"
"235067","255-BX","2017/07/01 19:49:11","新北市中和區新生街230號","121.48382","24.9982333333333","6500300","中和區"
"235044","293-VK","2017/07/01 19:49:20","新北市中和區捷運路6號","121.50996","24.98958","6500300","中和區"
"235072","301-VK","2017/07/01 19:49:16","新北市中和區中山路二段330號","121.494605","25.0023883333333","6500300","中和區"
"235043","352-BY","2017/07/01 19:49:18","新北市中和區興南路二段159巷25號","121.505391666667","24.9830166666667","6500300","中和區"
"235051","376-QA","2017/07/01 19:49:00","新北市中和區中興街202巷18號","121.498265","24.9898266666667","6500300","中和區"
"235068","377-QA","2017/07/01 19:49:02","新北市中和區中山路二段181巷8號","121.500336666667","25.002195","6500300","中和區"
"235061","378-QA","2017/07/01 19:49:15","新北市中和區員山路202號","121.481295","25.0006316666667","6500300","中和區"
"235050","4979-A6","2017/07/01 19:49:00","新北市中和區景平路241巷82弄40號","121.506295","24.9926916666667","6500300","中和區"
"235042","551-UM","2017/07/01 19:49:05","新北市中和區景安路79巷37弄4號","121.507711666667","24.99632","6500300","中和區"
"235070","558-UM","2017/07/01 19:49:09","新北市中和區景平路531號","121.498895","24.9991533333333","6500300","中和區"
"235045","565-BX","2017/07/01 19:49:11","新北市中和區景新街467巷15弄2號","121.514065","24.9884316666667","6500300","中和區"
"235054","640-BX","2017/07/01 19:49:11","新北市中和區國光街107巷2弄29號","121.469325","24.9989633333333","6500300","中和區"
"235060","647-TV","2017/07/01 19:49:20","新北市中和區中山路二段523巷1弄2號","121.481708333333","25.0047483333333","6500300","中和區"
"235047","732-UM","2017/07/01 19:48:58","新北市中和區南山路279號","121.504133333333","24.9922916666667","6500300","中和區"
"235071","783-BX","2017/07/01 19:49:06","新北市中和區立德街200巷36號","121.485438333333","25.0100966666667","6500300","中和區"
"235041","802-TS","2017/07/01 19:49:00","新北市中和區中和路400巷21號","121.511673333333","25.0022883333333","6500300","中和區"
"235052","805-TS","2017/07/01 19:49:14","新北市中和區華新街190號","121.506915","24.98213","6500300","中和區"
"235048","896-TW","2017/07/01 19:49:17","新北市中和區興南路二段47號","121.507368333333","24.985485","6500300","中和區"
"235053","900-TW","2017/07/01 19:49:19","新北市中和區國光街215巷9-2號","121.466638333333","25.0014266666667","6500300","中和區"
"235040","157-BY","2017/07/01 19:49:10","新北市中和區景新街496巷27弄1號","121.513391666667","24.98645","6500300","中和區"
"235037","AAC-213","2017/07/01 19:49:13","新北市中和區秀朗路三段10巷14弄102號","121.52321","24.9966366666667","6500300","中和區"
"235059","AAC-215","2017/07/01 19:49:09","新北市中和區圓通路335巷71號","121.494246666667","24.9894","6500300","中和區"
"220068","013-TV","2017/07/01 19:49:21","新北市板橋區光復街192巷16弄6號","121.486261666667","25.0196833333333","6500100","板橋區"
"220065","072-UY","2017/07/01 19:49:08","新北市板橋區國泰街39巷7弄4號","121.468786666667","25.0056483333333","6500100","板橋區"
"220086","073-UY","2017/07/01 19:49:03","新北市板橋區光華街2號","121.454366666667","25.0112233333333","6500100","板橋區"
"220069","AAD-861","2017/07/01 19:49:07","新北市板橋區稚暉街18號","121.455963333333","25.0043983333333","6500100","板橋區"
"220106","120-SR","2017/07/01 19:49:16","新北市板橋區文化路二段582號","121.476756666667","25.0346583333333","6500100","板橋區"
"247006","341-TH","2017/07/01 19:33:04","新北市五股區中興路三段2巷10號","121.448765","25.0815983333333","6501400","蘆洲區"
"247008","339-TH","2017/07/01 19:49:14","新北市蘆洲區信義路111號","121.478373333333","25.080145","6501400","蘆洲區"
"247002","335-TH","2017/07/01 19:49:14","新北市蘆洲區永樂街38巷71號","121.458688333333","25.0905833333333","6501400","蘆洲區"
"247014","057-VK","2017/07/01 19:49:21","新北市蘆洲區忠孝路45號","121.471298333333","25.08611","6501400","蘆洲區"
"247004","056-VK","2017/07/01 19:49:05","新北市蘆洲區中原路23號","121.460395","25.082805","6501400","蘆洲區"
"247006","053-VK","2017/07/01 19:48:16","新北市蘆洲區永安南路二段26號","121.467308333333","25.0770716666667","6501400","蘆洲區"
"226004","312-R5","2017/07/01 19:49:16","新北市平溪區靜安路二段490號","121.743443333333","25.0264366666667","6502400","平溪區"
"228003","097-TW","2017/07/01 19:49:08","新北市貢寮區真理里美艷山街3-1號","121.925686666667","25.0595916666667","6502600","貢寮區"
"228001","212-TW","2017/07/01 19:49:06","新北市貢寮區真理里大澳街10巷34號","121.925495","25.0564266666667","6502600","貢寮區"
"224002","639-TC","2017/07/01 19:49:18","新北市瑞芳區員山子路員山巷41號","121.81645","25.104035","6501200","瑞芳區"
"224011","420-VK","2017/07/01 19:49:05","新北市瑞芳區崙頂路3-1號","121.847015","25.104705","6501200","瑞芳區"
"227010","642-TC","2017/07/01 19:49:19","新北市雙溪區新基里朝陽街18號","121.865936666667","25.0387416666667","6502500","雙溪區"
"227002","400-TW","2017/07/01 19:49:19","新北市雙溪區雙溪里內挖路47號","121.863268333333","25.0367183333333","6502500","雙溪區"
"208003","665-BX","2017/07/01 19:49:20","新北市金山區海興路35-2號","121.629585","25.2364766666667","6502700","金山區"
"208001","761-BX","2017/07/01 19:49:21","新北市金山區重和里茅埔頭22號","121.601296666667","25.21313","6502700","金山區"
"251004","009-UM","2017/07/01 19:46:05","新北市淡水區民權路185巷22號","121.460383333333","25.1337733333333","6501000","淡水區"
"251014","180-VK","2017/07/01 19:49:00","新北市淡水區番社前4-6號","121.474193333333","25.2363983333333","6501000","淡水區"
"251008","181-VK","2017/07/01 19:49:05","新北市淡水區中正路二段24巷2-1號","121.426808333333","25.1768433333333","6501000","淡水區"
"251012","441-VK","2017/07/01 19:49:12","新北市淡水區埤島6-10號","121.44601","25.19468","6501000","淡水區"
"251016","442-VK","2017/07/01 19:49:06","新北市淡水區三塊厝3-2號","121.456153333333","25.2091233333333","6501000","淡水區"
"251005","443-VK","2017/07/01 19:49:10","新北市淡水區學府路104號","121.449808333333","25.171715","6501000","淡水區"
"251001","559-UM","2017/07/01 19:49:05","新北市淡水區中正東路二段51-3號","121.459455","25.1556683333333","6501000","淡水區"
"251006","561-UM","2017/07/01 19:49:07","新北市淡水區水碓街15號","121.443495","25.1769416666667","6501000","淡水區"
"251009","575-R6","2017/07/01 19:49:06","新北市淡水區中正路38-1號","121.443783333333","25.16935","6501000","淡水區"
"251011","650-BX","2017/07/01 19:49:02","新北市淡水區淡金路二段365號","121.447228333333","25.18526","6501000","淡水區"
"207003","550-UM","2017/07/01 19:49:11","新北市萬里區大鵬里萬里加投51-1號","121.642001666667","25.2116616666667","6502800","萬里區"
"207004","225-TW","2017/07/01 19:49:11","新北市萬里區萬里里瑪鋉路261號","121.689866666667","25.1797716666667","6502800","萬里區"
"252002","178-VK","2017/07/01 19:49:18","新北市三芝區三民街37-1號","121.504786666667","25.258625","6502100","三芝區"
"252001","702-TV","2017/07/01 19:49:09","新北市三芝區公正街66號","121.499803333333","25.2574933333333","6502100","三芝區"
"208002","170-UY","2017/07/01 19:49:02","新北市金山區中山路270號","121.635263333333","25.2242083333333","6502700","金山區"
"237004","078-UY","2017/07/01 19:49:12","新北市三峽區添福143-1號","121.3748","24.8997083333333","6500900","三峽區"
"237007","153-BY","2017/07/01 19:49:01","新北市三峽區二鬮路71號","121.359738333333","24.90721","6500900","三峽區"
"237009","210-TH","2017/07/01 19:49:19","新北市三峽區大同路202-1號","121.367945","24.9275816666667","6500900","三峽區"
"237013","252-BX","2017/07/01 19:49:06","新北市三峽區溪北街95號","121.397876666667","24.935545","6500900","三峽區"
"237012","275-BY","2017/07/01 19:43:16","新北市三峽區光明路39號","121.373756666667","24.93073","6500900","三峽區"
"237008","302-VK","2017/07/01 19:49:12","新北市三峽區永安街175號","121.373155","24.9270816666667","6500900","三峽區"
"237014","433-BY","2017/07/01 19:49:16","新北市三峽區添福59-3號","121.374688333333","24.9033533333333","6500900","三峽區"
"237006","5529-G3","2017/07/01 19:49:10","新北市三峽區中正路一段336巷15弄2號","121.369966666667","24.9249316666667","6500900","三峽區"
"237016","649-BX","2017/07/01 19:49:03","新北市三峽區橫溪路73號","121.39754","24.9353416666667","6500900","三峽區"
"237005","AKY-6261","2017/07/01 19:49:10","新北市三峽區文化路122號","121.371013333333","24.9362033333333","6500900","三峽區"
"236073","105-UM","2017/07/01 19:49:06","新北市土城區中正路6號","121.44249","24.9749066666667","6501300","土城區"
"236043","107-UM","2017/07/01 19:49:14","新北市土城區裕民路270號","121.454945","24.982615","6501300","土城區"
"236079","166-UM","2017/07/01 19:33:08","新北市土城區中州路3巷35號","121.413453333333","24.9563883333333","6501300","土城區"
"236031","253-BX","2017/07/01 19:49:02","新北市土城區中央路一段294號","121.443318333333","24.9823583333333","6501300","土城區"
"236027","269-VK","2017/07/01 19:49:02","新北市土城區中央路二段61巷28號","121.44344","24.9788433333333","6501300","土城區"
"236038","271-VK","2017/07/01 19:49:14","新北市土城區仁愛路16巷22號","121.460058333333","24.9797366666667","6501300","土城區"
"236059","912-UM","2017/07/01 19:49:12","新北市土城區中央路二段7號","121.442938333333","24.98066","6501300","土城區"
"236049","913-UM","2017/07/01 19:49:09","新北市土城區青雲路311號","121.459035","24.9790716666667","6501300","土城區"
"236063","915-UM","2017/07/01 19:49:09","新北市土城區延平街33巷1號","121.467798333333","24.9916833333333","6501300","土城區"
"236055","AAC-216","2017/07/01 19:49:02","新北市土城區延和路40號","121.465008333333","24.9887166666667","6501300","土城區"
"242023","613-BX","2017/07/01 19:49:20","新北市新莊區化成路150號","121.46541","25.0449333333333","6500500","新莊區"
"242027","612-BX","2017/07/01 19:49:11","新北市泰山區泰林路一段4號","121.442415","25.04843","6500500","新莊區"
"242036","566-BX","2017/07/01 19:49:16","新北市新莊區建安街99號","121.426683333333","25.02427","6500500","新莊區"
"242042","497-BY","2017/07/01 19:49:14","新北市新莊區新北大道七段510號","121.41234","25.029085","6500500","新莊區"
"242004","442-UM","2017/07/01 19:49:17","新北市新莊區化成路63巷24弄13號","121.462745","25.04602","6500500","新莊區"
"242031","415-TV","2017/07/01 19:49:19","新北市新莊區忠孝街83號","121.443908333333","25.0368016666667","6500500","新莊區"
"242002","413-TV","2017/07/01 19:49:06","新北市新莊區新泰路65號","121.449413333333","25.0341983333333","6500500","新莊區"
"242039","400-BY","2017/07/01 19:49:08","新北市新莊區民安路299巷38號","121.429623333333","25.0233733333333","6500500","新莊區"
"242061","362-BY","2017/07/01 19:49:03","新北市新莊區中正路400號","121.44199","25.034165","6500500","新莊區"
"242058","353-BY","2017/07/01 19:48:58","新北市新莊區民安路185號","121.42593","25.0228866666667","6500500","新莊區"
"242034","133-UY","2017/07/01 19:49:13","新北市新莊區新泰路199巷19號","121.44563","25.0376983333333","6500500","新莊區"
"242007","173-VK","2017/07/01 19:49:15","新北市新莊區福壽街336號","121.457726666667","25.0583833333333","6500500","新莊區"
"242013","175-VK","2017/07/01 19:49:10","新北市新莊區中泰街62巷8號","121.450211666667","25.0473566666667","6500500","新莊區"
"242056","176-VK","2017/07/01 19:49:17","新北市新莊區新泰路131號","121.448253333333","25.0362616666667","6500500","新莊區"
"242048","347-TH","2017/07/01 19:49:08","新北市新莊區建安街92巷7號","121.425885","25.0241916666667","6500500","新莊區"
"242015","350-TH","2017/07/01 19:49:14","新北市新莊區中港一街161號","121.447215","25.0449966666667","6500500","新莊區"
"242009","351-TH","2017/07/01 19:49:17","新北市新莊區中誠街86號","121.45023","25.0478416666667","6500500","新莊區"
"238015","755-BX","2017/07/01 19:49:16","新北市樹林區樹德街16號","121.42279","24.9915583333333","6500700","樹林區"
"238023","601-UM","2017/07/01 19:49:15","新北市樹林區三福街123巷1號","121.405698333333","25.0159816666667","6500700","樹林區"
"238024","5061-A6","2017/07/01 19:49:14","新北市樹林區佳園路一段72巷15號","121.391848333333","24.9696633333333","6500700","樹林區"
"238022","312-TH","2017/07/01 19:49:09","新北市樹林區名園街35號","121.419606666667","24.9789483333333","6500700","樹林區"
"238021","311-TH","2017/07/01 19:38:22","新北市樹林區學府路360號","121.379575","24.9503416666667","6500700","樹林區"
"238025","303-VK","2017/07/01 19:49:07","新北市樹林區中山路二段168號","121.41219","24.9824916666667","6500700","樹林區"
"238017","283-BY","2017/07/01 19:49:21","新北市樹林區大安路396號","121.415625","24.9892133333333","6500700","樹林區"
"238014","282-BY","2017/07/01 19:49:01","新北市樹林區千歲街46巷8號","121.426526666667","24.9966233333333","6500700","樹林區"
"238020","268-VK","2017/07/01 19:49:04","新北市樹林區千歲街186號","121.429421666667","25.0008733333333","6500700","樹林區"
"221008","489-VK","2017/07/01 19:49:21","新北市汐止區康寧街83巷24號","121.62027","25.0670683333333","6501100","汐止區"
"221036","130-UY","2017/07/01 19:49:20","新北市汐止區汐萬路一段17號","121.655956666667","25.0674383333333","6501100","汐止區"
"221015","131-UY","2017/07/01 19:49:16","新北市汐止區汐萬路一段1號","121.656043333333","25.0672583333333","6501100","汐止區"
"221010","269-BY","2017/07/01 19:49:13","新北市汐止區汐萬路一段333巷1號","121.649848333333","25.0761","6501100","汐止區"
"221010","276-VK","2017/07/01 15:29:27","新北市汐止區汐萬路一段256巷3號","121.65342","25.0745966666667","6501100","汐止區"
"221031","277-VK","2017/07/01 01:05:12","新北市汐止區汐萬路一段256巷3號","121.652576666667","25.0744766666667","6501100","汐止區"
"221012","278-VK","2017/07/01 19:49:09","新北市汐止區保長路273巷8號","121.68145","25.074045","6501100","汐止區"
"221023","279-VK","2017/07/01 19:49:08","新北市汐止區明峰街153號","121.629271666667","25.0702716666667","6501100","汐止區"
"221032","280-BY","2017/07/01 19:49:00","新北市汐止區橫科路73巷1號","121.619218333333","25.0506533333333","6501100","汐止區"
"221027","281-BY","2017/07/01 19:49:14","新北市汐止區忠孝東路9號","121.658313333333","25.06595","6501100","汐止區"
"221038","297-VK","2017/07/01 19:49:10","新北市汐止區忠孝東路266號","121.66328","25.0678616666667","6501100","汐止區"
"221029","298-VK","2017/07/01 19:49:19","新北市汐止區康寧街901號","121.651481666667","25.0748883333333","6501100","汐止區"
"221021","299-VK","2017/07/01 19:48:18","新北市汐止區莊敬街29巷17號","121.657263333333","25.0606266666667","6501100","汐止區"
"221035","622-UM","2017/07/01 19:49:04","新北市汐止區長江街11號","121.654713333333","25.0712833333333","6501100","汐止區"
"221025","623-UM","2017/07/01 19:49:12","新北市汐止區秀峰路81巷38號","121.661375","25.0646483333333","6501100","汐止區"
"221033","647-BX","2017/07/01 19:49:05","新北市汐止區東勢街76巷99號","121.636475","25.0392216666667","6501100","汐止區"
"221018","753-BX","2017/07/01 19:49:01","新北市汐止區康寧街901號","121.651556666667","25.075035","6501100","汐止區"
"220079","145-BY","2017/07/01 19:49:13","新北市板橋區建國街54巷15-2號","121.459435","25.0169366666667","6500100","板橋區"
"220082","610-BX","2017/07/01 19:49:12","新北市板橋區大觀路三段160巷36號","121.429961666667","24.9940483333333","6500100","板橋區"
"220101","245-BX","2017/07/01 19:49:18","新北市板橋區莊敬路251號","121.473395","25.021515","6500100","板橋區"
"220103","257-TC","2017/07/01 19:49:04","新北市板橋區陽明街27巷1號","121.465736666667","25.021815","6500100","板橋區"
"220072","277-BY","2017/07/01 19:49:01","新北市板橋區金門街253巷8號","121.432735","24.98846","6500100","板橋區"
"220094","283-UM","2017/07/01 19:49:04","新北市板橋區宏國路17號","121.467571666667","25.031605","6500100","板橋區"
"220071","283-VK","2017/07/01 19:49:20","新北市板橋區四川路一段283巷23號","121.45947","25.0006466666667","6500100","板橋區"
"220053","285-VK","2017/07/01 19:49:17","新北市板橋區中山路二段60巷1弄20號","121.475013333333","25.0155483333333","6500100","板橋區"
"220083","286-VK","2017/07/01 19:49:01","新北市板橋區大觀路二段174巷139號","121.441376666667","25.0024066666667","6500100","板橋區"
"220081","287-VK","2017/07/01 19:49:12","新北市板橋區大觀路一段29巷179弄20號","121.449193333333","25.004635","6500100","板橋區"
"220090","288-VK","2017/07/01 19:49:07","新北市板橋區龍泉街54巷5號","121.456873333333","25.0266333333333","6500100","板橋區"
"220061","293-UM","2017/07/01 19:49:14","新北市板橋區漢生東路113巷31號","121.468478333333","25.0155833333333","6500100","板橋區"
"220084","296-UM","2017/07/01 19:49:07","新北市板橋區滿平二街1-3號","121.425461666667","24.986275","6500100","板橋區"
"220075","297-UM","2017/07/01 19:49:02","新北市板橋區大勇街2號","121.455766666667","25.0177666666667","6500100","板橋區"
"220092","299-UM","2017/07/01 19:49:03","新北市板橋區文化路一段383號","121.46729","25.02175","6500100","板橋區"
"220062","305-R5","2017/07/01 19:49:16","新北市板橋區中山路二段328-5號","121.481325","25.0193733333333","6500100","板橋區"
"220098","317-R6","2017/07/01 19:49:17","新北市板橋區四維路269巷92號","121.459598333333","25.0266366666667","6500100","板橋區"
"220080","461-BY","2017/07/01 19:47:07","新北市板橋區大觀路二段37巷180號","121.449631666667","25.002125","6500100","板橋區"
"220064","486-VK","2017/07/01 19:49:10","新北市板橋區館前東路96號","121.462336666667","25.00745","6500100","板橋區"
"220089","487-VK","2017/07/01 19:49:02","新北市板橋區龍泉街108巷104號","121.455255","25.025585","6500100","板橋區"
"220088","491-VK","2017/07/01 19:48:33","新北市板橋區仁化街103號","121.47673","25.0323316666667","6500100","板橋區"
"220035","560-BX","2017/07/01 19:49:05","新北市板橋區金華街85巷42號","121.459198333333","25.0213783333333","6500100","板橋區"
"220063","609-BX","2017/07/01 19:49:14","新北市板橋區三民路一段136號","121.479173333333","25.0206466666667","6500100","板橋區"
"220091","637-BX","2017/07/01 19:48:59","新北市板橋區懷德街127巷49號","121.480523333333","25.0318466666667","6500100","板橋區"
"220057","686-BX","2017/07/01 19:49:18","新北市板橋區和平路安樂巷23號","121.461598333333","24.9936633333333","6500100","板橋區"
"220077","687-BX","2017/07/01 19:49:03","新北市板橋區僑中一街148號","121.44501","25.0119766666667","6500100","板橋區"
"220093","689-BX","2017/07/01 19:49:16","新北市板橋區長江路二段207號","121.46771","25.032335","6500100","板橋區"
"220054","741-BX","2017/07/01 19:49:01","新北市板橋區實踐路68號","121.463866666667","25.005775","6500100","板橋區"
"220055","827-TW","2017/07/01 19:49:01","新北市板橋區國慶路149巷13弄13號","121.460373333333","24.9967366666667","6500100","板橋區"
"220067","829-TW","2017/07/01 19:49:12","新北市板橋區漢生東路193巷91號","121.473055","25.0120216666667","6500100","板橋區"
"220102","830-TW","2017/07/01 19:49:11","新北市板橋區文化路二段410巷23號","121.474785","25.0308216666667","6500100","板橋區"
"220096","831-TW","2017/07/01 19:49:09","新北市板橋區莒光路40巷26號","121.470003333333","25.0232133333333","6500100","板橋區"
"220074","895-R6","2017/07/01 19:49:11","新北市板橋區福德街40號","121.455945","25.00817","6500100","板橋區"
"220073","985-R7","2017/07/01 19:49:16","新北市板橋區國光路1號","121.456558333333","25.0173333333333","6500100","板橋區"
"220097","AAC-210","2017/07/01 19:49:04","新北市板橋區文化路一段285巷55號","121.463208333333","25.0198283333333","6500100","板橋區"
"220070","AAC-253","2017/07/01 19:49:16","新北市板橋區民族路288號","121.470285","25.0068066666667","6500100","板橋區"
