"lineid","car","time","location","longitude","latitude","cityid","cityname"
"234007","207-UY","2017/07/01 20:29:21","新北市永和區環河西路二段219號","121.501351666667","25.0100266666667","6500400","永和區"
"234081","298-R6","2017/07/01 20:29:19","新北市永和區福和路7巷10弄7號","121.52478","25.00758","6500400","永和區"
"234038","336-UY","2017/07/01 20:29:03","新北市永和區民樂街39巷23號","121.528968333333","25.0005866666667","6500400","永和區"
"234064","337-UY","2017/07/01 20:29:15","新北市永和區中正路403號","121.517208333333","25.0046583333333","6500400","永和區"
"234086","338-UY","2017/07/01 20:29:13","新北市永和區光復街13號","121.516503333333","25.0173566666667","6500400","永和區"
"234054","553-UM","2017/07/01 20:29:14","新北市永和區博愛街45巷25弄1號","121.51902","25.0169333333333","6500400","永和區"
"234030","746-BX","2017/07/01 20:29:05","新北市中和區景平路384號","121.51071","24.992985","6500400","永和區"
"234061","AAD-866","2017/07/01 20:29:04","新北市永和區得和路47號","121.516648333333","25.000165","6500400","永和區"
"234042","862-TW","2017/07/01 20:29:07","新北市中和區中安街220號","121.51211","24.99885","6500400","永和區"
"234050","863-TW","2017/07/01 20:28:58","新北市永和區新生路147巷4弄19號","121.507426666667","25.014365","6500400","永和區"
"234011","9373-KE","2017/07/01 20:29:04","新北市永和區仁愛路352巷122弄10號","121.500768333333","25.008745","6500400","永和區"
"249001","173-UM","2017/07/01 20:29:19","新北市八里區下罟子1-11號","121.390105","25.1422016666667","6502300","八里區"
"249004","303-UY","2017/07/01 20:29:02","新北市八里區中山路一段129巷19-1號","121.41391","25.1586683333333","6502300","八里區"
"249002","305-UY","2017/07/01 20:29:01","新北市八里區龍米路二段58-1號","121.448213333333","25.141085","6502300","八里區"
"249003","593-UM","2017/07/01 20:29:04","新北市八里區華峰一街50號","121.398353333333","25.1462383333333","6502300","八里區"
"249005","759-BX","2017/07/01 20:29:06","新北市八里區下罟子15-9號","121.37983","25.139255","6502300","八里區"
"248002","678-BX","2017/07/01 20:29:09","新北市五股區成泰路三段43-1號","121.442283333333","25.0888666666667","6501500","五股區"
"234023","9380-KE","2017/07/01 20:28:18","新北市永和區博愛街32巷17-1號","121.518896666667","25.015295","6500400","永和區"
"234074","AAC-211","2017/07/01 20:29:20","新北市永和區豫溪街191巷7弄18號","121.523331666667","25.011","6500400","永和區"
"234067","AAC-212","2017/07/01 20:29:02","新北市永和區保平路268巷9號","121.508421666667","25.0054233333333","6500400","永和區"
"234003","AAC-295","2017/07/01 20:26:50","新北市永和區大新街39號","121.515431666667","25.0084883333333","6500400","永和區"
"243013","AAD-798","2017/07/01 20:29:11","新北市泰山區中央路5巷7號","121.426823333333","25.0435883333333","6501600","泰山區"
"243009","297-R6","2017/07/01 20:29:10","新北市泰山區憲訓路36號","121.429021666667","25.0646566666667","6501600","泰山區"
"243015","380-SR","2017/07/01 20:29:09","新北市泰山區仁德路125號","121.432631666667","25.056125","6501600","泰山區"
"243014","421-VK","2017/07/01 20:29:00","新北市泰山區泰林路二段528號","121.423873333333","25.063935","6501600","泰山區"
"243010","548-UM","2017/07/01 20:29:05","新北市泰山區新生路31巷7號","121.427548333333","25.0459016666667","6501600","泰山區"
"243011","549-UM","2017/07/01 20:29:12","新北市泰山區明志路三段42巷18號","121.42417","25.04243","6501600","泰山區"
"243012","646-TV","2017/07/01 20:29:21","新北市泰山區明志路一段149號","121.43346","25.0627416666667","6501600","泰山區"
"243016","680-BX","2017/07/01 20:29:22","新北市泰山區文程路17號","121.428156666667","25.0495116666667","6501600","泰山區"
"222003","436-BY","2017/07/01 20:29:08","新北市深坑區深坑街45號","121.615471666667","25.001815","6501800","深坑區"
"222002","659-BX","2017/07/01 20:27:39","新北市深坑區萬福路16巷26號","121.608168333333","25.0084933333333","6501800","深坑區"
"222001","696-SL","2017/07/01 20:29:02","新北市深坑區北深路三段345號","121.597153333333","25.00502","6501800","深坑區"
"231056","0291-UT","2017/07/01 20:29:01","新北市新店區中正路302巷5弄1號","121.538231666667","24.9754","6500600","新店區"
"231059","046-UY","2017/07/01 20:29:12","新北市新店區安豐路49號","121.49999","24.9548816666667","6500600","新店區"
"231030","047-UY","2017/07/01 12:38:12","新北市新店區安華路28-1號","121.519308333333","24.960905","6500600","新店區"
"231060","106-UY","2017/07/01 20:29:06","新北市新店區錦秀路68巷1號","121.47886","24.9425966666667","6500600","新店區"
"231051","107-UY","2017/07/01 20:29:08","新北市新店區中央七街105號","121.525936666667","24.97758","6500600","新店區"
"231048","108-UY","2017/07/01 20:29:05","新北市新店區寶慶街58巷12號","121.542046666667","24.9872416666667","6500600","新店區"
"231052","187-VK","2017/07/01 20:29:12","新北市新店區松林路36號","121.546243333333","24.9102783333333","6500600","新店區"
"231057","256-BX","2017/07/01 19:53:13","新北市新店區梅崗一路10號","121.55585","24.93157","6500600","新店區"
"231063","268-BY","2017/07/01 20:29:09","新北市新店區安康路二段382號","121.500426666667","24.95711","6500600","新店區"
"231050","AAD-862","2017/07/01 20:29:11","新北市新店區博愛街27巷1號","121.541493333333","24.97405","6500600","新店區"
"231041","355-BY","2017/07/01 20:29:23","新北市新店區中正路501-2號","121.533675","24.98373","6500600","新店區"
"231058","3712-VJ","2017/07/01 20:29:13","新北市新店區中正路381號","121.534716666667","24.9769066666667","6500600","新店區"
"231055","3713-VJ","2017/07/01 20:29:05","新北市新店區安康路一段229號","121.525533333333","24.963125","6500600","新店區"
"231065","512-UM","2017/07/01 20:29:09","新北市新店區安祥路102巷42弄99號","121.48687","24.9629483333333","6500600","新店區"
"231054","513-UM","2017/07/01 20:29:00","新北市新店區檳榔路109號","121.544493333333","24.96158","6500600","新店區"
"231064","515-UM","2017/07/01 20:29:14","新北市新店區新和街59巷17號","121.519245","24.985965","6500600","新店區"
"231042","616-UM","2017/07/01 20:29:05","新北市新店區寶橋路222號","121.551211666667","24.9787133333333","6500600","新店區"
"231045","617-UM","2017/07/01 20:29:13","新北市新店區新坡一街25號","121.549631666667","24.963235","6500600","新店區"
"231061","618-UM","2017/07/01 20:29:13","新北市新店區新和街34號","121.519118333333","24.9847683333333","6500600","新店區"
"231040","619-UM","2017/07/01 20:29:18","新北市新店區三民路191號","121.535396666667","24.9755566666667","6500600","新店區"
"231068","718-UY","2017/07/01 20:29:09","新北市新店區寶元路一段61號","121.542205","24.9860033333333","6500600","新店區"
"231049","719-UM","2017/07/01 20:29:22","新北市新店區華潭街31號","121.529998333333","24.95465","6500600","新店區"
"231062","720-UM","2017/07/01 20:29:15","新北市新店區安泰路60巷55-7號","121.48405","24.94532","6500600","新店區"
"231044","897-TW","2017/07/01 20:29:15","新北市新店區建國路131號","121.539458333333","24.978235","6500600","新店區"
"231043","899-TW","2017/07/01 20:29:21","新北市新店區民族路35號","121.540798333333","24.978725","6500600","新店區"
"231066","AKT-0513","2017/07/01 20:29:09","新北市新店區安興路112號","121.514791666667","24.9776216666667","6500600","新店區"
"241011","013-R5","2017/07/01 20:29:10","新北市三重區龍門路42-1號","121.496313333333","25.0724466666667","6500200","三重區"
"241028","022-UY","2017/07/01 20:29:05","新北市三重區光興街89號","121.497501666667","25.05996","6500200","三重區"
"241008","059-VK","2017/07/01 20:29:14","新北市三重區下竹圍街91號","121.481166666667","25.0748516666667","6500200","三重區"
"241009","060-VK","2017/07/01 20:29:06","新北市三重區永福街58巷1弄1號","121.481381666667","25.07784","6500200","三重區"
"241015","062-VK","2017/07/01 20:29:05","新北市三重區文化北路41-1號","121.498935","25.065245","6500200","三重區"
"241017","063-VK","2017/07/01 20:29:11","新北市三重區自強路一段203號","121.491626666667","25.068405","6500200","三重區"
"241024","065-VK","2017/07/01 20:29:10","新北市三重區三民街260號","121.479271666667","25.0679116666667","6500200","三重區"
"241026","066-VK","2017/07/01 20:29:05","新北市三重區福德南路8巷9號","121.503295","25.0634866666667","6500200","三重區"
"241002","090-VK","2017/07/01 20:29:21","新北市三重區仁義街211巷21號","121.497498333333","25.082245","6500200","三重區"
"241003","091-VK","2017/07/01 20:29:02","新北市三重區富華街125號","121.492585","25.0845183333333","6500200","三重區"
"241031","156-TC","2017/07/01 20:29:14","新北市三重區三寧街18號","121.489431666667","25.0598783333333","6500200","三重區"
"241005","262-UM","2017/07/01 20:29:17","新北市三重區碧華街360號","121.490666666667","25.0840916666667","6500200","三重區"
"241022","265-UM","2017/07/01 20:29:11","新北市三重區重陽路二段19巷9號","121.487485","25.0624466666667","6500200","三重區"
"241016","266-UM","2017/07/01 20:29:20","新北市三重區正義北路188號","121.496266666667","25.0668566666667","6500200","三重區"
"241018","268-UM","2017/07/01 20:29:13","新北市三重區雙園街60號","121.495855","25.0675983333333","6500200","三重區"
"241032","269-UM","2017/07/01 20:29:17","新北市三重區重陽路一段120巷48號","121.48505","25.06015","6500200","三重區"
"241013","270-UM","2017/07/01 20:29:13","新北市三重區三和路三段167巷55號","121.49396","25.0747966666667","6500200","三重區"
"241025","271-UM","2017/07/01 20:29:01","新北市三重區頂崁街210巷27號","121.475795","25.0681533333333","6500200","三重區"
"241007","398-BY","2017/07/01 20:29:20","新北市三重區自強路四段28號","121.488736666667","25.0766283333333","6500200","三重區"
"241020","413-TH","2017/07/01 20:29:05","新北市三重區三和路四段20巷9號","121.490563333333","25.0739416666667","6500200","三重區"
"241004","475-VK","2017/07/01 20:29:19","新北市三重區溪尾街205號","121.488525","25.0807816666667","6500200","三重區"
"241019","478-VK","2017/07/01 20:29:14","新北市三重區重陽路四段56號","121.491711666667","25.070175","6500200","三重區"
"241030","480-VK","2017/07/01 20:29:18","新北市三重區成功路75號","121.488705","25.0510333333333","6500200","三重區"
"241014","543-UM","2017/07/01 20:29:10","新北市三重區長興街98號","121.50177","25.0692","6500200","三重區"
"241001","547-UM","2017/07/01 20:29:17","新北市三重區溪尾街66號","121.490358333333","25.07787","6500200","三重區"
"241006","AAD-863","2017/07/01 20:29:21","新北市三重區車路頭街139巷12號","121.484258333333","25.0761916666667","6500200","三重區"
"241035","743-BX","2017/07/01 20:29:15","新北市三重區正義北路332號","121.49464","25.0706516666667","6500200","三重區"
"241023","887-TS","2017/07/01 20:29:00","新北市三重區自由街19號","121.479816666667","25.066605","6500200","三重區"
"241012","941-UM","2017/07/01 20:29:13","新北市三重區龍濱路257號","121.501495","25.0728133333333","6500200","三重區"
"241029","942-UM","2017/07/01 20:29:07","新北市三重區集美街225號","121.492026666667","25.0550816666667","6500200","三重區"
"241033","AAC-255","2017/07/01 20:28:59","新北市三重區五谷王北街80巷59號","121.4747","25.0529183333333","6500200","三重區"
"235066","003-UY","2017/07/01 20:29:06","新北市中和區光華街31巷22弄1號","121.505473333333","25.004785","6500300","中和區"
"235039","097-UM","2017/07/01 20:29:05","新北市中和區自強路66號","121.519861666667","24.9942266666667","6500300","中和區"
"235044","293-VK","2017/07/01 20:29:09","新北市中和區中正路446號","121.491045","24.9941683333333","6500300","中和區"
"235072","301-VK","2017/07/01 20:29:16","新北市八里區商港路48號","121.395851666667","25.145055","6500300","中和區"
"235050","4979-A6","2017/07/01 20:29:00","新北市中和區景新街160巷8-2號","121.50515","24.9969883333333","6500300","中和區"
"235069","4980-A6","2017/07/01 20:29:04","新北市中和區中正路440號","121.491038333333","24.9943466666667","6500300","中和區"
"235037","AAC-213","2017/07/01 20:29:13","新北市中和區自立路48號","121.523088333333","24.9922133333333","6500300","中和區"
"235059","AAC-215","2017/07/01 20:29:09","新北市中和區員山路5號","121.484371666667","24.9819033333333","6500300","中和區"
"247020","893-R6","2017/07/01 20:29:19","新北市蘆洲區民族路424-1號","121.473865","25.0918483333333","6501400","蘆洲區"
"247010","546-UM","2017/07/01 20:29:07","新北市蘆洲區信義路222巷21號","121.47966","25.0853966666667","6501400","蘆洲區"
"247018","500-BY","2017/07/01 20:29:14","新北市蘆洲區民族路315號","121.474513333333","25.0914383333333","6501400","蘆洲區"
"247006","341-TH","2017/07/01 19:33:04","新北市五股區中興路三段2巷10號","121.448765","25.0815983333333","6501400","蘆洲區"
"247008","339-TH","2017/07/01 20:29:01","新北市三重區永安北路二段105號","121.483236666667","25.0839183333333","6501400","蘆洲區"
"247024","337-TH","2017/07/01 20:29:15","新北市蘆洲區中正路185巷96號","121.4652","25.083795","6501400","蘆洲區"
"247002","335-TH","2017/07/01 20:29:14","新北市蘆洲區長安街361巷20號","121.456248333333","25.08761","6501400","蘆洲區"
"247014","057-VK","2017/07/01 20:29:21","新北市蘆洲區中山二路159號","121.471423333333","25.081295","6501400","蘆洲區"
"247004","056-VK","2017/07/01 20:29:05","新北市蘆洲區長安街299巷32號","121.457066666667","25.084705","6501400","蘆洲區"
"247006","053-VK","2017/07/01 20:28:36","新北市蘆洲區光華路175巷48號","121.465471666667","25.0810316666667","6501400","蘆洲區"
"247012","007-UY","2017/07/01 20:29:07","新北市蘆洲區中興街130號","121.482225","25.0893233333333","6501400","蘆洲區"
"247022","002-UY","2017/07/01 20:29:08","新北市蘆洲區中正路327號","121.465921666667","25.0890816666667","6501400","蘆洲區"
"247016","001-UY","2017/07/01 20:29:05","新北市蘆洲區光華路115號","121.466885","25.0824533333333","6501400","蘆洲區"
"224011","420-VK","2017/07/01 20:29:05","新北市瑞芳區汽車路5號","121.84737","25.111605","6501200","瑞芳區"
"251014","180-VK","2017/07/01 20:29:21","新北市淡水區石頭厝8-1號","121.460205","25.2373933333333","6501000","淡水區"
"251008","181-VK","2017/07/01 20:29:05","新北市淡水區淡海路189巷10號","121.419793333333","25.18443","6501000","淡水區"
"251010","413-VK","2017/07/01 20:29:12","新北市淡水區沙崙路181巷15號","121.423996666667","25.1843466666667","6501000","淡水區"
"251012","441-VK","2017/07/01 20:29:12","新北市淡水區頂田寮路58號","121.455153333333","25.2164116666667","6501000","淡水區"
"251016","442-VK","2017/07/01 20:29:06","新北市淡水區後洲子12-1號","121.451245","25.2238233333333","6501000","淡水區"
"251001","559-UM","2017/07/01 20:29:05","新北市淡水區中山北路二段171號","121.444321666667","25.1845733333333","6501000","淡水區"
"251006","561-UM","2017/07/01 20:29:21","新北市淡水區商工路302號","121.461378333333","25.1862416666667","6501000","淡水區"
"251011","650-BX","2017/07/01 20:27:22","新北市淡水區崁頂104號","121.434145","25.203885","6501000","淡水區"
"251002","672-BX","2017/07/01 20:29:15","新北市淡水區中正路104號","121.44201","25.169615","6501000","淡水區"
"251003","673-BX","2017/07/01 20:29:09","新北市淡水區新民街21號","121.439396666667","25.1753766666667","6501000","淡水區"
"252002","178-VK","2017/07/01 20:29:18","新北市三芝區淡金路二段15號","121.502585","25.2591883333333","6502100","三芝區"
"252001","702-TV","2017/07/01 20:29:09","新北市三芝區中山路一段36號","121.500865","25.2574716666667","6502100","三芝區"
"237007","153-BY","2017/07/01 20:29:01","新北市三峽區麻園9-21號","121.36237","24.9178783333333","6500900","三峽區"
"236073","105-UM","2017/07/01 20:29:06","新北市土城區福安街102巷5弄2號","121.41735","24.9645533333333","6501300","土城區"
"236027","269-VK","2017/07/01 20:29:02","新北市土城區中央路一段211巷4號","121.446176666667","24.9864633333333","6501300","土城區"
"236015","270-VK","2017/07/01 20:29:15","新北市土城區廣明街66號","121.455071666667","24.99368","6501300","土城區"
"236023","401-BY","2017/07/01 20:29:05","新北市土城區延吉街57巷8-1號","121.472488333333","24.9873716666667","6501300","土城區"
"236059","912-UM","2017/07/01 20:29:12","新北市土城區大安路89號","121.433161666667","24.96791","6501300","土城區"
"242021","AAC-296","2017/07/01 20:29:21","新北市新莊區和興街15號","121.447681666667","25.0393","6500500","新莊區"
"242029","986-R7","2017/07/01 20:29:16","新北市新莊區中原路231號","121.449781666667","25.0542933333333","6500500","新莊區"
"242025","615-BX","2017/07/01 20:29:18","新北市新莊區五工三路62巷3號","121.459755","25.0646216666667","6500500","新莊區"
"242023","613-BX","2017/07/01 20:29:19","新北市新莊區化成路547號","121.465083333333","25.0647833333333","6500500","新莊區"
"242027","612-BX","2017/07/01 20:29:11","新北市新莊區幸福路50號","121.457565","25.04948","6500500","新莊區"
"242036","566-BX","2017/07/01 20:29:16","新北市新莊區建安街62巷8號","121.427011666667","25.02496","6500500","新莊區"
"242042","497-BY","2017/07/01 20:29:19","新北市新莊區中正路694巷75號","121.41718","25.029565","6500500","新莊區"
"242004","442-UM","2017/07/01 20:29:06","新北市新莊區化成路568號","121.466148333333","25.05415","6500500","新莊區"
"242046","441-UM","2017/07/01 20:29:12","新北市新莊區裕民街72巷5號","121.418283333333","25.024175","6500500","新莊區"
"242051","440-UM","2017/07/01 20:29:09","新北市新莊區民安西路189巷14號","121.426693333333","25.015325","6500500","新莊區"
"242031","415-TV","2017/07/01 20:29:15","新北市新莊區三和路17-4號","121.438513333333","25.0379183333333","6500500","新莊區"
"242002","413-TV","2017/07/01 20:29:06","新北市新莊區明中街43巷29號","121.456931666667","25.03853","6500500","新莊區"
"242039","400-BY","2017/07/01 20:29:08","新北市新莊區成功街6巷1號","121.425711666667","25.02168","6500500","新莊區"
"242061","362-BY","2017/07/01 20:29:03","新北市新莊區民安東路132號","121.430995","25.0204883333333","6500500","新莊區"
"242058","353-BY","2017/07/01 20:29:19","新北市新莊區四維路205號","121.421811666667","25.0205216666667","6500500","新莊區"
"242011","132-UY","2017/07/01 20:29:11","新北市新莊區中義街4號","121.451531666667","25.0512","6500500","新莊區"
"242034","133-UY","2017/07/01 20:29:18","新北市新莊區中正路268號","121.447546666667","25.03515","6500500","新莊區"
"242019","135-UY","2017/07/01 20:29:09","新北市新莊區民樂街83號","121.457895","25.0431966666667","6500500","新莊區"
"242044","172-VK","2017/07/01 20:29:21","新北市新莊區中正路新建巷11號","121.414048333333","25.022465","6500500","新莊區"
"242007","173-VK","2017/07/01 20:29:15","新北市新莊區思源路331號","121.459755","25.0496566666667","6500500","新莊區"
"242013","175-VK","2017/07/01 20:29:15","新北市新莊區中和街184號","121.44749","25.0498183333333","6500500","新莊區"
"242056","176-VK","2017/07/01 20:29:17","新北市新莊區新莊路713巷5弄13號","121.444158333333","25.0320716666667","6500500","新莊區"
"242048","347-TH","2017/07/01 20:29:08","新北市新莊區成功街168號","121.423025","25.0168916666667","6500500","新莊區"
"242017","348-TH","2017/07/01 20:29:16","新北市新莊區中港二街43號","121.450571666667","25.0459666666667","6500500","新莊區"
"242053","349-TH","2017/07/01 20:29:18","新北市新莊區西盛街362巷11號","121.42736","25.0136866666667","6500500","新莊區"
"242015","350-TH","2017/07/01 20:29:14","新北市新莊區中平路36巷22號","121.445633333333","25.04357","6500500","新莊區"
"242009","351-TH","2017/07/01 20:29:17","新北市新莊區福壽街99巷8弄4號","121.45687","25.0506766666667","6500500","新莊區"
"238023","601-UM","2017/07/01 20:29:15","新北市樹林區育德街78-1號","121.387436666667","24.9682966666667","6500700","樹林區"
"221008","489-VK","2017/07/01 20:29:09","新北市汐止區康寧街629號","121.637223333333","25.0719016666667","6501100","汐止區"
"221036","130-UY","2017/07/01 20:29:20","新北市汐止區仁愛路151巷26號","121.663468333333","25.0652466666667","6501100","汐止區"
"221015","131-UY","2017/07/01 20:29:16","新北市汐止區建成路142巷19弄13號","121.661923333333","25.0738366666667","6501100","汐止區"
"221010","269-BY","2017/07/01 20:29:12","新北市汐止區八連路二段610巷17號","121.625036666667","25.1119666666667","6501100","汐止區"
"221010","276-VK","2017/07/01 15:29:27","新北市汐止區汐萬路一段256巷3號","121.65342","25.0745966666667","6501100","汐止區"
"221031","277-VK","2017/07/01 01:05:12","新北市汐止區汐萬路一段256巷3號","121.652576666667","25.0744766666667","6501100","汐止區"
"221012","278-VK","2017/07/01 20:29:09","新北市汐止區大同路三段241號","121.67266","25.0766733333333","6501100","汐止區"
"221023","279-VK","2017/07/01 20:28:44","新北市汐止區湖東街66號","121.635296666667","25.0729833333333","6501100","汐止區"
"221032","280-BY","2017/07/01 20:29:00","新北市汐止區弘道街53巷25號","121.618761666667","25.0497683333333","6501100","汐止區"
"221027","281-BY","2017/07/01 20:29:14","新北市汐止區中正路214號","121.658383333333","25.068915","6501100","汐止區"
"221038","297-VK","2017/07/01 20:29:10","新北市汐止區忠孝東路472號","121.66624","25.07334","6501100","汐止區"
"221029","298-VK","2017/07/01 20:28:59","新北市汐止區樟樹一路129巷34弄13號","121.640418333333","25.0650983333333","6501100","汐止區"
"221021","299-VK","2017/07/01 20:15:38","新北市汐止區莊敬街70-1號","121.656368333333","25.0611","6501100","汐止區"
"221035","622-UM","2017/07/01 20:29:04","新北市汐止區長江街101-5號","121.65876","25.0732116666667","6501100","汐止區"
"221025","623-UM","2017/07/01 20:29:12","新北市汐止區水源路二段110巷1號","121.656588333333","25.0553933333333","6501100","汐止區"
"221033","647-BX","2017/07/01 20:29:05","新北市汐止區林森街73巷5號","121.623518333333","25.0409283333333","6501100","汐止區"
"221002","707-TV","2017/07/01 20:29:15","新北市汐止區福德三路99號","121.635821666667","25.068735","6501100","汐止區"
"221018","753-BX","2017/07/01 20:29:21","新北市汐止區茄苳路259號","121.672038333333","25.068265","6501100","汐止區"
"220079","145-BY","2017/07/01 20:29:10","新北市八里區商港路88-1號","121.393616666667","25.148995","6500100","板橋區"
"220103","257-TC","2017/07/01 20:29:04","新北市板橋區漢生東路23巷37號","121.465756666667","25.0178633333333","6500100","板橋區"
"220083","286-VK","2017/07/01 20:29:21","新北市板橋區僑中二街100巷10號","121.445556666667","25.00853","6500100","板橋區"
"220081","287-VK","2017/07/01 20:28:52","新北市板橋區僑中一街80巷5弄4號","121.447615","25.012555","6500100","板橋區"
"220061","293-UM","2017/07/01 20:29:14","新北市板橋區文華街4號","121.458206666667","25.0003083333333","6500100","板橋區"
"220089","487-VK","2017/07/01 20:29:22","新北市板橋區四維路319號","121.462806666667","25.0289933333333","6500100","板橋區"
"220067","829-TW","2017/07/01 20:29:12","新北市八里區中山路三段112號","121.38739","25.1463216666667","6500100","板橋區"
"220102","830-TW","2017/07/01 20:29:11","新北市板橋區民生路二段181號","121.469628333333","25.0205366666667","6500100","板橋區"
"220074","895-R6","2017/07/01 20:29:11","新北市板橋區南雅南路一段7巷22弄8號","121.455816666667","25.0046083333333","6500100","板橋區"
"220070","AAC-253","2017/07/01 20:29:16","新北市板橋區四川路二段245巷5號","121.450658333333","24.9933016666667","6500100","板橋區"
