"lineid","car","time","location","longitude","latitude","cityid","cityname"
"234030","746-BX","2017/07/01 20:47:45","新北市五股區中直路13-7號","121.424255","25.1106683333333","6500400","永和區"
"234061","AAD-866","2017/07/01 20:49:04","新北市永和區秀朗路一段175號","121.51709","25.003625","6500400","永和區"
"234074","AAC-211","2017/07/01 20:49:06","新北市永和區環河東路二段50號","121.523136666667","25.0118066666667","6500400","永和區"
"234067","AAC-212","2017/07/01 20:49:02","新北市中和區中和路212號","121.506016666667","24.999475","6500400","永和區"
"222003","436-BY","2017/07/01 20:49:07","新北市深坑區阿柔洋40號","121.61031","24.9984583333333","6501800","深坑區"
"222002","659-BX","2017/07/01 20:49:19","新北市深坑區北深路三段93巷63號","121.60369","25.00102","6501800","深坑區"
"222001","696-SL","2017/07/01 20:49:02","新北市深坑區北深路三段133號","121.603988333333","25.0025133333333","6501800","深坑區"
"231056","0291-UT","2017/07/01 20:49:21","新北市新店區中央七街61巷8號","121.528588333333","24.9763933333333","6500600","新店區"
"231059","046-UY","2017/07/01 20:49:18","新北市新店區僑愛二路1號","121.499871666667","24.9451583333333","6500600","新店區"
"231030","047-UY","2017/07/01 12:38:12","新北市新店區安華路28-1號","121.519308333333","24.960905","6500600","新店區"
"231060","106-UY","2017/07/01 20:49:06","新北市新店區安康路三段740號","121.47383","24.9419466666667","6500600","新店區"
"231051","107-UY","2017/07/01 20:49:08","新北市新店區中央七街89號","121.526581666667","24.9771183333333","6500600","新店區"
"231048","108-UY","2017/07/01 20:49:05","新北市新店區寶元路二段1巷2號","121.550711666667","24.98404","6500600","新店區"
"231057","256-BX","2017/07/01 19:53:13","新北市新店區梅崗一路10號","121.55585","24.93157","6500600","新店區"
"231063","268-BY","2017/07/01 20:49:09","新北市新店區富貴街9巷43號","121.495226666667","24.9486966666667","6500600","新店區"
"231050","AAD-862","2017/07/01 20:49:11","新北市新店區中正路247巷15號","121.538691666667","24.9727316666667","6500600","新店區"
"231041","355-BY","2017/07/01 20:49:03","新北市新店區中正路707號","121.53381","24.9911883333333","6500600","新店區"
"231058","3712-VJ","2017/07/01 20:49:13","新北市新店區平等街3號","121.53702","24.9742266666667","6500600","新店區"
"231065","512-UM","2017/07/01 20:49:09","新北市新店區安祥路69巷19號","121.481878333333","24.9613266666667","6500600","新店區"
"231054","513-UM","2017/07/01 20:49:00","新北市新店區北新路一段126巷21號","121.542783333333","24.9696783333333","6500600","新店區"
"231064","515-UM","2017/07/01 20:49:14","新北市新店區安民街389號","121.51614","24.9771383333333","6500600","新店區"
"231042","616-UM","2017/07/01 20:49:05","新北市新店區寶高路120巷1-1號","121.554576666667","24.9759816666667","6500600","新店區"
"231045","617-UM","2017/07/01 20:49:13","新北市新店區新坡一街18巷6弄36號","121.548116666667","24.9601366666667","6500600","新店區"
"231061","618-UM","2017/07/01 20:49:13","新北市新店區新和街93巷14號","121.520675","24.9868366666667","6500600","新店區"
"231040","619-UM","2017/07/01 20:48:58","新北市新店區中正路274號","121.538885","24.97362","6500600","新店區"
"231068","718-UY","2017/07/01 20:49:09","新北市新店區寶元路一段102號","121.545043333333","24.9833266666667","6500600","新店區"
"231049","719-UM","2017/07/01 20:49:21","新北市新店區永業路81巷1弄6號","121.529893333333","24.94979","6500600","新店區"
"231062","720-UM","2017/07/01 20:49:15","新北市新店區和成街1號","121.488738333333","24.9484633333333","6500600","新店區"
"231044","897-TW","2017/07/01 20:49:09","新北市新店區建國路132號","121.53899","24.9787883333333","6500600","新店區"
"231043","899-TW","2017/07/01 20:49:01","新北市新店區建國路29號","121.540161666667","24.9741","6500600","新店區"
"231066","AKT-0513","2017/07/01 20:49:09","新北市新店區安興路112號","121.514743333333","24.9774733333333","6500600","新店區"
"241011","013-R5","2017/07/01 20:49:10","新北市三重區龍濱路249號","121.501473333333","25.07246","6500200","三重區"
"241028","022-UY","2017/07/01 20:49:05","新北市三重區中正南路41巷1號","121.493815","25.059945","6500200","三重區"
"241008","059-VK","2017/07/01 20:49:14","新北市三重區永福街72巷11號","121.479511666667","25.0767766666667","6500200","三重區"
"241009","060-VK","2017/07/01 20:49:06","新北市三重區三和路四段388-2號","121.481975","25.0790766666667","6500200","三重區"
"241015","062-VK","2017/07/01 20:49:05","新北市三重區自強路一段10號","121.498978333333","25.0681983333333","6500200","三重區"
"241017","063-VK","2017/07/01 20:49:16","新北市三重區民生街18號","121.491981666667","25.0673533333333","6500200","三重區"
"241024","065-VK","2017/07/01 20:49:10","新北市三重區大勇街49號","121.48131","25.0719466666667","6500200","三重區"
"241026","066-VK","2017/07/01 20:49:05","新北市三重區文化南路3號","121.500048333333","25.062385","6500200","三重區"
"241002","090-VK","2017/07/01 20:49:01","新北市三重區仁義街167巷38弄2號","121.498818333333","25.082725","6500200","三重區"
"241003","091-VK","2017/07/01 20:49:02","新北市三重區五華街141巷58號","121.493536666667","25.0868","6500200","三重區"
"241031","156-TC","2017/07/01 20:49:14","新北市三重區重陽路一段113巷2弄2號","121.487463333333","25.0598716666667","6500200","三重區"
"241005","262-UM","2017/07/01 20:49:17","新北市三重區五華街141巷19號","121.4918","25.0852133333333","6500200","三重區"
"241022","265-UM","2017/07/01 20:49:11","新北市三重區重陽路二段19巷12號","121.48809","25.0624833333333","6500200","三重區"
"241016","266-UM","2017/07/01 20:49:20","新北市三重區自強路一段158號","121.496085","25.066255","6500200","三重區"
"241018","268-UM","2017/07/01 20:49:13","新北市三重區正義北路291號","121.494843333333","25.0706233333333","6500200","三重區"
"241032","269-UM","2017/07/01 20:49:17","新北市三重區重陽路一段120巷35號","121.485083333333","25.060175","6500200","三重區"
"241013","270-UM","2017/07/01 20:49:13","新北市三重區仁愛街127號","121.495486666667","25.0747666666667","6500200","三重區"
"241025","271-UM","2017/07/01 20:49:21","新北市三重區貴陽街21號","121.484288333333","25.0619383333333","6500200","三重區"
"241007","398-BY","2017/07/01 20:49:20","新北市三重區三和路四段143-1號","121.484388333333","25.0783666666667","6500200","三重區"
"241020","413-TH","2017/07/01 20:49:05","新北市三重區明德街26號","121.492535","25.07211","6500200","三重區"
"241004","475-VK","2017/07/01 20:48:59","新北市三重區溪尾街165巷12號","121.489523333333","25.0805116666667","6500200","三重區"
"241019","478-VK","2017/07/01 20:49:14","新北市三重區自強路二段67巷12號","121.48902","25.0702716666667","6500200","三重區"
"241030","480-VK","2017/07/01 20:49:18","新北市三重區環河南路221巷8號","121.49199","25.05215","6500200","三重區"
"241014","543-UM","2017/07/01 20:49:10","新北市三重區龍濱路118-1號","121.501896666667","25.070385","6500200","三重區"
"241001","547-UM","2017/07/01 20:49:17","新北市三重區自強路三段76巷3號","121.48674","25.0743066666667","6500200","三重區"
"241006","AAD-863","2017/07/01 20:49:21","新北市三重區車路頭街139巷12號","121.48421","25.07625","6500200","三重區"
"241023","887-TS","2017/07/01 20:49:08","新北市三重區三民街157巷1號","121.483801666667","25.0644633333333","6500200","三重區"
"241012","941-UM","2017/07/01 20:49:13","新北市三重區龍門路274巷45號","121.501226666667","25.07552","6500200","三重區"
"241029","942-UM","2017/07/01 20:49:07","新北市三重區集美街236號","121.492343333333","25.055745","6500200","三重區"
"241033","AAC-255","2017/07/01 20:49:19","新北市三重區光復路二段2號","121.472143333333","25.0533533333333","6500200","三重區"
"235044","293-VK","2017/07/01 20:49:09","新北市八里區商港路96號","121.394373333333","25.1478733333333","6500300","中和區"
"235072","301-VK","2017/07/01 20:49:16","新北市板橋區民生路二段15-1號","121.472681666667","25.0164666666667","6500300","中和區"
"235069","4980-A6","2017/07/01 20:49:04","新北市中和區員山路359巷2號","121.480873333333","25.0020466666667","6500300","中和區"
"235037","AAC-213","2017/07/01 20:49:13","新北市永和區成功路二段217巷3號","121.526566666667","24.9954966666667","6500300","中和區"
"247020","893-R6","2017/07/01 20:49:19","新北市蘆洲區仁愛街64號","121.471398333333","25.0939183333333","6501400","蘆洲區"
"247006","341-TH","2017/07/01 19:33:04","新北市五股區中興路三段2巷10號","121.448765","25.0815983333333","6501400","蘆洲區"
"247008","339-TH","2017/07/01 20:49:01","新北市三重區仁愛街747號","121.481218333333","25.080505","6501400","蘆洲區"
"247024","337-TH","2017/07/01 20:49:15","新北市蘆洲區長樂路140號","121.461876666667","25.090325","6501400","蘆洲區"
"247002","335-TH","2017/07/01 20:49:14","新北市蘆洲區長榮路345號","121.459503333333","25.08762","6501400","蘆洲區"
"247014","057-VK","2017/07/01 20:49:21","新北市蘆洲區三民路38-1號","121.475505","25.0830233333333","6501400","蘆洲區"
"247004","056-VK","2017/07/01 20:49:05","新北市蘆洲區長安街103號","121.461493333333","25.0808466666667","6501400","蘆洲區"
"247006","053-VK","2017/07/01 20:48:56","新北市蘆洲區永安南路二段16巷8號","121.467746666667","25.0771883333333","6501400","蘆洲區"
"247012","007-UY","2017/07/01 20:49:07","新北市蘆洲區民族路31-2號","121.47765","25.084925","6501400","蘆洲區"
"247022","002-UY","2017/07/01 20:49:08","新北市蘆洲區保和街49號","121.46988","25.0862433333333","6501400","蘆洲區"
"247016","001-UY","2017/07/01 20:49:05","新北市蘆洲區正和街9號","121.470291666667","25.082575","6501400","蘆洲區"
"224011","420-VK","2017/07/01 20:40:55","新北市瑞芳區明燈路二段66號","121.809353333333","25.1075883333333","6501200","瑞芳區"
"251014","180-VK","2017/07/01 20:49:21","新北市淡水區公埔子36號","121.461875","25.2322833333333","6501000","淡水區"
"251010","413-VK","2017/07/01 20:49:12","新北市淡水區沙崙路141-1號","121.423293333333","25.1829416666667","6501000","淡水區"
"251012","441-VK","2017/07/01 20:49:12","新北市淡水區興仁路162號","121.451546666667","25.22055","6501000","淡水區"
"251016","442-VK","2017/07/01 20:49:06","新北市淡水區淡金路四段469號","121.451713333333","25.2238483333333","6501000","淡水區"
"251005","443-VK","2017/07/01 20:49:10","新北市淡水區水源街二段38號","121.450161666667","25.1737866666667","6501000","淡水區"
"251001","559-UM","2017/07/01 20:49:05","新北市淡水區淡金路218號","121.460525","25.167215","6501000","淡水區"
"251007","577-R6","2017/07/01 20:49:00","新北市淡水區鄧公路29巷5號","121.45175","25.1701366666667","6501000","淡水區"
"251011","650-BX","2017/07/01 20:49:22","新北市淡水區新市一路一段281巷246號","121.435923333333","25.1879216666667","6501000","淡水區"
"251002","672-BX","2017/07/01 20:49:15","新北市淡水區中正東路3號","121.445301666667","25.1689416666667","6501000","淡水區"
"251003","673-BX","2017/07/01 20:49:09","新北市淡水區中山北路一段207巷50號","121.442495","25.1793033333333","6501000","淡水區"
"252001","702-TV","2017/07/01 20:49:09","新北市三芝區淡金路二段76-1號","121.503988333333","25.2609466666667","6502100","三芝區"
"236059","912-UM","2017/07/01 20:48:12","新北市樹林區中山路三段214號","121.380048333333","24.9679383333333","6501300","土城區"
"242021","AAC-296","2017/07/01 20:49:01","新北市新莊區中華路一段6號","121.452166666667","25.0366416666667","6500500","新莊區"
"242029","986-R7","2017/07/01 20:49:16","新北市新莊區昌平街19號","121.454306666667","25.0513566666667","6500500","新莊區"
"242025","615-BX","2017/07/01 20:49:16","新北市新莊區瓊林路59-56號","121.444446666667","25.0258","6500500","新莊區"
"242023","613-BX","2017/07/01 20:49:06","新北市新莊區思源路63號","121.459943333333","25.0403866666667","6500500","新莊區"
"242027","612-BX","2017/07/01 20:49:11","新北市新莊區瓊林路9-4號","121.449938333333","25.03128","6500500","新莊區"
"242036","566-BX","2017/07/01 20:49:16","新北市新莊區建安街37號","121.428955","25.0257","6500500","新莊區"
"242042","497-BY","2017/07/01 20:49:13","新北市新莊區天祥街1巷1號","121.41713","25.027145","6500500","新莊區"
"242051","440-UM","2017/07/01 20:49:09","新北市新莊區民安東路37號","121.428901666667","25.0209133333333","6500500","新莊區"
"242031","415-TV","2017/07/01 20:48:59","新北市新莊區中正路508巷5號","121.435736666667","25.0333583333333","6500500","新莊區"
"242002","413-TV","2017/07/01 20:49:18","新北市新莊區新莊路315號","121.452893333333","25.0343316666667","6500500","新莊區"
"242039","400-BY","2017/07/01 20:49:08","新北市新莊區瓊林北路4號","121.440266666667","25.0230716666667","6500500","新莊區"
"242061","362-BY","2017/07/01 20:49:03","新北市新莊區新樹路603號","121.433146666667","25.0057083333333","6500500","新莊區"
"242058","353-BY","2017/07/01 20:48:58","新北市新莊區四維路4號","121.423978333333","25.025345","6500500","新莊區"
"242034","133-UY","2017/07/01 20:49:13","新北市新莊區瓊林路56-70號","121.443256666667","25.0253516666667","6500500","新莊區"
"242019","135-UY","2017/07/01 20:49:09","新北市新莊區中港路170號","121.454968333333","25.0416716666667","6500500","新莊區"
"242044","172-VK","2017/07/01 20:49:00","新北市新莊區龍安路108號","121.418381666667","25.0205166666667","6500500","新莊區"
"242007","173-VK","2017/07/01 20:49:15","新北市新莊區思源路67號","121.459923333333","25.0405466666667","6500500","新莊區"
"242013","175-VK","2017/07/01 20:49:11","新北市新莊區中和街216號","121.448071666667","25.051105","6500500","新莊區"
"242056","176-VK","2017/07/01 20:49:17","新北市新莊區瓊泰路94巷16號","121.443821666667","25.02942","6500500","新莊區"
"242048","347-TH","2017/07/01 20:49:08","新北市新莊區中正路713號","121.425106666667","25.02968","6500500","新莊區"
"242017","348-TH","2017/07/01 20:49:15","新北市新莊區中華路一段8號","121.451963333333","25.0367933333333","6500500","新莊區"
"242053","349-TH","2017/07/01 20:49:18","新北市新莊區民安西路191號","121.426125","25.0154933333333","6500500","新莊區"
"242009","351-TH","2017/07/01 20:49:17","新北市新莊區環河路116-1號","121.460723333333","25.037955","6500500","新莊區"
"238015","755-BX","2017/07/01 20:39:55","新北市樹林區育德街78-1號","121.387953333333","24.96806","6500700","樹林區"
"238023","601-UM","2017/07/01 20:49:15","新北市樹林區中山路三段204號","121.387141666667","24.9683333333333","6500700","樹林區"
"221036","130-UY","2017/07/01 20:49:20","新北市汐止區新昌路68號","121.663526666667","25.068705","6501100","汐止區"
"221015","131-UY","2017/07/01 20:49:16","新北市汐止區大同路二段599號","121.663921666667","25.0704883333333","6501100","汐止區"
"221010","276-VK","2017/07/01 15:29:27","新北市汐止區汐萬路一段256巷3號","121.65342","25.0745966666667","6501100","汐止區"
"221031","277-VK","2017/07/01 01:05:12","新北市汐止區汐萬路一段256巷3號","121.652576666667","25.0744766666667","6501100","汐止區"
"221027","281-BY","2017/07/01 20:49:14","新北市汐止區大同路二段364號","121.657455","25.067135","6501100","汐止區"
"221029","298-VK","2017/07/01 20:49:19","新北市汐止區樟樹二路299號","121.641171666667","25.0701233333333","6501100","汐止區"
"221035","622-UM","2017/07/01 20:49:04","新北市汐止區汐萬路一段244-1號","121.651328333333","25.0735866666667","6501100","汐止區"
"221025","623-UM","2017/07/01 20:49:12","新北市汐止區汐萬路一段170號","121.652523333333","25.0717116666667","6501100","汐止區"
"221033","647-BX","2017/07/01 20:49:05","新北市汐止區合順街18巷8弄5號","121.620298333333","25.0419266666667","6501100","汐止區"
"221002","707-TV","2017/07/01 20:49:15","新北市汐止區福德二路193-1號","121.629653333333","25.064885","6501100","汐止區"
"221018","753-BX","2017/07/01 20:49:01","新北市汐止區茄苳路130-5號","121.668425","25.070135","6501100","汐止區"
"220083","286-VK","2017/07/01 20:49:21","新北市板橋區僑中二街116巷13號","121.445031666667","25.0064416666667","6500100","板橋區"
"220070","AAC-253","2017/07/01 20:49:16","新北市五股區成泰路三段544-1號","121.454561666667","25.1032433333333","6500100","板橋區"
