"lineid","car","time","location","longitude","latitude","cityid","cityname"
"231030","047-UY","2017/07/01 12:38:12","新北市新店區安華路28-1號","121.519308333333","24.960905","6500600","新店區"
"231057","256-BX","2017/07/01 19:53:13","新北市新店區梅崗一路10號","121.55585","24.93157","6500600","新店區"
"231063","268-BY","2017/07/01 21:39:08","新北市新店區如意街36號","121.493373333333","24.948395","6500600","新店區"
"241005","262-UM","2017/07/01 21:39:17","新北市三重區碧華街50號","121.483495","25.0812583333333","6500200","三重區"
"241006","AAD-863","2017/07/01 21:39:01","新北市八里區中山路三段409號","121.368631666667","25.1355616666667","6500200","三重區"
"235044","293-VK","2017/07/01 21:39:09","新北市中和區連城路270號","121.485156666667","24.9964433333333","6500300","中和區"
"247006","341-TH","2017/07/01 19:33:04","新北市五股區中興路三段2巷10號","121.448765","25.0815983333333","6501400","蘆洲區"
"247014","057-VK","2017/07/01 21:39:21","新北市八里區荖阡坑路34號","121.401846666667","25.129575","6501400","蘆洲區"
"247006","053-VK","2017/07/01 21:36:56","新北市五股區中直路21號","121.421693333333","25.1117916666667","6501400","蘆洲區"
"224011","420-VK","2017/07/01 21:39:02","新北市瑞芳區中正路72號","121.806083333333","25.1075183333333","6501200","瑞芳區"
"251004","009-UM","2017/07/01 21:39:05","新北市淡水區民生路54號","121.46192","25.1378916666667","6501000","淡水區"
"251014","180-VK","2017/07/01 21:39:00","新北市淡水區溪口16號","121.455788333333","25.2364783333333","6501000","淡水區"
"251008","181-VK","2017/07/01 21:39:05","新北市淡水區水源街二段42號","121.450338333333","25.173765","6501000","淡水區"
"251010","413-VK","2017/07/01 21:39:12","新北市淡水區沙崙路216巷60號","121.426253333333","25.1842816666667","6501000","淡水區"
"251012","441-VK","2017/07/01 21:39:12","新北市淡水區淡金路四段493號","121.451946666667","25.2253133333333","6501000","淡水區"
"251016","442-VK","2017/07/01 21:39:06","新北市淡水區中山北路三段16巷28號","121.444988333333","25.1891566666667","6501000","淡水區"
"251005","443-VK","2017/07/01 21:39:10","新北市淡水區鄧公路12-2號","121.450095","25.1699266666667","6501000","淡水區"
"251001","559-UM","2017/07/01 21:39:05","新北市淡水區新市二路三段172巷25號","121.436996666667","25.1918633333333","6501000","淡水區"
"251006","561-UM","2017/07/01 21:39:07","新北市淡水區中正路63號","121.441328333333","25.1691083333333","6501000","淡水區"
"251009","575-R6","2017/07/01 21:39:15","新北市淡水區民生路52巷22弄6號","121.462505","25.1373333333333","6501000","淡水區"
"251011","650-BX","2017/07/01 21:39:02","新北市淡水區新民街218號","121.436038333333","25.1802666666667","6501000","淡水區"
"251002","672-BX","2017/07/01 21:39:04","新北市淡水區學府路187號","121.446551666667","25.1749033333333","6501000","淡水區"
"251003","673-BX","2017/07/01 21:39:09","新北市淡水區新春街26號","121.436675","25.1812066666667","6501000","淡水區"
"238015","755-BX","2017/07/01 20:39:55","新北市樹林區育德街78-1號","121.387953333333","24.96806","6500700","樹林區"
"221010","276-VK","2017/07/01 15:29:27","新北市汐止區汐萬路一段256巷3號","121.65342","25.0745966666667","6501100","汐止區"
"221018","753-BX","2017/07/01 21:39:21","新北市汐止區汐萬路一段256巷1號","121.651845","25.0747283333333","6501100","汐止區"
"220070","AAC-253","2017/07/01 21:39:16","新北市三重區光復路二段143巷11號","121.474486666667","25.0598683333333","6500100","板橋區"
