"lineid","car","time","location","longitude","latitude","cityid","cityname"
"251013","179-VK","2017/10/15 16:39:34","新北市淡水區大溪8號","121.495741666667","25.190395","6501000","淡水區"
"251014","180-VK","2017/10/15 16:39:41","新北市淡水區義山路一段206號","121.438098333333","25.190745","6501000","淡水區"
"251015","182-VK","2017/10/15 16:39:45","新北市淡水區重建街永興巷11號","121.43938","25.1726883333333","6501000","淡水區"
"251016","442-VK","2017/10/15 16:39:35","新北市淡水區中山北路一段247巷38號","121.443548333333","25.1798116666667","6501000","淡水區"
"237009","210-TH","2017/10/15 15:32:42","新北市三峽區中山路459巷137號","121.349908333333","24.93394","6500900","三峽區"
