"lineid","car","time","location","longitude","latitude","cityid","cityname"
"251013","179-VK","2017/10/15 17:59:54","新北市淡水區泉洲厝31號","121.479636666667","25.191","6501000","淡水區"
"251014","180-VK","2017/10/15 17:59:41","新北市淡水區公埔子16-6號","121.481028333333","25.2245466666667","6501000","淡水區"
"251015","182-VK","2017/10/15 17:59:45","新北市淡水區興福寮30號","121.491663333333","25.1641083333333","6501000","淡水區"
"251016","442-VK","2017/10/15 17:59:55","新北市淡水區埤島35-1號","121.449135","25.1976183333333","6501000","淡水區"
"237009","210-TH","2017/10/15 15:32:42","新北市三峽區中山路459巷137號","121.349908333333","24.93394","6500900","三峽區"
