"lineid","car","time","location","longitude","latitude","cityid","cityname"
"224011","AGQ-8101","2017/10/15 18:16:50","新北市瑞芳區基山街31巷24號","121.846235","25.1105133333333","6501200","瑞芳區"
"251013","179-VK","2017/10/15 18:19:54","新北市淡水區行忠路658號","121.469411666667","25.1993133333333","6501000","淡水區"
"251014","180-VK","2017/10/15 18:19:41","新北市淡水區南平16號","121.488843333333","25.2209116666667","6501000","淡水區"
"251015","182-VK","2017/10/15 18:19:45","新北市淡水區興福寮88巷1號","121.48538","25.1649916666667","6501000","淡水區"
"251016","442-VK","2017/10/15 18:19:35","新北市淡水區淡金路三段228巷11號","121.449515","25.2049816666667","6501000","淡水區"
"237009","210-TH","2017/10/15 15:32:42","新北市三峽區中山路459巷137號","121.349908333333","24.93394","6500900","三峽區"
