"lineid","car","time","location","longitude","latitude","cityid","cityname"
"224011","AGQ-8101","2017/10/15 18:59:50","新北市瑞芳區街頂巷78號","121.844291666667","25.1084033333333","6501200","瑞芳區"
"251013","179-VK","2017/10/15 18:59:34","新北市淡水區頂田寮路1111號","121.490803333333","25.213315","6501000","淡水區"
"251014","180-VK","2017/10/15 18:59:41","新北市淡水區崙頂5號","121.494536666667","25.223655","6501000","淡水區"
"251015","182-VK","2017/10/15 18:59:45","新北市淡水區糞箕湖131巷1號","121.488543333333","25.1727483333333","6501000","淡水區"
"251016","442-VK","2017/10/15 18:59:55","新北市淡水區淡金路三段224號","121.448831666667","25.2049066666667","6501000","淡水區"
"237009","210-TH","2017/10/15 15:32:42","新北市三峽區中山路459巷137號","121.349908333333","24.93394","6500900","三峽區"
