"lineid","car","time","location","longitude","latitude","cityid","cityname"
"224011","AGQ-8101","2017/10/15 19:38:30","新北市瑞芳區基山街235號","121.841826666667","25.1069866666667","6501200","瑞芳區"
"251013","179-VK","2017/10/15 19:39:53","新北市淡水區店子後9號","121.460281666667","25.21829","6501000","淡水區"
"251014","180-VK","2017/10/15 19:39:41","新北市淡水區桂竹圍4-2號","121.474575","25.2318933333333","6501000","淡水區"
"251015","182-VK","2017/10/15 19:39:45","新北市淡水區北新路1號","121.48508","25.1876833333333","6501000","淡水區"
"237009","210-TH","2017/10/15 15:32:42","新北市三峽區中山路459巷137號","121.349908333333","24.93394","6500900","三峽區"
