"lineid","car","time","location","longitude","latitude","cityid","cityname"
"251013","179-VK","2017/10/15 20:19:33","新北市淡水區相公山1號","121.475251666667","25.2063533333333","6501000","淡水區"
"251014","180-VK","2017/10/15 20:19:41","新北市淡水區石頭厝3號","121.45873","25.2355716666667","6501000","淡水區"
"251015","182-VK","2017/10/15 20:19:45","新北市淡水區埤島76號","121.451866666667","25.1933566666667","6501000","淡水區"
"251016","442-VK","2017/10/15 20:19:34","新北市淡水區淡金路五段14-8號","121.453476666667","25.2322583333333","6501000","淡水區"
"237009","210-TH","2017/10/15 15:32:42","新北市三峽區中山路459巷137號","121.349908333333","24.93394","6500900","三峽區"
