"lineid","car","time","location","longitude","latitude","cityid","cityname"
"232001","290-BY","2017/10/16 07:47:54","新北市坪林區下坑子口18-1號","121.710911666667","24.9459183333333","6502000","坪林區"
"232012","291-BY","2017/10/16 07:47:46","新北市坪林區金瓜寮22號","121.679828333333","24.9121083333333","6502000","坪林區"
"232010","375-UM","2017/10/16 07:47:49","新北市坪林區磨壁潭10-1號","121.72294","24.9381583333333","6502000","坪林區"
"232017","705-BZ","2017/10/16 07:46:00","新北市坪林區乾溪2-2號","121.741063333333","24.9765783333333","6502000","坪林區"
"232005","758-BX","2017/10/16 07:47:53","新北市坪林區九芎林19-5號","121.708213333333","24.92794","6502000","坪林區"
"244006","080-UY","2017/10/16 07:47:47","新北市林口區粉寮69號","121.404941666667","25.09089","6501700","林口區"
"244001","657-BX","2017/10/16 07:47:34","新北市林口區頂福20-18號","121.35404","25.0925566666667","6501700","林口區"
"243007","539-UM","2017/10/16 07:47:49","新北市泰山區泰林路二段21-3號","121.436863333333","25.0554533333333","6501600","泰山區"
"222005","289-BY","2017/10/16 07:43:28","新北市深坑區文化街39巷13號","121.619026666667","25.001","6501800","深坑區"
"231007","189-VK","2017/10/16 07:47:41","新北市新店區安華路28-1號","121.519445","24.96122","6500600","新店區"
"231008","192-VK","2017/10/16 07:47:51","新北市新店區安華路28-1號","121.51939","24.96128","6500600","新店區"
"226005","5620-A6","2017/10/16 07:47:55","新北市平溪區嶺腳里嶺腳寮74-1號","121.747675","25.0325","6502400","平溪區"
"226001","7418-A5","2017/10/16 07:47:50","新北市平溪區平湖里大厝37-3號","121.780636666667","25.0282266666667","6502400","平溪區"
"226003","AGD-0702","2017/10/16 07:47:52","新北市平溪區嶺腳里嶺腳寮106-3號","121.7462","25.0378383333333","6502400","平溪區"
"223006","022-BY","2017/10/16 07:47:57","新北市石碇區靜安路一段292巷10號","121.691893333333","25.0058733333333","6501900","石碇區"
"223002","198-BX","2017/10/16 07:47:47","新北市石碇區北宜路五段竹坑巷17號","121.624643333333","24.9409816666667","6501900","石碇區"
"223008","406-TH","2017/10/16 07:37:11","新北市石碇區靜安路一段337號","121.698758333333","25.0145383333333","6501900","石碇區"
"223001","592-UM","2017/10/16 07:47:45","新北市石碇區中楒子腳2-5號","121.637673333333","24.9724933333333","6501900","石碇區"
"223004","660-BX","2017/10/16 07:47:40","新北市石碇區靜安路一段28號","121.64239","25.0115766666667","6501900","石碇區"
"223007","661-BX","2017/10/16 07:47:51","新北市石碇區靜安路一段337號","121.698833333333","25.0144633333333","6501900","石碇區"
"223005","677-TV","2017/10/16 07:47:53","新北市石碇區靜安路一段34號","121.642546666667","25.0115633333333","6501900","石碇區"
"227005","282-VK","2017/10/16 07:47:48","新北市雙溪區雙溪里太平路54號","121.864825","25.0354333333333","6502500","雙溪區"
"252006","073-UM","2017/10/16 07:47:49","新北市三芝區古庄里茂興店63號","121.488566666667","25.2661366666667","6502100","三芝區"
"252004","249-BX","2017/10/16 07:47:46","新北市三芝區店子里菜公坑102號","121.517451666667","25.2071233333333","6502100","三芝區"
"237001","159-UY","2017/10/16 07:47:46","新北市三峽區國慶路301-1號","121.374056666667","24.94088","6500900","三峽區"
"236007","165-UM","2017/10/16 07:47:36","新北市土城區金城路三段189-2號","121.469796666667","24.9888966666667","6501300","土城區"
"236001","339-SR","2017/10/16 07:47:40","新北市土城區南天母路157號","121.448026666667","24.9525133333333","6501300","土城區"
"242030","AAC-296","2017/10/16 04:55:56","新北市新莊區新泰路357巷3弄57號","121.44224","25.039435","6500500","新莊區"
"242028","986-R7","2017/10/16 07:47:43","新北市新莊區中港路336號","121.45218","25.0456933333333","6500500","新莊區"
"242049","751-BX","2017/10/16 07:47:45","新北市新莊區瓊林南路1號","121.438618333333","25.0207316666667","6500500","新莊區"
"242024","615-BX","2017/10/16 07:47:39","新北市新莊區新泰路415-1號","121.442373333333","25.04473","6500500","新莊區"
"242022","613-BX","2017/10/16 07:47:56","新北市新莊區新泰路502巷54號","121.444346666667","25.0462633333333","6500500","新莊區"
"242026","612-BX","2017/10/16 07:47:40","新北市新莊區新泰路502巷57號","121.444538333333","25.0464233333333","6500500","新莊區"
"242038","566-BX","2017/10/16 07:47:45","新北市新莊區中正路400號","121.441921666667","25.0341966666667","6500500","新莊區"
"242001","442-UM","2017/10/16 07:47:50","新北市新莊區三和路10號","121.442033333333","25.0356516666667","6500500","新莊區"
"242047","441-UM","2017/10/16 07:47:42","新北市新莊區龍安路253號","121.41966","25.0200766666667","6500500","新莊區"
"242052","440-UM","2017/10/16 07:47:55","新北市新莊區瓊林路59-89號","121.442191666667","25.024535","6500500","新莊區"
"242040","400-BY","2017/10/16 07:47:52","新北市新莊區三和路10號","121.44192","25.0356633333333","6500500","新莊區"
"242059","362-BY","2017/10/16 07:47:45","新北市泰山區磚雅厝3號","121.442173333333","25.0415866666667","6500500","新莊區"
"242057","353-BY","2017/10/16 07:47:40","新北市新莊區新泰路415-1號","121.44228","25.0444816666667","6500500","新莊區"
"242006","132-UY","2017/10/16 07:47:41","新北市新莊區新泰路255巷83號","121.442406666667","25.0386416666667","6500500","新莊區"
"242035","133-UY","2017/10/16 07:47:55","新北市新莊區中正路384號","121.442","25.0346766666667","6500500","新莊區"
"242020","135-UY","2017/10/16 07:47:44","新北市新莊區中港一街125號","121.448378333333","25.0451366666667","6500500","新莊區"
"242045","172-VK","2017/10/16 07:47:42","新北市新莊區中正路384號","121.442005","25.0344816666667","6500500","新莊區"
"242008","173-VK","2017/10/16 00:57:37","新北市新莊區三和路12-21號","121.44201","25.038675","6500500","新莊區"
"242014","175-VK","2017/10/16 07:47:37","新北市新莊區新泰路488號","121.442491666667","25.04588","6500500","新莊區"
"242012","346-TH","2017/10/16 07:47:52","新北市新莊區中和街59巷6號","121.447255","25.046855","6500500","新莊區"
"242018","348-TH","2017/10/16 07:47:38","新北市新莊區新泰路502巷54號","121.444361666667","25.0463683333333","6500500","新莊區"
"242055","349-TH","2017/10/16 07:47:48","新北市新莊區三和路12-16號","121.441741666667","25.0374066666667","6500500","新莊區"
"242016","350-TH","2017/10/16 07:47:48","新北市新莊區新泰路502巷38號","121.443576666667","25.0464933333333","6500500","新莊區"
"242010","351-TH","2017/10/16 07:47:38","新北市新莊區新泰路421-7號","121.442505","25.0451233333333","6500500","新莊區"
"239006","661-UM","2017/10/16 07:47:37","新北市鶯歌區二甲路13-16號","121.344696666667","24.935335","6500800","鶯歌區"
"220064","282-UM","2017/10/16 07:47:54","新北市板橋區民權路89號","121.460483333333","25.0122583333333","6500100","板橋區"
"242033","280-VK","2017/10/16 07:47:53","新北市新莊區中正路384-1號","121.442056666667","25.0351483333333","6500500","新莊區"
