"lineid","car","time","location","longitude","latitude","cityid","cityname"
"234044","148-BY","2017/11/14 12:49:27","新北市永和區秀朗路二段149號","121.52485","25.0016316666667","6500400","永和區"
"234012","149-BY","2017/11/14 12:49:21","新北市永和區保福路二段133巷22號","121.5091","25.0136166666667","6500400","永和區"
"234005","207-UY","2017/11/14 12:49:27","新北市永和區永和路二段217號","121.515588333333","25.0139833333333","6500400","永和區"
"234078","298-R6","2017/11/14 12:49:29","新北市永和區永利路81巷1號","121.52142","25.0039116666667","6500400","永和區"
"234036","336-UY","2017/11/14 12:49:26","新北市永和區成功路一段40號","121.526985","25.00444","6500400","永和區"
"234062","337-UY","2017/11/14 12:49:27","新北市永和區福和路1號","121.526356666667","25.0098066666667","6500400","永和區"
"234084","338-UY","2017/11/14 12:49:17","新北市永和區中正路138號","121.514673333333","24.996175","6500400","永和區"
"234068","552-UM","2017/11/14 12:49:16","新北市永和區竹林路155號","121.520511666667","25.0102833333333","6500400","永和區"
"234052","553-UM","2017/11/14 12:49:15","新北市永和區豫溪街191巷3弄2號","121.523553333333","25.0104066666667","6500400","永和區"
"234015","745-BX","2017/11/14 12:49:12","新北市永和區忠孝街26巷8號","121.51542","25.01669","6500400","永和區"
"234028","746-BX","2017/11/14 12:49:19","新北市永和區得和路323號","121.523388333333","24.9997383333333","6500400","永和區"
"234060","AAD-866","2017/11/14 12:49:30","新北市永和區福和路301號","121.516421666667","25.007145","6500400","永和區"
"234040","862-TW","2017/11/14 12:49:26","新北市永和區永貞路306號","121.511901666667","25.0048583333333","6500400","永和區"
"234048","863-TW","2017/11/14 12:49:30","新北市永和區保安路2號","121.51081","25.017555","6500400","永和區"
"234025","9381-KE","2017/11/14 12:49:22","新北市永和區永和路一段151巷12號","121.513865","25.0094133333333","6500400","永和區"
"234010","9373-KE","2017/11/14 12:49:28","新北市永和區保福路二段156號","121.509153333333","25.01501","6500400","永和區"
"234022","9380-KE","2017/11/14 12:49:23","新北市永和區竹林路119巷45號","121.521835","25.0118866666667","6500400","永和區"
"234076","969-R7","2017/11/14 12:49:26","新北市中和區安樂路69號","121.512386666667","24.9937766666667","6500400","永和區"
"234072","AAC-211","2017/11/14 12:49:11","新北市永和區福和路1號","121.526488333333","25.00994","6500400","永和區"
"234066","AAC-212","2017/11/14 12:49:18","新北市永和區中和路625號","121.513026666667","25.0049066666667","6500400","永和區"
"234001","AAC-295","2017/11/14 12:49:23","新北市永和區中正路655號","121.514981666667","25.0101883333333","6500400","永和區"
"231029","001-UM","2017/11/14 12:49:15","新北市新店區安華路28-1號","121.519496666667","24.9608833333333","6500600","新店區"
"231028","046-UY","2017/11/14 12:49:26","新北市新店區安華路28-1號","121.519565","24.9608166666667","6500600","新店區"
"231030","047-UY","2017/11/14 12:49:12","新北市新店區安華路28-1號","121.519198333333","24.96086","6500600","新店區"
"231012","108-UY","2017/11/14 04:22:00","新北市新店區安華路28-1號","121.519653333333","24.9615116666667","6500600","新店區"
"231020","187-VK","2017/11/14 12:49:20","新北市新店區安華路28-1號","121.519611666667","24.9610916666667","6500600","新店區"
"231015","KEA-2219","2017/11/14 12:49:10","新北市新店區安華路28-1號","121.519951666667","24.9611933333333","6500600","新店區"
"231010","278-BY","2017/11/14 11:03:20","新北市新店區安華路28-1號","121.51958","24.9610783333333","6500600","新店區"
"231023","AAD-862","2017/11/14 12:49:12","","121.519895","24.961205","6500600","新店區"
"231024","4716-K9","2017/11/14 12:49:15","新北市新店區安華路28-1號","121.519228333333","24.961195","6500600","新店區"
"231038","4715-K9","2017/11/14 12:49:14","新北市新店區安華路1-1號","121.51928","24.9604033333333","6500600","新店區"
"231036","512-UM","2017/11/14 12:49:18","新北市新店區安華路28-1號","121.51927","24.9611233333333","6500600","新店區"
"231035","515-UM","2017/11/14 12:49:12","新北市新店區安華路28-1號","121.519605","24.9611566666667","6500600","新店區"
"231001","619-UM","2017/11/14 12:49:10","新北市新店區安華路28-1號","121.519476666667","24.96075","6500600","新店區"
"231003","641-BX","2017/11/14 12:49:14","新北市新店區安華路28-1號","121.519588333333","24.9605266666667","6500600","新店區"
"231034","645-TV","2017/11/14 12:49:28","新北市新店區安華路1-1號","121.51938","24.9603916666667","6500600","新店區"
"231013","719-UM","2017/11/14 12:49:13","新北市新店區安華路28-1號","121.519508333333","24.9613783333333","6500600","新店區"
"231018","719-UY","2017/11/14 12:49:16","新北市新店區安華路28-1號","121.519716666667","24.9605783333333","6500600","新店區"
"231032","720-UM","2017/11/14 12:49:22","新北市新店區安康路一段359-27號","121.518953333333","24.9613733333333","6500600","新店區"
"231005","897-TW","2017/11/14 12:49:23","新北市新店區安華路28-1號","121.519448333333","24.9607383333333","6500600","新店區"
"231004","899-TW","2017/11/14 12:49:25","新北市新店區安華路28-1號","121.519078333333","24.96095","6500600","新店區"
"231037","AKT-0513","2017/11/14 12:49:22","新北市新店區安華路1-1號","121.519318333333","24.9605383333333","6500600","新店區"
"235027","006-UY","2017/11/14 12:49:21","新北市中和區員山路36巷16-3號","121.48494","24.991285","6500300","中和區"
"235002","185-VK","2017/11/14 12:49:26","新北市中和區中正路565號","121.486805","24.994315","6500300","中和區"
"235031","255-BX","2017/11/14 12:49:12","","121.481873333333","25.0082816666667","6500300","中和區"
"235025","378-QA","2017/11/14 03:45:43","新北市中和區員山路36巷13號","121.484105","24.99113","6500300","中和區"
"228004","212-TW","2017/11/14 12:49:16","新北市貢寮區吉林里內寮街20-1號","121.88984","24.99477","6502600","貢寮區"
"228005","828-UM","2017/11/14 12:49:16","新北市貢寮區福連里福連街34-1號","121.988681666667","25.0111783333333","6502600","貢寮區"
"208004","AAC-292","2017/11/14 12:49:24","新北市金山區磺清路135號","121.639338333333","25.2276483333333","6502700","金山區"
"207002","749-BX","2017/11/14 12:48:36","新北市萬里區雙興里二坪路30號","121.645983333333","25.1683233333333","6502800","萬里區"
"207001","662-BX","2017/11/14 12:49:28","新北市萬里區萬里里瑪鋉頂街34-2號","121.689701666667","25.1793466666667","6502800","萬里區"
"236006","498-BY","2017/11/14 12:49:13","新北市土城區永寧路36-1號","121.428901666667","24.9592666666667","6501300","土城區"
"221012","276-VK","2017/11/14 12:49:25","新北市汐止區中正路133號","121.660101666667","25.0691466666667","6501100","汐止區"
"221032","280-BY","2017/11/14 12:49:26","新北市汐止區汐萬路一段81號","121.654713333333","25.06999","6501100","汐止區"
