"lineid","car","time","location","longitude","latitude","cityid","cityname"
"234044","148-BY","2017/11/14 13:39:27","新北市永和區永亨路175號","121.526238333333","25.0035283333333","6500400","永和區"
"234012","149-BY","2017/11/14 13:39:24","新北市永和區永平路238巷7號","121.509278333333","25.0115016666667","6500400","永和區"
"234005","207-UY","2017/11/14 13:39:27","新北市永和區永和路一段140號","121.51407","25.0081316666667","6500400","永和區"
"234078","298-R6","2017/11/14 13:39:21","新北市永和區林森路46巷1號","121.52498","25.0047866666667","6500400","永和區"
"234036","336-UY","2017/11/14 13:39:26","新北市永和區民樂街39巷13號","121.528248333333","25.000545","6500400","永和區"
"234062","337-UY","2017/11/14 13:39:27","新北市永和區秀朗路一段192巷6弄12號","121.51909","25.0023483333333","6500400","永和區"
"234084","338-UY","2017/11/14 13:39:24","新北市永和區永亨路154號","121.525585","25.0038716666667","6500400","永和區"
"234068","552-UM","2017/11/14 13:38:56","","121.515803333333","25.0146683333333","6500400","永和區"
"234052","553-UM","2017/11/14 13:38:59","新北市永和區竹林路39巷22號","121.51889","25.0146916666667","6500400","永和區"
"234015","745-BX","2017/11/14 13:39:12","新北市永和區環河西路一段1號","121.515216666667","25.0178683333333","6500400","永和區"
"234028","746-BX","2017/11/14 13:39:19","新北市永和區民權路1巷38號","121.522141666667","24.9981683333333","6500400","永和區"
"234060","AAD-866","2017/11/14 13:39:30","新北市永和區中正路356號","121.517695","25.0005916666667","6500400","永和區"
"234040","862-TW","2017/11/14 13:39:26","新北市永和區中和路305巷2弄2號","121.50671","24.9999916666667","6500400","永和區"
"234048","863-TW","2017/11/14 13:39:18","新北市永和區保安路47號","121.509611666667","25.0159083333333","6500400","永和區"
"234025","9381-KE","2017/11/14 13:39:22","新北市永和區保安路292號","121.505018333333","25.01173","6500400","永和區"
"234010","9373-KE","2017/11/14 13:39:28","新北市永和區保福路二段23巷23號","121.509951666667","25.0112716666667","6500400","永和區"
"248017","225-UY","2017/11/14 13:39:12","新北市五股區民義路二段73號","121.409063333333","25.1055566666667","6501500","五股區"
"234022","9380-KE","2017/11/14 13:39:19","新北市永和區中正路702巷18號","121.516505","25.010495","6500400","永和區"
"234076","969-R7","2017/11/14 13:39:26","新北市永和區得和路229號","121.519865","25.0001883333333","6500400","永和區"
"234072","AAC-211","2017/11/14 13:39:11","新北市永和區竹林路213巷44號","121.523221666667","25.0091216666667","6500400","永和區"
"234066","AAC-212","2017/11/14 13:39:18","新北市永和區中山路一段191巷15弄2-1號","121.50979","25.007935","6500400","永和區"
"234001","AAC-295","2017/11/14 13:39:23","新北市永和區福和路352號","121.514755","25.0073583333333","6500400","永和區"
"244002","657-BX","2017/11/14 13:39:17","新北市林口區民族路8號","121.364031666667","25.0735316666667","6501700","林口區"
"231029","001-UM","2017/11/14 13:39:15","新北市新店區安康路二段243號","121.508063333333","24.9585266666667","6500600","新店區"
"231002","002-UM","2017/11/14 13:39:20","新北市新店區中央三街127號","121.524131666667","24.976885","6500600","新店區"
"231025","0293-UT","2017/11/14 13:39:22","新北市新店區中央六街56號","121.527893333333","24.9757383333333","6500600","新店區"
"231028","046-UY","2017/11/14 13:39:26","新北市新店區安和路二段160號","121.519748333333","24.9735166666667","6500600","新店區"
"231030","047-UY","2017/11/14 13:39:12","新北市新店區安康路一段94-3號","121.527673333333","24.9622466666667","6500600","新店區"
"231012","108-UY","2017/11/14 13:39:20","新北市新店區德正街27巷29弄46-1號","121.545763333333","24.9726383333333","6500600","新店區"
"231020","187-VK","2017/11/14 13:39:20","新北市新店區永興路125-2號","121.544051666667","24.931155","6500600","新店區"
"231015","KEA-2219","2017/11/14 13:39:31","新北市新店區竹林路2巷15號","121.550483333333","24.951555","6500600","新店區"
"231026","256-BX","2017/11/14 13:39:16","新北市新店區中正路331號","121.535968333333","24.9750383333333","6500600","新店區"
"231010","278-BY","2017/11/14 13:39:29","新北市新店區中正路307巷2號","121.536485","24.974555","6500600","新店區"
"231023","AAD-862","2017/11/14 13:39:12","新北市新店區新店路183號","121.537146666667","24.9560266666667","6500600","新店區"
"231027","3712-VJ","2017/11/14 13:39:30","新北市新店區北宜路一段105巷42號","121.54062","24.9557633333333","6500600","新店區"
"231024","4716-K9","2017/11/14 13:39:15","新北市新店區華中街19巷1號","121.539916666667","24.9700216666667","6500600","新店區"
"231038","4715-K9","2017/11/14 13:39:14","新北市新店區安華路30巷1號","121.51958","24.959325","6500600","新店區"
"231036","512-UM","2017/11/14 13:39:18","新北市新店區安祥路147巷27號","121.475876666667","24.9565266666667","6500600","新店區"
"231035","515-UM","2017/11/14 13:39:31","新北市新店區安忠路8-1號","121.514715","24.9631533333333","6500600","新店區"
"231006","617-UM","2017/11/14 13:39:25","新北市新店區光明街1號","121.538165","24.9589633333333","6500600","新店區"
"231001","619-UM","2017/11/14 13:39:10","新北市新店區中正路366號","121.535175","24.9762533333333","6500600","新店區"
"231003","641-BX","2017/11/14 13:39:28","新北市新店區中正路2號","121.545866666667","24.9694116666667","6500600","新店區"
"231034","645-TV","2017/11/14 13:39:29","新北市新店區車子路117號","121.505341666667","24.9518016666667","6500600","新店區"
"231013","719-UM","2017/11/14 13:39:13","新北市新店區中正路454-5號","121.534496666667","24.97915","6500600","新店區"
"231018","719-UY","2017/11/14 13:39:16","新北市新店區百忍街12號","121.534753333333","24.9756216666667","6500600","新店區"
"231032","720-UM","2017/11/14 13:39:22","新北市新店區莒光路44巷21弄11-3號","121.518576666667","24.95213","6500600","新店區"
"231005","897-TW","2017/11/14 13:39:24","新北市新店區寶中路72號","121.547803333333","24.980575","6500600","新店區"
"231004","899-TW","2017/11/14 13:39:25","新北市新店區北新路二段18號","121.542778333333","24.9713633333333","6500600","新店區"
"231037","AKT-0513","2017/11/14 13:39:28","新北市新店區安康路二段414巷1號","121.496423333333","24.9554266666667","6500600","新店區"
"235030","003-UY","2017/11/14 13:39:15","新北市中和區水源路33號","121.50427","25.0035566666667","6500300","中和區"
"235028","005-UY","2017/11/14 13:39:29","新北市中和區連勝街52號","121.497648333333","24.9972366666667","6500300","中和區"
"235027","006-UY","2017/11/14 13:39:21","新北市中和區連城路389巷8號","121.486406666667","24.9956666666667","6500300","中和區"
"235020","096-UM","2017/11/14 13:39:22","新北市中和區員山路466巷17弄2號","121.480576666667","25.0071083333333","6500300","中和區"
"235003","097-UM","2017/11/14 13:39:15","新北市中和區大勇街25巷38弄7號","121.516003333333","24.99389","6500300","中和區"
"235029","098-UM","2017/11/14 13:39:30","新北市中和區莊敬路33巷22弄8號","121.500863333333","25.006465","6500300","中和區"
"235004","150-BY","2017/11/14 13:39:12","新北市中和區保健路50巷66號","121.509075","24.9953333333333","6500300","中和區"
"235022","151-BY","2017/11/14 13:39:16","新北市中和區圓通路369巷66號","121.49049","24.9825","6500300","中和區"
"235019","183-VK","2017/11/14 13:39:19","新北市中和區莒光路120巷17弄2號","121.471718333333","25.00094","6500300","中和區"
"235002","185-VK","2017/11/14 13:39:26","新北市中和區大勇街76號","121.518215","24.9948266666667","6500300","中和區"
"235013","186-VK","2017/11/14 13:39:24","新北市中和區景安路132巷38號","121.5038","24.9946333333333","6500300","中和區"
"235031","255-BX","2017/11/14 13:39:12","新北市中和區新生街220巷4號","121.48296","24.9985016666667","6500300","中和區"
"235008","293-VK","2017/11/14 13:39:27","新北市中和區復興路280巷1弄2號","121.502235","24.9906983333333","6500300","中和區"
"235036","301-VK","2017/11/14 13:39:10","新北市中和區連城路169號","121.495516666667","24.99829","6500300","中和區"
"235007","352-BY","2017/11/14 13:39:27","新北市中和區景平路163號","121.51238","24.9923683333333","6500300","中和區"
"235032","377-QA","2017/11/14 13:39:17","新北市中和區中正路211巷13弄8號","121.497265","24.9931216666667","6500300","中和區"
"235025","378-QA","2017/11/14 13:39:24","新北市中和區民享街95-5號","121.474971666667","24.9999716666667","6500300","中和區"
"235035","269-TV","2017/11/14 13:39:13","新北市中和區中原街92號","121.488383333333","25.0103516666667","6500300","中和區"
"235014","4979-A6","2017/11/14 13:39:13","新北市中和區景新街496巷35弄1號","121.513495","24.9857116666667","6500300","中和區"
"235033","4980-A6","2017/11/14 13:39:27","新北市中和區南山路81巷8弄12號","121.502583333333","24.9977316666667","6500300","中和區"
"235006","551-UM","2017/11/14 13:39:26","新北市中和區成功路97巷7號","121.526463333333","24.9919383333333","6500300","中和區"
"235034","558-UM","2017/11/14 13:39:28","新北市中和區南華路66號","121.504905","24.9971783333333","6500300","中和區"
"235009","565-BX","2017/11/14 13:39:09","新北市中和區復興路1號","121.5064","24.9895766666667","6500300","中和區"
"235018","640-BX","2017/11/14 13:39:32","新北市中和區莒光路129巷2弄24號","121.473086666667","25.0011433333333","6500300","中和區"
"235011","732-UM","2017/11/14 13:39:18","新北市中和區興南路二段3巷3號","121.508065","24.98643","6500300","中和區"
"235010","733-UM","2017/11/14 13:39:24","新北市中和區捷運路125號","121.5072","24.9906016666667","6500300","中和區"
"235026","800-TS","2017/11/14 13:39:16","新北市中和區中山路二段296號","121.496135","25.0025416666667","6500300","中和區"
"235021","801-TS","2017/11/14 13:39:29","新北市中和區民安街57號","121.478956666667","24.9997466666667","6500300","中和區"
"235005","802-TS","2017/11/14 13:39:21","新北市中和區中和路400巷27號","121.511843333333","25.002175","6500300","中和區"
"235016","805-TS","2017/11/14 13:39:14","新北市中和區興南路三段42號","121.496035","24.97737","6500300","中和區"
"235012","896-TW","2017/11/14 13:39:26","新北市中和區中正路79號","121.500765","24.9935533333333","6500300","中和區"
"235017","900-TW","2017/11/14 13:39:18","新北市土城區延壽路118-6號","121.469058333333","24.99454","6500300","中和區"
"235024","911-UM","2017/11/14 13:39:26","新北市中和區中山路三段1號","121.479911666667","25.0057866666667","6500300","中和區"
"235001","157-BY","2017/11/14 13:39:20","新北市中和區華新街143巷106弄32號","121.506246666667","24.9787066666667","6500300","中和區"
"235001","AAC-213","2017/11/14 13:39:20","新北市中和區景平路151巷45號","121.514791666667","24.990475","6500300","中和區"
"235023","AAC-215","2017/11/14 13:39:16","新北市中和區員山路36巷16-2號","121.485296666667","24.99153","6500300","中和區"
"220013","072-UY","2017/11/14 13:39:10","新北市板橋區漢生東路282號","121.471266666667","25.0089566666667","6500100","板橋區"
"220034","073-UY","2017/11/14 13:39:21","新北市板橋區南雅西路二段192巷1弄3號","121.45204","25.0145116666667","6500100","板橋區"
"220017","AAD-861","2017/11/14 13:39:31","新北市板橋區華東街1-10號","121.448373333333","24.9951633333333","6500100","板橋區"
"247009","339-TH","2017/11/14 13:39:12","新北市五股區新城三路45號","121.448666666667","25.091925","6501400","蘆洲區"
"247003","335-TH","2017/11/14 13:39:31","新北市蘆洲區中原路73號","121.45841","25.0819166666667","6501400","蘆洲區"
"247015","057-VK","2017/11/14 13:39:18","新北市五股區成泰路三段436號","121.451938333333","25.0992833333333","6501400","蘆洲區"
"247005","056-VK","2017/11/14 13:39:27","新北市蘆洲區永安南路二段266號","121.459331666667","25.08048","6501400","蘆洲區"
"247017","001-UY","2017/11/14 13:39:24","新北市五股區中興路三段163號","121.448866666667","25.080195","6501400","蘆洲區"
"228004","212-TW","2017/11/14 13:29:56","新北市貢寮區龍崗里石壁坑街17號","121.910425","24.98975","6502600","貢寮區"
"228005","828-UM","2017/11/14 13:39:16","新北市貢寮區美豐里文秀坑5-1號","121.9028","25.0506666666667","6502600","貢寮區"
"208004","AAC-292","2017/11/14 13:39:24","新北市金山區山城路10巷24弄46號","121.593543333333","25.1996433333333","6502700","金山區"
"207002","749-BX","2017/11/14 13:39:14","新北市萬里區崁腳里崁腳路166號","121.645218333333","25.15606","6502800","萬里區"
"207001","662-BX","2017/11/14 13:39:28","新北市萬里區大鵬里萬里加投52號","121.643801666667","25.2104583333333","6502800","萬里區"
"252005","AAC-283","2017/11/14 13:39:23","新北市三芝區圓山里二坪頂79號","121.540963333333","25.24554","6502100","三芝區"
"236075","166-UM","2017/11/14 13:39:18","新北市土城區城林路6巷80號","121.438695","24.97997","6501300","土城區"
"236013","270-VK","2017/11/14 13:39:21","新北市土城區城林路6巷80號","121.438703333333","24.9797366666667","6501300","土城區"
"236034","271-VK","2017/11/14 13:39:24","新北市土城區城林路6巷80號","121.438556666667","24.9797183333333","6501300","土城區"
"236006","498-BY","2017/11/14 13:39:13","新北市土城區慶祥街46號","121.436856666667","24.97434","6501300","土城區"
"238016","308-TH","2017/11/14 13:28:00","新北市樹林區育德街76巷1號","121.388758333333","24.9683016666667","6500700","樹林區"
"221012","276-VK","2017/11/14 13:25:51","新北市汐止區汐萬路一段256巷3號","121.653458333333","25.0746183333333","6501100","汐止區"
"221032","280-BY","2017/11/14 13:39:25","新北市汐止區仁愛路27號","121.659371666667","25.063675","6501100","汐止區"
"220027","145-BY","2017/11/14 13:39:29","新北市板橋區中正路216巷150弄9號","121.460981666667","25.0191083333333","6500100","板橋區"
"220028","200-UY","2017/11/14 13:39:23","新北市板橋區大觀路二段435-1號","121.446421666667","24.9944633333333","6500100","板橋區"
"220030","610-BX","2017/11/14 13:39:13","新北市板橋區四川路二段橋頭1號","121.446398333333","24.9941933333333","6500100","板橋區"
"220004","276-BY","2017/11/14 13:39:24","新北市板橋區華東街1-10號","121.448601666667","24.99488","6500100","板橋區"
"220020","277-BY","2017/11/14 13:39:16","新北市板橋區四川路二段橋頭7號","121.44666","24.9940366666667","6500100","板橋區"
"220019","283-VK","2017/11/14 13:39:15","新北市板橋區華東街1-9號","121.448116666667","24.9948816666667","6500100","板橋區"
"220043","285-UM","2017/11/14 13:39:19","新北市板橋區民生路二段161巷3號","121.470043333333","25.0197166666667","6500100","板橋區"
"220001","285-VK","2017/11/14 13:39:29","新北市板橋區民生路二段120號","121.470486666667","25.0198333333333","6500100","板橋區"
"220029","287-VK","2017/11/14 13:39:15","新北市板橋區板城路421號","121.448063333333","24.9963566666667","6500100","板橋區"
"220009","295-UM","2017/11/14 13:39:20","新北市板橋區民生路二段161巷1號","121.47028","25.0199116666667","6500100","板橋區"
"220032","296-UM","2017/11/14 13:39:22","新北市板橋區板城路421號","121.448056666667","24.9963883333333","6500100","板橋區"
"220023","297-UM","2017/11/14 13:39:11","新北市板橋區大觀路二段266號","121.449003333333","24.9963733333333","6500100","板橋區"
"220010","303-R5","2017/11/14 13:39:11","新北市板橋區民生路二段89-6號","121.470703333333","25.019235","6500100","板橋區"
"220012","486-VK","2017/11/14 13:39:16","新北市板橋區縣民大道二段22號","121.46436","25.0136316666667","6500100","板橋區"
"220104","560-BX","2017/11/14 13:39:25","新北市板橋區南雅西路二段145巷10號","121.451626666667","25.0119466666667","6500100","板橋區"
"220001","568-UM","2017/11/14 13:39:18","新北市板橋區板城路421號","121.448271666667","24.9959883333333","6500100","板橋區"
"220005","686-BX","2017/11/14 13:39:11","新北市板橋區華東街1-9號","121.44823","24.9949133333333","6500100","板橋區"
"220025","687-BX","2017/11/14 13:39:29","新北市板橋區篤行路一段22號","121.431878333333","24.9942733333333","6500100","板橋區"
"220014","829-TW","2017/11/14 13:39:25","新北市板橋區民生路二段120號","121.470361666667","25.0197416666667","6500100","板橋區"
"220051","830-TW","2017/11/14 00:50:47","新北市板橋區民生路二段161巷3號","121.470253333333","25.0198216666667","6500100","板橋區"
"220045","831-TW","2017/11/14 13:39:25","新北市板橋區民生路二段89-6號","121.470451666667","25.0193233333333","6500100","板橋區"
"220022","895-R6","2017/11/14 13:39:30","新北市板橋區南雅南路一段8號","121.45589","25.0061833333333","6500100","板橋區"
"220021","985-R7","2017/11/14 13:39:20","新北市板橋區四川路二段130巷53號","121.449766666667","24.99482","6500100","板橋區"
"220018","AAC-253","2017/11/14 13:39:30","新北市板橋區華東街1-9號","121.44823","24.9949533333333","6500100","板橋區"
