"lineid","car","time","location","longitude","latitude","cityid","cityname"
"234044","148-BY","2017/11/14 14:09:27","新北市永和區得和路326號","121.523233333333","24.9995983333333","6500400","永和區"
"234012","149-BY","2017/11/14 14:09:17","新北市永和區永貞路387號","121.508098333333","25.008695","6500400","永和區"
"234005","207-UY","2017/11/14 14:09:27","新北市中和區保平路368號","121.50647","25.0036733333333","6500400","永和區"
"234078","298-R6","2017/11/14 14:09:21","新北市永和區永亨路100號","121.523141666667","25.004835","6500400","永和區"
"234036","336-UY","2017/11/14 14:09:29","新北市永和區成功路一段47巷3號","121.527373333333","25.0041783333333","6500400","永和區"
"234062","337-UY","2017/11/14 14:09:27","新北市永和區永利路152號","121.522446666667","25.0027033333333","6500400","永和區"
"234084","338-UY","2017/11/14 14:09:17","新北市永和區福和路201號","121.519348333333","25.0074366666667","6500400","永和區"
"234068","552-UM","2017/11/14 14:09:16","新北市永和區永貞路10巷7號","121.52017","25.0072333333333","6500400","永和區"
"234052","553-UM","2017/11/14 14:09:15","新北市永和區博愛街47巷2號","121.519561666667","25.0159566666667","6500400","永和區"
"234015","745-BX","2017/11/14 14:09:12","新北市永和區仁愛路9號","121.514768333333","25.0134616666667","6500400","永和區"
"234028","746-BX","2017/11/14 14:09:22","新北市永和區民權路49巷1號","121.520236666667","24.9972083333333","6500400","永和區"
"234060","AAD-866","2017/11/14 14:09:10","新北市中和區安平路222號","121.513996666667","25.000095","6500400","永和區"
"234040","862-TW","2017/11/14 14:09:26","新北市永和區雙和街16巷20號","121.509863333333","25.002735","6500400","永和區"
"234048","863-TW","2017/11/14 14:09:29","新北市永和區環河西路二段107號","121.506371666667","25.0146883333333","6500400","永和區"
"234025","9381-KE","2017/11/14 14:09:22","新北市永和區安樂路270號","121.51457","25.0040083333333","6500400","永和區"
"234010","9373-KE","2017/11/14 14:09:24","新北市永和區環河西路二段241號","121.500576666667","25.0091833333333","6500400","永和區"
"248017","225-UY","2017/11/14 14:09:12","新北市五股區民義路一段242-3號","121.426615","25.0920183333333","6501500","五股區"
"234022","9380-KE","2017/11/14 14:09:19","新北市永和區博愛街32巷18號","121.51881","25.0151366666667","6500400","永和區"
"234076","969-R7","2017/11/14 14:09:26","新北市永和區民族街81巷62號","121.520256666667","24.99651","6500400","永和區"
"234072","AAC-211","2017/11/14 14:09:11","新北市永和區竹林路201巷26弄1號","121.52227","25.01003","6500400","永和區"
"234066","AAC-212","2017/11/14 14:09:18","新北市永和區保平路236巷15弄3-1號","121.5084","25.0061366666667","6500400","永和區"
"234001","AAC-295","2017/11/14 14:09:22","新北市永和區中正路708號","121.515995","25.00995","6500400","永和區"
"244002","657-BX","2017/11/14 13:49:20","新北市林口區林口路76號","121.389733333333","25.0806783333333","6501700","林口區"
"231029","001-UM","2017/11/14 14:09:15","新北市新店區安康路二段161號","121.510236666667","24.9594083333333","6500600","新店區"
"231002","002-UM","2017/11/14 14:09:20","新北市新店區中正路485號","121.53392","24.98206","6500600","新店區"
"231025","0293-UT","2017/11/14 14:09:22","新北市新店區中正路328巷29號","121.537596666667","24.9758833333333","6500600","新店區"
"231028","046-UY","2017/11/14 14:09:26","新北市新店區安和路二段216號","121.517741666667","24.97555","6500600","新店區"
"231030","047-UY","2017/11/14 14:09:12","新北市新店區安民街65巷21-2號","121.515213333333","24.967455","6500600","新店區"
"231012","108-UY","2017/11/14 14:09:20","新北市新店區五峰路63巷8弄21號","121.547276666667","24.9693833333333","6500600","新店區"
"231020","187-VK","2017/11/14 14:09:20","新北市新店區新烏路二段301-9號","121.549165","24.9120383333333","6500600","新店區"
"231015","KEA-2219","2017/11/14 14:09:31","新北市新店區北宜路二段148號","121.557738333333","24.953525","6500600","新店區"
"231023","AAD-862","2017/11/14 14:09:12","新北市新店區文中路35巷12號","121.539818333333","24.9567283333333","6500600","新店區"
"231027","3712-VJ","2017/11/14 14:09:10","新北市新店區光明街138巷13弄5號","121.540226666667","24.961455","6500600","新店區"
"231024","4716-K9","2017/11/14 14:09:15","","121.53897","24.966535","6500600","新店區"
"231038","4715-K9","2017/11/14 14:09:14","新北市新店區溪洲路121號","121.531376666667","24.9626816666667","6500600","新店區"
"231036","512-UM","2017/11/14 14:09:18","新北市新店區安祥路109巷6弄41號","121.475488333333","24.9573966666667","6500600","新店區"
"231035","515-UM","2017/11/14 14:09:11","新北市新店區安和路一段53號","121.517566666667","24.96598","6500600","新店區"
"231006","617-UM","2017/11/14 14:09:25","新北市新店區北宜路二段150-1號","121.557696666667","24.95392","6500600","新店區"
"231001","619-UM","2017/11/14 14:06:30","新北市新店區三民路31-3號","121.538036666667","24.9705133333333","6500600","新店區"
"231003","641-BX","2017/11/14 14:09:28","新北市新店區中興路一段180號","121.543125","24.964715","6500600","新店區"
"231034","645-TV","2017/11/14 14:09:28","新北市新店區黎明路3號","121.503573333333","24.9524366666667","6500600","新店區"
"231013","719-UM","2017/11/14 14:09:13","新北市新店區北新路三段65巷32號","121.540078333333","24.98106","6500600","新店區"
"231018","719-UY","2017/11/14 14:09:16","新北市新店區中央五街12號","121.5297","24.9741783333333","6500600","新店區"
"231032","720-UM","2017/11/14 14:09:22","新北市新店區永業路51巷2號","121.531815","24.9547","6500600","新店區"
"231005","897-TW","2017/11/14 14:09:23","新北市新店區寶元路一段61號","121.542168333333","24.9858433333333","6500600","新店區"
"231004","899-TW","2017/11/14 14:09:27","新北市新店區北新路二段108號","121.543065","24.9744266666667","6500600","新店區"
"231037","AKT-0513","2017/11/14 14:09:22","新北市新店區安康路二段341巷13號","121.4971","24.9546783333333","6500600","新店區"
"235030","003-UY","2017/11/14 14:09:15","新北市中和區廣福路53巷10號","121.503208333333","25.0013433333333","6500300","中和區"
"235028","005-UY","2017/11/14 14:09:29","新北市中和區泰和街3號","121.499778333333","25.0007966666667","6500300","中和區"
"235027","006-UY","2017/11/14 14:09:21","新北市中和區連城路301號","121.48983","24.99627","6500300","中和區"
"235020","096-UM","2017/11/14 14:09:24","新北市中和區員山路565號","121.479388333333","25.0077283333333","6500300","中和區"
"235003","097-UM","2017/11/14 14:09:15","新北市中和區秀峰街64號","121.520635","24.9904533333333","6500300","中和區"
"235029","098-UM","2017/11/14 14:09:30","新北市中和區中山路二段64巷12弄16號","121.504006666667","25.0053933333333","6500300","中和區"
"235004","150-BY","2017/11/14 14:09:12","新北市中和區宜安路92巷1號","121.510856666667","24.9976933333333","6500300","中和區"
"235022","151-BY","2017/11/14 14:09:16","新北市中和區員山路111號","121.480893333333","24.994735","6500300","中和區"
"235019","183-VK","2017/11/14 14:09:19","新北市中和區德光路92-2號","121.468741666667","25.0034716666667","6500300","中和區"
"235002","185-VK","2017/11/14 14:09:26","新北市中和區大仁街10巷27弄6號","121.51927","24.9928033333333","6500300","中和區"
"235013","186-VK","2017/11/14 14:09:25","新北市中和區景安路85號","121.506178333333","24.996725","6500300","中和區"
"235031","255-BX","2017/11/14 14:09:12","新北市中和區新生街191號","121.483783333333","25.0002883333333","6500300","中和區"
"235008","293-VK","2017/11/14 14:09:27","新北市中和區中興街214號","121.499503333333","24.9899183333333","6500300","中和區"
"235036","301-VK","2017/11/14 14:09:10","新北市中和區中山路二段181號","121.501001666667","25.0028216666667","6500300","中和區"
"235007","352-BY","2017/11/14 14:09:27","新北市中和區景平路120號","121.51927","24.9917383333333","6500300","中和區"
"235032","377-QA","2017/11/14 14:09:17","新北市中和區圓通路158巷1弄9號","121.497266666667","24.996055","6500300","中和區"
"235025","378-QA","2017/11/14 14:09:24","新北市中和區員山路160號","121.481338333333","24.99956","6500300","中和區"
"235035","269-TV","2017/11/14 14:09:13","新北市中和區中山路二段482巷2號","121.48846","25.0065466666667","6500300","中和區"
"235014","4979-A6","2017/11/14 14:09:31","新北市中和區景安路220巷20號","121.50271","24.9914333333333","6500300","中和區"
"235033","4980-A6","2017/11/14 14:09:27","新北市中和區景平路736巷1弄6號","121.497265","25.00396","6500300","中和區"
"235006","551-UM","2017/11/14 14:09:26","新北市中和區自立路16巷7號","121.521603333333","24.9935983333333","6500300","中和區"
"235034","558-UM","2017/11/14 14:09:08","新北市中和區安和路216-1號","121.506041666667","24.9994083333333","6500300","中和區"
"235009","565-BX","2017/11/14 14:09:23","新北市中和區景新街467巷38弄8號","121.5152","24.988545","6500300","中和區"
"235018","640-BX","2017/11/14 14:09:12","新北市中和區國光街107巷2弄29號","121.469348333333","24.9989283333333","6500300","中和區"
"235011","732-UM","2017/11/14 14:09:18","新北市中和區興南路一段56巷28號","121.510273333333","24.99143","6500300","中和區"
"235010","733-UM","2017/11/14 14:09:24","新北市中和區忠孝街1巷7號","121.508688333333","24.9834916666667","6500300","中和區"
"235026","800-TS","2017/11/14 14:09:16","新北市中和區中山路二段380-1號","121.491088333333","25.0032916666667","6500300","中和區"
"235021","801-TS","2017/11/14 14:09:21","新北市中和區民利街53號","121.479393333333","24.9987766666667","6500300","中和區"
"235005","802-TS","2017/11/14 14:09:21","新北市中和區宜安路118巷16號","121.510743333333","24.9985766666667","6500300","中和區"
"235016","805-TS","2017/11/14 14:09:14","新北市中和區興南路二段142巷19弄2號","121.503056666667","24.9836216666667","6500300","中和區"
"235012","896-TW","2017/11/14 14:09:26","新北市中和區工專路147號","121.508568333333","24.9789366666667","6500300","中和區"
"235017","900-TW","2017/11/14 14:09:18","新北市中和區華福街71巷2號","121.467303333333","24.9968633333333","6500300","中和區"
"235024","911-UM","2017/11/14 14:09:26","新北市中和區民享街91-6號","121.474461666667","25.00107","6500300","中和區"
"235001","157-BY","2017/11/14 14:09:20","","121.510648333333","24.987755","6500300","中和區"
"235001","AAC-213","2017/11/14 14:09:20","新北市中和區秀朗路三段60巷24號","121.525518333333","24.9950316666667","6500300","中和區"
"235023","AAC-215","2017/11/14 14:09:16","新北市中和區圓通路294巷3號","121.488816666667","24.98973","6500300","中和區"
"220016","013-TV","2017/11/14 14:09:17","新北市板橋區翠華街6巷53號","121.481421666667","25.024665","6500100","板橋區"
"220013","072-UY","2017/11/14 14:09:10","新北市板橋區民族路219巷40號","121.469501666667","25.0088033333333","6500100","板橋區"
"220034","073-UY","2017/11/14 14:09:21","新北市板橋區中正路236巷79號","121.459176666667","25.0196683333333","6500100","板橋區"
"220105","075-UY","2017/11/14 14:09:28","新北市板橋區雙十路三段14號","121.471688333333","25.0303366666667","6500100","板橋區"
"220017","AAD-861","2017/11/14 14:09:11","新北市板橋區華興街62號","121.457618333333","25.00493","6500100","板橋區"
"220039","120-SR","2017/11/14 14:09:22","新北市板橋區裕民街47號","121.461388333333","25.0286216666667","6500100","板橋區"
"247021","893-R6","2017/11/14 14:09:13","新北市蘆洲區三民路173號","121.471125","25.08725","6501400","蘆洲區"
"247011","546-UM","2017/11/14 14:09:24","新北市蘆洲區信義路343巷1號","121.477911666667","25.0870033333333","6501400","蘆洲區"
"247019","500-BY","2017/11/14 14:09:13","新北市蘆洲區民族路426巷19號","121.473025","25.0931","6501400","蘆洲區"
"247009","339-TH","2017/11/14 14:09:12","新北市蘆洲區信義路178號","121.479231666667","25.084045","6501400","蘆洲區"
"247001","337-TH","2017/11/14 14:09:16","新北市蘆洲區永平街65號","121.457338333333","25.0915366666667","6501400","蘆洲區"
"247003","335-TH","2017/11/14 14:09:31","新北市蘆洲區長安街209號","121.459828333333","25.0822333333333","6501400","蘆洲區"
"247015","057-VK","2017/11/14 14:09:18","新北市蘆洲區中正路185巷19號","121.467398333333","25.0848666666667","6501400","蘆洲區"
"247005","056-VK","2017/11/14 14:09:27","新北市蘆洲區九芎街71巷9弄22號","121.467165","25.0780483333333","6501400","蘆洲區"
"247007","053-VK","2017/11/14 14:09:16","新北市蘆洲區中山一路415號","121.469063333333","25.076795","6501400","蘆洲區"
"247013","007-UY","2017/11/14 14:09:18","","121.47148","25.0856866666667","6501400","蘆洲區"
"247023","002-UY","2017/11/14 14:09:22","新北市蘆洲區光榮路122號","121.464623333333","25.089475","6501400","蘆洲區"
"247017","001-UY","2017/11/14 14:09:24","新北市蘆洲區復興路111-5號","121.476608333333","25.0883516666667","6501400","蘆洲區"
"228004","212-TW","2017/11/14 14:09:16","新北市貢寮區雙玉里下雙溪街10-3號","121.915141666667","25.0137433333333","6502600","貢寮區"
"228005","828-UM","2017/11/14 14:09:16","新北市貢寮區美豐里雞母嶺街52號","121.889431666667","25.0680983333333","6502600","貢寮區"
"208004","AAC-292","2017/11/14 14:09:23","","121.597773333333","25.2030033333333","6502700","金山區"
"207002","749-BX","2017/11/14 14:09:23","","121.605685","25.1483266666667","6502800","萬里區"
"207001","662-BX","2017/11/14 14:09:28","新北市萬里區磺潭里清水18號","121.637836666667","25.1977066666667","6502800","萬里區"
"252005","AAC-283","2017/11/14 14:09:23","新北市三芝區橫山里大坑85號","121.529618333333","25.25895","6502100","三芝區"
"236065","105-UM","2017/11/14 14:09:17","新北市土城區金城路一段86號","121.444926666667","24.9734033333333","6501300","土城區"
"236041","107-UM","2017/11/14 14:09:16","新北市土城區裕生路61號","121.447668333333","24.9861116666667","6501300","土城區"
"236075","166-UM","2017/11/14 14:09:18","新北市土城區永安街6號","121.434293333333","24.9652833333333","6501300","土城區"
"236029","253-BX","2017/11/14 14:09:20","","121.438353333333","24.979745","6501300","土城區"
"236025","269-VK","2017/11/14 14:09:19","新北市土城區承天路22號","121.439688333333","24.9632983333333","6501300","土城區"
"236013","270-VK","2017/11/14 14:09:21","新北市土城區學府路二段133號","121.448136666667","24.9803016666667","6501300","土城區"
"236034","271-VK","2017/11/14 14:09:24","新北市土城區青雲路449號","121.458921666667","24.97479","6501300","土城區"
"236017","401-BY","2017/11/14 14:09:16","新北市土城區城林路6巷80號","121.438601666667","24.9797","6501300","土城區"
"236006","498-BY","2017/11/14 14:09:13","新北市土城區中華路一段10-1號","121.448081666667","24.9906833333333","6501300","土城區"
"236057","912-UM","2017/11/14 14:09:15","新北市土城區中央路四段25-8號","121.424621666667","24.9625266666667","6501300","土城區"
"236045","913-UM","2017/11/14 14:09:19","新北市土城區明德路一段365-1號","121.453546666667","24.97907","6501300","土城區"
"236061","915-UM","2017/11/14 14:09:13","新北市土城區金城路二段200號","121.454761666667","24.9816933333333","6501300","土城區"
"236054","AAC-216","2017/11/14 14:09:21","新北市土城區城林路6巷80號","121.438385","24.9797916666667","6501300","土城區"
"238016","308-TH","2017/11/14 13:28:00","新北市樹林區育德街76巷1號","121.388758333333","24.9683016666667","6500700","樹林區"
"221012","276-VK","2017/11/14 13:25:51","新北市汐止區汐萬路一段256巷3號","121.653458333333","25.0746183333333","6501100","汐止區"
"221032","280-BY","2017/11/14 14:09:25","新北市汐止區樟樹一路162號","121.64224","25.0656333333333","6501100","汐止區"
"220027","145-BY","2017/11/14 14:09:28","新北市板橋區民權路260巷27號","121.458863333333","25.0153116666667","6500100","板橋區"
"220028","200-UY","2017/11/14 14:09:23","新北市板橋區大觀路二段7巷62號","121.449195","25.0031583333333","6500100","板橋區"
"220030","610-BX","2017/11/14 14:09:26","新北市板橋區溪崑二街44號","121.428226666667","24.990815","6500100","板橋區"
"220004","276-BY","2017/11/14 14:09:24","新北市板橋區信義路74巷1弄14號","121.457538333333","24.99278","6500100","板橋區"
"220020","277-BY","2017/11/14 14:09:16","新北市板橋區金門街372巷40號","121.427546666667","24.9850183333333","6500100","板橋區"
"220050","280-UM","2017/11/14 14:09:29","新北市板橋區民生路二段188號","121.470218333333","25.02086","6500100","板橋區"
"220019","283-VK","2017/11/14 14:09:15","新北市板橋區重慶路353巷7號","121.464868333333","24.9981416666667","6500100","板橋區"
"220043","285-UM","2017/11/14 14:09:19","新北市板橋區光武街133號","121.465656666667","25.02913","6500100","板橋區"
"220001","285-VK","2017/11/14 14:09:11","新北市板橋區懷仁街14巷27號","121.475508333333","25.0194916666667","6500100","板橋區"
"220029","287-VK","2017/11/14 14:09:15","新北市板橋區南雅西路二段65號","121.452796666667","25.0099166666667","6500100","板橋區"
"220009","295-UM","2017/11/14 14:09:20","新北市板橋區三民路二段21巷8號","121.479938333333","25.0181533333333","6500100","板橋區"
"220032","296-UM","2017/11/14 14:09:22","新北市板橋區溪崑一街47巷2號","121.43043","24.9909166666667","6500100","板橋區"
"220023","297-UM","2017/11/14 14:09:11","新北市板橋區中正路69號","121.456398333333","25.013815","6500100","板橋區"
"220041","299-UM","2017/11/14 14:09:26","新北市板橋區文化路二段225巷60弄69號","121.469006666667","25.0299633333333","6500100","板橋區"
"220010","303-R5","2017/11/14 14:09:28","新北市板橋區三民路二段居仁巷1弄45號","121.480618333333","25.013685","6500100","板橋區"
"220047","317-R6","2017/11/14 14:09:26","新北市板橋區自由路51巷14弄1號","121.464773333333","25.02356","6500100","板橋區"
"220012","486-VK","2017/11/14 14:09:16","新北市板橋區民生路一段33-1號","121.476001666667","25.0121","6500100","板橋區"
"220037","491-VK","2017/11/14 14:09:24","新北市板橋區莊敬路38-1號","121.47276","25.0271333333333","6500100","板橋區"
"220104","560-BX","2017/11/14 14:09:25","新北市板橋區中正路360巷48號","121.456155","25.0228316666667","6500100","板橋區"
"220052","561-BX","2017/11/14 14:09:17","新北市板橋區文化路一段188巷9弄23號","121.46856","25.019425","6500100","板橋區"
"220001","568-UM","2017/11/14 14:09:18","新北市板橋區大觀路二段174巷184號","121.442303333333","25.0036816666667","6500100","板橋區"
"220011","609-BX","2017/11/14 14:09:25","新北市板橋區三民路二段117號","121.4792","25.01578","6500100","板橋區"
"220040","637-BX","2017/11/14 14:09:17","新北市板橋區縣民大道247巷82號","121.482208333333","25.026965","6500100","板橋區"
"220005","686-BX","2017/11/14 14:09:11","新北市板橋區重慶路141號","121.462328333333","25.0046966666667","6500100","板橋區"
"220025","687-BX","2017/11/14 14:09:29","新北市板橋區大觀路二段281號","121.442408333333","24.9988983333333","6500100","板橋區"
"220042","689-BX","2017/11/14 14:09:28","新北市板橋區民生路三段253號","121.464488333333","25.0291666666667","6500100","板橋區"
"220002","741-BX","2017/11/14 14:09:15","新北市板橋區重慶路89巷6號","121.462691666667","25.0064716666667","6500100","板橋區"
"220003","827-TW","2017/11/14 14:09:20","新北市板橋區民族路57號","121.46456","25.009","6500100","板橋區"
"220014","829-TW","2017/11/14 14:09:25","新北市板橋區中山路二段90巷43弄2號","121.476448333333","25.014895","6500100","板橋區"
"220051","830-TW","2017/11/14 14:09:25","新北市板橋區田單街51號","121.482678333333","25.02788","6500100","板橋區"
"220045","831-TW","2017/11/14 14:09:26","新北市板橋區雙十路二段43號","121.476631666667","25.026125","6500100","板橋區"
"220038","833-TW","2017/11/14 14:09:14","新北市板橋區文化路二段419號","121.474598333333","25.0325683333333","6500100","板橋區"
"220022","895-R6","2017/11/14 14:09:30","新北市板橋區府中路141-1號","121.45565","25.0095066666667","6500100","板橋區"
"220021","985-R7","2017/11/14 14:09:20","新北市板橋區民權路248號","121.458381666667","25.0146","6500100","板橋區"
"220046","AAC-210","2017/11/14 14:09:23","新北市板橋區新海路135巷29號","121.460081666667","25.0231116666667","6500100","板橋區"
"220018","AAC-253","2017/11/14 14:09:32","新北市板橋區四川路一段351號","121.458471666667","25","6500100","板橋區"
