"lineid","car","time","location","longitude","latitude","cityid","cityname"
"234012","149-BY","2017/11/14 14:29:17","新北市三重區重新路五段326巷25-1號","121.478766666667","25.0444933333333","6500400","永和區"
"234005","207-UY","2017/11/14 14:29:27","新北市永和區安樂路170號","121.514618333333","25.0009933333333","6500400","永和區"
"234078","298-R6","2017/11/14 14:29:21","新北市永和區永貞路78號","121.520205","25.0050983333333","6500400","永和區"
"234036","336-UY","2017/11/14 14:29:26","新北市永和區環河東路四段34號","121.528758333333","24.9991083333333","6500400","永和區"
"234062","337-UY","2017/11/14 14:29:27","新北市永和區中正路526號","121.517205","25.0050116666667","6500400","永和區"
"234084","338-UY","2017/11/14 14:29:23","","121.516083333333","25.0161533333333","6500400","永和區"
"234068","552-UM","2017/11/14 14:29:16","新北市永和區永亨路7號","121.519445","25.0057333333333","6500400","永和區"
"234052","553-UM","2017/11/14 14:29:25","新北市永和區環河東路一段76號","121.519386666667","25.016675","6500400","永和區"
"234028","746-BX","2017/11/14 14:29:19","新北市永和區民生路59號","121.522651666667","24.9974866666667","6500400","永和區"
"234060","AAD-866","2017/11/14 14:29:10","新北市永和區中正路381號","121.517161666667","25.0036283333333","6500400","永和區"
"234040","862-TW","2017/11/14 14:29:26","新北市永和區自由街33號","121.514371666667","25.00632","6500400","永和區"
"234048","863-TW","2017/11/14 14:29:29","新北市永和區保安路136號","121.508551666667","25.0152916666667","6500400","永和區"
"234025","9381-KE","2017/11/14 14:29:22","新北市中和區中安街104-1號","121.511506666667","25.0010666666667","6500400","永和區"
"248017","225-UY","2017/11/14 14:25:11","新北市五股區外寮路6-1號","121.425148333333","25.07524","6501500","五股區"
"234076","969-R7","2017/11/14 14:29:26","新北市永和區民權路53號","121.520218333333","24.9966","6500400","永和區"
"234072","AAC-211","2017/11/14 14:29:11","新北市永和區竹林路119巷3號","121.520315","25.0114716666667","6500400","永和區"
"234001","AAC-295","2017/11/14 14:29:22","新北市永和區大新街55號","121.515886666667","25.008405","6500400","永和區"
"244002","657-BX","2017/11/14 13:49:20","新北市林口區林口路76號","121.389733333333","25.0806783333333","6501700","林口區"
"231029","001-UM","2017/11/14 14:29:15","新北市新店區安康路二段416號","121.496526666667","24.9552","6500600","新店區"
"231002","002-UM","2017/11/14 14:29:20","新北市新店區中正路349號","121.53535","24.9758833333333","6500600","新店區"
"231025","0293-UT","2017/11/14 14:29:22","新北市新店區民族路161號","121.537751666667","24.976785","6500600","新店區"
"231028","046-UY","2017/11/14 14:29:26","新北市新店區安康路二段147號","121.511291666667","24.9598866666667","6500600","新店區"
"231030","047-UY","2017/11/14 14:29:12","新北市新店區安民街72-1號","121.516626666667","24.96674","6500600","新店區"
"231012","108-UY","2017/11/14 14:29:20","","121.547686666667","24.9764233333333","6500600","新店區"
"231020","187-VK","2017/11/14 14:29:20","","121.567076666667","24.8997833333333","6500600","新店區"
"231015","KEA-2219","2017/11/14 14:29:31","新北市新店區北宜路三段54號","121.572908333333","24.9512216666667","6500600","新店區"
"231023","AAD-862","2017/11/14 14:29:12","新北市新店區中興路一段100號","121.54032","24.9605666666667","6500600","新店區"
"231027","3712-VJ","2017/11/14 14:29:30","新北市新店區寶橋路85巷35號","121.545296666667","24.97629","6500600","新店區"
"231024","4716-K9","2017/11/14 14:29:15","新北市新店區新生街13巷26號","121.538961666667","24.966515","6500600","新店區"
"231038","4715-K9","2017/11/14 14:29:14","新北市新店區溪洲路101-1號","121.53229","24.9622483333333","6500600","新店區"
"231036","512-UM","2017/11/14 14:29:18","新北市新店區安祥路109巷8號","121.475425","24.9588416666667","6500600","新店區"
"231035","515-UM","2017/11/14 14:29:11","新北市新店區安民街3巷1號","121.514668333333","24.9642383333333","6500600","新店區"
"231006","617-UM","2017/11/14 14:29:25","新北市新店區北宜路二段483號","121.562215","24.9538783333333","6500600","新店區"
"231001","619-UM","2017/11/14 14:29:10","新北市新店區北新路一段96巷23號","121.542933333333","24.968825","6500600","新店區"
"231003","641-BX","2017/11/14 14:29:14","新北市新店區中興路一段269號","121.545136666667","24.967965","6500600","新店區"
"231034","645-TV","2017/11/14 14:29:28","新北市新店區黎明路52巷1號","121.502283333333","24.9486033333333","6500600","新店區"
"231013","719-UM","2017/11/14 14:29:13","新北市新店區民權路108-1號","121.53598","24.9835616666667","6500600","新店區"
"231018","719-UY","2017/11/14 14:29:16","","121.527255","24.9747233333333","6500600","新店區"
"231032","720-UM","2017/11/14 14:29:31","新北市新店區安業街151巷2號","121.521475","24.9736883333333","6500600","新店區"
"231005","897-TW","2017/11/14 14:29:23","新北市新店區北新路三段83號","121.541501666667","24.9815566666667","6500600","新店區"
"231004","899-TW","2017/11/14 14:29:25","新北市新店區中正路282號","121.538578333333","24.9738133333333","6500600","新店區"
"231037","AKT-0513","2017/11/14 14:29:21","新北市新店區安興路20號","121.514823333333","24.96592","6500600","新店區"
"235030","003-UY","2017/11/14 14:29:15","新北市中和區景新街70號","121.504278333333","24.99894","6500300","中和區"
"235028","005-UY","2017/11/14 14:29:29","新北市中和區南山路127巷6號","121.502526666667","24.9971916666667","6500300","中和區"
"235027","006-UY","2017/11/14 14:29:21","新北市中和區連城路203巷10弄21號","121.495123333333","24.9966733333333","6500300","中和區"
"235020","096-UM","2017/11/14 14:29:22","新北市中和區員山路514巷6號","121.47937","25.0097233333333","6500300","中和區"
"235003","097-UM","2017/11/14 14:29:15","新北市中和區秀峰街119巷8弄1號","121.519358333333","24.9890833333333","6500300","中和區"
"235029","098-UM","2017/11/14 14:29:30","新北市中和區永和路56號","121.499331666667","25.004125","6500300","中和區"
"235004","150-BY","2017/11/14 14:29:12","新北市中和區宜安路7號","121.513478333333","24.995475","6500300","中和區"
"235022","151-BY","2017/11/14 14:29:16","新北市中和區員山路36巷16-2號","121.485398333333","24.991385","6500300","中和區"
"235019","183-VK","2017/11/14 14:29:19","新北市中和區民生街13巷13號","121.471633333333","25.0054483333333","6500300","中和區"
"235002","185-VK","2017/11/14 14:29:26","新北市中和區立人街39號","121.52082","24.9941033333333","6500300","中和區"
"235013","186-VK","2017/11/14 14:29:24","新北市中和區景新街295巷29號","121.511201666667","24.99347","6500300","中和區"
"235031","255-BX","2017/11/14 14:29:12","新北市中和區連城路280號","121.484448333333","24.996315","6500300","中和區"
"235008","293-VK","2017/11/14 14:29:27","新北市中和區景安路213號","121.50447","24.9916333333333","6500300","中和區"
"235036","301-VK","2017/11/14 14:29:12","新北市中和區中山路二段3巷22弄7號","121.506253333333","25.0050916666667","6500300","中和區"
"235007","352-BY","2017/11/14 14:29:26","新北市中和區景平路352號","121.511345","24.9928316666667","6500300","中和區"
"235032","377-QA","2017/11/14 14:29:17","新北市中和區南山路59號","121.502101666667","24.9983133333333","6500300","中和區"
"235025","378-QA","2017/11/14 14:29:24","新北市中和區民安街12號","121.480663333333","25.000895","6500300","中和區"
"235035","269-TV","2017/11/14 14:29:19","新北市中和區連城路469巷79弄2號","121.483465","24.99397","6500300","中和區"
"235014","4979-A6","2017/11/14 14:29:11","新北市中和區中正路434號","121.491301666667","24.9941133333333","6500300","中和區"
"235033","4980-A6","2017/11/14 14:29:27","新北市中和區員山路36巷16-2號","121.485395","24.9913633333333","6500300","中和區"
"235006","551-UM","2017/11/14 14:29:26","新北市中和區中和路378巷14弄2-8號","121.511223333333","25.0017016666667","6500300","中和區"
"235034","558-UM","2017/11/14 14:29:28","新北市中和區連城路42號","121.498265","25.0020133333333","6500300","中和區"
"235009","565-BX","2017/11/14 14:29:29","","121.513041666667","24.989225","6500300","中和區"
"235018","640-BX","2017/11/14 14:29:12","新北市中和區國光街112巷10號","121.469943333333","25.0011566666667","6500300","中和區"
"235011","732-UM","2017/11/14 14:29:18","","121.507963333333","24.9926633333333","6500300","中和區"
"235010","733-UM","2017/11/14 14:29:24","","121.511125","24.9849366666667","6500300","中和區"
"235026","800-TS","2017/11/14 14:29:16","新北市中和區中山路二段488-2號","121.487343333333","25.0049","6500300","中和區"
"235021","801-TS","2017/11/14 14:29:21","新北市中和區中山路三段37巷35號","121.479593333333","25.0047816666667","6500300","中和區"
"235005","802-TS","2017/11/14 14:29:21","新北市中和區中和路228號","121.506575","24.99956","6500300","中和區"
"235016","805-TS","2017/11/14 14:29:14","新北市中和區華新街143巷68號","121.506255","24.979295","6500300","中和區"
"235012","896-TW","2017/11/14 14:29:26","新北市中和區忠孝街39-1號","121.511428333333","24.9836466666667","6500300","中和區"
"235017","900-TW","2017/11/14 14:29:18","新北市中和區民德路197-2號","121.468963333333","24.9985866666667","6500300","中和區"
"235024","911-UM","2017/11/14 14:29:30","新北市中和區新生街118巷14號","121.483015","25.0018016666667","6500300","中和區"
"235001","157-BY","2017/11/14 14:29:20","新北市中和區興南路一段69號","121.510243333333","24.98937","6500300","中和區"
"235001","AAC-213","2017/11/14 14:29:20","新北市中和區秀朗路三段10巷14弄11號","121.524793333333","24.996525","6500300","中和區"
"235023","AAC-215","2017/11/14 14:29:16","新北市中和區錦和路203巷5號","121.491148333333","24.990485","6500300","中和區"
"220016","013-TV","2017/11/14 14:29:17","新北市板橋區中山路二段531巷35號","121.482373333333","25.022815","6500100","板橋區"
"220013","072-UY","2017/11/14 14:29:29","新北市板橋區實踐路93巷93號","121.46742","25.0058366666667","6500100","板橋區"
"220034","073-UY","2017/11/14 14:29:21","新北市板橋區國光路184號","121.460986666667","25.01841","6500100","板橋區"
"220105","075-UY","2017/11/14 14:29:28","新北市板橋區江寧路三段131巷2號","121.473666666667","25.0333683333333","6500100","板橋區"
"220017","AAD-861","2017/11/14 14:29:31","","121.457361666667","25.0031483333333","6500100","板橋區"
"220039","120-SR","2017/11/14 14:29:22","新北市板橋區長江路一段46號","121.458741666667","25.0291333333333","6500100","板橋區"
"247021","893-R6","2017/11/14 14:29:32","新北市蘆洲區中正路510號","121.461633333333","25.0972016666667","6501400","蘆洲區"
"247011","546-UM","2017/11/14 14:29:24","新北市蘆洲區復興路154號","121.477323333333","25.08796","6501400","蘆洲區"
"247019","500-BY","2017/11/14 14:29:13","新北市蘆洲區水湳街281號","121.46946","25.092925","6501400","蘆洲區"
"247009","339-TH","2017/11/14 14:29:12","新北市蘆洲區信義路132-1號","121.479498333333","25.08283","6501400","蘆洲區"
"247001","337-TH","2017/11/14 14:29:16","新北市蘆洲區永樂街38巷37號","121.458151666667","25.0894516666667","6501400","蘆洲區"
"247003","335-TH","2017/11/14 14:29:31","新北市蘆洲區長安街220巷10號","121.458873333333","25.0848466666667","6501400","蘆洲區"
"247015","057-VK","2017/11/14 14:29:18","","121.466963333333","25.0845933333333","6501400","蘆洲區"
"247005","056-VK","2017/11/14 14:29:27","新北市蘆洲區長安街22巷31弄21號","121.463961666667","25.0805566666667","6501400","蘆洲區"
"247007","053-VK","2017/11/14 14:29:16","","121.477141666667","25.08111","6501400","蘆洲區"
"247013","007-UY","2017/11/14 14:29:18","新北市蘆洲區中正路15號","121.471325","25.0820866666667","6501400","蘆洲區"
"247023","002-UY","2017/11/14 14:29:22","新北市蘆洲區中正路263巷2號","121.467418333333","25.0874133333333","6501400","蘆洲區"
"247017","001-UY","2017/11/14 14:29:24","新北市蘆洲區復興路226號","121.479088333333","25.08934","6501400","蘆洲區"
"228004","212-TW","2017/11/14 14:29:16","新北市貢寮區雙玉里田寮洋街33-1號","121.932183333333","25.0135983333333","6502600","貢寮區"
"228005","828-UM","2017/11/14 14:29:16","新北市貢寮區美豐里巫里岸9-1號","121.901966666667","25.070135","6502600","貢寮區"
"208004","AAC-292","2017/11/14 14:29:24","新北市金山區重和里六股林口19號","121.604015","25.217955","6502700","金山區"
"207002","749-BX","2017/11/14 14:23:49","","121.623","25.1557666666667","6502800","萬里區"
"207001","662-BX","2017/11/14 14:29:08","新北市萬里區磺潭里清水9號","121.640435","25.1999116666667","6502800","萬里區"
"252005","AAC-283","2017/11/14 14:29:23","新北市三芝區埔坪里埔頭坑91-3號","121.50793","25.253325","6502100","三芝區"
"236065","105-UM","2017/11/14 14:29:17","新北市土城區永豐路209號","121.473885","24.977465","6501300","土城區"
"236041","107-UM","2017/11/14 14:29:16","新北市土城區裕民路67巷7號","121.449736666667","24.9880366666667","6501300","土城區"
"236075","166-UM","2017/11/14 14:29:18","新北市土城區大暖路61-2號","121.422096666667","24.9582283333333","6501300","土城區"
"236029","253-BX","2017/11/14 14:29:20","新北市土城區水源街83號","121.439563333333","24.976445","6501300","土城區"
"236025","269-VK","2017/11/14 14:29:19","新北市土城區承天路18號","121.439516666667","24.963435","6501300","土城區"
"236013","270-VK","2017/11/14 14:29:21","新北市土城區青雲路39巷7號","121.460318333333","24.9875533333333","6501300","土城區"
"236034","271-VK","2017/11/14 14:29:24","新北市土城區青雲路483巷13弄50號","121.46036","24.9746466666667","6501300","土城區"
"236017","401-BY","2017/11/14 14:29:16","新北市土城區永豐路202巷7號","121.466296666667","24.9833066666667","6501300","土城區"
"236006","498-BY","2017/11/14 14:29:13","新北市土城區城林路6巷80號","121.438735","24.9799616666667","6501300","土城區"
"236057","912-UM","2017/11/14 14:29:15","新北市土城區中央路四段438號","121.410748333333","24.951515","6501300","土城區"
"236045","913-UM","2017/11/14 14:29:20","新北市土城區明德路一段321號","121.459168333333","24.9770666666667","6501300","土城區"
"236061","915-UM","2017/11/14 14:29:13","新北市土城區延壽路111巷8號","121.468886666667","24.9937266666667","6501300","土城區"
"236054","AAC-216","2017/11/14 14:29:21","新北市土城區中華路二段107號","121.439191666667","24.977205","6501300","土城區"
"238016","308-TH","2017/11/14 13:28:00","新北市樹林區育德街76巷1號","121.388758333333","24.9683016666667","6500700","樹林區"
"221012","276-VK","2017/11/14 13:25:51","新北市汐止區汐萬路一段256巷3號","121.653458333333","25.0746183333333","6501100","汐止區"
"221032","280-BY","2017/11/14 14:29:25","新北市汐止區橫科路367巷26號","121.623503333333","25.0483033333333","6501100","汐止區"
"220027","145-BY","2017/11/14 14:29:27","新北市板橋區建國街5號","121.457265","25.0169066666667","6500100","板橋區"
"220028","200-UY","2017/11/14 14:29:30","新北市板橋區大觀路二段37巷318號","121.449661666667","25.002225","6500100","板橋區"
"220030","610-BX","2017/11/14 14:29:13","新北市板橋區金門街206-4號","121.43246","24.9901866666667","6500100","板橋區"
"220004","276-BY","2017/11/14 14:29:24","新北市板橋區國慶路49巷19弄15號","121.458861666667","24.996075","6500100","板橋區"
"220020","277-BY","2017/11/14 14:29:24","新北市板橋區金門街253巷17弄5號","121.43335","24.9888666666667","6500100","板橋區"
"220050","280-UM","2017/11/14 14:29:30","新北市板橋區縣民大道三段133巷2號","121.47763","25.0233916666667","6500100","板橋區"
"220019","283-VK","2017/11/14 14:29:15","","121.45953","25.001695","6500100","板橋區"
"220043","285-UM","2017/11/14 14:29:19","新北市板橋區吳鳳路50巷7號","121.4679","25.0305016666667","6500100","板橋區"
"220001","285-VK","2017/11/14 14:29:29","","121.476725","25.0211183333333","6500100","板橋區"
"220029","287-VK","2017/11/14 14:29:15","新北市板橋區大觀路一段75巷10號","121.447636666667","25.0044","6500100","板橋區"
"220009","295-UM","2017/11/14 14:29:21","新北市板橋區中山路一段265巷36弄2號","121.469126666667","25.015015","6500100","板橋區"
"220032","296-UM","2017/11/14 14:29:23","新北市板橋區滿平街84巷100弄13號","121.426015","24.9861966666667","6500100","板橋區"
"220023","297-UM","2017/11/14 14:29:11","新北市板橋區中正路289巷23號","121.45474","25.019035","6500100","板橋區"
"220041","299-UM","2017/11/14 14:29:26","新北市板橋區文化路二段17號","121.468573333333","25.0245366666667","6500100","板橋區"
"220010","303-R5","2017/11/14 14:29:20","新北市板橋區三民路二段181巷4弄1號","121.47988","25.014315","6500100","板橋區"
"220047","317-R6","2017/11/14 14:29:26","新北市板橋區民生路三段299巷18號","121.462726666667","25.0301783333333","6500100","板橋區"
"220012","486-VK","2017/11/14 14:29:16","","121.459188333333","25.0071383333333","6500100","板橋區"
"220037","491-VK","2017/11/14 14:29:24","新北市板橋區雙十路一段18號","121.478118333333","25.0242983333333","6500100","板橋區"
"220104","560-BX","2017/11/14 14:29:27","新北市板橋區新生街98巷20號","121.458991666667","25.0215783333333","6500100","板橋區"
"220052","561-BX","2017/11/14 14:29:31","新北市板橋區文化路一段270巷2號","121.467406666667","25.0205816666667","6500100","板橋區"
"220001","568-UM","2017/11/14 14:29:18","新北市板橋區大觀路二段22巷38-2號","121.44467","25.0037433333333","6500100","板橋區"
"220011","609-BX","2017/11/14 14:29:25","新北市板橋區三民路二段142號","121.479156666667","25.0155283333333","6500100","板橋區"
"220040","637-BX","2017/11/14 14:29:17","新北市板橋區文聖街135巷23號","121.478943333333","25.02892","6500100","板橋區"
"220005","686-BX","2017/11/14 14:29:11","新北市板橋區和平路153號","121.46339","24.9956516666667","6500100","板橋區"
"220025","687-BX","2017/11/14 14:29:29","新北市板橋區僑中二街102巷2號","121.446151666667","25.008305","6500100","板橋區"
"220042","689-BX","2017/11/14 14:29:28","新北市板橋區新海路328號","121.460598333333","25.0240216666667","6500100","板橋區"
"220002","741-BX","2017/11/14 14:29:14","新北市板橋區光明街86號","121.461818333333","25.0027916666667","6500100","板橋區"
"220003","827-TW","2017/11/14 14:29:14","新北市板橋區重慶路278巷1號","121.462781666667","24.99966","6500100","板橋區"
"220014","829-TW","2017/11/14 14:29:25","新北市板橋區長安街138巷12號","121.4729","25.0092083333333","6500100","板橋區"
"220051","830-TW","2017/11/14 14:29:23","新北市板橋區文化路二段410巷2弄3號","121.474138333333","25.03093","6500100","板橋區"
"220045","831-TW","2017/11/14 14:29:26","新北市板橋區民生路二段216號","121.469431666667","25.021645","6500100","板橋區"
"220038","833-TW","2017/11/14 14:29:17","新北市板橋區文化路一段49號","121.460551666667","25.0133266666667","6500100","板橋區"
"220022","895-R6","2017/11/14 14:29:16","新北市板橋區大東街12號","121.456553333333","25.0092083333333","6500100","板橋區"
"220021","985-R7","2017/11/14 14:29:20","新北市板橋區瑞安街53號","121.455401666667","25.0222","6500100","板橋區"
"220046","AAC-210","2017/11/14 14:29:23","新北市板橋區漢生西路147號","121.463028333333","25.021875","6500100","板橋區"
"220018","AAC-253","2017/11/14 14:29:30","","121.459743333333","25.0052716666667","6500100","板橋區"
