"lineid","car","time","location","longitude","latitude","cityid","cityname"
"231046","278-BY","2017/11/14 16:19:15","新北市新店區灣潭路3-3號","121.538233333333","24.950805","6500600","新店區"
"231018","719-UY","2017/11/14 16:19:16","新北市新店區中正路700巷54號","121.535745","24.9918833333333","6500600","新店區"
"241011","013-R5","2017/11/14 16:19:21","新北市三重區龍濱路285號","121.50113","25.0734883333333","6500200","三重區"
"241028","022-UY","2017/11/14 16:19:24","新北市三重區正義南路169號","121.498985","25.0573816666667","6500200","三重區"
"241008","059-VK","2017/11/14 16:19:26","新北市三重區永福街112號","121.479013333333","25.0754216666667","6500200","三重區"
"241009","060-VK","2017/11/14 16:19:16","","121.487363333333","25.0822116666667","6500200","三重區"
"241031","061-VK","2017/11/14 16:19:28","新北市三重區重新路四段146號","121.486365","25.05598","6500200","三重區"
"241015","062-VK","2017/11/14 16:19:21","新北市三重區福德北路79號","121.501968333333","25.065895","6500200","三重區"
"241017","063-VK","2017/11/14 16:19:16","新北市三重區大同北路91號","121.494753333333","25.0636733333333","6500200","三重區"
"241026","066-VK","2017/11/14 16:19:15","新北市三重區正義南路43-1號","121.4982","25.0608283333333","6500200","三重區"
"241002","090-VK","2017/11/14 16:19:31","新北市三重區仁義街101巷26號","121.499038333333","25.079915","6500200","三重區"
"241003","091-VK","2017/11/14 16:19:18","新北市三重區仁義街220巷29號","121.494311666667","25.08359","6500200","三重區"
"241005","262-UM","2017/11/14 16:19:26","新北市三重區溪尾街300-2號","121.487458333333","25.083725","6500200","三重區"
"241024","265-UM","2017/11/14 16:19:19","新北市三重區中正北路316號","121.479203333333","25.069175","6500200","三重區"
"241016","266-UM","2017/11/14 16:19:16","新北市三重區大仁街86號","121.492831666667","25.065425","6500200","三重區"
"241022","267-UM","2017/11/14 16:19:17","新北市三重區新北大道一段7號","121.489583333333","25.061585","6500200","三重區"
"241018","268-UM","2017/11/14 16:19:27","新北市三重區重陽路三段5巷16號","121.48954","25.0660483333333","6500200","三重區"
"241013","270-UM","2017/11/14 16:19:27","新北市三重區龍門路28-1號","121.495498333333","25.0722466666667","6500200","三重區"
"241025","271-UM","2017/11/14 16:19:15","新北市三重區中正北路560巷100弄2號","121.472561666667","25.0682333333333","6500200","三重區"
"241020","413-TH","2017/11/14 16:19:21","新北市三重區中正北路173號","121.477951666667","25.0693733333333","6500200","三重區"
"241004","475-VK","2017/11/14 16:19:15","新北市三重區自強路五段80號","121.496333333333","25.0830216666667","6500200","三重區"
"241019","478-VK","2017/11/14 16:19:30","新北市三重區重陽路三段97號","121.49029","25.0679833333333","6500200","三重區"
"241014","543-UM","2017/11/14 16:19:14","新北市三重區河邊北街100巷27號","121.502728333333","25.07029","6500200","三重區"
"241023","545-UM","2017/11/14 16:19:09","新北市三重區忠孝路二段138號","121.482538333333","25.0682816666667","6500200","三重區"
"241001","547-UM","2017/11/14 16:19:19","新北市三重區自強路四段84號","121.490833333333","25.0791366666667","6500200","三重區"
"241006","AAD-863","2017/11/14 16:19:27","新北市三重區永福街46巷37號","121.482266666667","25.077375","6500200","三重區"
"241007","887-TS","2017/11/14 16:19:27","新北市三重區三和路四段163巷64號","121.486618333333","25.07965","6500200","三重區"
"241012","941-UM","2017/11/14 16:19:10","新北市三重區龍門路290號","121.502143333333","25.07428","6500200","三重區"
"241029","942-UM","2017/11/14 16:19:25","新北市三重區重安街139號","121.495435","25.0546683333333","6500200","三重區"
"241033","AAC-255","2017/11/14 16:19:25","新北市三重區重新路五段428號","121.475208333333","25.047495","6500200","三重區"
"235064","005-UY","2017/11/14 15:51:49","新北市中和區員山路36巷16-3號","121.48516","24.9913433333333","6500300","中和區"
"235067","255-BX","2017/11/14 16:16:21","新北市中和區員山路36巷13號","121.484375","24.9912633333333","6500300","中和區"
"235026","800-TS","2017/11/14 16:19:16","新北市中和區建八路127號","121.489861666667","24.9987283333333","6500300","中和區"
"228003","828-UM","2017/11/14 15:09:25","新北市貢寮區貢寮里朝陽街1-2號","121.912335","25.02122","6502600","貢寮區"
"224006","676-BX","2017/11/14 16:19:16","新北市瑞芳區中山路67號","121.804125","25.1061933333333","6501200","瑞芳區"
"224007","273-VK","2017/11/14 16:19:27","新北市瑞芳區大埔路276號","121.759881666667","25.10258","6501200","瑞芳區"
"224005","271-BY","2017/11/14 16:19:09","新北市瑞芳區阿美家園53號","121.820111666667","25.11737","6501200","瑞芳區"
"227009","642-TC","2017/11/14 16:19:22","新北市雙溪區三港里雙澳路78號","121.883718333333","25.0538816666667","6502500","雙溪區"
"227003","400-TW","2017/11/14 16:19:08","新北市雙溪區上林里內平林80號","121.82833","25.0279666666667","6502500","雙溪區"
"251008","181-VK","2017/11/14 16:19:10","新北市淡水區中正東路二段177號","121.459633333333","25.1446833333333","6501000","淡水區"
"238016","308-TH","2017/11/14 13:28:00","新北市樹林區育德街76巷1號","121.388758333333","24.9683016666667","6500700","樹林區"
"221012","276-VK","2017/11/14 13:25:51","新北市汐止區汐萬路一段256巷3號","121.653458333333","25.0746183333333","6501100","汐止區"
