"lineid","car","time","location","longitude","latitude","cityid","cityname"
"249005","172-UM","2017/11/14 16:59:04","新北市八里區渡船頭6-6號","121.431988333333","25.15512","6502300","八里區"
"249001","173-UM","2017/11/14 16:59:28","新北市八里區商港路48號","121.395218333333","25.14487","6502300","八里區"
"249004","303-UY","2017/11/14 16:59:16","新北市八里區挖子尾街62號","121.415303333333","25.1663283333333","6502300","八里區"
"249002","305-UY","2017/11/14 16:59:21","新北市八里區牛寮埔4號","121.433701666667","25.1423316666667","6502300","八里區"
"249003","593-UM","2017/11/14 16:59:22","新北市八里區中山路二段370號","121.40099","25.1481283333333","6502300","八里區"
"244023","483-VK","2017/11/14 16:59:24","","121.405098333333","25.090835","6501700","林口區"
"244007","656-BX","2017/11/14 16:59:09","新北市林口區台電新村33號","121.386406666667","25.0865916666667","6501700","林口區"
"231046","278-BY","2017/11/14 16:59:15","新北市新店區永業路81巷32號","121.530171666667","24.9481","6500600","新店區"
"241011","013-R5","2017/11/14 16:59:26","新北市三重區仁愛街55巷150號","121.499448333333","25.072965","6500200","三重區"
"241028","022-UY","2017/11/14 16:59:16","新北市三重區中正南路40號","121.4938","25.0601733333333","6500200","三重區"
"241008","059-VK","2017/11/14 16:59:26","新北市三重區永福街177巷2號","121.478818333333","25.07513","6500200","三重區"
"241009","060-VK","2017/11/14 16:59:16","新北市三重區仁美街108巷3號","121.485445","25.0807666666667","6500200","三重區"
"241031","061-VK","2017/11/14 16:59:28","新北市三重區三寧街50號","121.49023","25.0604066666667","6500200","三重區"
"241015","062-VK","2017/11/14 16:59:21","新北市三重區三和路二段2號","121.50152","25.0663766666667","6500200","三重區"
"241017","063-VK","2017/11/14 16:59:16","新北市三重區大仁街3巷41號","121.492783333333","25.0640366666667","6500200","三重區"
"241026","066-VK","2017/11/14 16:59:15","新北市三重區文化南路42號","121.50032","25.0602516666667","6500200","三重區"
"241002","090-VK","2017/11/14 16:59:11","新北市三重區仁義街101巷40號","121.499216666667","25.0805683333333","6500200","三重區"
"241003","091-VK","2017/11/14 16:59:18","新北市三重區集賢路87-1號","121.493975","25.0870266666667","6500200","三重區"
"241005","262-UM","2017/11/14 16:59:26","新北市三重區碧華街50號","121.483463333333","25.0812483333333","6500200","三重區"
"241024","265-UM","2017/11/14 16:59:19","新北市三重區大勇街82巷26弄19-2號","121.478645","25.0721833333333","6500200","三重區"
"241016","266-UM","2017/11/14 16:59:16","新北市三重區大同北路121巷3號","121.493793333333","25.0641833333333","6500200","三重區"
"241022","267-UM","2017/11/14 16:59:17","新北市三重區貴陽街42號","121.484215","25.0626516666667","6500200","三重區"
"241018","268-UM","2017/11/14 16:59:27","新北市三重區六張街126巷2弄32號","121.492723333333","25.0696133333333","6500200","三重區"
"241032","269-UM","2017/11/14 16:59:23","新北市三重區三民街7號","121.48573","25.0606766666667","6500200","三重區"
"241013","270-UM","2017/11/14 16:59:27","新北市三重區仁和街54號","121.497146666667","25.0738266666667","6500200","三重區"
"241025","271-UM","2017/11/14 16:59:29","新北市三重區中正北路508巷13號","121.472651666667","25.07103","6500200","三重區"
"241020","413-TH","2017/11/14 16:59:10","新北市三重區後竹圍街175巷18號","121.485785","25.07254","6500200","三重區"
"241004","475-VK","2017/11/14 16:59:15","新北市三重區五華街98巷2號","121.492541666667","25.082185","6500200","三重區"
"241019","478-VK","2017/11/14 16:59:10","新北市三重區自強路二段74巷21號","121.487951666667","25.0698716666667","6500200","三重區"
"241030","480-VK","2017/11/14 16:59:21","新北市三重區昌隆街63號","121.490963333333","25.0510433333333","6500200","三重區"
"241014","543-UM","2017/11/14 16:59:14","新北市三重區介壽路189號","121.501448333333","25.07083","6500200","三重區"
"241023","545-UM","2017/11/14 16:59:29","新北市三重區忠孝路三段84巷1號","121.480203333333","25.0643383333333","6500200","三重區"
"241001","547-UM","2017/11/14 16:59:19","新北市三重區溪尾街27巷38號","121.493631666667","25.0761333333333","6500200","三重區"
"241006","AAD-863","2017/11/14 16:59:27","新北市三重區車路頭街131巷28號","121.485685","25.0758733333333","6500200","三重區"
"241007","887-TS","2017/11/14 16:59:27","新北市三重區溪尾街197號","121.488645","25.0806633333333","6500200","三重區"
"241012","941-UM","2017/11/14 16:59:30","新北市三重區仁和街86號","121.49934","25.0746033333333","6500200","三重區"
"241029","942-UM","2017/11/14 16:59:25","新北市三重區重安街111號","121.494518333333","25.0550316666667","6500200","三重區"
"241033","AAC-255","2017/11/14 16:59:25","新北市三重區中興北街271號","121.469123333333","25.0606133333333","6500200","三重區"
"235064","005-UY","2017/11/14 15:51:49","新北市中和區員山路36巷16-3號","121.48516","24.9913433333333","6500300","中和區"
"235067","255-BX","2017/11/14 16:16:21","新北市中和區員山路36巷13號","121.484375","24.9912633333333","6500300","中和區"
"247020","500-BY","2017/11/14 16:59:23","新北市蘆洲區民族路422巷35-1號","121.473551666667","25.0937316666667","6501400","蘆洲區"
"247009","339-TH","2017/11/14 16:59:18","新北市蘆洲區三民路26巷75號","121.478886666667","25.0832866666667","6501400","蘆洲區"
"247002","337-TH","2017/11/14 16:59:27","新北市蘆洲區永平街20號","121.459113333333","25.0907033333333","6501400","蘆洲區"
"247004","335-TH","2017/11/14 16:59:26","新北市蘆洲區長安街193巷41號","121.459211666667","25.0810766666667","6501400","蘆洲區"
"247006","056-VK","2017/11/14 16:59:26","新北市蘆洲區長安街111巷32弄2號","121.460518333333","25.0802166666667","6501400","蘆洲區"
"247008","053-VK","2017/11/14 16:59:25","新北市蘆洲區信義路59巷2號","121.47551","25.0799516666667","6501400","蘆洲區"
"247014","007-UY","2017/11/14 16:59:19","新北市蘆洲區中央路20巷14號","121.474053333333","25.082815","6501400","蘆洲區"
"247024","002-UY","2017/11/14 16:59:15","新北市蘆洲區長興路202號","121.460526666667","25.0874683333333","6501400","蘆洲區"
"247018","001-UY","2017/11/14 16:59:16","新北市蘆洲區民族路304號","121.477573333333","25.0899233333333","6501400","蘆洲區"
"228002","663-BX","2017/11/14 16:59:20","新北市貢寮區貢寮里朝陽街100號","121.90844","25.0222233333333","6502600","貢寮區"
"228003","828-UM","2017/11/14 16:59:26","新北市貢寮區福隆里興隆街24號","121.944561666667","25.0166583333333","6502600","貢寮區"
"224010","AGQ-8101","2017/11/14 08:41:14","新北市瑞芳區明燈路二段44-1號","121.809498333333","25.1082316666667","6501200","瑞芳區"
"224006","676-BX","2017/11/14 16:59:08","新北市瑞芳區大寮路356-1號","121.784595","25.103265","6501200","瑞芳區"
"224009","285-BY","2017/11/14 16:59:20","新北市瑞芳區濱二路31號","121.83383","25.1115366666667","6501200","瑞芳區"
"224008","275-VK","2017/11/14 16:59:22","新北市瑞芳區蛇子形路6號","121.825531666667","25.1066616666667","6501200","瑞芳區"
"224007","273-VK","2017/11/14 16:59:27","","121.763715","25.10337","6501200","瑞芳區"
"224005","271-BY","2017/11/14 16:59:29","新北市瑞芳區南雅路21號","121.888621666667","25.120485","6501200","瑞芳區"
"227009","642-TC","2017/11/14 16:59:22","新北市雙溪區牡丹里聖南14號","121.8583","25.05283","6502500","雙溪區"
"227003","400-TW","2017/11/14 16:59:29","新北市雙溪區長源里柑腳37號","121.803761666667","25.0135366666667","6502500","雙溪區"
"251005","010-UM","2017/11/14 16:59:13","新北市淡水區中正路二段31號","121.419123333333","25.1819833333333","6501000","淡水區"
"251002","012-UM","2017/11/14 16:59:12","新北市淡水區中正路二段31號","121.41919","25.181805","6501000","淡水區"
"251014","180-VK","2017/11/14 16:59:25","新北市淡水區淡金路四段472巷24號","121.452945","25.223985","6501000","淡水區"
"251008","181-VK","2017/11/14 16:59:10","新北市淡水區樹梅坑9號","121.47273","25.1426983333333","6501000","淡水區"
"251010","413-VK","2017/11/14 16:59:16","新北市淡水區新市二路三段20號","121.431893333333","25.1934866666667","6501000","淡水區"
"251012","441-VK","2017/11/14 16:59:25","","121.420756666667","25.1808433333333","6501000","淡水區"
"251016","442-VK","2017/11/14 16:59:28","新北市淡水區瓦坑3號","121.477575","25.180785","6501000","淡水區"
"251009","575-R6","2017/11/14 16:59:13","新北市淡水區中正路二段31號","121.419233333333","25.1817133333333","6501000","淡水區"
"251007","577-R6","2017/11/14 16:59:22","新北市淡水區中山路27號","121.444116666667","25.1700983333333","6501000","淡水區"
"251011","650-BX","2017/11/14 16:59:30","新北市淡水區中山路42號","121.444256666667","25.1699983333333","6501000","淡水區"
"252002","178-VK","2017/11/14 16:59:28","新北市三芝區忠孝街173號","121.505415","25.261385","6502100","三芝區"
"252001","292-VK","2017/11/14 16:59:14","新北市三芝區淡金路二段89號","121.503948333333","25.2608383333333","6502100","三芝區"
"242032","AAC-296","2017/11/14 16:59:23","新北市新莊區新泰路357巷3弄57號","121.442295","25.0396183333333","6500500","新莊區"
"242051","751-BX","2017/11/14 16:59:08","新北市新莊區新泰路357巷3弄57號","121.442135","25.0392416666667","6500500","新莊區"
"242023","613-BX","2017/11/14 16:59:08","新北市新莊區新泰路357巷3弄57號","121.44223","25.0392066666667","6500500","新莊區"
"242027","612-BX","2017/11/14 16:59:25","新北市新莊區新泰路357巷3弄57號","121.442245","25.039235","6500500","新莊區"
"242039","566-BX","2017/11/14 16:59:20","新北市新莊區新泰路357巷3弄57號","121.44212","25.0391916666667","6500500","新莊區"
"242044","497-BY","2017/11/14 16:59:11","新北市新莊區新泰路357巷3弄57號","121.44221","25.039525","6500500","新莊區"
"242048","441-UM","2017/11/14 16:59:24","新北市新莊區三和路12-21號","121.442206666667","25.0380566666667","6500500","新莊區"
"242054","440-UM","2017/11/14 16:59:18","新北市新莊區新泰路357巷3弄57號","121.442035","25.0394366666667","6500500","新莊區"
"242034","415-TV","2017/11/14 16:59:30","新北市新莊區新泰路357巷3弄57號","121.442045","25.0393016666667","6500500","新莊區"
"242042","400-BY","2017/11/14 16:59:14","新北市新莊區新泰路357巷3弄57號","121.442378333333","25.039755","6500500","新莊區"
"242061","362-BY","2017/11/14 16:59:20","新北市新莊區新泰路255巷83號","121.442313333333","25.0388616666667","6500500","新莊區"
"242037","133-UY","2017/11/14 16:59:14","新北市新莊區新泰路255巷83號","121.442128333333","25.0388816666667","6500500","新莊區"
"242013","346-TH","2017/11/14 16:58:54","新北市新莊區三和路12-14號","121.4419","25.03725","6500500","新莊區"
"242017","347-TH","2017/11/14 00:14:25","新北市新莊區三和路12-16號","121.44201","25.0373866666667","6500500","新莊區"
"242019","348-TH","2017/11/14 16:59:26","新北市新莊區新泰路357巷3弄57號","121.44206","25.039515","6500500","新莊區"
"242056","349-TH","2017/11/14 16:59:29","新北市新莊區三和路12-15號","121.441928333333","25.03736","6500500","新莊區"
"242011","351-TH","2017/11/14 16:59:20","新北市新莊區新泰路357巷3弄57號","121.44186","25.03956","6500500","新莊區"
"238018","571-TV","2017/11/14 16:59:18","新北市樹林區育德街78-1號","121.387793333333","24.968215","6500700","樹林區"
"238021","KEA-2217","2017/11/14 16:59:12","新北市樹林區育德街78-1號","121.387911666667","24.96804","6500700","樹林區"
"238016","308-TH","2017/11/14 13:28:00","新北市樹林區育德街76巷1號","121.388758333333","24.9683016666667","6500700","樹林區"
"238025","303-VK","2017/11/14 16:59:26","新北市樹林區中山路三段204號","121.38735","24.9683083333333","6500700","樹林區"
"238020","268-VK","2017/11/14 16:59:25","新北市樹林區八德街648號","121.39651","24.9691116666667","6500700","樹林區"
"239007","AAC-297","2017/11/14 16:59:16","新北市鶯歌區尖山路101巷18號","121.348293333333","24.9409266666667","6500800","鶯歌區"
"239006","891-R6","2017/11/14 16:59:24","新北市鶯歌區二甲路2-6號","121.340348333333","24.937135","6500800","鶯歌區"
"239008","527-UM","2017/11/14 16:59:12","新北市鶯歌區尖山路101巷16-2號","121.347546666667","24.9413983333333","6500800","鶯歌區"
"239005","526-UM","2017/11/14 16:59:12","新北市鶯歌區文化路322-1號","121.352835","24.9459633333333","6500800","鶯歌區"
"239001","417-VK","2017/11/14 16:59:14","新北市鶯歌區二甲路13號","121.344146666667","24.93546","6500800","鶯歌區"
"239003","360-BY","2017/11/14 16:59:16","新北市鶯歌區文化路324巷1-35號","121.352568333333","24.945655","6500800","鶯歌區"
"239002","359-BY","2017/11/14 16:59:19","新北市鶯歌區文化路667號","121.352988333333","24.9461783333333","6500800","鶯歌區"
"239004","193-VK","2017/11/14 16:59:20","新北市鶯歌區二甲路11-3號","121.344593333333","24.9364733333333","6500800","鶯歌區"
"221012","276-VK","2017/11/14 13:25:51","新北市汐止區汐萬路一段256巷3號","121.653458333333","25.0746183333333","6501100","汐止區"
"242005","280-VK","2017/11/14 16:59:25","新北市新莊區三和路12-21號","121.442003333333","25.03829","6500500","新莊區"
