"lineid","car","time","location","longitude","latitude","cityid","cityname"
"234046","148-BY","2017/11/14 18:39:27","新北市永和區林森路101巷4號","121.523185","25.0035433333333","6500400","永和區"
"234013","149-BY","2017/11/14 18:39:19","新北市永和區環河東路二段30號","121.522695","25.0127016666667","6500400","永和區"
"234081","298-R6","2017/11/14 18:39:20","新北市永和區林森路81號","121.523883333333","25.0038716666667","6500400","永和區"
"234038","336-UY","2017/11/14 18:39:13","新北市永和區福和路1號","121.52651","25.0100616666667","6500400","永和區"
"234064","337-UY","2017/11/14 18:39:16","新北市永和區福和路1號","121.526365","25.00992","6500400","永和區"
"234086","338-UY","2017/11/14 18:39:15","新北市永和區安樂路208-1號","121.515098333333","25.0018866666667","6500400","永和區"
"234070","552-UM","2017/11/14 18:39:23","新北市永和區福和路1號","121.525728333333","25.0093383333333","6500400","永和區"
"234017","745-BX","2017/11/14 18:39:16","新北市永和區福和路1號","121.526491666667","25.0097483333333","6500400","永和區"
"234030","746-BX","2017/11/14 18:39:30","新北市永和區得和路328號","121.523318333333","24.9994566666667","6500400","永和區"
"234042","862-TW","2017/11/14 18:39:24","新北市永和區永貞路300號","121.512165","25.0046433333333","6500400","永和區"
"234050","863-TW","2017/11/14 18:39:19","新北市永和區保安路2號","121.510816666667","25.0174366666667","6500400","永和區"
"234026","9381-KE","2017/11/14 18:39:29","新北市永和區永貞路417巷18號","121.506276666667","25.0091183333333","6500400","永和區"
"234011","9373-KE","2017/11/14 18:39:22","新北市永和區文化路9巷22弄28號","121.514598333333","25.0146083333333","6500400","永和區"
"249005","172-UM","2017/11/14 18:39:28","新北市八里區中華路三段198號","121.388656666667","25.1257583333333","6502300","八里區"
"249001","173-UM","2017/11/14 18:39:27","新北市八里區龍米路一段360號","121.451553333333","25.1313583333333","6502300","八里區"
"249004","303-UY","2017/11/14 18:39:15","新北市八里區中山路一段11號","121.422346666667","25.1590116666667","6502300","八里區"
"248014","025-BX","2017/11/14 18:39:22","新北市五股區明德路7巷39號","121.434605","25.0708","6501500","五股區"
"248016","026-BX","2017/11/14 18:39:11","新北市五股區凌雲路一段149巷42號","121.448568333333","25.10095","6501500","五股區"
"248008","095-VK","2017/11/14 18:39:20","新北市五股區中興路一段152號","121.464656666667","25.0738933333333","6501500","五股區"
"248020","225-UY","2017/11/14 18:38:20","新北市五股區孝義路102號","121.445323333333","25.1196466666667","6501500","五股區"
"248012","247-BX","2017/11/14 18:39:08","新北市五股區御史路92巷2弄1號","121.439921666667","25.09509","6501500","五股區"
"248010","272-BY","2017/11/14 18:39:20","新北市五股區明德路24號","121.4328","25.0714533333333","6501500","五股區"
"248004","677-BX","2017/11/14 18:39:29","新北市五股區民義路一段185-1號","121.431078333333","25.0885266666667","6501500","五股區"
"248002","678-BX","2017/11/14 18:39:25","新北市五股區西雲路212號","121.44795","25.09575","6501500","五股區"
"234077","969-R7","2017/11/14 18:39:15","新北市永和區中正路398號","121.517573333333","25.0016066666667","6500400","永和區"
"234067","AAC-212","2017/11/14 18:39:11","新北市永和區永貞路204號","121.515698333333","25.00408","6500400","永和區"
"234003","AAC-295","2017/11/14 18:39:09","新北市永和區福和路1號","121.52644","25.0098733333333","6500400","永和區"
"232011","375-UM","2017/11/14 18:19:40","新北市坪林區坪雙路一段43號","121.711755","24.9424066666667","6502000","坪林區"
"244013","069-UM","2017/11/14 18:39:25","新北市林口區文化一路二段106號","121.382051666667","25.0791216666667","6501700","林口區"
"244019","403-UM","2017/11/14 18:39:22","新北市林口區忠孝路554號","121.373996666667","25.0680833333333","6501700","林口區"
"244025","742-UY","2017/11/14 18:39:20","新北市林口區南勢五街22號","121.356666666667","25.0752816666667","6501700","林口區"
"244009","410-SL","2017/11/14 18:39:22","新北市林口區民生路102-1號","121.377296666667","25.0881566666667","6501700","林口區"
"244023","483-VK","2017/11/14 18:39:24","新北市林口區信義路180號","121.378776666667","25.080285","6501700","林口區"
"244017","485-VK","2017/11/14 18:39:21","新北市林口區文化二路66-5號","121.36573","25.0690216666667","6501700","林口區"
"244007","656-BX","2017/11/14 18:39:29","新北市林口區後湖23-1號","121.387586666667","25.0991416666667","6501700","林口區"
"244011","701-TV","2017/11/14 18:39:12","新北市林口區興林路17巷3弄1號","121.390073333333","25.0770666666667","6501700","林口區"
"244021","838-TS","2017/11/14 18:39:21","新北市林口區工六路100號","121.401185","25.0766333333333","6501700","林口區"
"243012","AAD-798","2017/11/14 18:39:15","新北市泰山區泰林路二段211號","121.432986666667","25.06165","6501600","泰山區"
"243015","380-SR","2017/11/14 18:39:16","新北市泰山區黎明路25號","121.4223","25.0608066666667","6501600","泰山區"
"243013","646-TV","2017/11/14 18:39:29","新北市泰山區明志路三段206巷3號","121.42331","25.03791","6501600","泰山區"
"222003","436-BY","2017/11/14 18:39:23","新北市深坑區翠谷街37巷1號","121.626491666667","25.0094033333333","6501800","深坑區"
"222002","659-BX","2017/11/14 18:39:29","新北市深坑區文山路一段62巷7號","121.622575","25.000895","6501800","深坑區"
"231060","001-UM","2017/11/14 18:39:17","新北市新店區安華路28-1號","121.51943","24.960825","6500600","新店區"
"231041","002-UM","2017/11/14 18:39:13","新北市新店區安華路28-1號","121.519565","24.96086","6500600","新店區"
"231056","0293-UT","2017/11/14 18:39:24","新北市新店區自立街23號","121.53764","24.9794616666667","6500600","新店區"
"231059","046-UY","2017/11/14 18:39:31","新北市新店區安華路28-1號","121.519508333333","24.9609716666667","6500600","新店區"
"231061","047-UY","2017/11/14 18:39:18","新北市新店區安華路28-1號","121.518926666667","24.9610216666667","6500600","新店區"
"231048","108-UY","2017/11/14 18:39:20","新北市新店區環河路29巷1號","121.536723333333","24.961265","6500600","新店區"
"231053","187-VK","2017/11/14 18:39:27","新北市新店區新烏路一段58-2號","121.546023333333","24.9465283333333","6500600","新店區"
"231050","KEA-2219","2017/11/14 18:39:30","新北市新店區安華路28-1號","121.519968333333","24.9612483333333","6500600","新店區"
"231057","256-BX","2017/11/14 18:39:22","新北市新店區新烏路一段215號","121.548768333333","24.9316166666667","6500600","新店區"
"231046","278-BY","2017/11/14 18:39:15","新北市新店區直潭二街1號","121.535578333333","24.943185","6500600","新店區"
"231054","AAD-862","2017/11/14 18:39:14","新北市新店區安華路28-1號","121.519575","24.9613316666667","6500600","新店區"
"231058","3712-VJ","2017/11/14 18:39:17","新北市新店區新店路9號","121.540421666667","24.9529033333333","6500600","新店區"
"231055","4716-K9","2017/11/14 18:39:27","新北市新店區華興街38巷5號","121.537061666667","24.9692133333333","6500600","新店區"
"231067","4772-VM","2017/11/14 18:39:27","新北市新店區安華路28-1號","121.51918","24.960595","6500600","新店區"
"231065","512-UM","2017/11/14 18:39:29","新北市新店區安華路28-1號","121.519288333333","24.96128","6500600","新店區"
"231064","515-UM","2017/11/14 18:39:17","新北市新店區安華路28-1號","121.51947","24.96119","6500600","新店區"
"231045","617-UM","2017/11/14 18:39:27","新北市新店區安華路28-1號","121.519338333333","24.9608933333333","6500600","新店區"
"231040","619-UM","2017/11/14 18:39:16","新北市新店區安華路28-1號","121.519345","24.9607966666667","6500600","新店區"
"231042","641-BX","2017/11/14 18:39:17","新北市新店區安華路28-1號","121.519513333333","24.9607316666667","6500600","新店區"
"231063","645-TV","2017/11/14 18:39:20","新北市新店區安華路28-1號","121.519208333333","24.960805","6500600","新店區"
"231049","719-UM","2017/11/14 18:39:30","新北市新店區安康路一段146號","121.526438333333","24.9628866666667","6500600","新店區"
"231051","719-UY","2017/11/14 18:39:13","新北市新店區安康路一段355號","121.519875","24.9633866666667","6500600","新店區"
"231062","720-UM","2017/11/14 18:39:30","新北市新店區安華路28-1號","121.519015","24.961265","6500600","新店區"
"231044","897-TW","2017/11/14 18:39:27","新北市新店區北新路二段2號","121.542563333333","24.9706066666667","6500600","新店區"
"231043","899-TW","2017/11/14 18:39:30","新北市新店區安華路28-1號","121.51913","24.960965","6500600","新店區"
"231066","AKT-0513","2017/11/14 18:39:26","新北市新店區安華路1-1號","121.519386666667","24.9604066666667","6500600","新店區"
"235066","003-UY","2017/11/14 18:39:15","新北市中和區水源路31號","121.504188333333","25.0035733333333","6500300","中和區"
"235064","005-UY","2017/11/14 18:39:21","新北市中和區連城路115號","121.496223333333","24.9994533333333","6500300","中和區"
"235063","006-UY","2017/11/14 18:39:28","新北市中和區連城路375號","121.487051666667","24.9963","6500300","中和區"
"235056","096-UM","2017/11/14 18:39:08","新北市中和區員山路611巷5弄1號","121.47793","25.0112166666667","6500300","中和區"
"235039","097-UM","2017/11/14 18:39:22","新北市中和區安樂路189-1號","121.514748333333","24.99825","6500300","中和區"
"235065","098-UM","2017/11/14 18:39:14","新北市中和區莊敬路49巷20弄8號","121.502006666667","25.0058666666667","6500300","中和區"
"235040","150-BY","2017/11/14 18:39:19","新北市中和區宜安路49號","121.511935","24.9966566666667","6500300","中和區"
"235058","151-BY","2017/11/14 18:39:22","新北市中和區圓通路435巷1號","121.486191666667","24.98754","6500300","中和區"
"235055","183-VK","2017/11/14 18:39:11","新北市中和區中山路三段229巷61號","121.468945","25.0051266666667","6500300","中和區"
"235038","185-VK","2017/11/14 18:39:23","新北市中和區大勇街60巷26號","121.519115","24.9946566666667","6500300","中和區"
"235049","186-VK","2017/11/14 18:39:23","新北市中和區明義街11巷5號","121.503875","24.9947966666667","6500300","中和區"
"235067","255-BX","2017/11/14 18:39:27","新北市中和區新生街2號","121.48313","25.0046883333333","6500300","中和區"
"235044","293-VK","2017/11/14 18:39:22","新北市中和區復興路280巷5號","121.502223333333","24.9910316666667","6500300","中和區"
"235072","301-VK","2017/11/14 18:39:21","新北市中和區連城路90號","121.496923333333","25.0006316666667","6500300","中和區"
"235043","352-BY","2017/11/14 18:39:21","新北市中和區景平路157號","121.512891666667","24.99238","6500300","中和區"
"235068","377-QA","2017/11/14 18:39:11","新北市中和區中正路209號","121.497195","24.993525","6500300","中和區"
"235061","378-QA","2017/11/14 18:39:31","新北市中和區民享街92巷2號","121.47483","25.0000083333333","6500300","中和區"
"235050","4979-A6","2017/11/14 18:39:26","新北市中和區忠孝街103號","121.512036666667","24.9862583333333","6500300","中和區"
"235069","4980-A6","2017/11/14 18:39:29","新北市中和區連城路67號","121.497596666667","25.0012933333333","6500300","中和區"
"235042","551-UM","2017/11/14 18:39:22","新北市中和區成功路97巷2號","121.526695","24.9917616666667","6500300","中和區"
"235070","558-UM","2017/11/14 18:39:20","新北市中和區南華路71號","121.50478","24.9972516666667","6500300","中和區"
"235045","565-BX","2017/11/14 18:39:16","新北市中和區南山路236巷1號","121.506046666667","24.9891483333333","6500300","中和區"
"235054","640-BX","2017/11/14 18:39:22","新北市中和區民享街86巷32號","121.473161666667","25.0006666666667","6500300","中和區"
"235047","732-UM","2017/11/14 18:39:31","新北市中和區南山路320巷1號","121.507743333333","24.98654","6500300","中和區"
"235046","733-UM","2017/11/14 18:39:31","新北市中和區仁愛街86號","121.511413333333","24.9874166666667","6500300","中和區"
"235062","800-TS","2017/11/14 18:39:28","新北市中和區中山路二段312巷6號","121.49561","25.002795","6500300","中和區"
"235057","801-TS","2017/11/14 18:39:25","新北市中和區員山路327巷43號","121.479491666667","25.0022133333333","6500300","中和區"
"235041","802-TS","2017/11/14 18:39:27","新北市中和區中安街178巷4號","121.510828333333","24.99942","6500300","中和區"
"235052","805-TS","2017/11/14 18:39:14","新北市中和區興南路三段21號","121.496911666667","24.9792816666667","6500300","中和區"
"235048","896-TW","2017/11/14 18:39:19","新北市中和區南山路231號","121.503521666667","24.9932383333333","6500300","中和區"
"235053","900-TW","2017/11/14 18:39:25","新北市中和區莒光路222-8號","121.468921666667","24.994855","6500300","中和區"
"235060","911-UM","2017/11/14 18:39:20","新北市中和區中山路二段479號","121.483048333333","25.004985","6500300","中和區"
"235037","157-BY","2017/11/14 18:39:25","新北市中和區華新街143巷106弄3號","121.506046666667","24.9790533333333","6500300","中和區"
"235037","AAC-213","2017/11/14 18:39:22","新北市中和區景平路111巷65號","121.515153333333","24.9903316666667","6500300","中和區"
"235059","AAC-215","2017/11/14 18:39:16","新北市中和區錦和路350-1號","121.490495","24.99352","6500300","中和區"
"220068","013-TV","2017/11/14 18:39:27","新北市板橋區民生路二段188號","121.470048333333","25.020655","6500100","板橋區"
"220065","072-UY","2017/11/14 18:39:24","新北市板橋區民族路113號","121.466901666667","25.0081","6500100","板橋區"
"220086","073-UY","2017/11/14 18:39:20","新北市板橋區南雅西路二段192巷1弄1號","121.452016666667","25.01444","6500100","板橋區"
"220069","AAD-861","2017/11/14 18:39:18","新北市板橋區華東街1-10號","121.448306666667","24.9950933333333","6500100","板橋區"
"226004","312-R5","2017/11/14 18:39:13","新北市平溪區平溪里三坑路49-1號","121.731308333333","25.0320516666667","6502400","平溪區"
"228002","663-BX","2017/11/14 18:39:20","新北市貢寮區福隆里東興街6-11號","121.950756666667","25.0210733333333","6502600","貢寮區"
"228001","670-TC","2017/11/14 18:39:25","新北市貢寮區仁理村保健街73號","121.923735","25.0516933333333","6502600","貢寮區"
"228003","828-UM","2017/11/14 18:39:26","新北市貢寮區和美里龍洞街42號","121.912833333333","25.1129666666667","6502600","貢寮區"
"224010","AGQ-8101","2017/11/14 18:39:28","新北市瑞芳區汽車路7-4號","121.846586666667","25.1105533333333","6501200","瑞芳區"
"224006","676-BX","2017/11/14 18:39:28","新北市瑞芳區明燈路三段84號","121.805723333333","25.1082733333333","6501200","瑞芳區"
"224002","639-TC","2017/11/14 18:39:10","新北市瑞芳區靜安路四段91號","121.793466666667","25.1091566666667","6501200","瑞芳區"
"224009","285-BY","2017/11/14 18:39:20","新北市瑞芳區祈堂路40號","121.85884","25.110385","6501200","瑞芳區"
"224008","275-VK","2017/11/14 18:39:24","新北市瑞芳區瑞芳街139號","121.805018333333","25.1098633333333","6501200","瑞芳區"
"224007","273-VK","2017/11/14 18:39:19","新北市瑞芳區大埔路115巷18號","121.762856666667","25.101295","6501200","瑞芳區"
"224005","271-BY","2017/11/14 18:39:29","新北市瑞芳區永龍新村68號","121.818641666667","25.1187433333333","6501200","瑞芳區"
"227009","642-TC","2017/11/14 18:39:22","新北市雙溪區牡丹里下坑11號","121.85099","25.056165","6502500","雙溪區"
"227003","400-TW","2017/11/14 18:39:28","新北市雙溪區魚行里坤溪3-5號","121.876226666667","25.0208633333333","6502500","雙溪區"
"253005","032-BX","2017/11/14 18:39:25","新北市石門區中山路52號","121.566558333333","25.2903666666667","6502200","石門區"
"253006","295-VK","2017/11/14 18:39:27","新北市石門區崁子腳1號","121.532143333333","25.2881766666667","6502200","石門區"
"222001","KEA-2212","2017/11/14 18:39:29","新北市深坑區北深路一段84號","121.636293333333","25.010585","6501800","深坑區"
"208002","742-BX","2017/11/14 18:39:16","新北市金山區忠孝一路15巷11號","121.638393333333","25.2187066666667","6502700","金山區"
"208003","665-BX","2017/11/14 18:39:27","新北市金山區中山路344號","121.633445","25.2253066666667","6502700","金山區"
"208001","761-BX","2017/11/14 18:39:23","新北市金山區文化三路42號","121.635346666667","25.2249166666667","6502700","金山區"
"251001","011-UM","2017/11/14 18:39:30","新北市淡水區自強路415巷2號","121.465513333333","25.1342666666667","6501000","淡水區"
"251002","012-UM","2017/11/14 18:39:12","新北市淡水區中正東路8號","121.448048333333","25.1664633333333","6501000","淡水區"
"251014","180-VK","2017/11/14 18:39:25","新北市淡水區崙頂12-7號","121.496986666667","25.2166866666667","6501000","淡水區"
"251008","181-VK","2017/11/14 18:39:10","新北市淡水區北投子62-16號","121.456028333333","25.1801","6501000","淡水區"
"251010","413-VK","2017/11/14 18:39:16","新北市淡水區沙崙路145號","121.423405","25.18297","6501000","淡水區"
"251012","441-VK","2017/11/14 18:39:25","新北市淡水區北新路117號","121.448926666667","25.1786216666667","6501000","淡水區"
"251016","442-VK","2017/11/14 18:39:07","新北市淡水區下圭柔山102號","121.44203","25.207915","6501000","淡水區"
"251006","561-UM","2017/11/14 18:39:22","新北市淡水區崁頂36-7號","121.438973333333","25.193105","6501000","淡水區"
"251011","650-BX","2017/11/14 18:39:10","新北市淡水區鄧公路36巷15號","121.455615","25.1692166666667","6501000","淡水區"
"251003","673-BX","2017/11/14 18:39:17","新北市淡水區北新路69巷26號","121.44664","25.1799383333333","6501000","淡水區"
"207003","550-UM","2017/11/14 18:39:23","新北市萬里區大鵬里頂社2-1號","121.660356666667","25.2072083333333","6502800","萬里區"
"207004","225-TW","2017/11/14 18:39:27","新北市萬里區萬里里獅頭路12-4號","121.69271","25.1793033333333","6502800","萬里區"
"252002","178-VK","2017/11/14 18:39:28","新北市三芝區中正路二段39號","121.503811666667","25.2548683333333","6502100","三芝區"
"252003","249-BX","2017/11/14 18:39:17","新北市三芝區後厝里土地公坑55號","121.462591666667","25.2483516666667","6502100","三芝區"
"252001","292-VK","2017/11/14 18:39:14","新北市三芝區中興街二段72號","121.499816666667","25.2547716666667","6502100","三芝區"
"237004","078-UY","2017/11/14 18:39:14","新北市三峽區有木17號","121.423995","24.8626533333333","6500900","三峽區"
"237007","153-BY","2017/11/14 18:39:10","新北市三峽區中正路三段76-1號","121.355921666667","24.9034533333333","6500900","三峽區"
"237009","210-TH","2017/11/14 18:39:14","新北市三峽區弘園街55號","121.366553333333","24.9273616666667","6500900","三峽區"
"237013","252-BX","2017/11/14 18:39:26","新北市三峽區光明路69巷25號","121.376741666667","24.92922","6500900","三峽區"
"237012","275-BY","2017/11/14 18:39:20","新北市三峽區三樹路362號","121.38379","24.943555","6500900","三峽區"
"237008","302-VK","2017/11/14 18:39:10","新北市三峽區白雞149-2號","121.400165","24.9055783333333","6500900","三峽區"
"237014","433-BY","2017/11/14 18:39:19","新北市三峽區復興路465-1號","121.361683333333","24.9385933333333","6500900","三峽區"
"237011","572-TV","2017/11/14 18:05:36","新北市三峽區介壽路三段20號","121.395996666667","24.93622","6500900","三峽區"
"237016","649-BX","2017/11/14 18:39:10","新北市三峽區竹崙路153號","121.434211666667","24.90728","6500900","三峽區"
"237010","706-TV","2017/11/14 18:14:50","新北市三峽區民族街35號","121.369643333333","24.930345","6500900","三峽區"
"237005","AKY-6261","2017/11/14 18:39:28","新北市三峽區新興街24號","121.372685","24.93547","6500900","三峽區"
"236070","105-UM","2017/11/14 18:39:24","新北市土城區永豐路157巷29弄6-1號","121.468376666667","24.98149","6501300","土城區"
"236043","107-UM","2017/11/14 18:39:25","新北市土城區裕民路55巷17號","121.44926","24.9887316666667","6501300","土城區"
"236079","166-UM","2017/11/14 18:39:20","新北市土城區中央路四段52巷8號","121.4201","24.960915","6501300","土城區"
"236031","253-BX","2017/11/14 18:39:30","新北市土城區福仁街62號","121.439481666667","24.9746","6501300","土城區"
"236027","269-VK","2017/11/14 18:39:27","新北市土城區忠義路49號","121.44049","24.9691166666667","6501300","土城區"
"236015","270-VK","2017/11/14 18:39:18","新北市土城區清水路207巷25號","121.459731666667","24.9826266666667","6501300","土城區"
"236038","271-VK","2017/11/14 18:39:15","新北市土城區明德路一段287巷12號","121.461018333333","24.976835","6501300","土城區"
"236023","401-BY","2017/11/14 18:39:23","新北市土城區延吉街311號","121.465953333333","24.9843566666667","6501300","土城區"
"236059","912-UM","2017/11/14 18:39:29","新北市土城區中央路四段84號","121.41891","24.959345","6501300","土城區"
"236049","913-UM","2017/11/14 18:39:26","新北市土城區明德路一段95號","121.465591666667","24.9831216666667","6501300","土城區"
"236063","915-UM","2017/11/14 18:39:13","新北市土城區延壽路13巷32號","121.470146666667","24.9912483333333","6501300","土城區"
"236055","AAC-216","2017/11/14 18:39:10","新北市土城區中華路一段43-1號","121.44589","24.9884733333333","6501300","土城區"
"242061","362-BY","2017/11/14 18:39:20","新北市新莊區民安東路6號","121.42798","25.0209516666667","6500500","新莊區"
"238015","755-BX","2017/11/14 18:39:26","新北市樹林區備內街79號","121.409095","24.98956","6500700","樹林區"
"238023","601-UM","2017/11/14 18:39:16","新北市樹林區三福街114號","121.406468333333","25.0162916666667","6500700","樹林區"
"238019","599-UM","2017/11/14 18:39:20","新北市樹林區中華路190-8號","121.41126","24.9806483333333","6500700","樹林區"
"238018","571-TV","2017/11/14 18:39:18","新北市樹林區樹新路50巷5弄3號","121.429396666667","24.9969216666667","6500700","樹林區"
"238024","5061-A6","2017/11/14 18:39:24","新北市樹林區中華路190-3號","121.410896666667","24.980525","6500700","樹林區"
"238016","308-TH","2017/11/14 13:28:00","新北市樹林區育德街76巷1號","121.388758333333","24.9683016666667","6500700","樹林區"
"238025","303-VK","2017/11/14 18:38:46","新北市樹林區大安路581號","121.411953333333","24.983415","6500700","樹林區"
"238017","283-BY","2017/11/14 18:39:24","新北市樹林區光興街44號","121.40994","25.0028066666667","6500700","樹林區"
"238014","282-BY","2017/11/14 18:39:17","新北市樹林區大安路111巷11號","121.423088333333","24.9976666666667","6500700","樹林區"
"238020","268-VK","2017/11/14 18:39:25","新北市樹林區俊安街60號","121.418855","25.0131","6500700","樹林區"
"238026","172-UY","2017/11/14 18:39:17","新北市樹林區八德街1172號","121.39032","24.968315","6500700","樹林區"
"238016","169-UY","2017/11/14 18:39:22","新北市樹林區文化街23號","121.419301666667","24.9876616666667","6500700","樹林區"
"239007","AAC-297","2017/11/14 18:39:16","新北市鶯歌區中正一路建德巷38號","121.364518333333","24.9578033333333","6500800","鶯歌區"
"239006","891-R6","2017/11/14 18:39:24","新北市鶯歌區鶯桃路296巷86號","121.336761666667","24.9619116666667","6500800","鶯歌區"
"239008","527-UM","2017/11/14 18:39:12","新北市鶯歌區國際一路14號","121.336166666667","24.976515","6500800","鶯歌區"
"239005","526-UM","2017/11/14 18:39:32","新北市鶯歌區鳳吉一街106號","121.327428333333","24.9745966666667","6500800","鶯歌區"
"239001","417-VK","2017/11/14 18:39:14","新北市鶯歌區中正二路183號","121.341856666667","24.948115","6500800","鶯歌區"
"239003","360-BY","2017/11/14 18:39:16","新北市鶯歌區永和二街3-1號","121.335808333333","24.9705233333333","6500800","鶯歌區"
"239002","359-BY","2017/11/14 18:39:19","新北市鶯歌區中山路288號","121.343975","24.9569833333333","6500800","鶯歌區"
"239004","193-VK","2017/11/14 18:39:20","新北市鶯歌區中正三路156巷12號","121.332248333333","24.941485","6500800","鶯歌區"
"221008","489-VK","2017/11/14 18:39:24","新北市汐止區康寧街901號","121.651385","25.0750533333333","6501100","汐止區"
"221036","130-UY","2017/11/14 18:39:27","新北市汐止區南昌街31號","121.663115","25.0691333333333","6501100","汐止區"
"221015","131-UY","2017/11/14 18:39:11","新北市汐止區鄉長路一段273號","121.668403333333","25.0786083333333","6501100","汐止區"
"221010","269-BY","2017/11/14 18:39:31","新北市汐止區汐萬路三段262號","121.643801666667","25.104935","6501100","汐止區"
"221012","276-VK","2017/11/14 13:25:51","新北市汐止區汐萬路一段256巷3號","121.653458333333","25.0746183333333","6501100","汐止區"
"221012","278-VK","2017/11/14 18:39:11","新北市汐止區長興街一段24號","121.66988","25.0790183333333","6501100","汐止區"
"221023","279-VK","2017/11/14 18:39:29","新北市汐止區康寧街706-2號","121.638466666667","25.0731166666667","6501100","汐止區"
"221032","280-BY","2017/11/14 18:39:14","新北市汐止區民權街二段93號","121.619008333333","25.0474983333333","6501100","汐止區"
"221027","281-BY","2017/11/14 18:39:23","新北市汐止區和平街3-1號","121.6635","25.0705933333333","6501100","汐止區"
"221029","298-VK","2017/11/14 18:39:28","新北市汐止區樟樹一路131號","121.642086666667","25.064925","6501100","汐止區"
"221021","299-VK","2017/11/14 18:39:23","新北市汐止區復興路70號","121.657116666667","25.0621933333333","6501100","汐止區"
"221031","353-TW","2017/11/14 18:39:25","新北市汐止區大同路一段306-3號","121.63646","25.0583566666667","6501100","汐止區"
"221035","622-UM","2017/11/14 18:39:28","新北市汐止區禮門街1號","121.656695","25.0672216666667","6501100","汐止區"
"221025","623-UM","2017/11/14 18:39:27","新北市汐止區福安街20巷20號","121.66195","25.0645933333333","6501100","汐止區"
"221038","646-BX","2017/11/14 18:39:30","新北市汐止區康寧街901號","121.651533333333","25.074975","6501100","汐止區"
"221033","647-BX","2017/11/14 18:39:17","新北市汐止區南勢街1巷1號","121.626988333333","25.03741","6501100","汐止區"
"221002","707-TV","2017/11/14 18:39:18","新北市汐止區中興路25號","121.63684","25.059675","6501100","汐止區"
"221018","753-BX","2017/11/14 18:39:24","新北市汐止區茄苳路279號","121.672448333333","25.0678666666667","6501100","汐止區"
"220079","145-BY","2017/11/14 18:39:14","新北市板橋區大觀路一段43號","121.448255","25.0079683333333","6500100","板橋區"
"220080","200-UY","2017/11/14 18:39:27","新北市板橋區大觀路二段435-10號","121.445671666667","24.99467","6500100","板橋區"
"220082","610-BX","2017/11/14 18:39:20","新北市板橋區四川路二段橋頭1巷1號","121.446743333333","24.994","6500100","板橋區"
"220056","276-BY","2017/11/14 18:39:19","新北市板橋區華東街1號","121.44836","24.9940683333333","6500100","板橋區"
"220072","277-BY","2017/11/14 18:39:28","新北市板橋區四川路二段橋頭1號","121.446475","24.994165","6500100","板橋區"
"220071","283-VK","2017/11/14 18:39:11","新北市板橋區華東街1-9號","121.448108333333","24.9948616666667","6500100","板橋區"
"220094","285-UM","2017/11/14 18:39:13","新北市板橋區民生路二段161巷3號","121.470021666667","25.0197616666667","6500100","板橋區"
"220053","285-VK","2017/11/14 18:39:14","新北市板橋區民生路二段161巷1號","121.470213333333","25.020075","6500100","板橋區"
"220081","287-VK","2017/11/14 18:39:24","新北市板橋區板城路421號","121.448168333333","24.9962016666667","6500100","板橋區"
"220061","295-UM","2017/11/14 18:39:10","新北市板橋區民生路二段120號","121.470326666667","25.0198466666667","6500100","板橋區"
"220084","296-UM","2017/11/14 18:39:24","新北市板橋區板城路421號","121.448033333333","24.9963816666667","6500100","板橋區"
"220075","297-UM","2017/11/14 18:39:18","新北市板橋區南雅南路二段144巷60號","121.4501","24.9972216666667","6500100","板橋區"
"220062","303-R5","2017/11/14 18:39:31","新北市板橋區民生路二段120號","121.470433333333","25.0196166666667","6500100","板橋區"
"220064","486-VK","2017/11/14 18:39:16","新北市板橋區民生路二段36-1號","121.4721","25.0167783333333","6500100","板橋區"
"220035","560-BX","2017/11/14 18:39:28","新北市板橋區南雅西路二段145巷10號","121.451565","25.0119116666667","6500100","板橋區"
"220083","568-UM","2017/11/14 18:39:13","新北市板橋區板城路407號","121.447721666667","24.9954283333333","6500100","板橋區"
"220063","609-BX","2017/11/14 18:39:13","新北市板橋區民生路二段175號","121.469603333333","25.020165","6500100","板橋區"
"220057","686-BX","2017/11/14 18:39:16","新北市板橋區華東街1-9號","121.448216666667","24.994875","6500100","板橋區"
"220077","687-BX","2017/11/14 18:39:14","新北市板橋區四川路二段橋頭1巷1號","121.44672","24.99412","6500100","板橋區"
"220055","827-TW","2017/11/14 18:39:15","新北市板橋區華東街1-9號","121.448145","24.9949116666667","6500100","板橋區"
"220067","829-TW","2017/11/14 18:39:28","新北市板橋區民生路二段161巷1號","121.470208333333","25.0199466666667","6500100","板橋區"
"220102","830-TW","2017/11/14 15:46:06","新北市板橋區民生路二段161巷5號","121.470246666667","25.019725","6500100","板橋區"
"220074","895-R6","2017/11/14 18:39:21","新北市板橋區四川路二段140巷16弄28號","121.448818333333","24.9946583333333","6500100","板橋區"
"220073","985-R7","2017/11/14 18:39:19","新北市板橋區南雅南路二段144巷19號","121.45105","24.9958133333333","6500100","板橋區"
"220070","AAC-253","2017/11/14 18:39:20","新北市板橋區華東街1-9號","121.44821","24.9949283333333","6500100","板橋區"
