"lineid","car","time","location","longitude","latitude","cityid","cityname"
"234046","148-BY","2017/11/14 18:49:27","新北市永和區得和路373巷31弄8號","121.524688333333","25.00082","6500400","永和區"
"234012","149-BY","2017/11/14 18:49:26","新北市永和區保福路二段109巷43號","121.509115","25.01281","6500400","永和區"
"234081","298-R6","2017/11/14 18:49:32","新北市永和區永利路108號","121.521253333333","25.003385","6500400","永和區"
"234038","336-UY","2017/11/14 18:49:13","新北市永和區福和路1號","121.525193333333","25.0088516666667","6500400","永和區"
"234064","337-UY","2017/11/14 18:49:16","新北市永和區福和路1號","121.526613333333","25.010045","6500400","永和區"
"234086","338-UY","2017/11/14 18:49:19","新北市永和區中正路164號","121.514968333333","24.9965516666667","6500400","永和區"
"234070","552-UM","2017/11/14 18:49:23","新北市永和區中興街100號","121.519105","25.0121233333333","6500400","永和區"
"234054","553-UM","2017/11/14 18:49:12","新北市永和區環河東路二段92號","121.524415","25.0105916666667","6500400","永和區"
"234017","745-BX","2017/11/14 18:49:16","新北市永和區永和路二段393-1號","121.515616666667","25.0167266666667","6500400","永和區"
"234030","746-BX","2017/11/14 18:49:30","新北市永和區得和路321號","121.523315","24.999625","6500400","永和區"
"234042","862-TW","2017/11/14 18:49:24","新北市永和區永貞路267號","121.511815","25.0047733333333","6500400","永和區"
"234050","863-TW","2017/11/14 18:49:19","新北市永和區保安路2號","121.510813333333","25.01742","6500400","永和區"
"234011","9373-KE","2017/11/14 18:49:22","新北市永和區文化路124號","121.513035","25.0153933333333","6500400","永和區"
"249005","172-UM","2017/11/14 18:49:26","新北市八里區長道坑17號","121.395991666667","25.1154566666667","6502300","八里區"
"249001","173-UM","2017/11/14 18:49:27","新北市八里區龍米路二段16號","121.448983333333","25.1390566666667","6502300","八里區"
"249004","303-UY","2017/11/14 18:49:15","新北市八里區挖子尾街16號","121.415361666667","25.16436","6502300","八里區"
"248014","025-BX","2017/11/14 18:49:22","新北市五股區成泰路一段235號","121.436101666667","25.0794833333333","6501500","五股區"
"248016","026-BX","2017/11/14 18:49:16","新北市五股區凌雲路一段134巷10號","121.450026666667","25.1025416666667","6501500","五股區"
"248006","077-UY","2017/11/14 18:49:27","新北市五股區中興路一段171巷63號","121.465653333333","25.0705033333333","6501500","五股區"
"248008","095-VK","2017/11/14 18:49:20","新北市五股區中興路一段151巷32號","121.465116666667","25.072775","6501500","五股區"
"248020","225-UY","2017/11/14 18:49:20","新北市五股區凌雲路三段86號","121.430625","25.1182833333333","6501500","五股區"
"248012","247-BX","2017/11/14 18:49:28","新北市五股區成泰路二段147巷34-20號","121.436636666667","25.08923","6501500","五股區"
"248010","272-BY","2017/11/14 18:49:20","新北市五股區水碓七路168號","121.430726666667","25.0739766666667","6501500","五股區"
"248004","677-BX","2017/11/14 18:49:29","新北市五股區民義路二段22巷2號","121.420168333333","25.0968183333333","6501500","五股區"
"248002","678-BX","2017/11/14 18:49:15","新北市五股區成泰路三段435巷11號","121.449425","25.0977883333333","6501500","五股區"
"234023","9380-KE","2017/11/14 18:49:18","新北市永和區竹林路119巷22弄33號","121.52233","25.0112033333333","6500400","永和區"
"234077","969-R7","2017/11/14 18:49:15","新北市永和區中正路2巷29弄3號","121.51376","24.9937616666667","6500400","永和區"
"234074","AAC-211","2017/11/14 18:49:23","新北市永和區福和路1號","121.526606666667","25.0097316666667","6500400","永和區"
"234067","AAC-212","2017/11/14 18:49:31","新北市永和區永和路一段22號","121.513035","25.0048183333333","6500400","永和區"
"234003","AAC-295","2017/11/14 18:49:29","新北市永和區豫溪街50號","121.515861666667","25.00987","6500400","永和區"
"232011","375-UM","2017/11/14 18:49:24","新北市坪林區坪雙路一段1-1號","121.711228333333","24.9404683333333","6502000","坪林區"
"244013","069-UM","2017/11/14 18:49:25","新北市林口區中正路535號","121.382166666667","25.077205","6501700","林口區"
"244019","403-UM","2017/11/14 18:49:22","新北市林口區忠孝路616巷15號","121.377225","25.0676733333333","6501700","林口區"
"244025","742-UY","2017/11/14 18:49:20","新北市林口區南勢里57-6號","121.361188333333","25.0775533333333","6501700","林口區"
"244009","410-SL","2017/11/14 18:49:22","新北市林口區竹林路326巷9號","121.391763333333","25.0824","6501700","林口區"
"244023","483-VK","2017/11/14 18:49:24","新北市林口區文化三路二段211巷85號","121.37509","25.0840616666667","6501700","林口區"
"244017","485-VK","2017/11/14 18:49:21","新北市林口區文化二路一段68巷11號","121.366495","25.0688583333333","6501700","林口區"
"244007","656-BX","2017/11/14 18:48:09","新北市林口區太平嶺1鄰3號","121.380178333333","25.111185","6501700","林口區"
"244011","701-TV","2017/11/14 18:49:18","新北市林口區仁愛路一段274號","121.393575","25.07598","6501700","林口區"
"243012","AAD-798","2017/11/14 18:49:15","新北市泰山區福興三街13號","121.434426666667","25.057815","6501600","泰山區"
"243015","380-SR","2017/11/14 18:49:16","新北市泰山區美寧街54號","121.430536666667","25.0645633333333","6501600","泰山區"
"243014","421-VK","2017/11/14 18:49:14","新北市泰山區犁頭窠3-1號","121.422068333333","25.060565","6501600","泰山區"
"243013","646-TV","2017/11/14 18:46:05","新北市泰山區明志路三段206巷3號","121.423288333333","25.0379","6501600","泰山區"
"243016","680-BX","2017/11/14 18:49:23","新北市泰山區明志路一段225號","121.432576666667","25.0610483333333","6501600","泰山區"
"222003","436-BY","2017/11/14 18:49:23","新北市深坑區北深路一段300號","121.624325","25.0057783333333","6501800","深坑區"
"222002","659-BX","2017/11/14 18:49:09","新北市深坑區文山路一段69號","121.627016666667","25.0018916666667","6501800","深坑區"
"231060","001-UM","2017/11/14 18:49:17","新北市新店區安華路28-1號","121.519518333333","24.9609","6500600","新店區"
"231041","002-UM","2017/11/14 18:49:13","新北市新店區安華路28-1號","121.519621666667","24.9607883333333","6500600","新店區"
"231056","0293-UT","2017/11/14 18:49:24","新北市新店區大豐路68巷16號","121.538878333333","24.9800466666667","6500600","新店區"
"231059","046-UY","2017/11/14 18:49:11","新北市新店區安華路28-1號","121.519671666667","24.96095","6500600","新店區"
"231061","047-UY","2017/11/14 18:49:18","新北市新店區安華路28-1號","121.519326666667","24.9608866666667","6500600","新店區"
"231048","108-UY","2017/11/14 18:49:25","新北市新店區德正街23巷2號","121.544208333333","24.9719166666667","6500600","新店區"
"231053","187-VK","2017/11/14 18:49:27","新北市新店區新烏路一段105巷29號","121.546646666667","24.9402616666667","6500600","新店區"
"231050","KEA-2219","2017/11/14 18:49:30","新北市新店區安康路一段293號","121.522763333333","24.9636883333333","6500600","新店區"
"231046","278-BY","2017/11/14 18:49:14","新北市新店區直潭路57號","121.532936666667","24.942365","6500600","新店區"
"231054","AAD-862","2017/11/14 18:49:14","新北市新店區安康路一段79巷3號","121.52992","24.9611966666667","6500600","新店區"
"231058","3712-VJ","2017/11/14 18:49:17","新北市新店區北宜路一段107號","121.539343333333","24.9553466666667","6500600","新店區"
"231055","4716-K9","2017/11/14 18:49:27","新北市新店區力行路88號","121.538761666667","24.9668783333333","6500600","新店區"
"231067","4772-VM","2017/11/14 18:49:27","新北市新店區安康路一段106巷6號","121.527495","24.96275","6500600","新店區"
"231065","512-UM","2017/11/14 18:49:29","新北市新店區車子路10-4號","121.504948333333","24.954565","6500600","新店區"
"231064","515-UM","2017/11/14 18:49:17","新北市新店區安華路28-1號","121.519611666667","24.9612483333333","6500600","新店區"
"231045","617-UM","2017/11/14 18:49:27","新北市新店區安康路一段285號","121.523265","24.9636166666667","6500600","新店區"
"231040","619-UM","2017/11/14 18:49:16","新北市新店區環河路116號","121.537098333333","24.9665533333333","6500600","新店區"
"231042","641-BX","2017/11/14 18:49:17","新北市新店區安康路一段79巷1號","121.529898333333","24.9611933333333","6500600","新店區"
"231063","645-TV","2017/11/14 18:49:20","新北市新店區安華路1-1號","121.519225","24.9605483333333","6500600","新店區"
"231049","719-UM","2017/11/14 18:49:30","新北市新店區中正路454-5號","121.534436666667","24.9790366666667","6500600","新店區"
"231051","719-UY","2017/11/14 18:49:13","新北市新店區中央路234號","121.5294","24.97257","6500600","新店區"
"231062","720-UM","2017/11/14 18:49:10","新北市新店區安忠路57巷11弄14號","121.51537","24.9579666666667","6500600","新店區"
"231044","897-TW","2017/11/14 18:49:27","新北市新店區寶中路72號","121.54793","24.9805866666667","6500600","新店區"
"231043","899-TW","2017/11/14 18:49:10","新北市新店區安康路一段247-1號","121.524868333333","24.963265","6500600","新店區"
"231066","AKT-0513","2017/11/14 18:49:26","新北市新店區安豐路22巷3-1號","121.502146666667","24.9557666666667","6500600","新店區"
"235066","003-UY","2017/11/14 18:49:15","新北市中和區水源路7巷4號","121.504058333333","25.00373","6500300","中和區"
"235064","005-UY","2017/11/14 18:49:21","新北市中和區景平路595-1號","121.496966666667","25.0004333333333","6500300","中和區"
"235063","006-UY","2017/11/14 18:49:28","新北市中和區連城路258-9號","121.487211666667","24.9963233333333","6500300","中和區"
"235056","096-UM","2017/11/14 18:49:28","新北市中和區員山路611巷5弄3號","121.478003333333","25.011185","6500300","中和區"
"235039","097-UM","2017/11/14 18:49:22","新北市中和區安樂路143巷19號","121.51368","24.996995","6500300","中和區"
"235065","098-UM","2017/11/14 18:49:14","新北市中和區莊敬路33巷44號","121.500445","25.00689","6500300","中和區"
"235040","150-BY","2017/11/14 18:49:19","新北市中和區保健路95號","121.511308333333","24.9965883333333","6500300","中和區"
"235058","151-BY","2017/11/14 18:49:22","新北市中和區連城路573號","121.479061666667","24.994465","6500300","中和區"
"235055","183-VK","2017/11/14 18:49:31","新北市中和區民生街51號","121.469731666667","25.0051933333333","6500300","中和區"
"235038","185-VK","2017/11/14 18:49:27","新北市中和區立人街28號","121.51861","24.9941666666667","6500300","中和區"
"235049","186-VK","2017/11/14 18:49:23","新北市中和區景安路132巷35號","121.503808333333","24.9945","6500300","中和區"
"235067","255-BX","2017/11/14 18:49:27","新北市中和區新生街6號","121.483111666667","25.0046233333333","6500300","中和區"
"235044","293-VK","2017/11/14 18:49:22","新北市中和區復興路348號","121.499956666667","24.99039","6500300","中和區"
"235072","301-VK","2017/11/14 18:49:21","新北市中和區中山路二段9號","121.505265","25.00559","6500300","中和區"
"235043","352-BY","2017/11/14 18:49:21","新北市中和區成功路139號","121.52592","24.99041","6500300","中和區"
"235068","377-QA","2017/11/14 18:49:11","新北市中和區中正路215號","121.496721666667","24.9936516666667","6500300","中和區"
"235061","378-QA","2017/11/14 18:49:10","新北市中和區民享街32巷8號","121.473588333333","25.0032516666667","6500300","中和區"
"235050","4979-A6","2017/11/14 18:49:26","新北市中和區忠孝街62巷9弄1號","121.513135","24.9839283333333","6500300","中和區"
"235069","4980-A6","2017/11/14 18:49:09","新北市中和區景平路618巷7號","121.50092","24.9972266666667","6500300","中和區"
"235042","551-UM","2017/11/14 18:49:22","新北市中和區秀朗路三段100巷4號","121.525581666667","24.99333","6500300","中和區"
"235070","558-UM","2017/11/14 18:49:20","新北市中和區圓通路54號","121.50058","24.99755","6500300","中和區"
"235045","565-BX","2017/11/14 18:49:16","新北市中和區復興路55號","121.504406666667","24.9900533333333","6500300","中和區"
"235054","640-BX","2017/11/14 18:49:22","新北市中和區莒光路129巷2弄1-3號","121.47307","25.00197","6500300","中和區"
"235047","732-UM","2017/11/14 18:49:11","新北市中和區興南路二段34巷38號","121.50481","24.985985","6500300","中和區"
"235046","733-UM","2017/11/14 18:49:30","新北市中和區仁愛街36巷30號","121.511013333333","24.98687","6500300","中和區"
"235062","800-TS","2017/11/14 18:49:28","新北市中和區景平路703巷2弄2號","121.496236666667","25.00352","6500300","中和區"
"235057","801-TS","2017/11/14 18:49:25","新北市中和區民安街22巷25號","121.479513333333","25.0014716666667","6500300","中和區"
"235041","802-TS","2017/11/14 18:49:27","新北市中和區安平路144號","121.512313333333","24.99812","6500300","中和區"
"235052","805-TS","2017/11/14 18:49:14","新北市中和區興南路二段399巷66號","121.499805","24.978545","6500300","中和區"
"235048","896-TW","2017/11/14 18:49:19","新北市中和區南山路300號","121.507878333333","24.98706","6500300","中和區"
"235053","900-TW","2017/11/14 18:49:25","新北市中和區華福街40號","121.466393333333","24.9965516666667","6500300","中和區"
"235060","911-UM","2017/11/14 18:49:20","新北市中和區中山路三段166號","121.472973333333","25.0064283333333","6500300","中和區"
"235037","157-BY","2017/11/14 18:49:25","新北市中和區華新街109巷1弄1號","121.50878","24.9826733333333","6500300","中和區"
"235037","AAC-213","2017/11/14 18:49:22","新北市中和區秀朗路三段175巷7號","121.525068333333","24.99146","6500300","中和區"
"235059","AAC-215","2017/11/14 18:49:16","新北市中和區圓通路393巷18號","121.489895","24.9886083333333","6500300","中和區"
"220068","013-TV","2017/11/14 18:49:08","新北市板橋區縣民大道三段250-2號","121.477663333333","25.02271","6500100","板橋區"
"220065","072-UY","2017/11/14 18:49:23","新北市板橋區漢生東路282號","121.471245","25.0089833333333","6500100","板橋區"
"220086","073-UY","2017/11/14 18:49:20","新北市板橋區大智街71巷5弄1號","121.453285","25.0149666666667","6500100","板橋區"
"220069","AAD-861","2017/11/14 18:49:18","新北市板橋區南雅南路一段1巷42號","121.457631666667","25.0063683333333","6500100","板橋區"
"220090","120-SR","2017/11/14 18:49:25","新北市板橋區民生路二段120號","121.470383333333","25.0197066666667","6500100","板橋區"
"226004","312-R5","2017/11/14 18:49:13","新北市平溪區平溪里平溪街22號","121.738858333333","25.025285","6502400","平溪區"
"228002","663-BX","2017/11/14 18:49:20","新北市貢寮區福隆里東興街6-11號","121.950763333333","25.0210783333333","6502600","貢寮區"
"228001","670-TC","2017/11/14 18:49:25","新北市貢寮區仁理村研海街12-1號","121.923775","25.0516633333333","6502600","貢寮區"
"228003","828-UM","2017/11/14 18:49:26","新北市瑞芳區鼻頭路99-1號","121.91804","25.1211916666667","6502600","貢寮區"
"224010","AGQ-8101","2017/11/14 18:49:13","新北市瑞芳區汽車路22-1號","121.845358333333","25.1098166666667","6501200","瑞芳區"
"224006","676-BX","2017/11/14 18:49:20","新北市瑞芳區中正路100號","121.805055","25.1076983333333","6501200","瑞芳區"
"224009","285-BY","2017/11/14 18:49:24","新北市瑞芳區祈堂路53-1號","121.859533333333","25.1105316666667","6501200","瑞芳區"
"224008","275-VK","2017/11/14 18:49:22","新北市瑞芳區逢甲路275號","121.80167","25.1119566666667","6501200","瑞芳區"
"224007","273-VK","2017/11/14 18:49:19","新北市瑞芳區大埔路130號","121.761881666667","25.1007083333333","6501200","瑞芳區"
"224005","271-BY","2017/11/14 18:49:29","新北市瑞芳區瑞濱路20號","121.826086666667","25.1212416666667","6501200","瑞芳區"
"227009","642-TC","2017/11/14 18:49:22","新北市雙溪區牡丹里聖南26號","121.856313333333","25.0535066666667","6502500","雙溪區"
"227003","400-TW","2017/11/14 18:49:28","新北市雙溪區平林里梅竹蹊28號","121.861615","25.0360133333333","6502500","雙溪區"
"253005","032-BX","2017/11/14 18:49:25","新北市石門區中山路26號","121.56595","25.290235","6502200","石門區"
"253006","295-VK","2017/11/14 18:49:27","新北市石門區下員坑15號","121.51159","25.284975","6502200","石門區"
"222001","KEA-2212","2017/11/14 18:49:29","新北市深坑區松柏街28巷1號","121.63863","25.0109966666667","6501800","深坑區"
"208002","742-BX","2017/11/14 18:49:16","新北市金山區仁愛路37-10號","121.636001666667","25.2191483333333","6502700","金山區"
"208003","665-BX","2017/11/14 18:49:15","新北市金山區中山路393號","121.633466666667","25.2252566666667","6502700","金山區"
"208001","761-BX","2017/11/14 18:49:17","新北市金山區文化三路66巷2弄1號","121.634285","25.2256533333333","6502700","金山區"
"251001","011-UM","2017/11/14 18:49:30","新北市淡水區自立路1巷29號","121.462103333333","25.1294616666667","6501000","淡水區"
"251002","012-UM","2017/11/14 18:49:12","新北市淡水區學府路87號","121.448711666667","25.1703216666667","6501000","淡水區"
"251014","180-VK","2017/11/14 18:49:05","新北市淡水區崙頂3號","121.490026666667","25.224035","6501000","淡水區"
"251010","413-VK","2017/11/14 18:49:16","新北市淡水區沙崙路24號","121.421341666667","25.181235","6501000","淡水區"
"251012","441-VK","2017/11/14 18:49:25","新北市淡水區新興街7號","121.443631666667","25.18045","6501000","淡水區"
"251016","442-VK","2017/11/14 18:49:28","新北市淡水區下圭柔山72-3號","121.446243333333","25.2057883333333","6501000","淡水區"
"251011","650-BX","2017/11/14 18:49:30","新北市淡水區學府路26號","121.447655","25.168285","6501000","淡水區"
"251003","673-BX","2017/11/14 18:49:17","新北市淡水區中山北路一段143號","121.442923333333","25.1774","6501000","淡水區"
"207003","550-UM","2017/11/14 18:49:23","新北市萬里區大鵬里頂社1號","121.65704","25.2097033333333","6502800","萬里區"
"207004","225-TW","2017/11/14 18:49:27","新北市萬里區萬里里獅頭路23號","121.69321","25.178225","6502800","萬里區"
"252002","178-VK","2017/11/14 18:49:28","新北市三芝區中正路一段101號","121.504771666667","25.256425","6502100","三芝區"
"252003","249-BX","2017/11/14 18:49:17","新北市三芝區後厝里大片頭77-1號","121.459243333333","25.2453583333333","6502100","三芝區"
"252001","292-VK","2017/11/14 18:49:14","新北市三芝區中正路三段9號","121.502846666667","25.2539783333333","6502100","三芝區"
"237004","078-UY","2017/11/14 18:49:14","新北市三峽區有木196號","121.443446666667","24.85033","6500900","三峽區"
"237007","153-BY","2017/11/14 18:49:30","新北市三峽區柑樹路2巷38號","121.361753333333","24.905115","6500900","三峽區"
"237013","252-BX","2017/11/14 18:49:26","新北市三峽區光明路69巷25號","121.376696666667","24.9292383333333","6500900","三峽區"
"237012","275-BY","2017/11/14 18:49:20","新北市三峽區三樹路340號","121.383968333333","24.9433216666667","6500900","三峽區"
"237008","302-VK","2017/11/14 18:49:30","新北市三峽區白雞33-52號","121.370485","24.9130833333333","6500900","三峽區"
"237014","433-BY","2017/11/14 18:49:19","新北市三峽區隆恩街161號","121.361958333333","24.9425933333333","6500900","三峽區"
"237011","572-TV","2017/11/14 18:05:36","新北市三峽區介壽路三段20號","121.395996666667","24.93622","6500900","三峽區"
"237016","649-BX","2017/11/14 18:49:30","新北市三峽區竹崙路55號","121.431073333333","24.9219083333333","6500900","三峽區"
"237010","706-TV","2017/11/14 18:48:50","新北市三峽區復興路176-8號","121.370448333333","24.938485","6500900","三峽區"
"237005","AKY-6261","2017/11/14 18:49:28","新北市三峽區中山路459巷163-3號","121.34906","24.933365","6500900","三峽區"
"236070","105-UM","2017/11/14 18:49:24","新北市土城區延和路21巷19號","121.463885","24.9888816666667","6501300","土城區"
"236043","107-UM","2017/11/14 18:49:25","新北市土城區裕民路114巷21號","121.450693333333","24.9858583333333","6501300","土城區"
"236079","166-UM","2017/11/14 18:49:20","新北市土城區中央路四段165巷55號","121.41668","24.9559716666667","6501300","土城區"
"236031","253-BX","2017/11/14 18:49:22","新北市土城區中央路三段61巷2號","121.439453333333","24.9694283333333","6501300","土城區"
"236027","269-VK","2017/11/14 18:49:27","新北市土城區興城路48號","121.441306666667","24.9726316666667","6501300","土城區"
"236015","270-VK","2017/11/14 18:49:16","新北市土城區金城路二段354巷20號","121.460746666667","24.984095","6501300","土城區"
"236038","271-VK","2017/11/14 18:49:15","新北市土城區明德路一段247巷21號","121.463088333333","24.9774033333333","6501300","土城區"
"236023","401-BY","2017/11/14 18:49:23","新北市土城區延安街78號","121.468201666667","24.983865","6501300","土城區"
"236059","912-UM","2017/11/14 18:49:09","新北市土城區中央路三段183號","121.431383333333","24.9651433333333","6501300","土城區"
"236049","913-UM","2017/11/14 18:49:26","新北市土城區青雲路8-2號","121.460171666667","24.9891366666667","6501300","土城區"
"236063","915-UM","2017/11/14 18:49:13","新北市土城區金城路三段207巷6弄18號","121.470888333333","24.9902383333333","6501300","土城區"
"236055","AAC-216","2017/11/14 18:49:30","新北市土城區裕民路202號","121.453295","24.98471","6501300","土城區"
"242061","362-BY","2017/11/14 18:49:20","新北市新莊區中正路384號","121.442403333333","25.0342816666667","6500500","新莊區"
"238023","601-UM","2017/11/14 18:49:16","新北市樹林區三福街114號","121.406476666667","25.0163183333333","6500700","樹林區"
"238019","599-UM","2017/11/14 18:49:20","新北市樹林區東榮街180號","121.414418333333","24.98179","6500700","樹林區"
"238018","571-TV","2017/11/14 18:49:18","新北市樹林區鎮前街25號","121.425771666667","24.9924733333333","6500700","樹林區"
"238024","5061-A6","2017/11/14 18:49:23","新北市樹林區太平路247巷1號","121.419188333333","24.9750783333333","6500700","樹林區"
"238022","KEA-2213","2017/11/14 18:49:25","新北市樹林區中華路379巷78弄15號","121.412968333333","24.976955","6500700","樹林區"
"238016","308-TH","2017/11/14 13:28:00","新北市樹林區育德街76巷1號","121.388758333333","24.9683016666667","6500700","樹林區"
"238025","303-VK","2017/11/14 18:49:26","新北市樹林區中山路三段22號","121.395685","24.9729366666667","6500700","樹林區"
"238017","283-BY","2017/11/14 18:49:24","新北市樹林區光興街50號","121.409823333333","25.0027383333333","6500700","樹林區"
"238014","282-BY","2017/11/14 18:49:17","新北市樹林區大安路111巷11號","121.42311","24.997615","6500700","樹林區"
"238020","268-VK","2017/11/14 18:49:25","新北市樹林區俊英街280號","121.423801666667","25.0131366666667","6500700","樹林區"
"238026","172-UY","2017/11/14 18:49:17","新北市樹林區中和街46號","121.389203333333","24.9740166666667","6500700","樹林區"
"238016","169-UY","2017/11/14 18:49:22","新北市樹林區文化街23號","121.419346666667","24.9876233333333","6500700","樹林區"
"239007","AAC-297","2017/11/14 18:49:16","新北市鶯歌區中正一路381-1號","121.358573333333","24.9570333333333","6500800","鶯歌區"
"239006","891-R6","2017/11/14 18:49:24","新北市鶯歌區鶯桃路153號","121.337483333333","24.9550666666667","6500800","鶯歌區"
"239008","527-UM","2017/11/14 18:49:12","新北市鶯歌區國際二路70巷5號","121.335046666667","24.9764533333333","6500800","鶯歌區"
"239005","526-UM","2017/11/14 18:49:12","新北市鶯歌區大湖路361巷24弄28號","121.329695","24.97778","6500800","鶯歌區"
"239001","417-VK","2017/11/14 18:49:14","新北市鶯歌區永明街60巷46號","121.340583333333","24.9552783333333","6500800","鶯歌區"
"239003","360-BY","2017/11/14 18:49:16","新北市鶯歌區鶯桃路658巷97號","121.331906666667","24.9708866666667","6500800","鶯歌區"
"239002","359-BY","2017/11/14 18:49:19","新北市鶯歌區中正一路373號","121.358176666667","24.9570766666667","6500800","鶯歌區"
"239004","193-VK","2017/11/14 18:49:23","新北市鶯歌區中正三路282巷12弄1號","121.328398333333","24.9371183333333","6500800","鶯歌區"
"221008","489-VK","2017/11/14 18:49:24","新北市汐止區康寧街901號","121.651391666667","25.07501","6501100","汐止區"
"221036","130-UY","2017/11/14 18:49:24","新北市汐止區水碓街38號","121.665065","25.0686583333333","6501100","汐止區"
"221015","131-UY","2017/11/14 18:49:11","新北市汐止區鄉長路一段43號","121.665368333333","25.0750033333333","6501100","汐止區"
"221010","269-BY","2017/11/14 18:49:11","新北市汐止區汐萬路二段109號","121.64829","25.0837433333333","6501100","汐止區"
"221012","276-VK","2017/11/14 13:25:51","新北市汐止區汐萬路一段256巷3號","121.653458333333","25.0746183333333","6501100","汐止區"
"221012","278-VK","2017/11/14 18:49:11","新北市汐止區康寧街901號","121.650805","25.0752316666667","6501100","汐止區"
"221023","279-VK","2017/11/14 18:49:29","新北市汐止區康寧街901號","121.650981666667","25.0752216666667","6501100","汐止區"
"221032","280-BY","2017/11/14 18:49:13","新北市汐止區橫科路121巷52弄3號","121.622646666667","25.05093","6501100","汐止區"
"221027","281-BY","2017/11/14 18:49:23","新北市汐止區汐萬路一段256巷3號","121.653351666667","25.0746916666667","6501100","汐止區"
"221029","298-VK","2017/11/14 18:48:28","新北市汐止區工建路44號","121.641311666667","25.063095","6501100","汐止區"
"221021","299-VK","2017/11/14 18:49:23","新北市汐止區大同路二段175號","121.651725","25.0641283333333","6501100","汐止區"
"221031","353-TW","2017/11/14 18:49:25","新北市汐止區福德一路272巷1號","121.631966666667","25.0641","6501100","汐止區"
"221035","622-UM","2017/11/14 18:49:32","新北市汐止區康寧街901號","121.65112","25.0751733333333","6501100","汐止區"
"221025","623-UM","2017/11/14 18:49:27","新北市汐止區水源路一段56號","121.657615","25.065645","6501100","汐止區"
"221038","646-BX","2017/11/14 18:49:30","新北市汐止區汐萬路一段312號","121.650598333333","25.0753183333333","6501100","汐止區"
"221033","647-BX","2017/11/14 18:49:16","新北市汐止區南勢街1巷1號","121.627031666667","25.0374083333333","6501100","汐止區"
"221002","707-TV","2017/11/14 18:49:18","新北市汐止區大同路一段203號","121.633491666667","25.0572866666667","6501100","汐止區"
"221018","753-BX","2017/11/14 18:49:24","新北市汐止區茄苳路18號","121.664926666667","25.0706483333333","6501100","汐止區"
"220079","145-BY","2017/11/14 18:49:30","新北市板橋區民權路202巷7弄2號","121.460048333333","25.0147733333333","6500100","板橋區"
"220080","200-UY","2017/11/14 18:49:27","新北市板橋區大觀路二段265巷66弄24號","121.441665","24.9969983333333","6500100","板橋區"
"220082","610-BX","2017/11/14 18:49:20","新北市板橋區篤行路二段143號","121.429733333333","24.9881816666667","6500100","板橋區"
"220056","276-BY","2017/11/14 18:49:19","新北市板橋區四川路二段14號","121.456136666667","24.9961716666667","6500100","板橋區"
"220072","277-BY","2017/11/14 18:49:28","新北市板橋區金門街19巷8號","121.433988333333","24.9948833333333","6500100","板橋區"
"220101","280-UM","2017/11/14 18:49:24","新北市板橋區民生路二段161巷1號","121.470155","25.01987","6500100","板橋區"
"220071","283-VK","2017/11/14 18:49:31","新北市土城區四川路3號","121.455761666667","24.99607","6500100","板橋區"
"220094","285-UM","2017/11/14 18:49:13","新北市板橋區民生路二段161巷1號","121.470015","25.01981","6500100","板橋區"
"220053","285-VK","2017/11/14 18:49:14","新北市板橋區民生路二段56-6號","121.47074","25.018755","6500100","板橋區"
"220081","287-VK","2017/11/14 18:49:24","新北市板橋區南雅西路二段86號","121.452536666667","25.011095","6500100","板橋區"
"220061","295-UM","2017/11/14 18:49:10","新北市板橋區太和街4巷8號","121.474185","25.0198566666667","6500100","板橋區"
"220084","296-UM","2017/11/14 18:49:24","新北市板橋區大觀路二段150巷77號","121.441403333333","25.001105","6500100","板橋區"
"220075","297-UM","2017/11/14 18:49:18","新北市板橋區館前西路162號","121.452861666667","25.00856","6500100","板橋區"
"220092","299-UM","2017/11/14 16:59:23","新北市泰山區新五路一段43號","121.442298333333","25.0593416666667","6500100","板橋區"
"220062","303-R5","2017/11/14 18:49:31","新北市板橋區中山路二段40巷16號","121.473306666667","25.0147633333333","6500100","板橋區"
"220098","317-R6","2017/11/14 18:49:15","新北市板橋區民生路二段161巷5號","121.470166666667","25.0196916666667","6500100","板橋區"
"220064","486-VK","2017/11/14 18:49:16","新北市板橋區民生路二段1號","121.472763333333","25.015645","6500100","板橋區"
"220088","491-VK","2017/11/14 18:49:16","新北市板橋區民生路二段175號","121.469853333333","25.0202616666667","6500100","板橋區"
"220035","560-BX","2017/11/14 18:49:28","新北市板橋區南雅西路二段301巷34號","121.451933333333","25.0166883333333","6500100","板橋區"
"220103","561-BX","2017/11/14 18:49:26","新北市板橋區民生路二段161巷9號","121.470293333333","25.0196683333333","6500100","板橋區"
"220083","568-UM","2017/11/14 18:49:13","新北市板橋區大觀路二段22巷3號","121.446293333333","25.003295","6500100","板橋區"
"220063","609-BX","2017/11/14 18:49:13","新北市板橋區民生路二段123號","121.47072","25.0185583333333","6500100","板橋區"
"220057","686-BX","2017/11/14 18:49:16","新北市板橋區華東街1-9號","121.448205","24.9948833333333","6500100","板橋區"
"220077","687-BX","2017/11/14 18:49:14","新北市板橋區大觀路一段38巷2號","121.443676666667","25.0044266666667","6500100","板橋區"
"220093","689-BX","2017/11/14 18:49:28","新北市板橋區民生路二段161巷1號","121.47","25.020205","6500100","板橋區"
"220054","741-BX","2017/11/14 18:49:21","新北市板橋區華東街11號","121.450355","24.9975016666667","6500100","板橋區"
"220055","827-TW","2017/11/14 18:49:15","新北市板橋區華東街330號","121.453078333333","25.003645","6500100","板橋區"
"220067","829-TW","2017/11/14 18:49:28","新北市板橋區中山路二段37號","121.473121666667","25.01563","6500100","板橋區"
"220102","830-TW","2017/11/14 15:46:06","新北市板橋區民生路二段161巷5號","121.470246666667","25.019725","6500100","板橋區"
"220096","831-TW","2017/11/14 18:49:29","新北市板橋區民生路二段161巷9號","121.470341666667","25.0195616666667","6500100","板橋區"
"220089","833-TW","2017/11/14 18:49:27","新北市板橋區民生路二段120號","121.470476666667","25.0196983333333","6500100","板橋區"
"220074","895-R6","2017/11/14 18:49:32","新北市板橋區南門街63號","121.457066666667","25.0082166666667","6500100","板橋區"
"220073","985-R7","2017/11/14 18:49:19","新北市板橋區林園街1號","121.453815","25.00917","6500100","板橋區"
"220070","AAC-253","2017/11/14 18:49:20","新北市板橋區館前西路46巷2號","121.458925","25.0070666666667","6500100","板橋區"
