"lineid","car","time","location","longitude","latitude","cityid","cityname"
"234046","148-BY","2017/11/14 19:59:26","新北市永和區成功路一段16巷4號","121.52681","25.0054816666667","6500400","永和區"
"234013","149-BY","2017/11/14 19:59:19","新北市永和區保安路292號","121.505008333333","25.0117683333333","6500400","永和區"
"234007","207-UY","2017/11/14 19:59:21","新北市永和區保生路22巷8號","121.507238333333","25.00802","6500400","永和區"
"234081","298-R6","2017/11/14 19:59:28","新北市永和區國中路8號","121.524245","25.0047333333333","6500400","永和區"
"234038","336-UY","2017/11/14 19:59:13","新北市永和區成功路二段167號","121.526735","24.9970533333333","6500400","永和區"
"234064","337-UY","2017/11/14 19:59:28","新北市永和區中正路412巷2弄12號","121.518561666667","25.0017633333333","6500400","永和區"
"234086","338-UY","2017/11/14 19:59:15","新北市永和區竹林路222-1號","121.520631666667","25.0078116666667","6500400","永和區"
"234070","552-UM","2017/11/14 19:59:23","新北市永和區國光路14號","121.519195","25.0084266666667","6500400","永和區"
"234054","553-UM","2017/11/14 19:59:12","新北市永和區環河東路一段122號","121.520688333333","25.0154833333333","6500400","永和區"
"234017","745-BX","2017/11/14 19:59:16","新北市永和區文化路57號","121.514175","25.0150683333333","6500400","永和區"
"234030","746-BX","2017/11/14 19:59:29","新北市永和區民權路49巷10號","121.520703333333","24.99701","6500400","永和區"
"234061","AAD-866","2017/11/14 19:59:27","新北市永和區中正路283巷17號","121.516708333333","25.0003683333333","6500400","永和區"
"234042","862-TW","2017/11/14 19:59:25","新北市永和區中和路335巷18弄30號","121.508115","25.00044","6500400","永和區"
"234050","863-TW","2017/11/14 19:59:19","新北市永和區保安路264號","121.505933333333","25.0123733333333","6500400","永和區"
"234026","9381-KE","2017/11/14 19:59:08","新北市永和區水源街21巷14弄3號","121.511406666667","25.0037633333333","6500400","永和區"
"234011","9373-KE","2017/11/14 19:59:22","新北市永和區仁愛路352巷112弄10號","121.501073333333","25.00856","6500400","永和區"
"249005","172-UM","2017/11/14 19:59:23","新北市八里區楓林路2-2號","121.383283333333","25.1303266666667","6502300","八里區"
"249001","173-UM","2017/11/14 19:59:18","新北市八里區中華路二段312號","121.403775","25.1483716666667","6502300","八里區"
"249004","303-UY","2017/11/14 19:59:14","新北市八里區中華路一段333-1號","121.41305","25.1541166666667","6502300","八里區"
"249002","305-UY","2017/11/14 19:59:22","新北市八里區龍米路一段87巷77-10號","121.453538333333","25.1231566666667","6502300","八里區"
"249003","593-UM","2017/11/14 19:59:20","新北市八里區中華路二段558號","121.398616666667","25.1453366666667","6502300","八里區"
"248014","025-BX","2017/11/14 19:59:27","新北市五股區五福路22巷6號","121.434635","25.08901","6501500","五股區"
"248016","026-BX","2017/11/14 19:59:31","新北市五股區成泰路三段577巷80弄25號","121.449578333333","25.1045916666667","6501500","五股區"
"248008","095-VK","2017/11/14 19:59:20","新北市五股區四維路30巷34弄1號","121.468761666667","25.071455","6501500","五股區"
"248020","225-UY","2017/11/14 19:59:23","新北市五股區中直路崩山巷1號","121.424486666667","25.1140066666667","6501500","五股區"
"248012","247-BX","2017/11/14 19:59:28","新北市五股區民義路一段54號","121.436551666667","25.084265","6501500","五股區"
"248010","272-BY","2017/11/14 19:59:20","新北市五股區登林路貿商巷1弄8號","121.429233333333","25.0699916666667","6501500","五股區"
"248004","677-BX","2017/11/14 19:59:08","新北市五股區成泰路一段106-1號","121.435671666667","25.0719633333333","6501500","五股區"
"248002","678-BX","2017/11/14 19:59:21","新北市五股區成泰路三段436號","121.45099","25.0996883333333","6501500","五股區"
"234077","969-R7","2017/11/14 19:59:15","新北市永和區民有街7號","121.516148333333","24.9969916666667","6500400","永和區"
"234074","AAC-211","2017/11/14 19:59:23","新北市永和區豫溪街213號","121.524206666667","25.0093933333333","6500400","永和區"
"234067","AAC-212","2017/11/14 19:59:31","新北市永和區永貞路376號","121.509763333333","25.0070883333333","6500400","永和區"
"234003","AAC-295","2017/11/14 19:59:09","新北市永和區中正路708號","121.516045","25.0099516666667","6500400","永和區"
"243012","AAD-798","2017/11/14 19:59:15","新北市泰山區福興街22號","121.434291666667","25.0576216666667","6501600","泰山區"
"243009","297-R6","2017/11/14 19:59:15","新北市泰山區泰林路二段164巷37號","121.434253333333","25.0613116666667","6501600","泰山區"
"243015","380-SR","2017/11/14 19:59:16","新北市泰山區明志路二段246-1號","121.427123333333","25.0481883333333","6501600","泰山區"
"243014","421-VK","2017/11/14 19:59:28","新北市泰山區泰林路二段115號","121.434381666667","25.0594866666667","6501600","泰山區"
"243010","KEA-2215","2017/11/14 19:59:31","新北市泰山區中華街10巷1號","121.427866666667","25.05259","6501600","泰山區"
"243011","KEA-2216","2017/11/14 19:59:18","新北市泰山區明志路三段197號","121.424185","25.038745","6501600","泰山區"
"243013","646-TV","2017/11/14 19:59:27","新北市泰山區應化街13號","121.423831666667","25.0436866666667","6501600","泰山區"
"243016","680-BX","2017/11/14 19:59:23","新北市泰山區中山路三段6號","121.42081","25.0321216666667","6501600","泰山區"
"222003","436-BY","2017/11/14 19:59:10","新北市深坑區埔新街14號","121.620726666667","25.0039683333333","6501800","深坑區"
"222002","659-BX","2017/11/14 19:59:09","新北市深坑區北深路二段81巷27號","121.618585","25.0023583333333","6501800","深坑區"
"231060","001-UM","2017/11/14 19:59:17","新北市新店區安康路二段418號","121.496331666667","24.9551733333333","6500600","新店區"
"231041","002-UM","2017/11/14 19:59:21","新北市新店區中正路351號","121.535303333333","24.9759333333333","6500600","新店區"
"231056","0293-UT","2017/11/14 19:59:24","新北市新店區北新路三段137號","121.541306666667","24.9828716666667","6500600","新店區"
"231059","046-UY","2017/11/14 19:59:31","新北市新店區安康路二段147號","121.511211666667","24.9598483333333","6500600","新店區"
"231061","047-UY","2017/11/14 19:59:18","新北市新店區安民街351號","121.51678","24.9754983333333","6500600","新店區"
"231048","108-UY","2017/11/14 19:59:20","新北市新店區寶宏路38號","121.549445","24.9755133333333","6500600","新店區"
"231053","187-VK","2017/11/14 19:59:27","新北市新店區新烏路三段326號","121.547156666667","24.8966366666667","6500600","新店區"
"231050","KEA-2219","2017/11/14 19:59:30","新北市新店區北宜路一段28號","121.538165","24.9569016666667","6500600","新店區"
"231057","256-BX","2017/11/14 19:59:30","新北市新店區花園二路一段11號","121.555488333333","24.932495","6500600","新店區"
"231054","AAD-862","2017/11/14 19:59:26","新北市新店區光明街123號","121.539405","24.961735","6500600","新店區"
"231058","3712-VJ","2017/11/14 19:59:17","新北市新店區薏仁坑路自強巷6號","121.496678333333","24.9584033333333","6500600","新店區"
"231055","4716-K9","2017/11/14 19:59:27","新北市新店區中華路83巷67號","121.538316666667","24.9672516666667","6500600","新店區"
"231067","4772-VM","2017/11/14 19:59:27","新北市新店區秀山路11巷18弄1號","121.531623333333","24.9589933333333","6500600","新店區"
"231065","512-UM","2017/11/14 19:59:29","新北市新店區安祥路109巷8號","121.475345","24.9587833333333","6500600","新店區"
"231064","515-UM","2017/11/14 19:59:17","新北市新店區光華街6號","121.517968333333","24.968945","6500600","新店區"
"231045","617-UM","2017/11/14 19:59:27","新北市新店區北宜路二段204號","121.559203333333","24.9543616666667","6500600","新店區"
"231040","619-UM","2017/11/14 19:59:16","新北市新店區北新路一段96巷23號","121.542988333333","24.968755","6500600","新店區"
"231042","641-BX","2017/11/14 19:59:17","新北市新店區中興路一段292號","121.546046666667","24.96912","6500600","新店區"
"231063","645-TV","2017/11/14 19:59:30","新北市新店區黎明路52巷9號","121.502025","24.94874","6500600","新店區"
"231068","718-UY","2017/11/14 19:59:30","新北市新店區安華路28-1號","121.51938","24.9612866666667","6500600","新店區"
"231049","719-UM","2017/11/14 19:59:30","新北市新店區明德路73號","121.541388333333","24.9778483333333","6500600","新店區"
"231051","719-UY","2017/11/14 19:59:12","新北市新店區中央二街14號","121.528963333333","24.9732433333333","6500600","新店區"
"231062","720-UM","2017/11/14 19:59:10","新北市新店區華城路36號","121.528415","24.9557883333333","6500600","新店區"
"231044","897-TW","2017/11/14 19:59:27","新北市新店區復興路44號","121.538668333333","24.98676","6500600","新店區"
"231043","899-TW","2017/11/14 19:59:10","新北市新店區中正路265號","121.538118333333","24.9740966666667","6500600","新店區"
"231066","AKT-0513","2017/11/14 19:59:26","新北市新店區安興路20號","121.515076666667","24.9660166666667","6500600","新店區"
"241011","013-R5","2017/11/14 19:59:17","新北市三重區三和路二段165號","121.49788","25.0696183333333","6500200","三重區"
"241028","022-UY","2017/11/14 19:59:29","新北市三重區中正南路41巷1號","121.493866666667","25.0599033333333","6500200","三重區"
"241008","059-VK","2017/11/14 19:59:12","新北市三重區永福街179巷1號","121.478743333333","25.074995","6500200","三重區"
"241009","060-VK","2017/11/14 19:59:15","新北市三重區三和路四段396巷2-1號","121.4815","25.0789933333333","6500200","三重區"
"241031","061-VK","2017/11/14 19:59:28","新北市三重區重新路四段144巷17號","121.486996666667","25.0553383333333","6500200","三重區"
"241015","062-VK","2017/11/14 19:59:19","新北市三重區三和路二段29號","121.501028333333","25.0670183333333","6500200","三重區"
"241017","063-VK","2017/11/14 19:59:16","新北市三重區自強路一段215號","121.491416666667","25.0685333333333","6500200","三重區"
"241026","066-VK","2017/11/14 19:59:20","新北市三重區仁慈街23號","121.502111666667","25.06308","6500200","三重區"
"241003","091-VK","2017/11/14 19:59:15","新北市三重區仁愛街445巷47號","121.491128333333","25.08309","6500200","三重區"
"241005","262-UM","2017/11/14 19:59:26","新北市三重區溪尾街386號","121.489053333333","25.0857216666667","6500200","三重區"
"241024","265-UM","2017/11/14 19:59:23","新北市三重區力行路一段277號","121.482143333333","25.07157","6500200","三重區"
"241016","266-UM","2017/11/14 19:59:16","新北市三重區正義北路46號","121.497378333333","25.063775","6500200","三重區"
"241022","267-UM","2017/11/14 19:59:32","新北市三重區過圳街31巷2號","121.489113333333","25.0605833333333","6500200","三重區"
"241018","268-UM","2017/11/14 19:59:14","新北市三重區雙園街84號","121.495375","25.06762","6500200","三重區"
"241032","269-UM","2017/11/14 19:59:16","新北市三重區朝陽街28號","121.48345","25.0565216666667","6500200","三重區"
"241013","270-UM","2017/11/14 19:59:20","新北市三重區三和路三段125巷9號","121.4933","25.0734233333333","6500200","三重區"
"241025","271-UM","2017/11/14 19:59:29","新北市三重區頂崁街210巷17號","121.476191666667","25.0680383333333","6500200","三重區"
"241020","413-TH","2017/11/14 19:59:26","新北市三重區三和路三段170巷63號","121.490403333333","25.072595","6500200","三重區"
"241004","475-VK","2017/11/14 19:59:15","新北市三重區五華街74號","121.493348333333","25.082015","6500200","三重區"
"241019","478-VK","2017/11/14 19:59:18","新北市三重區重陽路四段38號","121.491258333333","25.069985","6500200","三重區"
"241030","480-VK","2017/11/14 19:59:21","新北市三重區重新路四段240號","121.486046666667","25.0536033333333","6500200","三重區"
"241014","543-UM","2017/11/14 19:59:14","新北市三重區三和路二段156號","121.499358333333","25.068495","6500200","三重區"
"241023","545-UM","2017/11/14 19:59:08","新北市三重區頂崁街172號","121.477558333333","25.065945","6500200","三重區"
"241001","547-UM","2017/11/14 19:59:16","新北市三重區仁愛街283巷38號","121.494411666667","25.079965","6500200","三重區"
"241006","AAD-863","2017/11/14 19:59:12","新北市三重區力行路二段122號","121.482058333333","25.0750366666667","6500200","三重區"
"241035","743-BX","2017/11/14 19:59:15","新北市三重區大榮街13號","121.498283333333","25.063035","6500200","三重區"
"241007","887-TS","2017/11/14 19:59:27","新北市三重區溪尾街154號","121.488931666667","25.08008","6500200","三重區"
"241012","941-UM","2017/11/14 19:59:30","新北市三重區仁厚街43號","121.500205","25.0765066666667","6500200","三重區"
"241029","942-UM","2017/11/14 19:59:20","新北市三重區重安街1號","121.489685","25.0583466666667","6500200","三重區"
"241033","AAC-255","2017/11/14 19:59:09","新北市三重區中興北街61號","121.469466666667","25.0473516666667","6500200","三重區"
"235066","003-UY","2017/11/14 19:59:14","新北市中和區光華街3號","121.504273333333","25.0044","6500300","中和區"
"235063","006-UY","2017/11/14 19:59:28","新北市中和區連城路263巷17號","121.492523333333","24.99503","6500300","中和區"
"235056","096-UM","2017/11/14 19:59:28","新北市中和區中山路三段172號","121.472845","25.0064516666667","6500300","中和區"
"235039","097-UM","2017/11/14 19:59:22","新北市中和區大勇街25巷15弄21-3號","121.515013333333","24.9935183333333","6500300","中和區"
"235065","098-UM","2017/11/14 19:59:16","新北市中和區福祥路93號","121.499031666667","25.006055","6500300","中和區"
"235040","150-BY","2017/11/14 19:59:19","新北市中和區保健路10巷23弄1號","121.507961666667","24.9966833333333","6500300","中和區"
"235058","151-BY","2017/11/14 19:59:21","新北市中和區員山路150巷2弄3號","121.481696666667","24.9982066666667","6500300","中和區"
"235055","183-VK","2017/11/14 19:59:11","新北市中和區德光路18號","121.471078333333","25.0045133333333","6500300","中和區"
"235038","185-VK","2017/11/14 19:59:23","新北市中和區更生街66號","121.52173","24.996175","6500300","中和區"
"235049","186-VK","2017/11/14 19:59:23","新北市中和區景平路522號","121.503231666667","24.9941083333333","6500300","中和區"
"235067","255-BX","2017/11/14 19:59:27","新北市中和區員山路148巷23弄9號","121.482211666667","24.99769","6500300","中和區"
"235044","293-VK","2017/11/14 19:59:22","新北市中和區中正路91號","121.50042","24.99352","6500300","中和區"
"235072","301-VK","2017/11/14 19:59:21","新北市板橋區中山路二段490號","121.485905","25.0215133333333","6500300","中和區"
"235043","352-BY","2017/11/14 19:59:21","新北市中和區興南路二段159巷1號","121.505233333333","24.9833616666667","6500300","中和區"
"235068","377-QA","2017/11/14 19:59:11","新北市中和區景平路736巷1弄7號","121.49737","25.0040883333333","6500300","中和區"
"235050","4979-A6","2017/11/14 19:59:26","新北市中和區景平路155號","121.513423333333","24.99195","6500300","中和區"
"235070","558-UM","2017/11/14 19:59:20","新北市中和區圓通路83號","121.499915","24.9968783333333","6500300","中和區"
"235054","640-BX","2017/11/14 19:59:22","新北市中和區莒光路112號","121.472413333333","25.0020566666667","6500300","中和區"
"235047","732-UM","2017/11/14 19:59:31","新北市中和區和平街97-2號","121.505178333333","24.992165","6500300","中和區"
"235046","733-UM","2017/11/14 19:59:30","新北市中和區興南路一段93巷89弄1號","121.51065","24.9861016666667","6500300","中和區"
"235057","801-TS","2017/11/14 19:59:25","新北市中和區中正路998號","121.482721666667","25.0086","6500300","中和區"
"235052","805-TS","2017/11/14 19:59:14","新北市中和區華新街192巷22弄19號","121.506853333333","24.9833416666667","6500300","中和區"
"235048","896-TW","2017/11/14 19:59:19","新北市中和區景新街385號","121.512368333333","24.9901733333333","6500300","中和區"
"235053","900-TW","2017/11/14 19:59:25","新北市中和區民德路80號","121.46869","25.0012933333333","6500300","中和區"
"235037","157-BY","2017/11/14 19:59:25","新北市中和區中興街233巷10號","121.50153","24.9894983333333","6500300","中和區"
"235037","AAC-213","2017/11/14 19:59:22","新北市中和區自立路36-8號","121.522533333333","24.9927416666667","6500300","中和區"
"235059","AAC-215","2017/11/14 19:59:19","新北市中和區錦和路408號","121.49123","24.9896016666667","6500300","中和區"
"220068","013-TV","2017/11/14 19:59:28","新北市板橋區光復街82號","121.48304","25.018535","6500100","板橋區"
"220065","072-UY","2017/11/14 19:59:24","新北市板橋區民族路89號","121.466295","25.0085933333333","6500100","板橋區"
"220106","075-UY","2017/11/14 19:59:03","新北市板橋區民治街52巷40號","121.47832","25.0324166666667","6500100","板橋區"
"220069","AAD-861","2017/11/14 19:59:18","新北市板橋區貴興路121號","121.45564","25.0022616666667","6500100","板橋區"
"220090","120-SR","2017/11/14 19:59:25","新北市板橋區英士路192-1號","121.458538333333","25.0234933333333","6500100","板橋區"
"247020","500-BY","2017/11/14 19:59:23","新北市蘆洲區民義街66號","121.472953333333","25.0896916666667","6501400","蘆洲區"
"247010","339-TH","2017/11/14 19:59:28","新北市蘆洲區集賢路232-1號","121.482175","25.0860616666667","6501400","蘆洲區"
"247002","337-TH","2017/11/14 19:59:09","新北市蘆洲區長安街274巷11號","121.457981666667","25.087035","6501400","蘆洲區"
"247004","335-TH","2017/11/14 19:59:17","新北市蘆洲區永康街39號","121.457233333333","25.0852433333333","6501400","蘆洲區"
"247016","057-VK","2017/11/14 19:59:21","新北市蘆洲區光華路1號","121.469875","25.0834866666667","6501400","蘆洲區"
"247006","056-VK","2017/11/14 19:59:23","新北市蘆洲區九芎街88號","121.465845","25.0798166666667","6501400","蘆洲區"
"247008","053-VK","2017/11/14 19:59:21","新北市蘆洲區中山一路95巷22弄1號","121.477481666667","25.0802366666667","6501400","蘆洲區"
"247014","007-UY","2017/11/14 19:59:21","新北市蘆洲區成功路115號","121.47248","25.0819466666667","6501400","蘆洲區"
"247024","002-UY","2017/11/14 19:59:25","新北市蘆洲區光榮路120巷12號","121.465591666667","25.0883516666667","6501400","蘆洲區"
"226004","312-R5","2017/11/14 19:59:13","新北市平溪區靜安路二段550號","121.747455","25.0250766666667","6502400","平溪區"
"228003","828-UM","2017/11/14 19:59:26","新北市貢寮區仁理村仁和路112號","121.922911666667","25.051025","6502600","貢寮區"
"227009","642-TC","2017/11/14 19:59:22","新北市雙溪區新基里新基南街25號","121.866171666667","25.0381516666667","6502500","雙溪區"
"227003","400-TW","2017/11/14 19:59:28","新北市雙溪區雙溪里長安街16號","121.86495","25.0346966666667","6502500","雙溪區"
"222001","KEA-2212","2017/11/14 19:59:31","新北市深坑區北深路三段184號","121.602","25.0036466666667","6501800","深坑區"
"208002","742-BX","2017/11/14 19:59:16","新北市金山區中山路16號","121.641558333333","25.2177466666667","6502700","金山區"
"208003","665-BX","2017/11/14 19:59:15","新北市金山區海興路1-3號","121.634083333333","25.2442916666667","6502700","金山區"
"208001","761-BX","2017/11/14 19:59:17","新北市金山區南勢41號","121.629038333333","25.21984","6502700","金山區"
"251005","010-UM","2017/11/14 19:59:12","新北市淡水區學府路136巷26號","121.451506666667","25.17271","6501000","淡水區"
"251001","011-UM","2017/11/14 19:59:10","新北市淡水區淡金路一段166號","121.454131666667","25.1798383333333","6501000","淡水區"
"251014","180-VK","2017/11/14 19:59:25","新北市淡水區淡金路五段118號","121.457285","25.2365183333333","6501000","淡水區"
"251008","181-VK","2017/11/14 19:59:10","新北市淡水區淡海路61號","121.422995","25.18093","6501000","淡水區"
"251012","441-VK","2017/11/14 19:59:24","新北市淡水區下圭柔山61-5號","121.447778333333","25.2048783333333","6501000","淡水區"
"251016","442-VK","2017/11/14 19:59:28","新北市淡水區淡金路四段660號","121.452356666667","25.2317983333333","6501000","淡水區"
"251006","561-UM","2017/11/14 19:59:21","新北市淡水區水碓街28號","121.444096666667","25.177285","6501000","淡水區"
"251009","575-R6","2017/11/14 19:59:13","新北市淡水區英專路21巷13號","121.44502","25.1696683333333","6501000","淡水區"
"251011","650-BX","2017/11/14 19:59:18","新北市淡水區崁頂55-3號","121.442311666667","25.1966266666667","6501000","淡水區"
"207003","550-UM","2017/11/14 19:59:23","新北市萬里區磺潭里公館崙5號","121.641883333333","25.21423","6502800","萬里區"
"207004","225-TW","2017/11/14 19:59:27","新北市萬里區北基里忠二街35號","121.685598333333","25.17574","6502800","萬里區"
"252002","178-VK","2017/11/14 19:59:28","新北市三芝區忠孝街116-3號","121.505491666667","25.2575883333333","6502100","三芝區"
"252001","292-VK","2017/11/14 19:59:14","新北市三芝區公正街9號","121.499766666667","25.257495","6502100","三芝區"
"237007","153-BY","2017/11/14 19:59:30","新北市三峽區二鬮路136巷24弄7號","121.356165","24.91011","6500900","三峽區"
"237009","210-TH","2017/11/14 19:59:14","新北市三峽區民族街76號","121.369553333333","24.9299033333333","6500900","三峽區"
"237013","252-BX","2017/11/14 19:59:26","新北市三峽區大義路189號","121.378141666667","24.9453466666667","6500900","三峽區"
"237012","275-BY","2017/11/14 19:59:20","新北市三峽區中華路3巷8-1號","121.37494","24.93115","6500900","三峽區"
"237008","302-VK","2017/11/14 19:59:30","新北市三峽區中華路75巷17號","121.372758333333","24.9295466666667","6500900","三峽區"
"237014","433-BY","2017/11/14 19:59:19","新北市三峽區中正路一段149號","121.373291666667","24.9288016666667","6500900","三峽區"
"237016","649-BX","2017/11/14 19:59:30","新北市三峽區介壽路三段20號","121.395978333333","24.936145","6500900","三峽區"
"237005","AKY-6261","2017/11/14 19:59:28","新北市三峽區三樹路44巷16號","121.378423333333","24.9375433333333","6500900","三峽區"
"236070","105-UM","2017/11/14 19:59:24","新北市土城區忠義路77號","121.443086666667","24.96502","6501300","土城區"
"236043","107-UM","2017/11/14 19:59:25","新北市土城區學府路一段145號","121.453626666667","24.986105","6501300","土城區"
"236079","166-UM","2017/11/14 19:59:20","新北市土城區福安街100號","121.417591666667","24.9640066666667","6501300","土城區"
"236031","253-BX","2017/11/14 19:59:30","新北市土城區中央路一段250巷2-2號","121.44407","24.9847783333333","6501300","土城區"
"236027","269-VK","2017/11/14 19:59:27","新北市土城區員林街1號","121.442278333333","24.978265","6501300","土城區"
"236015","270-VK","2017/11/14 19:59:16","新北市土城區廣福街123號","121.456223333333","24.99284","6501300","土城區"
"236038","271-VK","2017/11/14 19:59:15","新北市土城區國際路81號","121.467065","24.9760366666667","6501300","土城區"
"236023","401-BY","2017/11/14 19:59:23","新北市土城區延吉街165巷7號","121.470391666667","24.985295","6501300","土城區"
"236059","912-UM","2017/11/14 19:59:29","新北市土城區中央路一段191號","121.446111666667","24.987085","6501300","土城區"
"236049","913-UM","2017/11/14 19:59:26","新北市土城區金城路三段192號","121.468405","24.9880966666667","6501300","土城區"
"236063","915-UM","2017/11/14 19:59:14","新北市土城區延和路62巷8弄2號","121.466106666667","24.9884983333333","6501300","土城區"
"236055","AAC-216","2017/11/14 19:59:30","新北市土城區延和路9號","121.463811666667","24.9878983333333","6501300","土城區"
"242032","AAC-296","2017/11/14 19:59:20","新北市新莊區公園一路25號","121.443348333333","25.0352016666667","6500500","新莊區"
"242029","986-R7","2017/11/14 19:59:24","新北市新莊區中平路357號","121.444708333333","25.0517366666667","6500500","新莊區"
"242051","751-BX","2017/11/14 19:59:28","新北市新莊區西盛街137號","121.428181666667","25.0185116666667","6500500","新莊區"
"242025","615-BX","2017/11/14 19:59:20","新北市新莊區五工二路86巷22號","121.460255","25.0669366666667","6500500","新莊區"
"242023","613-BX","2017/11/14 19:59:30","新北市新莊區化成路374號","121.465883333333","25.0497966666667","6500500","新莊區"
"242027","612-BX","2017/11/14 19:59:19","新北市新莊區立信一街60號","121.443058333333","25.049915","6500500","新莊區"
"242039","566-BX","2017/11/14 19:59:19","新北市新莊區民安路299巷20號","121.429328333333","25.0229983333333","6500500","新莊區"
"242044","497-BY","2017/11/14 19:59:25","新北市新莊區中正路746巷58-1號","121.412331666667","25.0239283333333","6500500","新莊區"
"242048","441-UM","2017/11/14 19:59:24","新北市新莊區民安路181巷2弄12號","121.42637","25.0225716666667","6500500","新莊區"
"242054","440-UM","2017/11/14 19:59:26","新北市新莊區西盛街423號","121.427241666667","25.012175","6500500","新莊區"
"242034","415-TV","2017/11/14 19:59:29","新北市新莊區建中街92號","121.446833333333","25.0366283333333","6500500","新莊區"
"242042","400-BY","2017/11/14 19:59:23","新北市新莊區青山路一段122號","121.404395","25.0289816666667","6500500","新莊區"
"242061","362-BY","2017/11/14 19:59:24","新北市新莊區瓊泰路3號","121.44493","25.0286","6500500","新莊區"
"242058","353-BY","2017/11/14 19:59:25","新北市新莊區八德街139號","121.423731666667","25.0199666666667","6500500","新莊區"
"242007","132-UY","2017/11/14 19:59:08","新北市新莊區思源路539號","121.459735","25.05737","6500500","新莊區"
"242037","133-UY","2017/11/14 19:59:14","新北市新莊區建安街41巷8號","121.42903","25.02533","6500500","新莊區"
"242021","135-UY","2017/11/14 19:59:14","新北市新莊區建中街48巷10弄12號","121.448641666667","25.03845","6500500","新莊區"
"242046","172-VK","2017/11/14 19:59:19","新北市新莊區裕民街19巷4號","121.419626666667","25.0251933333333","6500500","新莊區"
"242009","173-VK","2017/11/14 19:59:26","新北市新莊區幸福路795號","121.446355","25.048995","6500500","新莊區"
"242015","175-VK","2017/11/14 19:59:21","新北市新莊區泰順街31號","121.446125","25.0424866666667","6500500","新莊區"
"242002","176-VK","2017/11/14 19:59:18","新北市新莊區中正路219號","121.450941666667","25.035785","6500500","新莊區"
"242013","346-TH","2017/11/14 19:59:23","新北市新莊區幸福路670巷2弄1號","121.450966666667","25.0496333333333","6500500","新莊區"
"242017","347-TH","2017/11/14 19:59:30","新北市新莊區中港路318號","121.452716666667","25.0456983333333","6500500","新莊區"
"242019","348-TH","2017/11/14 19:59:26","新北市新莊區長青街37巷9號","121.456425","25.0417983333333","6500500","新莊區"
"242056","349-TH","2017/11/14 19:59:29","新北市新莊區中正路347巷26號","121.447081666667","25.0341416666667","6500500","新莊區"
"242011","351-TH","2017/11/14 19:59:20","新北市新莊區中港路531巷58號","121.45009","25.0517383333333","6500500","新莊區"
"238015","755-BX","2017/11/14 19:59:26","新北市樹林區中山路三段214號","121.380158333333","24.96793","6500700","樹林區"
"238021","KEA-2217","2017/11/14 19:59:20","新北市樹林區佳園路三段145巷8號","121.38657","24.949135","6500700","樹林區"
"238016","308-TH","2017/11/14 13:28:00","新北市樹林區育德街76巷1號","121.388758333333","24.9683016666667","6500700","樹林區"
"238025","303-VK","2017/11/14 19:59:26","新北市樹林區中山路三段202-1號","121.385918333333","24.9684416666667","6500700","樹林區"
"238020","268-VK","2017/11/14 19:59:25","新北市樹林區中山路三段214號","121.37982","24.9676016666667","6500700","樹林區"
"221008","489-VK","2017/11/14 19:59:24","台北市內湖區康樂街125巷2號","121.619618333333","25.073415","6501100","汐止區"
"221036","130-UY","2017/11/14 19:59:24","新北市汐止區新台五路二段85巷16號","121.664346666667","25.06739","6501100","汐止區"
"221015","131-UY","2017/11/14 19:59:31","新北市汐止區大同路二段701號","121.665093333333","25.072715","6501100","汐止區"
"221010","269-BY","2017/11/14 19:59:11","新北市汐止區連峰街227號","121.645016666667","25.081335","6501100","汐止區"
"221012","276-VK","2017/11/14 13:25:51","新北市汐止區汐萬路一段256巷3號","121.653458333333","25.0746183333333","6501100","汐止區"
"221012","278-VK","2017/11/14 19:59:10","新北市汐止區祥雲街三段196號","121.674681666667","25.0740633333333","6501100","汐止區"
"221023","279-VK","2017/11/14 19:59:29","新北市汐止區明峰街190號","121.628166666667","25.069695","6501100","汐止區"
"221032","280-BY","2017/11/14 19:59:13","新北市汐止區橫科路18巷10號","121.617771666667","25.0505066666667","6501100","汐止區"
"221027","281-BY","2017/11/14 19:59:23","新北市汐止區中正路51號","121.66204","25.069975","6501100","汐止區"
"221029","298-VK","2017/11/14 19:59:28","新北市汐止區樟樹一路137巷23號","121.641035","25.0658616666667","6501100","汐止區"
"221021","299-VK","2017/11/14 19:59:23","新北市汐止區青山路4號","121.655656666667","25.062645","6501100","汐止區"
"221031","353-TW","2017/11/14 19:59:25","新北市汐止區福德一路176巷14號","121.6353","25.0665266666667","6501100","汐止區"
"221035","622-UM","2017/11/14 19:59:13","新北市汐止區長江街57巷8號","121.656218333333","25.0718533333333","6501100","汐止區"
"221025","623-UM","2017/11/14 19:59:27","新北市汐止區秀峰路114號","121.659996666667","25.0635566666667","6501100","汐止區"
"221038","646-BX","2017/11/14 19:59:10","新北市汐止區忠孝東路480號","121.6662","25.073855","6501100","汐止區"
"221033","647-BX","2017/11/14 19:59:16","新北市汐止區東勢街201巷104號","121.633405","25.0429883333333","6501100","汐止區"
"221018","753-BX","2017/11/14 19:59:27","新北市汐止區茄苳路270號","121.672098333333","25.0680983333333","6501100","汐止區"
"220079","145-BY","2017/11/14 19:59:33","新北市板橋區南雅西路二段185號","121.451896666667","25.0128566666667","6500100","板橋區"
"220080","200-UY","2017/11/14 19:59:27","新北市板橋區大觀路二段69巷3號","121.446863333333","25.00229","6500100","板橋區"
"220082","610-BX","2017/11/14 19:59:20","新北市板橋區大觀路三段121號","121.432663333333","24.99449","6500100","板橋區"
"220072","277-BY","2017/11/14 19:59:28","新北市板橋區篤行路二段77巷9弄2號","121.432563333333","24.9917583333333","6500100","板橋區"
"220101","280-UM","2017/11/14 19:59:30","新北市板橋區縣民大道三段69號","121.475046666667","25.0214233333333","6500100","板橋區"
"220071","283-VK","2017/11/14 19:59:24","新北市板橋區五權街30巷18號","121.464148333333","24.9932116666667","6500100","板橋區"
"220094","285-UM","2017/11/14 19:59:13","新北市板橋區雨農路19號","121.461786666667","25.0245116666667","6500100","板橋區"
"220053","285-VK","2017/11/14 19:59:14","新北市板橋區永豐街45-1號","121.474286666667","25.0175933333333","6500100","板橋區"
"220081","287-VK","2017/11/14 19:59:24","新北市板橋區僑中一街80巷12弄2號","121.448011666667","25.0130516666667","6500100","板橋區"
"220061","295-UM","2017/11/14 19:59:10","新北市板橋區觀光街55號","121.470493333333","25.0164183333333","6500100","板橋區"
"220084","296-UM","2017/11/14 19:59:23","新北市板橋區溪崑二街106巷12號","121.426163333333","24.989075","6500100","板橋區"
"220075","297-UM","2017/11/14 19:59:21","新北市板橋區金華街10巷106號","121.45887","25.0204983333333","6500100","板橋區"
"220092","299-UM","2017/11/14 19:59:29","新北市板橋區光正街45巷6弄19號","121.460848333333","25.0168933333333","6500100","板橋區"
"220062","303-R5","2017/11/14 19:59:31","新北市板橋區萬安街20巷2弄13號","121.485285","25.0228283333333","6500100","板橋區"
"220098","317-R6","2017/11/14 19:59:15","新北市板橋區漢生西路165巷16號","121.462748333333","25.023485","6500100","板橋區"
"220064","486-VK","2017/11/14 19:59:23","新北市板橋區館前東路130號","121.463958333333","25.0078266666667","6500100","板橋區"
"242005","280-VK","2017/11/14 19:59:25","新北市新莊區化成路228號","121.46562","25.0468866666667","6500500","新莊區"
"220088","491-VK","2017/11/14 19:59:16","新北市板橋區懷德街236號","121.480521666667","25.0287483333333","6500100","板橋區"
"220035","560-BX","2017/11/14 19:59:28","新北市板橋區新生街87巷32號","121.456563333333","25.0221816666667","6500100","板橋區"
"220103","561-BX","2017/11/14 19:59:26","新北市板橋區陽明街29巷2號","121.465325","25.021795","6500100","板橋區"
"220083","568-UM","2017/11/14 19:59:24","新北市板橋區僑中二街48巷24號","121.445335","25.0104583333333","6500100","板橋區"
"220091","637-BX","2017/11/14 19:59:19","新北市板橋區文聖街89巷26號","121.478201666667","25.0303016666667","6500100","板橋區"
"220057","686-BX","2017/11/14 19:59:16","新北市板橋區信義路208號","121.460101666667","24.9909","6500100","板橋區"
"220093","689-BX","2017/11/14 19:59:28","新北市板橋區長江路三段122號","121.475296666667","25.0343166666667","6500100","板橋區"
"220054","741-BX","2017/11/14 19:59:21","新北市板橋區國泰街75巷28弄84-3號","121.467158333333","25.0041833333333","6500100","板橋區"
"220055","827-TW","2017/11/14 19:59:15","新北市板橋區仁愛路64號","121.459856666667","24.9993933333333","6500100","板橋區"
"220067","829-TW","2017/11/14 19:59:28","新北市板橋區中山路一段214號","121.470153333333","25.0140166666667","6500100","板橋區"
"220102","830-TW","2017/11/14 19:59:14","新北市板橋區松柏街81號","121.476558333333","25.0307966666667","6500100","板橋區"
"220096","831-TW","2017/11/14 19:59:29","新北市板橋區莒光路68號","121.471266666667","25.0240916666667","6500100","板橋區"
"220089","833-TW","2017/11/14 19:59:29","新北市板橋區龍泉街55巷22號","121.45754","25.02527","6500100","板橋區"
"220074","895-R6","2017/11/14 19:59:21","新北市板橋區民權路81號","121.461045","25.011835","6500100","板橋區"
"220073","985-R7","2017/11/14 19:59:20","新北市板橋區南雅西路二段147號","121.452201666667","25.011855","6500100","板橋區"
"220097","AAC-210","2017/11/14 19:59:22","新北市板橋區光正街16巷14號","121.463201666667","25.0174416666667","6500100","板橋區"
"220070","AAC-253","2017/11/14 19:59:20","新北市板橋區四川路一段336號","121.456971666667","24.9970933333333","6500100","板橋區"
