"lineid","car","time","location","longitude","latitude","cityid","cityname"
"234046","148-BY","2017/11/14 20:09:26","新北市永和區得和路412號","121.525953333333","24.9991066666667","6500400","永和區"
"234013","149-BY","2017/11/14 20:09:19","新北市永和區永貞路415號","121.507283333333","25.0093883333333","6500400","永和區"
"234007","207-UY","2017/11/14 20:09:21","新北市永和區保生路64號","121.505126666667","25.0089416666667","6500400","永和區"
"234081","298-R6","2017/11/14 20:09:20","新北市永和區永亨路107號","121.523356666667","25.0047983333333","6500400","永和區"
"234038","336-UY","2017/11/14 20:09:13","新北市永和區成功路一段74號","121.526815","25.00327","6500400","永和區"
"234064","337-UY","2017/11/14 20:09:16","新北市永和區永利路156號","121.522625","25.00273","6500400","永和區"
"234086","338-UY","2017/11/14 20:09:15","新北市永和區福和路213號","121.519336666667","25.0075216666667","6500400","永和區"
"234070","552-UM","2017/11/14 20:09:23","新北市永和區福和路183巷1號","121.519958333333","25.007395","6500400","永和區"
"234054","553-UM","2017/11/14 20:09:12","新北市永和區博愛街20巷2號","121.517741666667","25.0158116666667","6500400","永和區"
"234017","745-BX","2017/11/14 20:09:16","新北市永和區文化路69號","121.513996666667","25.01512","6500400","永和區"
"234030","746-BX","2017/11/14 20:09:25","新北市永和區民權路49巷20號","121.521113333333","24.9973333333333","6500400","永和區"
"234061","AAD-866","2017/11/14 20:09:27","新北市永和區中正路151巷8弄1號","121.51592","24.9986666666667","6500400","永和區"
"234042","862-TW","2017/11/14 20:09:24","新北市永和區雙和街60號","121.50901","25.0034016666667","6500400","永和區"
"234050","863-TW","2017/11/14 20:09:24","新北市永和區環河西路二段101號","121.506428333333","25.0147383333333","6500400","永和區"
"234011","9373-KE","2017/11/14 20:09:22","新北市永和區仁愛路352巷122弄13號","121.50062","25.0090966666667","6500400","永和區"
"249005","172-UM","2017/11/14 20:09:24","新北市八里區福德新村1號","121.385965","25.1366133333333","6502300","八里區"
"249001","173-UM","2017/11/14 20:09:18","新北市八里區中華路二段326號","121.40329","25.1479666666667","6502300","八里區"
"249004","303-UY","2017/11/14 20:09:14","新北市八里區中山路一段157巷67號","121.41228","25.1578083333333","6502300","八里區"
"249002","305-UY","2017/11/14 20:09:22","新北市八里區龍米路一段51號","121.45646","25.1193283333333","6502300","八里區"
"249003","593-UM","2017/11/14 20:09:20","新北市八里區中山路二段540巷9弄18號","121.396568333333","25.1468016666667","6502300","八里區"
"248014","025-BX","2017/11/14 20:09:27","新北市五股區五福路14巷24號","121.435385","25.0888366666667","6501500","五股區"
"248016","026-BX","2017/11/14 20:09:13","新北市五股區天乙路60號","121.448155","25.1046633333333","6501500","五股區"
"248008","095-VK","2017/11/14 20:09:20","新北市五股區中興路一段1巷12弄24-1號","121.469343333333","25.0705583333333","6501500","五股區"
"248020","225-UY","2017/11/14 20:09:23","新北市五股區凌雲路三段24巷16號","121.434736666667","25.1059416666667","6501500","五股區"
"248012","247-BX","2017/11/14 20:09:29","新北市五股區民義路一段212號","121.430445","25.0895283333333","6501500","五股區"
"248010","272-BY","2017/11/14 20:09:20","新北市五股區自強路133號","121.432185","25.0697433333333","6501500","五股區"
"248004","677-BX","2017/11/14 20:09:08","新北市五股區成泰路一段32巷58號","121.434915","25.067015","6501500","五股區"
"248002","678-BX","2017/11/14 20:09:24","新北市五股區成泰路三段365號","121.448691666667","25.0958233333333","6501500","五股區"
"234023","9380-KE","2017/11/14 20:09:18","新北市永和區中正路662巷12號","121.517715","25.008785","6500400","永和區"
"234077","969-R7","2017/11/14 20:09:14","新北市永和區民光街22巷2號","121.516053333333","24.995705","6500400","永和區"
"234074","AAC-211","2017/11/14 20:09:23","新北市永和區豫溪街169巷2-1號","121.521878333333","25.0104333333333","6500400","永和區"
"234067","AAC-212","2017/11/14 20:09:11","新北市永和區保平路214巷12弄1號","121.508985","25.006765","6500400","永和區"
"234003","AAC-295","2017/11/14 20:09:29","新北市永和區中正路626號","121.517063333333","25.0079383333333","6500400","永和區"
"244024","742-UY","2017/11/14 20:03:20","新北市林口區粉寮路二段160巷28號","121.405166666667","25.0907766666667","6501700","林口區"
"243012","AAD-798","2017/11/14 20:09:15","新北市泰山區楓江路62號","121.436948333333","25.063215","6501600","泰山區"
"243009","297-R6","2017/11/14 20:09:20","新北市泰山區泰林路二段116巷3弄2號","121.43515","25.0595533333333","6501600","泰山區"
"243015","380-SR","2017/11/14 20:09:16","新北市泰山區明志路二段214巷16弄21號","121.426745","25.0497733333333","6501600","泰山區"
"243014","421-VK","2017/11/14 20:09:21","新北市泰山區明志路一段14號","121.433621666667","25.0658116666667","6501600","泰山區"
"243010","KEA-2215","2017/11/14 20:09:12","新北市泰山區明志路二段136巷22號","121.426323333333","25.0518533333333","6501600","泰山區"
"243011","KEA-2216","2017/11/14 20:09:18","新北市泰山區壽山路160巷2號","121.417011666667","25.0310183333333","6501600","泰山區"
"243013","646-TV","2017/11/14 20:09:28","新北市泰山區明志路三段76號","121.424923333333","25.04174","6501600","泰山區"
"243016","680-BX","2017/11/14 20:09:23","新北市泰山區貴陽街29號","121.422278333333","25.033035","6501600","泰山區"
"222003","436-BY","2017/11/14 20:09:31","新北市深坑區埔新街60號","121.620233333333","25.00244","6501800","深坑區"
"222002","659-BX","2017/11/14 20:09:29","新北市深坑區北深路三段158巷28號","121.601891666667","25.004275","6501800","深坑區"
"231060","001-UM","2017/11/14 20:09:17","新北市新店區安康路三段312號","121.487191666667","24.9518183333333","6500600","新店區"
"231041","002-UM","2017/11/14 20:09:13","新北市新店區中正路460號","121.533971666667","24.9793733333333","6500600","新店區"
"231056","0293-UT","2017/11/14 20:09:24","新北市新店區北新路二段29巷3弄2號","121.542063333333","24.97302","6500600","新店區"
"231059","046-UY","2017/11/14 20:09:11","新北市新店區安德街37號","121.511378333333","24.9624833333333","6500600","新店區"
"231061","047-UY","2017/11/14 20:09:18","新北市新店區安興路32號","121.515576666667","24.9701883333333","6500600","新店區"
"231048","108-UY","2017/11/14 20:09:20","新北市新店區永華街22號","121.544068333333","24.9759766666667","6500600","新店區"
"231053","187-VK","2017/11/14 20:09:27","新北市新店區新烏路三段寶島巷2弄3號","121.551978333333","24.89865","6500600","新店區"
"231050","KEA-2219","2017/11/14 20:09:10","新北市新店區北新路一段96巷23號","121.54279","24.9687566666667","6500600","新店區"
"231057","256-BX","2017/11/14 20:09:10","新北市新店區花園一路一段2號","121.553083333333","24.93245","6500600","新店區"
"231054","AAD-862","2017/11/14 20:09:20","新北市新店區檳榔路24號","121.541331666667","24.9640033333333","6500600","新店區"
"231058","3712-VJ","2017/11/14 20:09:17","新北市新店區薏仁坑路自強巷1號","121.496806666667","24.9580483333333","6500600","新店區"
"231055","4716-K9","2017/11/14 20:09:27","新北市新店區中華路42巷25號","121.540941666667","24.9690266666667","6500600","新店區"
"231067","4772-VM","2017/11/14 20:09:27","新北市新店區溪洲路101-1號","121.532038333333","24.9624066666667","6500600","新店區"
"231065","512-UM","2017/11/14 20:09:29","新北市新店區安祥路106巷214號","121.473935","24.9603716666667","6500600","新店區"
"231064","515-UM","2017/11/14 20:09:16","新北市新店區安康路二段58巷3號","121.51477","24.9642716666667","6500600","新店區"
"231045","617-UM","2017/11/14 20:09:17","新北市新店區北宜路二段245號","121.554055","24.9536183333333","6500600","新店區"
"231040","619-UM","2017/11/14 20:09:16","新北市新店區中正路12號","121.545383333333","24.9695766666667","6500600","新店區"
"231042","641-BX","2017/11/14 20:09:17","新北市新店區中興路二段200-1號","121.54829","24.9740566666667","6500600","新店區"
"231063","645-TV","2017/11/14 20:09:20","新北市新店區黎明路55巷1號","121.502371666667","24.9482983333333","6500600","新店區"
"231068","718-UY","2017/11/14 20:09:10","新北市新店區北新路一段91號","121.53881","24.9617516666667","6500600","新店區"
"231049","719-UM","2017/11/14 20:09:10","新北市新店區北新路二段121巷7號","121.542146666667","24.9749233333333","6500600","新店區"
"231051","719-UY","2017/11/14 20:09:12","新北市新店區中央五街3-2號","121.53034","24.9743883333333","6500600","新店區"
"231062","720-UM","2017/11/14 20:09:30","新北市新店區安忠路57巷11弄14號","121.51525","24.957945","6500600","新店區"
"231044","897-TW","2017/11/14 20:09:26","新北市新店區寶慶街58巷6號","121.542071666667","24.9870483333333","6500600","新店區"
"231043","899-TW","2017/11/14 20:09:15","新北市新店區民族路192號","121.536188333333","24.9753216666667","6500600","新店區"
"231066","AKT-0513","2017/11/14 20:09:26","新北市新店區安德街60巷21號","121.510366666667","24.963345","6500600","新店區"
"241011","013-R5","2017/11/14 20:09:18","新北市三重區仁愛街32號","121.496353333333","25.071755","6500200","三重區"
"241028","022-UY","2017/11/14 20:09:29","新北市三重區仁化街125號","121.494611666667","25.057545","6500200","三重區"
"241008","059-VK","2017/11/14 20:09:12","新北市三重區永福街197巷37弄5號","121.478186666667","25.0742016666667","6500200","三重區"
"241009","060-VK","2017/11/14 20:09:16","新北市三重區永福街10巷2號","121.482886666667","25.077885","6500200","三重區"
"241031","061-VK","2017/11/14 20:09:28","新北市三重區過圳街9-1號","121.488781666667","25.06017","6500200","三重區"
"241015","062-VK","2017/11/14 20:09:28","新北市三重區福德北路43號","121.5023","25.064915","6500200","三重區"
"241017","063-VK","2017/11/14 20:09:16","新北市三重區長壽西街173號","121.492545","25.06651","6500200","三重區"
"241026","066-VK","2017/11/14 20:09:20","新北市三重區福德南路69號","121.5022","25.0602816666667","6500200","三重區"
"241002","090-VK","2017/11/14 20:09:31","新北市三重區仁忠街31號","121.495878333333","25.0820066666667","6500200","三重區"
"241003","091-VK","2017/11/14 20:09:15","新北市三重區仁愛街423-1號","121.490368333333","25.0814833333333","6500200","三重區"
"241005","262-UM","2017/11/14 20:09:26","新北市三重區碧華街294巷9號","121.489275","25.0840633333333","6500200","三重區"
"241024","265-UM","2017/11/14 20:09:23","新北市三重區中正北路294號","121.48017","25.068855","6500200","三重區"
"241016","266-UM","2017/11/14 20:09:16","新北市三重區大同北路65號","121.495088333333","25.063535","6500200","三重區"
"241022","267-UM","2017/11/14 20:09:11","新北市三重區新北大道一段17號","121.488026666667","25.0611766666667","6500200","三重區"
"241018","268-UM","2017/11/14 20:09:22","新北市三重區正義北路207號","121.496173333333","25.0684566666667","6500200","三重區"
"241032","269-UM","2017/11/14 20:09:16","新北市三重區捷運路65號","121.483445","25.05558","6500200","三重區"
"241013","270-UM","2017/11/14 20:09:20","新北市三重區三和路三段139巷23號","121.493556666667","25.0738216666667","6500200","三重區"
"241025","271-UM","2017/11/14 20:09:29","新北市三重區中正北路193巷37號","121.475883333333","25.070775","6500200","三重區"
"241020","413-TH","2017/11/14 20:09:26","新北市三重區三和路三段121號","121.492768333333","25.07316","6500200","三重區"
"241004","475-VK","2017/11/14 20:09:15","新北市三重區仁愛街352號","121.49154","25.0801766666667","6500200","三重區"
"241019","478-VK","2017/11/14 20:09:27","新北市三重區自強路二段31號","121.489738333333","25.069495","6500200","三重區"
"241030","480-VK","2017/11/14 20:09:21","新北市三重區成功路145巷33號","121.487655","25.0532333333333","6500200","三重區"
"241014","543-UM","2017/11/14 20:09:14","新北市三重區長樂街110號","121.501563333333","25.0694933333333","6500200","三重區"
"241023","545-UM","2017/11/14 20:09:08","新北市三重區頂崁街220巷2號","121.476921666667","25.0681183333333","6500200","三重區"
"241001","547-UM","2017/11/14 20:09:16","新北市三重區溪尾街26號","121.490873333333","25.0763366666667","6500200","三重區"
"241006","AAD-863","2017/11/14 20:09:32","新北市三重區力行路二段125號","121.483048333333","25.0766366666667","6500200","三重區"
"241035","743-BX","2017/11/14 20:09:15","新北市三重區大榮街5號","121.498098333333","25.0631166666667","6500200","三重區"
"241007","887-TS","2017/11/14 20:09:27","新北市三重區三和路四段111-7號","121.48626","25.0774583333333","6500200","三重區"
"241012","941-UM","2017/11/14 20:09:10","新北市三重區仁福街64巷35號","121.497753333333","25.0758083333333","6500200","三重區"
"241029","942-UM","2017/11/14 20:09:31","新北市三重區光明路32巷12弄2-1號","121.491606666667","25.058635","6500200","三重區"
"241033","AAC-255","2017/11/14 20:09:29","新北市三重區光復路一段61巷12號","121.472688333333","25.0492583333333","6500200","三重區"
"235066","003-UY","2017/11/14 20:09:14","新北市中和區水源路127巷5號","121.508035","25.003545","6500300","中和區"
"235039","097-UM","2017/11/14 20:09:22","新北市中和區大勇街29巷23弄1號","121.515463333333","24.9946183333333","6500300","中和區"
"235065","098-UM","2017/11/14 20:09:14","新北市中和區福祥路85巷5號","121.498683333333","25.0057","6500300","中和區"
"235040","150-BY","2017/11/14 20:09:19","新北市中和區保健路55號","121.509356666667","24.9973383333333","6500300","中和區"
"235072","301-VK","2017/11/14 20:09:21","新北市五股區中直路15號","121.4235","25.1110783333333","6500300","中和區"
"235068","377-QA","2017/11/14 20:09:11","新北市中和區永和路39巷4號","121.497793333333","25.0050033333333","6500300","中和區"
"235050","4979-A6","2017/11/14 20:09:26","新北市中和區景新街298巷1號","121.511126666667","24.99185","6500300","中和區"
"235070","558-UM","2017/11/14 20:09:20","新北市中和區中正路226號","121.496156666667","24.9939","6500300","中和區"
"235046","733-UM","2017/11/14 20:09:30","新北市中和區忠孝街79號","121.512155","24.9851283333333","6500300","中和區"
"235057","801-TS","2017/11/14 20:09:25","新北市五股區新城三路45號","121.448945","25.0933216666667","6500300","中和區"
"235048","896-TW","2017/11/14 20:09:19","新北市中和區景平路392-2號","121.51034","24.9928883333333","6500300","中和區"
"235037","157-BY","2017/11/14 20:09:25","新北市中和區景安路220巷5號","121.503128333333","24.9910866666667","6500300","中和區"
"235037","AAC-213","2017/11/14 20:09:22","新北市中和區大智街55巷30弄58-1號","121.522251666667","24.9933366666667","6500300","中和區"
"235059","AAC-215","2017/11/14 20:09:16","新北市中和區圓通路335巷33弄15號","121.493111666667","24.989085","6500300","中和區"
"220068","013-TV","2017/11/14 20:09:28","新北市板橋區中山路二段450號","121.4845","25.0218083333333","6500100","板橋區"
"220065","072-UY","2017/11/14 20:09:23","新北市板橋區縣民大道三段270巷5號","121.47849","25.023405","6500100","板橋區"
"220106","075-UY","2017/11/14 20:09:23","新北市板橋區文聖街13號","121.475516666667","25.0323416666667","6500100","板橋區"
"220069","AAD-861","2017/11/14 20:09:21","新北市板橋區大明街25巷2弄32號","121.457265","25.0028283333333","6500100","板橋區"
"220090","120-SR","2017/11/14 20:09:27","新北市板橋區幸福路32巷51號","121.460475","25.0219333333333","6500100","板橋區"
"247022","893-R6","2017/11/14 20:09:14","新北市蘆洲區三民路130號","121.470921666667","25.087605","6501400","蘆洲區"
"247012","546-UM","2017/11/14 20:09:20","新北市蘆洲區民族路252號","121.478943333333","25.0887816666667","6501400","蘆洲區"
"247020","500-BY","2017/11/14 20:09:23","新北市蘆洲區民權路106巷5弄22號","121.47434","25.089205","6501400","蘆洲區"
"247010","339-TH","2017/11/14 20:09:28","新北市蘆洲區信義路136號","121.479503333333","25.0830066666667","6501400","蘆洲區"
"247002","337-TH","2017/11/14 20:09:28","新北市蘆洲區永康街2巷26號","121.459276666667","25.08664","6501400","蘆洲區"
"247004","335-TH","2017/11/14 20:09:17","新北市蘆洲區永安南路二段328巷17弄16號","121.455675","25.083835","6501400","蘆洲區"
"247016","057-VK","2017/11/14 20:09:21","新北市蘆洲區和平路208號","121.465788333333","25.08225","6501400","蘆洲區"
"247006","056-VK","2017/11/14 20:09:03","新北市蘆洲區永安南路二段18號","121.467686666667","25.0771","6501400","蘆洲區"
"247008","053-VK","2017/11/14 20:09:21","新北市蘆洲區中山一路129號","121.475616666667","25.0815933333333","6501400","蘆洲區"
"247014","007-UY","2017/11/14 20:09:21","新北市蘆洲區中山二路243號","121.470141666667","25.0799366666667","6501400","蘆洲區"
"247024","002-UY","2017/11/14 20:09:24","新北市蘆洲區光明路130號","121.463805","25.08832","6501400","蘆洲區"
"247018","001-UY","2017/11/14 20:09:19","新北市蘆洲區民族路314巷5號","121.477618333333","25.090355","6501400","蘆洲區"
"222001","KEA-2212","2017/11/14 20:09:29","新北市深坑區北深路三段191號","121.601195","25.003695","6501800","深坑區"
"208003","665-BX","2017/11/14 20:09:15","新北市金山區香園14號","121.633891666667","25.2537266666667","6502700","金山區"
"251005","010-UM","2017/11/14 20:09:21","新北市淡水區學府路112號","121.450096666667","25.1722783333333","6501000","淡水區"
"251002","012-UM","2017/11/14 20:09:12","新北市淡水區中正路334號","121.435738333333","25.1731233333333","6501000","淡水區"
"251014","180-VK","2017/11/14 20:09:25","新北市淡水區石頭厝1號","121.458711666667","25.235525","6501000","淡水區"
"251008","181-VK","2017/11/14 20:09:30","新北市淡水區淡海路72巷30弄14號","121.424858333333","25.1824516666667","6501000","淡水區"
"251010","413-VK","2017/11/14 20:09:16","新北市淡水區崁頂五路303號","121.424191666667","25.1977916666667","6501000","淡水區"
"251012","441-VK","2017/11/14 20:09:24","新北市淡水區下圭柔山56巷1號","121.447083333333","25.20483","6501000","淡水區"
"251016","442-VK","2017/11/14 20:09:27","新北市淡水區番子田18號","121.457035","25.22932","6501000","淡水區"
"251006","561-UM","2017/11/14 20:09:23","新北市淡水區北新路141巷26號","121.448815","25.17954","6501000","淡水區"
"251009","575-R6","2017/11/14 20:09:13","新北市淡水區英專路28巷5號","121.446006666667","25.1699366666667","6501000","淡水區"
"207003","550-UM","2017/11/14 20:09:23","新北市萬里區大鵬里萬里加投192號","121.642826666667","25.2156816666667","6502800","萬里區"
"207004","225-TW","2017/11/14 20:09:27","新北市萬里區北基里孝七街29號","121.682603333333","25.1767066666667","6502800","萬里區"
"252002","178-VK","2017/11/14 20:09:31","新北市三芝區三民街25號","121.504143333333","25.2585016666667","6502100","三芝區"
"252001","292-VK","2017/11/14 20:09:14","新北市三芝區公正街9號","121.499766666667","25.257495","6502100","三芝區"
"237007","153-BY","2017/11/14 20:09:10","新北市三峽區二鬮路136巷15號","121.358906666667","24.9079133333333","6500900","三峽區"
"237013","252-BX","2017/11/14 20:09:26","新北市樹林區中山路三段214號","121.37979","24.967645","6500900","三峽區"
"237012","275-BY","2017/11/14 20:09:20","新北市三峽區中華路48巷16號","121.371055","24.930085","6500900","三峽區"
"237016","649-BX","2017/11/14 20:09:30","新北市三峽區介壽路二段138巷1弄162-1號","121.40091","24.9291133333333","6500900","三峽區"
"237005","AKY-6261","2017/11/14 20:09:27","新北市三峽區三樹路98巷74弄91號","121.385061666667","24.9384816666667","6500900","三峽區"
"236070","105-UM","2017/11/14 20:09:24","新北市土城區中央路三段147巷2弄15號","121.431896666667","24.964835","6501300","土城區"
"236043","107-UM","2017/11/14 20:09:25","新北市土城區學成路22巷3號","121.45345","24.9873466666667","6501300","土城區"
"236079","166-UM","2017/11/14 20:09:31","新北市土城區民族街4號","121.419113333333","24.9628216666667","6501300","土城區"
"236031","253-BX","2017/11/14 20:09:11","新北市土城區中央路一段156巷7號","121.445588333333","24.9874333333333","6501300","土城區"
"236027","269-VK","2017/11/14 20:09:27","新北市土城區裕生路102巷2號","121.446855","24.9846283333333","6501300","土城區"
"236015","270-VK","2017/11/14 20:09:16","新北市土城區德興街135號","121.455155","24.9917733333333","6501300","土城區"
"236038","271-VK","2017/11/14 20:09:15","新北市土城區延吉街296巷1弄1號","121.464476666667","24.9842966666667","6501300","土城區"
"236023","401-BY","2017/11/14 20:09:23","新北市土城區延吉街83號","121.47191","24.9870916666667","6501300","土城區"
"236059","912-UM","2017/11/14 20:09:29","新北市土城區中央路一段294號","121.443416666667","24.9822483333333","6501300","土城區"
"236049","913-UM","2017/11/14 20:09:26","新北市土城區金城路三段16號","121.465095","24.9862916666667","6501300","土城區"
"236063","915-UM","2017/11/14 20:09:13","新北市土城區延和路18巷18號","121.46462","24.9879583333333","6501300","土城區"
"236055","AAC-216","2017/11/14 20:09:10","新北市土城區學成路100號","121.450133333333","24.9889833333333","6501300","土城區"
"242032","AAC-296","2017/11/14 20:09:16","新北市新莊區忠孝街29巷13號","121.443581666667","25.0359083333333","6500500","新莊區"
"242029","986-R7","2017/11/14 20:09:24","新北市新莊區中榮街132號","121.445983333333","25.0528466666667","6500500","新莊區"
"242051","751-BX","2017/11/14 20:09:28","新北市新莊區民安西路170號","121.425915","25.0159716666667","6500500","新莊區"
"242025","615-BX","2017/11/14 20:09:15","新北市新莊區五工三路78巷3號","121.459101666667","25.06526","6500500","新莊區"
"242023","613-BX","2017/11/14 20:09:31","新北市新莊區化成路570號","121.466138333333","25.05441","6500500","新莊區"
"242027","612-BX","2017/11/14 20:09:19","新北市新莊區中平路264號","121.44496","25.0498933333333","6500500","新莊區"
"242039","566-BX","2017/11/14 20:09:22","新北市新莊區民安西路71號","121.427336666667","25.01984","6500500","新莊區"
"242044","497-BY","2017/11/14 20:09:25","新北市新莊區中正路895-33號","121.412331666667","25.0214366666667","6500500","新莊區"
"242048","441-UM","2017/11/14 20:09:23","新北市新莊區後港二路27號","121.422366666667","25.0232716666667","6500500","新莊區"
"242054","440-UM","2017/11/14 20:09:26","新北市新莊區西盛街387巷13號","121.428505","25.01297","6500500","新莊區"
"242034","415-TV","2017/11/14 20:09:10","新北市新莊區中正路318巷17號","121.44632","25.036","6500500","新莊區"
"242042","400-BY","2017/11/14 20:09:10","新北市新莊區壽山路69號","121.409841666667","25.03269","6500500","新莊區"
"242061","362-BY","2017/11/14 20:09:24","新北市新莊區瓊林路96-5號","121.444015","25.0271583333333","6500500","新莊區"
"242058","353-BY","2017/11/14 20:09:25","新北市新莊區龍安路266巷7號","121.42164","25.018945","6500500","新莊區"
"242007","132-UY","2017/11/14 20:09:29","新北市新莊區思源路419巷1弄9號","121.459341666667","25.0521333333333","6500500","新莊區"
"242037","133-UY","2017/11/14 20:09:28","新北市新莊區建安街17巷13號","121.429686666667","25.02654","6500500","新莊區"
"242021","135-UY","2017/11/14 20:09:15","新北市新莊區中興街49號","121.449226666667","25.0370766666667","6500500","新莊區"
"242046","172-VK","2017/11/14 20:09:31","新北市新莊區裕民街85巷20號","121.419586666667","25.023225","6500500","新莊區"
"242009","173-VK","2017/11/14 20:09:26","新北市新莊區昌盛街35巷1弄2號","121.454041666667","25.05038","6500500","新莊區"
"242015","175-VK","2017/11/14 20:09:21","新北市新莊區中平路26巷34號","121.446286666667","25.04327","6500500","新莊區"
"242002","176-VK","2017/11/14 20:09:18","新北市新莊區中正路55-1號","121.462173333333","25.03988","6500500","新莊區"
"242013","346-TH","2017/11/14 20:09:14","新北市新莊區幸福路710巷5弄1號","121.449043333333","25.049755","6500500","新莊區"
"242017","347-TH","2017/11/14 20:09:11","新北市新莊區中港一街26號","121.45119","25.0456233333333","6500500","新莊區"
"242019","348-TH","2017/11/14 20:09:27","新北市新莊區博愛路3巷2號","121.456385","25.0429483333333","6500500","新莊區"
"242056","349-TH","2017/11/14 20:09:29","新北市新莊區新莊路649巷15弄1號","121.444993333333","25.03149","6500500","新莊區"
"242011","351-TH","2017/11/14 20:09:20","新北市新莊區中信街53號","121.449663333333","25.0507716666667","6500500","新莊區"
"238021","KEA-2217","2017/11/14 20:09:20","新北市樹林區佳園路三段181巷110弄1號","121.392708333333","24.948615","6500700","樹林區"
"238016","308-TH","2017/11/14 13:28:00","新北市樹林區育德街76巷1號","121.388758333333","24.9683016666667","6500700","樹林區"
"221008","489-VK","2017/11/14 20:09:24","台北市內湖區康樂街16號","121.61799","25.0680433333333","6501100","汐止區"
"221036","130-UY","2017/11/14 20:09:25","新北市汐止區新台五路二段41巷1號","121.663091666667","25.0665483333333","6501100","汐止區"
"221015","131-UY","2017/11/14 20:09:11","新北市汐止區建成路23巷3號","121.66434","25.0724333333333","6501100","汐止區"
"221010","269-BY","2017/11/14 20:09:11","新北市汐止區八連路一段261號","121.640461666667","25.083815","6501100","汐止區"
"221012","276-VK","2017/11/14 13:25:51","新北市汐止區汐萬路一段256巷3號","121.653458333333","25.0746183333333","6501100","汐止區"
"221012","278-VK","2017/11/14 20:09:10","新北市汐止區汐平路二段49-2號","121.696731666667","25.0631433333333","6501100","汐止區"
"221023","279-VK","2017/11/14 20:09:29","新北市汐止區明峰街298巷5弄2號","121.624975","25.06861","6501100","汐止區"
"221032","280-BY","2017/11/14 20:09:13","新北市汐止區弘道街8巷5弄6號","121.617385","25.047835","6501100","汐止區"
"221027","281-BY","2017/11/14 20:09:23","新北市汐止區和平街99號","121.66096","25.0701416666667","6501100","汐止區"
"221029","298-VK","2017/11/14 20:06:08","新北市汐止區樟樹一路129巷20弄3號","121.640913333333","25.0652816666667","6501100","汐止區"
"221021","299-VK","2017/11/14 20:09:23","新北市汐止區連興街146號","121.654023333333","25.06143","6501100","汐止區"
"221031","353-TW","2017/11/14 20:09:24","新北市汐止區中興路214巷7弄2號","121.631481666667","25.0666233333333","6501100","汐止區"
"221035","622-UM","2017/11/14 20:09:12","新北市汐止區長江街79巷11號","121.657461666667","25.0728733333333","6501100","汐止區"
"221025","623-UM","2017/11/14 20:09:27","新北市汐止區水源路一段262號","121.654023333333","25.059545","6501100","汐止區"
"221038","646-BX","2017/11/14 20:09:30","新北市汐止區大同路三段66號","121.667985","25.0771833333333","6501100","汐止區"
"221033","647-BX","2017/11/14 20:09:16","新北市汐止區東勢街201巷104號","121.633466666667","25.0429016666667","6501100","汐止區"
"221018","753-BX","2017/11/14 20:09:24","新北市汐止區茄苳路317號","121.673638333333","25.0665466666667","6501100","汐止區"
"220080","200-UY","2017/11/14 20:09:27","新北市板橋區大觀路二段169巷3號","121.445551666667","25.000215","6500100","板橋區"
"220072","277-BY","2017/11/14 20:09:28","新北市板橋區金門街109巷2號","121.433495","24.9919983333333","6500100","板橋區"
"220101","280-UM","2017/11/14 20:09:24","新北市板橋區萬板路132號","121.475278333333","25.02359","6500100","板橋區"
"220071","283-VK","2017/11/14 20:09:31","新北市板橋區和平路190巷24號","121.464898333333","24.9946766666667","6500100","板橋區"
"220053","285-VK","2017/11/14 20:09:14","新北市板橋區懷仁街87號","121.477435","25.0182466666667","6500100","板橋區"
"220081","287-VK","2017/11/14 20:09:24","新北市板橋區僑中一街80巷7弄8號","121.447428333333","25.0128366666667","6500100","板橋區"
"220061","295-UM","2017/11/14 20:09:30","新北市板橋區中山路一段214號","121.47014","25.014005","6500100","板橋區"
"220084","296-UM","2017/11/14 20:09:23","新北市板橋區溪崑二街134號","121.425913333333","24.9878033333333","6500100","板橋區"
"220092","299-UM","2017/11/14 20:09:29","新北市板橋區民權路226號","121.45864","25.014245","6500100","板橋區"
"220062","303-R5","2017/11/14 20:09:11","新北市五股區新城八路2號","121.447888333333","25.0893033333333","6500100","板橋區"
"220098","317-R6","2017/11/14 20:09:15","新北市板橋區新海路72巷5弄41號","121.461135","25.023345","6500100","板橋區"
"220064","486-VK","2017/11/14 20:09:16","新北市板橋區長安街331巷81號","121.472348333333","25.0128683333333","6500100","板橋區"
"242005","280-VK","2017/11/14 20:09:25","新北市新莊區化成路205-47號","121.465768333333","25.0511283333333","6500500","新莊區"
"220088","491-VK","2017/11/14 20:09:31","新北市板橋區民治街50號","121.479433333333","25.0333266666667","6500100","板橋區"
"220035","560-BX","2017/11/14 20:09:28","新北市板橋區瑞安街75號","121.455553333333","25.0212433333333","6500100","板橋區"
"220103","561-BX","2017/11/14 20:09:26","新北市板橋區自由路26巷25號","121.466676666667","25.0225183333333","6500100","板橋區"
"220083","568-UM","2017/11/14 20:09:26","新北市板橋區僑中二街92巷18號","121.445395","25.0090483333333","6500100","板橋區"
"220057","686-BX","2017/11/14 20:09:16","新北市板橋區四川路二段130巷17號","121.44953","24.99404","6500100","板橋區"
"220093","689-BX","2017/11/14 20:09:28","新北市板橋區長江路一段158號","121.461133333333","25.0302633333333","6500100","板橋區"
"220054","741-BX","2017/11/14 20:09:21","新北市板橋區忠孝路忠義巷3弄24號","121.465331666667","25.0040983333333","6500100","板橋區"
"220055","827-TW","2017/11/14 20:09:15","新北市板橋區仁愛路71號","121.460838333333","24.999765","6500100","板橋區"
"220067","829-TW","2017/11/14 20:09:28","新北市板橋區中山路二段32號","121.472713333333","25.0151783333333","6500100","板橋區"
"220102","830-TW","2017/11/14 20:09:14","新北市板橋區文聖街79號","121.477375","25.0302416666667","6500100","板橋區"
"220089","833-TW","2017/11/14 20:09:28","新北市板橋區互助街87號","121.459766666667","25.0258966666667","6500100","板橋區"
"220074","895-R6","2017/11/14 20:09:21","新北市板橋區文化路一段32巷2號","121.459478333333","25.011175","6500100","板橋區"
"220097","AAC-210","2017/11/14 20:09:22","新北市板橋區光正街45巷2弄18號","121.460981666667","25.017305","6500100","板橋區"
"220070","AAC-253","2017/11/14 20:09:20","新北市板橋區四川路二段245巷49號","121.452056666667","24.99249","6500100","板橋區"
