"lineid","car","time","location","longitude","latitude","cityid","cityname"
"234046","148-BY","2017/11/14 20:19:26","新北市永和區永利路156號","121.522683333333","25.0026316666667","6500400","永和區"
"234013","149-BY","2017/11/14 20:19:19","新北市永和區仁愛路295號","121.505048333333","25.0091033333333","6500400","永和區"
"234007","207-UY","2017/11/14 20:19:21","新北市永和區仁愛路306巷11號","121.50286","25.0084033333333","6500400","永和區"
"234081","298-R6","2017/11/14 20:19:20","新北市永和區國中路130號","121.52349","25.0068283333333","6500400","永和區"
"234038","336-UY","2017/11/14 20:19:13","新北市永和區成功路一段93巷21弄2號","121.528345","25.002665","6500400","永和區"
"234064","337-UY","2017/11/14 20:19:16","新北市永和區得和路130號","121.519138333333","25.0001416666667","6500400","永和區"
"234086","338-UY","2017/11/14 20:19:15","新北市永和區永和路二段105號","121.514908333333","25.0119516666667","6500400","永和區"
"234070","552-UM","2017/11/14 20:19:23","新北市永和區福和路263巷22號","121.517926666667","25.0064433333333","6500400","永和區"
"234054","553-UM","2017/11/14 20:19:12","新北市永和區光復街2巷16弄1號","121.517143333333","25.0163516666667","6500400","永和區"
"234017","745-BX","2017/11/14 20:19:16","新北市永和區仁愛路33號","121.514198333333","25.0133583333333","6500400","永和區"
"234030","746-BX","2017/11/14 20:19:09","新北市永和區民有街75巷10弄18號","121.518988333333","24.9960966666667","6500400","永和區"
"234061","AAD-866","2017/11/14 20:19:27","新北市永和區得和路25號","121.515568333333","25.00035","6500400","永和區"
"234042","862-TW","2017/11/14 20:19:24","新北市中和區中安街178巷2號","121.510953333333","24.999645","6500400","永和區"
"234050","863-TW","2017/11/14 20:19:19","新北市永和區文化路234號","121.509828333333","25.0171766666667","6500400","永和區"
"249005","172-UM","2017/11/14 20:19:23","新北市八里區下罟子2-11號","121.388406666667","25.1413866666667","6502300","八里區"
"249001","173-UM","2017/11/14 20:19:18","新北市八里區中華路二段538號","121.399065","25.1450533333333","6502300","八里區"
"249004","303-UY","2017/11/14 20:16:55","新北市八里區中山路一段179號","121.412018333333","25.158505","6502300","八里區"
"249002","305-UY","2017/11/14 20:19:22","新北市八里區龍米路二段32巷15號","121.448956666667","25.14057","6502300","八里區"
"249003","593-UM","2017/11/14 20:19:20","新北市八里區中山路二段447巷21號","121.397428333333","25.1453183333333","6502300","八里區"
"248016","026-BX","2017/11/14 20:19:10","新北市五股區天乙路34號","121.448448333333","25.1034483333333","6501500","五股區"
"248012","247-BX","2017/11/14 20:19:28","新北市五股區六合街42號","121.432801666667","25.0893766666667","6501500","五股區"
"248010","272-BY","2017/11/14 20:19:20","新北市五股區成泰路一段7巷66號","121.4326","25.067855","6501500","五股區"
"248004","677-BX","2017/11/14 20:19:29","新北市五股區成泰路一段194-2號","121.435703333333","25.0781766666667","6501500","五股區"
"248002","678-BX","2017/11/14 20:19:15","新北市五股區成泰路三段165號","121.44515","25.0918616666667","6501500","五股區"
"234023","9380-KE","2017/11/14 20:19:19","新北市永和區復興街29號","121.516385","25.013135","6500400","永和區"
"234077","969-R7","2017/11/14 20:19:15","新北市永和區中正路132號","121.514608333333","24.9959916666667","6500400","永和區"
"234074","AAC-211","2017/11/14 20:19:23","新北市永和區竹林路201巷22弄16號","121.522938333333","25.00938","6500400","永和區"
"234067","AAC-212","2017/11/14 20:19:11","新北市永和區保平路270號","121.508575","25.0052383333333","6500400","永和區"
"234003","AAC-295","2017/11/14 20:19:29","新北市永和區大新街2號","121.514476666667","25.0085733333333","6500400","永和區"
"244024","742-UY","2017/11/14 20:03:20","新北市林口區粉寮路二段160巷28號","121.405166666667","25.0907766666667","6501700","林口區"
"243012","AAD-798","2017/11/14 20:19:15","新北市泰山區楓江路43號","121.435185","25.0626833333333","6501600","泰山區"
"243009","297-R6","2017/11/14 20:19:15","新北市泰山區泰林路二段294號","121.43116","25.0628766666667","6501600","泰山區"
"243015","380-SR","2017/11/14 20:19:20","新北市泰山區明志路一段393號","121.430775","25.0575016666667","6501600","泰山區"
"243014","421-VK","2017/11/14 20:19:17","新北市泰山區泰林路二段353號","121.428213333333","25.0638433333333","6501600","泰山區"
"243010","KEA-2215","2017/11/14 20:19:11","新北市泰山區明志路二段254巷14號","121.42611","25.047825","6501600","泰山區"
"243011","KEA-2216","2017/11/14 20:19:18","新北市泰山區新北大道六段313巷13弄11號","121.424685","25.0337316666667","6501600","泰山區"
"243013","646-TV","2017/11/14 20:19:27","新北市泰山區新民路26號","121.42671","25.0445783333333","6501600","泰山區"
"243016","680-BX","2017/11/14 20:19:23","新北市泰山區明志路三段247號","121.42345","25.037555","6501600","泰山區"
"222003","436-BY","2017/11/14 20:19:10","新北市深坑區文化街74號","121.618185","25.0019633333333","6501800","深坑區"
"222002","659-BX","2017/11/14 20:19:29","新北市深坑區萬福路75巷21號","121.599161666667","25.0097066666667","6501800","深坑區"
"231060","001-UM","2017/11/14 20:19:17","新北市新店區錦秀路11巷96弄7號","121.480036666667","24.9419266666667","6500600","新店區"
"231041","002-UM","2017/11/14 20:19:13","新北市新店區民權路42號","121.540451666667","24.9830216666667","6500600","新店區"
"231056","0293-UT","2017/11/14 20:19:24","新北市新店區中正路275巷26號","121.536961666667","24.9732116666667","6500600","新店區"
"231059","046-UY","2017/11/14 20:19:11","新北市新店區安康路二段234巷27號","121.508821666667","24.960395","6500600","新店區"
"231061","047-UY","2017/11/14 20:19:18","新北市新店區安興路32號","121.515756666667","24.9704016666667","6500600","新店區"
"231048","108-UY","2017/11/14 20:19:20","新北市新店區中興路三段221-1號","121.543346666667","24.982705","6500600","新店區"
"231053","187-VK","2017/11/14 20:19:27","新北市新店區新烏路二段331號","121.550211666667","24.9106316666667","6500600","新店區"
"231050","KEA-2219","2017/11/14 20:19:30","新北市新店區北新路一段96巷23號","121.542826666667","24.9686766666667","6500600","新店區"
"231057","256-BX","2017/11/14 20:19:30","新北市新店區花園五路二段15號","121.554106666667","24.9344666666667","6500600","新店區"
"231054","AAD-862","2017/11/14 20:19:14","新北市新店區檳榔路107號","121.544778333333","24.96158","6500600","新店區"
"231058","3712-VJ","2017/11/14 20:19:17","新北市新店區中央路63號","121.532575","24.9770233333333","6500600","新店區"
"231055","4716-K9","2017/11/14 20:19:27","新北市新店區新明街26巷6號","121.54121","24.9688016666667","6500600","新店區"
"231067","4772-VM","2017/11/14 20:19:27","新北市新店區溪洲路8巷16號","121.533493333333","24.9617733333333","6500600","新店區"
"231065","512-UM","2017/11/14 20:19:09","新北市新店區安祥路104巷6弄34號","121.483056666667","24.96294","6500600","新店區"
"231064","515-UM","2017/11/14 20:19:16","新北市新店區安和路一段52巷2號","121.5176","24.9661366666667","6500600","新店區"
"231045","617-UM","2017/11/14 20:19:17","新北市新店區北宜路一段152-2號","121.540306666667","24.9537683333333","6500600","新店區"
"231040","619-UM","2017/11/14 20:19:16","新北市新店區北新路二段2號","121.542913333333","24.9707666666667","6500600","新店區"
"231042","641-BX","2017/11/14 20:19:17","新北市新店區中興路二段228號","121.548026666667","24.9752266666667","6500600","新店區"
"231063","645-TV","2017/11/14 20:19:20","新北市新店區安康路二段320巷6號","121.504568333333","24.9596016666667","6500600","新店區"
"231068","718-UY","2017/11/14 20:19:10","新北市新店區寶安街30號","121.54205","24.9824016666667","6500600","新店區"
"231049","719-UM","2017/11/14 20:19:10","新北市新店區安康路一段24巷2號","121.532925","24.9604316666667","6500600","新店區"
"231051","719-UY","2017/11/14 20:19:12","新北市新店區中央六街28號","121.529206666667","24.97498","6500600","新店區"
"231062","720-UM","2017/11/14 20:19:30","新北市新店區安泰路7巷16號","121.485681666667","24.9509466666667","6500600","新店區"
"231044","897-TW","2017/11/14 20:19:26","新北市新店區順安街4-1號","121.54122","24.9847933333333","6500600","新店區"
"231043","899-TW","2017/11/14 20:19:10","新北市新店區建國路133號","121.539348333333","24.97815","6500600","新店區"
"231066","AKT-0513","2017/11/14 20:19:26","新北市新店區安興路112號","121.514623333333","24.9776616666667","6500600","新店區"
"241011","013-R5","2017/11/14 20:19:17","新北市三重區龍門路171號","121.49902","25.0731066666667","6500200","三重區"
"241028","022-UY","2017/11/14 20:19:29","新北市三重區大同南路127-1號","121.496411666667","25.057995","6500200","三重區"
"241008","059-VK","2017/11/14 20:19:12","新北市三重區永福街211巷18號","121.479176666667","25.0739966666667","6500200","三重區"
"241009","060-VK","2017/11/14 20:19:15","新北市三重區三和路四段382巷58號","121.480725","25.0782716666667","6500200","三重區"
"241031","061-VK","2017/11/14 20:19:28","新北市三重區三寧街18號","121.489383333333","25.059805","6500200","三重區"
"241015","062-VK","2017/11/14 20:19:19","新北市三重區重新路一段118號","121.50044","25.0630516666667","6500200","三重區"
"241017","063-VK","2017/11/14 20:19:16","新北市三重區自強路一段236號","121.493393333333","25.0670666666667","6500200","三重區"
"241026","066-VK","2017/11/14 20:19:20","新北市三重區重新路一段12號","121.503956666667","25.0638933333333","6500200","三重區"
"241002","090-VK","2017/11/14 20:19:31","新北市三重區仁義街126號","121.497501666667","25.0802583333333","6500200","三重區"
"241003","091-VK","2017/11/14 20:19:15","新北市三重區富華街68號","121.490556666667","25.0831033333333","6500200","三重區"
"241005","262-UM","2017/11/14 20:19:26","新北市三重區溪尾街267號","121.487708333333","25.0821716666667","6500200","三重區"
"241024","265-UM","2017/11/14 20:19:23","新北市三重區忠孝路三段15巷21號","121.480943333333","25.0676416666667","6500200","三重區"
"241016","266-UM","2017/11/14 20:19:16","新北市三重區大同北路56-2號","121.494168333333","25.0638133333333","6500200","三重區"
"241022","267-UM","2017/11/14 20:19:11","新北市三重區中正北路24號","121.48833","25.0635316666667","6500200","三重區"
"241018","268-UM","2017/11/14 20:19:14","新北市三重區自強路一段157號","121.49334","25.067205","6500200","三重區"
"241032","269-UM","2017/11/14 20:19:16","新北市三重區捷運路19巷8弄17號","121.484233333333","25.0572316666667","6500200","三重區"
"241013","270-UM","2017/11/14 20:19:20","新北市三重區三和路三段167巷1號","121.492011666667","25.074055","6500200","三重區"
"241025","271-UM","2017/11/14 20:19:09","新北市三重區三民街272巷6-1號","121.47878","25.0677916666667","6500200","三重區"
"241020","413-TH","2017/11/14 20:19:26","新北市三重區三和路三段170巷20號","121.492013333333","25.0728333333333","6500200","三重區"
"241004","475-VK","2017/11/14 20:19:15","新北市三重區溪尾街165巷58號","121.490786666667","25.0807133333333","6500200","三重區"
"241019","478-VK","2017/11/14 20:19:18","新北市三重區大智街151號","121.490406666667","25.0714566666667","6500200","三重區"
"241030","480-VK","2017/11/14 20:19:21","新北市三重區環河南路254巷53號","121.488033333333","25.052325","6500200","三重區"
"241014","543-UM","2017/11/14 20:19:14","新北市三重區龍濱路191號","121.501966666667","25.0711116666667","6500200","三重區"
"241023","545-UM","2017/11/14 20:19:28","新北市三重區大有街1-1號","121.477625","25.0653033333333","6500200","三重區"
"241001","547-UM","2017/11/14 20:18:56","新北市三重區溪尾街32-1號","121.490663333333","25.0766233333333","6500200","三重區"
"241035","743-BX","2017/11/14 20:19:15","新北市三重區文化北路25號","121.499583333333","25.0637466666667","6500200","三重區"
"241007","887-TS","2017/11/14 20:19:27","新北市三重區溪尾街108巷54號","121.487383333333","25.0780333333333","6500200","三重區"
"241012","941-UM","2017/11/14 20:19:30","新北市三重區河邊北街266號","121.501615","25.0765166666667","6500200","三重區"
"241029","942-UM","2017/11/14 20:19:20","新北市三重區集美街238號","121.492326666667","25.0557833333333","6500200","三重區"
"241033","AAC-255","2017/11/14 20:19:29","新北市三重區五谷王北街77號","121.475703333333","25.0503066666667","6500200","三重區"
"235066","003-UY","2017/11/14 20:19:14","新北市中和區保平路277號","121.506833333333","25.0041416666667","6500300","中和區"
"235039","097-UM","2017/11/14 20:19:22","新北市中和區立人街24-5號","121.51887","24.99412","6500300","中和區"
"235065","098-UM","2017/11/14 20:19:14","新北市中和區福美路256巷10號","121.49811","25.0058333333333","6500300","中和區"
"235072","301-VK","2017/11/14 20:19:21","新北市林口區汕頭32號","121.36623","25.1348583333333","6500300","中和區"
"235068","377-QA","2017/11/14 20:19:11","新北市中和區勝利路35巷1弄7號","121.499223333333","25.007495","6500300","中和區"
"235050","4979-A6","2017/11/14 20:19:26","新北市中和區景平路468號","121.505603333333","24.99366","6500300","中和區"
"235070","558-UM","2017/11/14 20:19:20","新北市中和區中正路860號","121.484593333333","25.0055816666667","6500300","中和區"
"235057","801-TS","2017/11/14 20:19:25","新北市八里區下罟子17號","121.382333333333","25.1442433333333","6500300","中和區"
"235059","AAC-215","2017/11/14 20:19:16","新北市中和區員山路30-6號","121.484063333333","24.9878116666667","6500300","中和區"
"220065","072-UY","2017/11/14 20:19:23","新北市五股區成泰路四段18-8號","121.453495","25.10573","6500100","板橋區"
"247022","893-R6","2017/11/14 20:19:14","新北市蘆洲區民族路455號","121.467538333333","25.088385","6501400","蘆洲區"
"247012","546-UM","2017/11/14 20:19:20","新北市蘆洲區中興街15巷16號","121.48035","25.0875216666667","6501400","蘆洲區"
"247020","500-BY","2017/11/14 20:19:23","新北市蘆洲區仁愛街72號","121.471118333333","25.09408","6501400","蘆洲區"
"247010","339-TH","2017/11/14 20:19:28","新北市蘆洲區信義路277號","121.478876666667","25.0851016666667","6501400","蘆洲區"
"247002","337-TH","2017/11/14 20:19:29","新北市蘆洲區長安街331巷23號","121.4557","25.086515","6501400","蘆洲區"
"247004","335-TH","2017/11/14 20:19:17","新北市蘆洲區永康街1巷10號","121.459625","25.08548","6501400","蘆洲區"
"247016","057-VK","2017/11/14 20:19:21","新北市蘆洲區光華路132巷39號","121.465826666667","25.0837966666667","6501400","蘆洲區"
"247006","056-VK","2017/11/14 20:19:23","新北市蘆洲區九芎街167巷6號","121.46486","25.0786033333333","6501400","蘆洲區"
"247008","053-VK","2017/11/14 20:19:21","新北市蘆洲區集賢路223-1號","121.482566666667","25.0863283333333","6501400","蘆洲區"
"247014","007-UY","2017/11/14 20:19:21","新北市蘆洲區成功路58號","121.472518333333","25.08033","6501400","蘆洲區"
"247024","002-UY","2017/11/14 20:19:25","新北市蘆洲區光榮路120巷8弄39號","121.4646","25.0879266666667","6501400","蘆洲區"
"247018","001-UY","2017/11/14 20:19:19","新北市蘆洲區民族路408巷3號","121.474676666667","25.091765","6501400","蘆洲區"
"222001","KEA-2212","2017/11/14 20:19:29","新北市深坑區北深路三段247號","121.599403333333","25.0042966666667","6501800","深坑區"
"251002","012-UM","2017/11/14 20:19:12","新北市淡水區中正路125號","121.439468333333","25.1702466666667","6501000","淡水區"
"251014","180-VK","2017/11/14 20:19:25","新北市淡水區石頭厝1號","121.458711666667","25.2355233333333","6501000","淡水區"
"251008","181-VK","2017/11/14 20:19:30","新北市淡水區淡海路180巷17號","121.421506666667","25.1846","6501000","淡水區"
"251010","413-VK","2017/11/14 20:19:16","新北市淡水區新民街一段134號","121.427608333333","25.1889383333333","6501000","淡水區"
"251012","441-VK","2017/11/14 20:19:24","新北市淡水區下圭柔山431-1號","121.44982","25.2102183333333","6501000","淡水區"
"251016","442-VK","2017/11/14 20:19:27","新北市淡水區淡金路五段20號","121.453361666667","25.23244","6501000","淡水區"
"251006","561-UM","2017/11/14 20:19:21","新北市淡水區北新路169巷4號","121.450256666667","25.1794683333333","6501000","淡水區"
"251009","575-R6","2017/11/14 20:19:13","新北市淡水區中山路141號","121.440943333333","25.171615","6501000","淡水區"
"207004","225-TW","2017/11/14 20:19:27","新北市萬里區北基里仁七街1號","121.68112","25.1750083333333","6502800","萬里區"
"252002","178-VK","2017/11/14 20:19:25","新北市三芝區中正路一段16-1號","121.50287","25.25874","6502100","三芝區"
"252001","292-VK","2017/11/14 20:19:14","新北市三芝區中山路一段14號","121.500671666667","25.25811","6502100","三芝區"
"237007","153-BY","2017/11/14 20:19:30","新北市三峽區麻園46號","121.363776666667","24.9213","6500900","三峽區"
"237013","252-BX","2017/11/14 20:19:26","新北市鶯歌區三鶯路120號","121.359475","24.9441316666667","6500900","三峽區"
"237016","649-BX","2017/11/14 20:19:30","新北市三峽區介壽路二段167號","121.394695","24.9358933333333","6500900","三峽區"
"236070","105-UM","2017/11/14 20:19:24","新北市土城區三民路17號","121.420338333333","24.9634183333333","6501300","土城區"
"236031","253-BX","2017/11/14 20:19:30","新北市土城區學成路128巷8弄1號","121.449531666667","24.98997","6501300","土城區"
"236027","269-VK","2017/11/14 20:19:27","新北市土城區裕生路86巷1號","121.446886666667","24.9851866666667","6501300","土城區"
"236015","270-VK","2017/11/14 20:19:16","新北市土城區廣明街90巷18號","121.455416666667","24.9944516666667","6501300","土城區"
"236038","271-VK","2017/11/14 20:19:15","新北市土城區明德路一段68-1號","121.465578333333","24.9832083333333","6501300","土城區"
"236023","401-BY","2017/11/14 20:19:23","新北市土城區延吉街47巷10號","121.47286","24.9877116666667","6501300","土城區"
"236059","912-UM","2017/11/14 20:19:09","新北市土城區中央路二段219-4號","121.44093","24.973925","6501300","土城區"
"236055","AAC-216","2017/11/14 20:19:10","新北市土城區慶祥街18號","121.43767","24.9754683333333","6501300","土城區"
"242032","AAC-296","2017/11/14 20:19:15","新北市新莊區義豐街11號","121.441068333333","25.0347666666667","6500500","新莊區"
"242029","986-R7","2017/11/14 20:19:24","新北市新莊區中原路263號","121.448438333333","25.0543016666667","6500500","新莊區"
"242051","751-BX","2017/11/14 20:19:08","新北市新莊區民安西路212巷1弄1號","121.425676666667","25.0147933333333","6500500","新莊區"
"242025","615-BX","2017/11/14 20:19:15","新北市新莊區五工二路70號","121.460266666667","25.06581","6500500","新莊區"
"242023","613-BX","2017/11/14 20:19:21","新北市新莊區化成路387號","121.465296666667","25.0585016666667","6500500","新莊區"
"242027","612-BX","2017/11/14 20:19:19","新北市新莊區幸福路604號","121.452018333333","25.0492366666667","6500500","新莊區"
"242039","566-BX","2017/11/14 20:19:19","新北市新莊區龍安路459號","121.424715","25.018385","6500500","新莊區"
"242044","497-BY","2017/11/14 20:19:25","新北市新莊區中正路新建巷28弄29號","121.413928333333","25.0215516666667","6500500","新莊區"
"242048","441-UM","2017/11/14 20:19:23","新北市新莊區四維路186巷9號","121.421421666667","25.0211583333333","6500500","新莊區"
"242054","440-UM","2017/11/14 20:19:26","新北市新莊區民安西路261巷18號","121.426768333333","25.013005","6500500","新莊區"
"242034","415-TV","2017/11/14 20:19:29","新北市新莊區建中街90巷3弄5號","121.446508333333","25.037125","6500500","新莊區"
"242042","400-BY","2017/11/14 20:19:28","新北市新莊區天祥街76號","121.415826666667","25.029325","6500500","新莊區"
"242061","362-BY","2017/11/14 20:19:24","新北市新莊區新樹路172-13號","121.43456","25.02159","6500500","新莊區"
"242058","353-BY","2017/11/14 20:19:25","新北市新莊區四維路195號","121.421961666667","25.0208116666667","6500500","新莊區"
"242007","132-UY","2017/11/14 20:19:29","新北市新莊區福壽街94巷10號","121.458785","25.0500416666667","6500500","新莊區"
"242037","133-UY","2017/11/14 20:19:14","新北市新莊區建安街76巷1弄2號","121.42637","25.02471","6500500","新莊區"
"242021","135-UY","2017/11/14 20:19:29","新北市新莊區復興路一段14號","121.445838333333","25.0415083333333","6500500","新莊區"
"242046","172-VK","2017/11/14 20:19:19","新北市新莊區中正路新生巷43號","121.417525","25.0233016666667","6500500","新莊區"
"242009","173-VK","2017/11/14 20:19:26","新北市新莊區昌平街9號","121.454758333333","25.051695","6500500","新莊區"
"242015","175-VK","2017/11/14 20:19:26","新北市新莊區中和街31巷28號","121.44676","25.044145","6500500","新莊區"
"242002","176-VK","2017/11/14 20:19:18","新北市新莊區化成路5-7號","121.464396666667","25.04201","6500500","新莊區"
"242013","346-TH","2017/11/14 20:19:14","新北市新莊區中平路270巷7弄47號","121.446506666667","25.0509466666667","6500500","新莊區"
"242017","347-TH","2017/11/14 20:19:31","新北市新莊區中港二街123號","121.448683333333","25.0456016666667","6500500","新莊區"
"242019","348-TH","2017/11/14 20:19:26","新北市新莊區復興路二段196巷1號","121.45947","25.0442","6500500","新莊區"
"242056","349-TH","2017/11/14 20:19:31","新北市新莊區豐年街28巷27號","121.445231666667","25.0322466666667","6500500","新莊區"
"242011","351-TH","2017/11/14 20:19:20","新北市新莊區中信街19號","121.451101666667","25.0507716666667","6500500","新莊區"
"238021","KEA-2217","2017/11/14 20:19:20","新北市樹林區佳園路三段101巷101號","121.395783333333","24.9497416666667","6500700","樹林區"
"238016","308-TH","2017/11/14 13:28:00","新北市樹林區育德街76巷1號","121.388758333333","24.9683016666667","6500700","樹林區"
"221008","489-VK","2017/11/14 20:19:24","新北市汐止區康寧街310號","121.626715","25.06728","6501100","汐止區"
"221036","130-UY","2017/11/14 20:19:24","新北市汐止區福安街59巷16號","121.664536666667","25.0639516666667","6501100","汐止區"
"221015","131-UY","2017/11/14 20:19:31","新北市汐止區建成路142巷19弄9號","121.662013333333","25.0738933333333","6501100","汐止區"
"221010","269-BY","2017/11/14 20:19:31","新北市汐止區八連路二段494號","121.628938333333","25.10616","6501100","汐止區"
"221012","276-VK","2017/11/14 13:25:51","新北市汐止區汐萬路一段256巷3號","121.653458333333","25.0746183333333","6501100","汐止區"
"221012","278-VK","2017/11/14 20:19:31","新北市汐止區保新街154號","121.688785","25.0680766666667","6501100","汐止區"
"221023","279-VK","2017/11/14 20:19:29","新北市汐止區湖前街110巷2弄16號","121.63208","25.0718316666667","6501100","汐止區"
"221032","280-BY","2017/11/14 20:19:28","新北市汐止區橫科路52巷9弄7號","121.619488333333","25.050135","6501100","汐止區"
"221027","281-BY","2017/11/14 20:19:23","新北市汐止區大同路二段519號","121.661488333333","25.068875","6501100","汐止區"
"221029","298-VK","2017/11/14 20:19:08","新北市汐止區工建路64號","121.640595","25.063135","6501100","汐止區"
"221021","299-VK","2017/11/14 20:19:23","新北市汐止區南興路83巷15號","121.653875","25.059245","6501100","汐止區"
"221031","353-TW","2017/11/14 20:19:27","新北市汐止區中興路150巷21號","121.633338333333","25.0652083333333","6501100","汐止區"
"221035","622-UM","2017/11/14 20:19:12","新北市汐止區長江街101-5號","121.658653333333","25.0732216666667","6501100","汐止區"
"221025","623-UM","2017/11/14 20:19:27","新北市汐止區水源路二段72巷9弄3號","121.655681666667","25.055715","6501100","汐止區"
"221038","646-BX","2017/11/14 20:19:30","新北市汐止區忠孝東路478號","121.666296666667","25.0736333333333","6501100","汐止區"
"221033","647-BX","2017/11/14 20:19:16","新北市汐止區東勢街201巷104號","121.633495","25.0429233333333","6501100","汐止區"
"221018","753-BX","2017/11/14 20:19:24","新北市汐止區茄苳路277號","121.672298333333","25.067985","6501100","汐止區"
"220080","200-UY","2017/11/14 20:19:27","新北市板橋區大觀路一段35巷2號","121.44926","25.0084566666667","6500100","板橋區"
"220101","280-UM","2017/11/14 20:19:24","新北市板橋區莊敬路75巷35號","121.473965","25.0261966666667","6500100","板橋區"
"220081","287-VK","2017/11/14 20:19:24","新北市板橋區僑中一街84號","121.447315","25.01156","6500100","板橋區"
"220061","295-UM","2017/11/14 20:19:23","新北市板橋區四川路一段286巷12號","121.458285","25.0010233333333","6500100","板橋區"
"220062","303-R5","2017/11/14 20:19:31","新北市八里區中山路三段216號","121.37821","25.1419016666667","6500100","板橋區"
"242005","280-VK","2017/11/14 20:19:25","新北市新莊區頭興街3巷1號","121.463496666667","25.0534833333333","6500500","新莊區"
"220103","561-BX","2017/11/14 20:19:26","新北市板橋區陽明街279巷1弄1號","121.461826666667","25.026015","6500100","板橋區"
"220083","568-UM","2017/11/14 20:19:13","新北市板橋區僑中二街104巷47號","121.444258333333","25.0081516666667","6500100","板橋區"
"220055","827-TW","2017/11/14 20:19:15","新北市板橋區仁愛路30號","121.45895","24.999415","6500100","板橋區"
"220102","830-TW","2017/11/14 20:19:14","新北市板橋區漢生東路5號","121.464563333333","25.01749","6500100","板橋區"
"220089","833-TW","2017/11/14 20:19:27","新北市板橋區四維路189號","121.464191666667","25.0268516666667","6500100","板橋區"
"220074","895-R6","2017/11/14 20:19:21","新北市板橋區南雅南路一段7巷22弄7號","121.455875","25.00477","6500100","板橋區"
"220070","AAC-253","2017/11/14 20:19:20","新北市板橋區南雅南路二段116號","121.453228333333","25.0003333333333","6500100","板橋區"
