"lineid","car","time","location","longitude","latitude","cityid","cityname"
"244019","403-UM","2017/11/14 20:53:08","新北市林口區粉寮69號","121.405121666667","25.0908083333333","6501700","林口區"
"244024","742-UY","2017/11/14 20:03:20","新北市林口區粉寮路二段160巷28號","121.405166666667","25.0907766666667","6501700","林口區"
"247003","335-TH","2017/11/14 22:27:54","新北市五股區中興路三段163號","121.449145","25.0807533333333","6501400","蘆洲區"
"251007","577-R6","2017/11/14 22:35:15","新北市淡水區中山北路三段156號","121.445018333333","25.1957133333333","6501000","淡水區"
"238016","308-TH","2017/11/14 13:28:00","新北市樹林區育德街76巷1號","121.388758333333","24.9683016666667","6500700","樹林區"
"221012","276-VK","2017/11/14 13:25:51","新北市汐止區汐萬路一段256巷3號","121.653458333333","25.0746183333333","6501100","汐止區"
