"lineid","car","time","location","longitude","latitude","cityid","cityname"
"231007","189-VK","2017/11/03 08:39:08","新北市新店區小坑二路15號","121.53056","24.9167966666667","6500600","新店區"
"231009","192-VK","2017/11/03 08:39:10","新北市新店區新烏路三段99巷8號","121.552848333333","24.902505","6500600","新店區"
"226005","5620-A6","2017/11/03 08:39:02","新北市平溪區十分里十分街236號","121.778215","25.0441183333333","6502400","平溪區"
"226001","7418-A5","2017/11/03 08:27:02","新北市平溪區東勢里番仔坑16號","121.754631666667","24.9911133333333","6502400","平溪區"
"226003","AGD-0702","2017/11/03 08:39:15","新北市平溪區十分里十分街238號","121.77807","25.0440433333333","6502400","平溪區"
"223006","022-BY","2017/11/03 08:39:12","新北市石碇區石碇西街21號","121.658868333333","24.9868383333333","6501900","石碇區"
"223002","198-BX","2017/11/03 08:39:20","新北市石碇區八分寮45號","121.642868333333","25.0133066666667","6501900","石碇區"
"223003","205-TH","2017/11/03 08:39:14","新北市石碇區北宜路六段十三股巷1號","121.65004","24.9456816666667","6501900","石碇區"
"223008","406-TH","2017/11/03 08:39:16","新北市石碇區碇南路二段松柏崎巷26號","121.675385","25.0207733333333","6501900","石碇區"
"223004","437-BY","2017/11/03 08:39:09","新北市石碇區崩山24-2號","121.67966","24.9683483333333","6501900","石碇區"
"223001","592-UM","2017/11/03 08:39:18","新北市石碇區北宜路六段十三股巷1號","121.65026","24.94498","6501900","石碇區"
"223005","677-TV","2017/11/03 08:39:12","新北市石碇區崩山43-1號","121.680135","24.9668633333333","6501900","石碇區"
"227005","282-VK","2017/11/03 08:39:18","新北市雙溪區魚行里丁子蘭坑31號","121.845786666667","24.999385","6502500","雙溪區"
"237001","159-UY","2017/11/03 08:39:17","新北市樹林區學勤路200號","121.377198333333","24.9472083333333","6500900","三峽區"
"236001","138-TH","2017/11/03 08:38:23","新北市土城區承天路69號","121.43979","24.9634","6501300","土城區"
"236010","165-UM","2017/11/03 08:26:40","新北市土城區石門路95巷3號","121.459731666667","24.9528116666667","6501300","土城區"
"236004","339-SR","2017/11/03 08:39:15","新北市土城區中央路三段281巷9-2號","121.426586666667","24.9629066666667","6501300","土城區"
"236006","498-BY","2017/11/03 08:39:12","新北市土城區永安街84號","121.431596666667","24.963695","6501300","土城區"
"242001","233-RS","2017/11/03 08:28:36","新北市新莊區環河路48-7號","121.436891666667","25.0097866666667","6500500","新莊區"
"239006","661-UM","2017/11/03 08:39:14","桃園市龜山區宏德司法新村1號","121.331516666667","24.9794666666667","6500800","鶯歌區"
"220080","461-BY","2017/11/03 08:39:16","新北市林口區太平里180號","121.368371666667","25.1344533333333","6500100","板橋區"
