"lineid","car","time","location","longitude","latitude","cityid","cityname"
"231007","189-VK","2017/11/03 10:09:08","新北市新店區新潭路三段215巷25號","121.5081","24.904095","6500600","新店區"
"231009","192-VK","2017/11/03 10:09:10","新北市新店區平廣路一段216號","121.511756666667","24.8887216666667","6500600","新店區"
"223003","205-TH","2017/11/03 09:51:14","新北市石碇區小粗坑(潭邊里)9-2號","121.678881666667","24.9863","6501900","石碇區"
"227005","282-VK","2017/11/03 09:46:38","新北市雙溪區泰平里灣潭路36號","121.811551666667","24.9287166666667","6502500","雙溪區"
"236001","138-TH","2017/11/03 10:06:37","新北市土城區金安街99號","121.419715","24.9660533333333","6501300","土城區"
"242001","233-RS","2017/11/03 08:28:36","新北市新莊區環河路48-7號","121.436891666667","25.0097866666667","6500500","新莊區"
"239006","661-UM","2017/11/03 10:09:21","新北市鶯歌區文化路216號","121.352785","24.9489516666667","6500800","鶯歌區"
