"lineid","car","time","location","longitude","latitude","cityid","cityname"
"231007","189-VK","2017/11/03 10:39:08","新北市新店區新潭路三段80巷1號","121.502938333333","24.9103366666667","6500600","新店區"
"231009","192-VK","2017/11/03 10:38:30","新北市新店區小坑一路41號","121.527673333333","24.909605","6500600","新店區"
"223003","205-TH","2017/11/03 09:51:14","新北市石碇區小粗坑(潭邊里)9-2號","121.678881666667","24.9863","6501900","石碇區"
"227005","282-VK","2017/11/03 10:39:16","新北市雙溪區泰平里泰平43-1號","121.833741666667","24.9797916666667","6502500","雙溪區"
"237001","159-UY","2017/11/03 10:39:16","新北市三峽區國學街6號","121.37358","24.9414816666667","6500900","三峽區"
"236001","138-TH","2017/11/03 10:39:17","新北市土城區中央路二段191-3號","121.442098333333","24.9753516666667","6501300","土城區"
"242001","233-RS","2017/11/03 08:28:36","新北市新莊區環河路48-7號","121.436891666667","25.0097866666667","6500500","新莊區"
