"lineid","car","time","location","longitude","latitude","cityid","cityname"
"231007","189-VK","2017/11/03 11:09:08","新北市新店區新潭路一段160巷17號","121.529703333333","24.9316983333333","6500600","新店區"
"231009","192-VK","2017/11/03 11:05:10","新北市新店區成功路126號","121.533651666667","24.8945933333333","6500600","新店區"
"223003","205-TH","2017/11/03 09:51:14","新北市石碇區小粗坑(潭邊里)9-2號","121.678881666667","24.9863","6501900","石碇區"
"227005","282-VK","2017/11/03 11:09:18","新北市雙溪區魚行里丁子蘭坑39號","121.868106666667","25.0035016666667","6502500","雙溪區"
"236001","138-TH","2017/11/03 10:53:08","新北市土城區永平街51號","121.427953333333","24.9591916666667","6501300","土城區"
"242001","233-RS","2017/11/03 08:28:36","新北市新莊區環河路48-7號","121.436891666667","25.0097866666667","6500500","新莊區"
