"lineid","car","time","location","longitude","latitude","cityid","cityname"
"234044","148-BY","2017/11/03 13:39:04","新北市永和區成功路一段82號","121.526555","25.0031283333333","6500400","永和區"
"234012","149-BY","2017/11/03 13:39:17","新北市永和區仁愛路196號","121.509576666667","25.0124233333333","6500400","永和區"
"234005","207-UY","2017/11/03 13:39:13","新北市永和區永和路一段69號","121.513155","25.0070666666667","6500400","永和區"
"234078","298-R6","2017/11/03 13:39:10","新北市永和區林森路46巷1號","121.524976666667","25.004805","6500400","永和區"
"234036","336-UY","2017/11/03 13:39:18","新北市永和區民樂街31巷10弄2號","121.528141666667","25.0007","6500400","永和區"
"234062","337-UY","2017/11/03 13:39:04","新北市永和區秀朗路一段192巷6弄14號","121.519078333333","25.0022766666667","6500400","永和區"
"234084","338-UY","2017/11/03 13:39:20","新北市永和區林森路65號","121.524185","25.0040783333333","6500400","永和區"
"234068","552-UM","2017/11/03 13:39:21","新北市永和區永和路二段234號","121.515813333333","25.0145733333333","6500400","永和區"
"234052","553-UM","2017/11/03 13:39:15","新北市永和區竹林路39巷22號","121.518996666667","25.0147683333333","6500400","永和區"
"234015","745-BX","2017/11/03 13:39:23","新北市永和區忠孝街26巷8號","121.515476666667","25.016675","6500400","永和區"
"234028","746-BX","2017/11/03 13:39:11","新北市永和區民權路1巷26號","121.521583333333","24.9982866666667","6500400","永和區"
"234060","AAD-866","2017/11/03 13:39:16","新北市永和區中正路346號","121.51778","25.0004033333333","6500400","永和區"
"234040","862-TW","2017/11/03 13:39:07","新北市中和區宜安路182號","121.508633333333","24.9994766666667","6500400","永和區"
"234048","863-TW","2017/11/03 13:39:05","新北市永和區保安路53號","121.509391666667","25.0157783333333","6500400","永和區"
"234025","9371-KE","2017/11/03 13:39:15","新北市永和區自由街58號","121.513763333333","25.0059833333333","6500400","永和區"
"234010","9373-KE","2017/11/03 13:39:19","新北市永和區保福路二段15巷9號","121.51059","25.0109533333333","6500400","永和區"
"248019","225-UY","2017/11/03 13:38:48","新北市五股區凌雲路三段田埔巷35-1號","121.439576666667","25.1223033333333","6501500","五股區"
"234022","9380-KE","2017/11/03 13:39:02","新北市永和區中正路702巷18號","121.516461666667","25.0105033333333","6500400","永和區"
"234076","969-R7","2017/11/03 13:39:23","新北市永和區民族街25號","121.518771666667","24.9996516666667","6500400","永和區"
"234072","AAC-211","2017/11/03 13:39:07","新北市永和區竹林路215號","121.520895","25.0087933333333","6500400","永和區"
"234066","AAC-212","2017/11/03 13:39:13","新北市永和區中山路一段191巷7弄2號","121.50957","25.00828","6500400","永和區"
"234001","AAC-295","2017/11/03 13:39:08","新北市永和區秀朗路一段15號","121.513875","25.0073266666667","6500400","永和區"
"244004","657-BX","2017/11/03 13:39:11","新北市林口區頂福里71-26號","121.355416666667","25.08005","6501700","林口區"
"231002","002-UM","2017/11/03 13:39:15","新北市新店區中央三街127號","121.524088333333","24.9768566666667","6500600","新店區"
"231028","046-UY","2017/11/03 13:39:16","新北市新店區安和路二段138號","121.519561666667","24.9723066666667","6500600","新店區"
"231030","047-UY","2017/11/03 13:39:24","新北市新店區安康路一段48號","121.530385","24.9610966666667","6500600","新店區"
"231029","106-UY","2017/11/03 13:39:22","新北市新店區安康路二段216號","121.50984","24.959385","6500600","新店區"
"231012","108-UY","2017/11/03 13:39:21","新北市新店區德正街27巷29弄14號","121.545785","24.97191","6500600","新店區"
"231022","187-VK","2017/11/03 13:39:16","新北市新店區永興路90號","121.544278333333","24.9315666666667","6500600","新店區"
"231016","KEA-2219","2017/11/03 13:39:13","新北市新店區竹林路2巷27弄1號","121.550121666667","24.9508433333333","6500600","新店區"
"231026","256-BX","2017/11/03 13:39:08","新北市新店區中正路236號","121.539753333333","24.97294","6500600","新店區"
"231010","278-BY","2017/11/03 13:39:18","新北市新店區中正路326號","121.536933333333","24.97481","6500600","新店區"
"231023","AAD-862","2017/11/03 13:39:10","新北市新店區新店路126號","121.537148333333","24.954975","6500600","新店區"
"231027","3712-VJ","2017/11/03 13:39:02","新北市新店區北宜路一段168號","121.540435","24.9529533333333","6500600","新店區"
"231024","3713-VJ","2017/11/03 13:39:06","新北市新店區華興街22號","121.537618333333","24.96929","6500600","新店區"
"231025","4716-K9","2017/11/03 13:39:03","新北市新店區中央六街58號","121.527915","24.9758016666667","6500600","新店區"
"231038","4715-K9","2017/11/03 13:39:07","新北市新店區安華路30巷1號","121.519583333333","24.9592816666667","6500600","新店區"
"231036","512-UM","2017/11/03 13:39:08","新北市新店區安祥路147巷29號","121.475921666667","24.9566533333333","6500600","新店區"
"231035","515-UM","2017/11/03 13:39:22","新北市新店區安忠路94號","121.511175","24.95732","6500600","新店區"
"231006","617-UM","2017/11/03 13:39:16","新北市新店區北宜路一段69號","121.538433333333","24.956405","6500600","新店區"
"231001","619-UM","2017/11/03 13:39:10","新北市新店區中正路379號","121.534728333333","24.9768466666667","6500600","新店區"
"231003","641-BX","2017/11/03 13:39:07","新北市新店區中正路35號","121.545","24.9696866666667","6500600","新店區"
"231034","645-TV","2017/11/03 13:39:15","新北市新店區車子路109號","121.505236666667","24.9521583333333","6500600","新店區"
"231013","719-UM","2017/11/03 13:39:03","新北市新店區中正路454-5號","121.53444","24.9790766666667","6500600","新店區"
"231018","719-UY","2017/11/03 13:39:21","新北市新店區中正路373號","121.534896666667","24.9765816666667","6500600","新店區"
"231032","720-UM","2017/11/03 13:39:10","新北市新店區莒光路61巷1-1號","121.524131666667","24.958555","6500600","新店區"
"231005","897-TW","2017/11/03 13:39:22","新北市新店區寶中路72號","121.547865","24.980635","6500600","新店區"
"231004","899-TW","2017/11/03 13:39:23","新北市新店區北新路二段7號","121.542746666667","24.9713383333333","6500600","新店區"
"231037","AKT-0513","2017/11/03 13:39:14","新北市新店區安康路二段422-1號","121.496081666667","24.9556233333333","6500600","新店區"
"235030","003-UY","2017/11/03 13:39:17","新北市中和區水源路39號","121.504665","25.0035716666667","6500300","中和區"
"235028","005-UY","2017/11/03 13:39:08","新北市中和區連城路89巷7-1號","121.497323333333","24.9993216666667","6500300","中和區"
"235027","006-UY","2017/11/03 13:39:10","新北市中和區連城路389巷14號","121.486558333333","24.9953983333333","6500300","中和區"
"235020","096-UM","2017/11/03 13:39:21","新北市中和區新民街94巷10號","121.481278333333","25.0086933333333","6500300","中和區"
"235003","097-UM","2017/11/03 13:39:07","新北市中和區大勇街25巷15弄21-3號","121.51511","24.9936183333333","6500300","中和區"
"235029","098-UM","2017/11/03 13:39:09","新北市中和區莊敬路33巷36弄12號","121.500513333333","25.006455","6500300","中和區"
"235004","150-BY","2017/11/03 13:39:08","新北市中和區安平路59號","121.509535","24.99524","6500300","中和區"
"235022","151-BY","2017/11/03 13:39:22","新北市中和區員山路28-11號","121.48141","24.98613","6500300","中和區"
"235019","183-VK","2017/11/03 13:39:14","新北市中和區莒光路120巷15弄2號","121.471681666667","25.0012266666667","6500300","中和區"
"235002","185-VK","2017/11/03 13:39:14","新北市中和區自強路16號","121.520268333333","24.9956633333333","6500300","中和區"
"235013","186-VK","2017/11/03 13:39:11","新北市中和區景安路78號","121.505716666667","24.9964216666667","6500300","中和區"
"235031","255-BX","2017/11/03 13:39:24","新北市中和區新生街220巷17號","121.482908333333","24.998435","6500300","中和區"
"235008","293-VK","2017/11/03 13:39:09","新北市中和區復興路301巷21號","121.501866666667","24.98968","6500300","中和區"
"235036","301-VK","2017/11/03 13:39:16","新北市中和區連城路171巷41弄1號","121.496276666667","24.996545","6500300","中和區"
"235007","352-BY","2017/11/03 13:39:09","新北市中和區景平路123號","121.515601666667","24.9917733333333","6500300","中和區"
"235032","377-QA","2017/11/03 13:39:17","新北市中和區中正路211巷8號","121.496911666667","24.9932833333333","6500300","中和區"
"235025","378-QA","2017/11/03 13:39:20","新北市中和區民享街94號","121.474725","24.9998683333333","6500300","中和區"
"235035","269-TV","2017/11/03 13:39:12","新北市中和區中原街92號","121.48808","25.0101933333333","6500300","中和區"
"235014","4979-A6","2017/11/03 13:39:15","新北市中和區忠孝街75號","121.512115","24.9850716666667","6500300","中和區"
"235033","4980-A6","2017/11/03 13:39:05","新北市中和區泰和街38巷1號","121.499236666667","25.0001183333333","6500300","中和區"
"235006","551-UM","2017/11/03 13:39:04","新北市中和區成功路97巷5弄13號","121.526438333333","24.9921633333333","6500300","中和區"
"235034","558-UM","2017/11/03 13:39:16","新北市中和區南華路81號","121.505408333333","24.9973083333333","6500300","中和區"
"235009","565-BX","2017/11/03 13:39:06","新北市中和區復興路51號","121.504686666667","24.9899683333333","6500300","中和區"
"235018","640-BX","2017/11/03 13:39:13","新北市中和區民享街86巷26號","121.473373333333","25.0006383333333","6500300","中和區"
"235011","732-UM","2017/11/03 13:39:13","新北市中和區興南路二段5號","121.50805","24.9863733333333","6500300","中和區"
"235010","733-UM","2017/11/03 13:39:20","新北市中和區南山路421巷1弄34號","121.507153333333","24.99056","6500300","中和區"
"235026","800-TS","2017/11/03 13:39:09","新北市中和區中山路二段312巷33弄20號","121.494851666667","25.00419","6500300","中和區"
"235021","801-TS","2017/11/03 13:39:20","新北市中和區民安街41號","121.479941666667","25.000285","6500300","中和區"
"235005","802-TS","2017/11/03 13:39:17","新北市中和區永貞路280號","121.513146666667","25.00392","6500300","中和區"
"235016","805-TS","2017/11/03 13:39:19","新北市中和區興南路三段42-3號","121.495726666667","24.9771766666667","6500300","中和區"
"235012","896-TW","2017/11/03 13:39:21","新北市中和區中正路83號","121.500663333333","24.9934416666667","6500300","中和區"
"235017","900-TW","2017/11/03 13:39:20","新北市中和區民享街482號","121.469343333333","24.9924733333333","6500300","中和區"
"235024","911-UM","2017/11/03 13:39:18","新北市中和區中山路二段507號","121.482233333333","25.0050666666667","6500300","中和區"
"235001","157-BY","2017/11/03 13:39:02","新北市中和區華新街143巷58號","121.505991666667","24.979525","6500300","中和區"
"235001","AAC-213","2017/11/03 13:39:03","新北市中和區景平路111巷57號","121.515363333333","24.9903","6500300","中和區"
"235023","AAC-215","2017/11/03 13:28:42","新北市中和區員山路36巷16-3號","121.48483","24.9913316666667","6500300","中和區"
"220016","013-TV","2017/11/03 13:39:10","新北市板橋區民生路二段161巷1號","121.470256666667","25.0199666666667","6500100","板橋區"
"220013","072-UY","2017/11/03 13:39:14","新北市板橋區中山路一段19號","121.459736666667","25.0086733333333","6500100","板橋區"
"220034","073-UY","2017/11/03 13:39:20","新北市板橋區南雅西路二段193號","121.45183","25.013155","6500100","板橋區"
"247009","339-TH","2017/11/03 13:39:10","新北市五股區成洲五路38號","121.453366666667","25.101295","6501400","蘆洲區"
"247003","336-TH","2017/11/03 13:39:07","新北市蘆洲區長安街160號","121.459525","25.0829316666667","6501400","蘆洲區"
"247015","057-VK","2017/11/03 13:39:13","新北市五股區凌雲路一段22巷11號","121.452805","25.1008","6501400","蘆洲區"
"247005","056-VK","2017/11/03 13:39:08","新北市五股區中興路二段182巷15弄13號","121.457156666667","25.0816533333333","6501400","蘆洲區"
"247017","001-UY","2017/11/03 13:39:02","新北市五股區中興路三段5號","121.44952","25.0799183333333","6501400","蘆洲區"
"223003","205-TH","2017/11/03 09:51:14","新北市石碇區小粗坑(潭邊里)9-2號","121.678881666667","24.9863","6501900","石碇區"
"208004","AAC-292","2017/11/03 13:38:28","新北市金山區重和里三重橋2號","121.59507","25.19695","6502700","金山區"
"207002","749-BX","2017/11/03 13:39:17","新北市萬里區崁腳里崁腳路166號","121.645158333333","25.15608","6502800","萬里區"
"207001","662-BX","2017/11/03 13:39:13","新北市萬里區大鵬里萬里加投63號","121.640611666667","25.2131383333333","6502800","萬里區"
"236041","107-UM","2017/11/03 13:39:11","新北市土城區城林路6巷80號","121.438376666667","24.9798533333333","6501300","土城區"
"236001","138-TH","2017/11/03 13:39:14","新北市土城區明德路二段65號","121.451401666667","24.9808233333333","6501300","土城區"
"236035","271-VK","2017/11/03 13:39:17","新北市土城區城林路6巷80號","121.43856","24.979715","6501300","土城區"
"236019","401-BY","2017/11/03 13:39:03","新北市土城區城林路6巷80號","121.43856","24.97981","6501300","土城區"
"236006","498-BY","2017/11/03 13:39:20","新北市土城區慶祥街90號","121.435973333333","24.9732466666667","6501300","土城區"
"236052","AAC-216","2017/11/03 13:39:14","新北市土城區城林路6巷80號","121.438361666667","24.9798083333333","6501300","土城區"
"242051","751-BX","2017/11/03 13:39:16","新北市新莊區龍安路16巷2號","121.414411666667","25.0225633333333","6500500","新莊區"
"242001","233-RS","2017/11/03 08:28:36","新北市新莊區環河路48-7號","121.436891666667","25.0097866666667","6500500","新莊區"
"221012","276-VK","2017/11/03 13:13:45","新北市汐止區汐萬路一段256巷3號","121.65345","25.074585","6501100","汐止區"
"221032","280-BY","2017/11/03 13:39:19","新北市汐止區仁愛路10號","121.659325","25.0635933333333","6501100","汐止區"
"221018","753-BX","2017/11/03 13:39:05","新北市汐止區福德二路77-2號","121.63319","25.065895","6501100","汐止區"
"220027","145-BY","2017/11/03 13:39:06","新北市板橋區南雅南路二段120-11號","121.45208","24.999365","6500100","板橋區"
"220028","200-UY","2017/11/03 13:39:19","新北市板橋區板城路407號","121.447258333333","24.99499","6500100","板橋區"
"220030","610-BX","2017/11/03 13:39:08","新北市板橋區板城路407號","121.447375","24.9951733333333","6500100","板橋區"
"220004","276-BY","2017/11/03 13:39:19","新北市板橋區四川路二段140巷20號","121.44907","24.993485","6500100","板橋區"
"220019","283-VK","2017/11/03 13:39:17","新北市板橋區華東街1-9號","121.448056666667","24.994935","6500100","板橋區"
"220043","285-UM","2017/11/03 13:39:05","新北市板橋區民生路二段161巷1號","121.469943333333","25.0199866666667","6500100","板橋區"
"220001","285-VK","2017/11/03 13:39:16","新北市板橋區民生路二段161巷1號","121.470241666667","25.0199683333333","6500100","板橋區"
"220031","286-VK","2017/11/03 13:39:11","新北市板橋區華東街1-8號","121.448038333333","24.9947583333333","6500100","板橋區"
"220029","287-VK","2017/11/03 13:39:09","新北市板橋區板城路421號","121.44819","24.996105","6500100","板橋區"
"220009","295-UM","2017/11/03 02:48:14","新北市板橋區民生路二段120號","121.47037","25.01967","6500100","板橋區"
"220032","296-UM","2017/11/03 13:39:03","新北市板橋區板城路407號","121.447566666667","24.995325","6500100","板橋區"
"220023","297-UM","2017/11/03 13:39:21","新北市板橋區大觀路二段266號","121.44953","24.9967716666667","6500100","板橋區"
"220010","303-R5","2017/11/03 13:39:14","新北市板橋區民生路二段120號","121.470648333333","25.01968","6500100","板橋區"
"220012","486-VK","2017/11/03 13:39:22","新北市板橋區民生路二段36-1號","121.472015","25.01683","6500100","板橋區"
"220104","560-BX","2017/11/03 13:39:15","新北市板橋區南雅西路二段145巷10號","121.451578333333","25.0119016666667","6500100","板橋區"
"220011","609-BX","2017/11/03 13:39:17","新北市板橋區民生路二段188號","121.470145","25.0202716666667","6500100","板橋區"
"220005","686-BX","2017/11/03 13:39:18","新北市板橋區華東街1-9號","121.448218333333","24.994835","6500100","板橋區"
"220025","687-BX","2017/11/03 13:39:19","新北市板橋區大觀路三段240號","121.429373333333","24.99282","6500100","板橋區"
"220002","741-BX","2017/11/03 13:39:05","新北市板橋區華東街1-9號","121.448055","24.9949316666667","6500100","板橋區"
"220003","827-TW","2017/11/03 13:39:08","新北市板橋區華東街1-9號","121.44818","24.9949416666667","6500100","板橋區"
"220022","895-R6","2017/11/03 13:39:08","新北市板橋區南雅南路一段8-9號","121.455913333333","25.0064333333333","6500100","板橋區"
"220021","985-R7","2017/11/03 13:39:20","新北市板橋區南雅南路二段140號","121.451718333333","24.9963","6500100","板橋區"
"220046","AAC-210","2017/11/03 13:39:08","新北市板橋區民生路二段161巷3號","121.470201666667","25.0198383333333","6500100","板橋區"
"220018","AAC-253","2017/11/03 13:39:22","新北市板橋區華東街1-9號","121.448238333333","24.9948683333333","6500100","板橋區"
