"lineid","car","time","location","longitude","latitude","cityid","cityname"
"234025","9371-KE","2017/11/03 14:59:15","新北市永和區中和路597巷4號","121.512236666667","25.0045516666667","6500400","永和區"
"248019","225-UY","2017/11/03 14:59:13","新北市五股區凌雲路三段23-3號","121.43007","25.1107033333333","6501500","五股區"
"244004","657-BX","2017/11/03 14:03:51","新北市林口區林口路76號","121.389691666667","25.0806683333333","6501700","林口區"
"231002","002-UM","2017/11/03 14:59:20","新北市新店區中正路508號","121.533901666667","24.9829516666667","6500600","新店區"
"231028","046-UY","2017/11/03 14:59:16","新北市新店區安豐路46號","121.500038333333","24.9549283333333","6500600","新店區"
"231030","047-UY","2017/11/03 14:59:04","新北市新店區安民街339號","121.516916666667","24.9748783333333","6500600","新店區"
"231029","106-UY","2017/11/03 14:59:22","新北市新店區錦秀路62號","121.478985","24.942975","6500600","新店區"
"231012","108-UY","2017/11/03 14:59:21","新北市新店區中興路三段205巷9號","121.543188333333","24.981525","6500600","新店區"
"231022","187-VK","2017/11/03 14:59:16","新北市新店區新烏路47號","121.547131666667","24.9285366666667","6500600","新店區"
"231016","KEA-2219","2017/11/03 14:59:13","新北市新店區銀河路66-1號","121.577975","24.957875","6500600","新店區"
"231026","256-BX","2017/11/03 14:59:03","新北市新店區北新路一段337號","121.541861666667","24.968685","6500600","新店區"
"231023","AAD-862","2017/11/03 14:59:10","新北市新店區檳榔路109號","121.544315","24.9615866666667","6500600","新店區"
"231024","3713-VJ","2017/11/03 14:59:12","新北市新店區中華路83巷67號","121.538336666667","24.9672733333333","6500600","新店區"
"231025","4716-K9","2017/11/03 14:59:03","新北市新店區二十張路33巷10號","121.538631666667","24.98101","6500600","新店區"
"231036","512-UM","2017/11/03 14:59:08","新北市新店區安祥路102巷46弄69號","121.486765","24.9634266666667","6500600","新店區"
"231035","515-UM","2017/11/03 14:59:22","新北市新店區永安街74巷17號","121.519216666667","24.9859183333333","6500600","新店區"
"231006","617-UM","2017/11/03 14:59:16","新北市新店區中興路一段172巷1號","121.542955","24.9645316666667","6500600","新店區"
"231001","619-UM","2017/11/03 14:59:10","新北市新店區中正路278號","121.53885","24.973765","6500600","新店區"
"231003","641-BX","2017/11/03 14:59:07","新北市新店區中興路二段226號","121.547876666667","24.9751","6500600","新店區"
"231034","645-TV","2017/11/03 14:59:15","新北市新店區玫瑰路4-1號","121.493615","24.9513483333333","6500600","新店區"
"231039","718-UY","2017/11/03 14:59:21","新北市新店區北新路二段197號","121.54266","24.9782166666667","6500600","新店區"
"231018","719-UY","2017/11/03 14:59:07","新北市新店區中央六街7號","121.53027","24.9745133333333","6500600","新店區"
"231032","720-UM","2017/11/03 14:59:10","新北市新店區安泰路60巷134弄66號","121.483461666667","24.943415","6500600","新店區"
"231005","897-TW","2017/11/03 14:59:21","新北市新店區復興路53號","121.53617","24.9872366666667","6500600","新店區"
"231004","899-TW","2017/11/03 14:59:03","新北市新店區民族路26號","121.540696666667","24.97878","6500600","新店區"
"231037","AKT-0513","2017/11/03 14:59:14","新北市新店區安民街365巷7弄2號","121.516043333333","24.9752066666667","6500600","新店區"
"235030","003-UY","2017/11/03 14:59:17","新北市中和區水源路127巷3弄1號","121.508015","25.0034683333333","6500300","中和區"
"235020","096-UM","2017/11/03 14:59:21","新北市中和區漢民路419號","121.472398333333","25.0068233333333","6500300","中和區"
"235003","097-UM","2017/11/03 14:59:07","新北市中和區宜安路18巷6號","121.513518333333","24.9961366666667","6500300","中和區"
"235029","098-UM","2017/11/03 14:59:22","新北市中和區永和路39巷20號","121.497326666667","25.0051866666667","6500300","中和區"
"235004","150-BY","2017/11/03 14:59:07","新北市中和區保健路8巷15號","121.50778","24.9977583333333","6500300","中和區"
"235022","151-BY","2017/11/03 14:59:02","新北市中和區員山路114號","121.481146666667","24.99575","6500300","中和區"
"235002","185-VK","2017/11/03 14:59:14","新北市中和區自立路3號","121.522566666667","24.9966783333333","6500300","中和區"
"235013","186-VK","2017/11/03 14:59:10","新北市中和區景平路431巷96號","121.500731666667","24.9952266666667","6500300","中和區"
"235031","255-BX","2017/11/03 14:59:04","新北市中和區新生街213號","121.483821666667","24.9996533333333","6500300","中和區"
"235008","293-VK","2017/11/03 14:59:09","新北市中和區南山路146巷29號","121.502768333333","24.9923816666667","6500300","中和區"
"235036","301-VK","2017/11/03 14:59:16","新北市中和區中正路406號","121.492358333333","24.9942133333333","6500300","中和區"
"235007","352-BY","2017/11/03 14:59:15","新北市中和區華新街232巷9-4號","121.50596","24.981755","6500300","中和區"
"235032","377-QA","2017/11/03 14:59:17","新北市中和區勝利路35巷1弄18號","121.499638333333","25.0076183333333","6500300","中和區"
"235035","269-TV","2017/11/03 14:59:12","新北市中和區錦和路47號","121.488221666667","24.9998716666667","6500300","中和區"
"235014","4979-A6","2017/11/03 14:59:15","新北市中和區景平路336號","121.51181","24.99297","6500300","中和區"
"235033","4980-A6","2017/11/03 14:59:05","新北市中和區南山路127巷27弄28號","121.50339","24.9980216666667","6500300","中和區"
"235034","558-UM","2017/11/03 14:59:16","新北市中和區連勝街59號","121.497596666667","24.99714","6500300","中和區"
"235018","640-BX","2017/11/03 14:59:18","新北市中和區莒光路132號","121.472485","25.0015","6500300","中和區"
"235010","733-UM","2017/11/03 14:59:20","新北市中和區興南路一段105巷20弄6號","121.51031","24.9855983333333","6500300","中和區"
"235026","800-TS","2017/11/03 14:59:09","新北市中和區建一路148號","121.488113333333","24.9987916666667","6500300","中和區"
"235016","805-TS","2017/11/03 14:59:19","新北市中和區華新街192巷21號","121.506446666667","24.9829066666667","6500300","中和區"
"235012","896-TW","2017/11/03 14:59:21","新北市中和區忠孝街5巷9號","121.509256666667","24.9831","6500300","中和區"
"235017","900-TW","2017/11/03 14:59:20","新北市中和區民德路208號","121.468306666667","24.9983566666667","6500300","中和區"
"235024","911-UM","2017/11/03 14:59:11","新北市中和區中正路637巷46號","121.485436666667","24.9942316666667","6500300","中和區"
"235001","157-BY","2017/11/03 14:59:02","新北市中和區復興路48號","121.504315","24.990295","6500300","中和區"
"235001","AAC-213","2017/11/03 14:59:15","新北市中和區立人街3號","121.521865","24.9938283333333","6500300","中和區"
"235023","AAC-215","2017/11/03 14:59:02","新北市中和區圓通路335巷4弄5號","121.492161666667","24.9901916666667","6500300","中和區"
"220016","013-TV","2017/11/03 14:59:10","新北市板橋區中山路二段361號","121.479733333333","25.0189983333333","6500100","板橋區"
"220013","072-UY","2017/11/03 14:59:14","新北市板橋區中山路一段154巷3弄2號","121.465401666667","25.0104383333333","6500100","板橋區"
"220105","075-UY","2017/11/03 14:59:15","新北市板橋區民治街42巷24號","121.47834","25.0331083333333","6500100","板橋區"
"220017","AAD-861","2017/11/03 14:59:12","新北市板橋區貴興路62號","121.456636666667","25.0030133333333","6500100","板橋區"
"247001","337-TH","2017/11/03 14:59:20","新北市五股區中興路二段182巷18-1號","121.456286666667","25.08164","6501400","蘆洲區"
"223003","205-TH","2017/11/03 09:51:14","新北市石碇區小粗坑(潭邊里)9-2號","121.678881666667","24.9863","6501900","石碇區"
"208004","AAC-292","2017/11/03 14:59:12","新北市金山區六股里下六股19號","121.624633333333","25.2237783333333","6502700","金山區"
"207002","749-BX","2017/11/03 14:59:17","新北市萬里區崁腳里崁腳路73號","121.64759","25.1595916666667","6502800","萬里區"
"207001","662-BX","2017/11/03 14:59:14","新北市萬里區磺潭里員潭路32-1號","121.644765","25.195535","6502800","萬里區"
"236067","105-UM","2017/11/03 14:59:18","新北市土城區裕生路77號","121.446995","24.9844316666667","6501300","土城區"
"236041","107-UM","2017/11/03 14:59:11","新北市土城區學府路一段222號","121.452115","24.98516","6501300","土城區"
"236001","138-TH","2017/11/03 14:15:24","新北市土城區永平街51號","121.427995","24.95918","6501300","土城區"
"236077","166-UM","2017/11/03 14:59:20","新北市土城區中州路3巷11弄2號","121.414136666667","24.9569633333333","6501300","土城區"
"236029","253-BX","2017/11/03 14:59:22","新北市土城區中央路二段150號","121.441878333333","24.9769416666667","6501300","土城區"
"236025","269-VK","2017/11/03 14:59:10","新北市土城區中正路72號","121.44453","24.97545","6501300","土城區"
"236013","270-VK","2017/11/03 14:59:16","新北市土城區立德路27號","121.462095","24.988245","6501300","土城區"
"236035","271-VK","2017/11/03 14:59:17","新北市土城區仁愛路8號","121.459948333333","24.980985","6501300","土城區"
"236019","401-BY","2017/11/03 14:59:03","新北市土城區延峰街32巷2號","121.469325","24.9851433333333","6501300","土城區"
"236046","752-BX","2017/11/03 14:59:09","新北市土城區明德路一段398-1號","121.45364","24.9791083333333","6501300","土城區"
"236057","912-UM","2017/11/03 14:59:04","新北市土城區金城路一段112號","121.446478333333","24.9751266666667","6501300","土城區"
"236061","915-UM","2017/11/03 14:59:21","新北市土城區延和路41巷6弄2號","121.466003333333","24.9900016666667","6501300","土城區"
"236054","AAC-216","2017/11/03 14:59:14","新北市土城區學成路130號","121.449126666667","24.9895816666667","6501300","土城區"
"242001","233-RS","2017/11/03 08:28:36","新北市新莊區環河路48-7號","121.436891666667","25.0097866666667","6500500","新莊區"
"221012","276-VK","2017/11/03 13:13:45","新北市汐止區汐萬路一段256巷3號","121.65345","25.074585","6501100","汐止區"
"220027","145-BY","2017/11/03 14:59:06","新北市板橋區南雅西路二段205號","121.451301666667","25.013335","6500100","板橋區"
"220028","200-UY","2017/11/03 14:59:19","新北市板橋區大觀路二段153巷44弄53號","121.446076666667","24.9989683333333","6500100","板橋區"
"220030","610-BX","2017/11/03 14:59:08","新北市板橋區篤行路二段131巷1-2號","121.43147","24.9904783333333","6500100","板橋區"
"220050","245-BX","2017/11/03 14:59:16","新北市板橋區莒光路200巷28號","121.473001666667","25.02218","6500100","板橋區"
"220020","277-BY","2017/11/03 14:59:07","新北市板橋區溪城路85號","121.426936666667","24.9835933333333","6500100","板橋區"
"220019","283-VK","2017/11/03 14:59:18","新北市板橋區廣權路117號","121.465183333333","24.993085","6500100","板橋區"
"220043","285-UM","2017/11/03 14:59:24","新北市板橋區雨農路21號","121.461333333333","25.0241983333333","6500100","板橋區"
"220001","285-VK","2017/11/03 14:59:21","新北市板橋區永豐街111號","121.474188333333","25.0194183333333","6500100","板橋區"
"220031","286-VK","2017/11/03 14:59:14","新北市板橋區僑中二街88巷22號","121.445245","25.0095716666667","6500100","板橋區"
"220029","287-VK","2017/11/03 14:59:09","新北市板橋區僑中一街124巷11弄1號","121.445998333333","25.01293","6500100","板橋區"
"220039","288-VK","2017/11/03 14:59:09","新北市板橋區幸福路32巷65號","121.4603","25.0222216666667","6500100","板橋區"
"220009","295-UM","2017/11/03 14:59:08","新北市板橋區中山路一段4號","121.460005","25.0075716666667","6500100","板橋區"
"220032","296-UM","2017/11/03 14:59:23","新北市樹林區博愛街179號","121.425028333333","24.9892966666667","6500100","板橋區"
"220023","297-UM","2017/11/03 14:59:21","新北市板橋區金華街88號","121.458073333333","25.0205783333333","6500100","板橋區"
"220010","303-R5","2017/11/03 14:59:14","新北市板橋區中山路二段613號","121.485555","25.0224383333333","6500100","板橋區"
"220041","307-R5","2017/11/03 14:59:12","新北市板橋區裕民街132號","121.458753333333","25.027325","6500100","板橋區"
"220047","317-R6","2017/11/03 14:59:03","新北市板橋區新海路72巷7號","121.462243333333","25.0220216666667","6500100","板橋區"
"220012","486-VK","2017/11/03 14:59:22","新北市板橋區漢生東路193巷23-4號","121.470943333333","25.01216","6500100","板橋區"
"220038","487-VK","2017/11/03 14:59:16","新北市板橋區龍泉街81號","121.456696666667","25.0250966666667","6500100","板橋區"
"220037","491-VK","2017/11/03 14:59:10","新北市板橋區懷德街78巷1號","121.478285","25.0314766666667","6500100","板橋區"
"220052","561-BX","2017/11/03 14:59:18","新北市板橋區文化路一段435巷31弄11號","121.466935","25.02288","6500100","板橋區"
"220011","609-BX","2017/11/03 14:59:17","新北市板橋區三民路一段31巷17弄8-3號","121.480166666667","25.0236833333333","6500100","板橋區"
"220040","637-BX","2017/11/03 14:59:24","新北市板橋區懷德街174巷18弄5號","121.478578333333","25.0298516666667","6500100","板橋區"
"220005","686-BX","2017/11/03 14:59:18","新北市板橋區四川路二段2號","121.456655","24.9967033333333","6500100","板橋區"
"220025","687-BX","2017/11/03 14:59:19","新北市板橋區僑中一街124巷62-9號","121.446726666667","25.0173283333333","6500100","板橋區"
"220042","689-BX","2017/11/03 14:59:22","新北市板橋區文化路二段503號","121.4762","25.0344683333333","6500100","板橋區"
"220003","827-TW","2017/11/03 14:59:08","新北市板橋區國慶路149巷4弄18-3號","121.461985","24.99702","6500100","板橋區"
"220014","829-TW","2017/11/03 14:59:14","新北市板橋區中山路一段206巷45號","121.47087","25.01284","6500100","板橋區"
"220051","830-TW","2017/11/03 14:58:53","新北市板橋區大同街66號","121.479495","25.027675","6500100","板橋區"
"220045","831-TW","2017/11/03 14:59:11","新北市板橋區莒光路79巷6號","121.471981666667","25.0244633333333","6500100","板橋區"
"220022","895-R6","2017/11/03 14:59:08","新北市板橋區館前西路86號","121.457575","25.0071333333333","6500100","板橋區"
"220046","AAC-210","2017/11/03 14:59:15","新北市板橋區光正街18巷1號","121.462471666667","25.0172416666667","6500100","板橋區"
"220018","AAC-253","2017/11/03 14:59:22","新北市板橋區成都街17號","121.460435","25.0048333333333","6500100","板橋區"
