"lineid","car","time","location","longitude","latitude","cityid","cityname"
"248019","225-UY","2017/11/03 15:08:46","新北市五股區凌雲路三段24巷24號","121.435251666667","25.1043916666667","6501500","五股區"
"244004","657-BX","2017/11/03 15:09:08","新北市林口區竹林路266號","121.389793333333","25.0808666666667","6501700","林口區"
"231002","002-UM","2017/11/03 15:09:15","新北市新店區中正路543-4號","121.5337","24.9875166666667","6500600","新店區"
"231028","046-UY","2017/11/03 15:09:16","新北市新店區僑愛五路21號","121.499103333333","24.9442383333333","6500600","新店區"
"231030","047-UY","2017/11/03 15:09:04","新北市新店區安民街339號","121.516923333333","24.9748716666667","6500600","新店區"
"231029","106-UY","2017/11/03 15:09:02","新北市新店區安康路三段740號","121.473773333333","24.9420133333333","6500600","新店區"
"231012","108-UY","2017/11/03 15:09:21","新北市新店區中興路三段322號","121.542213333333","24.986105","6500600","新店區"
"231022","187-VK","2017/11/03 15:09:16","新北市新店區永福路54號","121.558126666667","24.9286683333333","6500600","新店區"
"231016","KEA-2219","2017/11/03 15:09:13","新北市新店區明山路45號","121.563833333333","24.9558933333333","6500600","新店區"
"231026","256-BX","2017/11/03 15:09:11","新北市新店區建國路60巷1-1號","121.541001666667","24.9757133333333","6500600","新店區"
"231023","AAD-862","2017/11/03 15:09:10","新北市新店區檳榔路105號","121.54463","24.9616566666667","6500600","新店區"
"231024","3713-VJ","2017/11/03 15:09:12","新北市新店區北新路一段297巷29號","121.540536666667","24.9681733333333","6500600","新店區"
"231025","4716-K9","2017/11/03 15:09:03","新北市新店區建國路241號","121.537661666667","24.98242","6500600","新店區"
"231036","512-UM","2017/11/03 15:09:19","新北市新店區安祥路102巷102號","121.487263333333","24.9638933333333","6500600","新店區"
"231035","515-UM","2017/11/03 15:09:17","新北市新店區安和路三段157號","121.516506666667","24.985775","6500600","新店區"
"231006","617-UM","2017/11/03 15:09:15","新北市新店區新坡一街60號","121.549721666667","24.963155","6500600","新店區"
"231001","619-UM","2017/11/03 15:09:10","新北市新店區中正路278號","121.538885","24.973815","6500600","新店區"
"231003","641-BX","2017/11/03 15:09:07","新北市新店區寶橋路202號","121.55083","24.9784233333333","6500600","新店區"
"231034","645-TV","2017/11/03 15:09:15","新北市新店區玫瑰路4-1號","121.493601666667","24.9513616666667","6500600","新店區"
"231039","718-UY","2017/11/03 15:09:21","新北市新店區北新路三段104號","121.542108333333","24.98131","6500600","新店區"
"231018","719-UY","2017/11/03 15:09:07","新北市新店區中央六街38號","121.528758333333","24.97532","6500600","新店區"
"231032","720-UM","2017/11/03 15:09:10","新北市新店區安泰路170-2號","121.488538333333","24.9373433333333","6500600","新店區"
"231005","897-TW","2017/11/03 15:09:01","新北市新店區寶元路一段15巷20號","121.541986666667","24.9869466666667","6500600","新店區"
"231004","899-TW","2017/11/03 15:09:23","新北市新店區建國路13號","121.539903333333","24.9735133333333","6500600","新店區"
"231037","AKT-0513","2017/11/03 15:09:14","新北市新店區安民街365巷7弄3號","121.516178333333","24.9752716666667","6500600","新店區"
"235030","003-UY","2017/11/03 15:09:17","新北市中和區保平路326巷1號","121.507108333333","25.0042983333333","6500300","中和區"
"235003","097-UM","2017/11/03 15:09:07","新北市中和區安樂路217巷56號","121.51307","24.9976533333333","6500300","中和區"
"235029","098-UM","2017/11/03 15:09:09","新北市中和區福美路314號","121.496671666667","25.0049566666667","6500300","中和區"
"235004","150-BY","2017/11/03 15:09:07","新北市中和區安平路38號","121.509916666667","24.995095","6500300","中和區"
"235031","255-BX","2017/11/03 15:09:24","新北市板橋區民生路三段64號","121.466798333333","25.025455","6500300","中和區"
"235036","301-VK","2017/11/03 15:09:16","新北市中和區員山路36巷16-3號","121.48451","24.9911566666667","6500300","中和區"
"235007","352-BY","2017/11/03 15:09:09","新北市中和區興南路二段159巷12號","121.50511","24.9830766666667","6500300","中和區"
"235032","377-QA","2017/11/03 15:09:17","新北市中和區板南路413號","121.492711666667","25.0002566666667","6500300","中和區"
"235035","269-TV","2017/11/03 15:09:12","新北市中和區建康路21-1號","121.486201666667","25.00059","6500300","中和區"
"235014","4979-A6","2017/11/03 15:09:15","新北市中和區明仁街20號","121.506496666667","24.995305","6500300","中和區"
"235033","4980-A6","2017/11/03 15:09:05","新北市中和區中正路548號","121.487158333333","24.9945","6500300","中和區"
"235034","558-UM","2017/11/03 15:09:16","新北市中和區圓通路105號","121.499525","24.9966366666667","6500300","中和區"
"235018","640-BX","2017/11/03 15:09:13","新北市中和區民享街41號","121.47405","25.0030333333333","6500300","中和區"
"235026","800-TS","2017/11/03 15:09:09","新北市中和區中正路633號","121.485235","24.9951616666667","6500300","中和區"
"235012","896-TW","2017/11/03 15:09:01","新北市中和區興南路二段49號","121.50732","24.9853366666667","6500300","中和區"
"235001","157-BY","2017/11/03 15:09:22","新北市中和區捷運路12-1號","121.50913","24.9899583333333","6500300","中和區"
"235001","AAC-213","2017/11/03 15:09:03","新北市中和區自立路159號","121.52282","24.9926916666667","6500300","中和區"
"235023","AAC-215","2017/11/03 15:09:22","新北市中和區圓通路367巷13弄29-10號","121.49341","24.9882966666667","6500300","中和區"
"220013","072-UY","2017/11/03 15:03:50","新北市板橋區觀光街12巷1弄2號","121.47197","25.016825","6500100","板橋區"
"220017","AAD-861","2017/11/03 15:09:12","新北市板橋區大明街25巷2弄23號","121.457515","25.0025383333333","6500100","板橋區"
"247001","337-TH","2017/11/03 15:09:20","新北市五股區中興路三段2巷10號","121.449313333333","25.0810033333333","6501400","蘆洲區"
"223003","205-TH","2017/11/03 09:51:14","新北市石碇區小粗坑(潭邊里)9-2號","121.678881666667","24.9863","6501900","石碇區"
"208004","AAC-292","2017/11/03 15:09:12","新北市金山區月眉23號","121.628106666667","25.2139866666667","6502700","金山區"
"207002","749-BX","2017/11/03 15:08:37","新北市萬里區崁腳里內中福路97號","121.653748333333","25.1639033333333","6502800","萬里區"
"207001","662-BX","2017/11/03 15:09:13","新北市萬里區大鵬里萬里加投10號","121.650583333333","25.2071566666667","6502800","萬里區"
"236067","105-UM","2017/11/03 15:09:18","新北市土城區學成路90號","121.450495","24.988815","6501300","土城區"
"236041","107-UM","2017/11/03 15:09:22","新北市土城區裕民路267號","121.455265","24.9824516666667","6501300","土城區"
"236001","138-TH","2017/11/03 14:15:24","新北市土城區永平街51號","121.427995","24.95918","6501300","土城區"
"236077","166-UM","2017/11/03 15:09:20","新北市土城區中州路32號","121.413321666667","24.9580016666667","6501300","土城區"
"236029","253-BX","2017/11/03 15:09:22","新北市土城區福祥街103巷2號","121.441725","24.981905","6501300","土城區"
"236025","269-VK","2017/11/03 15:09:10","新北市土城區中央路二段177巷17號","121.443578333333","24.97621","6501300","土城區"
"236013","270-VK","2017/11/03 15:09:16","新北市土城區學府路一段23巷23號","121.457805","24.9870016666667","6501300","土城區"
"236035","271-VK","2017/11/03 15:09:17","新北市土城區青雲路295巷16弄57號","121.460355","24.9791466666667","6501300","土城區"
"236019","401-BY","2017/11/03 15:09:03","新北市土城區峰廷街3號","121.469103333333","24.98736","6501300","土城區"
"236046","752-BX","2017/11/03 15:09:18","新北市土城區清水路156號","121.459425","24.9814566666667","6501300","土城區"
"236057","912-UM","2017/11/03 15:09:24","新北市土城區金城路二段240號","121.456695","24.9831783333333","6501300","土城區"
"236061","915-UM","2017/11/03 15:09:21","新北市土城區延平街19號","121.468228333333","24.9912266666667","6501300","土城區"
"236054","AAC-216","2017/11/03 15:09:14","新北市土城區學府路一段276號","121.45","24.9829966666667","6501300","土城區"
"242001","233-RS","2017/11/03 08:28:36","新北市新莊區環河路48-7號","121.436891666667","25.0097866666667","6500500","新莊區"
"221012","276-VK","2017/11/03 13:13:45","新北市汐止區汐萬路一段256巷3號","121.65345","25.074585","6501100","汐止區"
"220050","245-BX","2017/11/03 15:09:16","新北市板橋區莒光路165巷30號","121.474303333333","25.0246866666667","6500100","板橋區"
"220019","283-VK","2017/11/03 15:09:17","新北市板橋區華東街1-10號","121.4487","24.99475","6500100","板橋區"
"220001","285-VK","2017/11/03 15:09:16","新北市板橋區中山路二段214號","121.477975","25.0177933333333","6500100","板橋區"
"220031","286-VK","2017/11/03 15:09:11","新北市板橋區僑中二街90巷4-1號","121.446163333333","25.0092066666667","6500100","板橋區"
"220029","287-VK","2017/11/03 15:09:09","新北市板橋區大觀路一段1-1號","121.45091","25.0084616666667","6500100","板橋區"
"220009","295-UM","2017/11/03 15:09:08","新北市板橋區四川路一段284號","121.458616666667","25.00084","6500100","板橋區"
"220010","303-R5","2017/11/03 15:09:14","新北市板橋區民生路二段120號","121.470421666667","25.0196633333333","6500100","板橋區"
"220041","307-R5","2017/11/03 15:09:12","新北市板橋區文化路一段101巷7號","121.460571666667","25.014335","6500100","板橋區"
"220038","487-VK","2017/11/03 15:09:16","新北市板橋區新海路403巷10號","121.458115","25.0265833333333","6500100","板橋區"
"220037","491-VK","2017/11/03 15:09:11","新北市板橋區大同街58號","121.479046666667","25.0277766666667","6500100","板橋區"
"220052","561-BX","2017/11/03 15:09:09","新北市板橋區陽明街279巷2-1號","121.461833333333","25.0260916666667","6500100","板橋區"
"220011","609-BX","2017/11/03 15:09:17","新北市板橋區縣民大道三段310號","121.478651666667","25.0236033333333","6500100","板橋區"
"220025","687-BX","2017/11/03 15:09:18","新北市板橋區板城路319號","121.45179","25.0012233333333","6500100","板橋區"
"220042","689-BX","2017/11/03 15:09:07","新北市板橋區長江路二段188號","121.467085","25.0320533333333","6500100","板橋區"
"220003","827-TW","2017/11/03 15:09:08","新北市板橋區四川路一段367號","121.458411666667","24.999605","6500100","板橋區"
"220014","829-TW","2017/11/03 15:09:14","新北市板橋區中山路二段492號","121.485366666667","25.0220733333333","6500100","板橋區"
"220051","830-TW","2017/11/03 15:09:13","新北市板橋區文化路一段288號","121.467341666667","25.0216216666667","6500100","板橋區"
"220046","AAC-210","2017/11/03 15:09:08","新北市板橋區光正街45巷6弄11號","121.461216666667","25.017025","6500100","板橋區"
"220018","AAC-253","2017/11/03 15:09:07","新北市板橋區四川路二段245巷75-121號","121.452556666667","24.9926983333333","6500100","板橋區"
