"lineid","car","time","location","longitude","latitude","cityid","cityname"
"244004","657-BX","2017/11/03 15:19:08","新北市林口區粉寮路一段66號","121.39702","25.0787383333333","6501700","林口區"
"231002","002-UM","2017/11/03 15:19:15","新北市新店區中正路707號","121.53377","24.9910633333333","6500600","新店區"
"231028","046-UY","2017/11/03 15:19:19","新北市新店區僑信路74巷44號","121.498665","24.9479133333333","6500600","新店區"
"231030","047-UY","2017/11/03 15:19:04","新北市新店區安民街341-1號","121.516881666667","24.9748916666667","6500600","新店區"
"231029","106-UY","2017/11/03 15:19:22","新北市新店區安康路三段738號","121.473833333333","24.9420466666667","6500600","新店區"
"231012","108-UY","2017/11/03 15:19:21","新北市新店區復興路27號","121.539131666667","24.9866966666667","6500600","新店區"
"231022","187-VK","2017/11/03 15:19:16","新北市新店區永福路102號","121.562593333333","24.9295016666667","6500600","新店區"
"231016","KEA-2219","2017/11/03 15:19:13","新北市新店區明山路45號","121.56381","24.9559033333333","6500600","新店區"
"231026","256-BX","2017/11/03 15:19:06","新北市新店區中正路263-4號","121.538351666667","24.9739166666667","6500600","新店區"
"231023","AAD-862","2017/11/03 15:19:09","新北市新店區北新路一段64巷39弄14號","121.542628333333","24.9657766666667","6500600","新店區"
"231024","3713-VJ","2017/11/03 15:19:12","新北市新店區北新路一段169號","121.539935","24.963865","6500600","新店區"
"231025","4716-K9","2017/11/03 15:19:03","新北市新店區二十張路60巷8號","121.53579","24.9813383333333","6500600","新店區"
"231036","512-UM","2017/11/03 15:19:08","新北市新店區安祥路69巷17號","121.48193","24.961365","6500600","新店區"
"231035","515-UM","2017/11/03 15:19:02","新北市新店區安興路131巷2號","121.515571666667","24.9793483333333","6500600","新店區"
"231001","619-UM","2017/11/03 15:19:13","新北市新店區北新路一段199號","121.540395","24.9648516666667","6500600","新店區"
"231003","641-BX","2017/11/03 15:19:07","新北市新店區寶高路120巷1-1號","121.554683333333","24.975975","6500600","新店區"
"231034","645-TV","2017/11/03 15:19:15","新北市新店區玫瑰路34號","121.495626666667","24.9499983333333","6500600","新店區"
"231039","718-UY","2017/11/03 15:19:21","新北市新店區寶元路一段65號","121.542198333333","24.985845","6500600","新店區"
"231018","719-UY","2017/11/03 15:19:07","新北市新店區中央七街74號","121.527376666667","24.9766133333333","6500600","新店區"
"231032","720-UM","2017/11/03 15:19:10","新北市新店區和成街19巷40號","121.488141666667","24.94598","6500600","新店區"
"231005","897-TW","2017/11/03 15:19:22","新北市新店區民族路45-1號","121.540378333333","24.978675","6500600","新店區"
"231004","899-TW","2017/11/03 15:19:03","新北市新店區建國路31號","121.540258333333","24.97416","6500600","新店區"
"231037","AKT-0513","2017/11/03 15:19:14","新北市新店區安興路91巷47號","121.511965","24.9745683333333","6500600","新店區"
"241015","059-VK","2017/11/03 15:19:22","新北市三重區重新路四段121號","121.48533","25.0521516666667","6500200","三重區"
"235030","003-UY","2017/11/03 15:19:17","新北市中和區水源路102號","121.506141666667","25.0033116666667","6500300","中和區"
"235031","255-BX","2017/11/03 15:19:04","新北市五股區天乙路101-6號","121.445286666667","25.1070466666667","6500300","中和區"
"235035","269-TV","2017/11/03 15:19:12","新北市中和區中正路988巷18號","121.482011666667","25.010045","6500300","中和區"
"235014","4979-A6","2017/11/03 15:19:15","新北市中和區中正路56-1號","121.501565","24.993815","6500300","中和區"
"235033","4980-A6","2017/11/03 15:19:05","新北市中和區員山路359巷1弄8號","121.480993333333","25.001625","6500300","中和區"
"235034","558-UM","2017/11/03 15:19:16","新北市中和區中正路281號","121.494755","24.993885","6500300","中和區"
"235026","800-TS","2017/11/03 15:19:09","新北市新店區安豐路22巷20號","121.503218333333","24.95448","6500300","中和區"
"235012","896-TW","2017/11/03 15:19:21","新北市中和區興南路一段1號","121.511553333333","24.9912383333333","6500300","中和區"
"235023","AAC-215","2017/11/03 15:19:22","新北市中和區圓通路435巷2-8號","121.487186666667","24.9867916666667","6500300","中和區"
"220013","072-UY","2017/11/03 15:03:50","新北市板橋區觀光街12巷1弄2號","121.47197","25.016825","6500100","板橋區"
"220017","AAD-861","2017/11/03 15:19:12","新北市板橋區南雅南路二段11-14號","121.454883333333","25.00183","6500100","板橋區"
"247001","337-TH","2017/11/03 15:19:20","新北市五股區中興路三段2巷10號","121.449326666667","25.08102","6501400","蘆洲區"
"223003","205-TH","2017/11/03 09:51:14","新北市石碇區小粗坑(潭邊里)9-2號","121.678881666667","24.9863","6501900","石碇區"
"207002","749-BX","2017/11/03 15:19:17","新北市萬里區崁腳里內中福路9-1號","121.665148333333","25.1639733333333","6502800","萬里區"
"207001","662-BX","2017/11/03 15:19:13","新北市萬里區大鵬里萬里加投9號","121.6521","25.2080266666667","6502800","萬里區"
"236067","105-UM","2017/11/03 15:19:18","新北市土城區裕民路185巷36弄10號","121.45433","24.9845933333333","6501300","土城區"
"236041","107-UM","2017/11/03 15:19:11","新北市土城區學府路一段143巷4號","121.45381","24.985885","6501300","土城區"
"236001","138-TH","2017/11/03 14:15:24","新北市土城區永平街51號","121.427995","24.95918","6501300","土城區"
"236077","166-UM","2017/11/03 15:19:20","新北市土城區中央路四段321巷34弄5號","121.412758333333","24.950885","6501300","土城區"
"236029","253-BX","2017/11/03 15:19:02","新北市土城區中央路一段262巷26號","121.442903333333","24.9842416666667","6501300","土城區"
"236025","269-VK","2017/11/03 15:19:14","新北市土城區學府路二段216號","121.444918333333","24.97815","6501300","土城區"
"236013","270-VK","2017/11/03 15:19:17","新北市土城區廣福街32-1號","121.456993333333","24.99005","6501300","土城區"
"236035","271-VK","2017/11/03 15:19:17","新北市土城區國際路139巷19號","121.468403333333","24.9769333333333","6501300","土城區"
"236019","401-BY","2017/11/03 15:19:23","新北市土城區峰廷街3號","121.4691","24.98737","6501300","土城區"
"236046","752-BX","2017/11/03 15:19:19","新北市土城區明德路一段26號","121.465123333333","24.9848066666667","6501300","土城區"
"236057","912-UM","2017/11/03 15:19:04","新北市土城區金城路一段39號","121.440226666667","24.9693416666667","6501300","土城區"
"236061","915-UM","2017/11/03 15:19:15","新北市土城區延和路103號","121.467645","24.9902616666667","6501300","土城區"
"236054","AAC-216","2017/11/03 15:19:14","新北市土城區學府路一段148號","121.454641666667","24.9869933333333","6501300","土城區"
"242001","233-RS","2017/11/03 08:28:36","新北市新莊區環河路48-7號","121.436891666667","25.0097866666667","6500500","新莊區"
"221012","276-VK","2017/11/03 13:13:45","新北市汐止區汐萬路一段256巷3號","121.65345","25.074585","6501100","汐止區"
"220050","245-BX","2017/11/03 15:19:16","新北市板橋區莊敬路166號","121.471703333333","25.0227783333333","6500100","板橋區"
"220031","286-VK","2017/11/03 15:19:17","新北市板橋區僑中二街106巷23號","121.444878333333","25.0077366666667","6500100","板橋區"
"220038","487-VK","2017/11/03 15:19:16","新北市板橋區四維路253號","121.463513333333","25.0278916666667","6500100","板橋區"
"220042","689-BX","2017/11/03 15:19:07","新北市板橋區新海路448號","121.457861666667","25.0279266666667","6500100","板橋區"
"220051","830-TW","2017/11/03 15:19:13","新北市板橋區民生路二段188號","121.470246666667","25.0202366666667","6500100","板橋區"
"220018","AAC-253","2017/11/03 15:19:22","新北市板橋區華東街1-10號","121.448621666667","24.9948366666667","6500100","板橋區"
