"lineid","car","time","location","longitude","latitude","cityid","cityname"
"234013","149-BY","2017/11/03 17:56:23","新北市永和區福和路1號","121.526441666667","25.0100266666667","6500400","永和區"
"234026","9371-KE","2017/11/03 17:58:47","新北市永和區永和路一段45-1號","121.512806666667","25.0063183333333","6500400","永和區"
"249005","172-UM","2017/11/03 17:58:46","新北市八里區荖阡坑路20-5號","121.397076666667","25.136665","6502300","八里區"
"249001","173-UM","2017/11/03 17:58:48","新北市八里區龍米路二段35號","121.448365","25.1400066666667","6502300","八里區"
"249004","303-UY","2017/11/03 17:58:19","新北市八里區中山路一段29-1號","121.421568333333","25.1589066666667","6502300","八里區"
"249002","305-UY","2017/11/03 17:58:25","新北市八里區龍米路一段438號","121.450846666667","25.1339766666667","6502300","八里區"
"249003","593-UM","2017/11/03 17:58:55","新北市八里區中山路二段306號","121.40459","25.150175","6502300","八里區"
"248006","077-UY","2017/11/03 17:58:36","新北市五股區中興路二段83巷26-6號","121.460116666667","25.0752566666667","6501500","五股區"
"248008","095-VK","2017/11/03 17:58:37","新北市五股區更洲路6號","121.458605","25.0785983333333","6501500","五股區"
"248018","225-UY","2017/11/03 17:57:59","新北市五股區中興路二段83巷26-6號","121.459935","25.07523","6501500","五股區"
"248002","678-BX","2017/11/03 17:58:16","新北市五股區中興路二段37巷28號","121.460186666667","25.0751","6501500","五股區"
"232011","375-UM","2017/11/03 17:58:56","新北市坪林區北宜路八段211號","121.708503333333","24.9348416666667","6502000","坪林區"
"244013","069-UM","2017/11/03 17:58:51","新北市林口區中山路164號","121.390351666667","25.0788316666667","6501700","林口區"
"244007","080-UY","2017/11/03 17:57:52","新北市林口區竹林路161號","121.388758333333","25.0800066666667","6501700","林口區"
"244019","403-UM","2017/11/03 17:57:48","新北市林口區忠孝路539號","121.372091666667","25.0688466666667","6501700","林口區"
"244025","742-UY","2017/11/03 17:57:19","新北市林口區文化三路一段39巷96號","121.359356666667","25.066635","6501700","林口區"
"244009","410-SL","2017/11/03 17:58:33","新北市林口區林口路225號","121.386715","25.0831316666667","6501700","林口區"
"244023","483-VK","2017/11/03 17:58:12","新北市林口區東湖路41巷13號","121.386341666667","25.0731716666667","6501700","林口區"
"244017","485-VK","2017/11/03 17:58:39","新北市林口區文化二路一段230巷17號","121.37091","25.0722683333333","6501700","林口區"
"244011","701-TV","2017/11/03 17:57:10","新北市林口區中興街16號","121.388766666667","25.0772666666667","6501700","林口區"
"244021","838-TS","2017/11/03 17:58:27","新北市林口區新寮43號","121.40389","25.0653716666667","6501700","林口區"
"222003","436-BY","2017/11/03 17:55:26","新北市深坑區腳坑10號","121.607785","24.9920766666667","6501800","深坑區"
"222002","659-BX","2017/11/03 17:58:32","新北市深坑區文化街106號","121.616613333333","25.0018933333333","6501800","深坑區"
"231046","278-BY","2017/11/03 17:52:56","新北市新店區下石厝路17號","121.53285","24.927555","6500600","新店區"
"241024","065-VK","2017/11/03 17:58:04","新北市三重區大勇街49號","121.481333333333","25.0719966666667","6500200","三重區"
"241016","266-UM","2017/11/03 17:58:05","新北市三重區新北大道一段146號","121.484441666667","25.0617383333333","6500200","三重區"
"241033","AAC-255","2017/11/03 17:58:34","新北市三重區重新路五段640-1號","121.4683","25.0445333333333","6500200","三重區"
"235058","151-BY","2017/11/03 17:58:25","新北市中和區中正路589巷15號","121.485836666667","24.9935916666667","6500300","中和區"
"235038","185-VK","2017/11/03 17:58:47","新北市中和區中正路571巷1弄4號","121.486855","24.993605","6500300","中和區"
"235067","255-BX","2017/11/03 17:58:45","新北市中和區和城路一段271巷1號","121.485463333333","24.9920233333333","6500300","中和區"
"235061","378-QA","2017/11/03 14:49:57","新北市中和區員山路36巷13號","121.484161666667","24.9913633333333","6500300","中和區"
"235042","551-UM","2017/11/03 17:57:31","新北市中和區和城路一段271巷1號","121.485561666667","24.9917083333333","6500300","中和區"
"235062","800-TS","2017/11/03 17:58:38","新北市中和區建一路179號","121.488411666667","24.9986616666667","6500300","中和區"
"235037","AAC-213","2017/11/03 17:58:37","新北市中和區中正路589巷15號","121.485773333333","24.9935866666667","6500300","中和區"
"247022","893-R6","2017/11/03 17:58:48","新北市蘆洲區中正路516巷12號","121.462336666667","25.0980683333333","6501400","蘆洲區"
"247012","546-UM","2017/11/03 17:58:44","新北市蘆洲區民族路167巷16號","121.478263333333","25.0884216666667","6501400","蘆洲區"
"247010","339-TH","2017/11/03 17:57:52","新北市蘆洲區中山一路262號","121.472003333333","25.0797133333333","6501400","蘆洲區"
"247002","337-TH","2017/11/03 17:58:35","新北市蘆洲區永平街32巷57弄26號","121.458885","25.0934083333333","6501400","蘆洲區"
"247016","057-VK","2017/11/03 17:58:44","新北市蘆洲區中正路185巷80弄4號","121.465901666667","25.0842616666667","6501400","蘆洲區"
"247006","056-VK","2017/11/03 17:56:33","新北市蘆洲區長榮路38-8號","121.463008333333","25.0829216666667","6501400","蘆洲區"
"247008","053-VK","2017/11/03 17:57:44","新北市五股區中興路二段182巷50號","121.453756666667","25.0810783333333","6501400","蘆洲區"
"247014","007-UY","2017/11/03 17:58:40","新北市蘆洲區忠孝路78號","121.471546666667","25.0856333333333","6501400","蘆洲區"
"247024","002-UY","2017/11/03 17:58:47","新北市蘆洲區光復路30巷20號","121.46382","25.0841333333333","6501400","蘆洲區"
"247018","001-UY","2017/11/03 17:58:29","新北市蘆洲區復興路279號","121.481415","25.0901783333333","6501400","蘆洲區"
"223003","205-TH","2017/11/03 09:51:14","新北市石碇區小粗坑(潭邊里)9-2號","121.678881666667","24.9863","6501900","石碇區"
"228003","097-TW","2017/11/03 17:58:05","新北市貢寮區真理里美艷山街6-2號","121.92893","25.0607783333333","6502600","貢寮區"
"228002","663-BX","2017/11/03 17:58:46","新北市貢寮區福連里香蘭街2-1號","121.96792","25.023395","6502600","貢寮區"
"228001","670-TC","2017/11/03 17:58:42","新北市貢寮區仁理村仁愛路106巷36號","121.928733333333","25.053545","6502600","貢寮區"
"224006","676-BX","2017/11/03 17:49:11","新北市瑞芳區傑魚坑路169號","121.789638333333","25.1095116666667","6501200","瑞芳區"
"224002","639-TC","2017/11/03 17:57:48","新北市瑞芳區三爪子坑路127號","121.810266666667","25.1069666666667","6501200","瑞芳區"
"224009","285-BY","2017/11/03 17:54:30","新北市瑞芳區山尖路100號","121.85355","25.1139883333333","6501200","瑞芳區"
"224008","275-VK","2017/11/03 17:52:14","新北市瑞芳區明燈路一段45巷1號","121.821538333333","25.1062633333333","6501200","瑞芳區"
"224005","271-BY","2017/11/03 17:52:06","新北市瑞芳區弘祥新村1號","121.817148333333","25.1288583333333","6501200","瑞芳區"
"227003","400-TW","2017/11/03 17:41:22","新北市雙溪區共和里東榮街31號","121.866251666667","25.0335883333333","6502500","雙溪區"
"253006","295-VK","2017/11/03 17:58:49","新北市石門區大丘田45-2號","121.54982","25.274895","6502200","石門區"
"222001","KEA-2212","2017/11/03 17:58:34","新北市深坑區北深路三段25巷15-1號","121.608843333333","25.0001416666667","6501800","深坑區"
"208002","742-BX","2017/11/03 17:57:26","新北市金山區清泉里清水路4號","121.630171666667","25.2276066666667","6502700","金山區"
"208003","665-BX","2017/11/03 17:58:05","新北市金山區磺港里磺港路305號","121.643818333333","25.2270183333333","6502700","金山區"
"208001","761-BX","2017/11/03 17:58:27","新北市金山區磺港里社寮17號","121.638715","25.2274633333333","6502700","金山區"
"251004","009-UM","2017/11/03 17:58:11","新北市淡水區民權路84號","121.459073333333","25.1335566666667","6501000","淡水區"
"251013","180-VK","2017/11/03 17:58:53","新北市淡水區泉洲厝31號","121.479585","25.191085","6501000","淡水區"
"251008","181-VK","2017/11/03 17:58:03","新北市淡水區八勢一街38號","121.461683333333","25.1552116666667","6501000","淡水區"
"251010","413-VK","2017/11/03 17:57:11","新北市淡水區中正路一段87巷1號","121.421646666667","25.1791033333333","6501000","淡水區"
"251012","441-VK","2017/11/03 17:58:55","新北市淡水區北新路三段37號","121.483835","25.186885","6501000","淡水區"
"251005","443-VK","2017/11/03 17:57:30","新北市淡水區學府路96號","121.449308333333","25.17116","6501000","淡水區"
"251001","559-UM","2017/11/03 17:58:58","新北市淡水區民權路94巷1號","121.463146666667","25.1248933333333","6501000","淡水區"
"251006","561-UM","2017/11/03 17:58:45","新北市淡水區新生街20-5號","121.438946666667","25.1739016666667","6501000","淡水區"
"251009","575-R6","2017/11/03 17:58:56","新北市淡水區中山路189號","121.441321666667","25.1743866666667","6501000","淡水區"
"251011","650-BX","2017/11/03 17:48:33","新北市淡水區吳(仔)厝36號","121.479521666667","25.1494916666667","6501000","淡水區"
"251002","672-BX","2017/11/03 17:58:37","新北市淡水區鼻頭街18-1號","121.44678","25.16664","6501000","淡水區"
"251003","673-BX","2017/11/03 17:58:26","新北市淡水區大忠街113巷14號","121.447103333333","25.1775783333333","6501000","淡水區"
"207003","550-UM","2017/11/03 17:58:43","新北市萬里區港東路野柳風景區攤販66號","121.69134","25.2058933333333","6502800","萬里區"
"207004","225-TW","2017/11/03 17:48:21","新北市萬里區萬里里瑪鋉路117號","121.688768333333","25.17757","6502800","萬里區"
"252002","178-VK","2017/11/03 17:56:56","新北市三芝區中山路二段31號","121.502746666667","25.2552633333333","6502100","三芝區"
"252001","292-VK","2017/11/03 17:58:51","新北市三芝區中興街一段32號","121.497846666667","25.2575183333333","6502100","三芝區"
"237004","078-UY","2017/11/03 17:58:46","新北市三峽區中正路二段269號","121.365926666667","24.911635","6500900","三峽區"
"237007","153-BY","2017/11/03 17:58:47","新北市三峽區中園街156-7號","121.366773333333","24.919425","6500900","三峽區"
"237009","210-TH","2017/11/03 17:57:22","新北市三峽區中山路106巷18號","121.366093333333","24.9365566666667","6500900","三峽區"
"237012","275-BY","2017/11/03 17:55:55","新北市三峽區民生街27巷2號","121.375995","24.9361933333333","6500900","三峽區"
"237008","302-VK","2017/11/03 17:58:26","新北市三峽區白雞28-1號","121.370208333333","24.9122683333333","6500900","三峽區"
"237014","433-BY","2017/11/03 17:56:46","新北市三峽區復興路101巷1弄26號","121.37119","24.9376233333333","6500900","三峽區"
"237011","572-TV","2017/11/03 17:58:38","新北市三峽區永安街1號","121.378075","24.9298116666667","6500900","三峽區"
"237015","649-BX","2017/11/03 17:57:38","新北市三峽區紫微路87號","121.404048333333","24.90823","6500900","三峽區"
"237005","AKY-6261","2017/11/03 17:58:56","新北市三峽區復興路239-2號","121.368168333333","24.93848","6500900","三峽區"
"236072","105-UM","2017/11/03 17:58:47","新北市土城區城林路6巷80號","121.43842","24.9797583333333","6501300","土城區"
"236043","107-UM","2017/11/03 17:58:19","新北市土城區中央路一段287號","121.444416666667","24.98443","6501300","土城區"
"236001","138-TH","2017/11/03 14:15:24","新北市土城區永平街51號","121.427995","24.95918","6501300","土城區"
"236079","166-UM","2017/11/03 17:58:51","新北市土城區永寧路32巷10弄23號","121.428883333333","24.9610316666667","6501300","土城區"
"236031","253-BX","2017/11/03 17:57:22","新北市土城區城林路6巷80號","121.438496666667","24.9798316666667","6501300","土城區"
"236027","269-VK","2017/11/03 17:58:32","新北市土城區中華路二段48號","121.43918","24.9778933333333","6501300","土城區"
"236015","270-VK","2017/11/03 17:58:50","新北市土城區城林路6巷80號","121.43843","24.9795983333333","6501300","土城區"
"236039","271-VK","2017/11/03 17:58:10","新北市土城區城林路6巷80號","121.438555","24.9796466666667","6501300","土城區"
"236022","401-BY","2017/11/03 17:58:27","新北市土城區城林路6巷80號","121.438708333333","24.979825","6501300","土城區"
"236050","752-BX","2017/11/03 17:58:22","新北市土城區中華路二段111號","121.439048333333","24.97705","6501300","土城區"
"236059","912-UM","2017/11/03 17:58:56","新北市土城區中央路三段92-1號","121.43596","24.9667483333333","6501300","土城區"
"236063","915-UM","2017/11/03 17:58:01","新北市土城區城林路6巷80號","121.438473333333","24.9797933333333","6501300","土城區"
"236055","AAC-216","2017/11/03 17:58:40","新北市土城區城林路6巷80號","121.43834","24.97983","6501300","土城區"
"242032","AAC-296","2017/11/03 17:51:17","新北市新莊區新泰路357巷1弄2號","121.442651666667","25.0413433333333","6500500","新莊區"
"242050","751-BX","2017/11/03 17:56:03","新北市新莊區西盛街230號","121.42794","25.0164333333333","6500500","新莊區"
"242029","705-TV","2017/11/03 17:56:05","新北市新莊區中平路39號","121.444733333333","25.04403","6500500","新莊區"
"242025","615-BX","2017/11/03 17:58:18","新北市新莊區五工路42號","121.459205","25.0625583333333","6500500","新莊區"
"242023","613-BX","2017/11/03 17:58:35","新北市新莊區福壽街70號","121.458258333333","25.0492683333333","6500500","新莊區"
"242027","612-BX","2017/11/03 17:56:36","新北市新莊區思源路455號","121.459711666667","25.053495","6500500","新莊區"
"242039","566-BX","2017/11/03 17:58:10","新北市新莊區民安路201號","121.426228333333","25.0224616666667","6500500","新莊區"
"242044","497-BY","2017/11/03 17:52:05","新北市新莊區天祥街2號","121.417226666667","25.0268733333333","6500500","新莊區"
"242048","442-UM","2017/11/03 17:54:00","新北市新莊區萬安街80號","121.420858333333","25.02299","6500500","新莊區"
"242054","440-UM","2017/11/03 17:54:33","新北市新莊區民安西路403巷1號","121.4296","25.009975","6500500","新莊區"
"242034","415-TV","2017/11/03 17:45:43","新北市新莊區新莊路660號","121.442458333333","25.0327816666667","6500500","新莊區"
"242005","413-TV","2017/11/03 17:54:14","新北市新莊區福樂街56巷13號","121.45857","25.0462016666667","6500500","新莊區"
"242041","400-BY","2017/11/03 17:51:58","新北市泰山區壽山路10號","121.421366666667","25.0291583333333","6500500","新莊區"
"242060","362-BY","2017/11/03 17:51:35","新北市新莊區新樹路605號","121.433258333333","25.0055166666667","6500500","新莊區"
"242058","353-BY","2017/11/03 17:44:34","新北市新莊區壽山路700-17號","121.418216666667","25.0274366666667","6500500","新莊區"
"242007","132-UY","2017/11/03 17:57:57","新北市新莊區自信街37號","121.454156666667","25.0484066666667","6500500","新莊區"
"242037","133-UY","2017/11/03 17:55:07","新北市新莊區建福路59巷1號","121.426968333333","25.0273633333333","6500500","新莊區"
"242021","135-UY","2017/11/03 17:49:06","新北市新莊區永寧街33巷1號","121.4528","25.0389883333333","6500500","新莊區"
"242046","172-VK","2017/11/03 17:44:54","新北市新莊區中正路589號","121.434165","25.032355","6500500","新莊區"
"242009","173-VK","2017/11/03 17:54:56","新北市新莊區中華路二段276號","121.453063333333","25.0536316666667","6500500","新莊區"
"242015","175-VK","2017/11/03 17:55:01","新北市新莊區新泰路502巷41弄12號","121.443721666667","25.0467083333333","6500500","新莊區"
"242002","176-VK","2017/11/03 17:49:17","新北市新莊區景德路93號","121.45191","25.0348016666667","6500500","新莊區"
"242001","233-RS","2017/11/03 08:28:36","新北市新莊區環河路48-7號","121.436891666667","25.0097866666667","6500500","新莊區"
"242013","346-TH","2017/11/03 17:55:04","新北市新莊區中和街85號","121.447418333333","25.0478016666667","6500500","新莊區"
"242017","347-TH","2017/11/03 17:50:22","新北市新莊區中港路325號","121.452461666667","25.0450083333333","6500500","新莊區"
"242056","349-TH","2017/11/03 17:51:44","新北市新莊區瓊林路40巷18號","121.447293333333","25.0303283333333","6500500","新莊區"
"242011","351-TH","2017/11/03 17:47:36","新北市新莊區中港路684號","121.45076","25.0566466666667","6500500","新莊區"
"238015","755-BX","2017/11/03 17:54:59","新北市樹林區復興路114-1號","121.42103","24.9924466666667","6500700","樹林區"
"238023","601-UM","2017/11/03 17:49:13","新北市樹林區福興街3號","121.404286666667","25.0169266666667","6500700","樹林區"
"238019","599-UM","2017/11/03 17:56:22","新北市樹林區八德街225號","121.421665","24.9795633333333","6500700","樹林區"
"238018","571-TV","2017/11/03 17:58:03","新北市樹林區博愛街194號","121.425006666667","24.98966","6500700","樹林區"
"238024","5061-A6","2017/11/03 17:56:16","新北市樹林區中山路三段160-1號","121.389378333333","24.9703016666667","6500700","樹林區"
"238021","KEA-2217","2017/11/03 17:57:20","新北市樹林區柑園街一段77號","121.401718333333","24.960195","6500700","樹林區"
"238022","KEA-2213","2017/11/03 17:57:03","新北市樹林區太順街62巷3弄35號","121.41647","24.9790466666667","6500700","樹林區"
"238025","303-VK","2017/11/03 17:55:35","新北市樹林區三俊街103號","121.41686","25.0154633333333","6500700","樹林區"
"238017","283-BY","2017/11/03 17:57:29","新北市樹林區三俊街81巷2號","121.415731666667","25.0155566666667","6500700","樹林區"
"238014","282-BY","2017/11/03 17:55:45","新北市樹林區大安路145巷21號","121.422961666667","24.9964683333333","6500700","樹林區"
"238020","268-VK","2017/11/03 17:58:48","新北市樹林區三俊街199巷10-4號","121.420115","25.0162683333333","6500700","樹林區"
"238026","172-UY","2017/11/03 17:59:00","新北市樹林區中洲街28號","121.397011666667","24.9716683333333","6500700","樹林區"
"238016","169-UY","2017/11/03 17:55:48","新北市樹林區復興路320號","121.416485","24.986845","6500700","樹林區"
"239007","AAC-297","2017/11/03 17:58:39","新北市鶯歌區尖山埔路114號","121.344155","24.9502666666667","6500800","鶯歌區"
"239006","891-R6","2017/11/03 17:57:23","新北市鶯歌區鶯桃路455巷6弄5號","121.331618333333","24.96448","6500800","鶯歌區"
"239008","527-UM","2017/11/03 17:58:13","新北市鶯歌區朝陽街63巷1弄2號","121.338545","24.9783966666667","6500800","鶯歌區"
"239005","526-UM","2017/11/03 17:58:36","新北市鶯歌區鶯桃路668巷73號","121.329921666667","24.9718366666667","6500800","鶯歌區"
"239001","417-VK","2017/11/03 17:58:38","新北市鶯歌區尖山路376號","121.34204","24.9438416666667","6500800","鶯歌區"
"239003","360-BY","2017/11/03 17:56:49","新北市鶯歌區福安街1號","121.334263333333","24.9641233333333","6500800","鶯歌區"
"239002","359-BY","2017/11/03 17:58:50","新北市鶯歌區光明街98號","121.346151666667","24.9557216666667","6500800","鶯歌區"
"239004","193-VK","2017/11/03 17:58:08","新北市鶯歌區尖山路101巷9號","121.346705","24.9431166666667","6500800","鶯歌區"
"221008","489-VK","2017/11/03 17:56:15","新北市汐止區康寧街706-2號","121.638558333333","25.07332","6501100","汐止區"
"221036","130-UY","2017/11/03 17:58:20","新北市汐止區大同路三段29號","121.666206666667","25.0769866666667","6501100","汐止區"
"221015","131-UY","2017/11/03 17:58:51","新北市汐止區長江街347號","121.667265","25.0822233333333","6501100","汐止區"
"221010","269-BY","2017/11/03 17:52:41","新北市汐止區汐萬路二段119號","121.648328333333","25.0838966666667","6501100","汐止區"
"221012","276-VK","2017/11/03 13:13:45","新北市汐止區汐萬路一段256巷3號","121.65345","25.074585","6501100","汐止區"
"221012","278-VK","2017/11/03 17:58:06","新北市汐止區長興街二段2巷1號","121.672121666667","25.0807683333333","6501100","汐止區"
"221023","279-VK","2017/11/03 17:53:54","新北市汐止區民族二街38號","121.63466","25.0704766666667","6501100","汐止區"
"221032","280-BY","2017/11/03 17:58:40","新北市汐止區民權街一段16號","121.620985","25.052575","6501100","汐止區"
"221027","281-BY","2017/11/03 17:57:39","新北市汐止區大同路二段330號","121.656371666667","25.066895","6501100","汐止區"
"221029","298-VK","2017/11/03 17:56:48","新北市汐止區樟樹二路336號","121.641566666667","25.07043","6501100","汐止區"
"221021","299-VK","2017/11/03 17:57:29","新北市汐止區水源路一段72號","121.656885","25.06529","6501100","汐止區"
"221031","353-TW","2017/11/03 17:58:37","新北市汐止區中興路86-5號","121.634866666667","25.06245","6501100","汐止區"
"221002","358-BY","2017/11/03 17:58:51","新北市汐止區工建路162號","121.637791666667","25.0634233333333","6501100","汐止區"
"221035","622-UM","2017/11/03 17:58:23","新北市汐止區汐萬路一段115巷50號","121.653023333333","25.0701916666667","6501100","汐止區"
"221025","623-UM","2017/11/03 17:58:24","新北市汐止區仁愛路16號","121.659668333333","25.0631783333333","6501100","汐止區"
"221038","646-BX","2017/11/03 17:57:17","新北市汐止區大同路二段182號","121.652465","25.06425","6501100","汐止區"
"221033","647-BX","2017/11/03 17:58:43","新北市汐止區合順街3號","121.619563333333","25.04306","6501100","汐止區"
"221018","753-BX","2017/11/03 17:58:57","新北市汐止區招商街3號","121.666465","25.06904","6501100","汐止區"
"242019","280-VK","2017/11/03 17:57:43","新北市新莊區明中街16號","121.457538333333","25.0394016666667","6500500","新莊區"
