"lineid","car","time","location","longitude","latitude","cityid","cityname"
"234013","149-BY","2017/11/03 18:09:04","新北市永和區福和路1號","121.52647","25.0099516666667","6500400","永和區"
"234042","862-TW","2017/11/03 18:09:09","新北市永和區福和路1號","121.526556666667","25.0097083333333","6500400","永和區"
"234026","9371-KE","2017/11/03 18:09:07","新北市永和區秀朗路一段10巷21號","121.513311666667","25.0063066666667","6500400","永和區"
"249005","172-UM","2017/11/03 18:09:06","新北市八里區荖阡坑路15號","121.401505","25.1401466666667","6502300","八里區"
"249001","173-UM","2017/11/03 18:09:08","新北市八里區龍米路二段35號","121.448486666667","25.1400216666667","6502300","八里區"
"249004","303-UY","2017/11/03 18:08:59","新北市八里區龍米路二段140巷26號","121.43775","25.1552116666667","6502300","八里區"
"249002","305-UY","2017/11/03 18:09:05","新北市八里區龍米路一段356巷46號","121.452208333333","25.1303283333333","6502300","八里區"
"249003","593-UM","2017/11/03 18:08:55","新北市八里區中華路二段173-1號","121.407058333333","25.150865","6502300","八里區"
"248006","077-UY","2017/11/03 18:08:56","新北市五股區中興路二段94號","121.46041","25.0775133333333","6501500","五股區"
"248008","095-VK","2017/11/03 18:08:57","新北市五股區更洲路32巷15弄9號","121.458331666667","25.08048","6501500","五股區"
"248018","225-UY","2017/11/03 18:08:59","新北市五股區新五路二段258號","121.440956666667","25.082265","6501500","五股區"
"248014","261-SL","2017/11/03 18:09:13","新北市五股區成泰路一段222號","121.436466666667","25.0799616666667","6501500","五股區"
"248010","272-BY","2017/11/03 18:09:00","新北市五股區成泰路一段212號","121.436398333333","25.0792566666667","6501500","五股區"
"248004","677-BX","2017/11/03 18:08:59","新北市五股區中興路四段38巷11-2號","121.43919","25.0838183333333","6501500","五股區"
"248002","678-BX","2017/11/03 18:08:56","新北市五股區中興路三段163號","121.448318333333","25.0802333333333","6501500","五股區"
"232011","375-UM","2017/11/03 18:08:56","新北市坪林區坪雙路一段21號","121.712625","24.9416116666667","6502000","坪林區"
"244013","069-UM","2017/11/03 18:09:11","新北市林口區中山路48號","121.395298333333","25.0785616666667","6501700","林口區"
"244007","080-UY","2017/11/03 18:09:12","新北市林口區竹林路548號","121.387543333333","25.0846616666667","6501700","林口區"
"244019","403-UM","2017/11/03 18:09:08","新北市林口區麗園路121號","121.371571666667","25.0675733333333","6501700","林口區"
"244025","742-UY","2017/11/03 18:08:58","新北市林口區南勢二街132號","121.358601666667","25.072675","6501700","林口區"
"244009","410-SL","2017/11/03 18:08:53","新北市林口區竹林路586號","121.386226666667","25.0826316666667","6501700","林口區"
"244023","483-VK","2017/11/03 18:08:52","新北市林口區東湖路105巷15號","121.38398","25.0725966666667","6501700","林口區"
"244017","485-VK","2017/11/03 18:08:59","新北市林口區忠孝路468號","121.36998","25.0708733333333","6501700","林口區"
"244011","701-TV","2017/11/03 18:09:09","新北市林口區中正路48號","121.395316666667","25.0775016666667","6501700","林口區"
"244021","838-TS","2017/11/03 18:09:07","新北市林口區自強五街7號","121.398866666667","25.0765283333333","6501700","林口區"
"222003","436-BY","2017/11/03 18:09:06","新北市深坑區腳坑6號","121.610093333333","24.9946633333333","6501800","深坑區"
"222002","659-BX","2017/11/03 18:08:52","新北市深坑區文化街42號","121.619113333333","25.0017533333333","6501800","深坑區"
"231059","046-UY","2017/11/03 18:08:58","新北市新店區安華路28-1號","121.51972","24.9608866666667","6500600","新店區"
"231053","187-VK","2017/11/03 18:09:11","新北市新店區安華路28-1號","121.519665","24.9612233333333","6500600","新店區"
"231050","KEA-2219","2017/11/03 18:08:57","新北市新店區安華路28-1號","121.519686666667","24.96125","6500600","新店區"
"231046","278-BY","2017/11/03 18:08:56","新北市新店區直潭七街60號","121.532276666667","24.93999","6500600","新店區"
"231058","3712-VJ","2017/11/03 18:08:59","新北市新店區安華路28-1號","121.519323333333","24.960755","6500600","新店區"
"231065","512-UM","2017/11/03 18:08:54","新北市新店區安華路28-1號","121.519418333333","24.961455","6500600","新店區"
"231045","617-UM","2017/11/03 18:09:01","新北市新店區安華路28-1號","121.519526666667","24.9611566666667","6500600","新店區"
"231040","619-UM","2017/11/03 18:09:04","新北市新店區安華路28-1號","121.519546666667","24.96107","6500600","新店區"
"231063","645-TV","2017/11/03 18:08:50","新北市新店區安華路28-1號","121.519401666667","24.9608283333333","6500600","新店區"
"231049","719-UM","2017/11/03 18:08:56","新北市新店區安華路28-1號","121.519538333333","24.961345","6500600","新店區"
"231044","897-TW","2017/11/03 18:09:13","新北市新店區安華路28-1號","121.519563333333","24.9609283333333","6500600","新店區"
"241024","065-VK","2017/11/03 18:09:04","新北市三重區中正北路246號","121.48164","25.0681083333333","6500200","三重區"
"241033","AAC-255","2017/11/03 18:08:54","新北市三重區中興北街62號","121.468988333333","25.0516816666667","6500200","三重區"
"235064","005-UY","2017/11/03 18:09:00","新北市中和區錦和路350-1號","121.490543333333","24.9936266666667","6500300","中和區"
"235063","006-UY","2017/11/03 18:09:08","新北市中和區員山路36巷16-3號","121.485041666667","24.9913483333333","6500300","中和區"
"235056","096-UM","2017/11/03 18:09:04","新北市中和區新生街170號","121.483735","25.00011","6500300","中和區"
"235065","098-UM","2017/11/03 18:08:56","新北市中和區新生街184號","121.483776666667","24.99972","6500300","中和區"
"235040","150-BY","2017/11/03 18:08:54","新北市中和區員山路36巷16-2號","121.485293333333","24.99171","6500300","中和區"
"235058","151-BY","2017/11/03 18:09:05","新北市中和區圓通路367巷33弄35號","121.494813333333","24.985505","6500300","中和區"
"235038","185-VK","2017/11/03 18:09:07","新北市中和區景平路123號","121.515496666667","24.99211","6500300","中和區"
"235067","255-BX","2017/11/03 18:09:05","新北市中和區和城路一段271巷1號","121.485513333333","24.99199","6500300","中和區"
"235072","301-VK","2017/11/03 18:09:05","新北市中和區員山路36巷12號","121.483921666667","24.9909916666667","6500300","中和區"
"235061","378-QA","2017/11/03 18:08:52","新北市中和區連城路469巷70弄8號","121.483233333333","24.9937066666667","6500300","中和區"
"235050","4979-A6","2017/11/03 18:09:08","新北市中和區中正路271號","121.495848333333","24.9937616666667","6500300","中和區"
"235069","4980-A6","2017/11/03 18:08:57","新北市中和區圓通路78號","121.49994","24.9970633333333","6500300","中和區"
"235042","551-UM","2017/11/03 18:08:51","新北市中和區景平路283號","121.50746","24.9931566666667","6500300","中和區"
"235070","558-UM","2017/11/03 18:09:08","新北市中和區中正路637巷52弄1號","121.48546","24.9934183333333","6500300","中和區"
"235045","565-BX","2017/11/03 18:09:00","新北市中和區中正路637巷52弄1號","121.485476666667","24.993395","6500300","中和區"
"235054","640-BX","2017/11/03 18:08:58","新北市中和區連城路569巷9弄34號","121.479401666667","24.99357","6500300","中和區"
"235062","800-TS","2017/11/03 18:08:58","新北市中和區橋和路2-1號","121.488311666667","25.00502","6500300","中和區"
"235052","805-TS","2017/11/03 18:09:07","新北市中和區中正路273號","121.495651666667","24.9936616666667","6500300","中和區"
"235053","900-TW","2017/11/03 18:09:04","新北市中和區員山路36巷16-2號","121.485266666667","24.9914916666667","6500300","中和區"
"235037","157-BY","2017/11/03 18:08:55","新北市中和區中正路192號","121.497648333333","24.99379","6500300","中和區"
"235037","AAC-213","2017/11/03 18:08:57","新北市中和區景平路149號","121.513921666667","24.9920933333333","6500300","中和區"
"247002","337-TH","2017/11/03 18:09:06","新北市蘆洲區環堤大道168號","121.456035","25.089705","6501400","蘆洲區"
"247008","053-VK","2017/11/03 18:09:04","新北市八里區商港路120號","121.392908333333","25.1500683333333","6501400","蘆洲區"
"226004","205-ST","2017/11/03 18:08:59","新北市平溪區菁桐里菁桐街165號","121.722988333333","25.0234266666667","6502400","平溪區"
"223003","205-TH","2017/11/03 09:51:14","新北市石碇區小粗坑(潭邊里)9-2號","121.678881666667","24.9863","6501900","石碇區"
"228003","097-TW","2017/11/03 18:09:05","新北市貢寮區真理里美艷山街6-2號","121.928923333333","25.0607616666667","6502600","貢寮區"
"228002","663-BX","2017/11/03 18:09:06","新北市貢寮區福連里馬崗街31-5號","122.002318333333","25.0126783333333","6502600","貢寮區"
"228001","670-TC","2017/11/03 18:09:02","新北市貢寮區真理里新港街26巷55弄2-1號","121.927398333333","25.0529133333333","6502600","貢寮區"
"224006","676-BX","2017/11/03 18:09:11","新北市瑞芳區中山路22號","121.804038333333","25.106215","6501200","瑞芳區"
"224002","639-TC","2017/11/03 18:09:08","新北市瑞芳區三爪子坑路64-8號","121.809643333333","25.1054866666667","6501200","瑞芳區"
"224009","285-BY","2017/11/03 18:09:10","新北市瑞芳區金光路115號","121.853546666667","25.106305","6501200","瑞芳區"
"224008","275-VK","2017/11/03 18:08:54","新北市瑞芳區員山子路23號","121.821343333333","25.1030683333333","6501200","瑞芳區"
"224005","271-BY","2017/11/03 18:09:09","新北市瑞芳區建基路二段110號","121.811825","25.132685","6501200","瑞芳區"
"227003","400-TW","2017/11/03 17:41:22","新北市雙溪區共和里東榮街31號","121.866251666667","25.0335883333333","6502500","雙溪區"
"253005","032-BX","2017/11/03 18:09:06","新北市石門區中央路16-5號","121.56817","25.2912466666667","6502200","石門區"
"253006","295-VK","2017/11/03 18:09:09","新北市石門區老梅路52巷19號","121.546418333333","25.28866","6502200","石門區"
"222001","KEA-2212","2017/11/03 18:08:56","新北市深坑區北深路二段184號","121.614063333333","25.00245","6501800","深坑區"
"208002","742-BX","2017/11/03 18:09:06","新北市金山區三界壇路99巷1號","121.622178333333","25.2289516666667","6502700","金山區"
"208003","665-BX","2017/11/03 18:08:56","新北市金山區磺港里磺港路192-1號","121.6459","25.2276283333333","6502700","金山區"
"208001","761-BX","2017/11/03 18:09:06","新北市金山區磺港里磺港路116號","121.645976666667","25.22644","6502700","金山區"
"251004","009-UM","2017/11/03 18:09:11","新北市淡水區民族路39號","121.462723333333","25.1355466666667","6501000","淡水區"
"251013","180-VK","2017/11/03 18:08:53","新北市淡水區竹圍子12號","121.476453333333","25.1937116666667","6501000","淡水區"
"251008","181-VK","2017/11/03 18:09:01","新北市淡水區坪頂路70巷41號","121.460643333333","25.1604283333333","6501000","淡水區"
"251010","413-VK","2017/11/03 18:09:03","新北市淡水區中正路二段50巷10號","121.419846666667","25.1834133333333","6501000","淡水區"
"251012","441-VK","2017/11/03 18:09:10","新北市淡水區北新路三段173號","121.492473333333","25.192265","6501000","淡水區"
"251005","443-VK","2017/11/03 18:09:10","新北市淡水區學府路96號","121.449245","25.17108","6501000","淡水區"
"251001","559-UM","2017/11/03 18:08:58","新北市淡水區自立路10號","121.463053333333","25.1298","6501000","淡水區"
"251006","561-UM","2017/11/03 18:09:06","新北市淡水區真理街3巷15-1號","121.437303333333","25.1755866666667","6501000","淡水區"
"251009","575-R6","2017/11/03 18:08:56","新北市淡水區大忠街34巷13號","121.443861666667","25.1756783333333","6501000","淡水區"
"251011","650-BX","2017/11/03 18:08:53","新北市淡水區三空泉9-2號","121.474168333333","25.1635833333333","6501000","淡水區"
"251002","672-BX","2017/11/03 18:08:57","新北市淡水區中正東路一段69號","121.452761666667","25.16226","6501000","淡水區"
"251003","673-BX","2017/11/03 18:09:06","新北市淡水區北新路145號","121.449593333333","25.1789","6501000","淡水區"
"207003","550-UM","2017/11/03 18:09:03","新北市萬里區野柳里港西路70-3號","121.685401666667","25.2047416666667","6502800","萬里區"
"207004","225-TW","2017/11/03 18:09:01","新北市萬里區中幅里中福路93號","121.675426666667","25.169805","6502800","萬里區"
"252002","178-VK","2017/11/03 18:08:56","新北市三芝區中山路二段35號","121.502821666667","25.2551733333333","6502100","三芝區"
"252003","249-BX","2017/11/03 18:09:02","新北市三芝區埔頭里埔頭39-3號","121.49929","25.2609583333333","6502100","三芝區"
"252001","292-VK","2017/11/03 18:09:11","新北市三芝區中興街二段2號","121.49839","25.2567016666667","6502100","三芝區"
"237004","078-UY","2017/11/03 18:09:06","新北市三峽區圳頭96號","121.380153333333","24.87562","6500900","三峽區"
"237007","153-BY","2017/11/03 18:09:07","新北市三峽區中正路二段370巷83號","121.364298333333","24.911775","6500900","三峽區"
"237009","210-TH","2017/11/03 18:09:02","新北市三峽區大仁路38號","121.36579","24.9376233333333","6500900","三峽區"
"237012","275-BY","2017/11/03 18:08:55","新北市三峽區民生街19巷7弄18號","121.377043333333","24.9356316666667","6500900","三峽區"
"237008","302-VK","2017/11/03 18:09:06","新北市三峽區白雞64-10號","121.383595","24.9123316666667","6500900","三峽區"
"237014","433-BY","2017/11/03 18:09:06","新北市三峽區國光街81巷15號","121.373651666667","24.93786","6500900","三峽區"
"237011","572-TV","2017/11/03 18:03:26","新北市三峽區溪北街2號","121.39604","24.93622","6500900","三峽區"
"237015","649-BX","2017/11/03 18:08:58","新北市三峽區紫新路36巷2號","121.422216666667","24.92212","6500900","三峽區"
"237010","706-TV","2017/11/03 18:08:03","新北市三峽區民族街63號","121.369593333333","24.9296483333333","6500900","三峽區"
"237005","AKY-6261","2017/11/03 18:08:55","新北市三峽區文化路65巷2號","121.371956666667","24.9357683333333","6500900","三峽區"
"236072","105-UM","2017/11/03 18:09:06","新北市土城區明德路一段375-3號","121.454096666667","24.9786183333333","6501300","土城區"
"236043","107-UM","2017/11/03 18:08:59","新北市土城區裕生路61號","121.447611666667","24.9860433333333","6501300","土城區"
"236001","138-TH","2017/11/03 14:15:24","新北市土城區永平街51號","121.427995","24.95918","6501300","土城區"
"236079","166-UM","2017/11/03 18:09:11","新北市土城區永寧路30-1號","121.429381666667","24.960715","6501300","土城區"
"236031","253-BX","2017/11/03 18:09:02","新北市土城區城林路6巷80號","121.438496666667","24.9798316666667","6501300","土城區"
"236027","269-VK","2017/11/03 18:09:12","新北市土城區承天路47號","121.439066666667","24.9637083333333","6501300","土城區"
"236015","270-VK","2017/11/03 18:09:10","新北市土城區學府路一段260號","121.451335","24.9843533333333","6501300","土城區"
"236039","271-VK","2017/11/03 18:08:51","新北市土城區明德路二段203號","121.446743333333","24.98363","6501300","土城區"
"236022","401-BY","2017/11/03 18:09:07","新北市土城區城林路6巷80號","121.438745","24.97977","6501300","土城區"
"236050","752-BX","2017/11/03 18:09:04","新北市土城區金城路二段23-1號","121.447976666667","24.9763766666667","6501300","土城區"
"236059","912-UM","2017/11/03 18:08:56","新北市土城區中央路四段35-2號","121.422995","24.9621033333333","6501300","土城區"
"236063","915-UM","2017/11/03 18:09:01","新北市土城區中央路二段61巷42號","121.443903333333","24.97836","6501300","土城區"
"236055","AAC-216","2017/11/03 18:09:00","新北市土城區城林路6巷80號","121.438346666667","24.979605","6501300","土城區"
"242032","AAC-296","2017/11/03 18:08:58","新北市新莊區新泰路357巷1弄31號","121.442905","25.0402916666667","6500500","新莊區"
"242050","751-BX","2017/11/03 18:09:03","新北市新莊區民本街43巷21號","121.429073333333","25.0183533333333","6500500","新莊區"
"242029","705-TV","2017/11/03 18:09:08","新北市新莊區中平路188號","121.444795","25.0480416666667","6500500","新莊區"
"242025","615-BX","2017/11/03 18:08:58","新北市新莊區五工一路96號","121.460546666667","25.0679483333333","6500500","新莊區"
"242023","613-BX","2017/11/03 18:08:55","新北市新莊區新泰路528號","121.442033333333","25.047375","6500500","新莊區"
"242027","612-BX","2017/11/03 18:08:56","新北市新莊區幸福路566號","121.454383333333","25.0493466666667","6500500","新莊區"
"242039","566-BX","2017/11/03 18:09:10","新北市新莊區民安西路38巷12號","121.426821666667","25.0207316666667","6500500","新莊區"
"242044","497-BY","2017/11/03 18:09:09","新北市新莊區天泉一街3號","121.414653333333","25.0242","6500500","新莊區"
"242048","442-UM","2017/11/03 18:09:00","新北市新莊區富國路152號","121.423193333333","25.025","6500500","新莊區"
"242054","440-UM","2017/11/03 18:08:53","新北市新莊區民安西路323號","121.427636666667","25.011195","6500500","新莊區"
"242034","415-TV","2017/11/03 18:09:03","新北市新莊區新豐街65號","121.446365","25.0335916666667","6500500","新莊區"
"242005","413-TV","2017/11/03 18:08:54","新北市新莊區自立街101號","121.455176666667","25.0454466666667","6500500","新莊區"
"242041","400-BY","2017/11/03 18:09:02","新北市新莊區雙鳳路108巷22號","121.41414","25.0288716666667","6500500","新莊區"
"242060","362-BY","2017/11/03 18:08:55","新北市新莊區新樹路223號","121.435436666667","25.0231016666667","6500500","新莊區"
"242058","353-BY","2017/11/03 18:09:04","新北市新莊區新北大道七段180號","121.415453333333","25.0315766666667","6500500","新莊區"
"242007","132-UY","2017/11/03 18:09:07","新北市新莊區自強街37巷4號","121.45443","25.0465683333333","6500500","新莊區"
"242037","133-UY","2017/11/03 18:09:07","新北市新莊區建福路58巷4號","121.426326666667","25.0272566666667","6500500","新莊區"
"242021","135-UY","2017/11/03 18:09:11","新北市新莊區新興街96號","121.450698333333","25.0385616666667","6500500","新莊區"
"242046","172-VK","2017/11/03 18:09:13","新北市新莊區福營路195巷20號","121.431866666667","25.0298283333333","6500500","新莊區"
"242009","173-VK","2017/11/03 18:08:55","新北市新莊區中華路二段258巷15號","121.453185","25.05374","6500500","新莊區"
"242015","175-VK","2017/11/03 18:09:01","新北市新莊區中平路152巷45號","121.446771666667","25.04748","6500500","新莊區"
"242002","176-VK","2017/11/03 18:08:57","新北市新莊區新莊路88號","121.456751666667","25.0363433333333","6500500","新莊區"
"242001","233-RS","2017/11/03 08:28:36","新北市新莊區環河路48-7號","121.436891666667","25.0097866666667","6500500","新莊區"
"242017","347-TH","2017/11/03 18:09:02","新北市新莊區中港路290號","121.452933333333","25.0445783333333","6500500","新莊區"
"242056","349-TH","2017/11/03 18:09:03","新北市新莊區豐年街豐1巷29號","121.447566666667","25.031365","6500500","新莊區"
"242011","351-TH","2017/11/03 18:08:56","新北市新莊區中榮街52號","121.449446666667","25.05281","6500500","新莊區"
"238015","755-BX","2017/11/03 18:08:59","新北市樹林區大安路455號","121.414963333333","24.9881283333333","6500700","樹林區"
"238023","601-UM","2017/11/03 18:08:53","新北市樹林區龍興街59巷7號","121.403708333333","25.015325","6500700","樹林區"
"238019","599-UM","2017/11/03 18:09:02","新北市樹林區國凱街162號","121.424553333333","24.9807166666667","6500700","樹林區"
"238018","571-TV","2017/11/03 18:09:03","新北市樹林區樹新路247號","121.431345","25.0008016666667","6500700","樹林區"
"238021","KEA-2217","2017/11/03 18:09:09","新北市樹林區柑園街一段60號","121.402773333333","24.9604316666667","6500700","樹林區"
"238022","KEA-2213","2017/11/03 18:09:03","新北市樹林區太平路150巷34號","121.417541666667","24.9775866666667","6500700","樹林區"
"238025","303-VK","2017/11/03 18:09:03","新北市樹林區保安街二段281-1號","121.412656666667","25.0060266666667","6500700","樹林區"
"238017","283-BY","2017/11/03 18:09:09","新北市樹林區中正路650號","121.409885","25.0164583333333","6500700","樹林區"
"238014","282-BY","2017/11/03 18:09:04","新北市樹林區潭興街105號","121.425075","24.9988266666667","6500700","樹林區"
"238020","268-VK","2017/11/03 18:09:08","新北市樹林區俊興街272號","121.418266666667","25.0167983333333","6500700","樹林區"
"238026","172-UY","2017/11/03 18:09:00","新北市樹林區佳園路一段48號","121.392861666667","24.9707533333333","6500700","樹林區"
"238016","169-UY","2017/11/03 18:08:56","新北市樹林區日新街158號","121.420131666667","24.9884066666667","6500700","樹林區"
"239007","AAC-297","2017/11/03 18:08:59","新北市鶯歌區育英街65-1號","121.347248333333","24.952345","6500800","鶯歌區"
"239006","891-R6","2017/11/03 18:09:03","新北市鶯歌區鶯桃路365巷32號","121.332195","24.9625516666667","6500800","鶯歌區"
"239008","527-UM","2017/11/03 18:09:13","新北市鶯歌區朝陽街4號","121.336246666667","24.9765983333333","6500800","鶯歌區"
"239005","526-UM","2017/11/03 18:08:57","新北市鶯歌區鳳七路101巷20號","121.329356666667","24.9707483333333","6500800","鶯歌區"
"239001","417-VK","2017/11/03 18:08:58","新北市鶯歌區國中街122號","121.339571666667","24.940015","6500800","鶯歌區"
"239003","360-BY","2017/11/03 18:09:09","新北市鶯歌區福安街13巷1號","121.335641666667","24.9652833333333","6500800","鶯歌區"
"239002","359-BY","2017/11/03 18:09:10","新北市鶯歌區文昌街2號","121.350538333333","24.9541633333333","6500800","鶯歌區"
"239004","193-VK","2017/11/03 18:09:08","新北市鶯歌區尖山路165號","121.3454","24.9479083333333","6500800","鶯歌區"
"221008","489-VK","2017/11/03 18:08:55","新北市汐止區康寧街315號","121.627103333333","25.0679983333333","6501100","汐止區"
"221036","130-UY","2017/11/03 18:09:00","新北市汐止區大同路三段259號","121.67355","25.0760133333333","6501100","汐止區"
"221015","131-UY","2017/11/03 18:09:11","新北市汐止區鄉長路二段25號","121.668156666667","25.0827216666667","6501100","汐止區"
"221010","269-BY","2017/11/03 18:09:01","新北市汐止區汐萬路二段275巷1弄2號","121.645551666667","25.088865","6501100","汐止區"
"221012","276-VK","2017/11/03 13:13:45","新北市汐止區汐萬路一段256巷3號","121.65345","25.074585","6501100","汐止區"
"221012","278-VK","2017/11/03 18:09:06","新北市汐止區保長路37巷27號","121.67416","25.0799133333333","6501100","汐止區"
"221023","279-VK","2017/11/03 18:08:57","新北市汐止區中興路293號","121.627995","25.0701016666667","6501100","汐止區"
"221032","280-BY","2017/11/03 18:09:10","新北市汐止區橫科路23號","121.617981666667","25.0513033333333","6501100","汐止區"
"221027","281-BY","2017/11/03 18:09:09","新北市汐止區大同路二段585號","121.663611666667","25.0702866666667","6501100","汐止區"
"221029","298-VK","2017/11/03 18:09:08","新北市汐止區樟樹二路134號","121.639948333333","25.0657583333333","6501100","汐止區"
"221021","299-VK","2017/11/03 18:09:09","新北市汐止區復興路14號","121.655768333333","25.0645766666667","6501100","汐止區"
"221031","353-TW","2017/11/03 18:08:58","新北市汐止區中興路181巷14弄10號","121.629858333333","25.0668766666667","6501100","汐止區"
"221002","358-BY","2017/11/03 18:09:11","新北市汐止區福德一路195號","121.635526666667","25.0656533333333","6501100","汐止區"
"221035","622-UM","2017/11/03 18:09:08","新北市汐止區大同路二段230號","121.653771666667","25.0655433333333","6501100","汐止區"
"221025","623-UM","2017/11/03 18:09:04","新北市汐止區勤進路16號","121.659603333333","25.0613833333333","6501100","汐止區"
"221038","646-BX","2017/11/03 18:08:56","新北市汐止區南興路82巷3號","121.652683333333","25.0588583333333","6501100","汐止區"
"221033","647-BX","2017/11/03 18:09:09","新北市汐止區宜興街10巷19號","121.621948333333","25.040825","6501100","汐止區"
"221018","753-BX","2017/11/03 18:08:57","新北市汐止區忠孝東路351號","121.665553333333","25.0704383333333","6501100","汐止區"
"242019","280-VK","2017/11/03 18:09:04","新北市新莊區長青街37巷22弄2號","121.456265","25.041365","6500500","新莊區"
