"lineid","car","time","location","longitude","latitude","cityid","cityname"
"234013","149-BY","2017/11/03 18:19:04","新北市永和區福和路1號","121.526541666667","25.00984","6500400","永和區"
"234042","862-TW","2017/11/03 18:18:49","新北市永和區福和路1號","121.526608333333","25.0096866666667","6500400","永和區"
"234026","9371-KE","2017/11/03 18:19:07","新北市永和區豫溪街28巷7號","121.515223333333","25.0094866666667","6500400","永和區"
"249005","172-UM","2017/11/03 18:19:06","新北市八里區荖阡坑路15-1號","121.400705","25.1400133333333","6502300","八里區"
"249001","173-UM","2017/11/03 18:19:08","新北市八里區龍米路一段125號","121.452305","25.1264833333333","6502300","八里區"
"249004","303-UY","2017/11/03 18:18:59","新北市八里區龍米路二段232巷3號","121.431545","25.1590116666667","6502300","八里區"
"249002","305-UY","2017/11/03 18:19:05","新北市八里區龍形二街52號","121.450283333333","25.1330366666667","6502300","八里區"
"249003","593-UM","2017/11/03 18:18:55","新北市八里區松子腳2-2號","121.403273333333","25.1449","6502300","八里區"
"248016","026-BX","2017/11/03 18:18:56","新北市五股區成泰路三段477巷18號","121.44991","25.0989533333333","6501500","五股區"
"248006","077-UY","2017/11/03 18:18:56","新北市五股區中興路一段164-1號","121.464136666667","25.0740383333333","6501500","五股區"
"248008","095-VK","2017/11/03 18:18:57","新北市五股區更洲路32巷8弄14號","121.45926","25.0796883333333","6501500","五股區"
"248018","225-UY","2017/11/03 18:18:59","新北市五股區御史路120-1號","121.437075","25.0966833333333","6501500","五股區"
"248012","247-BX","2017/11/03 18:18:54","新北市五股區御成路33號","121.441035","25.0912333333333","6501500","五股區"
"248014","261-SL","2017/11/03 18:18:52","新北市五股區成泰路一段138號","121.435053333333","25.07569","6501500","五股區"
"248010","272-BY","2017/11/03 18:19:00","新北市五股區成泰路一段189巷14-3號","121.43378","25.077405","6501500","五股區"
"248004","677-BX","2017/11/03 18:19:00","新北市五股區成泰路二段129號","121.43869","25.08484","6501500","五股區"
"248002","678-BX","2017/11/03 18:19:03","新北市五股區西雲路31號","121.443163333333","25.0905016666667","6501500","五股區"
"232011","375-UM","2017/11/03 18:12:08","新北市坪林區坪雙路一段43號","121.711766666667","24.9424666666667","6502000","坪林區"
"244013","069-UM","2017/11/03 18:18:51","新北市林口區中山路152-1號","121.391041666667","25.0787766666667","6501700","林口區"
"244007","080-UY","2017/11/03 18:18:52","新北市林口區佳林路101巷50號","121.387488333333","25.079335","6501700","林口區"
"244019","403-UM","2017/11/03 18:19:08","新北市林口區文化一路一段126號","121.375533333333","25.0726933333333","6501700","林口區"
"244025","742-UY","2017/11/03 18:19:13","新北市林口區南勢六街55號","121.35575","25.07145","6501700","林口區"
"244009","410-SL","2017/11/03 18:18:53","新北市林口區文化三路二段295號","121.378933333333","25.0864166666667","6501700","林口區"
"244023","483-VK","2017/11/03 18:19:13","新北市林口區仁愛路二段36號","121.38521","25.0759066666667","6501700","林口區"
"244017","485-VK","2017/11/03 18:18:59","新北市林口區八德路48巷15號","121.366751666667","25.06672","6501700","林口區"
"244011","701-TV","2017/11/03 18:19:09","新北市林口區中正路78號","121.394656666667","25.07736","6501700","林口區"
"244021","838-TS","2017/11/03 18:19:07","新北市林口區自強一街12號","121.39817","25.078365","6501700","林口區"
"243013","AAD-798","2017/11/03 18:18:56","新北市泰山區南林路99巷1-1號","121.415383333333","25.051085","6501600","泰山區"
"222003","436-BY","2017/11/03 18:19:06","新北市深坑區旺耽路67號","121.626275","25.0030466666667","6501800","深坑區"
"222002","659-BX","2017/11/03 18:19:12","新北市深坑區雲鄉路63號","121.62182","24.9989066666667","6501800","深坑區"
"231041","002-UM","2017/11/03 18:19:00","新北市新店區安華路28-1號","121.519588333333","24.9609633333333","6500600","新店區"
"231059","046-UY","2017/11/03 18:18:58","新北市新店區安華路28-1號","121.519665","24.9609733333333","6500600","新店區"
"231061","047-UY","2017/11/03 18:18:58","新北市新店區安華路28-1號","121.519338333333","24.9609783333333","6500600","新店區"
"231060","106-UY","2017/11/03 18:19:09","新北市新店區安華路28-1號","121.519576666667","24.96089","6500600","新店區"
"231048","108-UY","2017/11/03 16:33:33","新北市新店區安華路28-1號","121.519395","24.9612066666667","6500600","新店區"
"231053","187-VK","2017/11/03 18:18:51","新北市新店區安康路一段355號","121.519893333333","24.963435","6500600","新店區"
"231050","KEA-2219","2017/11/03 18:18:57","新北市新店區安華路28-1號","121.519786666667","24.9612416666667","6500600","新店區"
"231057","256-BX","2017/11/03 18:19:05","新北市新店區安華路28-1號","121.51967","24.9611566666667","6500600","新店區"
"231046","278-BY","2017/11/03 18:18:56","新北市新店區直潭七街60號","121.532276666667","24.9398833333333","6500600","新店區"
"231054","AAD-862","2017/11/03 16:38:15","新北市新店區安華路28-1號","121.519635","24.9611883333333","6500600","新店區"
"231058","3712-VJ","2017/11/03 18:18:59","新北市新店區安康路一段50-1號","121.529681666667","24.9613533333333","6500600","新店區"
"231055","3713-VJ","2017/11/03 18:18:55","新北市新店區安康路一段50-2號","121.529285","24.9615483333333","6500600","新店區"
"231056","4716-K9","2017/11/03 18:19:05","新北市新店區安康路一段89號","121.529286666667","24.9615016666667","6500600","新店區"
"231067","4772-VM","2017/11/03 18:19:05","新北市新店區安華路28-1號","121.519348333333","24.96066","6500600","新店區"
"231065","512-UM","2017/11/03 18:18:54","新北市新店區安華路28-1號","121.519363333333","24.961355","6500600","新店區"
"231045","617-UM","2017/11/03 18:19:01","新北市新店區安華路28-1號","121.519508333333","24.9610783333333","6500600","新店區"
"231040","619-UM","2017/11/03 18:19:04","新北市新店區安華路28-1號","121.519576666667","24.9609666666667","6500600","新店區"
"231042","641-BX","2017/11/03 18:19:02","新北市新店區安華路28-1號","121.519485","24.9605833333333","6500600","新店區"
"231063","645-TV","2017/11/03 18:19:10","新北市新店區安華路28-1號","121.519378333333","24.9607","6500600","新店區"
"231049","719-UM","2017/11/03 18:18:56","新北市新店區安華路28-1號","121.519601666667","24.9614583333333","6500600","新店區"
"231051","719-UY","2017/11/03 18:19:07","新北市新店區安華路28-1號","121.519553333333","24.9614916666667","6500600","新店區"
"231062","720-UM","2017/11/03 18:19:12","新北市新店區安華路28-1號","121.519381666667","24.961375","6500600","新店區"
"231044","897-TW","2017/11/03 18:18:54","新北市新店區安華路28-1號","121.519566666667","24.9609783333333","6500600","新店區"
"231043","899-TW","2017/11/03 18:18:58","新北市新店區安華路28-1號","121.51929","24.96096","6500600","新店區"
"231066","AKT-0513","2017/11/03 18:18:59","新北市新店區安華路28-1號","121.519781666667","24.9614166666667","6500600","新店區"
"241033","AAC-255","2017/11/03 18:18:54","新北市三重區光復路一段68巷13號","121.470938333333","25.049375","6500200","三重區"
"235066","003-UY","2017/11/03 18:18:57","新北市中和區中山路二段120號","121.502755","25.003725","6500300","中和區"
"235064","005-UY","2017/11/03 18:19:00","新北市中和區圓通路176-1號","121.497226666667","24.9945266666667","6500300","中和區"
"235063","006-UY","2017/11/03 18:19:08","新北市中和區中正路571巷2弄7號","121.486236666667","24.99377","6500300","中和區"
"235056","096-UM","2017/11/03 18:19:12","新北市中和區員山路534號","121.478808333333","25.0098266666667","6500300","中和區"
"235039","097-UM","2017/11/03 18:19:01","新北市中和區中正路273號","121.495628333333","24.993875","6500300","中和區"
"235065","098-UM","2017/11/03 18:18:56","新北市中和區橋和路177-1號","121.492418333333","25.006035","6500300","中和區"
"235040","150-BY","2017/11/03 18:18:54","新北市中和區和城路一段271巷1號","121.48545","24.9918333333333","6500300","中和區"
"235058","151-BY","2017/11/03 18:19:05","新北市中和區圓通路367巷15-1號","121.492243333333","24.9874233333333","6500300","中和區"
"235055","183-VK","2017/11/03 18:19:05","新北市中和區員山路36巷16-3號","121.485066666667","24.99138","6500300","中和區"
"235038","185-VK","2017/11/03 18:19:07","新北市中和區自立路36-13號","121.521946666667","24.9922766666667","6500300","中和區"
"235049","186-VK","2017/11/03 18:19:08","新北市中和區中正路395號","121.489361666667","24.9935916666667","6500300","中和區"
"235067","255-BX","2017/11/03 18:19:05","新北市中和區和城路一段271巷1號","121.48537","24.9919733333333","6500300","中和區"
"235072","301-VK","2017/11/03 18:19:05","新北市中和區中正路518號","121.488211666667","24.99444","6500300","中和區"
"235043","352-BY","2017/11/03 18:18:59","新北市中和區中正路275號","121.495508333333","24.9938266666667","6500300","中和區"
"235068","377-QA","2017/11/03 18:18:58","新北市中和區員山路36巷16-3號","121.485076666667","24.99128","6500300","中和區"
"235061","378-QA","2017/11/03 18:18:32","新北市中和區民德路187號","121.468485","24.9991483333333","6500300","中和區"
"235050","4979-A6","2017/11/03 18:19:08","新北市中和區捷運路8號","121.509935","24.9895933333333","6500300","中和區"
"235069","4980-A6","2017/11/03 18:18:57","新北市中和區連城路127巷6弄1號","121.496536666667","24.9984166666667","6500300","中和區"
"235042","551-UM","2017/11/03 18:19:11","新北市中和區大仁街20巷25弄19號","121.518651666667","24.9936216666667","6500300","中和區"
"235070","558-UM","2017/11/03 18:19:08","新北市中和區圓通路176號","121.496916666667","24.9945033333333","6500300","中和區"
"235045","565-BX","2017/11/03 18:19:00","新北市中和區南山路122號","121.50348","24.99308","6500300","中和區"
"235054","640-BX","2017/11/03 18:18:58","新北市中和區莒光路185號","121.472638333333","24.9990566666667","6500300","中和區"
"235047","732-UM","2017/11/03 18:19:08","新北市中和區中正路273號","121.495683333333","24.9938816666667","6500300","中和區"
"235062","800-TS","2017/11/03 18:18:58","新北市中和區景平路997巷2號","121.495648333333","25.0058266666667","6500300","中和區"
"235057","801-TS","2017/11/03 18:19:08","新北市中和區員山路74號","121.480905","24.9937833333333","6500300","中和區"
"235041","802-TS","2017/11/03 18:19:02","新北市中和區中正路252號","121.495616666667","24.9941216666667","6500300","中和區"
"235052","805-TS","2017/11/03 18:19:07","新北市中和區興南路一段86號","121.509898333333","24.9894266666667","6500300","中和區"
"235048","896-TW","2017/11/03 18:19:10","新北市中和區中正路637巷52弄1號","121.485438333333","24.9933783333333","6500300","中和區"
"235053","900-TW","2017/11/03 18:19:04","新北市中和區中正路637巷52弄1號","121.485425","24.9936666666667","6500300","中和區"
"235060","911-UM","2017/11/03 18:19:06","新北市中和區員山路36巷16-8號","121.48539","24.9923","6500300","中和區"
"235037","157-BY","2017/11/03 18:18:55","新北市中和區興南路二段32巷5號","121.507151666667","24.98551","6500300","中和區"
"235037","AAC-213","2017/11/03 18:18:57","新北市中和區景平路91號","121.517648333333","24.9919166666667","6500300","中和區"
"247008","053-VK","2017/11/03 18:19:04","新北市林口區太平里180號","121.368363333333","25.1343766666667","6501400","蘆洲區"
"226004","205-ST","2017/11/03 18:18:43","新北市平溪區靜安路二段10號","121.70707","25.01863","6502400","平溪區"
"223003","205-TH","2017/11/03 09:51:14","新北市石碇區小粗坑(潭邊里)9-2號","121.678881666667","24.9863","6501900","石碇區"
"228003","097-TW","2017/11/03 18:19:05","新北市貢寮區真理里美艷山街19-1號","121.923566666667","25.0685616666667","6502600","貢寮區"
"228002","663-BX","2017/11/03 18:19:06","新北市貢寮區福連里福興街39-3號","121.993931666667","25.0135966666667","6502600","貢寮區"
"228001","670-TC","2017/11/03 18:19:02","新北市貢寮區真理里新港街26巷55弄2-1號","121.927395","25.0529116666667","6502600","貢寮區"
"224006","676-BX","2017/11/03 18:19:11","新北市瑞芳區民權街3-2號","121.8081","25.1075083333333","6501200","瑞芳區"
"224002","639-TC","2017/11/03 18:19:08","新北市瑞芳區三爪子坑路91巷15號","121.811753333333","25.106975","6501200","瑞芳區"
"224009","285-BY","2017/11/03 18:19:10","新北市瑞芳區新山路31號","121.855898333333","25.10836","6501200","瑞芳區"
"224008","275-VK","2017/11/03 18:18:54","新北市瑞芳區逢甲路84號","121.809766666667","25.1087266666667","6501200","瑞芳區"
"224005","271-BY","2017/11/03 18:19:06","新北市瑞芳區台電新村26-2號","121.81403","25.1293083333333","6501200","瑞芳區"
"227011","642-TC","2017/11/03 18:19:00","新北市雙溪區牡丹里牡丹73號","121.851703333333","25.0593766666667","6502500","雙溪區"
"227003","400-TW","2017/11/03 18:19:01","新北市雙溪區共和里中山路2號","121.86381","25.0338216666667","6502500","雙溪區"
"253005","032-BX","2017/11/03 18:19:06","新北市石門區中央路37-5號","121.569533333333","25.2965733333333","6502200","石門區"
"253006","295-VK","2017/11/03 18:19:09","新北市石門區老梅路73號","121.546031666667","25.2892483333333","6502200","石門區"
"222001","KEA-2212","2017/11/03 18:18:54","新北市深坑區北深路二段66號","121.618991666667","25.004205","6501800","深坑區"
"208002","742-BX","2017/11/03 18:19:06","新北市金山區清泉里清水路60巷20號","121.634991666667","25.2338866666667","6502700","金山區"
"208003","665-BX","2017/11/03 18:18:56","新北市金山區民生路142號","121.64744","25.2236566666667","6502700","金山區"
"208001","761-BX","2017/11/03 18:19:07","新北市金山區自強路13號","121.640426666667","25.2164466666667","6502700","金山區"
"251004","009-UM","2017/11/03 18:18:51","新北市淡水區民族路31巷5號","121.46226","25.1361866666667","6501000","淡水區"
"251013","180-VK","2017/11/03 18:19:12","新北市淡水區行忠路590號","121.468356666667","25.1993333333333","6501000","淡水區"
"251008","181-VK","2017/11/03 18:19:01","新北市淡水區忠愛街12號","121.457531666667","25.174995","6501000","淡水區"
"251010","413-VK","2017/11/03 18:19:03","新北市淡水區淡海路199號","121.420445","25.18479","6501000","淡水區"
"251012","441-VK","2017/11/03 18:19:06","新北市淡水區北新路二段77-5號","121.480541666667","25.1855916666667","6501000","淡水區"
"251005","443-VK","2017/11/03 18:19:10","新北市淡水區水源街一段122巷37號","121.447123333333","25.1704716666667","6501000","淡水區"
"251001","559-UM","2017/11/03 18:18:58","新北市淡水區自強路110-8號","121.46153","25.1313916666667","6501000","淡水區"
"251006","561-UM","2017/11/03 18:19:05","新北市淡水區新民街76巷47-1號","121.439386666667","25.1780033333333","6501000","淡水區"
"251011","650-BX","2017/11/03 18:18:53","新北市淡水區坪頂路50號","121.457931666667","25.1625483333333","6501000","淡水區"
"251002","672-BX","2017/11/03 18:18:57","新北市淡水區中正東路一段87-2號","121.452905","25.1619116666667","6501000","淡水區"
"251003","673-BX","2017/11/03 18:19:06","新北市淡水區北新路169巷8號","121.450158333333","25.17971","6501000","淡水區"
"207003","550-UM","2017/11/03 18:19:03","新北市萬里區野柳里港東路62-1號","121.687556666667","25.203885","6502800","萬里區"
"207004","225-TW","2017/11/03 18:19:01","新北市萬里區中幅里中福路211號","121.67254","25.1651433333333","6502800","萬里區"
"252003","249-BX","2017/11/03 18:19:02","新北市三芝區錫板里南勢崗2號","121.481435","25.2636283333333","6502100","三芝區"
"252001","292-VK","2017/11/03 18:19:11","新北市三芝區中興街二段2號","121.49841","25.2566733333333","6502100","三芝區"
"237004","078-UY","2017/11/03 18:19:06","新北市三峽區五寮48號","121.369688333333","24.8661383333333","6500900","三峽區"
"237007","153-BY","2017/11/03 18:19:07","新北市三峽區中正路二段566號","121.359725","24.90614","6500900","三峽區"
"237009","210-TH","2017/11/03 18:19:02","新北市三峽區中山路152巷24號","121.365361666667","24.937015","6500900","三峽區"
"237012","275-BY","2017/11/03 18:18:55","新北市三峽區民生街1巷6-8號","121.37704","24.9356683333333","6500900","三峽區"
"237008","302-VK","2017/11/03 18:19:06","新北市三峽區白雞68-293號","121.392125","24.9071616666667","6500900","三峽區"
"237014","433-BY","2017/11/03 18:19:06","新北市三峽區復興路78號","121.373131666667","24.93735","6500900","三峽區"
"237011","572-TV","2017/11/03 18:03:26","新北市三峽區溪北街2號","121.39604","24.93622","6500900","三峽區"
"237015","649-BX","2017/11/03 18:18:58","新北市三峽區紫微路23-1號","121.4234","24.9202783333333","6500900","三峽區"
"237010","706-TV","2017/11/03 18:08:03","新北市三峽區民族街63號","121.369593333333","24.9296483333333","6500900","三峽區"
"237005","AKY-6261","2017/11/03 18:18:56","新北市三峽區秀川街82號","121.370628333333","24.9334916666667","6500900","三峽區"
"236072","105-UM","2017/11/03 18:19:06","新北市土城區永豐路212-1號","121.467091666667","24.9828766666667","6501300","土城區"
"236043","107-UM","2017/11/03 18:19:06","新北市土城區裕生路21巷6弄14號","121.448666666667","24.98677","6501300","土城區"
"236001","138-TH","2017/11/03 14:15:24","新北市土城區永平街51號","121.427995","24.95918","6501300","土城區"
"236079","166-UM","2017/11/03 18:19:11","新北市土城區永平街15巷10號","121.428635","24.9625333333333","6501300","土城區"
"236031","253-BX","2017/11/03 18:19:02","新北市土城區中央路二段180巷14號","121.441056666667","24.9765766666667","6501300","土城區"
"236027","269-VK","2017/11/03 18:18:51","新北市土城區承天路18號","121.439413333333","24.963665","6501300","土城區"
"236015","270-VK","2017/11/03 18:19:10","新北市土城區青雲路39巷7號","121.460271666667","24.9874316666667","6501300","土城區"
"236039","271-VK","2017/11/03 18:19:10","新北市土城區青雲路485號","121.45887","24.97368","6501300","土城區"
"236022","401-BY","2017/11/03 18:19:07","新北市土城區員林街71巷11號","121.444808333333","24.9774433333333","6501300","土城區"
"236050","752-BX","2017/11/03 18:19:04","新北市土城區明德路一段375-1號","121.454873333333","24.9781766666667","6501300","土城區"
"236059","912-UM","2017/11/03 18:18:56","新北市土城區中央路四段296號","121.414115","24.95615","6501300","土城區"
"236063","915-UM","2017/11/03 18:19:01","新北市土城區學府路一段14號","121.459146666667","24.9885033333333","6501300","土城區"
"236055","AAC-216","2017/11/03 18:19:00","新北市土城區中華路二段98號","121.43811","24.97446","6501300","土城區"
"242032","AAC-296","2017/11/03 18:18:58","新北市新莊區新泰路255巷25號","121.445135","25.0396816666667","6500500","新莊區"
"242050","751-BX","2017/11/03 18:19:03","新北市新莊區民本街11巷25號","121.428766666667","25.0203866666667","6500500","新莊區"
"242029","705-TV","2017/11/03 18:19:05","新北市新莊區幸福路914號","121.442141666667","25.0489833333333","6500500","新莊區"
"242025","615-BX","2017/11/03 18:18:58","新北市新莊區五工路70號","121.458103333333","25.0635433333333","6500500","新莊區"
"242027","612-BX","2017/11/03 18:18:55","新北市新莊區幸福路846號","121.444495","25.049125","6500500","新莊區"
"242044","497-BY","2017/11/03 18:19:05","新北市新莊區新北大道七段295號","121.41213","25.0277716666667","6500500","新莊區"
"242048","442-UM","2017/11/03 18:19:00","新北市樹林區俊興街257號","121.418128333333","25.0165816666667","6500500","新莊區"
"242054","440-UM","2017/11/03 18:18:53","新北市新莊區民安西路410巷12弄4號","121.427875","25.0091916666667","6500500","新莊區"
"242005","413-TV","2017/11/03 18:18:54","新北市新莊區中平路111號","121.44472","25.0463833333333","6500500","新莊區"
"242041","400-BY","2017/11/03 18:18:58","新北市新莊區天祥街81巷24號","121.415043333333","25.0285983333333","6500500","新莊區"
"242060","362-BY","2017/11/03 18:18:55","新北市新莊區新樹路69-33號","121.438401666667","25.0291766666667","6500500","新莊區"
"242058","353-BY","2017/11/03 18:19:07","新北市新莊區新北大道七段778號","121.412908333333","25.0249583333333","6500500","新莊區"
"242007","132-UY","2017/11/03 18:18:57","新北市新莊區中港一街42號","121.450716666667","25.0456516666667","6500500","新莊區"
"242037","133-UY","2017/11/03 18:19:07","新北市新莊區後港一路31巷3弄2號","121.42507","25.0266766666667","6500500","新莊區"
"242021","135-UY","2017/11/03 18:19:06","新北市新莊區中正路190號","121.449828333333","25.035535","6500500","新莊區"
"242046","172-VK","2017/11/03 18:18:53","新北市新莊區民安路46號","121.422575","25.0275","6500500","新莊區"
"242015","175-VK","2017/11/03 18:19:01","新北市新莊區中和街114號","121.447521666667","25.0475083333333","6500500","新莊區"
"242002","176-VK","2017/11/03 18:18:58","新北市新莊區環漢路二段385號","121.451183333333","25.0326966666667","6500500","新莊區"
"242001","233-RS","2017/11/03 08:28:36","新北市新莊區環河路48-7號","121.436891666667","25.0097866666667","6500500","新莊區"
"242056","349-TH","2017/11/03 18:19:03","新北市新莊區新泰路3巷33號","121.449028333333","25.0320783333333","6500500","新莊區"
"242011","351-TH","2017/11/03 18:18:55","新北市新莊區中港路中慶巷27弄13號","121.450171666667","25.053255","6500500","新莊區"
"238015","755-BX","2017/11/03 18:19:00","新北市樹林區啟智街86巷13號","121.418161666667","24.9908133333333","6500700","樹林區"
"238023","601-UM","2017/11/03 18:19:13","新北市樹林區福興街17號","121.404341666667","25.01627","6500700","樹林區"
"238019","599-UM","2017/11/03 18:19:02","新北市樹林區八德街119號","121.421571666667","24.9799816666667","6500700","樹林區"
"238018","571-TV","2017/11/03 18:19:03","新北市樹林區博愛一街23號","121.425496666667","24.99106","6500700","樹林區"
"238024","5061-A6","2017/11/03 18:18:56","新北市樹林區立仁街4號","121.422885","24.9887483333333","6500700","樹林區"
"238021","KEA-2217","2017/11/03 18:19:00","新北市樹林區柑園街二段22號","121.387585","24.955655","6500700","樹林區"
"238025","303-VK","2017/11/03 18:18:55","新北市樹林區保安街一段223號","121.420381666667","24.9964066666667","6500700","樹林區"
"238017","283-BY","2017/11/03 18:19:09","新北市樹林區中正路675號","121.412015","25.013395","6500700","樹林區"
"238014","282-BY","2017/11/03 18:19:04","新北市樹林區大安路111巷25號","121.423221666667","24.99767","6500700","樹林區"
"238020","268-VK","2017/11/03 18:19:08","新北市樹林區三龍街94巷5號","121.414446666667","25.01824","6500700","樹林區"
"238026","172-UY","2017/11/03 18:19:00","新北市樹林區柑園街72巷8-1號","121.392793333333","24.9696533333333","6500700","樹林區"
"238016","169-UY","2017/11/03 18:18:56","新北市樹林區文化街28號","121.419296666667","24.9877883333333","6500700","樹林區"
"239007","AAC-297","2017/11/03 18:18:58","新北市鶯歌區重慶街82-1號","121.348881666667","24.9519983333333","6500800","鶯歌區"
"239006","891-R6","2017/11/03 18:19:03","新北市鶯歌區德昌街5-2號","121.333711666667","24.9605066666667","6500800","鶯歌區"
"239008","527-UM","2017/11/03 18:18:53","新北市鶯歌區朝陽街2號","121.336216666667","24.9765666666667","6500800","鶯歌區"
"239005","526-UM","2017/11/03 18:18:57","新北市鶯歌區鳳吉三街27號","121.327163333333","24.9737933333333","6500800","鶯歌區"
"239001","417-VK","2017/11/03 18:18:58","新北市鶯歌區國中街195號","121.338266666667","24.939185","6500800","鶯歌區"
"239003","360-BY","2017/11/03 18:19:09","新北市鶯歌區福安街13巷1號","121.335686666667","24.9653433333333","6500800","鶯歌區"
"239002","359-BY","2017/11/03 18:19:10","新北市鶯歌區中正一路143號","121.352415","24.95627","6500800","鶯歌區"
"239004","193-VK","2017/11/03 18:19:08","新北市鶯歌區尖山路240巷21弄8號","121.342616666667","24.9476766666667","6500800","鶯歌區"
"221008","489-VK","2017/11/03 18:18:55","新北市汐止區連峰街3巷1號","121.647678333333","25.0761916666667","6501100","汐止區"
"221036","130-UY","2017/11/03 18:19:00","新北市汐止區長安路71號","121.668898333333","25.078455","6501100","汐止區"
"221015","131-UY","2017/11/03 18:19:06","新北市汐止區鄉長路二段16號","121.668613333333","25.08143","6501100","汐止區"
"221010","269-BY","2017/11/03 18:19:01","新北市汐止區祥雲街32號","121.647031666667","25.0898866666667","6501100","汐止區"
"221012","276-VK","2017/11/03 13:13:45","新北市汐止區汐萬路一段256巷3號","121.65345","25.074585","6501100","汐止區"
"221012","278-VK","2017/11/03 18:19:06","新北市汐止區保長路31號","121.67256","25.079625","6501100","汐止區"
"221023","279-VK","2017/11/03 18:18:54","新北市汐止區中興路228巷1號","121.630701666667","25.0674616666667","6501100","汐止區"
"221032","280-BY","2017/11/03 18:19:00","新北市汐止區力行街12巷5號","121.616661666667","25.051155","6501100","汐止區"
"221027","281-BY","2017/11/03 18:18:59","新北市汐止區和平街34-1號","121.662753333333","25.0708333333333","6501100","汐止區"
"221029","298-VK","2017/11/03 18:19:08","新北市汐止區樟樹二路330巷72-1號","121.642991666667","25.0699433333333","6501100","汐止區"
"221021","299-VK","2017/11/03 18:19:09","新北市汐止區龍安路202巷47號","121.65264","25.063815","6501100","汐止區"
"221031","353-TW","2017/11/03 18:18:58","新北市汐止區中興路158號","121.63234","25.0649816666667","6501100","汐止區"
"221002","358-BY","2017/11/03 18:18:51","新北市汐止區福德一路201巷27號","121.635916666667","25.0647133333333","6501100","汐止區"
"221035","622-UM","2017/11/03 18:19:03","新北市汐止區大同路二段187巷8弄5號","121.652703333333","25.0656183333333","6501100","汐止區"
"221025","623-UM","2017/11/03 18:19:04","新北市汐止區秀峰路143號","121.660373333333","25.06227","6501100","汐止區"
"221038","646-BX","2017/11/03 18:18:57","新北市汐止區仁愛路320號","121.66476","25.067555","6501100","汐止區"
"221033","647-BX","2017/11/03 18:19:09","新北市汐止區宜興街57號","121.62282","25.042745","6501100","汐止區"
"221018","753-BX","2017/11/03 18:18:57","新北市汐止區茄苳路118號","121.66805","25.0701966666667","6501100","汐止區"
"220082","610-BX","2017/11/03 18:18:56","新北市板橋區華東街1-10號","121.44823","24.9950366666667","6500100","板橋區"
"220062","303-R5","2017/11/03 18:18:53","新北市板橋區民生路二段120號","121.47049","25.0196033333333","6500100","板橋區"
"220064","486-VK","2017/11/03 18:19:01","新北市板橋區板城路421號","121.448621666667","24.996105","6500100","板橋區"
