"lineid","car","time","location","longitude","latitude","cityid","cityname"
"234046","148-BY","2017/11/03 19:39:06","新北市永和區秀朗路二段97號","121.52331","25.001715","6500400","永和區"
"234013","149-BY","2017/11/03 19:39:04","新北市永和區仁愛路186巷2號","121.509981666667","25.0126033333333","6500400","永和區"
"234007","207-UY","2017/11/03 19:38:55","新北市永和區永和路一段2號","121.512776666667","25.0044583333333","6500400","永和區"
"234081","298-R6","2017/11/03 19:39:10","新北市永和區林森路48巷2號","121.524813333333","25.004625","6500400","永和區"
"234038","336-UY","2017/11/03 19:39:04","新北市永和區成功路二段3號","121.52686","25.0014466666667","6500400","永和區"
"234064","337-UY","2017/11/03 19:38:52","新北市永和區秀朗路一段192巷6弄14號","121.51909","25.00231","6500400","永和區"
"234086","338-UY","2017/11/03 19:39:05","新北市永和區林森路29巷10號","121.526276666667","25.00476","6500400","永和區"
"234070","552-UM","2017/11/03 19:39:13","新北市永和區永和路二段234號","121.515855","25.0145816666667","6500400","永和區"
"234054","553-UM","2017/11/03 19:39:03","新北市永和區竹林路39巷8號","121.518233333333","25.0144183333333","6500400","永和區"
"234017","745-BX","2017/11/03 19:38:58","新北市永和區文化路90巷32弄7號","121.513348333333","25.0169333333333","6500400","永和區"
"234030","746-BX","2017/11/03 19:38:52","新北市永和區民生路37巷9號","121.523811666667","24.9980666666667","6500400","永和區"
"234061","AAD-866","2017/11/03 19:39:03","新北市永和區中正路456號","121.517418333333","25.0029233333333","6500400","永和區"
"234042","862-TW","2017/11/03 19:39:09","新北市永和區中和路305巷2弄1號","121.506663333333","25.0000716666667","6500400","永和區"
"234050","863-TW","2017/11/03 19:39:07","新北市永和區保安路45號","121.509633333333","25.0159316666667","6500400","永和區"
"234026","9371-KE","2017/11/03 19:39:07","新北市永和區中和路501巷5號","121.510465","25.0026883333333","6500400","永和區"
"234011","9373-KE","2017/11/03 19:39:04","新北市永和區保生路55號","121.504711666667","25.0106166666667","6500400","永和區"
"249002","305-UY","2017/11/03 19:38:45","新北市八里區頂寮二街42號","121.45045","25.125215","6502300","八里區"
"249003","593-UM","2017/11/03 19:39:10","新北市八里區華峰三街33巷6號","121.399443333333","25.1456683333333","6502300","八里區"
"248016","026-BX","2017/11/03 19:38:56","新北市五股區成泰路三段476號","121.451841666667","25.1014766666667","6501500","五股區"
"248008","095-VK","2017/11/03 19:38:57","新北市五股區四維路116-2號","121.467865","25.0745516666667","6501500","五股區"
"248018","225-UY","2017/11/03 19:38:19","新北市五股區外寮路1-1號","121.425751666667","25.0767733333333","6501500","五股區"
"248012","247-BX","2017/11/03 19:38:54","新北市五股區民義路一段48號","121.436923333333","25.084815","6501500","五股區"
"248014","261-SL","2017/11/03 19:39:08","新北市五股區民義路一段183巷9-3號","121.430055","25.0866066666667","6501500","五股區"
"248010","272-BY","2017/11/03 19:39:00","新北市五股區水碓一路23號","121.430653333333","25.07129","6501500","五股區"
"248004","677-BX","2017/11/03 19:38:59","新北市五股區工商路76號","121.438316666667","25.085075","6501500","五股區"
"248002","678-BX","2017/11/03 19:38:56","新北市五股區成泰路三段577巷51號","121.450646666667","25.1032133333333","6501500","五股區"
"234023","9380-KE","2017/11/03 19:38:50","新北市永和區豫溪街57巷8弄6號","121.5176","25.0104216666667","6500400","永和區"
"234077","969-R7","2017/11/03 19:39:07","新北市永和區民族街67巷25號","121.51943","24.9971366666667","6500400","永和區"
"234074","AAC-211","2017/11/03 19:39:08","新北市永和區竹林路223號","121.520878333333","25.008555","6500400","永和區"
"234067","AAC-212","2017/11/03 19:39:06","新北市永和區中山路一段191巷7弄1號","121.509475","25.008345","6500400","永和區"
"234003","AAC-295","2017/11/03 19:39:04","新北市永和區自由街71號","121.513401666667","25.0053033333333","6500400","永和區"
"244019","403-UM","2017/11/03 19:39:08","新北市林口區四維路114號","121.377243333333","25.0781666666667","6501700","林口區"
"244023","483-VK","2017/11/03 19:39:12","新北市林口區文化北路二段234號","121.373016666667","25.0857366666667","6501700","林口區"
"243013","AAD-798","2017/11/03 19:38:56","新北市泰山區應化街13號","121.423838333333","25.0437266666667","6501600","泰山區"
"243009","297-R6","2017/11/03 19:38:55","新北市泰山區美寧街76號","121.43145","25.06464","6501600","泰山區"
"243015","380-SR","2017/11/03 19:38:55","新北市泰山區民權街15號","121.428333333333","25.0509066666667","6501600","泰山區"
"243014","421-VK","2017/11/03 19:39:08","新北市泰山區泰林路二段33-3號","121.43554","25.0566533333333","6501600","泰山區"
"243010","KEA-2215","2017/11/03 19:38:56","新北市泰山區民生路33號","121.430663333333","25.052185","6501600","泰山區"
"243011","KEA-2216","2017/11/03 19:39:07","新北市泰山區明志路三段209號","121.424083333333","25.0383483333333","6501600","泰山區"
"243012","646-TV","2017/11/03 19:38:51","新北市泰山區仁武街21號","121.433685","25.0546683333333","6501600","泰山區"
"243016","680-BX","2017/11/03 19:38:54","新北市泰山區明志路三段206巷17號","121.42237","25.0375316666667","6501600","泰山區"
"222003","436-BY","2017/11/03 19:31:40","新北市深坑區深南路51-1號","121.621141666667","25.0100866666667","6501800","深坑區"
"222002","659-BX","2017/11/03 19:38:52","新北市深坑區北深路一段177號","121.632463333333","25.0108916666667","6501800","深坑區"
"231041","002-UM","2017/11/03 19:39:00","新北市新店區中正路487號","121.533943333333","24.982095","6500600","新店區"
"231059","046-UY","2017/11/03 19:38:58","新北市新店區安和路二段211號","121.51777","24.9754516666667","6500600","新店區"
"231061","047-UY","2017/11/03 19:38:58","新北市新店區安民街143號","121.516521666667","24.969565","6500600","新店區"
"231060","106-UY","2017/11/03 19:39:10","新北市新店區安康路二段161號","121.510236666667","24.9593866666667","6500600","新店區"
"231048","108-UY","2017/11/03 19:39:09","新北市新店區五峰路61巷1號","121.548483333333","24.96978","6500600","新店區"
"231053","187-VK","2017/11/03 19:39:11","新北市新店區廣興路30-1號","121.540373333333","24.91169","6500600","新店區"
"231050","KEA-2219","2017/11/03 19:38:57","新北市新店區郵政路4巷10號","121.556236666667","24.9517816666667","6500600","新店區"
"231057","256-BX","2017/11/03 19:39:04","新北市新店區橘園一路11號","121.54794","24.9340333333333","6500600","新店區"
"231046","278-BY","2017/11/03 19:38:56","新北市新店區自由街13號","121.535525","24.97483","6500600","新店區"
"231054","AAD-862","2017/11/03 19:39:03","新北市新店區文中路40號","121.539691666667","24.9565216666667","6500600","新店區"
"231058","3712-VJ","2017/11/03 19:38:59","新北市新店區中正路102巷8弄8號","121.54374","24.97126","6500600","新店區"
"231067","4772-VM","2017/11/03 19:39:05","新北市新店區安康路一段35-1號","121.532128333333","24.960505","6500600","新店區"
"231065","512-UM","2017/11/03 19:38:54","新北市新店區安祥路109巷90弄82號","121.475906666667","24.9583383333333","6500600","新店區"
"231064","515-UM","2017/11/03 19:39:11","新北市新店區安和路一段52巷2號","121.517651666667","24.96616","6500600","新店區"
"231045","617-UM","2017/11/03 19:39:01","新北市新店區北宜路二段150-1號","121.557821666667","24.953965","6500600","新店區"
"231040","619-UM","2017/11/03 19:39:03","新北市新店區北新路一段96巷23號","121.543021666667","24.96884","6500600","新店區"
"231042","641-BX","2017/11/03 19:39:03","新北市新店區中興路一段216號","121.543928333333","24.96577","6500600","新店區"
"231063","645-TV","2017/11/03 19:39:10","新北市新店區達觀路41號","121.502083333333","24.93866","6500600","新店區"
"231049","719-UM","2017/11/03 19:38:56","新北市新店區大豐路73號","121.539206666667","24.9794616666667","6500600","新店區"
"231051","719-UY","2017/11/03 19:39:07","新北市新店區中央四街73號","121.52668","24.9756733333333","6500600","新店區"
"231062","720-UM","2017/11/03 19:38:52","新北市新店區碧潭路64號","121.534731666667","24.95714","6500600","新店區"
"231044","897-TW","2017/11/03 19:38:54","新北市新店區順安街3號","121.540983333333","24.9850533333333","6500600","新店區"
"231043","899-TW","2017/11/03 19:38:58","新北市新店區中正路125號","121.542046666667","24.97124","6500600","新店區"
"231066","AKT-0513","2017/11/03 19:38:59","新北市新店區安康路二段341巷38號","121.496626666667","24.9543416666667","6500600","新店區"
"241028","022-UY","2017/11/03 19:39:03","新北市三重區中正南路196號","121.493918333333","25.05603","6500200","三重區"
"241015","059-VK","2017/11/03 19:39:09","新北市三重區福德北路34號","121.502093333333","25.0651666666667","6500200","三重區"
"241009","060-VK","2017/11/03 19:39:00","新北市三重區三和路四段406巷27號","121.480223333333","25.0796316666667","6500200","三重區"
"241031","061-VK","2017/11/03 19:39:11","新北市三重區重新路四段240號","121.486061666667","25.0535666666667","6500200","三重區"
"241017","063-VK","2017/11/03 19:39:00","新北市三重區大仁街5號","121.491623333333","25.0638566666667","6500200","三重區"
"241026","066-VK","2017/11/03 19:39:05","新北市三重區文化南路61號","121.50006","25.0609266666667","6500200","三重區"
"241008","156-TC","2017/11/03 19:38:59","新北市三重區永福街133號","121.47872","25.0768233333333","6500200","三重區"
"241029","265-UM","2017/11/03 19:39:12","新北市三重區同安街145號","121.493086666667","25.0560433333333","6500200","三重區"
"241022","267-UM","2017/11/03 19:38:55","新北市三重區中正北路109號","121.484835","25.0658966666667","6500200","三重區"
"241032","269-UM","2017/11/03 19:39:08","新北市三重區重陽路一段60巷35號","121.485066666667","25.0583133333333","6500200","三重區"
"241013","270-UM","2017/11/03 19:39:11","新北市三重區仁愛街129巷4號","121.495895","25.0750966666667","6500200","三重區"
"241025","271-UM","2017/11/03 19:38:56","新北市三重區忠孝路三段93巷12號","121.47864","25.06493","6500200","三重區"
"241007","398-BY","2017/11/03 19:39:04","新北市三重區三和路四段125巷62號","121.486823333333","25.07849","6500200","三重區"
"241020","413-TH","2017/11/03 19:38:59","新北市三重區自強路三段43巷10號","121.487345","25.07291","6500200","三重區"
"241019","478-VK","2017/11/03 19:39:07","新北市三重區六張街194巷1弄17號","121.488025","25.0681533333333","6500200","三重區"
"241030","480-VK","2017/11/03 19:39:02","新北市三重區新興路28巷8號","121.49183","25.0530016666667","6500200","三重區"
"241014","543-UM","2017/11/03 19:38:53","新北市三重區河邊北街82號","121.504228333333","25.0689966666667","6500200","三重區"
"241023","545-UM","2017/11/03 19:39:05","新北市三重區忠孝路三段99巷22號","121.479435","25.0642583333333","6500200","三重區"
"241001","547-UM","2017/11/03 19:39:06","新北市三重區仁愛街315巷7號","121.493133333333","25.0795333333333","6500200","三重區"
"241006","AAD-863","2017/11/03 19:38:57","新北市三重區車路頭街78號","121.48428","25.0740116666667","6500200","三重區"
"241035","743-BX","2017/11/03 19:39:04","新北市三重區信義西街1號","121.498058333333","25.0646766666667","6500200","三重區"
"241012","941-UM","2017/11/03 19:38:53","新北市三重區河邊北街256巷21號","121.50085","25.0760633333333","6500200","三重區"
"235066","003-UY","2017/11/03 19:38:57","新北市中和區中和路174號","121.504613333333","24.9997016666667","6500300","中和區"
"235064","005-UY","2017/11/03 19:39:00","新北市中和區南山路127巷18弄1號","121.503538333333","24.9974766666667","6500300","中和區"
"235063","006-UY","2017/11/03 19:39:08","新北市中和區連城路203巷10弄2號","121.495016666667","24.9973316666667","6500300","中和區"
"235056","096-UM","2017/11/03 19:39:04","新北市中和區員山路581巷31弄20號","121.47683","25.0103683333333","6500300","中和區"
"235039","097-UM","2017/11/03 19:39:01","新北市中和區秀峰街119巷8弄14號","121.519075","24.98996","6500300","中和區"
"235065","098-UM","2017/11/03 19:38:56","新北市中和區永和路39巷2號","121.498025","25.0050316666667","6500300","中和區"
"235040","150-BY","2017/11/03 19:38:54","新北市中和區保健路67巷3弄4號","121.509855","24.99753","6500300","中和區"
"235058","151-BY","2017/11/03 19:39:05","新北市中和區員山路124巷2號","121.481476666667","24.9958883333333","6500300","中和區"
"235055","183-VK","2017/11/03 19:39:05","新北市中和區中山路三段177號","121.472798333333","25.0060933333333","6500300","中和區"
"235038","185-VK","2017/11/03 19:38:47","新北市中和區立人街69巷11號","121.520305","24.9933633333333","6500300","中和區"
"235049","186-VK","2017/11/03 19:39:08","新北市中和區明仁街6巷3號","121.506071666667","24.9953416666667","6500300","中和區"
"235067","255-BX","2017/11/03 19:39:05","新北市中和區新生街220巷4號","121.482871666667","24.998565","6500300","中和區"
"235044","293-VK","2017/11/03 19:39:00","新北市中和區興南路一段77號","121.51004","24.9891216666667","6500300","中和區"
"235072","301-VK","2017/11/03 19:39:05","新北市中和區連城路263巷8弄7號","121.491748333333","24.9952216666667","6500300","中和區"
"235043","352-BY","2017/11/03 19:38:59","新北市中和區安樂路16號","121.511785","24.991995","6500300","中和區"
"235068","377-QA","2017/11/03 19:38:58","新北市中和區景平路493巷12弄9號","121.498863333333","24.997245","6500300","中和區"
"235061","378-QA","2017/11/03 19:38:52","新北市中和區民安街5號","121.480786666667","25.0008516666667","6500300","中和區"
"235071","269-TV","2017/11/03 19:39:01","新北市中和區民樂路81號","121.484561666667","25.0013083333333","6500300","中和區"
"235050","4979-A6","2017/11/03 19:39:08","新北市中和區錦和路350-1號","121.490516666667","24.993615","6500300","中和區"
"235042","551-UM","2017/11/03 19:38:50","新北市中和區中和路262巷33號","121.509648333333","24.9994533333333","6500300","中和區"
"235070","558-UM","2017/11/03 19:39:08","新北市中和區景平路628號","121.500241666667","24.997825","6500300","中和區"
"235045","565-BX","2017/11/03 19:38:59","新北市中和區景新街383巷83號","121.514253333333","24.991035","6500300","中和區"
"235054","640-BX","2017/11/03 19:38:58","新北市中和區國光街102巷11弄1號","121.470681666667","25.0007566666667","6500300","中和區"
"235047","732-UM","2017/11/03 19:39:08","新北市中和區景安路187號","121.504886666667","24.99304","6500300","中和區"
"235046","733-UM","2017/11/03 19:38:51","新北市中和區忠孝街108-4號","121.51218","24.9850683333333","6500300","中和區"
"235062","800-TS","2017/11/03 19:38:58","新北市八里區中山路三段365號","121.373585","25.1383033333333","6500300","中和區"
"235057","801-TS","2017/11/03 19:39:08","新北市中和區員山路238號","121.481323333333","25.0012033333333","6500300","中和區"
"235041","802-TS","2017/11/03 19:39:02","新北市中和區永貞路272號","121.513525","25.00385","6500300","中和區"
"235052","805-TS","2017/11/03 19:39:07","新北市中和區華新街192巷10號","121.506591666667","24.982685","6500300","中和區"
"235048","896-TW","2017/11/03 19:38:50","新北市中和區忠孝街1巷2-1號","121.509108333333","24.9830133333333","6500300","中和區"
"235053","900-TW","2017/11/03 19:39:04","新北市中和區國光街142巷3號","121.468201666667","25.0015933333333","6500300","中和區"
"235060","911-UM","2017/11/03 19:39:06","新北市中和區新生街114巷27號","121.482798333333","25.002345","6500300","中和區"
"235037","157-BY","2017/11/03 19:38:55","新北市中和區板南路132號","121.502386666667","24.9925333333333","6500300","中和區"
"235037","AAC-213","2017/11/03 19:38:56","新北市中和區秀朗路三段10巷29弄5號","121.52508","24.9960333333333","6500300","中和區"
"235059","AAC-215","2017/11/03 19:38:54","新北市中和區圓通路262號","121.493093333333","24.99094","6500300","中和區"
"220068","013-TV","2017/11/03 19:39:09","新北市板橋區中山路二段555號","121.483951666667","25.0217583333333","6500100","板橋區"
"220065","072-UY","2017/11/03 19:39:03","新北市板橋區國泰街2號","121.469196666667","25.006845","6500100","板橋區"
"220086","073-UY","2017/11/03 19:39:07","新北市板橋區中正路236巷118號","121.459473333333","25.0195466666667","6500100","板橋區"
"220106","075-UY","2017/11/03 19:39:08","新北市板橋區江寧路三段67號","121.472073333333","25.0322533333333","6500100","板橋區"
"220069","AAD-861","2017/11/03 19:38:59","新北市板橋區稚暉街42號","121.456176666667","25.00437","6500100","板橋區"
"247004","336-TH","2017/11/03 19:39:01","新北市蘆洲區中華街6巷16號","121.463048333333","25.0820466666667","6501400","蘆洲區"
"247008","053-VK","2017/11/03 19:38:56","新北市蘆洲區中山一路174號","121.474421666667","25.0812533333333","6501400","蘆洲區"
"226004","205-ST","2017/11/03 19:38:59","新北市平溪區靜安路三段392巷3號","121.784711666667","25.049635","6502400","平溪區"
"223003","205-TH","2017/11/03 09:51:14","新北市石碇區小粗坑(潭邊里)9-2號","121.678881666667","24.9863","6501900","石碇區"
"228003","097-TW","2017/11/03 19:39:05","新北市貢寮區真理里美艷山街53-2號","121.923216666667","25.0693","6502600","貢寮區"
"228001","670-TC","2017/11/03 19:39:02","新北市貢寮區真理里延平街61號","121.924616666667","25.0557066666667","6502600","貢寮區"
"224010","AGQ-8101","2017/11/03 19:38:41","新北市瑞芳區基山街4號","121.845165","25.10975","6501200","瑞芳區"
"224002","639-TC","2017/11/03 19:39:08","新北市瑞芳區民享新村2號","121.817416666667","25.1055116666667","6501200","瑞芳區"
"227011","642-TC","2017/11/03 19:39:00","新北市雙溪區新基里新基北街22號","121.867201666667","25.0389466666667","6502500","雙溪區"
"227003","400-TW","2017/11/03 19:39:01","新北市雙溪區雙溪里太平路54號","121.864688333333","25.0353733333333","6502500","雙溪區"
"222001","KEA-2212","2017/11/03 19:38:54","新北市深坑區深坑街148號","121.613013333333","25.0015183333333","6501800","深坑區"
"208002","742-BX","2017/11/03 19:39:06","新北市金山區三民街15號","121.63465","25.2228166666667","6502700","金山區"
"208003","665-BX","2017/11/03 19:38:56","新北市金山區仁愛路15號","121.63768","25.2193666666667","6502700","金山區"
"208001","761-BX","2017/11/03 19:39:06","新北市金山區重和里六股林口25號","121.603341666667","25.2192383333333","6502700","金山區"
"251004","009-UM","2017/11/03 19:38:53","新北市淡水區中正東路二段143巷2弄1號","121.460686666667","25.1472733333333","6501000","淡水區"
"251013","180-VK","2017/11/03 19:38:52","新北市淡水區店子後9號","121.459951666667","25.2189866666667","6501000","淡水區"
"251008","181-VK","2017/11/03 19:39:01","新北市淡水區中正路32巷10號","121.430151666667","25.1755366666667","6501000","淡水區"
"251010","413-VK","2017/11/03 19:39:03","新北市淡水區崁頂三路115號","121.431483333333","25.201","6501000","淡水區"
"251012","441-VK","2017/11/03 19:39:06","新北市淡水區中山北路三段164號","121.44562","25.1966683333333","6501000","淡水區"
"251005","443-VK","2017/11/03 19:39:10","新北市淡水區原德路123號","121.443105","25.1733116666667","6501000","淡水區"
"251001","559-UM","2017/11/03 19:38:58","新北市淡水區民權路51號","121.459721666667","25.1390216666667","6501000","淡水區"
"251006","561-UM","2017/11/03 19:39:05","新北市淡水區中山北路一段207巷46號","121.442588333333","25.17931","6501000","淡水區"
"251009","575-R6","2017/11/03 19:38:59","新北市淡水區中山北路一段196號","121.444751666667","25.179385","6501000","淡水區"
"251007","577-R6","2017/11/03 19:39:08","新北市淡水區中正東路一段111巷27-1號","121.455466666667","25.1608116666667","6501000","淡水區"
"251011","650-BX","2017/11/03 19:39:08","新北市淡水區八勢一街77號","121.461328333333","25.154915","6501000","淡水區"
"207003","550-UM","2017/11/03 19:39:03","新北市萬里區大鵬里下社49號","121.648711666667","25.2161","6502800","萬里區"
"207004","225-TW","2017/11/03 19:39:00","新北市萬里區萬里里瑪鋉路5號","121.686775","25.1751266666667","6502800","萬里區"
"252002","178-VK","2017/11/03 19:39:01","新北市三芝區中正路一段36巷25號","121.504135","25.2587916666667","6502100","三芝區"
"252001","292-VK","2017/11/03 19:38:51","新北市三芝區公正街9號","121.499776666667","25.2574866666667","6502100","三芝區"
"237004","078-UY","2017/11/03 19:39:06","新北市三峽區插角24號","121.403413333333","24.87292","6500900","三峽區"
"237007","153-BY","2017/11/03 19:39:07","新北市三峽區二鬮路178號","121.359063333333","24.9068383333333","6500900","三峽區"
"237009","210-TH","2017/11/03 19:39:02","新北市三峽區中園街79號","121.367951666667","24.925175","6500900","三峽區"
"237012","275-BY","2017/11/03 19:38:55","新北市三峽區介壽路一段52-5號","121.375861666667","24.9319466666667","6500900","三峽區"
"237008","302-VK","2017/11/03 19:39:06","新北市三峽區安溪路337號","121.370258333333","24.92676","6500900","三峽區"
"237014","433-BY","2017/11/03 19:39:06","新北市三峽區添福141-13號","121.374228333333","24.9010216666667","6500900","三峽區"
"237015","649-BX","2017/11/03 19:38:58","新北市三峽區溪東路182號","121.407011666667","24.9324866666667","6500900","三峽區"
"237010","706-TV","2017/11/03 19:39:03","新北市三峽區隆恩街162號","121.365763333333","24.9436766666667","6500900","三峽區"
"237005","AKY-6261","2017/11/03 19:38:55","新北市三峽區中山路167-1號","121.364393333333","24.9365866666667","6500900","三峽區"
"236072","105-UM","2017/11/03 19:39:06","新北市土城區學士路28號","121.452868333333","24.9822566666667","6501300","土城區"
"236043","107-UM","2017/11/03 19:38:59","新北市土城區學士路31號","121.45298","24.9822666666667","6501300","土城區"
"236001","138-TH","2017/11/03 14:15:24","新北市土城區永平街51號","121.427995","24.95918","6501300","土城區"
"236079","166-UM","2017/11/03 19:39:11","新北市土城區中州路27巷1號","121.413721666667","24.9577833333333","6501300","土城區"
"236031","253-BX","2017/11/03 19:39:02","新北市土城區福祥街64號","121.441563333333","24.9815483333333","6501300","土城區"
"236027","269-VK","2017/11/03 19:38:51","新北市土城區中央路二段61巷20號","121.443153333333","24.9787766666667","6501300","土城區"
"236039","271-VK","2017/11/03 19:39:10","新北市土城區清水路98巷3弄29號","121.458251666667","24.9808616666667","6501300","土城區"
"236022","401-BY","2017/11/03 19:39:06","新北市土城區金城路三段200-5號","121.468928333333","24.9875433333333","6501300","土城區"
"236050","752-BX","2017/11/03 19:39:09","新北市土城區明德路一段66號","121.465483333333","24.9832983333333","6501300","土城區"
"236063","915-UM","2017/11/03 19:39:01","新北市土城區延平街19號","121.468215","24.99119","6501300","土城區"
"236055","AAC-216","2017/11/03 19:39:00","新北市土城區學府路一段185號","121.452211666667","24.9850966666667","6501300","土城區"
"242032","AAC-296","2017/11/03 19:39:07","新北市新莊區新泰路213巷56號","121.444875","25.03843","6500500","新莊區"
"242025","615-BX","2017/11/03 19:39:06","新北市新莊區中山路一段333號","121.451825","25.0595766666667","6500500","新莊區"
"242005","413-TV","2017/11/03 19:38:54","新北市新莊區化成路13號","121.464878333333","25.043385","6500500","新莊區"
"242001","233-RS","2017/11/03 08:28:36","新北市新莊區環河路48-7號","121.436891666667","25.0097866666667","6500500","新莊區"
"242013","346-TH","2017/11/03 19:38:58","新北市新莊區中誠街123號","121.44937","25.0475166666667","6500500","新莊區"
"242017","347-TH","2017/11/03 19:38:53","新北市新莊區新泰路351號","121.444496666667","25.0422683333333","6500500","新莊區"
"238015","755-BX","2017/11/03 19:38:54","新北市樹林區日新街117號","121.421318333333","24.9896716666667","6500700","樹林區"
"238023","601-UM","2017/11/03 19:38:53","新北市樹林區三福街114號","121.406435","25.016335","6500700","樹林區"
"238018","571-TV","2017/11/03 19:39:03","新北市樹林區八德街435號","121.40643","24.9694483333333","6500700","樹林區"
"238024","5061-A6","2017/11/03 19:38:56","新北市樹林區中山路三段80號","121.393478333333","24.9723066666667","6500700","樹林區"
"238021","KEA-2217","2017/11/03 19:38:59","新北市三峽區大義路398號","121.376336666667","24.9495816666667","6500700","樹林區"
"238022","KEA-2213","2017/11/03 19:39:03","新北市樹林區名園街65號","121.420171666667","24.977845","6500700","樹林區"
"238025","303-VK","2017/11/03 19:38:54","新北市樹林區中山路二段110號","121.41418","24.9834266666667","6500700","樹林區"
"238017","283-BY","2017/11/03 19:39:09","新北市樹林區保安街二段107巷1弄5號","121.415113333333","25.0009216666667","6500700","樹林區"
"238014","282-BY","2017/11/03 19:39:04","新北市樹林區千歲街28巷17號","121.426215","24.9957016666667","6500700","樹林區"
"238020","268-VK","2017/11/03 19:39:08","新北市樹林區俊英街168-3號","121.42638","25.0071116666667","6500700","樹林區"
"239006","891-R6","2017/11/03 19:39:03","新北市樹林區中山路三段210-2號","121.38068","24.9667516666667","6500800","鶯歌區"
"239002","359-BY","2017/11/03 19:39:10","新北市鶯歌區中正一路332號","121.357496666667","24.9570566666667","6500800","鶯歌區"
"221008","489-VK","2017/11/03 19:38:53","新北市汐止區康寧街61巷31號","121.619448333333","25.0674933333333","6501100","汐止區"
"221036","130-UY","2017/11/03 19:39:00","新北市汐止區汐萬路一段256巷1號","121.651766666667","25.0748833333333","6501100","汐止區"
"221015","131-UY","2017/11/03 19:38:51","新北市汐止區康寧街901號","121.651328333333","25.07506","6501100","汐止區"
"221010","269-BY","2017/11/03 19:39:01","新北市汐止區汐萬路二段40-1號","121.649556666667","25.081265","6501100","汐止區"
"221012","276-VK","2017/11/03 13:13:45","新北市汐止區汐萬路一段256巷3號","121.65345","25.074585","6501100","汐止區"
"221012","278-VK","2017/11/03 19:39:06","新北市汐止區汐平路一段5號","121.680775","25.0712433333333","6501100","汐止區"
"221023","279-VK","2017/11/03 19:39:10","新北市汐止區中興路272號","121.628806666667","25.06896","6501100","汐止區"
"221032","280-BY","2017/11/03 19:39:00","新北市汐止區新台五路一段131號","121.652115","25.0622583333333","6501100","汐止區"
"221027","281-BY","2017/11/03 19:38:59","新北市汐止區忠孝東路9號","121.658438333333","25.0659766666667","6501100","汐止區"
"221029","298-VK","2017/11/03 19:39:08","新北市汐止區康寧街901號","121.651663333333","25.074895","6501100","汐止區"
"221021","299-VK","2017/11/03 19:39:09","新北市汐止區大同路二段187巷53號","121.652113333333","25.0663416666667","6501100","汐止區"
"221031","353-TW","2017/11/03 19:38:57","新北市汐止區福德三路127號","121.633631666667","25.0676","6501100","汐止區"
"221002","358-BY","2017/11/03 19:39:11","新北市汐止區大同路一段333號","121.638371666667","25.0593333333333","6501100","汐止區"
"221025","623-UM","2017/11/03 19:39:04","新北市汐止區福安街20巷1號","121.662586666667","25.0650033333333","6501100","汐止區"
"221038","646-BX","2017/11/03 19:38:56","新北市汐止區忠孝東路222號","121.66222","25.0667033333333","6501100","汐止區"
"221033","647-BX","2017/11/03 19:39:08","新北市汐止區南勢街1巷1號","121.627018333333","25.0373966666667","6501100","汐止區"
"221018","753-BX","2017/11/03 19:38:57","新北市汐止區康寧街901號","121.651333333333","25.0750116666667","6501100","汐止區"
"220079","145-BY","2017/11/03 19:39:11","新北市板橋區建國街54巷19號","121.459585","25.0169733333333","6500100","板橋區"
"220080","200-UY","2017/11/03 19:39:09","新北市板橋區大觀路二段37巷258號","121.449938333333","25.0019466666667","6500100","板橋區"
"220082","610-BX","2017/11/03 19:39:04","新北市板橋區金門街106號","121.433035","24.9920966666667","6500100","板橋區"
"220101","245-BX","2017/11/03 19:39:01","新北市板橋區縣民大道三段33巷1弄13號","121.473481666667","25.020445","6500100","板橋區"
"220056","276-BY","2017/11/03 19:39:07","新北市板橋區四川路二段47巷4弄2號","121.454163333333","24.9947116666667","6500100","板橋區"
"220072","277-BY","2017/11/03 19:39:02","新北市板橋區金門街253巷17弄1號","121.433238333333","24.9886783333333","6500100","板橋區"
"220071","283-VK","2017/11/03 19:39:05","新北市板橋區四川路一段325巷20號","121.459315","25.0001966666667","6500100","板橋區"
"220094","285-UM","2017/11/03 19:38:51","新北市板橋區銘傳街96-3號","121.469623333333","25.031565","6500100","板橋區"
"220053","285-VK","2017/11/03 19:38:59","新北市板橋區中山路二段148巷29號","121.477251666667","25.0161866666667","6500100","板橋區"
"220083","286-VK","2017/11/03 19:38:58","新北市板橋區龍興街71巷3號","121.443626666667","25.0018783333333","6500100","板橋區"
"220081","287-VK","2017/11/03 19:39:08","新北市板橋區大觀路一段75巷5號","121.447483333333","25.0044666666667","6500100","板橋區"
"220090","288-VK","2017/11/03 19:39:00","新北市板橋區長江路一段48巷12號","121.459468333333","25.027975","6500100","板橋區"
"220061","295-UM","2017/11/03 19:39:11","新北市板橋區中山路一段265巷16號","121.468623333333","25.0146283333333","6500100","板橋區"
"220084","296-UM","2017/11/03 19:38:53","新北市板橋區滿平街84巷102號","121.426581666667","24.9866783333333","6500100","板橋區"
"220075","297-UM","2017/11/03 19:39:08","新北市板橋區大勇街59號","121.453521666667","25.0168883333333","6500100","板橋區"
"220062","303-R5","2017/11/03 19:38:53","新北市板橋區三民路二段81巷27弄28號","121.481295","25.0177366666667","6500100","板橋區"
"220092","307-R5","2017/11/03 19:39:07","新北市板橋區文化路一段407號","121.4674","25.0221583333333","6500100","板橋區"
"220098","317-R6","2017/11/03 19:39:04","新北市板橋區四維路269巷16號","121.462453333333","25.0281216666667","6500100","板橋區"
"220064","486-VK","2017/11/03 19:39:00","新北市板橋區館前東路3號","121.459655","25.0073116666667","6500100","板橋區"
"220089","487-VK","2017/11/03 19:39:08","新北市板橋區建國街118號","121.460898333333","25.0174566666667","6500100","板橋區"
"220088","491-VK","2017/11/03 19:39:07","新北市板橋區民治街1號","121.477131666667","25.0345433333333","6500100","板橋區"
"220035","560-BX","2017/11/03 19:38:57","新北市板橋區新生街88巷7號","121.458395","25.021455","6500100","板橋區"
"220103","561-BX","2017/11/03 19:39:01","新北市板橋區文化路一段288號","121.46738","25.0214416666667","6500100","板橋區"
"220063","609-BX","2017/11/03 19:39:08","新北市板橋區中山路二段531巷17弄11號","121.482475","25.0219083333333","6500100","板橋區"
"220091","637-BX","2017/11/03 19:38:52","新北市板橋區懷德街139巷20弄6-2號","121.48008","25.03069","6500100","板橋區"
"220057","686-BX","2017/11/03 19:38:59","新北市板橋區和平路45號","121.460151666667","24.994525","6500100","板橋區"
"220077","687-BX","2017/11/03 19:39:01","新北市板橋區僑中一街150號","121.444646666667","25.012035","6500100","板橋區"
"220093","689-BX","2017/11/03 19:39:09","新北市板橋區新海路454號","121.457748333333","25.0280316666667","6500100","板橋區"
"220054","741-BX","2017/11/03 19:38:57","新北市中和區德光路120號","121.467981666667","25.0038783333333","6500100","板橋區"
"220055","827-TW","2017/11/03 19:39:07","新北市板橋區重慶路290巷2號","121.463098333333","24.9989666666667","6500100","板橋區"
"220067","829-TW","2017/11/03 19:38:59","新北市板橋區長安街138巷1弄5號","121.473083333333","25.009695","6500100","板橋區"
"220102","830-TW","2017/11/03 19:39:09","新北市板橋區雙十路二段70巷2號","121.475523333333","25.02823","6500100","板橋區"
"220096","831-TW","2017/11/03 19:38:55","新北市板橋區民生路二段234巷9號","121.46845","25.0228066666667","6500100","板橋區"
"220074","895-R6","2017/11/03 19:39:03","新北市板橋區福德街16-3號","121.456098333333","25.0087983333333","6500100","板橋區"
"220073","985-R7","2017/11/03 19:38:58","新北市板橋區國光路49巷13號","121.458758333333","25.0187266666667","6500100","板橋區"
"220097","AAC-210","2017/11/03 19:38:56","新北市板橋區漢生西路151巷1號","121.463135","25.0221883333333","6500100","板橋區"
"220070","AAC-253","2017/11/03 19:39:05","新北市板橋區民族路298號","121.470505","25.00677","6500100","板橋區"
