"lineid","car","time","location","longitude","latitude","cityid","cityname"
"234013","149-BY","2017/11/03 20:19:04","新北市永和區仁愛路264號","121.504395","25.008825","6500400","永和區"
"234081","298-R6","2017/11/03 20:19:09","新北市永和區福和路61號","121.522915","25.00777","6500400","永和區"
"234038","336-UY","2017/11/03 20:19:04","新北市永和區成功路一段93巷23弄1號","121.528696666667","25.002825","6500400","永和區"
"234064","337-UY","2017/11/03 20:18:52","新北市永和區得和路116號","121.518535","24.999885","6500400","永和區"
"234086","338-UY","2017/11/03 20:19:12","新北市永和區永和路二段8號","121.514588333333","25.0103033333333","6500400","永和區"
"234070","552-UM","2017/11/03 20:19:13","新北市永和區永利路25號","121.518113333333","25.0061266666667","6500400","永和區"
"234054","553-UM","2017/11/03 20:19:03","新北市永和區光復街2巷26弄1號","121.517636666667","25.0165316666667","6500400","永和區"
"234017","745-BX","2017/11/03 20:18:58","新北市永和區仁愛路49號","121.513805","25.0132166666667","6500400","永和區"
"234030","746-BX","2017/11/03 20:19:12","新北市永和區民有街75巷10弄47號","121.519386666667","24.99608","6500400","永和區"
"234061","AAD-866","2017/11/03 20:19:04","新北市永和區得和路7號","121.515126666667","25.00075","6500400","永和區"
"234042","862-TW","2017/11/03 20:19:09","新北市永和區雙和街8號","121.509708333333","25.0017766666667","6500400","永和區"
"234050","863-TW","2017/11/03 20:19:07","新北市永和區新生路21號","121.509283333333","25.0166733333333","6500400","永和區"
"234011","9373-KE","2017/11/03 20:19:04","新北市永和區保生路55-1號","121.504575","25.0108983333333","6500400","永和區"
"249005","172-UM","2017/11/03 20:18:57","新北市八里區下罟子2-1號","121.388441666667","25.1417933333333","6502300","八里區"
"249001","173-UM","2017/11/03 20:18:53","新北市八里區中華路二段538號","121.399066666667","25.14509","6502300","八里區"
"249004","303-UY","2017/11/03 20:18:53","新北市八里區中山路一段326號","121.412871666667","25.1590966666667","6502300","八里區"
"249002","305-UY","2017/11/03 20:19:05","新北市八里區龍米路二段32巷18號","121.448908333333","25.140835","6502300","八里區"
"249003","593-UM","2017/11/03 20:18:50","新北市八里區商港路6號","121.39713","25.144275","6502300","八里區"
"248016","026-BX","2017/11/03 20:18:56","新北市五股區凌雲路一段158巷40號","121.44721","25.103795","6501500","五股區"
"248012","247-BX","2017/11/03 20:18:54","新北市五股區六合街26號","121.433363333333","25.08868","6501500","五股區"
"248014","261-SL","2017/11/03 20:19:01","新北市五股區凌雲路一段25號","121.4524","25.0996883333333","6501500","五股區"
"248010","272-BY","2017/11/03 20:19:00","新北市五股區成泰路一段2-9號","121.43422","25.0671983333333","6501500","五股區"
"248004","677-BX","2017/11/03 20:18:59","新北市五股區中興路四段23號","121.438846666667","25.0827616666667","6501500","五股區"
"248002","678-BX","2017/11/03 20:18:56","新北市五股區成泰路三段185號","121.445428333333","25.09212","6501500","五股區"
"234023","9380-KE","2017/11/03 20:18:50","新北市永和區復興街16巷5號","121.51579","25.0126166666667","6500400","永和區"
"234077","969-R7","2017/11/03 20:19:07","新北市永和區民享街10號","121.51524","24.9953466666667","6500400","永和區"
"234074","AAC-211","2017/11/03 20:19:08","新北市永和區竹林路201巷22弄6號","121.522353333333","25.0092933333333","6500400","永和區"
"234067","AAC-212","2017/11/03 20:19:01","新北市永和區保平路214巷1弄11號","121.50913","25.0058","6500400","永和區"
"234003","AAC-295","2017/11/03 20:19:08","新北市永和區大新街31號","121.51517","25.008485","6500400","永和區"
"244019","403-UM","2017/11/03 20:19:08","新北市八里區中山路三段365號","121.373723333333","25.1380566666667","6501700","林口區"
"243013","AAD-798","2017/11/03 20:18:56","新北市泰山區新生路2號","121.4269","25.044575","6501600","泰山區"
"243009","297-R6","2017/11/03 20:18:55","新北市泰山區泰林路二段222號","121.432638333333","25.0619166666667","6501600","泰山區"
"243015","380-SR","2017/11/03 20:18:54","新北市泰山區仁德路65號","121.434263333333","25.0568466666667","6501600","泰山區"
"243014","421-VK","2017/11/03 20:19:11","新北市泰山區泰林路二段399號","121.427041666667","25.064195","6501600","泰山區"
"243010","KEA-2215","2017/11/03 20:19:10","新北市泰山區明志路二段246巷9號","121.426453333333","25.0476983333333","6501600","泰山區"
"243011","KEA-2216","2017/11/03 20:19:08","新北市泰山區貴陽街16巷2號","121.422223333333","25.032165","6501600","泰山區"
"243012","646-TV","2017/11/03 20:19:11","新北市泰山區楓江路95號","121.43804","25.063835","6501600","泰山區"
"243016","680-BX","2017/11/03 20:18:56","新北市泰山區明志路三段175號","121.424465","25.0393083333333","6501600","泰山區"
"222003","436-BY","2017/11/03 20:19:00","新北市深坑區文化街78號","121.618055","25.00188","6501800","深坑區"
"222002","659-BX","2017/11/03 20:18:59","新北市深坑區萬福路75巷38號","121.598561666667","25.009775","6501800","深坑區"
"231041","002-UM","2017/11/03 20:19:00","新北市新店區民權路41號","121.540425","24.9828416666667","6500600","新店區"
"231059","046-UY","2017/11/03 20:18:58","新北市新店區安德街154號","121.508265","24.9597033333333","6500600","新店區"
"231061","047-UY","2017/11/03 20:18:58","新北市新店區安興路32號","121.515773333333","24.9703783333333","6500600","新店區"
"231060","106-UY","2017/11/03 20:18:49","新北市新店區錦秀路1-3號","121.478975","24.945485","6500600","新店區"
"231048","108-UY","2017/11/03 20:19:09","新北市新店區中興路三段212號","121.543606666667","24.9822883333333","6500600","新店區"
"231053","187-VK","2017/11/03 20:19:10","新北市新店區新烏路二段417號","121.551608333333","24.909215","6500600","新店區"
"231050","KEA-2219","2017/11/03 20:18:57","新北市新店區北新路一段96巷23號","121.542816666667","24.9687616666667","6500600","新店區"
"231057","256-BX","2017/11/03 20:19:04","新北市新店區花園五路二段11號","121.554061666667","24.9343616666667","6500600","新店區"
"231054","AAD-862","2017/11/03 20:19:02","新北市新店區檳榔路150號","121.54424","24.9616","6500600","新店區"
"231058","3712-VJ","2017/11/03 20:18:59","新北市新店區溪園路389-12號","121.523211666667","24.9790083333333","6500600","新店區"
"231055","3713-VJ","2017/11/03 20:18:55","新北市新店區北新路一段311號","121.541365","24.9679633333333","6500600","新店區"
"231056","4716-K9","2017/11/03 20:19:05","新北市新店區中正路275巷35號","121.536686666667","24.9727166666667","6500600","新店區"
"231067","4772-VM","2017/11/03 20:19:05","新北市新店區溪洲路8巷64號","121.533301666667","24.9624116666667","6500600","新店區"
"231065","512-UM","2017/11/03 20:18:54","新北市新店區安祥路104巷6弄36號","121.483128333333","24.96293","6500600","新店區"
"231064","515-UM","2017/11/03 20:19:11","新北市新店區安和路三段95號","121.517835","24.9842333333333","6500600","新店區"
"231045","617-UM","2017/11/03 20:19:00","新北市新店區新坡一街102號","121.548436666667","24.9635383333333","6500600","新店區"
"231040","619-UM","2017/11/03 20:19:03","新北市新店區中正路143號","121.541558333333","24.97162","6500600","新店區"
"231042","641-BX","2017/11/03 20:19:03","新北市新店區中興路二段228號","121.547853333333","24.97518","6500600","新店區"
"231063","645-TV","2017/11/03 20:19:10","新北市新店區車子路1-1號","121.50477","24.9578083333333","6500600","新店區"
"231068","718-UY","2017/11/03 20:19:12","新北市新店區寶安街18號","121.542125","24.981875","6500600","新店區"
"231049","719-UM","2017/11/03 20:18:56","新北市新店區北新路一段283號","121.541205","24.9668733333333","6500600","新店區"
"231051","719-UY","2017/11/03 20:19:07","新北市新店區中央六街8號","121.53021","24.9744783333333","6500600","新店區"
"231062","720-UM","2017/11/03 20:18:51","新北市新店區安泰路7巷16號","121.48568","24.950965","6500600","新店區"
"231044","897-TW","2017/11/03 20:18:53","新北市新店區順安街6號","121.541116666667","24.9848516666667","6500600","新店區"
"231043","899-TW","2017/11/03 20:18:58","新北市新店區建國路133號","121.539308333333","24.9782116666667","6500600","新店區"
"231066","AKT-0513","2017/11/03 20:18:59","新北市新店區安興路105-1號","121.514633333333","24.9777333333333","6500600","新店區"
"241011","013-R5","2017/11/03 20:19:06","新北市三重區龍門路203號","121.499911666667","25.0734016666667","6500200","三重區"
"241028","022-UY","2017/11/03 20:19:03","新北市三重區大同南路103號","121.496256666667","25.05874","6500200","三重區"
"241015","059-VK","2017/11/03 20:19:09","新北市三重區重新路一段116號","121.500595","25.0629916666667","6500200","三重區"
"241009","060-VK","2017/11/03 20:19:00","新北市三重區三和路四段382巷73號","121.48076","25.0783933333333","6500200","三重區"
"241031","061-VK","2017/11/03 20:18:51","新北市三重區三寧街22號","121.48949","25.0599316666667","6500200","三重區"
"241017","063-VK","2017/11/03 20:19:00","新北市三重區大智街100號","121.493323333333","25.0665483333333","6500200","三重區"
"241024","065-VK","2017/11/03 20:19:04","新北市三重區忠孝路三段12號","121.481798333333","25.0674316666667","6500200","三重區"
"241026","066-VK","2017/11/03 20:19:05","新北市三重區重新路一段16號","121.503798333333","25.0639133333333","6500200","三重區"
"241003","091-VK","2017/11/03 20:19:00","新北市三重區富華街43號","121.490768333333","25.0832283333333","6500200","三重區"
"241008","156-TC","2017/11/03 20:18:59","新北市三重區車路頭街116號","121.484263333333","25.0749833333333","6500200","三重區"
"241029","265-UM","2017/11/03 20:18:52","新北市三重區光明路123號","121.492366666667","25.0565216666667","6500200","三重區"
"241016","266-UM","2017/11/03 20:18:05","新北市三重區大同北路54巷1號","121.494261666667","25.0634933333333","6500200","三重區"
"241022","267-UM","2017/11/03 20:18:55","新北市三重區中正北路2-3號","121.489245","25.0627083333333","6500200","三重區"
"241018","268-UM","2017/11/03 20:19:05","新北市三重區自強路一段157號","121.493438333333","25.0671616666667","6500200","三重區"
"241032","269-UM","2017/11/03 20:19:07","新北市三重區捷運路19巷6弄21號","121.484311666667","25.0568233333333","6500200","三重區"
"241013","270-UM","2017/11/03 20:19:11","新北市三重區三和路三段163號","121.491988333333","25.0740733333333","6500200","三重區"
"241025","271-UM","2017/11/03 20:18:56","新北市三重區三民街272巷15號","121.478683333333","25.0677316666667","6500200","三重區"
"241007","398-BY","2017/11/03 20:19:04","新北市三重區溪尾街108巷40號","121.487885","25.078295","6500200","三重區"
"241020","413-TH","2017/11/03 20:19:08","新北市三重區忠孝路一段21巷5弄1號","121.49175","25.072385","6500200","三重區"
"241004","475-VK","2017/11/03 20:18:53","新北市三重區自強路四段110號","121.491551666667","25.0799366666667","6500200","三重區"
"241019","478-VK","2017/11/03 20:18:59","新北市三重區忠孝路一段30巷58號","121.490461666667","25.0712133333333","6500200","三重區"
"241030","480-VK","2017/11/03 20:19:02","新北市三重區集美街89巷21號","121.48835","25.05272","6500200","三重區"
"241014","543-UM","2017/11/03 20:18:55","新北市三重區龍濱路80號","121.502405","25.0694683333333","6500200","三重區"
"241023","545-UM","2017/11/03 20:19:05","新北市三重區忠孝路三段93巷8號","121.479078333333","25.0648416666667","6500200","三重區"
"241001","547-UM","2017/11/03 20:19:06","新北市三重區自強路四段3巷50號","121.490441666667","25.07667","6500200","三重區"
"241035","743-BX","2017/11/03 20:19:04","新北市三重區文化北路1-1號","121.49983","25.0632383333333","6500200","三重區"
"241002","887-TS","2017/11/03 20:19:06","新北市三重區仁義街101巷2號","121.49776","25.0800783333333","6500200","三重區"
"241012","941-UM","2017/11/03 20:18:53","新北市三重區河邊北街262號","121.501716666667","25.0764083333333","6500200","三重區"
"241033","AAC-255","2017/11/03 20:19:10","新北市三重區五谷王北街50巷42號","121.475108333333","25.0514133333333","6500200","三重區"
"235039","097-UM","2017/11/03 20:18:41","新北市中和區自強路66號","121.519806666667","24.9942083333333","6500300","中和區"
"235065","098-UM","2017/11/03 20:18:56","新北市中和區永和路128巷9號","121.497648333333","25.0069216666667","6500300","中和區"
"235072","301-VK","2017/11/03 20:19:05","新北市新店區安德街60巷25號","121.510648333333","24.9633966666667","6500300","中和區"
"235068","377-QA","2017/11/03 20:18:38","新北市中和區勝利路35巷4號","121.498888333333","25.007585","6500300","中和區"
"235050","4979-A6","2017/11/03 20:19:08","新北市中和區景平路466號","121.5057","24.993705","6500300","中和區"
"235069","4980-A6","2017/11/03 20:18:57","新北市中和區中正路446號","121.49103","24.99422","6500300","中和區"
"235070","558-UM","2017/11/03 20:19:08","新北市中和區中正路458號","121.490663333333","24.9942016666667","6500300","中和區"
"235062","800-TS","2017/11/03 20:18:58","新北市中和區中正路726號","121.485271666667","24.9975716666667","6500300","中和區"
"235037","AAC-213","2017/11/03 20:18:56","新北市中和區景平路420號","121.507788333333","24.9932433333333","6500300","中和區"
"235059","AAC-215","2017/11/03 20:18:54","新北市中和區圓通路459號","121.484361666667","24.98603","6500300","中和區"
"220065","072-UY","2017/11/03 20:19:02","新北市三重區重光街105-2號","121.467231666667","25.064785","6500100","板橋區"
"220069","AAD-861","2017/11/03 20:18:52","新北市板橋區南雅南路二段1-1號","121.454676666667","25.0037533333333","6500100","板橋區"
"247022","893-R6","2017/11/03 20:19:08","新北市蘆洲區中正路192巷2弄1號","121.467605","25.0884233333333","6501400","蘆洲區"
"247012","546-UM","2017/11/03 20:19:08","新北市蘆洲區中興街15巷17號","121.480195","25.0876466666667","6501400","蘆洲區"
"247019","500-BY","2017/11/03 20:19:07","新北市蘆洲區仁愛街101巷6號","121.470798333333","25.0942633333333","6501400","蘆洲區"
"247010","339-TH","2017/11/03 20:19:04","新北市蘆洲區信義路222巷25號","121.47978","25.0854033333333","6501400","蘆洲區"
"247002","337-TH","2017/11/03 20:19:02","新北市蘆洲區長安街313巷46號","121.455373333333","25.0861416666667","6501400","蘆洲區"
"247004","336-TH","2017/11/03 20:19:08","新北市蘆洲區長安街307號","121.45789","25.08516","6501400","蘆洲區"
"247016","057-VK","2017/11/03 20:19:11","新北市蘆洲區中正路185巷45弄5號","121.46607","25.08368","6501400","蘆洲區"
"247006","056-VK","2017/11/03 20:19:11","新北市蘆洲區永安南路二段60-8號","121.465458333333","25.0783716666667","6501400","蘆洲區"
"247008","053-VK","2017/11/03 20:18:55","新北市蘆洲區集賢路231號","121.482148333333","25.0857733333333","6501400","蘆洲區"
"247014","007-UY","2017/11/03 20:19:10","新北市蘆洲區和平路44號","121.470715","25.0791383333333","6501400","蘆洲區"
"247024","002-UY","2017/11/03 20:19:04","新北市蘆洲區光明路106巷26號","121.463621666667","25.0874533333333","6501400","蘆洲區"
"247018","001-UY","2017/11/03 20:19:06","新北市蘆洲區民族路408巷14號","121.47497","25.0920516666667","6501400","蘆洲區"
"223003","205-TH","2017/11/03 09:51:14","新北市石碇區小粗坑(潭邊里)9-2號","121.678881666667","24.9863","6501900","石碇區"
"222001","KEA-2212","2017/11/03 20:19:07","新北市深坑區北深路三段258號","121.599666666667","25.0043183333333","6501800","深坑區"
"251004","009-UM","2017/11/03 20:07:52","新北市淡水區民族路65巷42號","121.464061666667","25.1354266666667","6501000","淡水區"
"251013","180-VK","2017/11/03 20:18:52","新北市淡水區相公山1-3號","121.474166666667","25.2066116666667","6501000","淡水區"
"251008","181-VK","2017/11/03 20:19:01","新北市淡水區淡海路180巷27號","121.421761666667","25.1845783333333","6501000","淡水區"
"251010","413-VK","2017/11/03 20:19:03","新北市淡水區新民街一段134號","121.427636666667","25.1889483333333","6501000","淡水區"
"251012","441-VK","2017/11/03 20:19:06","新北市淡水區下圭柔山431-1號","121.44985","25.210235","6501000","淡水區"
"251006","561-UM","2017/11/03 20:19:05","新北市淡水區北新路一段275號","121.462333333333","25.1822166666667","6501000","淡水區"
"251002","672-BX","2017/11/03 20:18:56","新北市淡水區中正路178號","121.440246666667","25.1699333333333","6501000","淡水區"
"251003","673-BX","2017/11/03 20:19:06","新北市淡水區大義街3號","121.443736666667","25.1779716666667","6501000","淡水區"
"207004","225-TW","2017/11/03 20:19:00","新北市萬里區北基里仁三街1號","121.682186666667","25.17541","6502800","萬里區"
"252002","178-VK","2017/11/03 20:18:53","新北市三芝區中正路一段17號","121.502738333333","25.2585583333333","6502100","三芝區"
"252001","292-VK","2017/11/03 20:19:11","新北市三芝區中山路一段35號","121.500651666667","25.258015","6502100","三芝區"
"237007","153-BY","2017/11/03 20:19:07","新北市三峽區麻園42號","121.363845","24.9210716666667","6500900","三峽區"
"237005","AKY-6261","2017/11/03 20:18:55","新北市三峽區三樹路98巷74弄91號","121.385071666667","24.93848","6500900","三峽區"
"236072","105-UM","2017/11/03 20:19:06","新北市土城區中山路53號","121.422583333333","24.9632066666667","6501300","土城區"
"236001","138-TH","2017/11/03 14:15:24","新北市土城區永平街51號","121.427995","24.95918","6501300","土城區"
"236031","253-BX","2017/11/03 20:19:02","新北市土城區中央路一段45巷13號","121.449093333333","24.9900033333333","6501300","土城區"
"236027","269-VK","2017/11/03 20:19:11","新北市土城區中央路一段249巷11號","121.44592","24.98557","6501300","土城區"
"236015","270-VK","2017/11/03 20:18:51","新北市板橋區信義路26巷10號","121.456143333333","24.9953166666667","6501300","土城區"
"236039","271-VK","2017/11/03 20:19:10","新北市土城區明德路一段71號","121.465573333333","24.9834566666667","6501300","土城區"
"236022","401-BY","2017/11/03 20:19:06","新北市土城區金城路三段206巷1號","121.47164","24.9896933333333","6501300","土城區"
"236059","912-UM","2017/11/03 20:18:56","新北市土城區中央路三段38號","121.438348333333","24.9688433333333","6501300","土城區"
"236055","AAC-216","2017/11/03 20:18:59","新北市土城區慶祥街32號","121.437321666667","24.97547","6501300","土城區"
"242032","AAC-296","2017/11/03 20:19:07","新北市新莊區義豐街13號","121.440983333333","25.03483","6500500","新莊區"
"242029","705-TV","2017/11/03 20:19:04","新北市新莊區中華路二段203號","121.452365","25.0527566666667","6500500","新莊區"
"242025","615-BX","2017/11/03 20:19:06","新北市新莊區五工一路80巷21號","121.46127","25.06678","6500500","新莊區"
"242023","613-BX","2017/11/03 20:19:07","新北市新莊區化成路744號","121.465591666667","25.057495","6500500","新莊區"
"242027","612-BX","2017/11/03 20:19:10","新北市新莊區幸福路558號","121.454701666667","25.0493333333333","6500500","新莊區"
"242039","566-BX","2017/11/03 20:18:50","新北市新莊區龍安路477號","121.42532","25.018285","6500500","新莊區"
"242044","497-BY","2017/11/03 20:18:55","新北市新莊區中正路新建巷32號","121.414406666667","25.021705","6500500","新莊區"
"242048","442-UM","2017/11/03 20:19:00","新北市新莊區四維路188巷10號","121.421356666667","25.0210816666667","6500500","新莊區"
"242054","440-UM","2017/11/03 20:19:09","新北市新莊區西盛街390號","121.427606666667","25.01295","6500500","新莊區"
"242034","415-TV","2017/11/03 20:18:51","新北市新莊區建中街90巷3弄10號","121.446346666667","25.037175","6500500","新莊區"
"242005","413-TV","2017/11/03 20:19:09","新北市新莊區化成路554巷48號","121.467955","25.0541166666667","6500500","新莊區"
"242041","400-BY","2017/11/03 20:18:53","新北市新莊區天祥街54巷2弄1號","121.416688333333","25.0291983333333","6500500","新莊區"
"242060","362-BY","2017/11/03 20:19:01","新北市新莊區瓊林路208-1號","121.435925","25.0220366666667","6500500","新莊區"
"242058","353-BY","2017/11/03 20:18:59","新北市新莊區四維路225號","121.421481666667","25.019685","6500500","新莊區"
"242007","132-UY","2017/11/03 20:19:04","新北市新莊區福壽街94巷22號","121.45914","25.050095","6500500","新莊區"
"242037","133-UY","2017/11/03 20:19:12","新北市新莊區建安街85號","121.427153333333","25.02461","6500500","新莊區"
"242021","135-UY","2017/11/03 20:18:57","新北市新莊區和興街11號","121.447716666667","25.0391733333333","6500500","新莊區"
"242046","172-VK","2017/11/03 20:19:01","新北市新莊區中正路新生巷33號","121.417171666667","25.0234183333333","6500500","新莊區"
"242009","173-VK","2017/11/03 20:19:02","新北市新莊區昌平街1號","121.454771666667","25.0513816666667","6500500","新莊區"
"242015","175-VK","2017/11/03 20:19:00","新北市新莊區永樂街196號","121.447561666667","25.0445483333333","6500500","新莊區"
"242002","176-VK","2017/11/03 20:19:03","新北市新莊區化成路82號","121.465195","25.0438766666667","6500500","新莊區"
"242001","233-RS","2017/11/03 08:28:36","新北市新莊區環河路48-7號","121.436891666667","25.0097866666667","6500500","新莊區"
"242013","346-TH","2017/11/03 20:18:58","新北市新莊區中和街155巷2號","121.44735","25.04979","6500500","新莊區"
"242017","347-TH","2017/11/03 20:18:53","新北市新莊區中港二街95號","121.449323333333","25.0457266666667","6500500","新莊區"
"242056","349-TH","2017/11/03 20:19:03","新北市新莊區新莊路649巷11-3號","121.444988333333","25.0319933333333","6500500","新莊區"
"242011","351-TH","2017/11/03 20:18:52","新北市新莊區中信街37巷2弄2號","121.450326666667","25.0505166666667","6500500","新莊區"
"238021","KEA-2217","2017/11/03 20:18:59","新北市樹林區佳園路三段101巷56號","121.392636666667","24.9502983333333","6500700","樹林區"
"238020","268-VK","2017/11/03 20:19:08","新北市樹林區中山路三段204號","121.387276666667","24.96833","6500700","樹林區"
"221008","489-VK","2017/11/03 20:18:53","新北市汐止區康寧街231號","121.623758333333","25.06682","6501100","汐止區"
"221036","130-UY","2017/11/03 20:19:00","新北市汐止區仁愛路152巷31號","121.66491","25.0637983333333","6501100","汐止區"
"221015","131-UY","2017/11/03 20:19:11","新北市汐止區建成路142巷19弄7號","121.66209","25.0739183333333","6501100","汐止區"
"221010","269-BY","2017/11/03 20:19:01","新北市汐止區八連路二段494號","121.628563333333","25.1065316666667","6501100","汐止區"
"221012","276-VK","2017/11/03 13:13:45","新北市汐止區汐萬路一段256巷3號","121.65345","25.074585","6501100","汐止區"
"221012","278-VK","2017/11/03 20:19:06","新北市汐止區保新街39號","121.684961666667","25.0729316666667","6501100","汐止區"
"221023","279-VK","2017/11/03 20:18:54","新北市汐止區湖東街5巷11號","121.63408","25.073065","6501100","汐止區"
"221032","280-BY","2017/11/03 20:18:59","新北市汐止區民權街二段30號","121.619418333333","25.0498233333333","6501100","汐止區"
"221027","281-BY","2017/11/03 20:18:59","新北市汐止區大同路二段509號","121.661433333333","25.0688483333333","6501100","汐止區"
"221029","298-VK","2017/11/03 20:19:08","新北市汐止區樟樹一路97號","121.641821666667","25.0636516666667","6501100","汐止區"
"221021","299-VK","2017/11/03 20:19:09","新北市汐止區水源路一段265號","121.653978333333","25.05943","6501100","汐止區"
"221031","353-TW","2017/11/03 20:18:57","新北市汐止區原興路60巷8-1號","121.63321","25.0657933333333","6501100","汐止區"
"221002","358-BY","2017/11/03 20:18:51","新北市汐止區福德二路23號","121.63531","25.0680616666667","6501100","汐止區"
"221035","622-UM","2017/11/03 20:19:03","新北市汐止區長江街101-5號","121.658723333333","25.0731733333333","6501100","汐止區"
"221025","623-UM","2017/11/03 20:19:04","新北市汐止區水源路二段72巷6弄5號","121.655595","25.0553416666667","6501100","汐止區"
"221038","646-BX","2017/11/03 20:18:56","新北市汐止區忠孝東路478號","121.666193333333","25.0737083333333","6501100","汐止區"
"221033","647-BX","2017/11/03 20:19:08","新北市汐止區東勢街201巷104號","121.633555","25.0429233333333","6501100","汐止區"
"221018","753-BX","2017/11/03 20:18:58","新北市汐止區茄苳路252號","121.67153","25.068405","6501100","汐止區"
"220079","145-BY","2017/11/03 20:19:11","新北市五股區凌雲路三段24巷9號","121.436373333333","25.1068766666667","6500100","板橋區"
"220080","200-UY","2017/11/03 20:19:09","新北市板橋區館前西路160巷9號","121.452375","25.009015","6500100","板橋區"
"220101","245-BX","2017/11/03 20:19:01","新北市板橋區雙十路二段73號","121.476221666667","25.0270216666667","6500100","板橋區"
"251001","256-TC","2017/11/03 20:19:02","新北市板橋區滿平二街32-3號","121.425186666667","24.9875","6501000","淡水區"
"220083","286-VK","2017/11/03 20:18:58","新北市板橋區僑中二街102巷6號","121.445848333333","25.00845","6500100","板橋區"
"220081","287-VK","2017/11/03 20:19:03","新北市板橋區僑中一街80巷7弄22號","121.446885","25.0128316666667","6500100","板橋區"
"220061","295-UM","2017/11/03 20:19:03","新北市板橋區中山路一段74號","121.461691666667","25.01005","6500100","板橋區"
"220084","296-UM","2017/11/03 20:18:53","新北市板橋區滿平街84巷102號","121.426798333333","24.98666","6500100","板橋區"
"220062","303-R5","2017/11/03 20:18:53","新北市林口區太平里180號","121.366448333333","25.1344733333333","6500100","板橋區"
"220064","486-VK","2017/11/03 20:19:01","新北市板橋區長安街331巷4號","121.47444","25.0122566666667","6500100","板橋區"
"220089","487-VK","2017/11/03 20:19:08","新北市板橋區互助街25巷5號","121.463323333333","25.02732","6500100","板橋區"
"242019","280-VK","2017/11/03 20:18:58","新北市新莊區博愛路7巷2號","121.456085","25.0438583333333","6500500","新莊區"
"220103","561-BX","2017/11/03 20:19:01","新北市板橋區陽明街251號","121.462813333333","25.0252466666667","6500100","板橋區"
"220055","827-TW","2017/11/03 20:19:07","新北市板橋區重慶路290巷34號","121.46187","24.9986983333333","6500100","板橋區"
"220102","830-TW","2017/11/03 20:19:02","新北市板橋區漢生東路7號","121.464713333333","25.0174383333333","6500100","板橋區"
"220097","AAC-210","2017/11/03 20:18:56","新北市板橋區建國街125號","121.460886666667","25.017695","6500100","板橋區"
"220070","AAC-253","2017/11/03 20:19:05","新北市板橋區四川路二段239號","121.450788333333","24.9938883333333","6500100","板橋區"
