"lineid","car","time","location","longitude","latitude","cityid","cityname"
"234038","336-UY","2017/11/03 20:39:04","新北市永和區環河東路四段40號","121.528785","24.9988483333333","6500400","永和區"
"234064","337-UY","2017/11/03 20:39:13","新北市永和區環河西路二段165號","121.505183333333","25.0137566666667","6500400","永和區"
"234030","746-BX","2017/11/03 20:39:12","新北市板橋區長江路二段311巷18-1號","121.471828333333","25.0365116666667","6500400","永和區"
"234061","AAD-866","2017/11/03 20:39:03","新北市永和區中正路381號","121.517151666667","25.0037366666667","6500400","永和區"
"249005","172-UM","2017/11/03 20:38:57","新北市八里區中山路三段383號","121.372253333333","25.13764","6502300","八里區"
"249001","173-UM","2017/11/03 20:38:53","新北市八里區下罟子23號","121.375791666667","25.138545","6502300","八里區"
"249004","303-UY","2017/11/03 20:37:13","新北市八里區中山路一段157巷26號","121.412986666667","25.15817","6502300","八里區"
"234023","9380-KE","2017/11/03 20:38:50","新北市永和區竹林路25巷17弄6號","121.517886666667","25.0149283333333","6500400","永和區"
"234074","AAC-211","2017/11/03 20:39:08","新北市永和區竹林路119巷4弄1號","121.520528333333","25.0114416666667","6500400","永和區"
"244019","403-UM","2017/11/03 20:38:28","新北市林口區粉寮路二段167-1號","121.404461666667","25.0884083333333","6501700","林口區"
"243010","KEA-2215","2017/11/03 20:38:56","新北市泰山區泰林路二段608號","121.421208333333","25.0637666666667","6501600","泰山區"
"243011","KEA-2216","2017/11/03 20:39:07","新北市泰山區公園路88-1號","121.42375","25.057215","6501600","泰山區"
"243016","680-BX","2017/11/03 20:38:54","新北市泰山區明志路二段187號","121.42781","25.049465","6501600","泰山區"
"222003","436-BY","2017/11/03 20:39:00","新北市深坑區麻竹寮2-9號","121.614426666667","24.998975","6501800","深坑區"
"222002","659-BX","2017/11/03 20:39:12","新北市深坑區萬福路43號","121.599335","25.0068816666667","6501800","深坑區"
"231041","002-UM","2017/11/03 20:39:00","新北市新店區中正路543-4號","121.533638333333","24.9874716666667","6500600","新店區"
"231059","046-UY","2017/11/03 20:38:58","新北市新店區僑信路134號","121.500783333333","24.9457683333333","6500600","新店區"
"231061","047-UY","2017/11/03 20:38:58","新北市新店區新和街46號","121.519338333333","24.9849666666667","6500600","新店區"
"231060","106-UY","2017/11/03 20:39:09","新北市新店區安康路三段567-1號","121.475523333333","24.943615","6500600","新店區"
"231048","108-UY","2017/11/03 20:39:08","新北市新店區寶慶街70號","121.541781666667","24.986805","6500600","新店區"
"231053","187-VK","2017/11/03 20:38:51","新北市新店區廣興路7-10號","121.545786666667","24.9117","6500600","新店區"
"231050","KEA-2219","2017/11/03 20:38:57","新北市新店區建國路58號","121.540618333333","24.9756016666667","6500600","新店區"
"231057","256-BX","2017/11/03 20:39:04","新北市新店區花園十路一段2號","121.553775","24.9334516666667","6500600","新店區"
"231054","AAD-862","2017/11/03 20:39:02","新北市新店區行政街45號","121.54311","24.9655333333333","6500600","新店區"
"231058","3712-VJ","2017/11/03 20:38:59","新北市新店區中正路307巷2號","121.536491666667","24.974555","6500600","新店區"
"231056","4716-K9","2017/11/03 20:39:05","新北市新店區民生路75巷225號","121.531953333333","24.9819366666667","6500600","新店區"
"231065","512-UM","2017/11/03 20:38:54","新北市新店區安祥路102巷22號","121.483661666667","24.9639483333333","6500600","新店區"
"231064","515-UM","2017/11/03 20:39:11","新北市新店區安和路三段110巷5號","121.517355","24.985565","6500600","新店區"
"231045","617-UM","2017/11/03 20:39:01","新北市新店區長春路213號","121.559336666667","24.96201","6500600","新店區"
"231040","619-UM","2017/11/03 20:39:03","新北市新店區中正路263巷4號","121.538421666667","24.9734183333333","6500600","新店區"
"231042","641-BX","2017/11/03 20:39:03","新北市新店區寶高路120巷1-1號","121.554633333333","24.9759166666667","6500600","新店區"
"231063","645-TV","2017/11/03 20:39:10","新北市新店區玫瑰路4-1號","121.493605","24.95137","6500600","新店區"
"231068","718-UY","2017/11/03 20:39:12","新北市新店區寶元路一段85巷10號","121.543123333333","24.98599","6500600","新店區"
"231049","719-UM","2017/11/03 20:38:56","新北市新店區永業路81巷11弄8號","121.531563333333","24.9505966666667","6500600","新店區"
"231051","719-UY","2017/11/03 20:39:07","新北市新店區中央七街31號","121.529443333333","24.975505","6500600","新店區"
"231062","720-UM","2017/11/03 20:38:56","新北市新店區雙城路2巷1號","121.491265","24.9512283333333","6500600","新店區"
"231044","897-TW","2017/11/03 20:38:53","新北市新店區建國路293巷1號","121.536661666667","24.986145","6500600","新店區"
"231043","899-TW","2017/11/03 20:38:58","新北市新店區建國路12-1號","121.540093333333","24.9737766666667","6500600","新店區"
"231066","AKT-0513","2017/11/03 20:38:59","新北市新店區安興路112號","121.514623333333","24.9776416666667","6500600","新店區"
"241011","013-R5","2017/11/03 20:39:06","新北市三重區龍濱路217號","121.501893333333","25.072","6500200","三重區"
"241028","022-UY","2017/11/03 20:39:03","新北市三重區光興街89號","121.49746","25.0599316666667","6500200","三重區"
"241015","059-VK","2017/11/03 20:39:09","新北市三重區雙園街1號","121.497821666667","25.0683766666667","6500200","三重區"
"241009","060-VK","2017/11/03 20:39:00","新北市三重區三和路四段416號","121.480885","25.0800116666667","6500200","三重區"
"241031","061-VK","2017/11/03 20:38:51","新北市三重區重陽路一段113巷1弄49號","121.48807","25.0585266666667","6500200","三重區"
"241017","063-VK","2017/11/03 20:39:00","新北市三重區大同北路269號","121.490808333333","25.067325","6500200","三重區"
"241024","065-VK","2017/11/03 20:39:04","新北市三重區中正北路253號","121.475448333333","25.0706833333333","6500200","三重區"
"241026","066-VK","2017/11/03 20:39:05","新北市三重區文化南路7號","121.500031666667","25.0623316666667","6500200","三重區"
"241008","156-TC","2017/11/03 20:38:59","新北市三重區下竹圍街42號","121.481031666667","25.0748566666667","6500200","三重區"
"241005","262-UM","2017/11/03 20:39:04","新北市三重區碧華街409號","121.493283333333","25.0859616666667","6500200","三重區"
"241029","265-UM","2017/11/03 20:38:52","新北市三重區集美街126巷25號","121.489966666667","25.053705","6500200","三重區"
"241016","266-UM","2017/11/03 20:39:05","新北市三重區長壽西街134號","121.495013333333","25.066895","6500200","三重區"
"241022","267-UM","2017/11/03 20:38:55","新北市三重區新北大道一段46巷18弄7號","121.488316666667","25.0620466666667","6500200","三重區"
"241018","268-UM","2017/11/03 20:39:05","新北市三重區重陽路四段10號","121.490738333333","25.06892","6500200","三重區"
"241032","269-UM","2017/11/03 20:39:07","新北市三重區重陽路一段120巷27號","121.485615","25.0601516666667","6500200","三重區"
"241013","270-UM","2017/11/03 20:38:51","新北市三重區仁愛街112巷16號","121.494681666667","25.0738766666667","6500200","三重區"
"241025","271-UM","2017/11/03 20:38:56","新北市三重區頂崁街206巷40號","121.475758333333","25.0665333333333","6500200","三重區"
"241007","398-BY","2017/11/03 20:39:04","新北市三重區自強路四段22號","121.488608333333","25.076415","6500200","三重區"
"241020","413-TH","2017/11/03 20:38:59","新北市三重區忠孝路一段101號","121.489445","25.0721","6500200","三重區"
"241004","475-VK","2017/11/03 20:38:53","新北市三重區仁愛街406巷3號","121.490698333333","25.0812316666667","6500200","三重區"
"241019","478-VK","2017/11/03 20:38:59","新北市三重區安慶街四段66-2號","121.491678333333","25.0705633333333","6500200","三重區"
"241030","480-VK","2017/11/03 20:39:02","新北市三重區成功路73巷9號","121.489456666667","25.0518633333333","6500200","三重區"
"241014","543-UM","2017/11/03 20:38:53","新北市三重區萬壽街16號","121.499541666667","25.069435","6500200","三重區"
"241023","545-UM","2017/11/03 20:39:05","新北市三重區自由街35巷1號","121.479166666667","25.066825","6500200","三重區"
"241001","547-UM","2017/11/03 20:39:06","新北市三重區自強路三段110巷7號","121.486435","25.0745716666667","6500200","三重區"
"241035","743-BX","2017/11/03 20:39:04","新北市三重區正義北路291號","121.494825","25.0705666666667","6500200","三重區"
"241002","887-TS","2017/11/03 20:39:06","新北市三重區仁義街167巷32弄1號","121.498163333333","25.0821416666667","6500200","三重區"
"241012","941-UM","2017/11/03 20:38:53","新北市三重區河邊北街174巷1號","121.502941666667","25.0733816666667","6500200","三重區"
"241033","AAC-255","2017/11/03 20:39:10","新北市三重區光復路二段1號","121.47231","25.0532383333333","6500200","三重區"
"235072","301-VK","2017/11/03 20:39:05","新北市中和區員山路36巷13號","121.484376666667","24.9907333333333","6500300","中和區"
"235069","4980-A6","2017/11/03 20:38:57","新北市中和區員山路359巷1弄8號","121.481041666667","25.00169","6500300","中和區"
"235062","800-TS","2017/11/03 20:34:41","新北市中和區員山路36巷16-3號","121.484961666667","24.991735","6500300","中和區"
"235059","AAC-215","2017/11/03 20:38:54","新北市中和區員山路36巷16-8號","121.485505","24.9923866666667","6500300","中和區"
"247022","893-R6","2017/11/03 20:39:08","新北市蘆洲區中正路243巷9號","121.467211666667","25.08626","6501400","蘆洲區"
"247012","546-UM","2017/11/03 20:39:08","新北市蘆洲區民族路236巷46號","121.481561666667","25.0889033333333","6501400","蘆洲區"
"247019","500-BY","2017/11/03 20:39:07","新北市蘆洲區民族路424號","121.473865","25.0917916666667","6501400","蘆洲區"
"247002","337-TH","2017/11/03 20:39:02","新北市蘆洲區長安街375巷29號","121.455905","25.087805","6501400","蘆洲區"
"247004","336-TH","2017/11/03 20:39:01","新北市蘆洲區長安街222號","121.458326666667","25.08492","6501400","蘆洲區"
"247016","057-VK","2017/11/03 20:39:11","新北市蘆洲區和平路51號","121.47038","25.0790483333333","6501400","蘆洲區"
"247006","056-VK","2017/11/03 20:39:06","新北市蘆洲區和平路121巷8弄38號","121.466236666667","25.0805833333333","6501400","蘆洲區"
"247008","053-VK","2017/11/03 20:38:55","新北市蘆洲區永安北路二段8巷16號","121.480446666667","25.0810766666667","6501400","蘆洲區"
"247014","007-UY","2017/11/03 20:39:10","新北市蘆洲區三民路97號","121.473566666667","25.0852266666667","6501400","蘆洲區"
"247024","002-UY","2017/11/03 20:39:04","新北市蘆洲區長樂路41號","121.463115","25.0859066666667","6501400","蘆洲區"
"223003","205-TH","2017/11/03 09:51:14","新北市石碇區小粗坑(潭邊里)9-2號","121.678881666667","24.9863","6501900","石碇區"
"222001","KEA-2212","2017/11/03 20:38:54","新北市深坑區北深路三段236巷2號","121.600713333333","25.00419","6501800","深坑區"
"251013","180-VK","2017/11/03 20:38:52","新北市淡水區奎柔山路250號","121.456091666667","25.20504","6501000","淡水區"
"251008","181-VK","2017/11/03 20:39:01","新北市淡水區中正路二段200巷5號","121.425455","25.1881683333333","6501000","淡水區"
"251010","413-VK","2017/11/03 20:39:03","新北市淡水區沙崙路181巷15號","121.423956666667","25.1843316666667","6501000","淡水區"
"251012","441-VK","2017/11/03 20:39:06","新北市淡水區興仁路105號","121.451538333333","25.2181583333333","6501000","淡水區"
"251001","559-UM","2017/11/03 20:39:00","新北市淡水區淡金路187號","121.458525","25.1656333333333","6501000","淡水區"
"251006","561-UM","2017/11/03 20:39:05","新北市淡水區埤島3-18號","121.447061666667","25.1905616666667","6501000","淡水區"
"251011","650-BX","2017/11/03 20:39:08","新北市淡水區新市一路一段361號","121.43626","25.1861366666667","6501000","淡水區"
"251002","672-BX","2017/11/03 20:38:56","新北市淡水區中正路32號","121.443786666667","25.1692033333333","6501000","淡水區"
"251003","673-BX","2017/11/03 20:39:06","新北市淡水區新民街120巷54號","121.438858333333","25.1784566666667","6501000","淡水區"
"252002","178-VK","2017/11/03 20:38:53","新北市三芝區淡金路二段47-2號","121.503708333333","25.2606583333333","6502100","三芝區"
"252001","292-VK","2017/11/03 20:39:11","新北市三芝區長安街55號","121.501161666667","25.2565733333333","6502100","三芝區"
"236001","138-TH","2017/11/03 14:15:24","新北市土城區永平街51號","121.427995","24.95918","6501300","土城區"
"242032","AAC-296","2017/11/03 20:39:07","新北市新莊區中正路508巷5弄2號","121.43506","25.0338366666667","6500500","新莊區"
"242029","705-TV","2017/11/03 20:39:04","新北市新莊區中華路二段23號","121.45376","25.045905","6500500","新莊區"
"242025","615-BX","2017/11/03 20:39:06","新北市三重區光復路二段175號","121.472351666667","25.0616833333333","6500500","新莊區"
"242023","613-BX","2017/11/03 20:38:54","新北市新莊區化成路362號","121.465821666667","25.0494783333333","6500500","新莊區"
"242027","612-BX","2017/11/03 20:38:50","新北市新莊區思源路33號","121.460021666667","25.039595","6500500","新莊區"
"242039","566-BX","2017/11/03 20:39:10","新北市新莊區民安路316號","121.428501666667","25.02206","6500500","新莊區"
"242044","497-BY","2017/11/03 20:38:55","新北市新莊區龍安路108號","121.418378333333","25.0204233333333","6500500","新莊區"
"242048","442-UM","2017/11/03 20:39:00","新北市新莊區中正路867-2號","121.418665","25.0274816666667","6500500","新莊區"
"242054","440-UM","2017/11/03 20:38:55","新北市新莊區西盛街324巷36號","121.426698333333","25.0148516666667","6500500","新莊區"
"242034","415-TV","2017/11/03 20:38:51","新北市新莊區中正路342號","121.44439","25.0344033333333","6500500","新莊區"
"242005","413-TV","2017/11/03 20:38:54","新北市新莊區化成路363巷11號","121.465011666667","25.0571033333333","6500500","新莊區"
"242041","400-BY","2017/11/03 20:39:04","新北市新莊區天祥街35號","121.417003333333","25.0284433333333","6500500","新莊區"
"242060","362-BY","2017/11/03 20:39:01","新北市新莊區新樹路258巷3號","121.432118333333","25.015575","6500500","新莊區"
"242058","353-BY","2017/11/03 20:38:54","新北市新莊區民安路138號","121.424163333333","25.0253316666667","6500500","新莊區"
"242007","132-UY","2017/11/03 20:39:04","新北市新莊區思源路287巷3號","121.45934","25.048225","6500500","新莊區"
"242037","133-UY","2017/11/03 20:39:07","新北市新莊區後港一路94巷3弄1號","121.428008333333","25.026315","6500500","新莊區"
"242021","135-UY","2017/11/03 20:38:57","新北市新莊區中華路一段10號","121.451978333333","25.037035","6500500","新莊區"
"242046","172-VK","2017/11/03 20:39:01","新北市新莊區裕民街136號","121.417896666667","25.0219466666667","6500500","新莊區"
"242009","173-VK","2017/11/03 20:39:02","新北市新莊區幸福路64巷3弄8號","121.45682","25.05002","6500500","新莊區"
"242015","175-VK","2017/11/03 20:39:00","新北市新莊區中平路82巷36-2號","121.446576666667","25.0448933333333","6500500","新莊區"
"242002","176-VK","2017/11/03 20:39:03","新北市新莊區中港路五守新村16巷2號","121.454675","25.0389183333333","6500500","新莊區"
"242001","233-RS","2017/11/03 08:28:36","新北市新莊區環河路48-7號","121.436891666667","25.0097866666667","6500500","新莊區"
"242013","346-TH","2017/11/03 20:38:58","新北市新莊區中和街175巷6號","121.447445","25.050615","6500500","新莊區"
"242056","349-TH","2017/11/03 20:39:09","新北市新莊區瓊泰路94巷48號","121.445046666667","25.0294033333333","6500500","新莊區"
"242011","351-TH","2017/11/03 20:39:03","新北市新莊區中榮街104巷15號","121.44712","25.0535966666667","6500500","新莊區"
"221008","489-VK","2017/11/03 20:38:53","新北市汐止區康寧街861巷3號","121.645318333333","25.0761066666667","6501100","汐止區"
"221036","130-UY","2017/11/03 20:39:00","新北市汐止區新昌路9號","121.662016666667","25.067275","6501100","汐止區"
"221015","131-UY","2017/11/03 20:38:51","新北市汐止區建成路52號","121.663723333333","25.0728633333333","6501100","汐止區"
"221012","276-VK","2017/11/03 13:13:45","新北市汐止區汐萬路一段256巷3號","121.65345","25.074585","6501100","汐止區"
"221012","278-VK","2017/11/03 20:39:06","新北市汐止區大同路三段241號","121.672688333333","25.076685","6501100","汐止區"
"221023","279-VK","2017/11/03 20:38:54","新北市汐止區連峰街1巷1號","121.646331666667","25.0759933333333","6501100","汐止區"
"221032","280-BY","2017/11/03 20:39:00","新北市汐止區橫科路322巷24弄6-1號","121.62033","25.0501333333333","6501100","汐止區"
"221027","281-BY","2017/11/03 20:38:59","新北市汐止區大同路二段565號","121.66276","25.06987","6501100","汐止區"
"221029","298-VK","2017/11/03 20:39:08","新北市汐止區大同路一段515巷6號","121.645463333333","25.062495","6501100","汐止區"
"221021","299-VK","2017/11/03 20:39:09","新北市汐止區水源路一段284號","121.65421","25.0583066666667","6501100","汐止區"
"221031","353-TW","2017/11/03 20:38:57","新北市汐止區中興路74號","121.635121666667","25.0616216666667","6501100","汐止區"
"221002","358-BY","2017/11/03 20:39:11","新北市汐止區福德二路169號","121.63081","25.06518","6501100","汐止區"
"221035","622-UM","2017/11/03 20:39:03","新北市汐止區長江街101-5號","121.658705","25.073215","6501100","汐止區"
"221025","623-UM","2017/11/03 20:39:04","新北市汐止區水源路二段144號","121.657385","25.0546666666667","6501100","汐止區"
"221038","646-BX","2017/11/03 20:38:56","新北市汐止區大同路二段196號","121.652993333333","25.0642766666667","6501100","汐止區"
"221033","647-BX","2017/11/03 20:39:08","新北市汐止區合順街18巷8弄5號","121.620331666667","25.04191","6501100","汐止區"
"221018","753-BX","2017/11/03 20:38:56","新北市汐止區茄苳路112號","121.667841666667","25.070335","6501100","汐止區"
"220079","145-BY","2017/11/03 20:39:11","新北市林口區太平里180號","121.366511666667","25.134695","6500100","板橋區"
"220084","256-TC","2017/11/03 20:39:05","新北市板橋區滿平街2巷10號","121.425148333333","24.9894133333333","6500100","板橋區"
"220062","303-R5","2017/11/03 20:38:53","新北市三重區光復路二段175號","121.472388333333","25.0619916666667","6500100","板橋區"
"220089","487-VK","2017/11/03 20:39:08","新北市板橋區四維路367號","121.462083333333","25.0302716666667","6500100","板橋區"
"242019","280-VK","2017/11/03 20:38:59","新北市新莊區銘德街99號","121.455886666667","25.0433616666667","6500500","新莊區"
"220103","561-BX","2017/11/03 20:39:01","新北市板橋區漢生東路35號","121.465451666667","25.0169666666667","6500100","板橋區"
"220070","AAC-253","2017/11/03 20:38:25","新北市五股區中直路15-2號","121.423386666667","25.1110666666667","6500100","板橋區"
