"lineid","car","time","location","longitude","latitude","cityid","cityname"
"234074","AAC-211","2017/11/03 21:08:08","新北市三重區光復路二段129巷6號","121.474981666667","25.0593983333333","6500400","永和區"
"231059","046-UY","2017/11/03 21:08:58","新北市新店區僑信路4巷1號","121.499661666667","24.9527866666667","6500600","新店區"
"231061","047-UY","2017/11/03 21:08:58","新北市新店區永平街27號","121.51687","24.9835766666667","6500600","新店區"
"231060","106-UY","2017/11/03 21:08:50","新北市新店區安康路二段357號","121.495806666667","24.9548716666667","6500600","新店區"
"231048","108-UY","2017/11/03 21:09:08","新北市新店區北新路三段2號","121.542525","24.9790533333333","6500600","新店區"
"231050","KEA-2219","2017/11/03 21:09:01","新北市新店區三民路31-1號","121.537951666667","24.9701266666667","6500600","新店區"
"231054","AAD-862","2017/11/03 21:09:02","新北市新店區大新街7巷23號","121.544263333333","24.9678083333333","6500600","新店區"
"231067","4772-VM","2017/11/03 21:09:05","新北市新店區安康路二段237號","121.508238333333","24.9586166666667","6500600","新店區"
"231065","512-UM","2017/11/03 21:08:54","新北市新店區安祥路69巷89弄15號","121.482995","24.95986","6500600","新店區"
"231064","515-UM","2017/11/03 21:08:51","新北市新店區安德街60巷9-3號","121.509175","24.9621966666667","6500600","新店區"
"231040","619-UM","2017/11/03 21:09:03","新北市新店區北新路一段100號","121.54203","24.9694766666667","6500600","新店區"
"231042","641-BX","2017/11/03 21:09:03","新北市新店區寶興路60巷4號","121.5498","24.971855","6500600","新店區"
"231063","645-TV","2017/11/03 21:08:50","新北市新店區玫瑰路58巷2號","121.495451666667","24.94661","6500600","新店區"
"231051","719-UY","2017/11/03 21:09:07","新北市新店區中正路539-5號","121.533483333333","24.98663","6500600","新店區"
"231043","899-TW","2017/11/03 21:08:58","新北市新店區薏仁坑路2-1號","121.500695","24.9581183333333","6500600","新店區"
"241011","013-R5","2017/11/03 21:09:12","新北市三重區秀江街57號","121.500906666667","25.0725816666667","6500200","三重區"
"241028","022-UY","2017/11/03 21:08:43","新北市三重區正義南路54號","121.498246666667","25.06067","6500200","三重區"
"241015","059-VK","2017/11/03 21:08:49","新北市三重區福德北路46號","121.502046666667","25.0654983333333","6500200","三重區"
"241009","060-VK","2017/11/03 21:09:00","新北市三重區忠孝路二段122號","121.483008333333","25.0688083333333","6500200","三重區"
"241031","061-VK","2017/11/03 21:08:51","新北市三重區重新路五段428號","121.475226666667","25.0475216666667","6500200","三重區"
"241017","063-VK","2017/11/03 21:09:00","新北市三重區大同北路132巷8號","121.49233","25.064645","6500200","三重區"
"241024","065-VK","2017/11/03 21:09:04","新北市三重區國道路一段58巷15號","121.48136","25.072085","6500200","三重區"
"241026","066-VK","2017/11/03 21:09:05","新北市三重區同安東街120號","121.499855","25.057455","6500200","三重區"
"241003","091-VK","2017/11/03 21:09:10","新北市三重區仁義街387號","121.494555","25.0852866666667","6500200","三重區"
"241008","156-TC","2017/11/03 21:08:59","新北市三重區自強路一段61-1號","121.498021666667","25.067485","6500200","三重區"
"241005","262-UM","2017/11/03 21:08:56","新北市三重區三信路182號","121.488036666667","25.0861383333333","6500200","三重區"
"241029","265-UM","2017/11/03 21:08:52","新北市三重區正義南路107號","121.498233333333","25.0585566666667","6500200","三重區"
"241016","266-UM","2017/11/03 21:09:05","新北市三重區信義西街138號","121.495656666667","25.06425","6500200","三重區"
"241022","267-UM","2017/11/03 21:08:55","新北市三重區中正北路64巷23號","121.486021666667","25.0637433333333","6500200","三重區"
"241018","268-UM","2017/11/03 21:09:05","新北市三重區正義北路332-1號","121.494393333333","25.07051","6500200","三重區"
"241032","269-UM","2017/11/03 21:09:07","新北市三重區忠孝路三段127巷5號","121.478453333333","25.0616066666667","6500200","三重區"
"241013","270-UM","2017/11/03 21:08:51","新北市三重區仁賢街6號","121.495651666667","25.0748383333333","6500200","三重區"
"241025","271-UM","2017/11/03 21:08:56","新北市三重區中正北路208巷8號","121.482281666667","25.0669883333333","6500200","三重區"
"241007","398-BY","2017/11/03 21:09:04","新北市三重區三和路四段145巷85號","121.486396666667","25.0787666666667","6500200","三重區"
"241020","413-TH","2017/11/03 21:08:59","新北市三重區忠孝路二段35號","121.485915","25.0710383333333","6500200","三重區"
"241004","475-VK","2017/11/03 21:08:53","新北市三重區仁愛街418號","121.490443333333","25.0814066666667","6500200","三重區"
"241019","478-VK","2017/11/03 21:08:59","新北市三重區自強路二段74巷19號","121.487943333333","25.06992","6500200","三重區"
"241030","480-VK","2017/11/03 21:09:02","新北市三重區五谷王北街20巷15弄1號","121.475073333333","25.0484816666667","6500200","三重區"
"241014","543-UM","2017/11/03 21:08:53","新北市三重區三和路二段37-8號","121.501375","25.067525","6500200","三重區"
"241023","545-UM","2017/11/03 21:09:05","新北市三重區忠孝路三段50巷41弄64號","121.482386666667","25.0638283333333","6500200","三重區"
"241001","547-UM","2017/11/03 21:09:05","新北市三重區福隆路44號","121.492355","25.0783516666667","6500200","三重區"
"241006","AAD-863","2017/11/03 21:08:57","新北市三重區明志街135號","121.489291666667","25.0632366666667","6500200","三重區"
"241002","887-TS","2017/11/03 21:09:06","新北市三重區五華街14號","121.494916666667","25.0802733333333","6500200","三重區"
"241012","941-UM","2017/11/03 21:09:07","新北市三重區仁信街27號","121.501323333333","25.075605","6500200","三重區"
"241033","AAC-255","2017/11/03 21:09:10","新北市三重區中興北街283號","121.469103333333","25.062035","6500200","三重區"
"235062","800-TS","2017/11/03 20:34:41","新北市中和區員山路36巷16-3號","121.484961666667","24.991735","6500300","中和區"
"235059","AAC-215","2017/11/03 21:08:54","新北市新店區安平路42號","121.521995","24.9677133333333","6500300","中和區"
"247022","893-R6","2017/11/03 21:09:08","新北市蘆洲區中正路261號","121.467456666667","25.0872783333333","6501400","蘆洲區"
"247012","546-UM","2017/11/03 21:09:08","新北市蘆洲區民族路48號","121.476903333333","25.0844483333333","6501400","蘆洲區"
"247019","500-BY","2017/11/03 21:09:07","新北市蘆洲區民族路436巷9號","121.472906666667","25.0926766666667","6501400","蘆洲區"
"247010","339-TH","2017/11/03 21:09:04","新北市蘆洲區鷺江街50號","121.477171666667","25.08323","6501400","蘆洲區"
"247002","337-TH","2017/11/03 21:09:02","新北市蘆洲區永平街24號","121.45899","25.09066","6501400","蘆洲區"
"247004","336-TH","2017/11/03 21:09:01","新北市蘆洲區永安南路二段282號","121.457903333333","25.08114","6501400","蘆洲區"
"247016","057-VK","2017/11/03 21:08:50","新北市蘆洲區和平路138號","121.466901666667","25.0807466666667","6501400","蘆洲區"
"247006","056-VK","2017/11/03 21:09:06","新北市蘆洲區永安南路二段16巷18號","121.468108333333","25.0778016666667","6501400","蘆洲區"
"247008","053-VK","2017/11/03 21:08:55","新北市蘆洲區民生街45號","121.475063333333","25.07887","6501400","蘆洲區"
"247014","007-UY","2017/11/03 21:09:10","新北市蘆洲區中央路155號","121.47263","25.08474","6501400","蘆洲區"
"247024","002-UY","2017/11/03 21:09:04","新北市蘆洲區長興路50巷1號","121.463735","25.0837966666667","6501400","蘆洲區"
"247018","001-UY","2017/11/03 21:09:05","新北市蘆洲區民族路408巷7號","121.47482","25.0919583333333","6501400","蘆洲區"
"223003","205-TH","2017/11/03 09:51:14","新北市石碇區小粗坑(潭邊里)9-2號","121.678881666667","24.9863","6501900","石碇區"
"251004","009-UM","2017/11/03 21:08:52","新北市淡水區民生路117巷54弄2號","121.46463","25.1404983333333","6501000","淡水區"
"251013","180-VK","2017/11/03 21:08:52","新北市淡水區行忠路590號","121.468185","25.19925","6501000","淡水區"
"251010","413-VK","2017/11/03 21:09:03","新北市淡水區中正路一段63巷7弄1號","121.423275","25.1773066666667","6501000","淡水區"
"251012","441-VK","2017/11/03 21:09:06","新北市三芝區後厝里大片頭116號","121.457791666667","25.2415366666667","6501000","淡水區"
"251005","443-VK","2017/11/03 21:09:10","新北市淡水區中正東路35巷28號","121.446771666667","25.168885","6501000","淡水區"
"251001","559-UM","2017/11/03 21:08:58","新北市淡水區新市一路三段101巷16弄3號","121.446575","25.1838533333333","6501000","淡水區"
"251006","561-UM","2017/11/03 21:04:18","新北市淡水區中正路二段31號","121.419118333333","25.18178","6501000","淡水區"
"251009","575-R6","2017/11/03 21:08:55","新北市淡水區民族路112巷40號","121.461961666667","25.1344083333333","6501000","淡水區"
"251011","650-BX","2017/11/03 21:09:08","新北市淡水區新民街180巷31號","121.43796","25.1796816666667","6501000","淡水區"
"251002","672-BX","2017/11/03 21:09:03","新北市淡水區學府路172巷21號","121.448271666667","25.1752","6501000","淡水區"
"251003","673-BX","2017/11/03 21:09:06","新北市淡水區新春街96號","121.43912","25.1824166666667","6501000","淡水區"
"236001","138-TH","2017/11/03 14:15:24","新北市土城區永平街51號","121.427995","24.95918","6501300","土城區"
"242046","172-VK","2017/11/03 21:09:01","新北市樹林區中山路三段204號","121.38683","24.9682916666667","6500500","新莊區"
"242001","233-RS","2017/11/03 08:28:36","新北市新莊區環河路48-7號","121.436891666667","25.0097866666667","6500500","新莊區"
"221012","276-VK","2017/11/03 13:13:45","新北市汐止區汐萬路一段256巷3號","121.65345","25.074585","6501100","汐止區"
"221002","358-BY","2017/11/03 21:08:51","新北市汐止區康寧街901號","121.651651666667","25.0749166666667","6501100","汐止區"
"220079","145-BY","2017/11/03 21:09:11","新北市板橋區大觀路一段28巷1弄104號","121.451556666667","25.006175","6500100","板橋區"
"220070","AAC-253","2017/11/03 21:09:05","新北市八里區下罟子9-8號","121.382698333333","25.1406216666667","6500100","板橋區"
