"lineid","car","time","location","longitude","latitude","cityid","cityname"
"248005","653-BX","2017/09/07 09:09:16","新北市五股區水碓路24號","121.433376666667","25.072775","6501500","五股區"
"244012","069-UM","2017/09/07 09:09:19","新北市林口區中山路262-1號","121.384586666667","25.0798933333333","6501700","林口區"
"244006","080-UY","2017/09/07 09:09:23","新北市林口區林口路124巷10弄11號","121.389365","25.0814383333333","6501700","林口區"
"244018","403-UM","2017/09/07 09:09:18","新北市林口區麗園路121號","121.371551666667","25.0675183333333","6501700","林口區"
"244008","410-SL","2017/09/07 09:09:27","新北市林口區文林一街12巷1號","121.377468333333","25.0854883333333","6501700","林口區"
"244022","483-VK","2017/09/07 09:06:53","新北市林口區東湖路105巷22號","121.383998333333","25.0722683333333","6501700","林口區"
"244016","485-VK","2017/09/07 09:09:15","新北市林口區文化二路一段120巷5號","121.367926666667","25.0699466666667","6501700","林口區"
"244003","657-BX","2017/09/07 09:09:15","新北市林口區嘉寶里15鄰43號","121.341163333333","25.1068766666667","6501700","林口區"
"244010","701-TV","2017/09/07 09:09:27","新北市林口區中正路41巷5號","121.39578","25.0768866666667","6501700","林口區"
"244024","837-TS","2017/09/07 09:09:14","新北市林口區仁愛路二段626號","121.371333333333","25.0791666666667","6501700","林口區"
"222005","289-BY","2017/09/07 09:09:17","新北市深坑區土庫尖路92-1號","121.633851666667","25.0173333333333","6501800","深坑區"
"222002","659-BX","2017/09/07 08:48:30","新北市深坑區文山路三段48-1號","121.609946666667","24.9985466666667","6501800","深坑區"
"231069","189-VK","2017/09/07 09:09:19","新北市新店區新烏路三段215巷19號","121.506281666667","24.9036","6500600","新店區"
"231008","192-VK","2017/09/07 09:09:27","新北市新店區廣興路66巷3號","121.538831666667","24.9136966666667","6500600","新店區"
"226005","5620-A6","2017/09/07 09:09:15","新北市平溪區靜安路三段67號","121.765971666667","25.0324816666667","6502400","平溪區"
"226002","7418-A5","2017/09/07 09:09:06","新北市平溪區東勢里芊蓁坑4號","121.740743333333","24.9995483333333","6502400","平溪區"
"223002","198-BX","2017/09/07 09:09:15","新北市石碇區內楒仔腳1-8號","121.63398","24.96783","6501900","石碇區"
"223003","205-TH","2017/09/07 09:09:26","新北市石碇區北宜路六段十三股巷1號","121.648958333333","24.9478516666667","6501900","石碇區"
"223008","406-TH","2017/09/07 09:09:30","新北市石碇區光明路13號","121.67998","25.0336033333333","6501900","石碇區"
"223001","437-BY","2017/09/07 09:09:15","新北市石碇區北宜路六段十三股巷1號","121.648476666667","24.949895","6501900","石碇區"
"223004","660-BX","2017/09/07 09:09:26","新北市石碇區碇坪路二段81號","121.685278333333","24.964815","6501900","石碇區"
"223007","661-BX","2017/09/07 09:09:29","新北市石碇區碇南路二段7號","121.66817","25.0315733333333","6501900","石碇區"
"223005","677-TV","2017/09/07 09:09:18","新北市石碇區碇坪路二段71號","121.685501666667","24.9653183333333","6501900","石碇區"
"253003","6232-TK","2017/09/07 09:09:31","新北市石門區尖子鹿17-4號","121.576241666667","25.2790466666667","6502200","石門區"
"253001","6251-TK","2017/09/07 09:09:24","新北市石門區下員坑51號","121.526938333333","25.2661483333333","6502200","石門區"
"253002","637-UY","2017/09/07 09:04:29","新北市石門區尖山湖19號","121.558601666667","25.2469683333333","6502200","石門區"
"253004","8270-PC","2017/09/07 09:06:57","新北市石門區草埔尾31-1號","121.603246666667","25.265055","6502200","石門區"
"252004","249-BX","2017/09/07 09:09:16","新北市三芝區興華里車埕70-1號","121.493315","25.1936133333333","6502100","三芝區"
"252007","AAC-283","2017/09/07 09:09:19","新北市三芝區樂全街1號","121.487643333333","25.2590866666667","6502100","三芝區"
"237001","159-UY","2017/09/07 09:09:28","新北市三峽區學府路122號","121.374456666667","24.9489433333333","6500900","三峽區"
"236009","165-UM","2017/09/07 09:09:16","新北市土城區金城路二段46巷1-24號","121.45371","24.9755916666667","6501300","土城區"
"236003","339-SR","2017/09/07 09:09:22","新北市土城區中央路二段276-1號","121.440793333333","24.9743416666667","6501300","土城區"
"236005","498-BY","2017/09/07 09:09:23","新北市土城區中央路三段76巷43號","121.43576","24.968725","6501300","土城區"
"242030","AAC-296","2017/09/07 09:09:28","新北市新莊區公園一路132號","121.446096666667","25.038155","6500500","新莊區"
"242028","986-R7","2017/09/07 09:09:26","新北市新莊區中華路二段187號","121.452433333333","25.0524216666667","6500500","新莊區"
"242049","751-BX","2017/09/07 09:09:23","新北市新莊區民安西路252巷31號","121.425208333333","25.0136366666667","6500500","新莊區"
"242024","615-BX","2017/09/07 09:09:19","新北市新莊區五工二路70號","121.460263333333","25.0658266666667","6500500","新莊區"
"242022","613-BX","2017/09/07 09:09:28","新北市新莊區化成路495-1號","121.464946666667","25.0631283333333","6500500","新莊區"
"242026","612-BX","2017/09/07 09:09:26","新北市新莊區幸福路615號","121.451906666667","25.049205","6500500","新莊區"
"242038","566-BX","2017/09/07 09:09:34","新北市新莊區成功街78-1號","121.424161666667","25.0188733333333","6500500","新莊區"
"242043","497-BY","2017/09/07 09:09:29","新北市新莊區中正路746巷45-1號","121.411221666667","25.0253383333333","6500500","新莊區"
"242047","441-UM","2017/09/07 09:09:27","新北市新莊區四維路152巷14號","121.422173333333","25.0229966666667","6500500","新莊區"
"242052","440-UM","2017/09/07 09:09:20","新北市新莊區西盛街392號","121.42772","25.0127666666667","6500500","新莊區"
"242033","415-TV","2017/09/07 09:09:23","新北市新莊區建中街81巷10弄12號","121.446925","25.0359966666667","6500500","新莊區"
"242003","413-TV","2017/09/07 09:09:24","新北市新莊區化成路63巷24弄21號","121.46256","25.0459133333333","6500500","新莊區"
"242040","400-BY","2017/09/07 09:09:16","新北市新莊區天祥街53號","121.414825","25.0303566666667","6500500","新莊區"
"242059","362-BY","2017/09/07 09:09:16","新北市新莊區瓊林路104-17號","121.443395","25.0264066666667","6500500","新莊區"
"242057","353-BY","2017/09/07 09:09:12","新北市新莊區八德街115號","121.424093333333","25.020785","6500500","新莊區"
"242006","132-UY","2017/09/07 09:09:27","新北市新莊區思源路287巷2弄1號","121.459208333333","25.0483166666667","6500500","新莊區"
"242035","133-UY","2017/09/07 09:09:17","新北市新莊區建安街9巷1號","121.42894","25.0266983333333","6500500","新莊區"
"242020","135-UY","2017/09/07 09:09:29","新北市新莊區中興街23號","121.449225","25.036425","6500500","新莊區"
"242045","172-VK","2017/09/07 09:09:17","新北市新莊區裕民街103巷11號","121.418993333333","25.0229316666667","6500500","新莊區"
"242008","173-VK","2017/09/07 09:09:29","新北市新莊區昌隆街116號","121.457121666667","25.0509516666667","6500500","新莊區"
"242014","175-VK","2017/09/07 09:09:27","新北市新莊區永樂街241號","121.446021666667","25.04432","6500500","新莊區"
"242001","176-VK","2017/09/07 09:09:14","新北市新莊區中正路20號","121.465168333333","25.04198","6500500","新莊區"
"242012","346-TH","2017/09/07 09:09:31","新北市新莊區中和街191巷71號","121.446641666667","25.0514033333333","6500500","新莊區"
"242018","348-TH","2017/09/07 09:09:23","新北市新莊區銘德街37號","121.45815","25.0436716666667","6500500","新莊區"
"242055","349-TH","2017/09/07 09:09:19","新北市新莊區中正路347巷17弄2號","121.44731","25.0343616666667","6500500","新莊區"
"242016","350-TH","2017/09/07 09:09:30","新北市新莊區中港一街24巷4號","121.451195","25.0459516666667","6500500","新莊區"
"242010","351-TH","2017/09/07 09:09:10","新北市新莊區中信街21號","121.450965","25.0507483333333","6500500","新莊區"
