"lineid","car","time","location","longitude","latitude","cityid","cityname"
"234044","148-BY","2017/09/07 13:59:33","新北市永和區永利路173號","121.525448333333","25.0034166666667","6500400","永和區"
"234012","149-BY","2017/09/07 13:59:16","新北市永和區保生路55號","121.50474","25.0106233333333","6500400","永和區"
"234005","207-UY","2017/09/07 13:59:30","新北市中和區中和路456號","121.512086666667","25.0037916666667","6500400","永和區"
"234078","298-R6","2017/09/07 13:59:16","新北市永和區國中路27號","121.524486666667","25.0053733333333","6500400","永和區"
"234036","336-UY","2017/09/07 13:59:16","新北市永和區成功路二段116號","121.526568333333","24.9978583333333","6500400","永和區"
"234062","337-UY","2017/09/07 13:59:30","新北市永和區秀朗路一段220巷3號","121.520103333333","25.0030083333333","6500400","永和區"
"234084","338-UY","2017/09/07 13:59:24","新北市永和區永利路2號","121.51731","25.0058883333333","6500400","永和區"
"234068","552-UM","2017/09/07 13:59:24","新北市永和區中正路553號","121.51685","25.00823","6500400","永和區"
"234052","553-UM","2017/09/07 13:59:30","新北市永和區竹林路39巷33弄1號","121.51999","25.0152116666667","6500400","永和區"
"234015","745-BX","2017/09/07 13:59:18","新北市永和區文化路111號","121.512806666667","25.0152416666667","6500400","永和區"
"234028","746-BX","2017/09/07 13:59:21","新北市永和區民權路49巷5弄21號","121.521","24.9977233333333","6500400","永和區"
"234060","AAD-866","2017/09/07 13:59:33","新北市永和區得和路68號","121.516223333333","24.9998916666667","6500400","永和區"
"234040","862-TW","2017/09/07 13:59:25","新北市永和區中和路335巷18弄3號","121.507583333333","25.0003233333333","6500400","永和區"
"234048","863-TW","2017/09/07 13:59:16","新北市永和區保安路246號","121.506465","25.0127416666667","6500400","永和區"
"234010","9373-KE","2017/09/07 13:59:24","新北市永和區仁愛路352巷92弄20號","121.501395","25.008335","6500400","永和區"
"248015","026-BX","2017/09/07 13:59:27","新北市五股區成泰路三段543巷12弄1號","121.45122","25.1021616666667","6501500","五股區"
"248007","095-VK","2017/09/07 13:59:20","新北市五股區中興路一段128巷23號","121.46567","25.07469","6501500","五股區"
"248017","225-UY","2017/09/07 13:59:29","新北市五股區民義路一段287巷2-8號","121.423453333333","25.0903033333333","6501500","五股區"
"248011","247-BX","2017/09/07 13:59:24","新北市五股區成泰路二段195巷1號","121.440341666667","25.08739","6501500","五股區"
"248009","272-BY","2017/09/07 13:59:34","新北市五股區水碓一路23號","121.430721666667","25.0713633333333","6501500","五股區"
"248003","677-BX","2017/09/07 13:59:13","新北市五股區民義路二段16號","121.420845","25.0964633333333","6501500","五股區"
"248001","678-BX","2017/09/07 13:59:20","新北市五股區凌雲路一段156巷1號","121.448868333333","25.10268","6501500","五股區"
"234022","9380-KE","2017/09/07 13:59:18","新北市永和區永和路二段233號","121.515565","25.0141266666667","6500400","永和區"
"234076","969-R7","2017/09/07 13:59:29","新北市永和區民治街72巷8號","121.518346666667","24.9983233333333","6500400","永和區"
"234072","AAC-211","2017/09/07 13:59:33","新北市永和區豫溪街207巷5號","121.52349","25.0099883333333","6500400","永和區"
"234066","AAC-212","2017/09/07 13:59:27","新北市永和區中山路一段281巷1號","121.507275","25.006835","6500400","永和區"
"234001","AAC-295","2017/09/07 13:59:25","新北市永和區福和路308號","121.516375","25.0073783333333","6500400","永和區"
"244018","403-UM","2017/09/07 10:54:26","新北市林口區粉寮69號","121.405078333333","25.09083","6501700","林口區"
"243005","AAD-798","2017/09/07 13:59:24","新北市泰山區明志路三段237號","121.42351","25.0378016666667","6501600","泰山區"
"243001","297-R6","2017/09/07 13:59:22","新北市泰山區泰林路二段342號","121.42945","25.0634183333333","6501600","泰山區"
"243007","380-SR","2017/09/07 13:59:19","新北市泰山區泰林路二段240號","121.432151666667","25.0620666666667","6501600","泰山區"
"243006","421-VK","2017/09/07 13:59:32","新北市泰山區黎明路2-5號","121.420876666667","25.0626183333333","6501600","泰山區"
"243002","KEA-2215","2017/09/07 13:59:17","新北市泰山區辭修路24號","121.429028333333","25.0581316666667","6501600","泰山區"
"243003","KEA-2216","2017/09/07 13:59:19","新北市泰山區明志路二段320巷2弄10號","121.426111666667","25.046605","6501600","泰山區"
"243004","646-TV","2017/09/07 13:59:33","新北市泰山區仁德路106號","121.4326","25.05689","6501600","泰山區"
"243008","680-BX","2017/09/07 13:59:20","新北市泰山區明志路二段179號","121.427591666667","25.050035","6501600","泰山區"
"231002","002-UM","2017/09/07 13:59:24","新北市新店區復興路106-24號","121.532171666667","24.99009","6500600","新店區"
"231028","046-UY","2017/09/07 13:59:14","新北市新店區安和路三段89號","121.517955","24.984005","6500600","新店區"
"231030","047-UY","2017/09/07 13:59:22","新北市新店區安興路7-1號","121.51502","24.9686033333333","6500600","新店區"
"231029","106-UY","2017/09/07 13:59:18","新北市新店區安和路一段2號","121.517061666667","24.9646433333333","6500600","新店區"
"231018","107-UY","2017/09/07 13:59:14","新北市新店區中央路116號","121.531133333333","24.9751583333333","6500600","新店區"
"231011","108-UY","2017/09/07 13:59:27","新北市新店區五峰路62號","121.545855","24.96831","6500600","新店區"
"231036","110-UY","2017/09/07 13:59:17","新北市新店區安祥路109巷3弄37號","121.478993333333","24.96083","6500600","新店區"
"231021","187-VK","2017/09/07 13:59:21","新北市新店區自強路90號","121.546401666667","24.9240916666667","6500600","新店區"
"231007","189-VK","2017/09/07 12:00:53","新北市新店區安華路28-1號","121.519586666667","24.9609916666667","6500600","新店區"
"231026","256-BX","2017/09/07 13:59:26","新北市新店區環河路29巷1號","121.535696666667","24.961185","6500600","新店區"
"231017","AAD-862","2017/09/07 13:59:17","新北市新店區北宜路二段82巷9弄2號","121.553836666667","24.9521483333333","6500600","新店區"
"231001","355-BY","2017/09/07 13:59:24","新北市新店區三民路38號","121.536238333333","24.9714533333333","6500600","新店區"
"231027","3712-VJ","2017/09/07 13:59:25","新北市新店區中興路一段24-2號","121.538518333333","24.9582383333333","6500600","新店區"
"231024","3713-VJ","2017/09/07 13:59:33","新北市新店區北新路一段271巷31號","121.54002","24.967145","6500600","新店區"
"231025","4716-K9","2017/09/07 13:59:32","新北市新店區中正路336號","121.536768333333","24.9749483333333","6500600","新店區"
"231038","4715-K9","2017/09/07 13:59:18","新北市新店區溪洲路121號","121.531083333333","24.9628816666667","6500600","新店區"
"231023","513-UM","2017/09/07 13:59:34","新北市新店區文中路51號","121.539808333333","24.9566166666667","6500600","新店區"
"231035","515-UM","2017/09/07 13:59:13","新北市新店區安和路一段1號","121.516503333333","24.96383","6500600","新店區"
"231003","616-UM","2017/09/07 13:59:20","新北市新店區北宜路一段3號","121.53852","24.958565","6500600","新店區"
"231006","617-UM","2017/09/07 13:59:27","新北市新店區光明街93號","121.538865","24.9610583333333","6500600","新店區"
"231034","645-TV","2017/09/07 13:59:16","新北市新店區達觀路40號","121.50309","24.9387433333333","6500600","新店區"
"231013","719-UM","2017/09/07 13:59:26","新北市新店區明德路66號","121.541676666667","24.9795716666667","6500600","新店區"
"231031","720-UM","2017/09/07 13:59:27","新北市新店區秀山路72號","121.531301666667","24.9609183333333","6500600","新店區"
"231005","897-TW","2017/09/07 13:59:23","新北市新店區寶中路51號","121.546705","24.98014","6500600","新店區"
"231004","899-TW","2017/09/07 13:59:21","新北市新店區北新路二段137號","121.542841666667","24.9755516666667","6500600","新店區"
"231037","AKT-0513","2017/09/07 13:59:30","新北市新店區安康路三段137號","121.48964","24.9515383333333","6500600","新店區"
"235030","003-UY","2017/09/07 13:59:17","新北市中和區廣福路78號","121.503055","25.00151","6500300","中和區"
"235028","005-UY","2017/09/07 13:59:34","新北市中和區連城路75巷11號","121.498433333333","24.9984916666667","6500300","中和區"
"235027","006-UY","2017/09/07 13:59:24","新北市中和區中正路530號","121.48776","24.9945016666667","6500300","中和區"
"235020","096-UM","2017/09/07 13:59:14","新北市中和區中正路1210號","121.480013333333","25.01062","6500300","中和區"
"235003","097-UM","2017/09/07 13:59:30","新北市中和區景平路64巷13弄16號","121.521893333333","24.9913766666667","6500300","中和區"
"235029","098-UM","2017/09/07 13:59:18","新北市中和區福祥路135號","121.498398333333","25.0073683333333","6500300","中和區"
"235004","150-BY","2017/09/07 13:59:32","新北市中和區保健路46巷20弄2號","121.508901666667","24.9961683333333","6500300","中和區"
"235022","151-BY","2017/09/07 13:59:21","新北市中和區連城路532巷12號","121.474983333333","24.9923283333333","6500300","中和區"
"235019","183-VK","2017/09/07 13:59:18","新北市中和區中山路三段229巷57-1號","121.468993333333","25.0053016666667","6500300","中和區"
"235002","185-VK","2017/09/07 13:59:15","新北市中和區大勇街43巷11號","121.517091666667","24.994645","6500300","中和區"
"235013","186-VK","2017/09/07 13:59:27","新北市中和區景安路167巷7號","121.505863333333","24.994665","6500300","中和區"
"235031","255-BX","2017/09/07 13:59:15","新北市中和區新生街262號","121.483743333333","24.9972633333333","6500300","中和區"
"235008","293-VK","2017/09/07 13:59:27","新北市中和區復興路348號","121.499975","24.990345","6500300","中和區"
"235036","301-VK","2017/09/07 13:59:13","新北市中和區中山路二段41號","121.504623333333","25.0051666666667","6500300","中和區"
"235007","352-BY","2017/09/07 13:54:01","新北市中和區成功路41巷1號","121.526176666667","24.99317","6500300","中和區"
"235015","376-QA","2017/09/07 13:59:31","新北市中和區忠孝街4號","121.510138333333","24.9827516666667","6500300","中和區"
"235032","377-QA","2017/09/07 13:59:18","新北市中和區圓通路265巷26號","121.495501666667","24.9925766666667","6500300","中和區"
"235025","378-QA","2017/09/07 13:59:34","新北市中和區民享街59巷1號","121.474298333333","25.0025183333333","6500300","中和區"
"235014","4979-A6","2017/09/07 13:59:23","新北市中和區興南路二段49號","121.507386666667","24.98539","6500300","中和區"
"235033","4980-A6","2017/09/07 13:59:16","新北市中和區中和路100號","121.502053333333","24.999465","6500300","中和區"
"235006","551-UM","2017/09/07 13:59:30","新北市中和區秀朗路三段22巷22號","121.525408333333","24.99618","6500300","中和區"
"235034","558-UM","2017/09/07 13:59:22","新北市中和區中和路199號","121.503703333333","24.9998466666667","6500300","中和區"
"235009","565-BX","2017/09/07 13:59:32","新北市中和區景新街463號","121.513341666667","24.9881666666667","6500300","中和區"
"235018","640-BX","2017/09/07 13:59:21","新北市中和區民治街120號","121.474973333333","25.0033516666667","6500300","中和區"
"235011","732-UM","2017/09/07 13:59:19","新北市中和區興南路二段74巷2號","121.50546","24.984925","6500300","中和區"
"235026","800-TS","2017/09/07 13:59:21","新北市中和區中山路二段340巷63號","121.492703333333","25.0048566666667","6500300","中和區"
"235021","801-TS","2017/09/07 13:59:19","新北市中和區民利街16-1號","121.480538333333","24.99916","6500300","中和區"
"235005","802-TS","2017/09/07 13:59:20","新北市中和區永貞路225號","121.513568333333","25.003685","6500300","中和區"
"235016","805-TS","2017/09/07 13:59:26","新北市中和區興南路二段399巷33號","121.500106666667","24.978465","6500300","中和區"
"235012","896-TW","2017/09/07 13:59:30","新北市中和區華新街61號","121.507978333333","24.984225","6500300","中和區"
"235017","900-TW","2017/09/07 13:59:15","新北市中和區華順街131號","121.465261666667","24.9963283333333","6500300","中和區"
"235023","911-UM","2017/09/07 13:59:28","新北市中和區民治街1巷4號","121.47504","25.0055566666667","6500300","中和區"
"235001","157-BY","2017/09/07 13:59:13","新北市中和區興南路二段11號","121.508245","24.9861983333333","6500300","中和區"
"235001","AAC-213","2017/09/07 13:59:19","新北市中和區自立路99巷24號","121.523463333333","24.9946116666667","6500300","中和區"
"235023","AAC-215","2017/09/07 13:59:30","新北市中和區圓通路367巷20弄23號","121.49137","24.9883333333333","6500300","中和區"
"220016","013-TV","2017/09/07 13:59:19","新北市板橋區中山路二段465巷40弄2號","121.481228333333","25.021495","6500100","板橋區"
"220013","072-UY","2017/09/07 13:59:16","新北市板橋區漢生東路324號","121.471725","25.0079716666667","6500100","板橋區"
"220034","073-UY","2017/09/07 13:59:14","新北市板橋區民權路209號","121.45786","25.01485","6500100","板橋區"
"220105","075-UY","2017/09/07 13:59:21","新北市板橋區文化路二段124巷28-2號","121.471221666667","25.0256766666667","6500100","板橋區"
"220017","AAD-861","2017/09/07 13:59:24","新北市板橋區大華街33號","121.459171666667","25.00588","6500100","板橋區"
"220051","120-SR","2017/09/07 13:59:27","新北市板橋區萬板路706號","121.48159","25.027425","6500100","板橋區"
"247019","500-BY","2017/09/07 13:59:21","新北市蘆洲區民族路422巷29號","121.473438333333","25.0934283333333","6501400","蘆洲區"
"247009","339-TH","2017/09/07 13:59:16","新北市蘆洲區中興街48號","121.481638333333","25.087225","6501400","蘆洲區"
"247001","337-TH","2017/09/07 13:59:29","新北市蘆洲區三民路605號","121.460651666667","25.093765","6501400","蘆洲區"
"247003","336-TH","2017/09/07 13:59:17","新北市蘆洲區中華街6號","121.463398333333","25.081665","6501400","蘆洲區"
"247015","057-VK","2017/09/07 13:59:12","新北市蘆洲區光華路37號","121.469096666667","25.0829766666667","6501400","蘆洲區"
"247005","056-VK","2017/09/07 13:59:24","新北市蘆洲區永安南路二段76號","121.464706666667","25.07827","6501400","蘆洲區"
"247007","053-VK","2017/09/07 13:59:34","新北市蘆洲區永安北路二段12巷1號","121.481355","25.0807416666667","6501400","蘆洲區"
"247013","007-UY","2017/09/07 13:59:24","新北市蘆洲區中正路168號","121.468855","25.0860033333333","6501400","蘆洲區"
"247017","001-UY","2017/09/07 13:59:23","新北市蘆洲區民族路255巷18號","121.476048333333","25.0893983333333","6501400","蘆洲區"
"228005","097-TW","2017/09/07 13:55:37","新北市貢寮區美豐里雞母嶺街52-1號","121.88854","25.0684816666667","6502600","貢寮區"
"228004","212-TW","2017/09/07 13:59:25","新北市貢寮區龍崗里嵩陽街35-1號","121.90674","25.0175083333333","6502600","貢寮區"
"208004","AAC-292","2017/09/07 13:59:30","新北市金山區重和里磺溪頭1-1號","121.598203333333","25.214975","6502700","金山區"
"207002","749-BX","2017/09/07 13:59:23","新北市萬里區溪底里烏塗炭9號","121.637603333333","25.1516966666667","6502800","萬里區"
"252005","249-BX","2017/09/07 13:59:28","新北市三芝區橫山里橫山56-6號","121.535358333333","25.248845","6502100","三芝區"
"207001","662-BX","2017/09/07 13:59:24","新北市萬里區磺潭里清水15號","121.638083333333","25.19813","6502800","萬里區"
"236066","105-UM","2017/09/07 13:59:16","新北市土城區城林路6巷80號","121.438481666667","24.9795733333333","6501300","土城區"
"236040","107-UM","2017/09/07 13:59:22","新北市土城區裕生路71號","121.447038333333","24.9847016666667","6501300","土城區"
"236076","166-UM","2017/09/07 13:59:18","新北市土城區永寧路32巷10弄23號","121.428916666667","24.9610366666667","6501300","土城區"
"236028","253-BX","2017/09/07 13:59:15","新北市土城區城林路6巷80號","121.438305","24.9797466666667","6501300","土城區"
"236024","269-VK","2017/09/07 13:59:13","新北市土城區承天路18號","121.439248333333","24.963655","6501300","土城區"
"236012","270-VK","2017/09/07 13:59:21","新北市土城區城林路6巷80號","121.43861","24.9796816666667","6501300","土城區"
"236033","271-VK","2017/09/07 13:59:24","新北市土城區城林路6巷80號","121.438548333333","24.9797516666667","6501300","土城區"
"236018","401-BY","2017/09/07 13:59:15","新北市土城區城林路6巷80號","121.438575","24.9797783333333","6501300","土城區"
"236005","498-BY","2017/09/07 13:59:32","新北市土城區中央路一段365巷21號","121.446151666667","24.9800583333333","6501300","土城區"
"236056","912-UM","2017/09/07 13:59:21","新北市土城區永寧路1號","121.430448333333","24.964835","6501300","土城區"
"236047","913-UM","2017/09/07 13:59:20","新北市土城區城林路6巷80號","121.43883","24.9795983333333","6501300","土城區"
"236060","915-UM","2017/09/07 13:59:15","新北市土城區城林路6巷80號","121.438445","24.9798133333333","6501300","土城區"
"236052","AAC-216","2017/09/07 13:59:18","新北市土城區城林路6巷80號","121.438343333333","24.979845","6501300","土城區"
"242012","346-TH","2017/09/07 09:10:51","新北市新莊區中和街191巷71號","121.446645","25.0513566666667","6500500","新莊區"
"221012","276-VK","2017/09/07 13:05:56","新北市汐止區汐萬路一段256巷3號","121.653453333333","25.07465","6501100","汐止區"
"220027","145-BY","2017/09/07 13:59:24","新北市板橋區民權路260巷1弄13號","121.458211666667","25.0158816666667","6500100","板橋區"
"220028","200-UY","2017/09/07 13:59:29","新北市板橋區大觀路二段265巷3弄33號","121.444241666667","24.9978916666667","6500100","板橋區"
"220030","610-BX","2017/09/07 13:59:33","新北市板橋區篤行路三段76號","121.42686","24.985245","6500100","板橋區"
"220023","256-TC","2017/09/07 13:59:20","新北市板橋區館前西路213巷22號","121.454128333333","25.007965","6500100","板橋區"
"220046","257-TC","2017/09/07 13:59:27","新北市板橋區陽明街162號","121.463391666667","25.0244233333333","6500100","板橋區"
"220040","267-BY","2017/09/07 13:59:31","新北市板橋區莒光路165巷14-1號","121.473998333333","25.0242516666667","6500100","板橋區"
"220004","276-BY","2017/09/07 13:59:21","新北市板橋區信義路148號","121.45887","24.991745","6500100","板橋區"
"220020","277-BY","2017/09/07 13:59:28","新北市板橋區大觀路三段36巷24弄3號","121.434063333333","24.9964016666667","6500100","板橋區"
"220050","280-UM","2017/09/07 13:59:14","新北市板橋區文化路二段182巷1弄2號","121.47117","25.0272233333333","6500100","板橋區"
"220043","283-UM","2017/09/07 13:59:12","新北市板橋區莒光路16巷34號","121.469273333333","25.02373","6500100","板橋區"
"220001","285-VK","2017/09/07 13:59:20","新北市板橋區中山路二段145號","121.475405","25.0165383333333","6500100","板橋區"
"220031","286-VK","2017/09/07 13:59:20","新北市板橋區大觀路一段38巷156弄81號","121.443116666667","25.0069433333333","6500100","板橋區"
"220029","287-VK","2017/09/07 13:59:28","新北市板橋區光華街15巷40號","121.452893333333","25.0115966666667","6500100","板橋區"
"220039","288-VK","2017/09/07 13:59:12","新北市板橋區四維路177巷2弄1號","121.463996666667","25.02626","6500100","板橋區"
"220009","295-UM","2017/09/07 13:59:18","新北市板橋區富山街109巷28弄6號","121.475733333333","25.0216216666667","6500100","板橋區"
"220014","299-UM","2017/09/07 13:59:32","新北市板橋區三民路二段正隆巷12弄16號","121.4778","25.0134283333333","6500100","板橋區"
"242001","281-VK","2017/09/07 13:59:15","新北市新莊區新興街72號","121.450725","25.0380283333333","6500500","新莊區"
"220010","305-R5","2017/09/07 13:59:13","新北市板橋區三民路二段220巷17號","121.478066666667","25.0115","6500100","板橋區"
"220041","307-R5","2017/09/07 13:59:29","新北市板橋區文化路一段90號","121.464271666667","25.0176266666667","6500100","板橋區"
"220047","317-R6","2017/09/07 13:59:30","新北市板橋區民有街26號","121.46613","25.02526","6500100","板橋區"
"220012","486-VK","2017/09/07 13:59:31","新北市板橋區縣民大道二段116號","121.467291666667","25.015745","6500100","板橋區"
"220038","487-VK","2017/09/07 13:59:12","新北市板橋區文化路二段315號","121.472181666667","25.0297133333333","6500100","板橋區"
"220037","491-VK","2017/09/07 13:59:16","新北市板橋區民生路二段208號","121.469556666667","25.021135","6500100","板橋區"
"220104","560-BX","2017/09/07 13:59:14","新北市板橋區中正路277號","121.455525","25.01894","6500100","板橋區"
"220052","561-BX","2017/09/07 13:59:27","新北市板橋區縣民大道二段279號","121.470056666667","25.01785","6500100","板橋區"
"220032","568-UM","2017/09/07 13:59:28","新北市板橋區大觀路二段174巷116弄53號","121.442515","25.0013383333333","6500100","板橋區"
"220011","609-BX","2017/09/07 13:59:26","新北市板橋區中山路二段87號","121.473993333333","25.0158716666667","6500100","板橋區"
"220019","630-UY","2017/09/07 13:59:18","新北市板橋區重慶路245巷7號","121.463638333333","25.0006883333333","6500100","板橋區"
"220005","686-BX","2017/09/07 13:59:19","新北市板橋區館前東路29號","121.460738333333","25.0073683333333","6500100","板橋區"
"220025","687-BX","2017/09/07 13:59:16","新北市板橋區大觀路二段431-1號","121.441238333333","24.994735","6500100","板橋區"
"220042","689-BX","2017/09/07 13:59:29","新北市板橋區民生路三段10號","121.467783333333","25.02413","6500100","板橋區"
"220002","741-BX","2017/09/07 13:59:13","新北市板橋區館前西路4-1號","121.459213333333","25.007075","6500100","板橋區"
"220003","827-TW","2017/09/07 13:59:17","新北市板橋區中山路一段143號","121.464666666667","25.0117583333333","6500100","板橋區"
"220045","831-TW","2017/09/07 13:59:29","新北市板橋區莒光路58號","121.470921666667","25.0242766666667","6500100","板橋區"
"220022","895-R6","2017/09/07 13:59:32","新北市板橋區南雅南路一段2號","121.456383333333","25.0069466666667","6500100","板橋區"
"220021","985-R7","2017/09/07 13:59:24","新北市板橋區館前西路152-1號","121.45534","25.0084916666667","6500100","板橋區"
"220018","AAC-253","2017/09/07 13:59:28","新北市板橋區四川路一段268號","121.458966666667","25.001005","6500100","板橋區"
