"lineid","car","time","location","longitude","latitude","cityid","cityname"
"244018","403-UM","2017/09/07 14:52:51","新北市林口區粉寮69號","121.405128333333","25.0908583333333","6501700","林口區"
"243003","KEA-2216","2017/09/07 15:49:18","新北市泰山區泰林路三段17巷3號","121.420656666667","25.064265","6501600","泰山區"
"243016","680-BX","2017/09/07 15:48:11","新北市泰山區犁頭窠3-1號","121.421986666667","25.0605916666667","6501600","泰山區"
"231030","047-UY","2017/09/07 15:49:21","新北市新店區永安街30號","121.517611666667","24.9866566666667","6500600","新店區"
"231018","107-UY","2017/09/07 15:49:14","新北市新店區中正路501-2號","121.533636666667","24.9837616666667","6500600","新店區"
"231011","108-UY","2017/09/07 15:49:26","新北市新店區文化路23號","121.543468333333","24.9797933333333","6500600","新店區"
"231021","187-VK","2017/09/07 15:49:21","新北市新店區新烏路一段85巷1號","121.546835","24.9424183333333","6500600","新店區"
"231007","189-VK","2017/09/07 12:00:53","新北市新店區安華路28-1號","121.519586666667","24.9609916666667","6500600","新店區"
"231026","256-BX","2017/09/07 15:49:13","新北市新店區中正路389號","121.534605","24.9771933333333","6500600","新店區"
"231046","278-BY","2017/09/07 15:49:19","新北市新店區安華路28-1號","121.519618333333","24.96118","6500600","新店區"
"231017","AAD-862","2017/09/07 15:49:17","新北市新店區中華路83巷2弄5號","121.538735","24.9685216666667","6500600","新店區"
"231025","4716-K9","2017/09/07 15:49:25","新北市新店區薏仁坑路自強巷1號","121.49711","24.95787","6500600","新店區"
"231038","4715-K9","2017/09/07 15:49:18","新北市新店區安康路二段16巷23號","121.51632","24.9647016666667","6500600","新店區"
"231035","515-UM","2017/09/07 15:49:33","新北市新店區安興路102號","121.515246666667","24.9766166666667","6500600","新店區"
"231003","616-UM","2017/09/07 15:49:20","新北市新店區寶興路60巷6號","121.549761666667","24.97183","6500600","新店區"
"231034","645-TV","2017/09/07 15:49:16","新北市新店區玫瑰路57巷22號","121.496491666667","24.9462683333333","6500600","新店區"
"231013","719-UM","2017/09/07 15:49:24","新北市新店區永業路81巷9弄1號","121.53098","24.9504133333333","6500600","新店區"
"231031","720-UM","2017/09/07 15:49:27","新北市新店區雙城路60巷16弄15號","121.491688333333","24.948005","6500600","新店區"
"231037","AKT-0513","2017/09/07 15:49:29","新北市新店區安興路105-1號","121.514665","24.9777366666667","6500600","新店區"
"241011","013-R5","2017/09/07 15:49:14","新北市三重區文化北路246號","121.497458333333","25.0699083333333","6500200","三重區"
"241028","022-UY","2017/09/07 15:49:34","新北市三重區中正南路42號","121.49386","25.060065","6500200","三重區"
"241008","059-VK","2017/09/07 15:49:20","新北市三重區重新路四段121號","121.484935","25.0519683333333","6500200","三重區"
"241015","062-VK","2017/09/07 15:49:28","新北市三重區重新路四段121號","121.485191666667","25.051975","6500200","三重區"
"241017","063-VK","2017/09/07 15:49:15","新北市三重區大仁街30-1號","121.491583333333","25.06417","6500200","三重區"
"241003","091-VK","2017/09/07 15:49:22","新北市三重區仁義街101巷45號","121.501623333333","25.078185","6500200","三重區"
"241005","262-UM","2017/09/07 15:49:28","新北市三重區環河北路45號","121.50172","25.077965","6500200","三重區"
"241016","266-UM","2017/09/07 15:49:32","新北市三重區重新路四段121號","121.485203333333","25.052075","6500200","三重區"
"241018","268-UM","2017/09/07 15:49:23","新北市三重區重新路四段8-3號","121.488985","25.05804","6500200","三重區"
"241013","270-UM","2017/09/07 15:49:31","新北市三重區三和路三段46巷4號","121.495428333333","25.0708866666667","6500200","三重區"
"241007","KEA-2210","2017/09/07 15:49:31","新北市三重區重新路四段121號","121.48526","25.0521216666667","6500200","三重區"
"241014","543-UM","2017/09/07 15:49:24","新北市三重區重新路四段121號","121.485143333333","25.0519233333333","6500200","三重區"
"241023","545-UM","2017/09/07 15:49:28","新北市三重區捷運路36號","121.482885","25.05528","6500200","三重區"
"241001","547-UM","2017/09/07 15:49:16","新北市三重區重新路四段121號","121.484603333333","25.0524516666667","6500200","三重區"
"241006","AAD-863","2017/09/07 15:49:29","新北市三重區重新路四段121號","121.484716666667","25.0525133333333","6500200","三重區"
"241029","942-UM","2017/09/07 15:49:18","新北市三重區大同南路242號","121.496908333333","25.0559166666667","6500200","三重區"
"241033","AAC-255","2017/09/07 15:49:26","新北市三重區光復路一段68巷2號","121.471838333333","25.0492716666667","6500200","三重區"
"235033","4980-A6","2017/09/07 15:49:26","新北市中和區連城路523巷11弄34號","121.482575","24.9939966666667","6500300","中和區"
"235026","800-TS","2017/09/07 15:49:21","新北市中和區中山路二段480號","121.487745","25.0048033333333","6500300","中和區"
"235023","AAC-215","2017/09/07 15:49:30","新北市中和區員山路66-4號","121.481943333333","24.9919233333333","6500300","中和區"
"247004","336-TH","2017/09/07 15:40:36","新北市五股區中興路三段163號","121.449275","25.0806383333333","6501400","蘆洲區"
"247007","053-VK","2017/09/07 15:49:34","新北市五股區凌雲路三段32-1號","121.43163","25.1079983333333","6501400","蘆洲區"
"224007","273-VK","2017/09/07 15:49:25","新北市瑞芳區大寮路356-1號","121.784875","25.103315","6501200","瑞芳區"
"227010","642-TC","2017/09/07 15:49:25","新北市雙溪區牡丹里中正路54號","121.865355","25.0400666666667","6502500","雙溪區"
"227004","400-TW","2017/09/07 15:49:21","新北市雙溪區平林里外平林42號","121.85344","25.0364616666667","6502500","雙溪區"
"236066","105-UM","2017/09/07 15:49:16","新北市土城區中山路65號","121.42616","24.9649033333333","6501300","土城區"
"236076","166-UM","2017/09/07 15:49:18","新北市土城區福安街53號","121.418608333333","24.9644366666667","6501300","土城區"
"236028","253-BX","2017/09/07 15:49:35","新北市土城區學成路128巷11號","121.449495","24.9900833333333","6501300","土城區"
"236024","269-VK","2017/09/07 15:49:33","新北市土城區裕生路98號","121.447105","24.9848233333333","6501300","土城區"
"236012","270-VK","2017/09/07 15:49:21","新北市土城區廣明街70號","121.455091666667","24.9937533333333","6501300","土城區"
"236018","401-BY","2017/09/07 15:49:15","新北市土城區延吉街65號","121.472315","24.9874483333333","6501300","土城區"
"236056","912-UM","2017/09/07 15:49:21","新北市土城區中央路一段228號","121.444793333333","24.9852316666667","6501300","土城區"
"236047","913-UM","2017/09/07 15:48:40","新北市土城區金城路三段253號","121.47168","24.99005","6501300","土城區"
"236052","AAC-216","2017/09/07 15:49:25","新北市土城區中華路一段14號","121.447921666667","24.990545","6501300","土城區"
"242012","346-TH","2017/09/07 09:10:51","新北市新莊區中和街191巷71號","121.446645","25.0513566666667","6500500","新莊區"
"238002","755-BX","2017/09/07 15:49:16","新北市樹林區樹德街90-1號","121.420221666667","24.99245","6500700","樹林區"
"238010","601-UM","2017/09/07 15:49:17","新北市樹林區福興街3巷23號","121.404775","25.016685","6500700","樹林區"
"238006","599-UM","2017/09/07 15:49:29","新北市樹林區忠孝街93號","121.424428333333","24.9811633333333","6500700","樹林區"
"238005","571-TV","2017/09/07 15:49:21","新北市樹林區中華路150-10號","121.415946666667","24.9802116666667","6500700","樹林區"
"238011","5061-A6","2017/09/07 15:49:31","新北市樹林區中山路三段67-5號","121.400421666667","24.97502","6500700","樹林區"
"238009","KEA-2217","2017/09/07 15:49:22","新北市樹林區太順街60號","121.417948333333","24.97928","6500700","樹林區"
"238008","KEA-2213","2017/09/07 15:49:20","新北市樹林區柑園街一段250號","121.391213333333","24.9565","6500700","樹林區"
"238012","303-VK","2017/09/07 15:49:27","新北市樹林區中山路一段149號","121.422168333333","24.989305","6500700","樹林區"
"238004","283-BY","2017/09/07 15:49:32","新北市樹林區光榮街21號","121.412198333333","25.0038633333333","6500700","樹林區"
"238001","282-BY","2017/09/07 15:49:22","新北市樹林區保安二街40巷25號","121.425706666667","24.994545","6500700","樹林區"
"238007","268-VK","2017/09/07 15:49:22","新北市樹林區三俊街265號","121.422673333333","25.0143","6500700","樹林區"
"238013","172-UY","2017/09/07 15:49:32","新北市樹林區中洲街20巷1弄27號","121.398018333333","24.9716616666667","6500700","樹林區"
"238003","169-UY","2017/09/07 15:32:28","新北市樹林區長壽街28巷5號","121.422916666667","24.994165","6500700","樹林區"
"221012","276-VK","2017/09/07 13:05:56","新北市汐止區汐萬路一段256巷3號","121.653453333333","25.07465","6501100","汐止區"
"220050","280-UM","2017/09/07 15:49:33","新北市板橋區文化路一段27-1號","121.459971666667","25.0127733333333","6500100","板橋區"
"242001","281-VK","2017/09/07 15:49:25","新北市新莊區環河路636-7號","121.437415","25.0112533333333","6500500","新莊區"
"220025","687-BX","2017/09/07 15:49:16","新北市樹林區中山路三段210-2號","121.380596666667","24.9667616666667","6500100","板橋區"
"220002","741-BX","2017/09/07 15:49:13","新北市八里區商港路2-1號","121.397428333333","25.144265","6500100","板橋區"
"220018","AAC-253","2017/09/07 15:49:25","新北市五股區中興路三段5號","121.448683333333","25.0797266666667","6500100","板橋區"
