"lineid","car","time","location","longitude","latitude","cityid","cityname"
"244018","403-UM","2017/09/07 14:52:51","新北市林口區粉寮69號","121.405128333333","25.0908583333333","6501700","林口區"
"243016","680-BX","2017/09/07 15:48:11","新北市泰山區犁頭窠3-1號","121.421986666667","25.0605916666667","6501600","泰山區"
"231030","047-UY","2017/09/07 16:09:21","新北市新店區安德街60巷35號","121.510803333333","24.9637416666667","6500600","新店區"
"231018","107-UY","2017/09/07 16:09:34","新北市新店區中正路618巷7弄14號","121.534548333333","24.9894366666667","6500600","新店區"
"231007","189-VK","2017/09/07 12:00:53","新北市新店區安華路28-1號","121.519586666667","24.9609916666667","6500600","新店區"
"231046","278-BY","2017/09/07 16:09:19","新北市新店區碧潭路42號","121.534328333333","24.956575","6500600","新店區"
"231017","AAD-862","2017/09/07 16:09:17","新北市新店區中央路151號","121.529553333333","24.9723866666667","6500600","新店區"
"231038","4715-K9","2017/09/07 16:09:18","新北市新店區薏仁坑路8-2號","121.499453333333","24.9588916666667","6500600","新店區"
"231034","645-TV","2017/09/07 16:09:16","新北市新店區如意街53號","121.493406666667","24.9472316666667","6500600","新店區"
"241011","013-R5","2017/09/07 16:09:30","新北市三重區三和路三段124號","121.49357","25.0723933333333","6500200","三重區"
"241028","022-UY","2017/09/07 16:09:34","新北市三重區正義南路107號","121.498216666667","25.05859","6500200","三重區"
"241008","059-VK","2017/09/07 16:09:20","新北市三重區力行路二段1號","121.482016666667","25.0717616666667","6500200","三重區"
"241015","062-VK","2017/09/07 16:09:28","新北市三重區福德南路86號","121.502388333333","25.0598333333333","6500200","三重區"
"241017","063-VK","2017/09/07 16:09:15","新北市三重區大同北路148巷51號","121.49078","25.064785","6500200","三重區"
"241024","065-VK","2017/09/07 16:09:23","新北市三重區中正北路145巷32號","121.485116666667","25.0680816666667","6500200","三重區"
"241002","090-VK","2017/09/07 16:09:29","新北市三重區仁義街101巷28號","121.499113333333","25.0799633333333","6500200","三重區"
"241003","091-VK","2017/09/07 16:09:22","新北市三重區自強路五段116號","121.496908333333","25.0838233333333","6500200","三重區"
"241026","156-TC","2017/09/07 16:09:28","新北市三重區重新路二段100號","121.49686","25.061435","6500200","三重區"
"241005","262-UM","2017/09/07 16:09:28","新北市三重區溪尾街305號","121.487495","25.0838366666667","6500200","三重區"
"241022","265-UM","2017/09/07 16:09:14","新北市三重區重陽路二段18巷6號","121.486523333333","25.0621666666667","6500200","三重區"
"241016","266-UM","2017/09/07 16:09:32","新北市三重區新北大道一段8號","121.488531666667","25.061385","6500200","三重區"
"241018","268-UM","2017/09/07 16:09:23","新北市三重區大仁街30號","121.491456666667","25.0639233333333","6500200","三重區"
"241013","270-UM","2017/09/07 16:09:31","新北市三重區文化北路248號","121.497371666667","25.0699966666667","6500200","三重區"
"241025","271-UM","2017/09/07 16:09:31","新北市三重區忠孝路三段40巷14號","121.48224","25.0664766666667","6500200","三重區"
"241007","KEA-2210","2017/09/07 16:09:31","新北市三重區慈愛街1號","121.484631666667","25.078405","6500200","三重區"
"241020","413-TH","2017/09/07 16:09:27","新北市三重區車路頭街26號","121.483681666667","25.0707966666667","6500200","三重區"
"241004","475-VK","2017/09/07 16:09:26","新北市三重區五華街74號","121.49338","25.0820766666667","6500200","三重區"
"241019","478-VK","2017/09/07 16:09:21","新北市三重區後竹圍街173-1號","121.486035","25.0718133333333","6500200","三重區"
"241030","480-VK","2017/09/07 16:09:28","新北市三重區重新路四段121號","121.484836666667","25.05269","6500200","三重區"
"241014","543-UM","2017/09/07 16:09:24","新北市三重區福德南路86號","121.502325","25.0596883333333","6500200","三重區"
"241023","545-UM","2017/09/07 16:09:28","新北市三重區力行路一段68號","121.484215","25.06936","6500200","三重區"
"241001","547-UM","2017/09/07 16:09:16","新北市三重區自強路四段80號","121.490613333333","25.0788683333333","6500200","三重區"
"241006","AAD-863","2017/09/07 16:09:29","新北市三重區力行路一段277號","121.482165","25.07158","6500200","三重區"
"241012","941-UM","2017/09/07 16:09:19","新北市三重區正義北路113號","121.497078333333","25.0658133333333","6500200","三重區"
"241029","942-UM","2017/09/07 16:09:18","新北市三重區同安街22號","121.496306666667","25.05678","6500200","三重區"
"241033","AAC-255","2017/09/07 16:09:26","新北市三重區五谷王南街50-1號","121.47374","25.0445116666667","6500200","三重區"
"235026","800-TS","2017/09/07 16:09:21","新北市中和區永和路191巷14號","121.491248333333","25.00674","6500300","中和區"
"235037","157-BY","2017/09/07 15:49:31","新北市中和區員山路36巷13號","121.484205","24.9908583333333","6500300","中和區"
"220034","073-UY","2017/09/07 15:49:55","新北市板橋區華東街1-10號","121.448278333333","24.99511","6500100","板橋區"
"247004","336-TH","2017/09/07 15:40:36","新北市五股區中興路三段163號","121.449275","25.0806383333333","6501400","蘆洲區"
"247007","053-VK","2017/09/07 16:09:34","新北市五股區中興路三段2巷10號","121.44913","25.08108","6501400","蘆洲區"
"224007","273-VK","2017/09/07 16:09:25","新北市瑞芳區粗坑口路78號","121.761591666667","25.09939","6501200","瑞芳區"
"224005","271-BY","2017/09/07 16:09:32","新北市瑞芳區中山路320號","121.796705","25.11003","6501200","瑞芳區"
"227010","642-TC","2017/09/07 16:09:25","新北市雙溪區三港里雙澳路70-1號","121.881408333333","25.0544233333333","6502500","雙溪區"
"227004","400-TW","2017/09/07 16:09:21","新北市雙溪區上林里內平林24號","121.834145","25.0316583333333","6502500","雙溪區"
"251008","181-VK","2017/09/07 16:09:17","新北市淡水區中正路一段22巷6號","121.427745","25.175745","6501000","淡水區"
"236056","912-UM","2017/09/07 16:09:21","新北市土城區中央路二段144號","121.442","24.9771933333333","6501300","土城區"
"242012","346-TH","2017/09/07 09:10:51","新北市新莊區中和街191巷71號","121.446645","25.0513566666667","6500500","新莊區"
"238002","755-BX","2017/09/07 16:09:16","新北市樹林區啟智街86巷12號","121.418345","24.99087","6500700","樹林區"
"238010","601-UM","2017/09/07 16:09:16","新北市樹林區龍興街53號","121.403265","25.01538","6500700","樹林區"
"238006","599-UM","2017/09/07 16:09:29","新北市樹林區八德街95號","121.42022","24.98116","6500700","樹林區"
"238005","571-TV","2017/09/07 16:09:21","新北市樹林區博愛街73號","121.427135","24.9921883333333","6500700","樹林區"
"238011","5061-A6","2017/09/07 16:09:31","新北市樹林區育德街19巷7號","121.392726666667","24.970035","6500700","樹林區"
"238009","KEA-2217","2017/09/07 16:09:12","新北市樹林區太平路174巷28號","121.417325","24.9766516666667","6500700","樹林區"
"238008","KEA-2213","2017/09/07 16:09:20","新北市樹林區柑園街二段173號","121.380555","24.9528983333333","6500700","樹林區"
"238012","303-VK","2017/09/07 16:09:27","新北市樹林區保安街一段124號","121.423315","24.9950866666667","6500700","樹林區"
"238004","283-BY","2017/09/07 16:09:22","新北市樹林區中正路433-1號","121.414825","25.00818","6500700","樹林區"
"238001","282-BY","2017/09/07 16:09:22","新北市樹林區中正路19號","121.427626666667","24.9992016666667","6500700","樹林區"
"238007","268-VK","2017/09/07 16:09:27","新北市樹林區俊興街294-1號","121.418346666667","25.0174333333333","6500700","樹林區"
"238013","172-UY","2017/09/07 16:09:32","新北市樹林區佳園路一段41巷28弄12號","121.394711666667","24.970495","6500700","樹林區"
"238003","169-UY","2017/09/07 16:09:34","新北市樹林區復興路373巷7弄10號","121.417711666667","24.9867333333333","6500700","樹林區"
"221012","276-VK","2017/09/07 13:05:56","新北市汐止區汐萬路一段256巷3號","121.653453333333","25.07465","6501100","汐止區"
"220050","280-UM","2017/09/07 16:09:14","新北市樹林區八德街67號","121.399498333333","24.9693366666667","6500100","板橋區"
"242001","281-VK","2017/09/07 16:04:03","新北市新莊區環河路636-7號","121.437416666667","25.0112583333333","6500500","新莊區"
"220002","741-BX","2017/09/07 16:09:13","新北市八里區中山路三段409號","121.368521666667","25.1349883333333","6500100","板橋區"
"220018","AAC-253","2017/09/07 16:09:25","新北市八里區中山路三段409號","121.368656666667","25.13487","6500100","板橋區"
