"lineid","car","time","location","longitude","latitude","cityid","cityname"
"249002","305-UY","2017/09/07 16:29:25","新北市八里區挖子尾街6號","121.415605","25.164355","6502300","八里區"
"244018","403-UM","2017/09/07 14:52:51","新北市林口區粉寮69號","121.405128333333","25.0908583333333","6501700","林口區"
"243016","680-BX","2017/09/07 16:27:27","新北市泰山區黎明路25號","121.421916666667","25.0606166666667","6501600","泰山區"
"231007","189-VK","2017/09/07 12:00:53","新北市新店區安華路28-1號","121.519586666667","24.9609916666667","6500600","新店區"
"231046","278-BY","2017/09/07 16:29:19","新北市新店區灣潭路3-3號","121.538198333333","24.9508083333333","6500600","新店區"
"241011","013-R5","2017/09/07 16:29:34","新北市三重區龍濱路285號","121.501115","25.073385","6500200","三重區"
"241028","022-UY","2017/09/07 16:29:14","新北市三重區重安街170巷6號","121.496348333333","25.0548083333333","6500200","三重區"
"241008","059-VK","2017/09/07 16:29:20","新北市三重區永福街122-2號","121.479041666667","25.0753633333333","6500200","三重區"
"241009","060-VK","2017/09/07 16:29:29","新北市三重區三和路四段191巷78號","121.484401666667","25.0798533333333","6500200","三重區"
"241031","061-VK","2017/09/07 16:29:26","新北市三重區重陽路一段51號","121.48674","25.058275","6500200","三重區"
"241015","062-VK","2017/09/07 16:29:28","新北市三重區信義街80號","121.501728333333","25.0652966666667","6500200","三重區"
"241017","063-VK","2017/09/07 16:29:15","新北市三重區大同北路32號","121.495315","25.0626083333333","6500200","三重區"
"241024","065-VK","2017/09/07 16:29:23","新北市三重區中正北路315巷18號","121.474973333333","25.071595","6500200","三重區"
"241002","090-VK","2017/09/07 16:29:30","新北市三重區五華街7巷12號","121.495596666667","25.0803466666667","6500200","三重區"
"241003","091-VK","2017/09/07 16:29:22","新北市三重區仁義街220巷27號","121.494371666667","25.0836083333333","6500200","三重區"
"241026","156-TC","2017/09/07 16:29:28","新北市三重區文化南路42號","121.50039","25.0604183333333","6500200","三重區"
"241005","262-UM","2017/09/07 16:29:28","新北市三重區溪尾街262號","121.487406666667","25.0829783333333","6500200","三重區"
"241022","265-UM","2017/09/07 16:29:24","新北市三重區新北大道一段78號","121.486226666667","25.0615983333333","6500200","三重區"
"241016","266-UM","2017/09/07 16:29:32","新北市三重區大智街23號","121.494173333333","25.0658316666667","6500200","三重區"
"241018","268-UM","2017/09/07 16:29:23","新北市三重區重陽路四段75號","121.492411666667","25.0707883333333","6500200","三重區"
"241032","269-UM","2017/09/07 16:29:29","新北市三重區三陽路100巷3弄15號","121.4829","25.058155","6500200","三重區"
"241013","270-UM","2017/09/07 16:29:11","新北市三重區三和路三段83巷148號","121.498411666667","25.07333","6500200","三重區"
"241025","271-UM","2017/09/07 16:29:31","新北市三重區中正北路560巷100弄2號","121.472563333333","25.068255","6500200","三重區"
"241007","KEA-2210","2017/09/07 16:29:31","新北市三重區三和路四段167巷139號","121.48791","25.0802916666667","6500200","三重區"
"241020","413-TH","2017/09/07 16:29:27","新北市三重區車路頭街37巷16號","121.484278333333","25.0718033333333","6500200","三重區"
"241004","475-VK","2017/09/07 16:29:26","新北市三重區仁愛街377巷12號","121.491845","25.080555","6500200","三重區"
"241019","478-VK","2017/09/07 16:29:22","新北市三重區重陽路三段91號","121.4902","25.067655","6500200","三重區"
"241030","480-VK","2017/09/07 16:29:28","新北市三重區成功路106-1號","121.487571666667","25.0515366666667","6500200","三重區"
"241014","543-UM","2017/09/07 16:29:24","新北市三重區河邊北街72-6號","121.504293333333","25.0685133333333","6500200","三重區"
"241023","545-UM","2017/09/07 16:29:28","新北市三重區忠孝路三段50巷47號","121.482951666667","25.0644566666667","6500200","三重區"
"241001","547-UM","2017/09/07 16:29:16","新北市三重區仁愛街302-1號","121.492098333333","25.0795766666667","6500200","三重區"
"241006","AAD-863","2017/09/07 16:29:29","新北市三重區永福街10巷7-1號","121.483235","25.07776","6500200","三重區"
"241012","941-UM","2017/09/07 16:29:19","新北市三重區河邊北街367號","121.50192","25.0759816666667","6500200","三重區"
"241029","942-UM","2017/09/07 16:29:24","新北市三重區集美街126巷7號","121.489391666667","25.053595","6500200","三重區"
"241033","AAC-255","2017/09/07 16:29:26","新北市三重區五谷王北街20巷15弄2號","121.474918333333","25.048395","6500200","三重區"
"235026","800-TS","2017/09/07 16:29:21","新北市中和區建八路127號","121.489796666667","24.9986583333333","6500300","中和區"
"235037","157-BY","2017/09/07 15:49:31","新北市中和區員山路36巷13號","121.484205","24.9908583333333","6500300","中和區"
"220034","073-UY","2017/09/07 15:49:55","新北市板橋區華東街1-10號","121.448278333333","24.99511","6500100","板橋區"
"247004","336-TH","2017/09/07 16:29:26","新北市五股區中興路三段163號","121.449225","25.0806816666667","6501400","蘆洲區"
"247006","056-VK","2017/09/07 16:29:24","新北市五股區中興路三段163號","121.4493","25.0806533333333","6501400","蘆洲區"
"224006","676-BX","2017/09/07 16:29:27","新北市瑞芳區中山路314號","121.796955","25.1100533333333","6501200","瑞芳區"
"224008","275-VK","2017/09/07 16:29:25","新北市瑞芳區民權街3-1號","121.809341666667","25.1083833333333","6501200","瑞芳區"
"224007","273-VK","2017/09/07 16:29:12","新北市瑞芳區瑞竹路36巷3號","121.764188333333","25.103635","6501200","瑞芳區"
"224005","271-BY","2017/09/07 16:29:32","新北市瑞芳區阿美家園53號","121.820343333333","25.1178833333333","6501200","瑞芳區"
"227010","642-TC","2017/09/07 16:29:25","新北市雙溪區三港里雙澳路22號","121.869031666667","25.049925","6502500","雙溪區"
"227004","400-TW","2017/09/07 16:29:21","新北市雙溪區上林里內平林120-2號","121.824458333333","25.0262766666667","6502500","雙溪區"
"251008","181-VK","2017/09/07 16:29:17","新北市淡水區民生路79號","121.463463333333","25.1383516666667","6501000","淡水區"
"251016","442-VK","2017/09/07 16:29:16","新北市淡水區中正路一段22巷101號","121.427193333333","25.1866916666667","6501000","淡水區"
"252002","178-VK","2017/09/07 16:29:17","新北市三芝區茂長里陳厝坑64-2號","121.511761666667","25.2547916666667","6502100","三芝區"
"242012","346-TH","2017/09/07 09:10:51","新北市新莊區中和街191巷71號","121.446645","25.0513566666667","6500500","新莊區"
"238010","601-UM","2017/09/07 16:29:16","新北市樹林區三福街67巷13號","121.407598333333","25.0157116666667","6500700","樹林區"
"238006","599-UM","2017/09/07 16:29:28","新北市樹林區東華街23號","121.414778333333","24.9822183333333","6500700","樹林區"
"238004","283-BY","2017/09/07 16:29:22","新北市樹林區中正路433-1號","121.414748333333","25.0081566666667","6500700","樹林區"
"238001","282-BY","2017/09/07 16:29:22","新北市樹林區大慶街99號","121.427616666667","24.9995266666667","6500700","樹林區"
"221012","276-VK","2017/09/07 13:05:56","新北市汐止區汐萬路一段256巷3號","121.653453333333","25.07465","6501100","汐止區"
"242001","281-VK","2017/09/07 16:04:03","新北市新莊區環河路636-7號","121.437416666667","25.0112583333333","6500500","新莊區"
"220018","AAC-253","2017/09/07 16:29:25","新北市八里區商港路12號","121.396745","25.1443966666667","6500100","板橋區"
