"lineid","car","time","location","longitude","latitude","cityid","cityname"
"249005","172-UM","2017/09/07 16:39:17","新北市八里區博物館路23號","121.41466","25.1632833333333","6502300","八里區"
"249001","173-UM","2017/09/07 16:39:28","新北市八里區博物館路10-1號","121.415248333333","25.1641583333333","6502300","八里區"
"249002","305-UY","2017/09/07 16:39:25","新北市八里區大堀湖3號","121.425088333333","25.151945","6502300","八里區"
"249003","593-UM","2017/09/07 16:39:16","新北市八里區挖子尾街6號","121.415481666667","25.1641866666667","6502300","八里區"
"244019","403-UM","2017/09/07 16:39:27","新北市林口區粉寮69號","121.405108333333","25.0908483333333","6501700","林口區"
"243016","680-BX","2017/09/07 16:27:27","新北市泰山區黎明路25號","121.421916666667","25.0606166666667","6501600","泰山區"
"231007","189-VK","2017/09/07 12:00:53","新北市新店區安華路28-1號","121.519586666667","24.9609916666667","6500600","新店區"
"231046","278-BY","2017/09/07 16:39:19","新北市新店區灣潭路42號","121.542455","24.9456516666667","6500600","新店區"
"241011","013-R5","2017/09/07 16:39:14","新北市三重區仁愛街43巷31號","121.497996666667","25.0720033333333","6500200","三重區"
"241028","022-UY","2017/09/07 16:39:34","新北市三重區中正南路20號","121.49356","25.06042","6500200","三重區"
"241008","059-VK","2017/09/07 16:39:20","新北市三重區永安北路一段27巷3號","121.476738333333","25.0755066666667","6500200","三重區"
"241009","060-VK","2017/09/07 16:39:29","新北市三重區三和路四段203巷86號","121.484126666667","25.08002","6500200","三重區"
"241031","061-VK","2017/09/07 16:39:26","新北市三重區重新路四段43-1號","121.487798333333","25.057645","6500200","三重區"
"241015","062-VK","2017/09/07 16:39:28","新北市三重區文化北路37-2號","121.49896","25.0650833333333","6500200","三重區"
"241017","063-VK","2017/09/07 16:39:15","新北市三重區中正北路23號","121.492443333333","25.0619033333333","6500200","三重區"
"241024","065-VK","2017/09/07 16:39:23","新北市三重區中正北路315巷6弄76號","121.477033333333","25.07241","6500200","三重區"
"241002","090-VK","2017/09/07 16:39:29","新北市三重區自強路五段97號","121.495528333333","25.082145","6500200","三重區"
"241003","091-VK","2017/09/07 16:39:22","新北市三重區五華街71巷85號","121.494196666667","25.0838266666667","6500200","三重區"
"241026","156-TC","2017/09/07 16:39:28","新北市三重區和平街40號","121.502068333333","25.0626933333333","6500200","三重區"
"241005","262-UM","2017/09/07 16:39:28","新北市三重區仁華街146號","121.487126666667","25.0830633333333","6500200","三重區"
"241022","265-UM","2017/09/07 16:39:34","新北市三重區三民街86號","121.485411666667","25.0627633333333","6500200","三重區"
"241016","266-UM","2017/09/07 16:39:32","新北市三重區大智街17號","121.49449","25.0653266666667","6500200","三重區"
"241018","268-UM","2017/09/07 16:39:23","新北市三重區六張街67號","121.49369","25.0702383333333","6500200","三重區"
"241032","269-UM","2017/09/07 16:39:29","新北市三重區新北大道一段115號","121.483661666667","25.0612933333333","6500200","三重區"
"241013","270-UM","2017/09/07 16:39:31","新北市三重區三和路三段101巷27號","121.4952","25.0727316666667","6500200","三重區"
"241025","271-UM","2017/09/07 16:39:31","新北市三重區中正北路428巷17號","121.474548333333","25.0700183333333","6500200","三重區"
"241007","KEA-2210","2017/09/07 16:39:31","新北市三重區三和路四段167巷59號","121.485655","25.0794883333333","6500200","三重區"
"241020","413-TH","2017/09/07 16:39:27","新北市三重區車路頭街51巷6號","121.484695","25.0725433333333","6500200","三重區"
"241004","475-VK","2017/09/07 16:39:26","新北市三重區五福街6號","121.493148333333","25.08163","6500200","三重區"
"241019","478-VK","2017/09/07 16:39:21","新北市三重區重陽路三段37號","121.489361666667","25.066955","6500200","三重區"
"241030","480-VK","2017/09/07 16:39:28","新北市三重區環河南路286號","121.488911666667","25.04897","6500200","三重區"
"241014","543-UM","2017/09/07 16:39:24","新北市三重區龍濱路28號","121.502928333333","25.0680383333333","6500200","三重區"
"241023","545-UM","2017/09/07 16:39:28","新北市三重區忠孝路三段50巷92號","121.48321","25.0643233333333","6500200","三重區"
"241001","547-UM","2017/09/07 16:39:30","新北市三重區仁愛街253號","121.493181666667","25.0782283333333","6500200","三重區"
"241006","AAD-863","2017/09/07 16:39:29","新北市三重區力行路二段158號","121.482595","25.0764133333333","6500200","三重區"
"241012","941-UM","2017/09/07 16:39:19","新北市三重區仁興街3巷46號","121.500875","25.0741466666667","6500200","三重區"
"241029","942-UM","2017/09/07 16:39:18","新北市三重區集美街112巷9號","121.489293333333","25.0541083333333","6500200","三重區"
"241033","AAC-255","2017/09/07 16:39:26","新北市三重區光復路二段49號","121.472038333333","25.056085","6500200","三重區"
"235026","800-TS","2017/09/07 16:39:21","新北市中和區建八路137號","121.490196666667","24.9986316666667","6500300","中和區"
"235037","157-BY","2017/09/07 15:49:31","新北市中和區員山路36巷13號","121.484205","24.9908583333333","6500300","中和區"
"220034","073-UY","2017/09/07 15:49:55","新北市板橋區華東街1-10號","121.448278333333","24.99511","6500100","板橋區"
"247010","339-TH","2017/09/07 16:39:24","新北市五股區凌雲路一段21號","121.455105","25.0977633333333","6501400","蘆洲區"
"247004","336-TH","2017/09/07 16:39:26","新北市五股區凌雲路一段25號","121.452223333333","25.0996583333333","6501400","蘆洲區"
"247016","057-VK","2017/09/07 16:39:21","新北市五股區凌雲路一段25號","121.452276666667","25.0996716666667","6501400","蘆洲區"
"247006","056-VK","2017/09/07 16:39:24","新北市蘆洲區永安南路二段234號","121.460525","25.0796216666667","6501400","蘆洲區"
"247018","001-UY","2017/09/07 16:39:18","新北市五股區成泰路三段436號","121.451873333333","25.0990866666667","6501400","蘆洲區"
"228002","585-TW","2017/09/07 16:39:32","新北市貢寮區貢寮里朝陽街2號","121.912496666667","25.0215083333333","6502600","貢寮區"
"224006","676-BX","2017/09/07 16:39:27","新北市瑞芳區大寮路356-1號","121.78474","25.1033083333333","6501200","瑞芳區"
"224009","285-BY","2017/09/07 16:39:21","新北市瑞芳區中山路318號","121.796853333333","25.1099866666667","6501200","瑞芳區"
"224008","275-VK","2017/09/07 16:39:25","新北市瑞芳區逢甲路20-1號","121.809375","25.1084083333333","6501200","瑞芳區"
"224007","273-VK","2017/09/07 16:39:25","新北市瑞芳區月眉路7號","121.76024","25.1056283333333","6501200","瑞芳區"
"224005","271-BY","2017/09/07 16:39:12","新北市瑞芳區洞頂路132-1號","121.8621","25.1235016666667","6501200","瑞芳區"
"227010","642-TC","2017/09/07 16:39:25","新北市雙溪區牡丹里中正路72號","121.864103333333","25.0445133333333","6502500","雙溪區"
"227004","400-TW","2017/09/07 16:39:21","新北市雙溪區外柑里外柑腳58號","121.807911666667","25.0178716666667","6502500","雙溪區"
"251008","181-VK","2017/09/07 16:39:16","台北市北投區中央北路四段30巷160號","121.47422","25.1405083333333","6501000","淡水區"
"251016","442-VK","2017/09/07 16:39:16","新北市淡水區北新路196號","121.451071666667","25.17969","6501000","淡水區"
"252002","178-VK","2017/09/07 16:39:17","新北市三芝區茂長里陳厝坑12-1號","121.514553333333","25.2553466666667","6502100","三芝區"
"238010","601-UM","2017/09/07 16:39:16","新北市樹林區中正路105號","121.424838333333","25.001275","6500700","樹林區"
"238004","283-BY","2017/09/07 16:39:22","新北市樹林區中正路433-1號","121.414731666667","25.0081816666667","6500700","樹林區"
"238001","282-BY","2017/09/07 16:39:22","新北市樹林區中正路21號","121.42762","24.9993616666667","6500700","樹林區"
"239007","AAC-297","2017/09/07 04:26:40","新北市鶯歌區二甲路13-16號","121.344951666667","24.9350633333333","6500800","鶯歌區"
"221012","276-VK","2017/09/07 13:05:56","新北市汐止區汐萬路一段256巷3號","121.653453333333","25.07465","6501100","汐止區"
"242001","281-VK","2017/09/07 16:04:03","新北市新莊區環河路636-7號","121.437416666667","25.0112583333333","6500500","新莊區"
"220018","AAC-253","2017/09/07 16:39:25","新北市五股區新五路三段19號","121.445516666667","25.0893116666667","6500100","板橋區"
