"lineid","car","time","location","longitude","latitude","cityid","cityname"
"249005","172-UM","2017/09/07 17:09:17","新北市八里區大堀湖28號","121.418913333333","25.14594","6502300","八里區"
"249001","173-UM","2017/09/07 17:09:28","新北市八里區中華路二段205巷8-1號","121.404995","25.1492416666667","6502300","八里區"
"249004","303-UY","2017/09/07 17:09:15","新北市八里區忠孝路488-1號","121.414355","25.1614983333333","6502300","八里區"
"249002","305-UY","2017/09/07 17:05:45","新北市八里區米倉18號","121.439975","25.15","6502300","八里區"
"249003","593-UM","2017/09/07 17:09:16","新北市八里區中山路二段375號","121.398563333333","25.1469716666667","6502300","八里區"
"244007","080-UY","2017/09/07 17:09:17","新北市林口區菁埔26-68號","121.376588333333","25.0953566666667","6501700","林口區"
"244019","403-UM","2017/09/07 17:09:27","新北市林口區林口路50號","121.390541666667","25.0788733333333","6501700","林口區"
"244009","410-SL","2017/09/07 17:09:14","新北市林口區粉寮路一段77號","121.396848333333","25.0788633333333","6501700","林口區"
"244023","483-VK","2017/09/07 17:09:14","新北市林口區粉寮路二段16號","121.402073333333","25.0857366666667","6501700","林口區"
"244025","837-TS","2017/09/07 17:09:26","新北市林口區粉寮路二段16號","121.40225","25.0858116666667","6501700","林口區"
"243016","680-BX","2017/09/07 16:27:27","新北市泰山區黎明路25號","121.421916666667","25.0606166666667","6501600","泰山區"
"231007","189-VK","2017/09/07 12:00:53","新北市新店區安華路28-1號","121.519586666667","24.9609916666667","6500600","新店區"
"231046","278-BY","2017/09/07 17:09:19","新北市新店區直潭七街60號","121.532248333333","24.9400083333333","6500600","新店區"
"241011","013-R5","2017/09/07 17:09:14","新北市三重區仁愛街53巷4號","121.49652","25.0720483333333","6500200","三重區"
"241028","022-UY","2017/09/07 17:09:34","新北市三重區重新路三段110號","121.492236666667","25.0603683333333","6500200","三重區"
"241008","059-VK","2017/09/07 17:09:20","新北市三重區力行路二段136巷17弄2號","121.481588333333","25.0756166666667","6500200","三重區"
"241009","060-VK","2017/09/07 17:09:29","新北市三重區三和路四段211-20號","121.48227","25.079815","6500200","三重區"
"241031","061-VK","2017/09/07 17:09:26","新北市三重區重陽路一段113巷1弄25號","121.487745","25.0591383333333","6500200","三重區"
"241015","062-VK","2017/09/07 17:09:28","新北市三重區長生街10號","121.499165","25.066355","6500200","三重區"
"241017","063-VK","2017/09/07 17:09:15","新北市三重區大仁街3巷23號","121.49232","25.0638383333333","6500200","三重區"
"241024","065-VK","2017/09/07 17:09:23","新北市三重區中正北路193巷11弄50號","121.479081666667","25.070735","6500200","三重區"
"241002","090-VK","2017/09/07 17:09:29","新北市三重區五華街35巷65號","121.496113333333","25.0818366666667","6500200","三重區"
"241003","091-VK","2017/09/07 17:09:22","新北市三重區仁義街252號","121.493821666667","25.0860216666667","6500200","三重區"
"241026","156-TC","2017/09/07 17:09:28","新北市三重區正義南路1號","121.497906666667","25.06209","6500200","三重區"
"241005","262-UM","2017/09/07 17:09:28","新北市三重區仁愛街648號","121.482806666667","25.080625","6500200","三重區"
"241022","265-UM","2017/09/07 17:09:14","新北市三重區三民街99號","121.485371666667","25.0633583333333","6500200","三重區"
"241016","266-UM","2017/09/07 17:09:32","新北市三重區大同北路130號","121.492866666667","25.0646666666667","6500200","三重區"
"241018","268-UM","2017/09/07 17:09:23","新北市三重區六張街89號","121.492713333333","25.0699166666667","6500200","三重區"
"241032","269-UM","2017/09/07 17:09:29","新北市三重區興華街25號","121.485538333333","25.0598316666667","6500200","三重區"
"241013","270-UM","2017/09/07 17:09:31","新北市三重區仁福街56號","121.497541666667","25.0746","6500200","三重區"
"241025","271-UM","2017/09/07 17:09:31","新北市三重區中正北路560巷49號","121.470906666667","25.0701633333333","6500200","三重區"
"241007","KEA-2210","2017/09/07 17:09:31","新北市三重區三和路四段163巷14號","121.484435","25.078985","6500200","三重區"
"241020","413-TH","2017/09/07 17:09:27","新北市三重區自強路三段18號","121.486903333333","25.0721916666667","6500200","三重區"
"241004","475-VK","2017/09/07 17:09:26","新北市三重區五華街98巷6號","121.492183333333","25.0819933333333","6500200","三重區"
"241019","478-VK","2017/09/07 17:09:21","新北市三重區力行路一段123巷8號","121.486358333333","25.0686833333333","6500200","三重區"
"241030","480-VK","2017/09/07 17:09:28","新北市三重區成功路83號","121.488551666667","25.0512383333333","6500200","三重區"
"241014","543-UM","2017/09/07 17:09:23","新北市三重區龍濱路199號","121.502068333333","25.0715783333333","6500200","三重區"
"241023","545-UM","2017/09/07 17:09:28","新北市三重區忠孝路三段84巷1號","121.48023","25.0643966666667","6500200","三重區"
"241001","547-UM","2017/09/07 17:09:16","新北市三重區仁愛街245巷17號","121.494131666667","25.0783283333333","6500200","三重區"
"241006","AAD-863","2017/09/07 17:09:29","新北市三重區車路頭街143巷6號","121.484193333333","25.07669","6500200","三重區"
"241012","941-UM","2017/09/07 17:09:18","新北市三重區仁壽街158號","121.500023333333","25.0744966666667","6500200","三重區"
"241029","942-UM","2017/09/07 17:09:18","新北市三重區重安街66號","121.491218333333","25.05724","6500200","三重區"
"241033","AAC-255","2017/09/07 17:09:26","新北市三重區中興北街271號","121.469255","25.0607116666667","6500200","三重區"
"235062","800-TS","2017/09/07 17:09:28","新北市中和區員山路36巷16-3號","121.484936666667","24.9912433333333","6500300","中和區"
"235037","157-BY","2017/09/07 15:49:31","新北市中和區員山路36巷13號","121.484205","24.9908583333333","6500300","中和區"
"220034","073-UY","2017/09/07 15:49:55","新北市板橋區華東街1-10號","121.448278333333","24.99511","6500100","板橋區"
"247022","893-R6","2017/09/07 17:09:27","新北市蘆洲區民族路492號","121.469881666667","25.0906233333333","6501400","蘆洲區"
"247012","546-UM","2017/09/07 17:09:29","新北市蘆洲區信義路292巷6號","121.478078333333","25.087705","6501400","蘆洲區"
"247020","500-BY","2017/09/07 17:09:16","新北市蘆洲區仁愛街75號","121.471483333333","25.0937783333333","6501400","蘆洲區"
"247010","339-TH","2017/09/07 17:09:24","新北市蘆洲區民族路20號","121.476018333333","25.0841633333333","6501400","蘆洲區"
"247002","337-TH","2017/09/07 17:09:24","新北市蘆洲區永樂街62號","121.457233333333","25.0884683333333","6501400","蘆洲區"
"247004","336-TH","2017/09/07 17:09:26","新北市蘆洲區長安街207巷19號","121.459403333333","25.0817266666667","6501400","蘆洲區"
"247016","057-VK","2017/09/07 17:09:21","新北市蘆洲區光華路65巷11號","121.468591666667","25.082355","6501400","蘆洲區"
"247006","056-VK","2017/09/07 17:09:23","新北市蘆洲區中華街6巷40號","121.462598333333","25.08241","6501400","蘆洲區"
"247008","053-VK","2017/09/07 17:09:13","新北市蘆洲區信義路30巷42號","121.474548333333","25.0783183333333","6501400","蘆洲區"
"247014","007-UY","2017/09/07 17:09:25","新北市蘆洲區中央路24號","121.473521666667","25.0828033333333","6501400","蘆洲區"
"247024","002-UY","2017/09/07 17:09:29","新北市蘆洲區光復路16號","121.463023333333","25.0840866666667","6501400","蘆洲區"
"247018","001-UY","2017/09/07 17:09:18","新北市蘆洲區復興路174號","121.477723333333","25.0884533333333","6501400","蘆洲區"
"228003","097-TW","2017/09/07 17:09:16","新北市貢寮區福隆里東興街10-1號","121.950848333333","25.0191266666667","6502600","貢寮區"
"228001","212-TW","2017/09/07 17:09:16","新北市貢寮區仁理村研海街42號","121.92615","25.0411433333333","6502600","貢寮區"
"228002","585-TW","2017/09/07 17:09:32","新北市貢寮區龍崗里嵩陽街55號","121.907648333333","25.0166283333333","6502600","貢寮區"
"224010","AGQ-8101","2017/09/07 09:11:17","新北市瑞芳區民權街3-1號","121.809443333333","25.1082433333333","6501200","瑞芳區"
"224006","676-BX","2017/09/07 17:09:27","新北市瑞芳區大寮路110號","121.781446666667","25.097805","6501200","瑞芳區"
"224009","285-BY","2017/09/07 17:09:22","新北市瑞芳區坑尾巷37-1號","121.844125","25.111295","6501200","瑞芳區"
"224008","275-VK","2017/09/07 17:09:27","新北市瑞芳區侯硐路59號","121.829103333333","25.088665","6501200","瑞芳區"
"224007","273-VK","2017/09/07 17:09:30","新北市瑞芳區粗坑口路16號","121.76159","25.0988266666667","6501200","瑞芳區"
"224005","271-BY","2017/09/07 17:09:12","新北市瑞芳區鼻頭路189號","121.915545","25.1233016666667","6501200","瑞芳區"
"227010","642-TC","2017/09/07 17:09:25","新北市雙溪區三貂里子崙坑1-6號","121.849831666667","25.0573866666667","6502500","雙溪區"
"227004","400-TW","2017/09/07 17:09:21","新北市雙溪區外柑里外柑腳17號","121.81243","25.0195116666667","6502500","雙溪區"
"251009","008-UM","2017/09/07 17:09:35","新北市淡水區三民街20號","121.439","25.1717216666667","6501000","淡水區"
"251004","009-UM","2017/09/07 17:09:34","新北市淡水區清水街250號","121.440331666667","25.1722833333333","6501000","淡水區"
"251007","179-VK","2017/09/07 17:09:31","新北市淡水區民權路49號","121.459596666667","25.139385","6501000","淡水區"
"251008","181-VK","2017/09/07 17:09:17","新北市淡水區樹梅坑14號","121.470726666667","25.1428666666667","6501000","淡水區"
"251014","182-VK","2017/09/07 17:09:31","新北市淡水區八里堆9-8號","121.464231666667","25.224005","6501000","淡水區"
"251010","413-VK","2017/09/07 17:09:32","新北市淡水區新市二路二段200號","121.429711666667","25.19481","6501000","淡水區"
"251012","441-VK","2017/09/07 17:09:30","新北市淡水區新民街一段5號","121.433556666667","25.18343","6501000","淡水區"
"251016","442-VK","2017/09/07 17:09:16","新北市淡水區泉洲厝1-2號","121.479855","25.1881816666667","6501000","淡水區"
"251005","443-VK","2017/09/07 17:09:15","新北市淡水區鄧公路19-1號","121.450255","25.1699533333333","6501000","淡水區"
"251006","561-UM","2017/09/07 17:09:17","新北市淡水區中正路二段30號","121.419725","25.1819333333333","6501000","淡水區"
"251011","650-BX","2017/09/07 17:09:24","新北市淡水區坪頂路49號","121.457708333333","25.1625083333333","6501000","淡水區"
"252002","178-VK","2017/09/07 17:09:17","新北市三芝區忠孝街63號","121.505945","25.256425","6502100","三芝區"
"252001","292-VK","2017/09/07 17:09:19","新北市三芝區埔坪里埔頭坑33號","121.50168","25.2613966666667","6502100","三芝區"
"242021","AAC-296","2017/09/07 17:09:16","新北市新莊區新泰路357巷3弄57號","121.44234","25.03931","6500500","新莊區"
"242051","751-BX","2017/09/07 17:09:27","新北市新莊區三和路12-16號","121.441865","25.0374216666667","6500500","新莊區"
"242023","613-BX","2017/09/07 17:09:22","新北市新莊區新泰路255巷83號","121.442216666667","25.0390416666667","6500500","新莊區"
"242027","612-BX","2017/09/07 17:09:26","新北市新莊區新泰路357巷3弄57號","121.44219","25.039225","6500500","新莊區"
"242039","566-BX","2017/09/07 17:09:33","新北市新莊區三和路12-10號","121.442245","25.0368216666667","6500500","新莊區"
"242044","497-BY","2017/09/07 17:09:20","新北市新莊區中正路408號","121.441301666667","25.0338616666667","6500500","新莊區"
"242048","441-UM","2017/09/07 17:09:19","新北市新莊區中正路671號","121.42645","25.0300316666667","6500500","新莊區"
"242053","440-UM","2017/09/07 17:09:31","新北市新莊區新泰路357巷3弄57號","121.442096666667","25.039265","6500500","新莊區"
"242004","413-TV","2017/09/07 17:09:22","新北市新莊區新泰路357巷3弄57號","121.441953333333","25.039335","6500500","新莊區"
"242042","400-BY","2017/09/07 17:09:21","新北市新莊區新泰路357巷3弄57號","121.442101666667","25.03962","6500500","新莊區"
"242061","362-BY","2017/09/07 17:09:19","新北市新莊區三和路12-21號","121.442206666667","25.0386283333333","6500500","新莊區"
"242058","353-BY","2017/09/07 17:09:34","新北市新莊區新泰路255巷83號","121.442156666667","25.0388416666667","6500500","新莊區"
"242046","172-VK","2017/09/07 17:09:27","新北市新莊區新泰路357巷3弄1號","121.44241","25.041735","6500500","新莊區"
"242009","173-VK","2017/09/07 15:58:04","新北市新莊區新泰路255巷83號","121.44212","25.0388816666667","6500500","新莊區"
"242015","175-VK","2017/09/07 17:09:17","新北市新莊區三和路12-21號","121.441861666667","25.0385816666667","6500500","新莊區"
"242002","176-VK","2017/09/07 17:09:26","新北市新莊區三和路12-21號","121.441903333333","25.0386266666667","6500500","新莊區"
"242013","346-TH","2017/09/07 10:42:11","新北市新莊區三和路12-17號","121.441888333333","25.03752","6500500","新莊區"
"242021","347-TH","2017/09/06 01:04:05","新北市新莊區三和路12-17號","121.442045","25.0375016666667","6500500","新莊區"
"242019","348-TH","2017/09/07 17:05:32","新北市新莊區建豐街56號","121.45078","25.043905","6500500","新莊區"
"242056","349-TH","2017/09/07 16:09:54","新北市新莊區三和路12-17號","121.442076666667","25.0375066666667","6500500","新莊區"
"242017","350-TH","2017/09/07 17:08:39","新北市新莊區新泰路255巷83號","121.442066666667","25.0390133333333","6500500","新莊區"
"242011","351-TH","2017/09/07 17:09:30","新北市新莊區新泰路357巷3弄57號","121.441906666667","25.0396016666667","6500500","新莊區"
"238010","601-UM","2017/09/07 17:09:16","新北市樹林區中山路二段219號","121.40269","24.97619","6500700","樹林區"
"238019","599-UM","2017/09/07 17:09:28","新北市樹林區育德街121巷7號","121.389378333333","24.9681533333333","6500700","樹林區"
"238018","571-TV","2017/09/07 17:09:21","新北市樹林區水源街58號","121.425796666667","24.981005","6500700","樹林區"
"238024","5061-A6","2017/09/07 17:09:31","新北市樹林區鎮前街77-21號","121.42479","24.9901433333333","6500700","樹林區"
"238022","KEA-2217","2017/09/07 17:09:32","新北市樹林區八德街263-1號","121.419246666667","24.9737833333333","6500700","樹林區"
"238017","283-BY","2017/09/07 17:09:22","新北市樹林區光武街28號","121.415818333333","25.0055633333333","6500700","樹林區"
"238001","282-BY","2017/09/07 17:09:22","新北市樹林區中正路22-1號","121.427873333333","24.99941","6500700","樹林區"
"238026","172-UY","2017/09/07 16:37:50","新北市樹林區育德街78-1號","121.387821666667","24.968015","6500700","樹林區"
"238016","169-UY","2017/09/07 17:09:30","新北市樹林區中山路二段10號","121.41757","24.9850433333333","6500700","樹林區"
"239007","AAC-297","2017/09/07 17:09:27","新北市鶯歌區中正一路68號","121.352425","24.9541","6500800","鶯歌區"
"239006","891-R6","2017/09/07 17:09:32","新北市鶯歌區八德路2巷18弄4號","121.336633333333","24.9470966666667","6500800","鶯歌區"
"239008","527-UM","2017/09/07 17:09:27","新北市鶯歌區尖山路40號","121.350956666667","24.9503983333333","6500800","鶯歌區"
"239005","526-UM","2017/09/07 17:09:30","新北市鶯歌區八德路10號","121.33391","24.95412","6500800","鶯歌區"
"239001","417-VK","2017/09/07 17:09:21","新北市鶯歌區尖山路140巷6弄1號","121.346548333333","24.9489666666667","6500800","鶯歌區"
"239003","360-BY","2017/09/07 17:09:14","新北市鶯歌區八德路37號","121.334728333333","24.9529233333333","6500800","鶯歌區"
"239002","359-BY","2017/09/07 17:09:26","新北市鶯歌區建國路218號","121.348815","24.9535166666667","6500800","鶯歌區"
"239004","193-VK","2017/09/07 17:09:20","新北市鶯歌區文化路324巷1-35號","121.352201666667","24.945545","6500800","鶯歌區"
"221012","276-VK","2017/09/07 13:05:56","新北市汐止區汐萬路一段256巷3號","121.653453333333","25.07465","6501100","汐止區"
"242001","281-VK","2017/09/07 16:04:03","新北市新莊區環河路636-7號","121.437416666667","25.0112583333333","6500500","新莊區"
"242034","280-VK","2017/09/07 17:09:12","新北市新莊區三和路12-21號","121.442011666667","25.0382316666667","6500500","新莊區"
