"lineid","car","time","location","longitude","latitude","cityid","cityname"
"234026","9371-KE","2017/09/07 17:19:28","新北市永和區福和路1號","121.526455","25.0097383333333","6500400","永和區"
"249005","172-UM","2017/09/07 17:19:17","新北市五股區凌雲路三段130號","121.417213333333","25.1280583333333","6502300","八里區"
"249001","173-UM","2017/09/07 17:18:07","新北市八里區中華路二段165巷3號","121.407651666667","25.1508583333333","6502300","八里區"
"249004","303-UY","2017/09/07 17:19:15","新北市八里區忠四街7號","121.424703333333","25.1597266666667","6502300","八里區"
"249002","305-UY","2017/09/07 17:19:25","新北市八里區龍米路二段117巷37號","121.443375","25.1418266666667","6502300","八里區"
"249003","593-UM","2017/09/07 17:19:16","新北市八里區商港路82號","121.395486666667","25.14642","6502300","八里區"
"244013","069-UM","2017/09/07 17:19:18","新北市林口區粉寮69號","121.40506","25.0908833333333","6501700","林口區"
"244007","080-UY","2017/09/07 17:19:17","新北市林口區中華路355號","121.380735","25.0927083333333","6501700","林口區"
"244019","403-UM","2017/09/07 17:19:28","新北市林口區文化一路一段190巷5弄5-1號","121.380176666667","25.0756483333333","6501700","林口區"
"244009","410-SL","2017/09/07 17:19:34","新北市林口區松柏路25號","121.380105","25.0917683333333","6501700","林口區"
"244023","483-VK","2017/09/07 17:19:14","新北市林口區仁愛路一段667巷60號","121.38741","25.0757833333333","6501700","林口區"
"244011","701-TV","2017/09/07 17:19:21","新北市林口區粉寮路1號","121.397763333333","25.0802016666667","6501700","林口區"
"244025","837-TS","2017/09/07 17:19:26","新北市林口區中山路576號","121.37657","25.0848866666667","6501700","林口區"
"244021","838-TS","2017/09/07 17:19:29","新北市林口區東林里4鄰64號","121.404603333333","25.0904133333333","6501700","林口區"
"243016","680-BX","2017/09/07 16:27:27","新北市泰山區黎明路25號","121.421916666667","25.0606166666667","6501600","泰山區"
"231007","189-VK","2017/09/07 12:00:53","新北市新店區安華路28-1號","121.519586666667","24.9609916666667","6500600","新店區"
"231046","278-BY","2017/09/07 17:19:19","新北市新店區直潭路92號","121.53092","24.9376366666667","6500600","新店區"
"241011","013-R5","2017/09/07 17:19:15","新北市三重區河邊北街100巷9號","121.503511666667","25.0703683333333","6500200","三重區"
"241028","022-UY","2017/09/07 17:19:14","新北市三重區仁化商場4號","121.49356","25.059545","6500200","三重區"
"241008","059-VK","2017/09/07 17:19:20","新北市三重區下竹圍街9號","121.480991666667","25.0758533333333","6500200","三重區"
"241009","060-VK","2017/09/07 17:19:29","新北市三重區仁愛街606號","121.48385","25.0807633333333","6500200","三重區"
"241015","062-VK","2017/09/07 17:19:28","新北市三重區長元街82-1號","121.501873333333","25.0662783333333","6500200","三重區"
"241017","063-VK","2017/09/07 17:19:15","新北市三重區中正北路2號","121.489316666667","25.0629966666667","6500200","三重區"
"241024","065-VK","2017/09/07 17:19:23","新北市三重區中正北路193巷11弄42-1號","121.478755","25.0705933333333","6500200","三重區"
"241002","090-VK","2017/09/07 17:19:29","新北市三重區自強路五段1-1號","121.49219","25.0801533333333","6500200","三重區"
"241003","091-VK","2017/09/07 17:19:22","新北市三重區富福街63號","121.492095","25.0846266666667","6500200","三重區"
"241026","156-TC","2017/09/07 17:19:28","新北市三重區和平街40號","121.502108333333","25.062685","6500200","三重區"
"241005","262-UM","2017/09/07 17:19:28","新北市三重區永安北路二段25巷8號","121.482161666667","25.0820283333333","6500200","三重區"
"241022","265-UM","2017/09/07 17:19:14","新北市三重區中正北路118巷5號","121.485255","25.0647383333333","6500200","三重區"
"241016","266-UM","2017/09/07 17:19:12","新北市三重區新北大道一段7號","121.489615","25.0612666666667","6500200","三重區"
"241018","268-UM","2017/09/07 17:19:23","新北市三重區安慶街151號","121.494428333333","25.0688066666667","6500200","三重區"
"241032","269-UM","2017/09/07 17:19:29","新北市三重區中華路2巷6號","121.482861666667","25.060125","6500200","三重區"
"241013","270-UM","2017/09/07 17:19:31","新北市三重區仁昌街34號","121.496961666667","25.0741533333333","6500200","三重區"
"241025","271-UM","2017/09/07 17:19:31","新北市三重區中正北路269號","121.4751","25.0708916666667","6500200","三重區"
"241007","KEA-2210","2017/09/07 17:19:31","新北市三重區慈愛街8號","121.484493333333","25.078445","6500200","三重區"
"241020","413-TH","2017/09/07 17:19:32","新北市三重區忠孝路一段143號","121.48822","25.07225","6500200","三重區"
"241004","475-VK","2017/09/07 17:19:26","新北市三重區五華街110巷17弄1號","121.490956666667","25.0822366666667","6500200","三重區"
"241019","478-VK","2017/09/07 17:19:21","新北市三重區三張街186號","121.48524","25.0691533333333","6500200","三重區"
"241030","480-VK","2017/09/07 17:19:28","新北市三重區成功路73巷18號","121.489398333333","25.05196","6500200","三重區"
"241014","543-UM","2017/09/07 17:19:23","新北市三重區三和路二段83號","121.50007","25.06847","6500200","三重區"
"241023","545-UM","2017/09/07 17:19:28","新北市三重區三民街174號","121.482073333333","25.0656183333333","6500200","三重區"
"241001","547-UM","2017/09/07 17:19:16","新北市三重區仁愛街269巷21號","121.493713333333","25.0790366666667","6500200","三重區"
"241006","AAD-863","2017/09/07 17:19:29","新北市三重區車路頭街139巷1弄6號","121.484728333333","25.07639","6500200","三重區"
"241012","941-UM","2017/09/07 17:19:18","新北市三重區河邊北街256巷22號","121.501195","25.07603","6500200","三重區"
"241029","942-UM","2017/09/07 17:19:18","新北市三重區重新路四段43號","121.487901666667","25.0574266666667","6500200","三重區"
"241033","AAC-255","2017/09/07 17:19:26","新北市三重區中興北街225號","121.469076666667","25.0585766666667","6500200","三重區"
"235062","800-TS","2017/09/07 17:11:28","新北市中和區員山路36巷16-3號","121.484936666667","24.9912433333333","6500300","中和區"
"235037","157-BY","2017/09/07 15:49:31","新北市中和區員山路36巷13號","121.484205","24.9908583333333","6500300","中和區"
"220034","073-UY","2017/09/07 15:49:55","新北市板橋區華東街1-10號","121.448278333333","24.99511","6500100","板橋區"
"247022","893-R6","2017/09/07 17:19:27","新北市蘆洲區民義街7號","121.471208333333","25.08877","6501400","蘆洲區"
"247012","546-UM","2017/09/07 17:19:29","新北市蘆洲區信義路319巷8號","121.47779","25.086235","6501400","蘆洲區"
"247020","500-BY","2017/09/07 17:19:16","新北市蘆洲區民族路446-4號","121.47262","25.0920466666667","6501400","蘆洲區"
"247010","339-TH","2017/09/07 17:19:28","新北市蘆洲區中山一路120巷7弄2號","121.477448333333","25.081965","6501400","蘆洲區"
"247002","337-TH","2017/09/07 17:19:24","新北市蘆洲區永樂街38巷43號","121.45831","25.0897733333333","6501400","蘆洲區"
"247004","336-TH","2017/09/07 17:19:26","新北市蘆洲區長安街225號","121.459385","25.082385","6501400","蘆洲區"
"247016","057-VK","2017/09/07 17:19:21","新北市蘆洲區正和街110號","121.46774","25.0806433333333","6501400","蘆洲區"
"247006","056-VK","2017/09/07 17:19:23","新北市蘆洲區永安南路二段160號","121.461588333333","25.07899","6501400","蘆洲區"
"247008","053-VK","2017/09/07 17:19:34","新北市蘆洲區信義路34巷118號","121.475551666667","25.07671","6501400","蘆洲區"
"247014","007-UY","2017/09/07 17:19:25","新北市蘆洲區得勝街118號","121.470945","25.0827766666667","6501400","蘆洲區"
"247024","002-UY","2017/09/07 17:19:29","新北市蘆洲區長榮路211巷1號","121.461073333333","25.0850383333333","6501400","蘆洲區"
"247018","001-UY","2017/09/07 17:19:18","新北市蘆洲區民權路70號","121.475025","25.08742","6501400","蘆洲區"
"228003","097-TW","2017/09/07 17:19:16","新北市貢寮區福隆里興隆街38號","121.94096","25.0175383333333","6502600","貢寮區"
"228001","212-TW","2017/09/07 17:19:16","新北市貢寮區仁理村尖山腳街18-3號","121.925503333333","25.048285","6502600","貢寮區"
"228002","585-TW","2017/09/07 17:19:32","新北市貢寮區雙玉里下雙溪街24號","121.921526666667","25.0098833333333","6502600","貢寮區"
"224010","AGQ-8101","2017/09/07 09:11:17","新北市瑞芳區民權街3-1號","121.809443333333","25.1082433333333","6501200","瑞芳區"
"224006","676-BX","2017/09/07 17:19:27","新北市瑞芳區大寮路49巷4號","121.78204","25.0973283333333","6501200","瑞芳區"
"224009","285-BY","2017/09/07 17:19:21","新北市瑞芳區汽車路123號","121.840005","25.1099616666667","6501200","瑞芳區"
"224008","275-VK","2017/09/07 17:19:31","新北市瑞芳區侯硐路55號","121.83065","25.08919","6501200","瑞芳區"
"224005","271-BY","2017/09/07 17:19:32","","121.90218","25.1214316666667","6501200","瑞芳區"
"227010","642-TC","2017/09/07 17:19:25","新北市雙溪區三貂里定福路24-1號","121.851436666667","25.0722333333333","6502500","雙溪區"
"227004","400-TW","2017/09/07 17:19:21","新北市雙溪區上林里大瀨75-1號","121.830478333333","25.028775","6502500","雙溪區"
"251009","008-UM","2017/09/07 17:19:15","新北市淡水區三民街20號","121.439","25.1717216666667","6501000","淡水區"
"251004","009-UM","2017/09/07 17:19:14","新北市淡水區中正東路二段88巷11號","121.459028333333","25.1510816666667","6501000","淡水區"
"251007","179-VK","2017/09/07 17:19:31","新北市淡水區民生路60號","121.462075","25.1379483333333","6501000","淡水區"
"251008","181-VK","2017/09/07 17:19:16","新北市淡水區大同路293號","121.467498333333","25.1422616666667","6501000","淡水區"
"251014","182-VK","2017/09/07 17:19:32","新北市淡水區公埔子30-2號","121.465683333333","25.228655","6501000","淡水區"
"251010","413-VK","2017/09/07 17:19:32","新北市淡水區中正路二段208號","121.426246666667","25.1891666666667","6501000","淡水區"
"251012","441-VK","2017/09/07 17:19:30","新北市淡水區中山北路一段156號","121.444246666667","25.1780066666667","6501000","淡水區"
"251016","442-VK","2017/09/07 17:19:16","新北市淡水區鄒厝崙5-1號","121.470721666667","25.1871816666667","6501000","淡水區"
"251005","443-VK","2017/09/07 17:19:15","新北市淡水區鄧公路23巷1-5號","121.450233333333","25.1699733333333","6501000","淡水區"
"251006","561-UM","2017/09/07 17:19:17","新北市淡水區新生街92號","121.43962","25.17483","6501000","淡水區"
"251011","650-BX","2017/09/07 17:18:04","新北市淡水區坪頂路128號","121.464811666667","25.1613516666667","6501000","淡水區"
"251002","672-BX","2017/09/07 17:19:19","新北市淡水區中正路二段31號","121.419393333333","25.18164","6501000","淡水區"
"251003","766-UM","2017/09/07 17:19:19","新北市淡水區中正路一段87巷1號","121.421571666667","25.1793866666667","6501000","淡水區"
"207003","550-UM","2017/09/07 17:19:16","新北市萬里區龜吼里美崙路53-1號","121.687518333333","25.18357","6502800","萬里區"
"252002","178-VK","2017/09/07 17:19:17","新北市三芝區忠孝街1-14號","121.505485","25.2539466666667","6502100","三芝區"
"252001","292-VK","2017/09/07 17:19:19","新北市三芝區長安街119號","121.497998333333","25.2597033333333","6502100","三芝區"
"242021","AAC-296","2017/09/07 17:19:36","新北市新莊區新泰路421-1號","121.44313","25.0447733333333","6500500","新莊區"
"242029","986-R7","2017/09/07 17:19:15","新北市新莊區幸福路764號","121.447163333333","25.0491316666667","6500500","新莊區"
"242051","751-BX","2017/09/07 17:19:27","新北市新莊區瓊林南路59-8號","121.435423333333","25.0163566666667","6500500","新莊區"
"242023","613-BX","2017/09/07 17:19:22","新北市新莊區新泰路502巷56號","121.444486666667","25.046305","6500500","新莊區"
"242027","612-BX","2017/09/07 17:19:26","新北市新莊區中平路82巷29號","121.446048333333","25.0450133333333","6500500","新莊區"
"242039","566-BX","2017/09/07 17:19:33","新北市新莊區新樹路223號","121.43534","25.023065","6500500","新莊區"
"242044","497-BY","2017/09/07 17:19:20","新北市新莊區富國路101-1號","121.42133","25.0255583333333","6500500","新莊區"
"242048","441-UM","2017/09/07 17:19:19","新北市新莊區龍安路253號","121.419575","25.02016","6500500","新莊區"
"242053","440-UM","2017/09/07 17:19:31","新北市新莊區瓊林路59-70號","121.442126666667","25.0240033333333","6500500","新莊區"
"242004","413-TV","2017/09/07 17:19:22","新北市新莊區新泰路488號","121.442475","25.04583","6500500","新莊區"
"242042","400-BY","2017/09/07 17:19:21","新北市新莊區新樹路73號","121.437686666667","25.027725","6500500","新莊區"
"242061","362-BY","2017/09/07 17:19:19","新北市新莊區新泰路357巷3弄57號","121.44189","25.0395616666667","6500500","新莊區"
"242058","353-BY","2017/09/07 17:19:14","新北市新莊區新泰路357巷3弄19號","121.4424","25.0407933333333","6500500","新莊區"
"242007","132-UY","2017/09/07 17:19:25","新北市新莊區中平路82巷9號","121.44544","25.0449333333333","6500500","新莊區"
"242036","133-UY","2017/09/07 17:19:32","新北市新莊區新樹路223號","121.435318333333","25.0229816666667","6500500","新莊區"
"242046","172-VK","2017/09/07 17:19:28","新北市新莊區新樹路65-5號","121.439446666667","25.0308866666667","6500500","新莊區"
"242009","173-VK","2017/09/07 15:58:04","新北市新莊區新泰路255巷83號","121.44212","25.0388816666667","6500500","新莊區"
"242015","175-VK","2017/09/07 17:19:17","新北市新莊區新泰路357巷3弄1號","121.442326666667","25.04133","6500500","新莊區"
"242002","176-VK","2017/09/07 17:19:26","新北市新莊區新莊路771巷10號","121.44207","25.0318933333333","6500500","新莊區"
"242013","346-TH","2017/09/07 10:42:11","新北市新莊區三和路12-17號","121.441888333333","25.03752","6500500","新莊區"
"242021","347-TH","2017/09/06 01:04:05","新北市新莊區三和路12-17號","121.442045","25.0375016666667","6500500","新莊區"
"242019","348-TH","2017/09/07 17:19:13","新北市新莊區中港路296號","121.452823333333","25.044735","6500500","新莊區"
"242056","349-TH","2017/09/07 17:19:31","新北市新莊區新泰路357巷3弄1號","121.442361666667","25.0412183333333","6500500","新莊區"
"242017","350-TH","2017/09/07 17:19:19","新北市新莊區中港路287號","121.452751666667","25.044035","6500500","新莊區"
"242011","351-TH","2017/09/07 17:19:30","新北市新莊區中平路82巷36-1號","121.446261666667","25.04492","6500500","新莊區"
"238015","755-BX","2017/09/07 17:19:25","新北市樹林區福德街3-1號","121.401608333333","24.9761583333333","6500700","樹林區"
"238010","601-UM","2017/09/07 17:19:16","新北市樹林區中山路二段219號","121.40268","24.976205","6500700","樹林區"
"238019","599-UM","2017/09/07 17:19:28","新北市樹林區太平路273巷23號","121.42123","24.976375","6500700","樹林區"
"238018","571-TV","2017/09/07 17:19:21","新北市板橋區篤行路三段98-1號","121.425698333333","24.9850183333333","6500700","樹林區"
"238024","5061-A6","2017/09/07 17:19:31","新北市樹林區樹新路73號","121.427501666667","24.99524","6500700","樹林區"
"238022","KEA-2217","2017/09/07 17:19:32","新北市樹林區忠孝街31號","121.423758333333","24.9822233333333","6500700","樹林區"
"238021","KEA-2213","2017/09/07 17:19:14","新北市樹林區西圳街一段165巷20弄12號","121.395275","24.9606816666667","6500700","樹林區"
"238012","303-VK","2017/09/07 17:19:14","新北市樹林區保安二街67號","121.424603333333","24.9948166666667","6500700","樹林區"
"238017","283-BY","2017/09/07 17:19:22","新北市樹林區光武街28號","121.415826666667","25.0055583333333","6500700","樹林區"
"238014","282-BY","2017/09/07 17:19:22","新北市樹林區中山路一段4號","121.424085","24.9932283333333","6500700","樹林區"
"238020","268-VK","2017/09/07 17:19:22","新北市樹林區保安街一段191號","121.42067","24.995745","6500700","樹林區"
"238026","172-UY","2017/09/07 17:19:23","新北市樹林區東順街86號","121.408303333333","24.9756883333333","6500700","樹林區"
"238016","169-UY","2017/09/07 17:19:30","新北市樹林區中山路二段10號","121.417546666667","24.9850083333333","6500700","樹林區"
"239007","AAC-297","2017/09/07 17:19:27","新北市鶯歌區行政路7號","121.351336666667","24.95559","6500800","鶯歌區"
"239006","891-R6","2017/09/07 17:19:32","新北市鶯歌區德昌二街73號","121.33337","24.9578616666667","6500800","鶯歌區"
"239008","527-UM","2017/09/07 17:19:27","新北市鶯歌區西湖街曾厝巷2號","121.339346666667","24.96023","6500800","鶯歌區"
"239005","526-UM","2017/09/07 17:19:30","新北市鶯歌區福德五街8號","121.329491666667","24.96818","6500800","鶯歌區"
"239001","417-VK","2017/09/07 17:19:21","新北市鶯歌區尖山路173巷25號","121.345275","24.947115","6500800","鶯歌區"
"239003","360-BY","2017/09/07 17:19:26","新北市鶯歌區德昌二街70巷32弄55號","121.330375","24.9583483333333","6500800","鶯歌區"
"239002","359-BY","2017/09/07 17:19:26","新北市鶯歌區文昌街2號","121.350475","24.9542016666667","6500800","鶯歌區"
"239004","193-VK","2017/09/07 17:19:20","新北市鶯歌區文化路324巷1-37號","121.352226666667","24.9459216666667","6500800","鶯歌區"
"221012","276-VK","2017/09/07 13:05:56","新北市汐止區汐萬路一段256巷3號","121.653453333333","25.07465","6501100","汐止區"
"242001","281-VK","2017/09/07 16:04:03","新北市新莊區環河路636-7號","121.437416666667","25.0112583333333","6500500","新莊區"
"242034","280-VK","2017/09/07 17:19:31","新北市新莊區中環路一段10號","121.442996666667","25.026075","6500500","新莊區"
