"lineid","car","time","location","longitude","latitude","cityid","cityname"
"234026","9371-KE","2017/09/07 17:49:28","新北市永和區永平路190號","121.510545","25.0094116666667","6500400","永和區"
"249005","172-UM","2017/09/07 17:49:17","新北市八里區荖阡坑路34-3號","121.402266666667","25.1319983333333","6502300","八里區"
"249001","173-UM","2017/09/07 17:49:27","新北市八里區龍米路二段129巷1號","121.445871666667","25.1468266666667","6502300","八里區"
"249004","303-UY","2017/09/07 17:49:15","新北市八里區中華路一段79巷11號","121.421026666667","25.1564183333333","6502300","八里區"
"249002","305-UY","2017/09/07 17:49:25","新北市八里區龍形五街37巷2號","121.448688333333","25.1326466666667","6502300","八里區"
"249003","593-UM","2017/09/07 17:49:16","新北市八里區中山路二段125號","121.4055","25.1518133333333","6502300","八里區"
"248016","026-BX","2017/09/07 17:46:02","新北市五股區中興路二段83巷26-6號","121.459988333333","25.0752216666667","6501500","五股區"
"248006","077-UY","2017/09/07 13:56:44","新北市五股區中興路二段37巷28號","121.460215","25.0749116666667","6501500","五股區"
"248008","095-VK","2017/09/07 17:49:22","新北市五股區中興路二段83巷26-6號","121.46016","25.0751766666667","6501500","五股區"
"248020","225-UY","2017/09/07 17:49:20","新北市五股區中興路二段83巷26-6號","121.459983333333","25.0753533333333","6501500","五股區"
"248004","677-BX","2017/09/07 17:49:17","新北市五股區中興路二段83巷26-6號","121.460006666667","25.0752083333333","6501500","五股區"
"248002","678-BX","2017/09/07 17:49:17","新北市五股區中興路二段37巷28號","121.460061666667","25.0749383333333","6501500","五股區"
"232011","375-UM","2017/09/07 17:49:25","新北市坪林區北宜路八段188號","121.707921666667","24.9346933333333","6502000","坪林區"
"244013","069-UM","2017/09/07 17:49:18","新北市林口區中正路523號","121.382676666667","25.07731","6501700","林口區"
"244007","080-UY","2017/09/07 17:49:17","新北市林口區佳林路14號","121.387006666667","25.0823783333333","6501700","林口區"
"244019","403-UM","2017/09/07 17:49:33","新北市林口區文化一路一段89-5號","121.37187","25.070455","6501700","林口區"
"244009","410-SL","2017/09/07 17:49:14","新北市林口區民享路160號","121.382061666667","25.0832766666667","6501700","林口區"
"244023","483-VK","2017/09/07 17:49:14","新北市林口區興林路346號","121.388816666667","25.0699516666667","6501700","林口區"
"244017","485-VK","2017/09/07 17:49:18","新北市林口區忠孝路377號","121.369298333333","25.07154","6501700","林口區"
"244011","701-TV","2017/09/07 17:49:24","新北市林口區中興街3-1號","121.389068333333","25.0776616666667","6501700","林口區"
"244025","837-TS","2017/09/07 17:49:28","新北市林口區忠孝三路42號","121.36015","25.0699083333333","6501700","林口區"
"244021","838-TS","2017/09/07 17:49:29","新北市林口區仁愛路一段139巷28號","121.397518333333","25.0719533333333","6501700","林口區"
"222003","436-BY","2017/09/07 17:49:17","新北市深坑區文山路三段110號","121.608311666667","24.99884","6501800","深坑區"
"222002","659-BX","2017/09/07 17:49:32","新北市深坑區平埔街22巷17弄1號","121.614868333333","25.0008766666667","6501800","深坑區"
"231007","189-VK","2017/09/07 12:00:53","新北市新店區安華路28-1號","121.519586666667","24.9609916666667","6500600","新店區"
"231046","278-BY","2017/09/07 17:49:26","新北市新店區下石厝路23-1號","121.53227","24.9273733333333","6500600","新店區"
"241017","063-VK","2017/09/07 17:49:15","新北市三重區大同北路48號","121.495226666667","25.06301","6500200","三重區"
"241005","262-UM","2017/09/07 17:49:32","新北市三重區進安街196號","121.493685","25.0863533333333","6500200","三重區"
"241016","266-UM","2017/09/07 17:49:32","新北市三重區重新路二段87號","121.496178333333","25.0617783333333","6500200","三重區"
"241024","462-BY","2017/09/07 17:49:15","新北市三重區力行路二段11號","121.482243333333","25.0721666666667","6500200","三重區"
"241033","AAC-255","2017/09/07 17:49:26","新北市三重區光復路一段11號","121.472058333333","25.04718","6500200","三重區"
"235064","005-UY","2017/09/07 17:49:26","新北市中和區員山路36巷16-3號","121.485061666667","24.9912833333333","6500300","中和區"
"235067","255-BX","2017/09/07 17:49:24","新北市中和區和城路一段271巷1號","121.485355","24.991885","6500300","中和區"
"235072","301-VK","2017/09/07 17:49:24","新北市中和區員山路36巷12號","121.483926666667","24.9907533333333","6500300","中和區"
"235062","800-TS","2017/09/07 17:11:28","新北市中和區員山路36巷16-3號","121.484936666667","24.9912433333333","6500300","中和區"
"235037","157-BY","2017/09/07 15:49:31","新北市中和區員山路36巷13號","121.484205","24.9908583333333","6500300","中和區"
"220034","073-UY","2017/09/07 15:49:55","新北市板橋區華東街1-10號","121.448278333333","24.99511","6500100","板橋區"
"247022","893-R6","2017/09/07 17:49:27","新北市蘆洲區中正路462號","121.462441666667","25.09517","6501400","蘆洲區"
"247012","546-UM","2017/09/07 17:49:29","新北市蘆洲區復興路100號","121.475896666667","25.0870416666667","6501400","蘆洲區"
"247020","500-BY","2017/09/07 17:49:27","新北市蘆洲區民義街71巷29號","121.472215","25.0910383333333","6501400","蘆洲區"
"247010","339-TH","2017/09/07 17:49:24","新北市蘆洲區民族路39號","121.478228333333","25.0852666666667","6501400","蘆洲區"
"247002","337-TH","2017/09/07 17:49:24","新北市蘆洲區永平街32巷47號","121.459673333333","25.092345","6501400","蘆洲區"
"247004","336-TH","2017/09/07 17:49:26","新北市蘆洲區永安南路二段352號","121.456268333333","25.0828616666667","6501400","蘆洲區"
"247016","057-VK","2017/09/07 17:49:24","新北市蘆洲區中正路185巷23弄28號","121.467688333333","25.0838333333333","6501400","蘆洲區"
"247006","056-VK","2017/09/07 17:49:23","新北市蘆洲區九芎街90巷10號","121.465535","25.0804466666667","6501400","蘆洲區"
"247008","053-VK","2017/09/07 17:49:33","新北市蘆洲區中山一路287號","121.471776666667","25.0793766666667","6501400","蘆洲區"
"247014","007-UY","2017/09/07 17:49:25","新北市蘆洲區長榮路76號","121.462266666667","25.0836383333333","6501400","蘆洲區"
"247024","002-UY","2017/09/07 17:49:29","新北市蘆洲區長樂路120巷2號","121.462261666667","25.0897033333333","6501400","蘆洲區"
"247018","001-UY","2017/09/07 17:49:18","新北市蘆洲區復興路227巷2弄2號","121.4801","25.09011","6501400","蘆洲區"
"228003","097-TW","2017/09/07 17:49:16","新北市貢寮區真理里美艷山街5-1號","121.926801666667","25.0596566666667","6502600","貢寮區"
"228001","212-TW","2017/09/07 17:49:16","新北市貢寮區仁理村仁愛路95-1號","121.927678333333","25.0554516666667","6502600","貢寮區"
"228002","585-TW","2017/09/07 17:49:32","新北市貢寮區福隆里外隆林街16-3號","121.95831","25.00461","6502600","貢寮區"
"224010","AGQ-8101","2017/09/07 17:49:29","新北市瑞芳區三爪子坑路25號","121.813225","25.1080166666667","6501200","瑞芳區"
"224006","676-BX","2017/09/07 17:49:27","新北市瑞芳區傑魚坑路53號","121.793426666667","25.1104833333333","6501200","瑞芳區"
"224002","639-TC","2017/09/07 17:49:26","新北市瑞芳區民權街3-1號","121.80942","25.108185","6501200","瑞芳區"
"224009","285-BY","2017/09/07 17:49:21","新北市瑞芳區山尖路215-1號","121.848876666667","25.1124066666667","6501200","瑞芳區"
"224008","275-VK","2017/09/07 17:49:25","新北市瑞芳區明燈路一段118號","121.818645","25.1089533333333","6501200","瑞芳區"
"224005","271-BY","2017/09/07 17:49:32","新北市瑞芳區瑞芳街32-10號","121.822338333333","25.1209366666667","6501200","瑞芳區"
"253006","295-VK","2017/09/07 17:49:18","新北市石門區中央路6號","121.566566666667","25.2913516666667","6502200","石門區"
"208002","742-BX","2017/09/07 17:49:28","新北市金山區磺清路135號","121.639238333333","25.2277066666667","6502700","金山區"
"208003","665-BX","2017/09/07 17:49:31","新北市金山區磺清路135號","121.639488333333","25.2277733333333","6502700","金山區"
"208001","761-BX","2017/09/07 17:49:32","新北市金山區磺清路135號","121.639413333333","25.2277833333333","6502700","金山區"
"251009","008-UM","2017/09/07 17:49:15","新北市淡水區長興街29號","121.44397","25.1711633333333","6501000","淡水區"
"251004","009-UM","2017/09/07 17:49:14","新北市淡水區民權一街27號","121.459111666667","25.1362516666667","6501000","淡水區"
"251008","181-VK","2017/09/07 17:49:16","新北市淡水區八勢路一段147號","121.46751","25.1572366666667","6501000","淡水區"
"251014","182-VK","2017/09/07 17:49:31","新北市淡水區公埔子16-6號","121.480998333333","25.2245466666667","6501000","淡水區"
"251010","413-VK","2017/09/07 17:49:32","新北市淡水區中正路二段53號","121.418095","25.1849666666667","6501000","淡水區"
"251012","441-VK","2017/09/07 17:49:30","新北市淡水區鄒厝崙34號","121.471703333333","25.184555","6501000","淡水區"
"251016","442-VK","2017/09/07 17:49:16","新北市淡水區埤島39-15號","121.452758333333","25.1958833333333","6501000","淡水區"
"251005","443-VK","2017/09/07 17:49:15","新北市淡水區學府路96號","121.449221666667","25.1711166666667","6501000","淡水區"
"251001","559-UM","2017/09/07 17:49:18","新北市淡水區民權路92巷35-1號","121.462118333333","25.12661","6501000","淡水區"
"251006","561-UM","2017/09/07 17:49:17","新北市淡水區新生街51巷32號","121.44088","25.1758366666667","6501000","淡水區"
"251011","650-BX","2017/09/07 17:44:03","新北市淡水區小坪頂23-4號","121.483366666667","25.1508883333333","6501000","淡水區"
"251002","672-BX","2017/09/07 17:49:28","新北市淡水區中山路88號","121.442951666667","25.1705383333333","6501000","淡水區"
"251003","766-UM","2017/09/07 17:49:19","新北市淡水區大忠街13號","121.443408333333","25.1759416666667","6501000","淡水區"
"207003","550-UM","2017/09/07 17:49:15","新北市萬里區野柳里東澳路66號","121.692648333333","25.2009066666667","6502800","萬里區"
"207004","225-TW","2017/09/07 17:49:34","新北市萬里區萬里里瑪鋉頂街61號","121.688371666667","25.1804433333333","6502800","萬里區"
"252002","178-VK","2017/09/07 17:49:17","新北市三芝區中正路二段2號","121.504778333333","25.2556216666667","6502100","三芝區"
"252001","292-VK","2017/09/07 17:49:19","新北市三芝區育英街25號","121.501256666667","25.25802","6502100","三芝區"
"237004","078-UY","2017/09/07 17:49:26","新北市三峽區中山路118號","121.36568","24.9358883333333","6500900","三峽區"
"237009","210-TH","2017/09/07 17:49:25","新北市三峽區大勇路15號","121.367245","24.936765","6500900","三峽區"
"237013","252-BX","2017/09/07 17:49:30","新北市三峽區中華路8號","121.375195","24.9329816666667","6500900","三峽區"
"237012","275-BY","2017/09/07 17:49:14","新北市三峽區文化路88號","121.37179","24.93623","6500900","三峽區"
"237008","302-VK","2017/09/07 17:49:18","新北市三峽區中園街237-1號","121.36682","24.9194816666667","6500900","三峽區"
"237014","433-BY","2017/09/07 17:49:16","新北市三峽區文化路120巷21號","121.371016666667","24.936745","6500900","三峽區"
"237006","5529-G3","2017/09/07 17:49:00","新北市三峽區介壽路二段38巷42-2號","121.391641666667","24.9344983333333","6500900","三峽區"
"237011","572-TV","2017/09/07 17:39:29","新北市三峽區中山路91號","121.366426666667","24.935375","6500900","三峽區"
"237016","649-BX","2017/09/07 17:49:26","新北市三峽區白雞68-23號","121.392463333333","24.90985","6500900","三峽區"
"237010","706-TV","2017/09/07 17:49:23","新北市三峽區和平街57號","121.370215","24.9363216666667","6500900","三峽區"
"236071","105-UM","2017/09/07 17:49:23","新北市土城區明德路二段101號","121.450963333333","24.9814783333333","6501300","土城區"
"236042","107-UM","2017/09/07 17:49:32","新北市土城區城林路6巷80號","121.438546666667","24.97972","6501300","土城區"
"236078","166-UM","2017/09/07 17:49:20","新北市土城區中央路三段134-1號","121.43362","24.9656033333333","6501300","土城區"
"236030","253-BX","2017/09/07 17:49:16","新北市土城區城林路6巷80號","121.438445","24.9797483333333","6501300","土城區"
"236026","269-VK","2017/09/07 17:49:24","新北市土城區城林路6巷80號","121.438295","24.979495","6501300","土城區"
"236014","270-VK","2017/09/07 17:49:35","新北市土城區城林路6巷80號","121.438601666667","24.9796366666667","6501300","土城區"
"236037","271-VK","2017/09/07 17:49:16","新北市土城區城林路6巷80號","121.438425","24.9797166666667","6501300","土城區"
"236021","401-BY","2017/09/07 17:49:24","新北市土城區城林路6巷80號","121.438711666667","24.9796916666667","6501300","土城區"
"236058","912-UM","2017/09/07 17:49:24","新北市土城區城林路6巷80號","121.438453333333","24.97974","6501300","土城區"
"236055","AAC-216","2017/09/07 17:49:19","新北市土城區城林路6巷80號","121.438493333333","24.9796","6501300","土城區"
"242031","AAC-296","2017/09/07 17:49:15","新北市新莊區新泰路357巷1弄2號","121.442611666667","25.0412333333333","6500500","新莊區"
"242029","986-R7","2017/09/07 17:49:22","新北市新莊區復興路一段95號","121.448828333333","25.0428683333333","6500500","新莊區"
"242051","751-BX","2017/09/07 17:49:27","新北市新莊區西盛街257巷21號","121.4289","25.015855","6500500","新莊區"
"242025","615-BX","2017/09/07 17:49:21","新北市三重區新北大道二段41號","121.470318333333","25.0612616666667","6500500","新莊區"
"242023","613-BX","2017/09/07 17:49:22","新北市新莊區福樂街42號","121.457815","25.0457233333333","6500500","新莊區"
"242027","612-BX","2017/09/07 17:49:26","新北市新莊區福壽街144號","121.457846666667","25.0520133333333","6500500","新莊區"
"242039","566-BX","2017/09/07 17:49:33","新北市新莊區富國路204號","121.42488","25.0242666666667","6500500","新莊區"
"242044","497-BY","2017/09/07 17:49:20","新北市新莊區中正路857號","121.419656666667","25.02784","6500500","新莊區"
"242048","441-UM","2017/09/07 17:49:19","新北市新莊區萬安街102巷16號","121.420271666667","25.0229766666667","6500500","新莊區"
"242053","440-UM","2017/09/07 17:49:31","新北市新莊區民安西路468-1號","121.43169","25.0079016666667","6500500","新莊區"
"242004","413-TV","2017/09/07 17:49:22","新北市新莊區思源路177巷5弄1號","121.459263333333","25.044985","6500500","新莊區"
"242042","400-BY","2017/09/07 17:49:21","新北市泰山區新北大道六段365號","121.422583333333","25.0329316666667","6500500","新莊區"
"242061","362-BY","2017/09/07 17:49:19","新北市新莊區瓊林南路206號","121.434036666667","25.0064366666667","6500500","新莊區"
"242058","353-BY","2017/09/07 17:49:14","新北市新莊區中正路726-13號","121.415235","25.023875","6500500","新莊區"
"242007","132-UY","2017/09/07 17:49:25","新北市新莊區福壽街49巷6號","121.45787","25.0488333333333","6500500","新莊區"
"242036","133-UY","2017/09/07 17:49:12","新北市新莊區後港一路85號","121.427496666667","25.0267466666667","6500500","新莊區"
"242046","172-VK","2017/09/07 17:49:28","新北市新莊區建國一路76號","121.434415","25.0304783333333","6500500","新莊區"
"242009","173-VK","2017/09/07 17:49:19","新北市新莊區昌明街42-1號","121.45628","25.052245","6500500","新莊區"
"242015","175-VK","2017/09/07 17:49:17","新北市新莊區新泰路442號","121.443385","25.0447966666667","6500500","新莊區"
"242002","176-VK","2017/09/07 17:49:26","新北市新莊區景德路103號","121.45171","25.03455","6500500","新莊區"
"242013","346-TH","2017/09/07 17:49:15","新北市新莊區中誠街168號","121.448103333333","25.0475683333333","6500500","新莊區"
"242021","347-TH","2017/09/07 17:49:27","新北市新莊區復興路一段216號","121.452951666667","25.043675","6500500","新莊區"
"242019","348-TH","2017/09/07 17:49:13","新北市新莊區民樂街46號","121.458003333333","25.0413783333333","6500500","新莊區"
"242056","349-TH","2017/09/07 17:49:31","新北市新莊區瓊林路40巷29號","121.44661","25.03017","6500500","新莊區"
"242017","350-TH","2017/09/07 17:49:29","新北市新莊區永安街73號","121.450966666667","25.044615","6500500","新莊區"
"242011","351-TH","2017/09/07 17:49:30","新北市新莊區中港路681巷18號","121.44981","25.05636","6500500","新莊區"
"238015","755-BX","2017/09/07 17:49:25","新北市樹林區長壽街19巷11號","121.421988333333","24.9938166666667","6500700","樹林區"
"238023","601-UM","2017/09/07 17:49:16","新北市樹林區三福街132號","121.40576","25.0162766666667","6500700","樹林區"
"238019","599-UM","2017/09/07 17:49:35","新北市樹林區太平路114號","121.418543333333","24.97864","6500700","樹林區"
"238018","571-TV","2017/09/07 17:49:21","新北市樹林區鎮前街3號","121.426008333333","24.9928216666667","6500700","樹林區"
"238024","5061-A6","2017/09/07 17:49:31","新北市樹林區中山路三段206-1號","121.38485","24.9676083333333","6500700","樹林區"
"238022","KEA-2217","2017/09/07 17:49:12","新北市樹林區太順街62巷3弄1號","121.417683333333","24.9796366666667","6500700","樹林區"
"238021","KEA-2213","2017/09/07 17:49:34","新北市樹林區柑園街一段253巷26號","121.396928333333","24.9533316666667","6500700","樹林區"
"238012","303-VK","2017/09/07 17:49:14","新北市樹林區三俊街106號","121.414743333333","25.0155483333333","6500700","樹林區"
"238017","283-BY","2017/09/07 17:49:22","新北市樹林區三德街30巷3號","121.414613333333","25.0130983333333","6500700","樹林區"
"238014","282-BY","2017/09/07 17:49:22","新北市樹林區保安街一段358號","121.417715","24.998355","6500700","樹林區"
"238020","268-VK","2017/09/07 17:49:22","新北市樹林區俊英街252號","121.424521666667","25.0109883333333","6500700","樹林區"
"238026","172-UY","2017/09/07 17:49:29","新北市樹林區中洲街52號","121.396875","24.970835","6500700","樹林區"
"238016","169-UY","2017/09/07 17:49:30","新北市樹林區啟智街129-5號","121.41787","24.98909","6500700","樹林區"
"239007","AAC-297","2017/09/07 17:49:27","新北市鶯歌區鶯桃路120巷4號","121.338678333333","24.9548166666667","6500800","鶯歌區"
"239006","891-R6","2017/09/07 17:49:32","新北市鶯歌區永和街113號","121.33365","24.9686716666667","6500800","鶯歌區"
"239008","527-UM","2017/09/07 17:49:27","新北市鶯歌區大湖路718號","121.33301","24.9764816666667","6500800","鶯歌區"
"239005","526-UM","2017/09/07 17:49:30","新北市鶯歌區鳳吉四街51號","121.327613333333","24.9733666666667","6500800","鶯歌區"
"239001","417-VK","2017/09/07 17:49:21","新北市鶯歌區中正三路298號","121.328466666667","24.935675","6500800","鶯歌區"
"239003","360-BY","2017/09/07 17:49:34","新北市鶯歌區鶯桃路206巷54號","121.338101666667","24.9602166666667","6500800","鶯歌區"
"239002","359-BY","2017/09/07 17:49:26","新北市鶯歌區國華路31號","121.342823333333","24.9556266666667","6500800","鶯歌區"
"239004","193-VK","2017/09/07 17:49:20","新北市鶯歌區文化路393巷2弄2號","121.352855","24.9506983333333","6500800","鶯歌區"
"221036","130-UY","2017/09/07 17:49:20","新北市汐止區長江街71號","121.657011666667","25.0721066666667","6501100","汐止區"
"221015","131-UY","2017/09/07 17:49:31","新北市汐止區長江街101-5號","121.65911","25.0740183333333","6501100","汐止區"
"221010","269-BY","2017/09/07 17:49:09","新北市汐止區汐萬路一段420號","121.649838333333","25.0779933333333","6501100","汐止區"
"221012","276-VK","2017/09/07 13:05:56","新北市汐止區汐萬路一段256巷3號","121.653453333333","25.07465","6501100","汐止區"
"221031","277-VK","2017/09/07 17:49:34","新北市汐止區汐萬路一段329號","121.649908333333","25.0756916666667","6501100","汐止區"
"221012","278-VK","2017/09/07 17:49:33","新北市汐止區長江街57巷1號","121.656308333333","25.07155","6501100","汐止區"
"221023","279-VK","2017/09/07 17:49:17","新北市汐止區康寧街591巷4號","121.634938333333","25.07056","6501100","汐止區"
"221032","280-BY","2017/09/07 17:49:17","新北市汐止區大同路一段143號","121.631753333333","25.0558366666667","6501100","汐止區"
"221027","281-BY","2017/09/07 17:49:22","新北市汐止區汐萬路一段256巷1號","121.65176","25.07488","6501100","汐止區"
"221038","297-VK","2017/09/07 17:49:31","新北市汐止區汐萬路一段312號","121.650451666667","25.0752316666667","6501100","汐止區"
"221029","298-VK","2017/09/07 17:49:30","新北市汐止區康寧街901號","121.651593333333","25.07492","6501100","汐止區"
"221021","299-VK","2017/09/07 17:49:23","新北市汐止區水源路一段31號","121.657216666667","25.0664683333333","6501100","汐止區"
"221008","358-BY","2017/09/07 17:49:24","新北市汐止區康寧街901號","121.65138","25.0750383333333","6501100","汐止區"
"221035","622-UM","2017/09/07 17:49:27","新北市汐止區汐萬路一段150號","121.65271","25.0712683333333","6501100","汐止區"
"221025","623-UM","2017/09/07 17:49:22","新北市汐止區新台五路一段260-3號","121.658065","25.0641066666667","6501100","汐止區"
"221033","647-BX","2017/09/07 17:49:20","新北市汐止區橫科路73巷20弄20號","121.619756666667","25.051645","6501100","汐止區"
"221018","753-BX","2017/09/07 17:49:24","新北市汐止區忠孝東路382巷3弄1號","121.665728333333","25.0697616666667","6501100","汐止區"
"242001","281-VK","2017/09/07 16:04:03","新北市新莊區環河路636-7號","121.437416666667","25.0112583333333","6500500","新莊區"
"242034","280-VK","2017/09/07 17:49:31","新北市新莊區新莊路783號","121.441125","25.0326733333333","6500500","新莊區"
