"lineid","car","time","location","longitude","latitude","cityid","cityname"
"234046","148-BY","2017/09/07 18:19:22","新北市永和區福和路1號","121.526571666667","25.0100066666667","6500400","永和區"
"234007","207-UY","2017/09/07 18:19:19","新北市永和區仁愛路306巷26號","121.502675","25.0087116666667","6500400","永和區"
"234081","298-R6","2017/09/07 18:19:29","新北市永和區福和路1號","121.526658333333","25.01003","6500400","永和區"
"234030","746-BX","2017/09/07 18:19:31","新北市永和區福和路1號","121.526316666667","25.0096083333333","6500400","永和區"
"234042","862-TW","2017/09/07 18:19:35","新北市永和區福和路1號","121.526488333333","25.00964","6500400","永和區"
"234026","9371-KE","2017/09/07 18:19:28","新北市永和區豫溪街28巷16號","121.515156666667","25.0093483333333","6500400","永和區"
"234011","9373-KE","2017/09/07 18:19:30","新北市永和區保福路二段158巷1號","121.509128333333","25.0150366666667","6500400","永和區"
"249005","172-UM","2017/09/07 18:19:17","新北市八里區荖阡坑路15-1號","121.400703333333","25.1400466666667","6502300","八里區"
"249001","173-UM","2017/09/07 18:19:27","新北市八里區龍米路一段135號","121.452113333333","25.1270166666667","6502300","八里區"
"249004","303-UY","2017/09/07 18:19:15","新北市八里區龍米路二段200巷7號","121.433445","25.159295","6502300","八里區"
"249002","305-UY","2017/09/07 18:19:25","新北市八里區龍形五街27號","121.449923333333","25.1331633333333","6502300","八里區"
"249003","593-UM","2017/09/07 18:19:16","新北市八里區松子腳1-1號","121.403335","25.1450416666667","6502300","八里區"
"248016","026-BX","2017/09/07 18:19:29","新北市五股區西雲路290號","121.449638333333","25.0991966666667","6501500","五股區"
"248006","077-UY","2017/09/07 18:19:29","新北市五股區中興路一段152號","121.464546666667","25.0738983333333","6501500","五股區"
"248008","095-VK","2017/09/07 18:19:22","新北市五股區更洲路32巷8弄14號","121.459255","25.0796366666667","6501500","五股區"
"248020","225-UY","2017/09/07 18:19:20","新北市五股區孝義路47巷21號","121.45057","25.1092966666667","6501500","五股區"
"248012","247-BX","2017/09/07 18:19:33","新北市五股區御史路1巷101弄2號","121.441033333333","25.0911233333333","6501500","五股區"
"248014","261-SL","2017/09/07 18:19:27","新北市五股區成泰路一段171巷13號","121.434391666667","25.0743466666667","6501500","五股區"
"248010","272-BY","2017/09/07 18:19:29","新北市五股區成泰路一段139巷2弄5號","121.43494","25.0730933333333","6501500","五股區"
"248004","677-BX","2017/09/07 18:19:18","新北市五股區成泰路二段145號","121.439043333333","25.08542","6501500","五股區"
"248002","678-BX","2017/09/07 18:19:17","新北市五股區西雲路66號","121.443626666667","25.091655","6501500","五股區"
"234074","AAC-211","2017/09/07 18:19:27","新北市永和區福和路1號","121.52664","25.00991","6500400","永和區"
"232011","375-UM","2017/09/07 18:16:20","新北市坪林區坪雙路一段43號","121.711766666667","24.9424933333333","6502000","坪林區"
"244013","069-UM","2017/09/07 18:19:19","新北市林口區中山路148-1號","121.391233333333","25.07876","6501700","林口區"
"244007","080-UY","2017/09/07 18:19:17","新北市林口區林口路222號","121.387005","25.0835383333333","6501700","林口區"
"244019","403-UM","2017/09/07 18:19:13","新北市林口區文化一路一段78號","121.37169","25.069875","6501700","林口區"
"244009","410-SL","2017/09/07 18:19:14","新北市林口區中山路256-1號","121.38549","25.0797","6501700","林口區"
"244023","483-VK","2017/09/07 18:19:14","新北市林口區仁愛路二段127號","121.383345","25.074795","6501700","林口區"
"244017","485-VK","2017/09/07 18:19:18","新北市林口區八德路48巷1號","121.366786666667","25.066215","6501700","林口區"
"244011","701-TV","2017/09/07 18:19:21","新北市林口區仁愛路一段292號","121.392733333333","25.076415","6501700","林口區"
"244025","837-TS","2017/09/07 18:19:26","新北市林口區南勢七街28-12號","121.355845","25.068945","6501700","林口區"
"244021","838-TS","2017/09/07 18:19:29","新北市林口區自強一街46號","121.399223333333","25.0775816666667","6501700","林口區"
"243013","AAD-798","2017/09/07 18:19:27","新北市泰山區南林路99巷1-1號","121.415483333333","25.051125","6501600","泰山區"
"222003","436-BY","2017/09/07 18:19:17","新北市深坑區文山路一段64號","121.623315","25.0004266666667","6501800","深坑區"
"222002","659-BX","2017/09/07 18:19:32","新北市深坑區雲鄉路3-1號","121.620996666667","25.0001633333333","6501800","深坑區"
"222001","696-SL","2017/09/07 18:19:18","新北市深坑區北深路二段51號","121.618988333333","25.0040183333333","6501800","深坑區"
"231059","046-UY","2017/09/07 18:19:34","新北市新店區安華路28-1號","121.519593333333","24.9609883333333","6500600","新店區"
"231061","047-UY","2017/09/07 18:19:28","新北市新店區安華路28-1號","121.519071666667","24.960915","6500600","新店區"
"231060","106-UY","2017/09/07 18:19:18","新北市新店區安華路28-1號","121.5196","24.9608533333333","6500600","新店區"
"231051","107-UY","2017/09/07 18:19:29","新北市新店區安華路28-1號","121.519503333333","24.9613466666667","6500600","新店區"
"231047","108-UY","2017/09/07 16:32:36","新北市新店區安華路28-1號","121.51956","24.961215","6500600","新店區"
"231052","187-VK","2017/09/07 18:19:16","新北市新店區秀山路72號","121.531238333333","24.9608966666667","6500600","新店區"
"231007","189-VK","2017/09/07 12:00:53","新北市新店區安華路28-1號","121.519586666667","24.9609916666667","6500600","新店區"
"231057","256-BX","2017/09/07 18:19:28","新北市新店區安華路28-1號","121.519643333333","24.9610983333333","6500600","新店區"
"231063","268-BY","2017/09/07 18:19:30","新北市新店區安華路28-1號","121.519431666667","24.96057","6500600","新店區"
"231046","278-BY","2017/09/07 18:19:18","新北市新店區直潭七街60號","121.532275","24.93982","6500600","新店區"
"231058","3712-VJ","2017/09/07 18:19:15","新北市新店區環河路17號","121.53751","24.9612883333333","6500600","新店區"
"231055","3713-VJ","2017/09/07 18:19:27","新北市新店區安康路一段105號","121.529026666667","24.9615966666667","6500600","新店區"
"231056","4716-K9","2017/09/07 18:19:29","新北市新店區環河路29巷1號","121.536798333333","24.961315","6500600","新店區"
"231067","4772-VM","2017/09/07 18:19:29","新北市新店區安華路1-1號","121.519125","24.9604616666667","6500600","新店區"
"231065","512-UM","2017/09/07 16:36:54","新北市新店區安華路28-1號","121.519236666667","24.9612833333333","6500600","新店區"
"231054","513-UM","2017/09/07 18:19:30","新北市新店區安華路28-1號","121.519631666667","24.961215","6500600","新店區"
"231003","616-UM","2017/09/07 16:30:49","新北市新店區安華路1-1號","121.519458333333","24.960425","6500600","新店區"
"231045","617-UM","2017/09/07 18:19:31","新北市新店區安華路28-1號","121.519378333333","24.9608933333333","6500600","新店區"
"231049","719-UM","2017/09/07 18:19:27","新北市新店區安華路28-1號","121.51942","24.9611666666667","6500600","新店區"
"231062","720-UM","2017/09/07 18:19:24","新北市新店區安華路28-1號","121.518993333333","24.9612483333333","6500600","新店區"
"231044","897-TW","2017/09/07 18:19:22","新北市新店區安華路28-1號","121.519645","24.9607366666667","6500600","新店區"
"231043","899-TW","2017/09/07 16:18:41","新北市新店區安華路28-1號","121.519261666667","24.960865","6500600","新店區"
"231066","AKT-0513","2017/09/07 18:19:26","新北市新店區安華路28-1號","121.519713333333","24.9605266666667","6500600","新店區"
"241033","AAC-255","2017/09/07 18:19:26","新北市三重區中興北街42巷41號","121.467663333333","25.0493","6500200","三重區"
"235066","003-UY","2017/09/07 18:19:22","新北市中和區中山路二段123號","121.502663333333","25.003525","6500300","中和區"
"235064","005-UY","2017/09/07 18:19:26","新北市中和區中正路161巷2號","121.498516666667","24.993525","6500300","中和區"
"235063","006-UY","2017/09/07 18:19:24","新北市中和區中正路525號","121.487973333333","24.99372","6500300","中和區"
"235039","097-UM","2017/09/07 18:19:23","新北市中和區景平路369號","121.504311666667","24.9934633333333","6500300","中和區"
"235065","098-UM","2017/09/07 18:19:34","新北市中和區莊敬路49巷18號","121.501645","25.00601","6500300","中和區"
"235040","150-BY","2017/09/07 16:07:50","新北市中和區和城路一段271巷1號","121.48542","24.9917866666667","6500300","中和區"
"235058","151-BY","2017/09/07 18:19:17","新北市中和區圓通路367巷15-1號","121.492206666667","24.9875066666667","6500300","中和區"
"235055","183-VK","2017/09/07 18:19:13","新北市中和區員山路36巷16-3號","121.485181666667","24.991365","6500300","中和區"
"235038","185-VK","2017/09/07 18:19:32","新北市中和區大智街42巷1-6號","121.521943333333","24.9922","6500300","中和區"
"235049","186-VK","2017/09/07 18:19:17","新北市中和區中正路637巷52弄1號","121.485416666667","24.9934483333333","6500300","中和區"
"235067","255-BX","2017/09/07 18:19:24","新北市中和區員山路36巷16-6號","121.48525","24.9921266666667","6500300","中和區"
"235072","301-VK","2017/09/07 18:19:24","新北市中和區錦和路107號","121.490116666667","24.995255","6500300","中和區"
"235043","352-BY","2017/09/07 18:19:27","新北市中和區景平路504巷2號","121.50392","24.993625","6500300","中和區"
"235051","376-QA","2017/09/07 18:19:19","新北市中和區忠孝街95號","121.512126666667","24.9856633333333","6500300","中和區"
"235068","377-QA","2017/09/07 18:19:12","新北市中和區員山路36巷16-2號","121.485435","24.99101","6500300","中和區"
"235061","378-QA","2017/09/07 18:19:15","新北市中和區國光街215巷24弄10號","121.466708333333","25.0001","6500300","中和區"
"235050","4979-A6","2017/09/07 18:19:34","新北市中和區捷運路61巷28號","121.509081666667","24.989275","6500300","中和區"
"235069","4980-A6","2017/09/07 18:18:49","新北市中和區中正路266-1號","121.495253333333","24.9941233333333","6500300","中和區"
"235042","551-UM","2017/09/07 18:19:28","新北市中和區景平路105號","121.516811666667","24.9919133333333","6500300","中和區"
"235070","558-UM","2017/09/07 18:19:31","新北市中和區中正路395號","121.489903333333","24.993595","6500300","中和區"
"235045","565-BX","2017/09/07 18:19:18","新北市中和區景安路225號","121.504275","24.991295","6500300","中和區"
"235054","640-BX","2017/09/07 18:19:25","新北市中和區莒光路203號","121.472596666667","24.998935","6500300","中和區"
"235047","732-UM","2017/09/07 18:19:19","新北市中和區中正路169號","121.498168333333","24.99363","6500300","中和區"
"235062","800-TS","2017/09/07 18:19:15","新北市中和區景平路997巷2號","121.495625","25.0057966666667","6500300","中和區"
"235057","801-TS","2017/09/07 18:19:28","新北市中和區員山路111號","121.480813333333","24.9948066666667","6500300","中和區"
"235052","805-TS","2017/09/07 18:19:13","新北市中和區南山路309號","121.50481","24.991565","6500300","中和區"
"235048","896-TW","2017/09/07 18:19:18","新北市中和區中正路637巷60弄61號","121.48545","24.9932966666667","6500300","中和區"
"235053","900-TW","2017/09/07 18:19:19","新北市中和區員山路36巷16-2號","121.485111666667","24.991805","6500300","中和區"
"235037","157-BY","2017/09/07 18:19:31","新北市中和區員山路36巷13號","121.484155","24.99085","6500300","中和區"
"235037","AAC-213","2017/09/07 18:19:23","新北市中和區景平路73號","121.519045","24.9914516666667","6500300","中和區"
"235059","AAC-215","2017/09/07 16:42:28","新北市中和區員山路36巷16-3號","121.485011666667","24.9913","6500300","中和區"
"220034","073-UY","2017/09/07 18:19:29","新北市板橋區華東街1-10號","121.448251666667","24.9950333333333","6500100","板橋區"
"247008","053-VK","2017/09/07 18:19:13","新北市八里區商港路105巷15號","121.391286666667","25.1490966666667","6501400","蘆洲區"
"226004","312-R5","2017/09/07 18:19:17","新北市平溪區靜安路二段50號","121.714835","25.020695","6502400","平溪區"
"228003","097-TW","2017/09/07 18:19:16","新北市貢寮區真理里美艷山街27號","121.92339","25.06898","6502600","貢寮區"
"228001","212-TW","2017/09/07 18:19:16","新北市貢寮區真理里新港街26巷55弄2-1號","121.927385","25.05285","6502600","貢寮區"
"228002","585-TW","2017/09/07 18:19:32","新北市貢寮區福連里馬崗街2-7號","121.999743333333","25.0155066666667","6502600","貢寮區"
"224006","676-BX","2017/09/07 18:19:27","新北市瑞芳區民權街3-2號","121.808048333333","25.10733","6501200","瑞芳區"
"224002","639-TC","2017/09/07 18:19:26","新北市瑞芳區三爪子坑路149巷6號","121.810881666667","25.1063933333333","6501200","瑞芳區"
"224009","285-BY","2017/09/07 18:19:21","新北市瑞芳區金光路101號","121.854496666667","25.1063983333333","6501200","瑞芳區"
"224008","275-VK","2017/09/07 18:19:25","新北市瑞芳區逢甲路140-1號","121.808496666667","25.1091883333333","6501200","瑞芳區"
"224007","273-VK","2017/09/07 18:19:25","新北市瑞芳區大埔路67巷3-1號","121.764401666667","25.1015083333333","6501200","瑞芳區"
"224005","271-BY","2017/09/07 18:19:32","新北市瑞芳區建基路二段117號","121.805421666667","25.1340866666667","6501200","瑞芳區"
"227010","642-TC","2017/09/07 18:19:25","新北市雙溪區牡丹里牡丹73號","121.851678333333","25.0593283333333","6502500","雙溪區"
"227004","400-TW","2017/09/07 18:19:24","新北市雙溪區共和里中山路2號","121.863796666667","25.0338066666667","6502500","雙溪區"
"253005","032-BX","2017/09/07 18:19:18","新北市石門區中央路17號","121.567826666667","25.2923833333333","6502200","石門區"
"253006","295-VK","2017/09/07 18:19:18","新北市石門區老梅路63號","121.545775","25.2892083333333","6502200","石門區"
"208002","742-BX","2017/09/07 18:19:28","新北市金山區清泉里清水路16巷12號","121.633545","25.2309016666667","6502700","金山區"
"208003","665-BX","2017/09/07 18:19:31","新北市金山區民生路196號","121.645918333333","25.22183","6502700","金山區"
"208001","761-BX","2017/09/07 18:19:12","新北市金山區自強路13號","121.64042","25.2164366666667","6502700","金山區"
"251004","009-UM","2017/09/07 18:19:14","新北市淡水區民族路31巷27號","121.462245","25.1364633333333","6501000","淡水區"
"251008","181-VK","2017/09/07 18:19:16","新北市淡水區淡金路164號","121.458923333333","25.165745","6501000","淡水區"
"251014","182-VK","2017/09/07 18:19:31","新北市淡水區崙頂16-1號","121.488385","25.2216866666667","6501000","淡水區"
"251010","413-VK","2017/09/07 18:19:31","新北市淡水區淡海路199號","121.420423333333","25.18483","6501000","淡水區"
"251012","441-VK","2017/09/07 18:19:30","新北市淡水區北新路二段77-5號","121.480441666667","25.1855833333333","6501000","淡水區"
"251016","442-VK","2017/09/07 18:19:35","新北市淡水區淡金路三段228巷9號","121.449473333333","25.2049683333333","6501000","淡水區"
"251005","443-VK","2017/09/07 18:19:35","新北市淡水區學府路73巷10號","121.447351666667","25.170325","6501000","淡水區"
"251001","559-UM","2017/09/07 18:19:18","新北市淡水區自強路108-19號","121.461678333333","25.131195","6501000","淡水區"
"251006","561-UM","2017/09/07 18:19:17","新北市淡水區新民街30號","121.439698333333","25.1760516666667","6501000","淡水區"
"251011","650-BX","2017/09/07 18:19:35","新北市淡水區坪頂路51巷2號","121.458386666667","25.1626","6501000","淡水區"
"251002","672-BX","2017/09/07 18:19:19","新北市淡水區中正東路一段87-2號","121.452963333333","25.161865","6501000","淡水區"
"251003","766-UM","2017/09/07 18:19:19","新北市淡水區北新路137號","121.449455","25.178815","6501000","淡水區"
"207003","550-UM","2017/09/07 18:19:15","新北市萬里區野柳里港東路23號","121.687353333333","25.20364","6502800","萬里區"
"207004","225-TW","2017/09/07 18:19:34","新北市萬里區中幅里中福路177號","121.674225","25.1654416666667","6502800","萬里區"
"252003","249-BX","2017/09/07 18:19:22","新北市三芝區錫板里海尾11-7號","121.478365","25.2606383333333","6502100","三芝區"
"252001","292-VK","2017/09/07 18:19:19","新北市三芝區中興街二段2號","121.498351666667","25.2565666666667","6502100","三芝區"
"237004","078-UY","2017/09/07 18:19:26","新北市三峽區大埔路417號","121.373196666667","24.89271","6500900","三峽區"
"237007","153-BY","2017/09/07 18:19:15","新北市三峽區中正路二段534號","121.360756666667","24.9065016666667","6500900","三峽區"
"237009","210-TH","2017/09/07 18:19:25","新北市三峽區大仁路6號","121.366766666667","24.9376816666667","6500900","三峽區"
"237013","252-BX","2017/09/07 18:19:30","新北市三峽區永安街37號","121.376511666667","24.9303616666667","6500900","三峽區"
"237012","275-BY","2017/09/07 18:19:34","新北市三峽區民生街1巷5-18號","121.378756666667","24.935935","6500900","三峽區"
"237008","302-VK","2017/09/07 18:19:18","新北市三峽區白雞58-2號","121.383618333333","24.910515","6500900","三峽區"
"237014","433-BY","2017/09/07 18:19:16","新北市三峽區復興路110巷2弄4號","121.372873333333","24.9380783333333","6500900","三峽區"
"237006","5529-G3","2017/09/07 18:19:20","新北市三峽區溪東路235號","121.406548333333","24.9326633333333","6500900","三峽區"
"237011","572-TV","2017/09/07 18:09:44","新北市三峽區溪北街2號","121.396011666667","24.9362166666667","6500900","三峽區"
"237016","649-BX","2017/09/07 18:19:26","新北市三峽區紫微路42-1號","121.422448333333","24.9202","6500900","三峽區"
"237010","706-TV","2017/09/07 18:19:23","新北市三峽區民族街15號","121.369408333333","24.9309566666667","6500900","三峽區"
"237005","AKY-6261","2017/09/07 18:19:30","新北市三峽區民權街133號","121.368946666667","24.93204","6500900","三峽區"
"236071","105-UM","2017/09/07 18:19:23","新北市土城區永豐路202巷7-1號","121.466216666667","24.983215","6501300","土城區"
"236042","107-UM","2017/09/07 18:19:32","新北市土城區裕生路21巷6弄23號","121.448718333333","24.9868416666667","6501300","土城區"
"236078","166-UM","2017/09/07 18:19:20","新北市土城區中央路三段281巷11弄2號","121.426325","24.9627666666667","6501300","土城區"
"236030","253-BX","2017/09/07 18:19:16","新北市土城區順風路31號","121.440738333333","24.9767116666667","6501300","土城區"
"236026","269-VK","2017/09/07 18:19:24","新北市土城區承天路18號","121.439455","24.9635533333333","6501300","土城區"
"236014","270-VK","2017/09/07 18:19:15","新北市土城區立清街69號","121.460326666667","24.9873266666667","6501300","土城區"
"236037","271-VK","2017/09/07 18:19:16","新北市土城區青雲路483巷10弄15號","121.459343333333","24.973195","6501300","土城區"
"236021","401-BY","2017/09/07 18:19:24","新北市土城區明德路一段371號","121.452983333333","24.979595","6501300","土城區"
"236058","912-UM","2017/09/07 18:19:24","新北市土城區中央路四段286-1號","121.414391666667","24.9563516666667","6501300","土城區"
"236051","913-UM","2017/09/07 18:19:29","新北市土城區明德路一段288-1號","121.456975","24.9776116666667","6501300","土城區"
"236062","915-UM","2017/09/07 18:19:35","新北市土城區清水路25巷14號","121.453343333333","24.980625","6501300","土城區"
"236053","AAC-216","2017/09/07 18:19:19","新北市土城區中華路二段102號","121.438076666667","24.97432","6501300","土城區"
"242031","AAC-296","2017/09/07 18:19:15","新北市新莊區新泰路255巷43號","121.444423333333","25.0395816666667","6500500","新莊區"
"242029","986-R7","2017/09/07 18:19:15","新北市新莊區中平路202-1號","121.44488","25.0487983333333","6500500","新莊區"
"242051","751-BX","2017/09/07 18:19:27","新北市新莊區新樹路210號","121.433766666667","25.0204366666667","6500500","新莊區"
"242025","615-BX","2017/09/07 18:19:29","新北市新莊區五工三路95號","121.458186666667","25.0653533333333","6500500","新莊區"
"242027","612-BX","2017/09/07 18:19:29","新北市新莊區幸福路577號","121.453925","25.04924","6500500","新莊區"
"242039","566-BX","2017/09/07 18:19:33","新北市新莊區民安東路185號","121.4331","25.020525","6500500","新莊區"
"242044","497-BY","2017/09/07 18:19:22","新北市新莊區鳳山街56巷47號","121.413343333333","25.0270816666667","6500500","新莊區"
"242048","441-UM","2017/09/07 18:19:19","新北市樹林區中正路280-1號","121.415715","25.009405","6500500","新莊區"
"242053","440-UM","2017/09/07 18:19:31","新北市新莊區民安西路365號","121.428541666667","25.010425","6500500","新莊區"
"242004","413-TV","2017/09/07 18:19:22","新北市新莊區中港三街21號","121.45056","25.0464","6500500","新莊區"
"242042","400-BY","2017/09/07 18:19:21","新北市新莊區天祥街70號","121.415895","25.0292483333333","6500500","新莊區"
"242061","362-BY","2017/09/07 18:19:32","新北市新莊區新樹路52-3號","121.437603333333","25.0271616666667","6500500","新莊區"
"242058","353-BY","2017/09/07 18:19:34","新北市新莊區中正路732號","121.413941666667","25.023275","6500500","新莊區"
"242007","132-UY","2017/09/07 18:19:25","新北市新莊區中華路二段94號","121.453535","25.0471666666667","6500500","新莊區"
"242036","133-UY","2017/09/07 18:19:32","新北市新莊區後港一路31巷3弄2號","121.425053333333","25.0266666666667","6500500","新莊區"
"242046","172-VK","2017/09/07 18:19:28","新北市新莊區福營路372號","121.420853333333","25.0264433333333","6500500","新莊區"
"242009","173-VK","2017/09/07 18:19:19","新北市新莊區幸福路600號","121.453135","25.04938","6500500","新莊區"
"242015","175-VK","2017/09/07 18:19:17","新北市新莊區中平路184巷10弄16號","121.445513333333","25.0482466666667","6500500","新莊區"
"242002","176-VK","2017/09/07 18:19:26","新北市新莊區碧江街18-7號","121.455403333333","25.0346416666667","6500500","新莊區"
"242021","347-TH","2017/09/07 18:19:27","新北市新莊區新興街50號","121.450831666667","25.03743","6500500","新莊區"
"242056","349-TH","2017/09/07 18:19:31","新北市新莊區瓊林路13-2號","121.449153333333","25.0313016666667","6500500","新莊區"
"242017","350-TH","2017/09/07 18:19:19","新北市新莊區中正路231號","121.450598333333","25.03565","6500500","新莊區"
"242011","351-TH","2017/09/07 18:19:30","新北市新莊區中港路615巷7號","121.450836666667","25.0533216666667","6500500","新莊區"
"238015","755-BX","2017/09/07 18:19:25","新北市樹林區文化街112巷27號","121.417176666667","24.9905116666667","6500700","樹林區"
"238023","601-UM","2017/09/07 18:19:16","新北市樹林區龍興街31巷24號","121.403903333333","25.016115","6500700","樹林區"
"238019","599-UM","2017/09/07 18:19:28","新北市樹林區國凱街65號","121.42156","24.979915","6500700","樹林區"
"238018","571-TV","2017/09/07 18:19:21","新北市樹林區博愛街121號","121.426175","24.99084","6500700","樹林區"
"238024","5061-A6","2017/09/07 18:19:30","新北市樹林區育英街2巷1-2號","121.423085","24.9891116666667","6500700","樹林區"
"238021","KEA-2213","2017/09/07 18:19:34","新北市樹林區柑園街二段9號","121.388135","24.95581","6500700","樹林區"
"238012","303-VK","2017/09/07 18:19:34","新北市樹林區保安街一段276號","121.419601666667","24.9969433333333","6500700","樹林區"
"238017","283-BY","2017/09/07 18:19:28","新北市樹林區中正路691號","121.411745","25.0136716666667","6500700","樹林區"
"238014","282-BY","2017/09/07 18:19:22","新北市樹林區中正路45巷8號","121.42661","24.9992933333333","6500700","樹林區"
"238020","268-VK","2017/09/07 18:19:22","新北市樹林區三俊街63號","121.413571666667","25.01582","6500700","樹林區"
"238026","172-UY","2017/09/07 18:19:23","新北市樹林區佳園路一段75巷22號","121.395455","24.97027","6500700","樹林區"
"238016","169-UY","2017/09/07 18:19:30","新北市樹林區文化街28號","121.419245","24.9877483333333","6500700","樹林區"
"239007","AAC-297","2017/09/07 18:19:27","新北市鶯歌區尖山埔路1-1號","121.349778333333","24.9511033333333","6500800","鶯歌區"
"239006","891-R6","2017/09/07 18:19:32","新北市鶯歌區鶯桃路365巷122號","121.33025","24.9622966666667","6500800","鶯歌區"
"239008","527-UM","2017/09/07 18:19:27","新北市鶯歌區國際一路179號","121.336223333333","24.97649","6500800","鶯歌區"
"239001","417-VK","2017/09/07 18:19:21","新北市鶯歌區中正三路福德巷5-1號","121.339716666667","24.9417","6500800","鶯歌區"
"239003","360-BY","2017/09/07 18:19:14","新北市鶯歌區福安街7巷1-1號","121.334585","24.9644133333333","6500800","鶯歌區"
"239002","359-BY","2017/09/07 18:19:26","新北市鶯歌區中正一路63號","121.352288333333","24.95434","6500800","鶯歌區"
"221036","130-UY","2017/09/07 18:19:20","新北市汐止區長安路18號","121.667628333333","25.0777966666667","6501100","汐止區"
"221015","131-UY","2017/09/07 18:19:31","新北市汐止區鄉長路二段23巷2號","121.667036666667","25.082865","6501100","汐止區"
"221010","269-BY","2017/09/07 18:19:29","新北市汐止區祥雲街12號","121.646188333333","25.0898316666667","6501100","汐止區"
"221012","276-VK","2017/09/07 13:05:56","新北市汐止區汐萬路一段256巷3號","121.653453333333","25.07465","6501100","汐止區"
"221031","277-VK","2017/09/07 18:19:14","新北市汐止區中興路168號","121.63215","25.065165","6501100","汐止區"
"221012","278-VK","2017/09/07 18:19:33","新北市汐止區保長路35巷15弄8號","121.67311","25.0803016666667","6501100","汐止區"
"221023","279-VK","2017/09/07 18:19:17","新北市汐止區康寧街397號","121.62954","25.06805","6501100","汐止區"
"221032","280-BY","2017/09/07 18:19:25","新北市汐止區民權街二段97巷4弄9號","121.618815","25.0471133333333","6501100","汐止區"
"221027","281-BY","2017/09/07 18:19:22","新北市汐止區和平街3-1號","121.663363333333","25.070675","6501100","汐止區"
"221038","297-VK","2017/09/07 18:19:31","新北市汐止區仁愛路202號","121.664821666667","25.065865","6501100","汐止區"
"221029","298-VK","2017/09/07 18:19:30","新北市汐止區康寧街901號","121.651566666667","25.074975","6501100","汐止區"
"221021","299-VK","2017/09/07 18:19:23","新北市汐止區連興街120號","121.653686666667","25.0625216666667","6501100","汐止區"
"221008","358-BY","2017/09/07 18:19:24","新北市汐止區康寧街753巷2弄16號","121.639803333333","25.074225","6501100","汐止區"
"221035","622-UM","2017/09/07 18:19:27","新北市汐止區大同路二段167-1號","121.651343333333","25.0640583333333","6501100","汐止區"
"221025","623-UM","2017/09/07 18:19:22","新北市汐止區勤進路12巷39號","121.659081666667","25.0627883333333","6501100","汐止區"
"221033","647-BX","2017/09/07 18:19:20","新北市汐止區宜興街40巷1號","121.62208","25.0420066666667","6501100","汐止區"
"221002","707-TV","2017/09/07 18:19:17","新北市汐止區福德一路201巷19號","121.636098333333","25.06491","6501100","汐止區"
"221018","753-BX","2017/09/07 18:19:29","新北市汐止區茄苳路118號","121.667991666667","25.0705083333333","6501100","汐止區"
"242001","281-VK","2017/09/07 16:04:03","新北市新莊區環河路636-7號","121.437416666667","25.0112583333333","6500500","新莊區"
"220064","486-VK","2017/09/07 18:19:21","新北市板橋區華東街1-10號","121.448303333333","24.9949033333333","6500100","板橋區"
"242034","280-VK","2017/09/07 18:19:31","新北市新莊區景德路225號","121.448936666667","25.0337283333333","6500500","新莊區"
