"lineid","car","time","location","longitude","latitude","cityid","cityname"
"234046","148-BY","2017/09/07 19:39:26","新北市永和區秀朗路二段233號","121.526466666667","25.0001033333333","6500400","永和區"
"234013","149-BY","2017/09/07 19:39:16","新北市永和區永平路246號","121.508726666667","25.0111233333333","6500400","永和區"
"234007","207-UY","2017/09/07 19:39:19","新北市中和區中和路388號","121.510993333333","25.0023566666667","6500400","永和區"
"234081","298-R6","2017/09/07 19:39:29","新北市永和區林森路20巷7號","121.525836666667","25.0057133333333","6500400","永和區"
"234038","336-UY","2017/09/07 19:39:31","新北市永和區民樂街31巷10弄2號","121.528135","25.00064","6500400","永和區"
"234064","337-UY","2017/09/07 19:39:28","新北市永和區秀朗路一段192巷6弄14號","121.519073333333","25.00227","6500400","永和區"
"234086","338-UY","2017/09/07 19:39:26","新北市永和區林森路41巷31號","121.526253333333","25.0042866666667","6500400","永和區"
"234070","552-UM","2017/09/07 19:39:28","新北市永和區竹林路3號","121.516311666667","25.0149733333333","6500400","永和區"
"234054","553-UM","2017/09/07 19:39:31","新北市永和區竹林路39巷7號","121.518263333333","25.0144633333333","6500400","永和區"
"234017","745-BX","2017/09/07 19:39:29","新北市永和區永和路二段425巷75弄5號","121.51345","25.0170883333333","6500400","永和區"
"234030","746-BX","2017/09/07 19:39:31","新北市永和區民生路67巷21號","121.523986666667","24.9972866666667","6500400","永和區"
"234061","AAD-866","2017/09/07 19:39:20","新北市永和區中正路458號","121.51739","25.0029783333333","6500400","永和區"
"234042","862-TW","2017/09/07 19:39:15","新北市永和區永貞路304號","121.511976666667","25.004735","6500400","永和區"
"234050","863-TW","2017/09/07 19:39:29","新北市永和區保安路53號","121.509441666667","25.015755","6500400","永和區"
"234026","9371-KE","2017/09/07 19:39:28","新北市永和區中和路503號","121.510651666667","25.0023466666667","6500400","永和區"
"249004","303-UY","2017/09/07 19:39:19","新北市八里區博物館路9號","121.415425","25.1640816666667","6502300","八里區"
"249002","305-UY","2017/09/07 19:39:25","新北市八里區頂寮二街33-1號","121.45027","25.1252133333333","6502300","八里區"
"249003","593-UM","2017/09/07 19:39:29","新北市八里區華峰三街33巷2號","121.399401666667","25.14581","6502300","八里區"
"248016","026-BX","2017/09/07 19:39:23","新北市五股區成泰路三段482號","121.451951666667","25.1016533333333","6501500","五股區"
"248008","095-VK","2017/09/07 19:39:25","新北市五股區四維路118巷12號","121.469058333333","25.074225","6501500","五股區"
"248020","225-UY","2017/09/07 19:39:23","新北市五股區中直路10-1號","121.426978333333","25.1114766666667","6501500","五股區"
"248012","247-BX","2017/09/07 19:39:12","新北市五股區民義路一段48號","121.436941666667","25.0847933333333","6501500","五股區"
"248014","261-SL","2017/09/07 19:39:27","新北市五股區民義路一段157-10號","121.432161666667","25.08725","6501500","五股區"
"248010","272-BY","2017/09/07 19:39:29","新北市五股區自強路85號","121.43256","25.0718483333333","6501500","五股區"
"248004","677-BX","2017/09/07 19:39:18","新北市五股區成泰路二段82號","121.437501666667","25.0823016666667","6501500","五股區"
"248002","678-BX","2017/09/07 19:39:17","新北市五股區成泰路三段577巷77號","121.449806666667","25.1037566666667","6501500","五股區"
"234077","969-R7","2017/09/07 19:39:18","新北市永和區民權路1巷16號","121.521141666667","24.9981266666667","6500400","永和區"
"234074","AAC-211","2017/09/07 19:39:27","新北市永和區竹林路225巷42號","121.522143333333","25.00863","6500400","永和區"
"234067","AAC-212","2017/09/07 19:39:21","新北市永和區中山路一段190號","121.508863333333","25.00893","6500400","永和區"
"234003","AAC-295","2017/09/07 19:39:21","新北市永和區福和路346號","121.514968333333","25.0073066666667","6500400","永和區"
"244019","403-UM","2017/09/07 19:39:33","新北市林口區麗園二街1巷3-1號","121.376955","25.070225","6501700","林口區"
"244025","837-TS","2017/09/07 19:39:26","新北市八里區中華路三段159號","121.392058333333","25.1314116666667","6501700","林口區"
"243013","AAD-798","2017/09/07 19:39:07","新北市泰山區應化街7號","121.42386","25.0437416666667","6501600","泰山區"
"243009","297-R6","2017/09/07 19:39:22","新北市泰山區美寧街60號","121.431006666667","25.06471","6501600","泰山區"
"243015","380-SR","2017/09/07 19:39:16","新北市泰山區明志路二段194號","121.427478333333","25.049715","6501600","泰山區"
"243014","421-VK","2017/09/07 19:39:29","新北市泰山區泰林路二段33-8號","121.435176666667","25.0565066666667","6501600","泰山區"
"243010","KEA-2215","2017/09/07 19:39:27","新北市泰山區民生路33號","121.430838333333","25.05214","6501600","泰山區"
"243011","KEA-2216","2017/09/07 19:39:16","新北市泰山區明志路三段204巷20號","121.421758333333","25.038365","6501600","泰山區"
"243012","646-TV","2017/09/07 19:39:22","新北市泰山區仁愛路100巷57號","121.433723333333","25.0546633333333","6501600","泰山區"
"243016","680-BX","2017/09/07 19:39:31","新北市泰山區新北大道七段103號","121.417743333333","25.03198","6501600","泰山區"
"222003","436-BY","2017/09/07 19:31:48","新北市深坑區深南路51-1號","121.621146666667","25.0100283333333","6501800","深坑區"
"222002","659-BX","2017/09/07 19:39:23","新北市深坑區北深路一段249巷2號","121.625006666667","25.0051433333333","6501800","深坑區"
"222001","696-SL","2017/09/07 19:39:18","新北市深坑區北深路二段204號","121.61297","25.0015216666667","6501800","深坑區"
"231041","002-UM","2017/09/07 19:39:21","新北市新店區中正路485號","121.533725","24.9818833333333","6500600","新店區"
"231059","046-UY","2017/09/07 19:39:14","新北市新店區安和路三段46號","121.51799","24.98201","6500600","新店區"
"231061","047-UY","2017/09/07 19:39:28","新北市新店區安民街168巷2-1號","121.516921666667","24.9704733333333","6500600","新店區"
"231060","106-UY","2017/09/07 19:39:18","新北市新店區安康路二段149-2號","121.511046666667","24.9596983333333","6500600","新店區"
"231051","107-UY","2017/09/07 19:39:28","新北市新店區中央四街58號","121.527401666667","24.975145","6500600","新店區"
"231047","108-UY","2017/09/07 19:39:19","新北市新店區中興路一段304號","121.546578333333","24.9696266666667","6500600","新店區"
"231052","187-VK","2017/09/07 19:39:16","新北市新店區新烏路二段426號","121.551965","24.9088833333333","6500600","新店區"
"231007","189-VK","2017/09/07 12:00:53","新北市新店區安華路28-1號","121.519586666667","24.9609916666667","6500600","新店區"
"231063","268-BY","2017/09/07 19:39:30","新北市新店區達觀路41號","121.50283","24.9381933333333","6500600","新店區"
"231046","278-BY","2017/09/07 19:39:18","新北市新店區中正路329巷3弄1號","121.535533333333","24.974785","6500600","新店區"
"231050","AAD-862","2017/09/07 19:39:27","新北市新店區郵政路1號","121.557655","24.9526116666667","6500600","新店區"
"231040","355-BY","2017/09/07 19:39:24","新北市新店區北新路一段96巷23號","121.542895","24.9686833333333","6500600","新店區"
"231058","3712-VJ","2017/09/07 19:39:14","新北市新店區中正路76巷11弄22號","121.543653333333","24.9717566666667","6500600","新店區"
"231067","4772-VM","2017/09/07 19:39:29","新北市新店區精忠路10-1號","121.532663333333","24.9590633333333","6500600","新店區"
"231065","512-UM","2017/09/07 19:39:27","新北市新店區安祥路109巷85弄39號","121.478828333333","24.95972","6500600","新店區"
"231054","513-UM","2017/09/07 19:39:30","新北市新店區北宜路一段45巷2號","121.538613333333","24.9572733333333","6500600","新店區"
"231064","515-UM","2017/09/07 19:39:16","新北市新店區安和路一段52巷2號","121.51764","24.966215","6500600","新店區"
"231042","616-UM","2017/09/07 19:39:16","新北市新店區中興路一段222號","121.543873333333","24.96599","6500600","新店區"
"231045","617-UM","2017/09/07 19:39:31","新北市新店區北宜路二段150-1號","121.557806666667","24.9539816666667","6500600","新店區"
"231049","719-UM","2017/09/07 19:39:27","新北市新店區大豐路43號","121.540223333333","24.9798816666667","6500600","新店區"
"231062","720-UM","2017/09/07 19:39:24","新北市新店區永業路1號","121.534003333333","24.9561716666667","6500600","新店區"
"231044","897-TW","2017/09/07 19:39:22","新北市新店區北新路三段118號","121.541641666667","24.9816183333333","6500600","新店區"
"231043","899-TW","2017/09/07 19:39:23","新北市新店區北新路二段12號","121.542768333333","24.9712233333333","6500600","新店區"
"231066","AKT-0513","2017/09/07 19:39:26","新北市新店區安康路二段341巷4號","121.496915","24.9548616666667","6500600","新店區"
"241011","013-R5","2017/09/07 19:39:24","新北市三重區秀江街202號","121.49746","25.0716066666667","6500200","三重區"
"241028","022-UY","2017/09/07 19:39:34","新北市三重區中正南路196號","121.49391","25.056","6500200","三重區"
"241008","059-VK","2017/09/07 19:39:20","新北市三重區永福街135巷13號","121.478216666667","25.0769766666667","6500200","三重區"
"241009","060-VK","2017/09/07 19:39:29","新北市三重區三和路四段400巷26號","121.480171666667","25.0791666666667","6500200","三重區"
"241031","061-VK","2017/09/07 19:39:26","新北市三重區重新路四段240號","121.486031666667","25.0536316666667","6500200","三重區"
"241015","062-VK","2017/09/07 19:39:24","新北市三重區福德北路30-1號","121.502076666667","25.06509","6500200","三重區"
"241017","063-VK","2017/09/07 19:39:15","新北市三重區重陽路三段5巷30號","121.491266666667","25.0654533333333","6500200","三重區"
"241026","156-TC","2017/09/07 19:39:28","新北市三重區文化南路51號","121.500273333333","25.0612716666667","6500200","三重區"
"241022","265-UM","2017/09/07 19:39:17","新北市三重區中正北路164號","121.484488333333","25.0661516666667","6500200","三重區"
"241018","268-UM","2017/09/07 19:39:23","新北市三重區大智街61號","121.492678333333","25.06797","6500200","三重區"
"241032","269-UM","2017/09/07 19:39:29","新北市三重區重陽路一段60巷74號","121.484313333333","25.0581783333333","6500200","三重區"
"241013","270-UM","2017/09/07 19:39:31","新北市三重區仁愛街141巷23號","121.49701","25.075865","6500200","三重區"
"241025","271-UM","2017/09/07 19:39:19","新北市三重區頂崁街190號","121.477468333333","25.066465","6500200","三重區"
"241007","KEA-2210","2017/09/07 19:39:31","新北市三重區三和路四段125巷78號","121.487348333333","25.078635","6500200","三重區"
"241020","413-TH","2017/09/07 19:39:27","新北市三重區三和路四段20巷95號","121.488371666667","25.0732466666667","6500200","三重區"
"241019","478-VK","2017/09/07 19:39:28","新北市三重區六張街194巷1弄2號","121.488516666667","25.0681683333333","6500200","三重區"
"241030","480-VK","2017/09/07 19:39:28","新北市三重區新興路30號","121.491895","25.053245","6500200","三重區"
"241014","543-UM","2017/09/07 19:39:19","新北市三重區長壽街196號","121.504161666667","25.06903","6500200","三重區"
"241023","545-UM","2017/09/07 19:39:28","新北市三重區忠孝路三段99巷11號","121.47983","25.06428","6500200","三重區"
"241001","547-UM","2017/09/07 19:39:29","新北市三重區仁愛街294號","121.492425","25.079225","6500200","三重區"
"241006","AAD-863","2017/09/07 19:39:29","新北市三重區聯華街109號","121.485226666667","25.07518","6500200","三重區"
"241035","743-BX","2017/09/07 19:39:24","新北市三重區正義北路97號","121.497318333333","25.0653916666667","6500200","三重區"
"241012","941-UM","2017/09/07 19:39:18","新北市三重區仁興街33巷88號","121.501101666667","25.0761983333333","6500200","三重區"
"241029","942-UM","2017/09/07 19:39:18","新北市三重區重安街102號","121.493058333333","25.055985","6500200","三重區"
"235066","003-UY","2017/09/07 19:39:22","新北市中和區景新街164號","121.505766666667","24.99705","6500300","中和區"
"235064","005-UY","2017/09/07 19:39:26","新北市中和區南華路20號","121.502858333333","24.995755","6500300","中和區"
"235063","006-UY","2017/09/07 19:39:24","新北市中和區連城路203巷10弄2號","121.494936666667","24.9973033333333","6500300","中和區"
"235056","096-UM","2017/09/07 19:39:19","新北市中和區員山路581巷31弄22號","121.476638333333","25.0103716666667","6500300","中和區"
"235039","097-UM","2017/09/07 19:39:23","新北市中和區秀峰街103巷7弄1號","121.520246666667","24.98953","6500300","中和區"
"235065","098-UM","2017/09/07 19:39:13","新北市中和區中山路二段2巷13弄37號","121.502591666667","25.00648","6500300","中和區"
"235040","150-BY","2017/09/07 19:39:01","新北市中和區宜安路119巷2號","121.50989","24.9977283333333","6500300","中和區"
"235058","151-BY","2017/09/07 19:39:17","新北市中和區員山路124巷1號","121.4815","24.995955","6500300","中和區"
"235055","183-VK","2017/09/07 19:39:32","新北市中和區民享街5號","121.473931666667","25.0056316666667","6500300","中和區"
"235038","185-VK","2017/09/07 19:39:12","新北市中和區立人街3號","121.521826666667","24.993995","6500300","中和區"
"235049","186-VK","2017/09/07 19:39:17","新北市中和區安平路14號","121.509213333333","24.9941133333333","6500300","中和區"
"235067","255-BX","2017/09/07 19:39:24","新北市中和區新生街220巷15弄11-2號","121.482958333333","24.9979166666667","6500300","中和區"
"235044","293-VK","2017/09/07 19:39:34","新北市中和區捷運路121號","121.50767","24.9904116666667","6500300","中和區"
"235072","301-VK","2017/09/07 19:39:24","新北市中和區中正路432巷34號","121.490961666667","24.9958383333333","6500300","中和區"
"235043","352-BY","2017/09/07 19:39:27","新北市中和區安樂路41號","121.511833333333","24.9933116666667","6500300","中和區"
"235051","376-QA","2017/09/07 19:39:19","新北市中和區板南路132號","121.50239","24.9926083333333","6500300","中和區"
"235068","377-QA","2017/09/07 19:39:13","新北市中和區景平路509號","121.499551666667","24.9988283333333","6500300","中和區"
"235061","378-QA","2017/09/07 19:39:14","新北市中和區民利街31巷2弄12號","121.479581666667","24.9986283333333","6500300","中和區"
"235050","4979-A6","2017/09/07 19:39:14","新北市中和區錦和路350-1號","121.490543333333","24.9936033333333","6500300","中和區"
"235069","4980-A6","2017/09/07 19:39:29","新北市中和區景平路736巷3弄11號","121.497568333333","25.0038716666667","6500300","中和區"
"235042","551-UM","2017/09/07 19:39:28","新北市中和區中和路262巷43弄6號","121.509651666667","24.9995933333333","6500300","中和區"
"235070","558-UM","2017/09/07 19:39:31","新北市中和區中和路119號","121.501581666667","25.0001433333333","6500300","中和區"
"235045","565-BX","2017/09/07 19:39:18","新北市中和區景德街130號","121.514391666667","24.991035","6500300","中和區"
"235054","640-BX","2017/09/07 19:39:25","新北市中和區國光街112巷20弄1號","121.470598333333","25.001995","6500300","中和區"
"235047","732-UM","2017/09/07 19:39:19","新北市中和區景安路172巷2號","121.504373333333","24.9928633333333","6500300","中和區"
"235057","801-TS","2017/09/07 19:39:27","新北市中和區中山路三段37巷37號","121.47968","25.004875","6500300","中和區"
"235041","802-TS","2017/09/07 19:39:18","新北市中和區中和路350巷3弄2號","121.510341666667","25.0011516666667","6500300","中和區"
"235052","805-TS","2017/09/07 19:39:33","新北市中和區華新街206巷21弄4號","121.50588","24.9827133333333","6500300","中和區"
"235048","896-TW","2017/09/07 19:39:18","新北市中和區忠孝街1巷2-1號","121.509141666667","24.9830816666667","6500300","中和區"
"235053","900-TW","2017/09/07 19:39:18","新北市中和區民德路198號","121.468148333333","24.99881","6500300","中和區"
"235064","911-UM","2017/09/07 19:39:14","新北市中和區員山路314巷7弄2號","121.482173333333","25.0029866666667","6500300","中和區"
"235037","157-BY","2017/09/07 19:39:31","新北市中和區忠孝街55巷1號","121.511563333333","24.9844866666667","6500300","中和區"
"235037","AAC-213","2017/09/07 19:39:23","新北市中和區秀朗路三段10巷29弄5號","121.525058333333","24.9959733333333","6500300","中和區"
"235059","AAC-215","2017/09/07 19:39:31","新北市中和區錦和路356號","121.490645","24.9914916666667","6500300","中和區"
"220068","013-TV","2017/09/07 19:39:20","新北市板橋區中山路二段505巷19弄1號","121.48212","25.0218116666667","6500100","板橋區"
"220065","072-UY","2017/09/07 19:39:29","新北市板橋區國泰街38巷3弄18號","121.468128333333","25.0066566666667","6500100","板橋區"
"220086","073-UY","2017/09/07 19:39:29","新北市板橋區國光路23號","121.456935","25.017475","6500100","板橋區"
"220106","075-UY","2017/09/07 19:39:18","新北市板橋區雙十路三段10巷1弄31號","121.471175","25.0316766666667","6500100","板橋區"
"220069","AAD-861","2017/09/07 19:39:20","新北市板橋區稚暉街18號","121.456","25.0044566666667","6500100","板橋區"
"220102","120-SR","2017/09/07 19:39:23","新北市板橋區文化路二段410巷40號","121.47452","25.0304233333333","6500100","板橋區"
"247004","336-TH","2017/09/07 19:39:24","新北市蘆洲區長安街108巷37號","121.462213333333","25.08258","6501400","蘆洲區"
"247006","056-VK","2017/09/07 19:39:16","新北市蘆洲區永安南路二段254號","121.459731666667","25.0802866666667","6501400","蘆洲區"
"247008","053-VK","2017/09/07 19:39:14","新北市蘆洲區中山一路97巷2號","121.476986666667","25.08144","6501400","蘆洲區"
"247014","007-UY","2017/09/07 19:39:34","新北市蘆洲區中正路116號","121.469418333333","25.0847","6501400","蘆洲區"
"226004","312-R5","2017/09/07 19:39:17","新北市平溪區十分里十分街310號","121.775326666667","25.04368","6502400","平溪區"
"228003","097-TW","2017/09/07 19:39:16","新北市貢寮區真理里美艷山街19-1號","121.923598333333","25.068195","6502600","貢寮區"
"228001","212-TW","2017/09/07 19:39:15","新北市貢寮區真理里延平街49號","121.924583333333","25.0556216666667","6502600","貢寮區"
"224010","AGQ-8101","2017/09/07 19:39:29","新北市瑞芳區石碑巷2號","121.841271666667","25.1075283333333","6501200","瑞芳區"
"224002","639-TC","2017/09/07 19:39:26","新北市瑞芳區民享新村13號","121.816591666667","25.1057366666667","6501200","瑞芳區"
"227010","642-TC","2017/09/07 19:39:25","新北市雙溪區新基里新基北街22號","121.867233333333","25.03896","6502500","雙溪區"
"227004","400-TW","2017/09/07 19:39:24","新北市雙溪區雙溪里內挖路47號","121.86327","25.0367483333333","6502500","雙溪區"
"208002","742-BX","2017/09/07 19:39:28","新北市金山區四維路11號","121.635378333333","25.2226166666667","6502700","金山區"
"208003","665-BX","2017/09/07 19:39:31","新北市金山區仁愛路20-10號","121.636561666667","25.2194566666667","6502700","金山區"
"208001","761-BX","2017/09/07 19:39:32","新北市金山區重和里六股林口3號","121.609715","25.2222016666667","6502700","金山區"
"251009","008-UM","2017/09/07 19:39:15","新北市淡水區中山北路一段198巷7號","121.44515","25.1793466666667","6501000","淡水區"
"251007","179-VK","2017/09/07 19:39:31","新北市淡水區中正東路一段3巷21號","121.451873333333","25.1661416666667","6501000","淡水區"
"251008","181-VK","2017/09/07 19:39:33","新北市淡水區中正路一段8巷1弄11號","121.428236666667","25.1757866666667","6501000","淡水區"
"251014","182-VK","2017/09/07 19:39:30","新北市淡水區北勢子26號","121.475336666667","25.2329816666667","6501000","淡水區"
"251010","413-VK","2017/09/07 19:39:31","新北市淡水區崁頂三路113號","121.432293333333","25.20044","6501000","淡水區"
"251016","442-VK","2017/09/07 19:39:16","新北市淡水區下圭柔山119-51號","121.450808333333","25.2083933333333","6501000","淡水區"
"251005","443-VK","2017/09/07 19:39:15","新北市淡水區水源街一段47巷57號","121.444161666667","25.17462","6501000","淡水區"
"251001","559-UM","2017/09/07 19:39:20","新北市淡水區民權路77號","121.45979","25.138555","6501000","淡水區"
"251006","561-UM","2017/09/07 19:39:17","新北市淡水區中山北路一段207巷66號","121.441823333333","25.1794","6501000","淡水區"
"251011","650-BX","2017/09/07 19:39:24","新北市淡水區八勢路20號","121.460631666667","25.15342","6501000","淡水區"
"207003","550-UM","2017/09/07 19:39:15","新北市萬里區大鵬里下社49號","121.648718333333","25.2160883333333","6502800","萬里區"
"207004","225-TW","2017/09/07 19:39:34","新北市萬里區萬里里瑪鋉路5-3號","121.686968333333","25.1753","6502800","萬里區"
"252002","178-VK","2017/09/07 19:39:17","新北市三芝區中正路一段18巷34-1號","121.503816666667","25.2591816666667","6502100","三芝區"
"252001","292-VK","2017/09/07 19:39:19","新北市三芝區公正街9號","121.499726666667","25.2574983333333","6502100","三芝區"
"237004","078-UY","2017/09/07 19:39:25","新北市三峽區金敏189號","121.393585","24.8736816666667","6500900","三峽區"
"237007","153-BY","2017/09/07 19:39:15","新北市三峽區二鬮路75號","121.359636666667","24.907075","6500900","三峽區"
"237009","210-TH","2017/09/07 19:39:25","新北市三峽區中園街63號","121.368155","24.9257983333333","6500900","三峽區"
"237013","252-BX","2017/09/07 19:39:30","新北市三峽區介壽路一段390號","121.383228333333","24.9307466666667","6500900","三峽區"
"237012","275-BY","2017/09/07 19:39:34","新北市三峽區民生街3號","121.37458","24.9354283333333","6500900","三峽區"
"237008","302-VK","2017/09/07 19:39:18","新北市三峽區永安街183號","121.373153333333","24.926835","6500900","三峽區"
"237014","433-BY","2017/09/07 19:39:16","新北市三峽區嘉添63號","121.36866","24.910485","6500900","三峽區"
"237006","5529-G3","2017/09/07 19:39:20","新北市三峽區中正路一段336巷15弄2號","121.369963333333","24.92496","6500900","三峽區"
"237016","649-BX","2017/09/07 19:39:26","新北市三峽區成福路219號","121.42664","24.9269683333333","6500900","三峽區"
"237010","706-TV","2017/09/07 19:39:23","新北市三峽區復興路29號","121.373798333333","24.9365266666667","6500900","三峽區"
"237005","AKY-6261","2017/09/07 19:39:30","新北市三峽區中山路219巷17弄8號","121.363513333333","24.9361216666667","6500900","三峽區"
"236071","105-UM","2017/09/07 19:39:23","新北市土城區學士路2號","121.453993333333","24.983385","6501300","土城區"
"236078","166-UM","2017/09/07 19:39:20","新北市土城區中州路27巷81號","121.412636666667","24.956365","6501300","土城區"
"236030","253-BX","2017/09/07 19:39:16","新北市土城區福祥街30號","121.441128333333","24.9805266666667","6501300","土城區"
"236026","269-VK","2017/09/07 19:39:24","新北市土城區中央路二段61巷22號","121.443195","24.9787383333333","6501300","土城區"
"236037","271-VK","2017/09/07 19:39:16","新北市土城區清水路98巷3弄45號","121.458535","24.9808466666667","6501300","土城區"
"236021","401-BY","2017/09/07 19:39:25","新北市土城區峰廷街3號","121.469093333333","24.9874033333333","6501300","土城區"
"236051","913-UM","2017/09/07 19:39:28","新北市土城區永豐路10號","121.465573333333","24.9846483333333","6501300","土城區"
"236062","915-UM","2017/09/07 19:39:26","新北市土城區延平街24號","121.468206666667","24.991395","6501300","土城區"
"236053","AAC-216","2017/09/07 19:39:19","新北市土城區學府路一段212號","121.452348333333","24.9852866666667","6501300","土城區"
"242031","AAC-296","2017/09/07 19:39:30","新北市新莊區新泰路213巷54號","121.445008333333","25.038445","6500500","新莊區"
"242051","751-BX","2017/09/07 19:39:27","新北市新莊區民安路302號","121.42821","25.0218933333333","6500500","新莊區"
"242027","612-BX","2017/09/07 19:39:20","新北市新莊區新泰路357巷3弄57號","121.442228333333","25.0392283333333","6500500","新莊區"
"242004","413-TV","2017/09/07 19:39:21","新北市新莊區化成路25-19號","121.46353","25.0435083333333","6500500","新莊區"
"242036","133-UY","2017/09/07 19:39:32","新北市新莊區民安路207巷19號","121.426845","25.0231666666667","6500500","新莊區"
"242013","346-TH","2017/09/07 19:39:14","新北市新莊區中誠街147巷7號","121.448863333333","25.047045","6500500","新莊區"
"242019","348-TH","2017/09/07 19:39:14","新北市新莊區新泰路277巷25號","121.444811666667","25.0402366666667","6500500","新莊區"
"242017","350-TH","2017/09/07 19:39:16","新北市新莊區公園路66號","121.44967","25.0395216666667","6500500","新莊區"
"242011","351-TH","2017/09/07 19:39:30","新北市新莊區新泰路255巷83號","121.442336666667","25.0392183333333","6500500","新莊區"
"238015","755-BX","2017/09/07 19:39:01","新北市樹林區中興街5號","121.420733333333","24.9897883333333","6500700","樹林區"
"238023","601-UM","2017/09/07 19:39:29","新北市樹林區三福街28號","121.40837","25.0166066666667","6500700","樹林區"
"238019","599-UM","2017/09/07 19:39:29","新北市樹林區八德街37-1號","121.418786666667","24.9831983333333","6500700","樹林區"
"238018","571-TV","2017/09/07 19:39:21","新北市樹林區八德街495-3號","121.40167","24.9693066666667","6500700","樹林區"
"238024","5061-A6","2017/09/07 19:39:30","新北市樹林區山佳街15號","121.394113333333","24.9728466666667","6500700","樹林區"
"238022","KEA-2217","2017/09/07 19:39:32","新北市樹林區國凱街32-7號","121.419288333333","24.978235","6500700","樹林區"
"238021","KEA-2213","2017/09/07 19:39:34","新北市樹林區學府路212號","121.377676666667","24.9501516666667","6500700","樹林區"
"238012","303-VK","2017/09/07 19:39:33","新北市樹林區中山路一段238號","121.421176666667","24.98768","6500700","樹林區"
"238017","283-BY","2017/09/07 19:39:22","新北市樹林區保安街二段167巷26號","121.414221666667","25.0027733333333","6500700","樹林區"
"238014","282-BY","2017/09/07 19:39:22","新北市樹林區千歲街4號","121.424968333333","24.9956516666667","6500700","樹林區"
"238020","268-VK","2017/09/07 19:39:22","新北市樹林區俊英街111巷1-3號","121.42437","25.0095816666667","6500700","樹林區"
"238026","172-UY","2017/09/07 19:39:23","新北市樹林區佳園路二段111-10號","121.390425","24.958665","6500700","樹林區"
"238016","169-UY","2017/09/07 19:39:30","新北市樹林區東和街22號","121.403688333333","24.98096","6500700","樹林區"
"239007","AAC-297","2017/09/07 19:39:27","新北市鶯歌區大湖路326巷28號","121.346188333333","24.9697233333333","6500800","鶯歌區"
"239006","891-R6","2017/09/07 19:39:32","新北市鶯歌區永昌街75號","121.34099","24.9498333333333","6500800","鶯歌區"
"239001","417-VK","2017/09/07 19:39:21","新北市鶯歌區尖山埔路263號","121.344108333333","24.9499283333333","6500800","鶯歌區"
"239004","193-VK","2017/09/07 19:39:19","新北市鶯歌區中正三路136號","121.336313333333","24.94004","6500800","鶯歌區"
"221036","130-UY","2017/09/07 19:39:19","新北市汐止區汐萬路一段256巷1號","121.651796666667","25.07482","6501100","汐止區"
"221015","131-UY","2017/09/07 19:39:31","新北市汐止區康寧街901號","121.651728333333","25.0749166666667","6501100","汐止區"
"221010","269-BY","2017/09/07 19:39:29","新北市汐止區汐萬路一段333巷15號","121.649121666667","25.075935","6501100","汐止區"
"221012","276-VK","2017/09/07 13:05:56","新北市汐止區汐萬路一段256巷3號","121.653453333333","25.07465","6501100","汐止區"
"221031","277-VK","2017/09/07 19:39:14","新北市汐止區福德一路86巷30號","121.637573333333","25.069345","6501100","汐止區"
"221012","278-VK","2017/09/07 19:39:33","新北市汐止區汐平路一段1號","121.6807","25.07121","6501100","汐止區"
"221023","279-VK","2017/09/07 19:39:20","新北市汐止區中興路250號","121.629128333333","25.0685483333333","6501100","汐止區"
"221032","280-BY","2017/09/07 19:39:17","新北市汐止區南興路6巷1號","121.651558333333","25.0633916666667","6501100","汐止區"
"221027","281-BY","2017/09/07 19:39:26","新北市汐止區忠孝東路9號","121.658308333333","25.0659683333333","6501100","汐止區"
"221038","297-VK","2017/09/07 19:39:31","新北市汐止區忠孝東路223號","121.662166666667","25.066765","6501100","汐止區"
"221029","298-VK","2017/09/07 19:39:30","新北市汐止區康寧街901號","121.65149","25.0749833333333","6501100","汐止區"
"221021","299-VK","2017/09/07 19:39:23","新北市汐止區南興路6巷1號","121.651635","25.063315","6501100","汐止區"
"221008","358-BY","2017/09/07 19:39:24","新北市汐止區康寧街143號","121.621461666667","25.06671","6501100","汐止區"
"221025","623-UM","2017/09/07 19:39:22","新北市汐止區福安街20巷2號","121.662533333333","25.065045","6501100","汐止區"
"221033","647-BX","2017/09/07 19:39:20","台北市南港區舊莊街二段10巷1號","121.626236666667","25.03755","6501100","汐止區"
"221002","707-TV","2017/09/07 19:39:17","新北市汐止區大同路一段219巷27號","121.6333","25.05831","6501100","汐止區"
"221018","753-BX","2017/09/07 19:39:24","新北市汐止區康寧街901號","121.650835","25.0752016666667","6501100","汐止區"
"220079","145-BY","2017/09/07 19:39:31","新北市板橋區建國街52號","121.45882","25.0169333333333","6500100","板橋區"
"220080","200-UY","2017/09/07 19:39:14","新北市板橋區大觀路二段37巷154號","121.449263333333","25.0011133333333","6500100","板橋區"
"220082","610-BX","2017/09/07 19:39:29","新北市板橋區大觀路三段131號","121.43246","24.9940933333333","6500100","板橋區"
"220075","256-TC","2017/09/07 19:39:28","新北市板橋區大勇街14號","121.454583333333","25.0172816666667","6500100","板橋區"
"220097","257-TC","2017/09/07 19:39:14","新北市板橋區幸福路32巷5號","121.461441666667","25.0207183333333","6500100","板橋區"
"220091","267-BY","2017/09/07 19:39:22","新北市板橋區懷德街139巷20弄2號","121.480006666667","25.030775","6500100","板橋區"
"220056","276-BY","2017/09/07 19:39:20","新北市板橋區四川路二段47巷4弄1號","121.454185","24.994615","6500100","板橋區"
"220072","277-BY","2017/09/07 19:39:33","新北市板橋區金門街253巷17弄5號","121.433266666667","24.98891","6500100","板橋區"
"220101","280-UM","2017/09/07 19:39:32","新北市板橋區縣民大道三段33巷1弄5號","121.473626666667","25.020615","6500100","板橋區"
"220094","283-UM","2017/09/07 19:39:20","新北市板橋區銘傳街41-6號","121.469341666667","25.0315066666667","6500100","板橋區"
"220071","283-VK","2017/09/07 19:39:28","新北市板橋區四川路一段325巷16號","121.459018333333","25.000335","6500100","板橋區"
"220053","285-VK","2017/09/07 19:39:14","新北市板橋區中山路二段253號","121.477363333333","25.0175766666667","6500100","板橋區"
"220083","286-VK","2017/09/07 19:39:27","新北市板橋區龍興街71巷5號","121.44352","25.0018583333333","6500100","板橋區"
"220081","287-VK","2017/09/07 19:31:53","新北市板橋區南雅西路一段7巷7號","121.454356666667","25.0039866666667","6500100","板橋區"
"220090","288-VK","2017/09/07 19:39:21","新北市板橋區長江路一段48巷4弄1號","121.459141666667","25.0284933333333","6500100","板橋區"
"220061","295-UM","2017/09/07 19:39:20","新北市板橋區中山路二段96號","121.475425","25.01648","6500100","板橋區"
"220067","299-UM","2017/09/07 19:39:15","新北市板橋區漢生東路193巷57號","121.471801666667","25.0116783333333","6500100","板橋區"
"242001","281-VK","2017/09/07 16:04:03","新北市新莊區環河路636-7號","121.437416666667","25.0112583333333","6500500","新莊區"
"220062","305-R5","2017/09/07 19:39:19","新北市板橋區三民路二段109巷26號","121.48057","25.0159116666667","6500100","板橋區"
"220092","307-R5","2017/09/07 19:39:27","新北市板橋區文化路一段360號","121.468588333333","25.0237316666667","6500100","板橋區"
"220098","317-R6","2017/09/07 19:39:30","新北市板橋區四維路269巷27號","121.46215","25.027845","6500100","板橋區"
"220064","486-VK","2017/09/07 19:39:21","新北市板橋區民權路45號","121.461968333333","25.0112666666667","6500100","板橋區"
"220089","487-VK","2017/09/07 19:39:16","新北市板橋區漢生西路89巷5弄1號","121.460975","25.0194516666667","6500100","板橋區"
"220088","491-VK","2017/09/07 19:39:27","新北市板橋區文化路二段568號","121.476566666667","25.0346416666667","6500100","板橋區"
"220035","560-BX","2017/09/07 19:39:21","新北市板橋區中正路360巷61號","121.456715","25.0227883333333","6500100","板橋區"
"220103","561-BX","2017/09/07 19:39:29","新北市板橋區文化路一段339號","121.466531666667","25.0207666666667","6500100","板橋區"
"220084","568-UM","2017/09/07 19:39:33","新北市板橋區滿平街84巷110弄26號","121.425856666667","24.98578","6500100","板橋區"
"220063","609-BX","2017/09/07 19:39:29","新北市板橋區中山路二段507號","121.482798333333","25.0211033333333","6500100","板橋區"
"220057","686-BX","2017/09/07 19:39:28","新北市板橋區國慶路158巷1-4號","121.46209","24.99591","6500100","板橋區"
"220077","687-BX","2017/09/07 19:39:18","新北市板橋區僑中三街4號","121.446776666667","25.0046066666667","6500100","板橋區"
"220093","689-BX","2017/09/07 19:39:23","新北市板橋區長江路一段93-3號","121.459176666667","25.0294533333333","6500100","板橋區"
"220054","741-BX","2017/09/07 19:39:27","新北市板橋區四川路一段253號","121.459693333333","25.0025133333333","6500100","板橋區"
"220055","827-TW","2017/09/07 19:39:17","新北市板橋區重慶路290巷4號","121.463045","24.9989866666667","6500100","板橋區"
"220096","831-TW","2017/09/07 19:39:17","新北市板橋區民生路二段226巷8弄1號","121.470335","25.021675","6500100","板橋區"
"220074","895-R6","2017/09/07 19:39:22","新北市板橋區北門街25-1號","121.456523333333","25.0113066666667","6500100","板橋區"
"220073","985-R7","2017/09/07 19:39:27","新北市板橋區國光路67巷14號","121.458946666667","25.0187033333333","6500100","板橋區"
"220070","AAC-253","2017/09/07 19:39:33","新北市板橋區民族路240號","121.46899","25.0072466666667","6500100","板橋區"
