"lineid","car","time","location","longitude","latitude","cityid","cityname"
"234046","148-BY","2017/09/07 19:49:22","新北市永和區永元路94號","121.522435","25.0017083333333","6500400","永和區"
"234013","149-BY","2017/09/07 19:49:16","新北市永和區永平路286-1號","121.507616666667","25.0119983333333","6500400","永和區"
"234007","207-UY","2017/09/07 19:49:19","新北市中和區南工路2巷2號","121.505395","24.9999833333333","6500400","永和區"
"234081","298-R6","2017/09/07 19:49:29","新北市永和區永亨路98號","121.523078333333","25.0047866666667","6500400","永和區"
"234038","336-UY","2017/09/07 19:49:31","新北市永和區成功路二段76號","121.526641666667","24.9991233333333","6500400","永和區"
"234064","337-UY","2017/09/07 19:49:28","新北市永和區中正路368巷18號","121.518383333333","25.000705","6500400","永和區"
"234086","338-UY","2017/09/07 19:49:26","新北市永和區永亨路56號","121.520433333333","25.0061616666667","6500400","永和區"
"234070","552-UM","2017/09/07 19:49:28","新北市永和區國光路6號","121.51984","25.0084483333333","6500400","永和區"
"234054","553-UM","2017/09/07 19:49:31","新北市永和區竹林路75巷9號","121.519236666667","25.0135316666667","6500400","永和區"
"234017","745-BX","2017/09/07 19:49:28","新北市永和區永和路二段278號","121.516","25.0152633333333","6500400","永和區"
"234030","746-BX","2017/09/07 19:49:31","新北市永和區民生路24號","121.522595","24.9972866666667","6500400","永和區"
"234061","AAD-866","2017/09/07 19:49:29","新北市永和區中正路102號","121.514305","24.99582","6500400","永和區"
"234042","862-TW","2017/09/07 19:49:15","新北市永和區中和路389巷44弄2號","121.508008333333","25.00227","6500400","永和區"
"234050","863-TW","2017/09/07 19:49:31","新北市永和區保安路144號","121.508593333333","25.0149566666667","6500400","永和區"
"234026","9371-KE","2017/09/07 19:49:28","新北市永和區水源街62號","121.509171666667","25.004065","6500400","永和區"
"234011","9373-KE","2017/09/07 19:49:30","新北市永和區保生路55號","121.504521666667","25.010865","6500400","永和區"
"249001","173-UM","2017/09/07 19:49:32","新北市八里區中華路二段252號","121.405355","25.1497333333333","6502300","八里區"
"249004","303-UY","2017/09/07 19:49:19","新北市八里區仁愛路37號","121.413466666667","25.1606233333333","6502300","八里區"
"249002","305-UY","2017/09/07 19:49:24","新北市八里區頂寮五街17號","121.451415","25.12609","6502300","八里區"
"249003","593-UM","2017/09/07 19:49:29","新北市八里區中華路二段560巷17號","121.398393333333","25.1451583333333","6502300","八里區"
"248016","026-BX","2017/09/07 19:49:20","新北市五股區成泰路四段18-2號","121.45365","25.1066366666667","6501500","五股區"
"248008","095-VK","2017/09/07 19:49:22","新北市五股區四維路171巷3號","121.467611666667","25.0750866666667","6501500","五股區"
"248020","225-UY","2017/09/07 19:49:23","新北市五股區中直路65-3號","121.418101666667","25.1182216666667","6501500","五股區"
"248012","247-BX","2017/09/07 19:49:33","新北市五股區蓬萊路6巷4號","121.435683333333","25.0796666666667","6501500","五股區"
"248014","261-SL","2017/09/07 19:49:27","新北市五股區五福路52巷11弄2號","121.43393","25.0899283333333","6501500","五股區"
"248010","272-BY","2017/09/07 19:49:29","新北市五股區登林路51-22號","121.430336666667","25.06936","6501500","五股區"
"248004","677-BX","2017/09/07 19:49:28","新北市五股區成泰路一段151號","121.435283333333","25.0737966666667","6501500","五股區"
"248002","678-BX","2017/09/07 19:49:17","新北市五股區成泰路三段621號","121.452833333333","25.1038066666667","6501500","五股區"
"234077","969-R7","2017/09/07 19:49:18","新北市永和區智光街55號","121.517266666667","24.99784","6500400","永和區"
"234074","AAC-211","2017/09/07 19:49:27","新北市永和區竹林路213巷26號","121.522191666667","25.0089483333333","6500400","永和區"
"234067","AAC-212","2017/09/07 19:49:21","新北市永和區中山路一段144號","121.509936666667","25.0096333333333","6500400","永和區"
"234003","AAC-295","2017/09/07 19:49:30","新北市永和區福和路315號","121.516018333333","25.0071683333333","6500400","永和區"
"244025","837-TS","2017/09/07 19:49:26","新北市林口區粉寮路二段14號","121.401968333333","25.0855816666667","6501700","林口區"
"243013","AAD-798","2017/09/07 19:49:27","新北市泰山區應化街7號","121.423856666667","25.0437633333333","6501600","泰山區"
"243009","297-R6","2017/09/07 19:49:22","新北市泰山區美寧街60號","121.430971666667","25.0646833333333","6501600","泰山區"
"243015","380-SR","2017/09/07 19:49:16","新北市泰山區文程路7號","121.427913333333","25.0496283333333","6501600","泰山區"
"243014","421-VK","2017/09/07 19:49:29","新北市泰山區泰林路二段33-8號","121.435145","25.0565516666667","6501600","泰山區"
"243010","KEA-2215","2017/09/07 19:49:27","新北市泰山區民生路33號","121.430636666667","25.0522933333333","6501600","泰山區"
"243011","KEA-2216","2017/09/07 19:49:16","新北市泰山區明志路三段182巷13號","121.42355","25.0391516666667","6501600","泰山區"
"243012","646-TV","2017/09/07 19:49:22","新北市泰山區全興路13號","121.432295","25.0590283333333","6501600","泰山區"
"243016","680-BX","2017/09/07 19:49:31","新北市泰山區貴陽街40號","121.423346666667","25.0324383333333","6501600","泰山區"
"222003","436-BY","2017/09/07 19:31:48","新北市深坑區深南路51-1號","121.621146666667","25.0100283333333","6501800","深坑區"
"222002","659-BX","2017/09/07 19:49:23","新北市深坑區北深路二段2巷1號","121.62136","25.0046166666667","6501800","深坑區"
"222001","696-SL","2017/09/07 19:49:18","新北市深坑區北深路三段62號","121.607996666667","25.0013533333333","6501800","深坑區"
"231041","002-UM","2017/09/07 19:49:28","新北市新店區中央路222號","121.529695","24.9729516666667","6500600","新店區"
"231059","046-UY","2017/09/07 19:49:28","新北市新店區安和路二段13號","121.517946666667","24.9673783333333","6500600","新店區"
"231061","047-UY","2017/09/07 19:49:28","新北市新店區安民街304號","121.517641666667","24.9738016666667","6500600","新店區"
"231060","106-UY","2017/09/07 19:49:17","新北市新店區安康路二段161號","121.510203333333","24.95939","6500600","新店區"
"231051","107-UY","2017/09/07 19:49:28","新北市新店區中央三街70號","121.526516666667","24.97509","6500600","新店區"
"231047","108-UY","2017/09/07 19:49:19","新北市新店區寶興路55號","121.549658333333","24.972675","6500600","新店區"
"231052","187-VK","2017/09/07 19:49:16","新北市新店區新烏路三段108號","121.553015","24.90354","6500600","新店區"
"231007","189-VK","2017/09/07 12:00:53","新北市新店區安華路28-1號","121.519586666667","24.9609916666667","6500600","新店區"
"231063","268-BY","2017/09/07 19:49:29","新北市新店區車子路11號","121.503068333333","24.952055","6500600","新店區"
"231046","278-BY","2017/09/07 19:49:18","新北市新店區福園街10巷3號","121.532625","24.9727566666667","6500600","新店區"
"231050","AAD-862","2017/09/07 19:49:27","新北市新店區北宜路二段483號","121.562263333333","24.95386","6500600","新店區"
"231040","355-BY","2017/09/07 19:49:24","新北市新店區中正路75巷71號","121.543076666667","24.96884","6500600","新店區"
"231055","3713-VJ","2017/09/07 19:49:28","新北市新店區新生街3巷1號","121.540281666667","24.9655983333333","6500600","新店區"
"231067","4772-VM","2017/09/07 19:49:28","新北市新店區精忠路10-1號","121.532656666667","24.9590633333333","6500600","新店區"
"231065","512-UM","2017/09/07 19:49:27","新北市新店區安祥路109巷151弄5號","121.478263333333","24.9586433333333","6500600","新店區"
"231054","513-UM","2017/09/07 19:49:30","新北市新店區光明街138巷13弄10號","121.539698333333","24.9614583333333","6500600","新店區"
"231064","515-UM","2017/09/07 19:49:16","新北市新店區安和路一段52巷2-1號","121.51774","24.966605","6500600","新店區"
"231042","616-UM","2017/09/07 19:49:16","新北市新店區中興路一段271號","121.544998333333","24.9681016666667","6500600","新店區"
"231045","617-UM","2017/09/07 19:49:11","新北市新店區北宜路二段382號","121.564496666667","24.9529216666667","6500600","新店區"
"231068","718-UY","2017/09/07 19:49:24","新北市新店區安華路28-1號","121.519438333333","24.961305","6500600","新店區"
"231049","719-UM","2017/09/07 19:49:27","新北市新店區民權路127巷1-1號","121.535345","24.9821583333333","6500600","新店區"
"231062","720-UM","2017/09/07 19:49:24","新北市新店區永業路97號","121.528801666667","24.9488866666667","6500600","新店區"
"231044","897-TW","2017/09/07 19:49:22","新北市新店區復興路44-1號","121.538641666667","24.9866883333333","6500600","新店區"
"231043","899-TW","2017/09/07 19:49:23","新北市新店區中正路239號","121.539286666667","24.973195","6500600","新店區"
"231066","AKT-0513","2017/09/07 19:49:26","新北市新店區薏仁坑路2-4號","121.501758333333","24.958575","6500600","新店區"
"241011","013-R5","2017/09/07 19:49:24","新北市三重區三和路二段173巷45號","121.499275","25.070215","6500200","三重區"
"241028","022-UY","2017/09/07 19:49:33","新北市三重區中正南路157號","121.493823333333","25.0560616666667","6500200","三重區"
"241008","059-VK","2017/09/07 19:49:20","新北市三重區永福街113號","121.479241666667","25.0773433333333","6500200","三重區"
"241009","060-VK","2017/09/07 19:49:29","新北市三重區三和路四段396巷41號","121.479826666667","25.0787933333333","6500200","三重區"
"241031","061-VK","2017/09/07 19:49:26","新北市三重區重新路四段242-2號","121.486053333333","25.0535766666667","6500200","三重區"
"241015","062-VK","2017/09/07 19:49:24","新北市三重區重新路一段1號","121.503801666667","25.0642516666667","6500200","三重區"
"241017","063-VK","2017/09/07 19:49:15","新北市三重區重陽路三段5巷8弄29號","121.489623333333","25.0665916666667","6500200","三重區"
"241003","091-VK","2017/09/07 19:49:22","新北市三重區五華街93巷75號","121.493588333333","25.0847","6500200","三重區"
"241026","156-TC","2017/09/07 19:49:28","新北市三重區文化南路65巷21號","121.499388333333","25.0607766666667","6500200","三重區"
"241005","262-UM","2017/09/07 19:49:28","新北市三重區溪尾街308號","121.487596666667","25.0840883333333","6500200","三重區"
"241022","265-UM","2017/09/07 19:49:17","新北市三重區過圳街31巷2號","121.489106666667","25.0607183333333","6500200","三重區"
"241016","266-UM","2017/09/07 19:49:30","新北市三重區正德街41巷3號","121.496063333333","25.062745","6500200","三重區"
"241018","268-UM","2017/09/07 19:49:28","新北市三重區自強路一段167號","121.493021666667","25.0672883333333","6500200","三重區"
"241032","269-UM","2017/09/07 19:49:29","新北市三重區重陽路一段44巷10號","121.485968333333","25.057695","6500200","三重區"
"241013","270-UM","2017/09/07 19:49:31","新北市三重區仁福街64巷21號","121.497718333333","25.0753616666667","6500200","三重區"
"241025","271-UM","2017/09/07 19:49:19","新北市三重區頂崁街210巷16號","121.476413333333","25.0678183333333","6500200","三重區"
"241007","KEA-2210","2017/09/07 19:49:31","新北市三重區三和路四段135巷8號","121.484958333333","25.0781466666667","6500200","三重區"
"241020","413-TH","2017/09/07 19:49:27","新北市三重區後竹圍街12號","121.491601666667","25.07355","6500200","三重區"
"241004","475-VK","2017/09/07 19:49:13","新北市三重區五華街74號","121.493386666667","25.0820083333333","6500200","三重區"
"241019","478-VK","2017/09/07 19:49:28","新北市三重區三張街106號","121.48777","25.0697733333333","6500200","三重區"
"241030","480-VK","2017/09/07 19:49:28","新北市三重區環河南路254巷40號","121.489721666667","25.05126","6500200","三重區"
"241014","543-UM","2017/09/07 19:49:19","新北市三重區三和路二段37-8號","121.501371666667","25.0675916666667","6500200","三重區"
"241023","545-UM","2017/09/07 19:49:28","新北市三重區頂崁街172號","121.477581666667","25.06599","6500200","三重區"
"241001","547-UM","2017/09/07 19:49:29","新北市三重區仁愛街327巷60號","121.493546666667","25.0803033333333","6500200","三重區"
"241006","AAD-863","2017/09/07 19:49:29","新北市三重區永福街194號","121.482411666667","25.0744083333333","6500200","三重區"
"241035","743-BX","2017/09/07 19:49:24","新北市三重區文化北路33-3號","121.49929","25.06426","6500200","三重區"
"241012","941-UM","2017/09/07 19:49:18","新北市三重區仁福街64巷15號","121.497696666667","25.075215","6500200","三重區"
"241029","942-UM","2017/09/07 19:49:18","新北市三重區光明路11號","121.490983333333","25.0587633333333","6500200","三重區"
"241033","AAC-255","2017/09/07 19:49:27","新北市三重區中興南街64號","121.470623333333","25.0440366666667","6500200","三重區"
"235066","003-UY","2017/09/07 19:49:22","新北市中和區南工路6號","121.50543","25.0002633333333","6500300","中和區"
"235064","005-UY","2017/09/07 19:49:26","新北市中和區南山路127巷18弄4號","121.503418333333","24.9972083333333","6500300","中和區"
"235063","006-UY","2017/09/07 19:49:24","新北市中和區連城路263巷7弄1號","121.492168333333","24.9958683333333","6500300","中和區"
"235056","096-UM","2017/09/07 19:49:19","新北市中和區民富街4號","121.477005","25.0058933333333","6500300","中和區"
"235039","097-UM","2017/09/07 19:49:23","新北市中和區景平路172號","121.51701","24.9925966666667","6500300","中和區"
"235065","098-UM","2017/09/07 19:49:33","新北市中和區永和路1號","121.499798333333","25.0029433333333","6500300","中和區"
"235040","150-BY","2017/09/07 19:49:21","新北市中和區安平路38號","121.509936666667","24.9949383333333","6500300","中和區"
"235058","151-BY","2017/09/07 19:49:17","新北市中和區員山路146巷24號","121.482481666667","24.996795","6500300","中和區"
"235055","183-VK","2017/09/07 19:49:12","新北市中和區民享街2巷15號","121.473141666667","25.0053116666667","6500300","中和區"
"235038","185-VK","2017/09/07 19:49:32","新北市中和區自立路139巷14號","121.522655","24.9939266666667","6500300","中和區"
"235049","186-VK","2017/09/07 19:49:17","新北市中和區中正路76號","121.500753333333","24.9938066666667","6500300","中和區"
"235067","255-BX","2017/09/07 19:49:24","新北市中和區新生街277號","121.483871666667","24.9978916666667","6500300","中和區"
"235044","293-VK","2017/09/07 19:49:34","新北市中和區南山路252號","121.507875","24.9885783333333","6500300","中和區"
"235072","301-VK","2017/09/07 19:49:24","新北市中和區永和路103巷15弄4號","121.495203333333","25.00753","6500300","中和區"
"235043","352-BY","2017/09/07 19:49:27","新北市中和區華新街234巷9號","121.505683333333","24.9817183333333","6500300","中和區"
"235051","376-QA","2017/09/07 19:49:19","新北市中和區中興街180巷52弄1號","121.498543333333","24.9883666666667","6500300","中和區"
"235068","377-QA","2017/09/07 19:49:13","新北市中和區莊敬路16巷15弄9號","121.500516666667","25.0039116666667","6500300","中和區"
"235061","378-QA","2017/09/07 19:49:14","新北市中和區員山路226巷5弄2號","121.481748333333","25.0006583333333","6500300","中和區"
"235050","4979-A6","2017/09/07 19:49:34","新北市中和區景平路241巷82弄21號","121.506815","24.9921866666667","6500300","中和區"
"235069","4980-A6","2017/09/07 19:49:29","新北市中和區連城路160-1號","121.494338333333","24.997855","6500300","中和區"
"235042","551-UM","2017/09/07 19:49:28","新北市中和區景安路79巷36號","121.50719","24.9964083333333","6500300","中和區"
"235070","558-UM","2017/09/07 19:49:31","新北市中和區景平路489號","121.500078333333","24.99767","6500300","中和區"
"235045","565-BX","2017/09/07 19:49:18","新北市中和區景新街328號","121.511776666667","24.9910116666667","6500300","中和區"
"235054","640-BX","2017/09/07 19:49:25","新北市中和區民德路174號","121.46845","24.9995816666667","6500300","中和區"
"235047","732-UM","2017/09/07 19:49:19","新北市中和區捷運路57號","121.50923","24.9896516666667","6500300","中和區"
"235057","801-TS","2017/09/07 19:49:32","新北市中和區員山路337號","121.48129","25.0015366666667","6500300","中和區"
"235041","802-TS","2017/09/07 19:49:18","新北市中和區中和路458巷1號","121.512375","25.0037833333333","6500300","中和區"
"235052","805-TS","2017/09/07 19:49:13","新北市中和區興南路二段121號","121.50568","24.9840966666667","6500300","中和區"
"235048","896-TW","2017/09/07 19:49:18","新北市中和區興南路二段22-3號","121.507611666667","24.985905","6500300","中和區"
"235053","900-TW","2017/09/07 19:49:18","新北市中和區國光街215巷6弄1號","121.466476666667","25.0014516666667","6500300","中和區"
"235064","911-UM","2017/09/07 19:49:34","新北市中和區新生街16巷3號","121.48295","25.0042533333333","6500300","中和區"
"235037","157-BY","2017/09/07 19:49:30","新北市中和區仁愛街114號","121.511643333333","24.9869333333333","6500300","中和區"
"235037","AAC-213","2017/09/07 19:49:22","新北市中和區秀朗路三段145號","121.524925","24.9923666666667","6500300","中和區"
"235059","AAC-215","2017/09/07 19:49:31","新北市中和區圓通路335巷71號","121.494166666667","24.989385","6500300","中和區"
"220068","013-TV","2017/09/07 19:49:20","新北市板橋區中山路二段416巷47弄21號","121.48368","25.0195533333333","6500100","板橋區"
"220065","072-UY","2017/09/07 19:49:29","新北市板橋區國泰街39巷9弄3號","121.468708333333","25.0053616666667","6500100","板橋區"
"220086","073-UY","2017/09/07 19:49:29","新北市板橋區林園街2號","121.454223333333","25.0092733333333","6500100","板橋區"
"220106","075-UY","2017/09/07 19:49:24","新北市板橋區文化路二段606號","121.477131666667","25.0350966666667","6500100","板橋區"
"220069","AAD-861","2017/09/07 19:49:29","新北市板橋區南雅南路二段1-1號","121.454778333333","25.0036","6500100","板橋區"
"220102","120-SR","2017/09/07 19:49:34","新北市板橋區松柏街39號","121.475461666667","25.0302483333333","6500100","板橋區"
"247002","337-TH","2017/09/07 19:49:17","新北市蘆洲區永平街32巷1號","121.458766666667","25.0909383333333","6501400","蘆洲區"
"247004","336-TH","2017/09/07 19:49:25","新北市蘆洲區中原路68號","121.458581666667","25.082065","6501400","蘆洲區"
"247006","056-VK","2017/09/07 19:49:35","新北市蘆洲區永安南路二段42-1號","121.46659","25.0773716666667","6501400","蘆洲區"
"247008","053-VK","2017/09/07 19:49:14","新北市蘆洲區信義路113巷1弄9號","121.47797","25.0803733333333","6501400","蘆洲區"
"247014","007-UY","2017/09/07 19:49:34","新北市蘆洲區保和街24號","121.470525","25.0865733333333","6501400","蘆洲區"
"226004","312-R5","2017/09/07 19:49:17","新北市平溪區南山里南山坪11-2號","121.764736666667","25.0324716666667","6502400","平溪區"
"228003","097-TW","2017/09/07 19:49:16","新北市貢寮區真理里美艷山街3-1號","121.925716666667","25.0595883333333","6502600","貢寮區"
"228001","212-TW","2017/09/07 19:49:15","新北市貢寮區仁理村仁愛路95號","121.927416666667","25.05514","6502600","貢寮區"
"224010","AGQ-8101","2017/09/07 19:49:29","新北市瑞芳區輕便路113號","121.844491666667","25.1088316666667","6501200","瑞芳區"
"224002","639-TC","2017/09/07 19:49:26","新北市瑞芳區員山子路員山巷1號","121.816826666667","25.1035783333333","6501200","瑞芳區"
"227010","642-TC","2017/09/07 19:49:25","新北市雙溪區新基里中華路70號","121.865861666667","25.038165","6502500","雙溪區"
"227004","400-TW","2017/09/07 19:49:24","新北市雙溪區雙溪里內挖路30號","121.863295","25.036565","6502500","雙溪區"
"208002","742-BX","2017/09/07 19:49:28","新北市金山區八德街2號","121.635251666667","25.223795","6502700","金山區"
"208003","665-BX","2017/09/07 19:49:31","新北市金山區中正路53號","121.634465","25.2219616666667","6502700","金山區"
"208001","761-BX","2017/09/07 19:49:23","新北市金山區重和里林口31號","121.596505","25.209735","6502700","金山區"
"251009","008-UM","2017/09/07 19:49:15","新北市淡水區中正路38-1號","121.443701666667","25.1693","6501000","淡水區"
"251004","009-UM","2017/09/07 19:49:33","新北市淡水區民權路185巷17號","121.460446666667","25.13389","6501000","淡水區"
"251008","181-VK","2017/09/07 19:49:16","新北市淡水區中正路一段62巷29號","121.426368333333","25.1771883333333","6501000","淡水區"
"251014","182-VK","2017/09/07 19:49:30","新北市淡水區番社前9號","121.476416666667","25.2341233333333","6501000","淡水區"
"251012","441-VK","2017/09/07 19:49:30","新北市淡水區埤島6-10號","121.446138333333","25.19434","6501000","淡水區"
"251016","442-VK","2017/09/07 19:49:16","新北市淡水區三塊厝3-3號","121.456461666667","25.2096116666667","6501000","淡水區"
"251005","443-VK","2017/09/07 19:49:35","新北市淡水區原德路5-1號","121.442041666667","25.17118","6501000","淡水區"
"251001","559-UM","2017/09/07 19:49:17","新北市淡水區中正東路二段87-3號","121.45951","25.15294","6501000","淡水區"
"251006","561-UM","2017/09/07 19:49:17","新北市淡水區水碓街15號","121.44341","25.1770466666667","6501000","淡水區"
"251011","650-BX","2017/09/07 19:49:23","新北市淡水區水源街二段194號","121.457015","25.1756033333333","6501000","淡水區"
"207003","550-UM","2017/09/07 19:49:29","新北市萬里區大鵬里萬里加投68號","121.642436666667","25.2147733333333","6502800","萬里區"
"207004","225-TW","2017/09/07 19:49:34","新北市萬里區萬里里瑪鋉路221號","121.689785","25.1798166666667","6502800","萬里區"
"252002","178-VK","2017/09/07 19:49:17","新北市三芝區三民街31號","121.504586666667","25.25844","6502100","三芝區"
"252001","292-VK","2017/09/07 19:49:19","新北市三芝區公正街9號","121.499685","25.2576116666667","6502100","三芝區"
"237004","078-UY","2017/09/07 19:49:25","新北市三峽區添福141-15號","121.374645","24.9000216666667","6500900","三峽區"
"237007","153-BY","2017/09/07 19:49:15","新北市三峽區二鬮路136巷5號","121.359181666667","24.9078366666667","6500900","三峽區"
"237009","210-TH","2017/09/07 19:49:25","新北市三峽區清水街428號","121.368678333333","24.9259633333333","6500900","三峽區"
"237013","252-BX","2017/09/07 19:49:30","新北市三峽區橫溪路73號","121.397483333333","24.9353216666667","6500900","三峽區"
"237012","275-BY","2017/09/07 19:49:14","新北市三峽區中華路40號","121.373018333333","24.9315233333333","6500900","三峽區"
"237008","302-VK","2017/09/07 19:49:18","新北市三峽區永安街95巷8號","121.37476","24.92859","6500900","三峽區"
"237014","433-BY","2017/09/07 19:49:16","新北市三峽區添福109號","121.373888333333","24.901795","6500900","三峽區"
"237006","5529-G3","2017/09/07 19:49:20","新北市三峽區中正路一段336巷15弄2號","121.369965","24.9249683333333","6500900","三峽區"
"237016","649-BX","2017/09/07 19:49:26","新北市三峽區溪東路412號","121.414701666667","24.9276983333333","6500900","三峽區"
"237005","AKY-6261","2017/09/07 19:49:30","新北市三峽區民生街132號","121.372715","24.9349","6500900","三峽區"
"236071","105-UM","2017/09/07 19:49:23","新北市土城區中央路二段224號","121.442026666667","24.9753","6501300","土城區"
"236078","166-UM","2017/09/07 19:49:20","新北市土城區溪頭路20巷2弄2號","121.412975","24.9555466666667","6501300","土城區"
"236030","253-BX","2017/09/07 19:49:16","新北市土城區中央路一段294號","121.443303333333","24.9823383333333","6501300","土城區"
"236026","269-VK","2017/09/07 19:49:24","新北市土城區中央路二段61巷22號","121.44323","24.9786916666667","6501300","土城區"
"236037","271-VK","2017/09/07 19:49:34","新北市土城區國際路158巷32號","121.468275","24.9755816666667","6501300","土城區"
"236021","401-BY","2017/09/07 19:49:25","新北市土城區金城路三段198號","121.46862","24.9878716666667","6501300","土城區"
"236058","912-UM","2017/09/07 19:49:24","新北市土城區中央路二段1號","121.443055","24.98089","6501300","土城區"
"236051","913-UM","2017/09/07 19:48:57","新北市土城區青雲路285號","121.459056666667","24.9800016666667","6501300","土城區"
"236062","915-UM","2017/09/07 19:49:34","新北市土城區延和路105巷5弄1號","121.467306666667","24.9911","6501300","土城區"
"236053","AAC-216","2017/09/07 19:49:31","新北市土城區延和路56號","121.465541666667","24.9889733333333","6501300","土城區"
"242031","AAC-296","2017/09/07 19:49:30","新北市新莊區忠孝街106號","121.443935","25.0374483333333","6500500","新莊區"
"242051","751-BX","2017/09/07 19:49:27","新北市新莊區民安路302號","121.428203333333","25.02197","6500500","新莊區"
"242027","612-BX","2017/09/07 19:49:20","新北市新莊區中平路303號","121.444756666667","25.0514183333333","6500500","新莊區"
"242039","566-BX","2017/09/07 19:49:30","新北市新莊區民安路350號","121.42963","25.0224383333333","6500500","新莊區"
"242048","441-UM","2017/09/07 19:49:19","新北市新莊區後港一路28巷14號","121.42563","25.025065","6500500","新莊區"
"242004","413-TV","2017/09/07 19:49:26","新北市新莊區化成路63巷13號","121.464506666667","25.04581","6500500","新莊區"
"242042","400-BY","2017/09/07 19:49:17","新北市新莊區新北大道七段510號","121.412353333333","25.0290583333333","6500500","新莊區"
"242061","362-BY","2017/09/07 19:49:22","新北市新莊區中正路473-1號","121.441853333333","25.033075","6500500","新莊區"
"242058","353-BY","2017/09/07 19:49:22","新北市新莊區八德街60號","121.424925","25.02242","6500500","新莊區"
"242036","133-UY","2017/09/07 19:49:32","新北市新莊區民安路207巷30弄14號","121.427948333333","25.0238966666667","6500500","新莊區"
"242002","176-VK","2017/09/07 19:49:26","新北市新莊區武前街29號","121.450241666667","25.0324716666667","6500500","新莊區"
"242013","346-TH","2017/09/07 19:49:28","新北市新莊區中誠街80號","121.450385","25.0478466666667","6500500","新莊區"
"242019","348-TH","2017/09/07 19:49:34","新北市新莊區中華路一段136巷28號","121.45353","25.0413033333333","6500500","新莊區"
"242017","350-TH","2017/09/07 19:49:36","新北市新莊區中華路二段3巷3號","121.453131666667","25.04539","6500500","新莊區"
"242011","351-TH","2017/09/07 19:49:30","新北市新莊區中和街195號","121.448325","25.051685","6500500","新莊區"
"238015","755-BX","2017/09/07 19:49:21","新北市樹林區中山路一段94號","121.423041666667","24.9912916666667","6500700","樹林區"
"238023","601-UM","2017/09/07 19:49:27","新北市樹林區三福街162號","121.40489","25.0159666666667","6500700","樹林區"
"238022","KEA-2217","2017/09/07 19:49:32","新北市樹林區名園街51巷6弄19號","121.421108333333","24.9785083333333","6500700","樹林區"
"238021","KEA-2213","2017/09/07 19:49:34","新北市樹林區佳園路三段183號","121.38556","24.94799","6500700","樹林區"
"238012","303-VK","2017/09/07 19:49:13","新北市樹林區中山路二段162號","121.412123333333","24.9829366666667","6500700","樹林區"
"238017","283-BY","2017/09/07 19:49:22","新北市樹林區保安街二段73號","121.415981666667","25.0007883333333","6500700","樹林區"
"238014","282-BY","2017/09/07 19:49:22","新北市樹林區千歲街28巷2號","121.42559","24.9958916666667","6500700","樹林區"
"238020","268-VK","2017/09/07 19:49:22","新北市樹林區千歲街111-1號","121.429188333333","25.00148","6500700","樹林區"
"239006","891-R6","2017/09/07 19:49:32","新北市鶯歌區中正一路4號","121.352468333333","24.9527683333333","6500800","鶯歌區"
"239004","193-VK","2017/09/07 19:49:20","新北市鶯歌區二甲路65號","121.334718333333","24.9331766666667","6500800","鶯歌區"
"221036","130-UY","2017/09/07 19:49:20","新北市汐止區汐萬路一段20號","121.655926666667","25.06754","6501100","汐止區"
"221015","131-UY","2017/09/07 19:49:31","新北市汐止區茄苳路42號","121.665751666667","25.070705","6501100","汐止區"
"221010","269-BY","2017/09/07 19:49:29","新北市汐止區汐萬路一段343巷1號","121.650161666667","25.0766733333333","6501100","汐止區"
"221012","276-VK","2017/09/07 13:05:56","新北市汐止區汐萬路一段256巷3號","121.653453333333","25.07465","6501100","汐止區"
"221031","277-VK","2017/09/07 19:49:34","新北市汐止區福德三路127號","121.633475","25.0676433333333","6501100","汐止區"
"221012","278-VK","2017/09/07 19:49:13","新北市汐止區保長路273巷4號","121.681311666667","25.073955","6501100","汐止區"
"221023","279-VK","2017/09/07 19:49:17","新北市汐止區民族六街4巷1號","121.62949","25.07016","6501100","汐止區"
"221032","280-BY","2017/09/07 19:49:17","新北市汐止區橫科路119號","121.620123333333","25.05036","6501100","汐止區"
"221027","281-BY","2017/09/07 19:49:26","新北市汐止區忠孝東路9號","121.658363333333","25.0659966666667","6501100","汐止區"
"221038","297-VK","2017/09/07 19:49:31","新北市汐止區忠孝東路273號","121.663793333333","25.0683133333333","6501100","汐止區"
"221029","298-VK","2017/09/07 19:47:10","新北市汐止區康寧街901號","121.651495","25.07489","6501100","汐止區"
"221021","299-VK","2017/09/07 19:49:23","新北市汐止區莊敬街29巷5號","121.657075","25.0608716666667","6501100","汐止區"
"221008","358-BY","2017/09/07 19:49:24","新北市汐止區康寧街143號","121.621508333333","25.0666533333333","6501100","汐止區"
"221035","622-UM","2017/09/07 19:49:27","新北市汐止區長江街11號","121.654756666667","25.0711866666667","6501100","汐止區"
"221025","623-UM","2017/09/07 19:49:22","新北市汐止區秀峰路81巷15弄4號","121.660735","25.0644483333333","6501100","汐止區"
"221033","647-BX","2017/09/07 19:49:20","新北市汐止區東勢街76巷99號","121.636861666667","25.0390016666667","6501100","汐止區"
"221002","707-TV","2017/09/07 19:49:17","新北市汐止區大同路一段219巷27號","121.633248333333","25.0584283333333","6501100","汐止區"
"221018","753-BX","2017/09/07 19:49:24","新北市汐止區大同路二段525號","121.661623333333","25.0689866666667","6501100","汐止區"
"220079","145-BY","2017/09/07 19:49:31","新北市板橋區中正路135巷12弄6號","121.455653333333","25.0158566666667","6500100","板橋區"
"220080","200-UY","2017/09/07 19:49:20","新北市板橋區大觀路二段37巷62號","121.449523333333","25.0024266666667","6500100","板橋區"
"220082","610-BX","2017/09/07 19:49:09","新北市板橋區篤行路一段22號","121.431888333333","24.99427","6500100","板橋區"
"220075","256-TC","2017/09/07 19:49:32","新北市板橋區金華街10巷50號","121.456983333333","25.020065","6500100","板橋區"
"220097","257-TC","2017/09/07 19:49:19","新北市板橋區文化路一段285巷36號","121.463535","25.0195416666667","6500100","板橋區"
"220091","267-BY","2017/09/07 19:49:22","新北市板橋區懷德街127巷23弄31號","121.480198333333","25.03216","6500100","板橋區"
"220072","277-BY","2017/09/07 19:49:31","新北市板橋區金門街215巷45號","121.433583333333","24.9895333333333","6500100","板橋區"
"220101","280-UM","2017/09/07 19:49:32","新北市板橋區莊敬路248號","121.473735","25.021485","6500100","板橋區"
"220094","283-UM","2017/09/07 19:49:13","新北市板橋區民生路三段307號","121.463553333333","25.0307716666667","6500100","板橋區"
"220071","283-VK","2017/09/07 19:49:28","新北市板橋區信義路200號","121.45985","24.9911133333333","6500100","板橋區"
"220053","285-VK","2017/09/07 19:49:14","新北市板橋區中山路二段60巷7號","121.47422","25.01537","6500100","板橋區"
"220083","286-VK","2017/09/07 19:49:27","新北市板橋區龍興街65巷1號","121.4434","25.001325","6500100","板橋區"
"220081","287-VK","2017/09/07 19:44:20","新北市板橋區大觀路一段29巷179弄32號","121.44978","25.004385","6500100","板橋區"
"220090","288-VK","2017/09/07 19:49:20","新北市板橋區龍泉街54巷8弄16號","121.457643333333","25.02698","6500100","板橋區"
"220061","295-UM","2017/09/07 19:49:20","新北市板橋區中山路一段265巷36弄1號","121.469083333333","25.0151316666667","6500100","板橋區"
"220067","299-UM","2017/09/07 19:49:29","新北市板橋區漢生東路193巷95號","121.473173333333","25.0120983333333","6500100","板橋區"
"242001","281-VK","2017/09/07 16:04:03","新北市新莊區環河路636-7號","121.437416666667","25.0112583333333","6500500","新莊區"
"220062","305-R5","2017/09/07 19:49:19","新北市板橋區三民路二段35巷27-1號","121.48117","25.018015","6500100","板橋區"
"220092","307-R5","2017/09/07 19:49:27","新北市板橋區陽明街114號","121.464146666667","25.0237333333333","6500100","板橋區"
"220098","317-R6","2017/09/07 19:49:30","新北市板橋區四維路269巷94弄2號","121.459538333333","25.0267233333333","6500100","板橋區"
"220064","486-VK","2017/09/07 19:49:29","新北市板橋區實踐路90號","121.463963333333","25.0050866666667","6500100","板橋區"
"220089","487-VK","2017/09/07 19:49:16","新北市板橋區英士路151號","121.459871666667","25.0241366666667","6500100","板橋區"
"242034","280-VK","2017/09/07 19:49:31","新北市新莊區仁愛街52號","121.4444","25.0370583333333","6500500","新莊區"
"220088","491-VK","2017/09/07 19:49:27","新北市板橋區文聖街84號","121.477401666667","25.02991","6500100","板橋區"
"220035","560-BX","2017/09/07 19:49:21","新北市板橋區金華街99號","121.45853","25.0208166666667","6500100","板橋區"
"220103","561-BX","2017/09/07 19:49:29","新北市板橋區陽明街29巷3號","121.465275","25.0216683333333","6500100","板橋區"
"220084","568-UM","2017/09/07 19:49:32","新北市板橋區滿平二街4號","121.425523333333","24.986385","6500100","板橋區"
"220063","609-BX","2017/09/07 19:49:20","新北市板橋區三民路一段74號","121.479553333333","25.022165","6500100","板橋區"
"220057","686-BX","2017/09/07 19:49:28","新北市板橋區廣權路12號","121.46078","24.9912583333333","6500100","板橋區"
"220077","687-BX","2017/09/07 19:49:18","新北市板橋區僑中一街144號","121.445151666667","25.0118816666667","6500100","板橋區"
"220093","689-BX","2017/09/07 19:49:23","新北市板橋區長江路二段223號","121.468236666667","25.0325266666667","6500100","板橋區"
"220054","741-BX","2017/09/07 19:49:27","新北市板橋區忠孝路241號","121.466278333333","25.0028966666667","6500100","板橋區"
"220055","827-TW","2017/09/07 19:49:17","新北市板橋區國慶路149巷21弄8號","121.46059","24.997395","6500100","板橋區"
"220096","831-TW","2017/09/07 19:49:17","新北市板橋區民生路二段240巷9號","121.468786666667","25.0231466666667","6500100","板橋區"
"220074","895-R6","2017/09/07 19:49:22","新北市板橋區大東街5號","121.456581666667","25.0093716666667","6500100","板橋區"
"220073","985-R7","2017/09/07 19:49:27","新北市板橋區大仁街16號","121.455875","25.0170316666667","6500100","板橋區"
"220070","AAC-253","2017/09/07 19:49:33","新北市板橋區民族路109號","121.4668","25.008145","6500100","板橋區"
