"lineid","car","time","location","longitude","latitude","cityid","cityname"
"234046","148-BY","2017/09/07 20:19:24","新北市永和區得和路402號","121.525595","24.999155","6500400","永和區"
"234013","149-BY","2017/09/07 20:19:16","新北市永和區保生路64號","121.505183333333","25.0089633333333","6500400","永和區"
"234007","207-UY","2017/09/07 20:19:19","新北市永和區保順路19號","121.504116666667","25.0098633333333","6500400","永和區"
"234081","298-R6","2017/09/07 20:19:29","新北市永和區福和路19巷4號","121.524121666667","25.0077283333333","6500400","永和區"
"234038","336-UY","2017/09/07 20:19:20","新北市永和區成功路一段93巷6號","121.527411666667","25.0026866666667","6500400","永和區"
"234064","337-UY","2017/09/07 20:19:28","新北市永和區中正路332號","121.517785","24.999775","6500400","永和區"
"234086","338-UY","2017/09/07 20:19:26","新北市永和區永和路二段55號","121.514673333333","25.0109166666667","6500400","永和區"
"234070","552-UM","2017/09/07 20:19:28","新北市永和區永貞路70巷24號","121.519726666667","25.0060383333333","6500400","永和區"
"234054","553-UM","2017/09/07 20:19:31","新北市永和區光復街2巷24號","121.517603333333","25.0165333333333","6500400","永和區"
"234017","745-BX","2017/09/07 20:19:28","新北市永和區仁愛路93號","121.51294","25.01305","6500400","永和區"
"234030","746-BX","2017/09/07 20:19:30","新北市永和區民族街81巷62號","121.520238333333","24.99658","6500400","永和區"
"234061","AAD-866","2017/09/07 20:19:20","新北市永和區得和路88號","121.516791666667","25.0000283333333","6500400","永和區"
"234042","862-TW","2017/09/07 20:19:15","新北市永和區雙和街1號","121.509826666667","25.0016716666667","6500400","永和區"
"234050","863-TW","2017/09/07 20:18:08","新北市永和區環河西路二段13號","121.508736666667","25.0165916666667","6500400","永和區"
"234011","9373-KE","2017/09/07 20:19:30","新北市永和區仁愛路352巷122弄5號","121.500398333333","25.0087783333333","6500400","永和區"
"249005","172-UM","2017/09/07 20:19:17","新北市八里區下罟子8-1號","121.385445","25.139825","6502300","八里區"
"249001","173-UM","2017/09/07 20:19:12","新北市八里區中華路二段536-4號","121.399086666667","25.1450833333333","6502300","八里區"
"249004","303-UY","2017/09/07 20:19:19","新北市八里區中山路一段131號","121.413416666667","25.1592516666667","6502300","八里區"
"249002","305-UY","2017/09/07 20:19:26","新北市八里區龍米路二段32巷11號","121.448878333333","25.1402583333333","6502300","八里區"
"249003","593-UM","2017/09/07 20:19:29","新北市八里區中山路二段447巷22號","121.39718","25.1451516666667","6502300","八里區"
"248016","026-BX","2017/09/07 20:19:20","新北市五股區凌雲路一段158巷39弄2號","121.446878333333","25.1038083333333","6501500","五股區"
"248012","247-BX","2017/09/07 20:19:12","新北市五股區六合街42號","121.43282","25.0893833333333","6501500","五股區"
"248004","677-BX","2017/09/07 20:19:18","新北市五股區中興路四段23號","121.438825","25.0827033333333","6501500","五股區"
"248002","678-BX","2017/09/07 20:19:17","新北市五股區成泰路三段165號","121.44517","25.0918983333333","6501500","五股區"
"234023","9380-KE","2017/09/07 20:19:14","新北市永和區永和路二段276巷2弄1號","121.516421666667","25.0153366666667","6500400","永和區"
"234077","969-R7","2017/09/07 20:19:18","新北市永和區中正路39-1號","121.514371666667","24.995985","6500400","永和區"
"234074","AAC-211","2017/09/07 20:19:27","新北市永和區竹林路201巷22弄1號","121.522015","25.009395","6500400","永和區"
"234067","AAC-212","2017/09/07 20:19:21","新北市永和區保平路238號","121.509295","25.0054616666667","6500400","永和區"
"234003","AAC-295","2017/09/07 20:19:21","新北市永和區自強街28巷3號","121.515638333333","25.00789","6500400","永和區"
"243013","AAD-798","2017/09/07 20:19:27","新北市泰山區新民路12號","121.426413333333","25.0446483333333","6501600","泰山區"
"243009","297-R6","2017/09/07 20:19:22","新北市泰山區福泰街11號","121.432711666667","25.0603266666667","6501600","泰山區"
"243015","380-SR","2017/09/07 20:19:16","新北市泰山區明志路一段286號","121.431945","25.0598916666667","6501600","泰山區"
"243014","421-VK","2017/09/07 20:19:29","新北市泰山區泰林路二段455號","121.425735","25.0639583333333","6501600","泰山區"
"243010","KEA-2215","2017/09/07 20:19:27","新北市泰山區明志路二段254巷5號","121.426385","25.0476566666667","6501600","泰山區"
"243011","KEA-2216","2017/09/07 20:19:20","新北市泰山區貴陽街16巷5弄9號","121.422566666667","25.03204","6501600","泰山區"
"243012","646-TV","2017/09/07 20:19:22","新北市泰山區楓江路53號","121.435766666667","25.06264","6501600","泰山區"
"243016","680-BX","2017/09/07 20:19:31","新北市泰山區文程路117號","121.430763333333","25.0481383333333","6501600","泰山區"
"222003","436-BY","2017/09/07 20:19:15","新北市深坑區文化街74號","121.618135","25.001905","6501800","深坑區"
"222002","659-BX","2017/09/07 20:19:23","新北市深坑區萬福路83號","121.601635","25.0093616666667","6501800","深坑區"
"222001","696-SL","2017/09/07 20:19:18","新北市深坑區北深路三段245號","121.599473333333","25.0043133333333","6501800","深坑區"
"231041","002-UM","2017/09/07 20:19:20","新北市新店區民權路42號","121.540456666667","24.982955","6500600","新店區"
"231059","046-UY","2017/09/07 20:19:14","新北市新店區安德街116巷36號","121.508628333333","24.9611466666667","6500600","新店區"
"231061","047-UY","2017/09/07 20:19:28","新北市新店區安民街133巷26號","121.515328333333","24.96965","6500600","新店區"
"231060","106-UY","2017/09/07 20:19:17","新北市新店區錦秀路1-3號","121.479046666667","24.9454566666667","6500600","新店區"
"231051","107-UY","2017/09/07 20:19:28","新北市新店區中央六街43號","121.528586666667","24.9755133333333","6500600","新店區"
"231047","108-UY","2017/09/07 20:19:19","新北市新店區中興路三段258號","121.542698333333","24.9843166666667","6500600","新店區"
"231052","187-VK","2017/09/07 20:19:16","新北市新店區松林路1號","121.54743","24.912415","6500600","新店區"
"231007","189-VK","2017/09/07 12:00:53","新北市新店區安華路28-1號","121.519586666667","24.9609916666667","6500600","新店區"
"231057","256-BX","2017/09/07 20:19:32","新北市新店區花園五路二段27號","121.554726666667","24.93473","6500600","新店區"
"231063","268-BY","2017/09/07 20:19:29","新北市新店區車子路10-1號","121.504661666667","24.9548133333333","6500600","新店區"
"231050","AAD-862","2017/09/07 20:19:27","新北市新店區光明街22號","121.53804","24.9588516666667","6500600","新店區"
"231040","355-BY","2017/09/07 20:19:24","新北市新店區中正路170號","121.541215","24.9719883333333","6500600","新店區"
"231055","3713-VJ","2017/09/07 20:19:28","新北市新店區新明街26巷6號","121.541161666667","24.9687816666667","6500600","新店區"
"231056","4716-K9","2017/09/07 20:19:29","新北市新店區中正路275巷25號","121.537023333333","24.9732616666667","6500600","新店區"
"231067","4772-VM","2017/09/07 20:19:28","新北市新店區溪洲路8巷56號","121.53337","24.9622666666667","6500600","新店區"
"231065","512-UM","2017/09/07 20:19:27","新北市新店區安祥路104-6號","121.479718333333","24.9622666666667","6500600","新店區"
"231054","513-UM","2017/09/07 20:19:30","新北市新店區檳榔路105號","121.54461","24.96168","6500600","新店區"
"231064","515-UM","2017/09/07 20:19:16","新北市新店區安和路二段138號","121.519541666667","24.9724116666667","6500600","新店區"
"231042","616-UM","2017/09/07 20:19:36","新北市新店區中興路二段231-2號","121.547821666667","24.9750433333333","6500600","新店區"
"231045","617-UM","2017/09/07 20:19:11","新北市新店區新坡一街12號","121.548423333333","24.9618983333333","6500600","新店區"
"231068","718-UY","2017/09/07 20:19:24","新北市新店區寶安街22號","121.542051666667","24.9819683333333","6500600","新店區"
"231049","719-UM","2017/09/07 20:19:27","新北市新店區北新路一段329號","121.541763333333","24.9684783333333","6500600","新店區"
"231062","720-UM","2017/09/07 20:19:24","新北市新店區安康路三段298號","121.487358333333","24.9518533333333","6500600","新店區"
"231044","897-TW","2017/09/07 20:19:22","新北市新店區順安街2-1號","121.541085","24.984685","6500600","新店區"
"231043","899-TW","2017/09/07 20:19:23","新北市新店區建國路133號","121.539273333333","24.9782033333333","6500600","新店區"
"231066","AKT-0513","2017/09/07 20:19:26","新北市新店區安興路112號","121.514643333333","24.97764","6500600","新店區"
"241011","013-R5","2017/09/07 20:19:31","新北市三重區龍門路150號","121.498541666667","25.0730333333333","6500200","三重區"
"241028","022-UY","2017/09/07 20:19:33","新北市三重區大同南路127-2號","121.496418333333","25.0579833333333","6500200","三重區"
"241008","059-VK","2017/09/07 20:19:20","新北市三重區永福街211巷25號","121.479085","25.0740566666667","6500200","三重區"
"241009","060-VK","2017/09/07 20:19:29","新北市三重區三和路四段384號","121.48231","25.0788016666667","6500200","三重區"
"241031","061-VK","2017/09/07 20:19:26","新北市三重區三寧街15號","121.489423333333","25.059775","6500200","三重區"
"241015","062-VK","2017/09/07 20:19:24","新北市三重區重新路一段121號","121.500315","25.0631","6500200","三重區"
"241017","063-VK","2017/09/07 20:19:15","新北市三重區新北大道一段6號","121.488856666667","25.0616083333333","6500200","三重區"
"241024","065-VK","2017/09/07 20:19:23","新北市三重區中正北路244號","121.481678333333","25.067975","6500200","三重區"
"241002","090-VK","2017/09/07 20:19:29","新北市三重區仁義街101巷28號","121.498766666667","25.0806216666667","6500200","三重區"
"241003","091-VK","2017/09/07 20:19:02","新北市三重區富華街56號","121.490308333333","25.0830083333333","6500200","三重區"
"241026","156-TC","2017/09/07 20:19:28","新北市三重區福德南路65巷1號","121.50246","25.06056","6500200","三重區"
"241005","262-UM","2017/09/07 20:19:28","新北市三重區分子尾街45號","121.489275","25.0821766666667","6500200","三重區"
"241022","265-UM","2017/09/07 20:19:17","新北市三重區市前街14號","121.489148333333","25.062465","6500200","三重區"
"241016","266-UM","2017/09/07 20:19:32","新北市三重區大同北路97-3號","121.494323333333","25.0636566666667","6500200","三重區"
"241018","268-UM","2017/09/07 20:19:23","新北市三重區雙園街105號","121.493645","25.0673916666667","6500200","三重區"
"241032","269-UM","2017/09/07 20:19:29","新北市三重區捷運路19巷6弄20號","121.484361666667","25.0567866666667","6500200","三重區"
"241013","270-UM","2017/09/07 20:19:31","新北市三重區三和路三段151巷7號","121.49226","25.0738","6500200","三重區"
"241025","271-UM","2017/09/07 20:19:19","新北市三重區三民街249號","121.47981","25.067565","6500200","三重區"
"241007","KEA-2210","2017/09/07 20:19:31","新北市三重區仁美街55號","121.486996666667","25.078095","6500200","三重區"
"241020","413-TH","2017/09/07 20:19:27","新北市三重區三和路三段172-1號","121.49238","25.0730233333333","6500200","三重區"
"241004","475-VK","2017/09/07 20:19:18","新北市三重區仁政街201巷3號","121.490695","25.0803333333333","6500200","三重區"
"241019","478-VK","2017/09/07 20:19:28","新北市三重區忠孝路一段30巷58號","121.49052","25.0712133333333","6500200","三重區"
"241030","480-VK","2017/09/07 20:19:27","新北市三重區集美街89巷21號","121.488326666667","25.0527","6500200","三重區"
"241014","543-UM","2017/09/07 20:19:19","新北市三重區長樂街135巷2號","121.503453333333","25.069915","6500200","三重區"
"241023","545-UM","2017/09/07 20:19:28","新北市三重區頂崁街140號","121.477673333333","25.065115","6500200","三重區"
"241001","547-UM","2017/09/07 20:19:29","新北市三重區自強路四段3巷32號","121.489783333333","25.0765183333333","6500200","三重區"
"241035","743-BX","2017/09/07 20:19:24","新北市三重區正義北路33巷34號","121.498551666667","25.06385","6500200","三重區"
"241012","941-UM","2017/09/07 20:19:18","新北市三重區河邊北街379-1號","121.501715","25.0764716666667","6500200","三重區"
"241029","942-UM","2017/09/07 20:19:18","新北市三重區重安街98號","121.492678333333","25.0561633333333","6500200","三重區"
"241033","AAC-255","2017/09/07 20:19:27","新北市三重區五谷王北街50巷2號","121.476011666667","25.051405","6500200","三重區"
"235066","003-UY","2017/09/07 20:19:22","新北市中和區南工路94巷1號","121.507168333333","25.00299","6500300","中和區"
"235039","097-UM","2017/09/07 20:19:23","新北市中和區自強路14號","121.520258333333","24.9957083333333","6500300","中和區"
"235065","098-UM","2017/09/07 20:19:33","新北市中和區永和路67-3號","121.496768333333","25.0055733333333","6500300","中和區"
"235040","150-BY","2017/09/07 20:19:21","新北市中和區保健路44巷14號","121.508998333333","24.9968116666667","6500300","中和區"
"235044","293-VK","2017/09/07 20:19:14","新北市中和區安樂路34號","121.511808333333","24.9923366666667","6500300","中和區"
"235072","301-VK","2017/09/07 20:19:24","新北市八里區中山路三段390號","121.36816","25.13519","6500300","中和區"
"235068","377-QA","2017/09/07 20:19:13","新北市中和區勝利路35巷1弄23號","121.499826666667","25.007735","6500300","中和區"
"235050","4979-A6","2017/09/07 20:19:24","新北市中和區景平路466號","121.505671666667","24.9937033333333","6500300","中和區"
"235069","4980-A6","2017/09/07 20:19:29","新北市中和區景新街96巷6號","121.504656666667","24.9982366666667","6500300","中和區"
"235070","558-UM","2017/09/07 20:19:31","新北市中和區中正路271號","121.495953333333","24.9938083333333","6500300","中和區"
"235026","800-TS","2017/09/07 20:19:15","新北市中和區員山路36巷16-3號","121.484813333333","24.991435","6500300","中和區"
"235037","AAC-213","2017/09/07 20:19:23","新北市中和區秀朗路三段179號","121.524403333333","24.9908133333333","6500300","中和區"
"235059","AAC-215","2017/09/07 20:19:31","新北市中和區圓通路320-18號","121.485495","24.9870683333333","6500300","中和區"
"220065","072-UY","2017/09/07 20:19:29","新北市樹林區水源街96號","121.425868333333","24.9800833333333","6500100","板橋區"
"220069","AAD-861","2017/09/07 20:19:20","新北市板橋區貴興路113號","121.455786666667","25.0025533333333","6500100","板橋區"
"220102","120-SR","2017/09/07 20:19:23","新北市板橋區縣民大道三段167號","121.479126666667","25.0245333333333","6500100","板橋區"
"247022","893-R6","2017/09/07 20:19:26","新北市蘆洲區民族路455號","121.467483333333","25.08849","6501400","蘆洲區"
"247020","500-BY","2017/09/07 20:19:16","新北市蘆洲區仁愛街101巷6號","121.470683333333","25.094315","6501400","蘆洲區"
"247010","339-TH","2017/09/07 20:19:24","新北市蘆洲區信義路188巷23號","121.480193333333","25.0845583333333","6501400","蘆洲區"
"247002","337-TH","2017/09/07 20:19:16","新北市蘆洲區長安街345號","121.45717","25.0870366666667","6501400","蘆洲區"
"247004","336-TH","2017/09/07 20:19:25","新北市蘆洲區長安街307號","121.45788","25.0851583333333","6501400","蘆洲區"
"247016","057-VK","2017/09/07 20:19:31","新北市蘆洲區光華路132巷39號","121.465776666667","25.083735","6501400","蘆洲區"
"247006","056-VK","2017/09/07 20:19:16","新北市蘆洲區九芎街153巷4號","121.465218333333","25.0790316666667","6501400","蘆洲區"
"247008","053-VK","2017/09/07 20:19:34","新北市蘆洲區集賢路240號","121.481903333333","25.0856516666667","6501400","蘆洲區"
"247014","007-UY","2017/09/07 20:19:14","新北市蘆洲區中山二路137巷42號","121.472403333333","25.08079","6501400","蘆洲區"
"247024","002-UY","2017/09/07 20:19:18","新北市蘆洲區光榮路120巷8弄39號","121.464598333333","25.087875","6501400","蘆洲區"
"247018","001-UY","2017/09/07 20:19:16","新北市蘆洲區民族路408巷16號","121.475008333333","25.092085","6501400","蘆洲區"
"251009","008-UM","2017/09/07 20:19:14","新北市淡水區清水街250號","121.440536666667","25.172295","6501000","淡水區"
"251008","181-VK","2017/09/07 20:19:16","新北市淡水區淡海路180巷27號","121.421716666667","25.1845766666667","6501000","淡水區"
"251014","182-VK","2017/09/07 20:19:30","新北市淡水區石頭厝1號","121.45874","25.2355433333333","6501000","淡水區"
"251010","413-VK","2017/09/07 20:19:31","新北市淡水區新民街一段132號","121.427655","25.1888133333333","6501000","淡水區"
"251012","441-VK","2017/09/07 20:19:30","新北市淡水區淡金路三段352號","121.449256666667","25.2088583333333","6501000","淡水區"
"251016","442-VK","2017/09/07 20:19:16","新北市淡水區淡金路五段20號","121.453391666667","25.2324066666667","6501000","淡水區"
"251001","559-UM","2017/09/07 20:19:17","新北市淡水區新市二路四段265號","121.445736666667","25.19249","6501000","淡水區"
"251006","561-UM","2017/09/07 20:19:17","新北市淡水區淡金路一段571號","121.452738333333","25.1805966666667","6501000","淡水區"
"251002","672-BX","2017/09/07 20:19:23","新北市淡水區中正路232號","121.439013333333","25.1706966666667","6501000","淡水區"
"251003","766-UM","2017/09/07 20:19:18","新北市淡水區中山北路一段229號","121.444488333333","25.17958","6501000","淡水區"
"207003","550-UM","2017/09/07 20:19:15","新北市萬里區野柳里八斗60號","121.667508333333","25.2038566666667","6502800","萬里區"
"207004","225-TW","2017/09/07 20:19:34","新北市萬里區北基里仁四街2號","121.682096666667","25.17539","6502800","萬里區"
"252002","178-VK","2017/09/07 20:19:17","新北市三芝區中正路一段7號","121.502706666667","25.25886","6502100","三芝區"
"252001","292-VK","2017/09/07 20:19:19","新北市三芝區中山路一段31號","121.500583333333","25.2580116666667","6502100","三芝區"
"237007","153-BY","2017/09/07 20:19:15","新北市三峽區麻園46號","121.363806666667","24.9212616666667","6500900","三峽區"
"237012","275-BY","2017/09/07 20:19:34","新北市三峽區中華路45號","121.372498333333","24.9308666666667","6500900","三峽區"
"237008","302-VK","2017/09/07 20:19:18","新北市三峽區中正路一段174巷4弄30號","121.37291","24.9293416666667","6500900","三峽區"
"237006","5529-G3","2017/09/07 20:19:20","新北市三峽區嘉添1-3號","121.36778","24.9117566666667","6500900","三峽區"
"236071","105-UM","2017/09/07 20:19:23","新北市土城區亞洲路59號","121.433218333333","24.97108","6501300","土城區"
"236078","166-UM","2017/09/07 20:19:28","新北市土城區德安街12號","121.421805","24.96465","6501300","土城區"
"236030","253-BX","2017/09/07 20:19:28","新北市土城區學成路128巷9號","121.449398333333","24.989885","6501300","土城區"
"236026","269-VK","2017/09/07 20:19:25","新北市土城區裕生路67巷6弄1號","121.447748333333","24.9845183333333","6501300","土城區"
"236014","270-VK","2017/09/07 20:19:21","新北市板橋區信義路26巷12號","121.456121666667","24.9953066666667","6501300","土城區"
"236037","271-VK","2017/09/07 20:19:16","新北市土城區延吉街280號","121.465098333333","24.9842583333333","6501300","土城區"
"236021","401-BY","2017/09/07 20:19:25","新北市土城區延吉街23巷1號","121.472758333333","24.9883516666667","6501300","土城區"
"236058","912-UM","2017/09/07 20:19:24","新北市土城區中央路三段71-1號","121.438688333333","24.9692583333333","6501300","土城區"
"236053","AAC-216","2017/09/07 20:19:18","新北市土城區城林路3號","121.437046666667","24.9757283333333","6501300","土城區"
"242031","AAC-296","2017/09/07 20:19:30","新北市新莊區義豐街23號","121.441121666667","25.0350966666667","6500500","新莊區"
"242029","986-R7","2017/09/07 20:19:24","新北市新莊區中原路237號","121.44961","25.05431","6500500","新莊區"
"242051","751-BX","2017/09/07 20:19:27","新北市新莊區民安西路212巷1弄1號","121.42561","25.014815","6500500","新莊區"
"242025","615-BX","2017/09/07 20:19:21","新北市新莊區五工一路80巷16號","121.461071666667","25.0667816666667","6500500","新莊區"
"242023","613-BX","2017/09/07 20:19:14","新北市新莊區化成路690號","121.465896666667","25.0562566666667","6500500","新莊區"
"242027","612-BX","2017/09/07 20:19:00","新北市新莊區幸福路585號","121.453701666667","25.0492683333333","6500500","新莊區"
"242039","566-BX","2017/09/07 20:19:33","新北市新莊區龍安路481號","121.425588333333","25.018145","6500500","新莊區"
"242044","497-BY","2017/09/07 20:19:32","新北市新莊區中正路895-25號","121.412291666667","25.0217833333333","6500500","新莊區"
"242048","441-UM","2017/09/07 20:19:19","新北市新莊區四維路182巷4號","121.422038333333","25.0217933333333","6500500","新莊區"
"242053","440-UM","2017/09/07 20:19:31","新北市新莊區民安西路278號","121.42613","25.0126966666667","6500500","新莊區"
"242004","413-TV","2017/09/07 20:19:22","新北市新莊區頭興街32號","121.464535","25.053485","6500500","新莊區"
"242042","400-BY","2017/09/07 20:19:17","新北市新莊區壽山路55-1號","121.412113333333","25.0318133333333","6500500","新莊區"
"242061","362-BY","2017/09/07 20:19:22","新北市新莊區新樹路172號","121.434625","25.021795","6500500","新莊區"
"242058","353-BY","2017/09/07 20:19:30","新北市新莊區四維路209號","121.421653333333","25.02014","6500500","新莊區"
"242007","132-UY","2017/09/07 20:19:25","新北市新莊區福壽街94巷16號","121.458958333333","25.0500133333333","6500500","新莊區"
"242036","133-UY","2017/09/07 20:19:12","新北市新莊區建安街85號","121.427208333333","25.0245483333333","6500500","新莊區"
"242046","172-VK","2017/09/07 20:19:28","新北市新莊區中正路新生巷62號","121.417395","25.0228533333333","6500500","新莊區"
"242009","173-VK","2017/09/07 20:19:19","新北市新莊區昌平街10號","121.455006666667","25.0526383333333","6500500","新莊區"
"242015","175-VK","2017/09/07 20:19:28","新北市新莊區中和街31巷22號","121.447125","25.0438833333333","6500500","新莊區"
"242002","176-VK","2017/09/07 20:19:25","新北市新莊區化成路31號","121.465186666667","25.04393","6500500","新莊區"
"242013","346-TH","2017/09/07 20:19:23","新北市新莊區中信街63巷4弄8號","121.448736666667","25.0502383333333","6500500","新莊區"
"242021","347-TH","2017/09/07 20:19:27","新北市新莊區新泰路131號","121.448316666667","25.0362883333333","6500500","新莊區"
"242019","348-TH","2017/09/07 20:19:34","新北市新莊區復興路二段182號","121.458933333333","25.04431","6500500","新莊區"
"242056","349-TH","2017/09/07 20:19:31","新北市新莊區新莊路649巷15弄1號","121.4449","25.0314833333333","6500500","新莊區"
"242017","350-TH","2017/09/07 20:19:16","新北市新莊區中港一街119號","121.448561666667","25.0451733333333","6500500","新莊區"
"242011","351-TH","2017/09/07 20:19:30","新北市新莊區中信街14號","121.451073333333","25.0508316666667","6500500","新莊區"
"238023","601-UM","2017/09/07 20:19:16","新北市樹林區中山路三段210-2號","121.380781666667","24.9668316666667","6500700","樹林區"
"238021","KEA-2213","2017/09/07 20:19:14","新北市樹林區田尾街192巷7號","121.400156666667","24.9493616666667","6500700","樹林區"
"221036","130-UY","2017/09/07 20:19:19","新北市汐止區福安街61巷14號","121.664833333333","25.0637083333333","6501100","汐止區"
"221015","131-UY","2017/09/07 20:19:31","新北市汐止區建成路142巷19弄9號","121.662035","25.0737633333333","6501100","汐止區"
"221010","269-BY","2017/09/07 20:19:29","新北市汐止區八連路一段270號","121.64053","25.0848466666667","6501100","汐止區"
"221012","276-VK","2017/09/07 13:05:56","新北市汐止區汐萬路一段256巷3號","121.653453333333","25.07465","6501100","汐止區"
"221031","277-VK","2017/09/07 20:19:14","新北市汐止區原興路60巷8-1號","121.633101666667","25.0657316666667","6501100","汐止區"
"221012","278-VK","2017/09/07 20:19:33","新北市汐止區保新街283號","121.692793333333","25.0682983333333","6501100","汐止區"
"221023","279-VK","2017/09/07 20:19:17","新北市汐止區湖前街110巷2弄10號","121.631795","25.0716716666667","6501100","汐止區"
"221032","280-BY","2017/09/07 20:19:17","新北市汐止區民權街二段43號","121.61944","25.0493083333333","6501100","汐止區"
"221027","281-BY","2017/09/07 20:19:33","新北市汐止區大同路二段507號","121.66124","25.0687033333333","6501100","汐止區"
"221038","297-VK","2017/09/07 20:19:31","新北市汐止區忠孝東路497號","121.666416666667","25.0746166666667","6501100","汐止區"
"221029","298-VK","2017/09/07 20:19:30","新北市汐止區工建路66號","121.640303333333","25.0629866666667","6501100","汐止區"
"221021","299-VK","2017/09/07 20:19:23","新北市汐止區水源路一段245號","121.654245","25.0598983333333","6501100","汐止區"
"221008","358-BY","2017/09/07 20:19:24","新北市汐止區康寧街85號","121.619781666667","25.0664333333333","6501100","汐止區"
"221035","622-UM","2017/09/07 20:19:27","新北市汐止區長江街101-5號","121.658623333333","25.0731816666667","6501100","汐止區"
"221025","623-UM","2017/09/07 20:19:22","新北市汐止區水源路二段72巷6弄5號","121.655601666667","25.0553416666667","6501100","汐止區"
"221033","647-BX","2017/09/07 20:19:21","新北市汐止區東勢街201巷96號","121.63377","25.0431666666667","6501100","汐止區"
"221002","707-TV","2017/09/07 20:19:16","新北市汐止區福德二路16巷14-1號","121.635415","25.06853","6501100","汐止區"
"221018","753-BX","2017/09/07 20:19:24","新北市汐止區茄安路168號","121.675741666667","25.0690766666667","6501100","汐止區"
"220080","200-UY","2017/09/07 20:19:34","新北市板橋區大觀路一段35巷1號","121.449661666667","25.00845","6500100","板橋區"
"220097","257-TC","2017/09/07 20:19:34","新北市板橋區復興街133號","121.461095","25.01813","6500100","板橋區"
"220101","280-UM","2017/09/07 20:19:12","新北市板橋區莊敬路77號","121.47303","25.0267933333333","6500100","板橋區"
"220083","286-VK","2017/09/07 20:19:27","新北市板橋區僑中二街92巷36號","121.444346666667","25.0092","6500100","板橋區"
"220081","287-VK","2017/09/07 20:10:53","新北市板橋區僑中一街124巷18弄20號","121.446925","25.0136133333333","6500100","板橋區"
"220061","295-UM","2017/09/07 20:19:20","新北市板橋區中山路二段25號","121.47245","25.01525","6500100","板橋區"
"242001","281-VK","2017/09/07 16:04:03","新北市新莊區環河路636-7號","121.437416666667","25.0112583333333","6500500","新莊區"
"220092","307-R5","2017/09/07 20:19:27","新北市板橋區民權路99號","121.45951","25.0130983333333","6500100","板橋區"
"220064","486-VK","2017/09/07 20:19:21","新北市板橋區縣民大道一段187號","121.458605","25.0077316666667","6500100","板橋區"
"220089","487-VK","2017/09/07 20:19:19","新北市板橋區四維路212號","121.463966666667","25.0274266666667","6500100","板橋區"
"242034","280-VK","2017/09/07 20:19:31","新北市新莊區華興街12號","121.446071666667","25.0353283333333","6500500","新莊區"
"220103","561-BX","2017/09/07 20:19:29","新北市板橋區陽明街279巷2-1號","121.461845","25.0261466666667","6500100","板橋區"
"220054","741-BX","2017/09/07 20:19:27","新北市板橋區實踐路93巷24號","121.464993333333","25.0053383333333","6500100","板橋區"
"220055","827-TW","2017/09/07 20:19:17","新北市板橋區忠孝路48巷11弄16號","121.462106666667","24.99983","6500100","板橋區"
"220074","895-R6","2017/09/07 20:19:22","新北市板橋區府中路69號","121.457955","25.0094816666667","6500100","板橋區"
"220070","AAC-253","2017/09/07 20:19:33","新北市板橋區四川路二段245巷36號","121.451603333333","24.992655","6500100","板橋區"
