"lineid","car","time","location","longitude","latitude","cityid","cityname"
"232008","290-BY","2017/09/08 07:29:26","新北市坪林區魚堀8-2號","121.70973","24.9062033333333","6502000","坪林區"
"232003","291-BY","2017/09/08 07:29:34","新北市坪林區下坑子口15-1號","121.717256666667","24.9488666666667","6502000","坪林區"
"232015","705-BZ","2017/09/08 07:29:25","新北市坪林區黃舉皮寮3號","121.688945","24.938595","6502000","坪林區"
"232019","758-BX","2017/09/08 07:29:20","新北市坪林區樟空子3-2號","121.725931666667","24.9677666666667","6502000","坪林區"
"244004","657-BX","2017/09/08 07:29:21","新北市林口區頂福里73-6號","121.340393333333","25.09103","6501700","林口區"
"222005","289-BY","2017/09/08 07:29:13","新北市深坑區文化街39巷13號","121.618846666667","25.000985","6501800","深坑區"
"226005","5620-A6","2017/09/08 07:29:26","新北市平溪區嶺腳里嶺腳寮6號","121.746915","25.0295933333333","6502400","平溪區"
"226001","7418-A5","2017/09/08 07:16:56","新北市平溪區南山里南山坪4號","121.763183333333","25.0318866666667","6502400","平溪區"
"226003","AGD-0702","2017/09/08 07:29:18","新北市平溪區嶺腳里嶺腳寮13號","121.747941666667","25.0299133333333","6502400","平溪區"
"223006","022-BY","2017/09/08 07:29:29","新北市坪林區坪碇路335號","121.684086666667","24.9541433333333","6501900","石碇區"
"223002","198-BX","2017/09/08 07:29:14","新北市石碇區北宜路五段74號","121.643776666667","24.9526833333333","6501900","石碇區"
"223003","205-TH","2017/09/08 07:29:26","新北市石碇區烏塗窟9號","121.655571666667","24.9749466666667","6501900","石碇區"
"223008","406-TH","2017/09/08 07:23:37","新北市石碇區靜安路一段337號","121.69871","25.0145233333333","6501900","石碇區"
"223001","592-UM","2017/09/08 07:29:23","新北市石碇區烏塗窟9號","121.655615","24.9749216666667","6501900","石碇區"
"223004","660-BX","2017/09/08 07:29:22","新北市石碇區新興坑31號","121.6477","25.0161783333333","6501900","石碇區"
"223007","661-BX","2017/09/08 07:29:15","新北市石碇區大溪墘9-1號","121.697976666667","25.0083466666667","6501900","石碇區"
"223005","677-TV","2017/09/08 07:29:32","新北市石碇區新興坑31號","121.647571666667","25.0159616666667","6501900","石碇區"
"227005","282-VK","2017/09/08 07:29:25","新北市雙溪區新基里自強路5號","121.866356666667","25.039075","6502500","雙溪區"
"237001","159-UY","2017/09/08 07:29:15","新北市三峽區大義路398號","121.37616","24.9492933333333","6500900","三峽區"
"236004","339-SR","2017/09/08 07:29:30","新北市土城區承天路114號","121.45172","24.9497583333333","6501300","土城區"
"220082","282-UM","2017/09/08 07:13:45","新北市板橋區國光路53號","121.458185","25.0180266666667","6500100","板橋區"
