"lineid","car","time","location","longitude","latitude","cityid","cityname"
"232007","290-BY","2017/06/22 07:49:24","新北市坪林區九芎林32號","121.702625","24.9214766666667","6502000","坪林區"
"232001","291-BY","2017/06/22 08:29:16","新北市坪林區坪林街16-1號","121.712556666667","24.9364533333333","6502000","坪林區"
"232014","705-BZ","2017/06/22 08:29:21","新北市坪林區北宜路八段6號","121.701203333333","24.9358083333333","6502000","坪林區"
"232018","758-BX","2017/06/22 07:45:40","新北市坪林區坪雙路一段31號","121.711696666667","24.9424266666667","6502000","坪林區"
"244012","069-UM","2017/06/22 08:29:23","新北市林口區中山路153號","121.386746666667","25.0792183333333","6501700","林口區"
"244006","080-UY","2017/06/22 08:29:24","新北市林口區中華路225號","121.385401666667","25.089865","6501700","林口區"
"244003","248-BX","2017/06/22 08:29:22","新北市林口區下福里80號","121.309073333333","25.1165216666667","6501700","林口區"
"244018","403-UM","2017/06/22 08:29:07","新北市林口區公園路146號","121.37147","25.07183","6501700","林口區"
"244022","483-VK","2017/06/22 08:29:18","新北市林口區東明一街121巷11號","121.390073333333","25.0701916666667","6501700","林口區"
"244016","485-VK","2017/06/22 08:29:22","新北市林口區忠孝路468號","121.36987","25.0709616666667","6501700","林口區"
"244008","656-BX","2017/06/22 08:29:07","新北市林口區文化一路二段199號","121.383758333333","25.08241","6501700","林口區"
"244020","657-BX","2017/06/22 08:29:07","新北市林口區自強一街25號","121.398405","25.078275","6501700","林口區"
"244010","701-TV","2017/06/22 08:29:15","新北市林口區中正路160號","121.392305","25.0774233333333","6501700","林口區"
"244024","837-TS","2017/06/22 08:29:17","新北市林口區八德路318號","121.360271666667","25.0668","6501700","林口區"
"243002","548-UM","2017/06/22 08:29:18","新北市泰山區泰林路三段28巷8號","121.418763333333","25.0652783333333","6501600","泰山區"
"222006","289-BY","2017/06/22 08:29:22","新北市深坑區深南路51-1號","121.621475","25.01016","6501800","深坑區"
"231008","188-VK","2017/06/22 08:29:13","新北市新店區新烏路一段58-2號","121.54606","24.947155","6500600","新店區"
"231007","260-TV","2017/06/22 08:29:21","新北市新店區北宜路三段282號","121.603716666667","24.954675","6500600","新店區"
"220020","015-TV","2017/06/22 08:29:26","新北市樹林區八德街437-1號","121.405385","24.9693433333333","6500100","板橋區"
"247002","402-BY","2017/06/22 08:29:21","新北市蘆洲區復興路323巷17號","121.482408333333","25.092525","6501400","蘆洲區"
"226005","5620-A6","2017/06/22 08:29:07","新北市平溪區南山里六分3號","121.79316","25.0488483333333","6502400","平溪區"
"226002","7418-A5","2017/06/22 08:29:23","新北市平溪區東勢里芊蓁坑22號","121.735635","24.984275","6502400","平溪區"
"226003","AGD-0702","2017/06/22 08:29:18","新北市平溪區十分里十分街45號","121.774443333333","25.0407666666667","6502400","平溪區"
"223006","022-BY","2017/06/22 08:29:13","新北市深坑區昇高坑路51-1號","121.630073333333","24.9939883333333","6501900","石碇區"
"223002","198-BX","2017/06/22 08:28:52","新北市石碇區北宜路五段80號","121.646553333333","24.9517883333333","6501900","石碇區"
"223003","205-TH","2017/06/22 08:29:06","新北市石碇區北宜路六段塗潭巷27號","121.64911","24.932625","6501900","石碇區"
"223001","592-UM","2017/06/22 08:29:25","新北市石碇區北宜路六段塗潭巷3號","121.645743333333","24.9378033333333","6501900","石碇區"
"223004","660-BX","2017/06/22 08:29:11","新北市石碇區八分寮31-3號","121.643026666667","25.01202","6501900","石碇區"
"223007","661-BX","2017/06/22 08:29:13","新北市石碇區靜安路一段197號","121.672696666667","25.00825","6501900","石碇區"
"223005","677-TV","2017/06/22 08:29:11","新北市石碇區八分寮31-1號","121.642835","25.0119683333333","6501900","石碇區"
"253003","6232-TK","2017/06/22 08:29:15","新北市石門區內石門50-2號","121.572585","25.2623416666667","6502200","石門區"
"253001","6251-TK","2017/06/22 08:29:18","新北市石門區下員坑33-6號","121.518946666667","25.28327","6502200","石門區"
"253002","637-UY","2017/06/22 08:29:09","新北市石門區豬槽潭2號","121.556108333333","25.26636","6502200","石門區"
"253004","8270-PC","2017/06/22 08:29:25","新北市石門區竹子湖11號","121.617998333333","25.2586566666667","6502200","石門區"
"252004","249-BX","2017/06/22 08:29:07","新北市三芝區興華里田心子5號","121.50191","25.2036533333333","6502100","三芝區"
"252007","AAC-283","2017/06/22 00:09:37","新北市三芝區埔坪里埔頭坑41號","121.504506666667","25.2644366666667","6502100","三芝區"
"237001","159-UY","2017/06/22 08:29:11","新北市三峽區學成路286號","121.376893333333","24.9434883333333","6500900","三峽區"
"236009","165-UM","2017/06/22 08:29:24","新北市土城區石門路54號","121.457486666667","24.9596333333333","6501300","土城區"
"236003","339-SR","2017/06/22 08:29:16","新北市土城區中州路76號","121.41206","24.9583616666667","6501300","土城區"
"236005","498-BY","2017/06/22 08:29:07","新北市土城區大暖路30號","121.423418333333","24.9596733333333","6501300","土城區"
"242020","AAC-296","2017/06/22 08:29:14","新北市新莊區建興街12號","121.450136666667","25.0367383333333","6500500","新莊區"
"242028","986-R7","2017/06/22 08:29:22","新北市新莊區中平路124號","121.444873333333","25.0465366666667","6500500","新莊區"
"242047","751-BX","2017/06/22 08:29:17","新北市新莊區萬安街5號","121.421733333333","25.0249383333333","6500500","新莊區"
"242024","615-BX","2017/06/22 08:29:18","新北市新莊區五工路40號","121.46036","25.0630883333333","6500500","新莊區"
"242022","613-BX","2017/06/22 08:29:12","新北市新莊區幸福路1號","121.459688333333","25.049485","6500500","新莊區"
"242026","612-BX","2017/06/22 08:29:13","新北市新莊區福壽街76號","121.45829","25.049475","6500500","新莊區"
"242035","566-BX","2017/06/22 08:29:26","新北市新莊區建福路67號","121.426858333333","25.0270233333333","6500500","新莊區"
"242040","497-BY","2017/06/22 08:29:08","新北市新莊區天祥街135巷21弄17號","121.413956666667","25.0290616666667","6500500","新莊區"
"242003","442-UM","2017/06/22 08:29:10","新北市新莊區思源路177巷48號","121.459258333333","25.0466783333333","6500500","新莊區"
"242045","441-UM","2017/06/22 08:29:22","新北市新莊區福營路165巷2-1號","121.432016666667","25.0309466666667","6500500","新莊區"
"242049","440-UM","2017/06/22 08:29:08","新北市新莊區民本街11巷22號","121.428765","25.0202983333333","6500500","新莊區"
"242030","415-TV","2017/06/22 08:29:19","新北市新莊區新泰路277巷17號","121.445071666667","25.0402966666667","6500500","新莊區"
"242001","413-TV","2017/06/22 08:29:21","新北市新莊區新莊路2號","121.459405","25.0379516666667","6500500","新莊區"
"242038","400-BY","2017/06/22 08:29:17","新北市新莊區民安東路145號","121.431918333333","25.0206166666667","6500500","新莊區"
"242059","362-BY","2017/06/22 08:29:21","新北市新莊區新樹路172-13號","121.434601666667","25.02161","6500500","新莊區"
"242057","353-BY","2017/06/22 08:29:18","新北市新莊區壽山路160巷21號","121.417458333333","25.0319366666667","6500500","新莊區"
"242010","132-UY","2017/06/22 08:29:22","新北市新莊區中榮街56巷8弄1號","121.449233333333","25.0534183333333","6500500","新莊區"
"242018","135-UY","2017/06/22 08:29:23","新北市新莊區民樂街20巷2號","121.457771666667","25.0402183333333","6500500","新莊區"
"242043","172-VK","2017/06/22 08:29:11","新北市新莊區雙鳳路110號","121.413603333333","25.028115","6500500","新莊區"
"242006","173-VK","2017/06/22 08:29:23","新北市新莊區自強街37巷14弄5號","121.453838333333","25.04679","6500500","新莊區"
"242012","175-VK","2017/06/22 08:29:09","新北市新莊區中和街81號","121.447446666667","25.047615","6500500","新莊區"
"242055","176-VK","2017/06/22 08:29:09","新北市新莊區豐年街豐2巷21號","121.447395","25.0308933333333","6500500","新莊區"
"242033","347-TH","2017/06/22 08:29:22","新北市新莊區福海街24巷7號","121.445778333333","25.0342033333333","6500500","新莊區"
"242016","348-TH","2017/06/22 08:29:23","新北市新莊區永樂街104號","121.45018","25.0448716666667","6500500","新莊區"
"242052","349-TH","2017/06/22 08:29:22","新北市新莊區民安西路468-1號","121.431691666667","25.0079483333333","6500500","新莊區"
"242014","350-TH","2017/06/22 08:29:13","新北市新莊區中和街59巷10弄14號","121.44692","25.04721","6500500","新莊區"
"242008","351-TH","2017/06/22 08:29:10","新北市新莊區昌平街71巷17號","121.453606666667","25.0534333333333","6500500","新莊區"
