"lineid","car","time","location","longitude","latitude","cityid","cityname"
"222006","289-BY","2017/06/22 10:29:22","新北市深坑區王軍寮1-2號","121.617406666667","24.9888116666667","6501800","深坑區"
"231008","188-VK","2017/06/22 10:27:32","新北市新店區平廣路一段140-1號","121.52423","24.890845","6500600","新店區"
"231007","260-TV","2017/06/22 10:29:21","新北市新店區北宜路一段40號","121.538335","24.956615","6500600","新店區"
"220002","AAD-861","2017/06/22 10:29:03","新北市五股區新五路二段111號","121.437188333333","25.0769466666667","6500100","板橋區"
"247002","402-BY","2017/06/22 10:26:46","新北市五股區中興路三段3-6號","121.449758333333","25.0788216666667","6501400","蘆洲區"
"253003","6232-TK","2017/06/22 10:29:15","新北市石門區小坑9號","121.594581666667","25.287075","6502200","石門區"
"253001","6251-TK","2017/06/22 10:29:18","新北市石門區中央路37-2號","121.56854","25.2947216666667","6502200","石門區"
"253002","637-UY","2017/06/22 10:29:09","新北市石門區小坑9號","121.594678333333","25.286805","6502200","石門區"
"253004","8270-PC","2017/06/22 10:29:26","新北市石門區小坑9號","121.594681666667","25.286935","6502200","石門區"
