"lineid","car","time","location","longitude","latitude","cityid","cityname"
"222006","289-BY","2017/06/22 10:49:22","新北市深坑區公館後13號","121.602301666667","24.9925883333333","6501800","深坑區"
"231008","188-VK","2017/06/22 10:44:13","新北市新店區小坑一路35巷1號","121.529035","24.9096016666667","6500600","新店區"
"231007","260-TV","2017/06/22 10:49:21","新北市新店區薏仁坑路自強巷6號","121.49641","24.9584566666667","6500600","新店區"
"220002","AAD-861","2017/06/22 10:49:23","新北市五股區新五路二段119號","121.437151666667","25.0772783333333","6500100","板橋區"
"247002","402-BY","2017/06/22 10:26:46","新北市五股區中興路三段3-6號","121.449758333333","25.0788216666667","6501400","蘆洲區"
"253003","6232-TK","2017/06/22 10:49:15","新北市石門區小坑9號","121.594431666667","25.289115","6502200","石門區"
"253001","6251-TK","2017/06/22 10:49:18","新北市石門區小坑9號","121.594461666667","25.28913","6502200","石門區"
