"lineid","car","time","location","longitude","latitude","cityid","cityname"
"222006","289-BY","2017/06/22 11:09:22","新北市深坑區深坑街75號","121.614711666667","25.0012216666667","6501800","深坑區"
"231008","188-VK","2017/06/22 11:09:13","新北市新店區廣興路101-1號","121.537113333333","24.9122616666667","6500600","新店區"
"220002","AAD-861","2017/06/22 11:09:09","新北市五股區新五路二段119號","121.437215","25.0772033333333","6500100","板橋區"
"247002","402-BY","2017/06/22 10:26:46","新北市五股區中興路三段3-6號","121.449758333333","25.0788216666667","6501400","蘆洲區"
"253003","6232-TK","2017/06/22 11:09:15","新北市石門區小坑9號","121.59442","25.2891716666667","6502200","石門區"
"253001","6251-TK","2017/06/22 11:09:18","新北市石門區小坑9號","121.594371666667","25.2884266666667","6502200","石門區"
"242047","751-BX","2017/06/22 11:05:21","新北市新莊區新泰路357巷3弄57號","121.442038333333","25.0391616666667","6500500","新莊區"
