"lineid","car","time","location","longitude","latitude","cityid","cityname"
"231008","188-VK","2017/06/22 11:26:53","新北市新店區成功路45-1號","121.53918","24.9000083333333","6500600","新店區"
"220002","AAD-861","2017/06/22 11:25:05","新北市五股區新五路二段119號","121.437093333333","25.07726","6500100","板橋區"
"247002","402-BY","2017/06/22 10:26:46","新北市五股區中興路三段3-6號","121.449758333333","25.0788216666667","6501400","蘆洲區"
"253003","6232-TK","2017/06/22 11:29:15","新北市石門區小坑12-8號","121.595343333333","25.2849883333333","6502200","石門區"
"253001","6251-TK","2017/06/22 11:29:18","新北市石門區小坑12-8號","121.595081666667","25.2853083333333","6502200","石門區"
"242047","751-BX","2017/06/22 11:05:21","新北市新莊區新泰路357巷3弄57號","121.442038333333","25.0391616666667","6500500","新莊區"
