"lineid","car","time","location","longitude","latitude","cityid","cityname"
"231008","188-VK","2017/06/22 11:29:53","新北市新店區成功路116號","121.536188333333","24.8943283333333","6500600","新店區"
"220002","AAD-861","2017/06/22 11:25:05","新北市五股區新五路二段119號","121.437093333333","25.07726","6500100","板橋區"
"247002","402-BY","2017/06/22 10:26:46","新北市五股區中興路三段3-6號","121.449758333333","25.0788216666667","6501400","蘆洲區"
"228004","212-TW","2017/06/22 11:39:06","新北市貢寮區貢寮里朝陽街1-2號","121.9122","25.0212433333333","6502600","貢寮區"
"253003","6232-TK","2017/06/22 11:39:22","新北市石門區中山路64-1號","121.567523333333","25.290425","6502200","石門區"
"253001","6251-TK","2017/06/22 11:39:18","新北市石門區中山路64-1號","121.567401666667","25.2903166666667","6502200","石門區"
"242047","751-BX","2017/06/22 11:05:21","新北市新莊區新泰路357巷3弄57號","121.442038333333","25.0391616666667","6500500","新莊區"
