"lineid","car","time","location","longitude","latitude","cityid","cityname"
"234012","149-BY","2017/06/22 12:19:06","新北市永和區福和路1號","121.526395","25.0098166666667","6500400","永和區"
"234068","552-UM","2017/06/22 12:19:05","新北市永和區福和路1號","121.52589","25.0096716666667","6500400","永和區"
"234010","9373-KE","2017/06/22 02:01:12","新北市永和區福和路1號","121.525578333333","25.0089366666667","6500400","永和區"
"234076","969-R7","2017/06/22 12:19:23","新北市永和區福和路1號","121.526531666667","25.0100516666667","6500400","永和區"
"243007","380-SR","2017/06/22 11:59:25","新北市泰山區黎明路6-1號","121.421065","25.06172","6501600","泰山區"
"231008","188-VK","2017/06/22 11:29:53","新北市新店區成功路116號","121.536188333333","24.8943283333333","6500600","新店區"
"231007","189-VK","2017/06/22 11:55:11","新北市新店區安華路28-1號","121.519691666667","24.9610933333333","6500600","新店區"
"220002","AAD-861","2017/06/22 12:19:04","新北市板橋區華東街300號","121.452786666667","25.0027666666667","6500100","板橋區"
"247002","402-BY","2017/06/22 10:26:46","新北市五股區中興路三段3-6號","121.449758333333","25.0788216666667","6501400","蘆洲區"
"228005","097-TW","2017/06/22 12:19:09","新北市貢寮區福連里馬崗街1號","121.998035","25.0159166666667","6502600","貢寮區"
"228004","212-TW","2017/06/22 12:19:06","新北市貢寮區貢寮里長泰路17-2號","121.893098333333","25.0207516666667","6502600","貢寮區"
"207002","749-BX","2017/06/22 12:19:14","新北市萬里區中幅里大湖路3號","121.662048333333","25.1710883333333","6502800","萬里區"
"242047","751-BX","2017/06/22 11:05:21","新北市新莊區新泰路357巷3弄57號","121.442038333333","25.0391616666667","6500500","新莊區"
"221010","276-VK","2017/06/22 12:19:11","新北市汐止區中正路253號","121.657351666667","25.0685533333333","6501100","汐止區"
"221002","753-BX","2017/06/22 12:19:20","新北市汐止區汐萬路一段256巷3號","121.652133333333","25.074885","6501100","汐止區"
"242054","280-VK","2017/06/22 11:52:51","新北市新莊區環河路636-7號","121.437261666667","25.011255","6500500","新莊區"
