"lineid","car","time","location","longitude","latitude","cityid","cityname"
"234044","148-BY","2017/06/22 13:09:06","新北市永和區永元路20號","121.522343333333","25.0004183333333","6500400","永和區"
"234012","149-BY","2017/06/22 13:09:06","新北市永和區保福路二段85號","121.510596666667","25.01284","6500400","永和區"
"234005","207-UY","2017/06/22 13:09:16","新北市永和區中山路一段225號","121.508063333333","25.007855","6500400","永和區"
"234078","298-R6","2017/06/22 13:09:06","新北市永和區福和路57巷14弄1號","121.522738333333","25.0069633333333","6500400","永和區"
"234036","336-UY","2017/06/22 13:09:21","新北市永和區民樂街59巷18號","121.528058333333","24.998255","6500400","永和區"
"234062","337-UY","2017/06/22 13:09:17","新北市永和區秀朗路二段36號","121.521206666667","25.00238","6500400","永和區"
"234084","338-UY","2017/06/22 13:09:11","新北市永和區中正路498號","121.517433333333","25.004165","6500400","永和區"
"234068","552-UM","2017/06/22 13:09:05","新北市永和區豫溪街74巷7弄9號","121.517741666667","25.0098766666667","6500400","永和區"
"234052","553-UM","2017/06/22 13:09:03","新北市永和區中興街133巷12號","121.518471666667","25.01262","6500400","永和區"
"234015","745-BX","2017/06/22 13:09:09","新北市永和區文化路90巷9弄2號","121.513845","25.0158066666667","6500400","永和區"
"234028","746-BX","2017/06/22 13:09:18","新北市永和區厚德街101號","121.5233","24.9989283333333","6500400","永和區"
"234060","AAD-866","2017/06/22 13:09:18","新北市永和區安樂路304巷8號","121.514625","25.0051133333333","6500400","永和區"
"234040","862-TW","2017/06/22 13:09:22","新北市永和區永和路一段49巷3弄51號","121.512051666667","25.00626","6500400","永和區"
"234048","863-TW","2017/06/22 13:09:19","新北市永和區文化路135巷30號","121.510775","25.0141516666667","6500400","永和區"
"234025","9371-KE","2017/06/22 13:09:12","新北市永和區秀朗路一段10巷19號","121.513541666667","25.006205","6500400","永和區"
"234010","9373-KE","2017/06/22 13:09:09","新北市永和區文化路128號","121.512985","25.0153766666667","6500400","永和區"
"248015","026-BX","2017/06/22 13:09:13","新北市五股區成泰路三段221巷3號","121.445931666667","25.093205","6501500","五股區"
"248005","077-UY","2017/06/22 13:09:21","新北市五股區中興路二段81號","121.460786666667","25.07719","6501500","五股區"
"248007","095-VK","2017/06/22 13:09:19","新北市五股區更洲路32巷15弄9號","121.458178333333","25.0804766666667","6501500","五股區"
"248017","225-UY","2017/06/22 13:09:10","新北市五股區中興路三段196號","121.441948333333","25.081915","6501500","五股區"
"248011","247-BX","2017/06/22 13:09:19","新北市五股區新五路二段258號","121.440836666667","25.082435","6501500","五股區"
"248013","261-SL","2017/06/22 13:09:09","新北市五股區中興路四段54號","121.43789","25.083","6501500","五股區"
"248009","272-BY","2017/06/22 13:09:20","新北市五股區中興路四段17號","121.440413333333","25.0822016666667","6501500","五股區"
"248003","677-BX","2017/06/22 13:09:21","新北市五股區成泰路二段156號","121.438363333333","25.0842333333333","6501500","五股區"
"248001","678-BX","2017/06/22 13:09:12","新北市五股區工商路8號","121.440753333333","25.082415","6501500","五股區"
"234022","9380-KE","2017/06/22 13:09:14","新北市永和區竹林路124巷41號","121.518183333333","25.01117","6500400","永和區"
"234076","969-R7","2017/06/22 13:09:23","新北市永和區民光街2號","121.515201666667","24.9963166666667","6500400","永和區"
"234072","AAC-211","2017/06/22 13:09:20","新北市永和區竹林路160號","121.520281666667","25.010575","6500400","永和區"
"234066","AAC-212","2017/06/22 13:09:10","新北市永和區保平路39號","121.512075","25.0072216666667","6500400","永和區"
"234001","AAC-295","2017/06/22 13:07:49","新北市永和區中山路一段149號","121.510091666667","25.00949","6500400","永和區"
"244003","248-BX","2017/06/22 13:09:14","新北市林口區湖南里70-9號","121.376063333333","25.0898266666667","6501700","林口區"
"243007","380-SR","2017/06/22 11:59:25","新北市泰山區黎明路6-1號","121.421065","25.06172","6501600","泰山區"
"231002","002-UM","2017/06/22 13:09:18","新北市新店區安華路28-1號","121.519551666667","24.9608683333333","6500600","新店區"
"231025","0291-UT","2017/06/22 13:09:10","新北市新店區安華路1-1號","121.519326666667","24.9605533333333","6500600","新店區"
"231030","047-UY","2017/06/22 13:09:04","新北市新店區安華路28-1號","121.519261666667","24.9608283333333","6500600","新店區"
"231029","106-UY","2017/06/22 13:09:21","新北市新店區安華路28-1號","121.519596666667","24.96083","6500600","新店區"
"231018","107-UY","2017/06/22 13:09:23","新北市新店區安華路1-1號","121.519666666667","24.9598916666667","6500600","新店區"
"231011","108-UY","2017/06/22 13:09:06","新北市新店區安華路28-1號","121.519473333333","24.96113","6500600","新店區"
"231021","187-VK","2017/06/22 13:09:14","新北市新店區安華路28-1號","121.5196","24.961295","6500600","新店區"
"231008","188-VK","2017/06/22 13:09:13","新北市新店區頂石厝路44-1號","121.53615","24.9176","6500600","新店區"
"231007","189-VK","2017/06/22 11:55:11","新北市新店區安華路28-1號","121.519691666667","24.9610933333333","6500600","新店區"
"231026","256-BX","2017/06/22 13:09:02","新北市新店區安華路28-1號","121.51972","24.96108","6500600","新店區"
"231010","278-BY","2017/06/22 13:09:03","新北市新店區安華路28-1號","121.519575","24.96114","6500600","新店區"
"231017","AAD-862","2017/06/22 13:09:19","新北市新店區安華路28-1號","121.519725","24.9612133333333","6500600","新店區"
"231027","3712-VJ","2017/06/22 13:09:24","新北市新店區安華路28-1號","121.519386666667","24.960715","6500600","新店區"
"231024","3713-VJ","2017/06/22 13:09:17","新北市新店區安華路28-1號","121.519313333333","24.9606666666667","6500600","新店區"
"231038","4715-K9","2017/06/22 13:09:17","新北市新店區安華路28-1號","121.519465","24.9606116666667","6500600","新店區"
"231036","512-UM","2017/06/22 08:19:55","新北市新店區安華路3號","121.519301666667","24.959735","6500600","新店區"
"231023","513-UM","2017/06/22 13:09:22","新北市新店區安華路28-1號","121.519596666667","24.9610983333333","6500600","新店區"
"231035","515-UM","2017/06/22 13:09:19","新北市新店區安華路28-1號","121.51964","24.96123","6500600","新店區"
"231003","616-UM","2017/06/22 13:09:17","新北市新店區安華路28-1號","121.519416666667","24.9605733333333","6500600","新店區"
"231001","619-UM","2017/06/22 13:09:12","新北市新店區安華路28-1號","121.519541666667","24.9608333333333","6500600","新店區"
"231034","645-TV","2017/06/22 13:09:15","新北市新店區安華路28-1號","121.519391666667","24.9606833333333","6500600","新店區"
"231013","719-UM","2017/06/22 13:09:04","新北市新店區安華路28-1號","121.519521666667","24.9610916666667","6500600","新店區"
"231031","720-UM","2017/06/22 13:09:07","新北市新店區安康路一段355-3號","121.519501666667","24.961505","6500600","新店區"
"231005","897-TW","2017/06/22 13:09:18","新北市新店區安華路28-1號","121.519585","24.9608383333333","6500600","新店區"
"231006","898-TW","2017/06/22 13:09:23","新北市新店區安華路28-1號","121.519451666667","24.9609783333333","6500600","新店區"
"231004","899-TW","2017/06/22 13:09:16","新北市新店區安華路28-1號","121.519423333333","24.9609416666667","6500600","新店區"
"231037","AKT-0513","2017/06/22 13:09:22","新北市新店區安華路28-1號","121.519508333333","24.960525","6500600","新店區"
"235030","003-UY","2017/06/22 13:09:07","新北市中和區南山路41號","121.502055","24.9985866666667","6500300","中和區"
"235028","005-UY","2017/06/22 13:09:09","新北市中和區中正路277號","121.495221666667","24.9937616666667","6500300","中和區"
"235027","006-UY","2017/06/22 13:09:11","新北市中和區員山路36巷16-3號","121.485106666667","24.9913483333333","6500300","中和區"
"235003","097-UM","2017/06/22 13:09:11","新北市中和區中正路1號","121.503243333333","24.9934983333333","6500300","中和區"
"235029","098-UM","2017/06/22 13:09:19","新北市中和區橋和路271巷4號","121.495835","25.00681","6500300","中和區"
"235022","151-BY","2017/06/22 13:09:09","新北市中和區圓通路367巷33弄8號","121.494223333333","24.9853066666667","6500300","中和區"
"235019","183-VK","2017/06/22 13:09:06","新北市中和區員山路36巷16-3號","121.485101666667","24.991345","6500300","中和區"
"235002","185-VK","2017/06/22 13:09:20","新北市中和區大仁街44號","121.518378333333","24.9938333333333","6500300","中和區"
"235031","255-BX","2017/06/22 13:09:09","新北市中和區中正路751巷14弄13號","121.484068333333","25.000205","6500300","中和區"
"235036","301-VK","2017/06/22 13:09:08","新北市中和區員山路36巷13號","121.48399","24.9910433333333","6500300","中和區"
"235004","375-QA","2017/06/22 13:09:17","新北市中和區景平路353號","121.504818333333","24.9933566666667","6500300","中和區"
"235015","376-QA","2017/06/22 13:09:16","新北市中和區中正路273-3號","121.495666666667","24.9935016666667","6500300","中和區"
"235032","377-QA","2017/06/22 13:09:20","新北市中和區員山路36巷16-3號","121.484988333333","24.99154","6500300","中和區"
"235025","378-QA","2017/06/22 13:09:19","新北市中和區連城路583巷15號","121.479286666667","24.9934366666667","6500300","中和區"
"235014","4979-A6","2017/06/22 01:05:06","新北市中和區員山路36巷13號","121.484396666667","24.9910916666667","6500300","中和區"
"235033","4980-A6","2017/06/22 13:09:03","新北市中和區錦和路203巷9號","121.491261666667","24.9905183333333","6500300","中和區"
"235006","551-UM","2017/06/22 13:09:20","新北市中和區景平路159巷60號","121.512963333333","24.9911","6500300","中和區"
"235034","558-UM","2017/06/22 13:09:02","新北市中和區員山路36巷16-2號","121.485193333333","24.9914383333333","6500300","中和區"
"235011","732-UM","2017/06/22 13:09:09","新北市中和區員山路36巷13號","121.484178333333","24.99108","6500300","中和區"
"235010","733-UM","2017/06/22 13:09:19","新北市中和區員山路36巷13號","121.484195","24.9908483333333","6500300","中和區"
"235035","783-BX","2017/06/22 13:09:05","新北市中和區板南路520巷15號","121.483768333333","25.0090583333333","6500300","中和區"
"235026","800-TS","2017/06/22 13:09:08","新北市中和區錦和路47號","121.488165","25.0000416666667","6500300","中和區"
"235005","802-TS","2017/06/22 13:09:19","新北市中和區錦和路350-1號","121.490458333333","24.9935933333333","6500300","中和區"
"235016","805-TS","2017/06/22 13:09:09","新北市中和區和城路一段271巷1號","121.485481666667","24.991585","6500300","中和區"
"235004","157-BY","2017/06/22 13:09:19","新北市中和區中正路545巷1號","121.48737","24.9935716666667","6500300","中和區"
"235001","AAC-213","2017/06/22 13:09:09","新北市中和區中正路273號","121.495636666667","24.9937716666667","6500300","中和區"
"235023","AAC-215","2017/06/22 13:09:01","新北市中和區員山路36巷16-3號","121.485108333333","24.9913833333333","6500300","中和區"
"220013","072-UY","2017/06/22 13:09:05","新北市板橋區民生路二段22號","121.472893333333","25.0165933333333","6500100","板橋區"
"220002","AAD-861","2017/06/22 12:29:53","新北市板橋區民生路二段36-1號","121.472656666667","25.016775","6500100","板橋區"
"247002","402-BY","2017/06/22 13:09:18","新北市五股區中興路二段182巷3號","121.45561","25.0780466666667","6501400","蘆洲區"
"228005","097-TW","2017/06/22 13:09:09","新北市貢寮區仁理村研海街62-2號","121.925663333333","25.0451133333333","6502600","貢寮區"
"228004","212-TW","2017/06/22 13:09:06","新北市貢寮區吉林里內寮街65-2號","121.891781666667","24.97686","6502600","貢寮區"
"208004","AAC-292","2017/06/22 13:09:12","新北市金山區中山路186號","121.638013333333","25.221315","6502700","金山區"
"207002","749-BX","2017/06/22 13:07:34","新北市萬里區溪底里香員林路15-2號","121.633513333333","25.1632133333333","6502800","萬里區"
"207001","463-BY","2017/06/22 13:09:06","新北市萬里區萬里里瑪鋉路121號","121.688986666667","25.1780566666667","6502800","萬里區"
"252004","249-BX","2017/06/22 13:09:13","新北市三芝區錫板里南勢崗2號","121.48112","25.2633566666667","6502100","三芝區"
"252005","702-TV","2017/06/22 13:09:09","新北市三芝區埔坪里埔頭坑41號","121.504518333333","25.2644883333333","6502100","三芝區"
"236005","498-BY","2017/06/22 13:09:15","新北市土城區亞洲路58巷5弄21號","121.434016666667","24.9733533333333","6501300","土城區"
"242047","751-BX","2017/06/22 11:05:21","新北市新莊區新泰路357巷3弄57號","121.442038333333","25.0391616666667","6500500","新莊區"
"238020","308-TH","2017/06/22 13:09:17","新北市樹林區東豐街49巷22弄3號","121.4149","24.9746733333333","6500700","樹林區"
"221010","276-VK","2017/06/22 13:09:11","新北市汐止區汐萬路一段256巷3號","121.653316666667","25.0746633333333","6501100","汐止區"
"221032","280-BY","2017/06/22 13:09:13","新北市汐止區連興街62號","121.654183333333","25.063345","6501100","汐止區"
"221002","753-BX","2017/06/22 13:09:20","新北市汐止區福德一路342巷1弄10號","121.62896","25.0633016666667","6501100","汐止區"
"220030","610-BX","2017/06/22 13:09:14","新北市板橋區華東街1-9號","121.448218333333","24.9949666666667","6500100","板橋區"
"220004","276-BY","2017/06/22 13:09:15","新北市板橋區中山路二段89巷5弄5-2號","121.47332","25.0167883333333","6500100","板橋區"
"220002","741-BX","2017/06/22 13:09:20","新北市板橋區民生路二段15-1號","121.472718333333","25.01643","6500100","板橋區"
