"lineid","car","time","location","longitude","latitude","cityid","cityname"
"234044","148-BY","2017/06/22 13:49:06","新北市永和區永利路183號","121.526156666667","25.0034116666667","6500400","永和區"
"234012","149-BY","2017/06/22 13:48:50","新北市永和區永平路280號","121.50789","25.011685","6500400","永和區"
"234005","207-UY","2017/06/22 13:49:16","新北市中和區中和路464號","121.51232","25.0039183333333","6500400","永和區"
"234078","298-R6","2017/06/22 13:49:06","新北市永和區永亨路100號","121.523136666667","25.0048633333333","6500400","永和區"
"234036","336-UY","2017/06/22 13:49:13","新北市永和區成功路二段165號","121.526681666667","24.9971666666667","6500400","永和區"
"234062","337-UY","2017/06/22 13:49:17","新北市永和區中正路368巷53號","121.519158333333","25.0007416666667","6500400","永和區"
"234084","338-UY","2017/06/22 13:49:11","新北市永和區永亨路165巷1-4號","121.526133333333","25.0041966666667","6500400","永和區"
"234068","552-UM","2017/06/22 13:49:05","新北市永和區國光路16號","121.518975","25.0083283333333","6500400","永和區"
"234052","553-UM","2017/06/22 13:49:20","新北市永和區竹林路75巷25弄6號","121.520218333333","25.0143583333333","6500400","永和區"
"234015","745-BX","2017/06/22 13:49:08","新北市永和區文化路9巷2號","121.515286666667","25.01498","6500400","永和區"
"234028","746-BX","2017/06/22 13:49:17","新北市永和區民生路47巷16號","121.52383","24.997565","6500400","永和區"
"234060","AAD-866","2017/06/22 13:49:18","新北市永和區中正路102號","121.51437","24.9957616666667","6500400","永和區"
"234064","847-RS","2017/06/22 13:49:21","新北市三峽區復興路489號","121.361228333333","24.9390516666667","6500400","永和區"
"234040","862-TW","2017/06/22 13:49:21","新北市永和區中和路389巷25號","121.50804","25.001315","6500400","永和區"
"234048","863-TW","2017/06/22 13:49:19","新北市永和區保福路二段163巷14號","121.508815","25.014725","6500400","永和區"
"234010","9373-KE","2017/06/22 13:49:09","新北市永和區保福路二段159巷2號","121.509021666667","25.0146466666667","6500400","永和區"
"248015","026-BX","2017/06/22 13:49:13","新北市五股區凌雲路一段135號","121.449513333333","25.102035","6501500","五股區"
"248007","095-VK","2017/06/22 13:49:19","新北市五股區中興路一段151巷35號","121.465191666667","25.0721616666667","6501500","五股區"
"248017","225-UY","2017/06/22 13:49:10","新北市五股區民義路二段48巷5-10號","121.413985","25.10329","6501500","五股區"
"248011","247-BX","2017/06/22 13:49:18","新北市五股區成泰路二段195巷1號","121.440508333333","25.0874316666667","6501500","五股區"
"248013","261-SL","2017/06/22 13:49:09","新北市五股區民義路一段107巷23號","121.43214","25.0845133333333","6501500","五股區"
"248009","272-BY","2017/06/22 13:49:20","新北市五股區水碓七路30號","121.428998333333","25.071555","6501500","五股區"
"248003","677-BX","2017/06/22 13:49:16","新北市五股區民義路二段73號","121.409036666667","25.1055766666667","6501500","五股區"
"248001","678-BX","2017/06/22 13:49:12","新北市五股區成泰路三段454號","121.45142","25.10037","6501500","五股區"
"234022","9380-KE","2017/06/22 13:49:14","新北市永和區中正路664號","121.516783333333","25.0088633333333","6500400","永和區"
"234076","969-R7","2017/06/22 13:49:23","新北市永和區民族街27巷11號","121.519438333333","24.9995366666667","6500400","永和區"
"234072","AAC-211","2017/06/22 13:49:20","新北市永和區豫溪街185號","121.522516666667","25.0103533333333","6500400","永和區"
"234066","AAC-212","2017/06/22 13:49:10","新北市永和區永平路173巷14弄2號","121.510181666667","25.0084733333333","6500400","永和區"
"234001","AAC-295","2017/06/22 13:47:29","新北市永和區永和路一段63號","121.513025","25.007035","6500400","永和區"
"243005","AAD-798","2017/06/22 13:49:03","新北市泰山區明志路三段206巷3號","121.423295","25.0379166666667","6501600","泰山區"
"243001","297-R6","2017/06/22 13:49:09","新北市泰山區黎明路25號","121.4219","25.060825","6501600","泰山區"
"243007","380-SR","2017/06/22 13:49:08","新北市泰山區美寧街54號","121.430483333333","25.0644966666667","6501600","泰山區"
"243006","421-VK","2017/06/22 12:21:04","新北市泰山區黎明路23-1號","121.421955","25.0616483333333","6501600","泰山區"
"243003","549-UM","2017/06/22 13:49:07","新北市泰山區黎明路37-6號","121.42165","25.0594483333333","6501600","泰山區"
"243004","646-TV","2017/06/22 13:49:03","新北市泰山區福興三街13號","121.43438","25.0577766666667","6501600","泰山區"
"243008","680-BX","2017/06/22 13:49:11","新北市泰山區明志路二段137號","121.427638333333","25.05059","6501600","泰山區"
"231002","002-UM","2017/06/22 13:49:18","新北市新店區溪園路245-6號","121.525215","24.9831133333333","6500600","新店區"
"231025","0291-UT","2017/06/22 13:49:10","新北市新店區中央五街17號","121.529591666667","24.974495","6500600","新店區"
"231028","046-UY","2017/06/22 13:49:15","新北市新店區安和路三段22-3號","121.517958333333","24.98146","6500600","新店區"
"231030","047-UY","2017/06/22 13:49:04","新北市新店區安康路一段230-3號","121.522388333333","24.9637266666667","6500600","新店區"
"231029","106-UY","2017/06/22 13:49:21","新北市新店區安康路二段125-1號","121.512426666667","24.9608966666667","6500600","新店區"
"231018","107-UY","2017/06/22 13:49:23","新北市新店區中正路400巷11號","121.535025","24.9780483333333","6500600","新店區"
"231011","108-UY","2017/06/22 13:49:06","新北市新店區德正街31號","121.544678333333","24.9712583333333","6500600","新店區"
"231021","187-VK","2017/06/22 13:49:14","新北市新店區新烏路二段38-1號","121.543903333333","24.9290566666667","6500600","新店區"
"231007","189-VK","2017/06/22 11:55:11","新北市新店區安華路28-1號","121.519691666667","24.9610933333333","6500600","新店區"
"231026","256-BX","2017/06/22 13:49:22","新北市新店區福園街3號","121.53364","24.9730316666667","6500600","新店區"
"231010","278-BY","2017/06/22 13:49:23","新北市新店區三民路60巷2號","121.535445","24.9724666666667","6500600","新店區"
"231017","AAD-862","2017/06/22 13:49:19","新北市新店區竹林路97巷2號","121.554343333333","24.950145","6500600","新店區"
"231027","3712-VJ","2017/06/22 13:49:04","新北市新店區北宜路一段116號","121.539165","24.955245","6500600","新店區"
"231024","3713-VJ","2017/06/22 13:49:17","新北市新店區新生街55號","121.538816666667","24.9670016666667","6500600","新店區"
"231038","4715-K9","2017/06/22 13:49:17","新北市新店區安華路28-1號","121.520058333333","24.9608583333333","6500600","新店區"
"231036","512-UM","2017/06/22 13:49:14","新北市新店區安祥路108巷53號","121.474373333333","24.9571433333333","6500600","新店區"
"231023","513-UM","2017/06/22 13:49:22","新北市新店區國校路59號","121.538193333333","24.9543316666667","6500600","新店區"
"231035","515-UM","2017/06/22 13:49:18","新北市新店區安忠路57巷2號","121.513416666667","24.9591966666667","6500600","新店區"
"231003","616-UM","2017/06/22 13:49:17","新北市新店區中興路一段160號","121.542605","24.9639833333333","6500600","新店區"
"231001","619-UM","2017/06/22 13:49:12","新北市新店區三民路58號","121.535173333333","24.9721816666667","6500600","新店區"
"231034","645-TV","2017/06/22 13:49:15","新北市新店區達觀路16號","121.503311666667","24.9404883333333","6500600","新店區"
"231013","719-UM","2017/06/22 13:49:04","新北市新店區二十張路25巷1號","121.538891666667","24.9820783333333","6500600","新店區"
"231031","720-UM","2017/06/22 13:49:07","新北市新店區莒光路44巷21弄11-3號","121.518455","24.9522116666667","6500600","新店區"
"231005","897-TW","2017/06/22 13:49:18","新北市新店區寶中路123號","121.549688333333","24.9793866666667","6500600","新店區"
"231006","898-TW","2017/06/22 13:49:23","新北市新店區北宜路一段224號","121.544426666667","24.9531133333333","6500600","新店區"
"231004","899-TW","2017/06/22 13:49:16","新北市新店區寶橋路88號","121.54663","24.975865","6500600","新店區"
"231037","AKT-0513","2017/06/22 13:49:15","新北市新店區安康路三段355巷2號","121.484611666667","24.95057","6500600","新店區"
"235030","003-UY","2017/06/22 13:49:07","新北市中和區水源路7巷25號","121.504023333333","25.0038366666667","6500300","中和區"
"235028","005-UY","2017/06/22 13:49:09","新北市中和區連勝街59號","121.497628333333","24.9972033333333","6500300","中和區"
"235027","006-UY","2017/06/22 13:49:11","新北市中和區中正路700號","121.48611","24.9962583333333","6500300","中和區"
"235020","096-UM","2017/06/22 13:49:15","新北市中和區中正路1192號","121.480606666667","25.0104483333333","6500300","中和區"
"235003","097-UM","2017/06/22 13:49:11","新北市中和區大勇街29巷23弄1號","121.51545","24.9945766666667","6500300","中和區"
"235029","098-UM","2017/06/22 13:49:19","新北市中和區中山路二段2巷27號","121.50322","25.0069116666667","6500300","中和區"
"235022","151-BY","2017/06/22 13:49:09","新北市中和區連城路508號","121.476958333333","24.99205","6500300","中和區"
"235019","183-VK","2017/06/22 13:49:16","新北市中和區民德路25巷1號","121.4691","25.0027733333333","6500300","中和區"
"235002","185-VK","2017/06/22 13:49:20","新北市中和區立人街14巷77號","121.51831","24.995685","6500300","中和區"
"235013","186-VK","2017/06/22 13:49:16","新北市中和區明義街9號","121.504056666667","24.9950583333333","6500300","中和區"
"235031","255-BX","2017/06/22 13:49:09","新北市中和區新生街220巷1弄9號","121.483358333333","24.9981466666667","6500300","中和區"
"235008","293-VK","2017/06/22 13:49:02","新北市中和區復興路280巷6號","121.502333333333","24.9911866666667","6500300","中和區"
"235036","301-VK","2017/06/22 13:49:08","新北市中和區中山路二段138號","121.502055","25.0031716666667","6500300","中和區"
"235007","352-BY","2017/06/22 13:49:12","新北市中和區景平路1號","121.525511666667","24.990205","6500300","中和區"
"235004","375-QA","2017/06/22 13:49:17","新北市中和區安和路75號","121.508093333333","24.99517","6500300","中和區"
"235015","376-QA","2017/06/22 13:49:16","新北市中和區華新街109巷11弄3-2號","121.508876666667","24.9793866666667","6500300","中和區"
"235032","377-QA","2017/06/22 13:49:20","新北市中和區中正路167巷46號","121.498443333333","24.99266","6500300","中和區"
"235025","378-QA","2017/06/22 13:49:19","新北市中和區民享街30巷6號","121.47356","25.0035333333333","6500300","中和區"
"235014","4979-A6","2017/06/22 13:49:05","新北市中和區忠孝街58巷30弄1號","121.512373333333","24.9825733333333","6500300","中和區"
"235033","4980-A6","2017/06/22 13:49:24","新北市中和區景平路459巷1弄2號","121.50035","24.9963666666667","6500300","中和區"
"235006","551-UM","2017/06/22 13:49:20","新北市中和區秀朗路三段70巷35號","121.525406666667","24.9943916666667","6500300","中和區"
"235034","558-UM","2017/06/22 13:49:22","新北市中和區安和路159號","121.506011666667","24.997345","6500300","中和區"
"235009","565-BX","2017/06/22 13:49:22","新北市中和區南山路216號","121.506248333333","24.9903266666667","6500300","中和區"
"235024","647-TV","2017/06/22 13:49:19","新北市中和區中山路三段8號","121.479491666667","25.00608","6500300","中和區"
"235011","732-UM","2017/06/22 13:49:09","新北市中和區興南路二段34巷69號","121.504978333333","24.985365","6500300","中和區"
"235010","733-UM","2017/06/22 13:49:19","新北市中和區仁愛街36巷43號","121.511248333333","24.986655","6500300","中和區"
"235035","783-BX","2017/06/22 13:49:25","新北市中和區立德街28號","121.48954","25.0068683333333","6500300","中和區"
"235026","800-TS","2017/06/22 13:49:08","新北市中和區中山路二段340巷21-1號","121.493403333333","25.003255","6500300","中和區"
"235021","801-TS","2017/06/22 13:49:13","新北市中和區民安街4號","121.480938333333","25.0010583333333","6500300","中和區"
"235005","802-TS","2017/06/22 13:49:19","新北市中和區中和路458巷8號","121.512381666667","25.0036766666667","6500300","中和區"
"235016","805-TS","2017/06/22 13:49:09","新北市中和區興南路三段65號","121.492726666667","24.97492","6500300","中和區"
"235012","896-TW","2017/06/22 13:49:08","新北市中和區南山路220號","121.506363333333","24.9903016666667","6500300","中和區"
"235017","900-TW","2017/06/22 13:49:11","新北市中和區華順街103巷7號","121.465848333333","24.9973716666667","6500300","中和區"
"235004","157-BY","2017/06/22 13:49:19","新北市中和區保健路48巷3號","121.510011666667","24.996915","6500300","中和區"
"235001","AAC-213","2017/06/22 13:49:09","新北市中和區景平路111巷19-1號","121.516233333333","24.99061","6500300","中和區"
"235023","AAC-215","2017/06/22 13:49:21","新北市中和區圓通路385號","121.490178333333","24.98922","6500300","中和區"
"220016","013-TV","2017/06/22 13:49:12","新北市板橋區民生路二段15-1號","121.472836666667","25.0164116666667","6500100","板橋區"
"220013","072-UY","2017/06/22 13:49:25","新北市板橋區民生路二段36-1號","121.47249","25.0167516666667","6500100","板橋區"
"220034","073-UY","2017/06/22 13:49:16","新北市板橋區南雅西路二段192巷24號","121.452681666667","25.01389","6500100","板橋區"
"220105","075-UY","2017/06/22 13:49:24","新北市板橋區民生路二段120號","121.470395","25.0195766666667","6500100","板橋區"
"220017","AAD-861","2017/06/22 13:49:19","新北市板橋區民生路二段36-1號","121.472381666667","25.0169033333333","6500100","板橋區"
"220046","120-SR","2017/06/22 13:49:16","新北市板橋區民生路二段120號","121.470443333333","25.01968","6500100","板橋區"
"247002","402-BY","2017/06/22 13:49:18","新北市蘆洲區永安北路二段76巷6號","121.483485","25.0848766666667","6501400","蘆洲區"
"247005","341-TH","2017/06/22 13:49:06","新北市蘆洲區中山二路256號","121.469248333333","25.0789733333333","6501400","蘆洲區"
"247007","339-TH","2017/06/22 13:49:17","新北市蘆洲區集賢路269巷17號","121.482141666667","25.0833533333333","6501400","蘆洲區"
"247001","336-TH","2017/06/22 13:49:11","新北市五股區成泰路三段544-18號","121.452963333333","25.103405","6501400","蘆洲區"
"247003","056-VK","2017/06/22 13:49:23","新北市蘆洲區長安街102巷5弄12號","121.46155","25.0820316666667","6501400","蘆洲區"
"247015","001-UY","2017/06/22 13:49:21","新北市蘆洲區光華路29號","121.46919","25.08315","6501400","蘆洲區"
"228005","097-TW","2017/06/22 13:49:09","新北市雙溪區三港里雙澳路100號","121.889013333333","25.0571166666667","6502600","貢寮區"
"228004","212-TW","2017/06/22 13:39:06","新北市貢寮區龍崗里嵩陽街17號","121.907663333333","25.009275","6502600","貢寮區"
"208004","AAC-292","2017/06/22 13:49:12","新北市金山區重和里三重橋14號","121.590451666667","25.189175","6502700","金山區"
"207002","749-BX","2017/06/22 13:49:14","新北市萬里區崁腳里崁腳路166號","121.645166666667","25.155985","6502800","萬里區"
"207001","463-BY","2017/06/22 13:49:19","新北市萬里區磺潭里公館崙42號","121.630221666667","25.2077333333333","6502800","萬里區"
"252004","249-BX","2017/06/22 13:49:13","新北市八里區龍米路一段267號","121.449383333333","25.138185","6502100","三芝區"
"252005","702-TV","2017/06/22 13:49:09","新北市三芝區圓山里木屐寮40號","121.531553333333","25.2230533333333","6502100","三芝區"
"252005","AAC-283","2017/06/22 00:09:37","新北市三芝區埔坪里埔頭坑41號","121.504506666667","25.2644366666667","6502100","三芝區"
"236066","105-UM","2017/06/22 13:49:17","新北市土城區城林路6巷80號","121.438305","24.9796933333333","6501300","土城區"
"236040","107-UM","2017/06/22 13:49:17","新北市土城區中央路一段264-2號","121.443745","24.9836683333333","6501300","土城區"
"236076","166-UM","2017/06/22 13:49:15","新北市土城區中央路二段392-1號","121.439643333333","24.970865","6501300","土城區"
"236028","253-BX","2017/06/22 13:49:19","新北市土城區城林路6巷80號","121.438508333333","24.9797833333333","6501300","土城區"
"236024","269-VK","2017/06/22 13:49:21","新北市土城區承天路1號","121.435783333333","24.9665066666667","6501300","土城區"
"236012","270-VK","2017/06/22 13:49:15","新北市土城區城林路6巷80號","121.438621666667","24.97974","6501300","土城區"
"236033","271-VK","2017/06/22 13:49:13","新北市土城區城林路6巷80號","121.43867","24.9796883333333","6501300","土城區"
"236018","401-BY","2017/06/22 13:49:08","新北市土城區城林路6巷80號","121.438581666667","24.9797383333333","6501300","土城區"
"236005","498-BY","2017/06/22 13:49:15","新北市土城區中華路二段101號","121.43923","24.9774733333333","6501300","土城區"
"236056","912-UM","2017/06/22 13:49:11","新北市土城區城林路6巷80號","121.438415","24.979795","6501300","土城區"
"236047","913-UM","2017/06/22 13:49:21","新北市土城區中華路二段2號","121.438726666667","24.980105","6501300","土城區"
"236060","915-UM","2017/06/22 13:49:06","新北市土城區城林路6巷80號","121.438386666667","24.979755","6501300","土城區"
"242043","172-VK","2017/06/22 13:49:06","新北市新莊區四維路119巷24號","121.42409","25.022755","6500500","新莊區"
"221010","276-VK","2017/06/22 13:49:11","基隆市七堵區俊賢路3號","121.707393333333","25.0948333333333","6501100","汐止區"
"221002","753-BX","2017/06/22 13:49:20","新北市汐止區康寧街753巷2弄22號","121.640205","25.0743216666667","6501100","汐止區"
"220027","145-BY","2017/06/22 13:49:11","新北市板橋區民權路202巷2弄1號","121.45954","25.0140866666667","6500100","板橋區"
"220038","146-RM","2017/06/22 13:49:07","新北市板橋區民生路二段120號","121.470418333333","25.0196133333333","6500100","板橋區"
"220028","200-UY","2017/06/22 13:49:15","新北市板橋區大觀路二段265巷128號","121.442255","24.9962416666667","6500100","板橋區"
"220030","610-BX","2017/06/22 13:49:14","新北市板橋區篤行路二段135號","121.43057","24.9894766666667","6500100","板橋區"
"220050","245-BX","2017/06/22 13:49:14","新北市板橋區民生路二段120號","121.470518333333","25.0198616666667","6500100","板橋區"
"220043","267-BY","2017/06/22 13:49:21","新北市板橋區民生路二段161巷3號","121.470271666667","25.01982","6500100","板橋區"
"220004","276-BY","2017/06/22 13:49:15","新北市板橋區四川路二段28號","121.454253333333","24.9958216666667","6500100","板橋區"
"220020","277-BY","2017/06/22 13:49:19","新北市板橋區金門街27號","121.433446666667","24.994375","6500100","板橋區"
"220012","280-UM","2017/06/22 13:49:18","新北市板橋區民生路二段36-1號","121.472653333333","25.01666","6500100","板橋區"
"220019","283-VK","2017/06/22 13:49:03","新北市板橋區民生路二段22號","121.472718333333","25.0165816666667","6500100","板橋區"
"220001","285-VK","2017/06/22 13:49:19","新北市板橋區民生路二段56-3號","121.472405","25.0173616666667","6500100","板橋區"
"220031","286-VK","2017/06/22 13:49:14","新北市板橋區大觀路二段22巷11號","121.44597","25.0034333333333","6500100","板橋區"
"220029","287-VK","2017/06/22 13:49:02","新北市板橋區南雅西路二段177號","121.451843333333","25.0125383333333","6500100","板橋區"
"220039","288-VK","2017/06/22 13:49:07","新北市板橋區民生路二段120號","121.470335","25.01966","6500100","板橋區"
"220009","295-UM","2017/06/22 13:49:13","新北市板橋區民生路二段36-1號","121.472505","25.01679","6500100","板橋區"
"220032","296-UM","2017/06/22 13:49:20","新北市板橋區大觀路二段148巷36號","121.441903333333","25.000065","6500100","板橋區"
"220023","297-UM","2017/06/22 13:49:25","新北市板橋區大觀路一段23號","121.450203333333","25.0084183333333","6500100","板橋區"
"220010","305-R5","2017/06/22 03:31:11","新北市板橋區民生路二段36-1號","121.472485","25.016575","6500100","板橋區"
"220041","307-R5","2017/06/22 13:49:08","新北市板橋區民生路二段120號","121.470563333333","25.0196466666667","6500100","板橋區"
"220047","317-R6","2017/06/22 13:49:11","新北市板橋區民生路二段120號","121.470363333333","25.0195716666667","6500100","板橋區"
"220037","491-VK","2017/06/22 13:48:00","新北市板橋區民生路二段161巷9號","121.470295","25.0196983333333","6500100","板橋區"
"220104","560-BX","2017/06/22 13:49:09","新北市板橋區中正路275巷77號","121.452366666667","25.0180916666667","6500100","板橋區"
"220052","561-BX","2017/06/22 13:49:08","新北市板橋區民生路二段120號","121.47062","25.0197866666667","6500100","板橋區"
"220011","609-BX","2017/06/22 13:49:12","新北市板橋區觀光街12巷1弄2號","121.47185","25.016705","6500100","板橋區"
"220040","637-BX","2017/06/22 13:49:15","新北市板橋區民生路二段161巷1號","121.470256666667","25.0200333333333","6500100","板橋區"
"220005","686-BX","2017/06/22 13:49:21","新北市板橋區民生路二段36-1號","121.472628333333","25.0165933333333","6500100","板橋區"
"220025","687-BX","2017/06/22 13:49:21","新北市板橋區金門街63號","121.433205","24.992965","6500100","板橋區"
"220042","689-BX","2017/06/22 13:49:24","新北市板橋區民生路二段161巷1號","121.470185","25.0199","6500100","板橋區"
"220002","741-BX","2017/06/22 13:49:20","新北市板橋區民生路二段36-1號","121.472511666667","25.0167416666667","6500100","板橋區"
"220003","827-TW","2017/06/22 13:49:24","新北市板橋區民生路二段15-1號","121.472688333333","25.0164566666667","6500100","板橋區"
"220014","829-TW","2017/06/22 13:49:20","新北市板橋區民生路二段36-1號","121.472475","25.0167766666667","6500100","板橋區"
"220051","830-TW","2017/06/20 21:27:49","新北市板橋區民生路二段56-6號","121.471378333333","25.0187683333333","6500100","板橋區"
"220045","831-TW","2017/06/20 21:15:29","新北市板橋區民生路二段120號","121.470358333333","25.0198133333333","6500100","板橋區"
"220022","895-R6","2017/06/22 13:49:04","新北市板橋區南門街4號","121.457508333333","25.00925","6500100","板橋區"
"220021","985-R7","2017/06/22 13:49:21","新北市板橋區館前西路88號","121.457486666667","25.007155","6500100","板橋區"
"220018","AAC-253","2017/06/22 13:49:09","新北市板橋區民生路二段36-1號","121.472606666667","25.016755","6500100","板橋區"
