"lineid","car","time","location","longitude","latitude","cityid","cityname"
"234044","148-BY","2017/06/22 14:19:06","新北市永和區得和路326號","121.523278333333","24.99958","6500400","永和區"
"234012","149-BY","2017/06/22 14:19:06","新北市永和區保生路40巷1號","121.505825","25.0082866666667","6500400","永和區"
"234005","207-UY","2017/06/22 14:19:16","新北市永和區永貞路422號","121.508586666667","25.0082266666667","6500400","永和區"
"234078","298-R6","2017/06/22 14:19:06","新北市永和區福和路19巷1弄1號","121.524181666667","25.00778","6500400","永和區"
"234036","336-UY","2017/06/22 14:19:13","新北市永和區成功路一段29巷7號","121.527801666667","25.00472","6500400","永和區"
"234062","337-UY","2017/06/22 14:19:17","新北市永和區得和路120號","121.518643333333","25.0001566666667","6500400","永和區"
"234084","338-UY","2017/06/22 14:19:11","新北市永和區福和路271號","121.517713333333","25.0074016666667","6500400","永和區"
"234068","552-UM","2017/06/22 14:19:14","新北市永和區永貞路70巷24號","121.519631666667","25.00592","6500400","永和區"
"234052","553-UM","2017/06/22 14:19:03","新北市永和區光復街4號","121.516583333333","25.01664","6500400","永和區"
"234015","745-BX","2017/06/22 14:19:08","新北市永和區仁愛路95號","121.51289","25.0129066666667","6500400","永和區"
"234028","746-BX","2017/06/22 14:19:17","新北市板橋區民生路一段81號","121.474858333333","25.01383","6500400","永和區"
"234060","AAD-866","2017/06/22 14:19:18","新北市永和區得和路35號","121.515985","25.0001683333333","6500400","永和區"
"234064","847-RS","2017/06/22 14:19:14","新北市新店區安康路二段269號","121.5042","24.9577416666667","6500400","永和區"
"234040","862-TW","2017/06/22 14:19:23","新北市永和區安樂路208-1號","121.515053333333","25.0019066666667","6500400","永和區"
"234048","863-TW","2017/06/22 14:19:19","新北市永和區新生路24巷5號","121.508746666667","25.016395","6500400","永和區"
"234025","9371-KE","2017/06/22 14:19:12","新北市中和區安樂路197號","121.514586666667","24.998445","6500400","永和區"
"248015","026-BX","2017/06/22 14:19:13","新北市五股區成洲五路12號","121.452348333333","25.1015333333333","6501500","五股區"
"248017","225-UY","2017/06/22 14:19:10","新北市五股區民義路二段1號","121.421263333333","25.0961866666667","6501500","五股區"
"248011","247-BX","2017/06/22 14:19:18","新北市五股區工商路99巷15號","121.436995","25.0849816666667","6501500","五股區"
"248009","272-BY","2017/06/22 14:19:20","新北市五股區水碓一路23號","121.430558333333","25.0712483333333","6501500","五股區"
"248003","677-BX","2017/06/22 14:19:16","新北市五股區五福路93號","121.432336666667","25.0904516666667","6501500","五股區"
"248001","678-BX","2017/06/22 14:19:12","新北市五股區成泰路四段9號","121.45299","25.1065","6501500","五股區"
"234022","9380-KE","2017/06/22 14:19:14","新北市永和區竹林路23號","121.517301666667","25.014665","6500400","永和區"
"234076","969-R7","2017/06/22 14:19:23","新北市永和區民族街81巷48號","121.519893333333","24.996515","6500400","永和區"
"234072","AAC-211","2017/06/22 14:19:19","新北市永和區環河東路一段122號","121.520475","25.01547","6500400","永和區"
"234066","AAC-212","2017/06/22 14:19:10","新北市永和區保平路214巷4號","121.509648333333","25.0060733333333","6500400","永和區"
"234001","AAC-295","2017/06/22 14:16:49","新北市永和區中正路605號","121.516346666667","25.0097016666667","6500400","永和區"
"244003","248-BX","2017/06/22 14:19:14","新北市林口區林口路76號","121.389653333333","25.080665","6501700","林口區"
"243005","AAD-798","2017/06/22 14:19:13","新北市泰山區明志路三段145巷34弄2號","121.426323333333","25.0394533333333","6501600","泰山區"
"243001","297-R6","2017/06/22 14:19:09","新北市泰山區和平街9-2號","121.434156666667","25.064585","6501600","泰山區"
"243007","380-SR","2017/06/22 14:19:08","新北市泰山區明志路二段51號","121.429381666667","25.0527833333333","6501600","泰山區"
"243006","421-VK","2017/06/22 14:19:14","新北市泰山區泰林路二段117號","121.434301666667","25.0595733333333","6501600","泰山區"
"243002","548-UM","2017/06/22 14:19:08","新北市泰山區明志路二段7巷20號","121.4309","25.0532116666667","6501600","泰山區"
"243003","549-UM","2017/06/22 14:19:07","新北市泰山區貴子路76號","121.4271","25.04129","6501600","泰山區"
"243004","646-TV","2017/06/22 14:19:23","新北市泰山區仁義路220巷2號","121.432978333333","25.05386","6501600","泰山區"
"243008","680-BX","2017/06/22 14:19:17","新北市泰山區工專路32號","121.42344","25.0398766666667","6501600","泰山區"
"231002","002-UM","2017/06/22 14:19:18","新北市新店區中央路60號","121.532863333333","24.97779","6500600","新店區"
"231025","0291-UT","2017/06/22 14:19:10","新北市新店區二十張路105巷22號","121.536938333333","24.9789883333333","6500600","新店區"
"231028","046-UY","2017/06/22 14:19:15","新北市新店區安和路一段13號","121.516745","24.96411","6500600","新店區"
"231030","047-UY","2017/06/22 14:19:04","新北市新店區安民街11號","121.515328333333","24.9644766666667","6500600","新店區"
"231029","106-UY","2017/06/22 14:19:21","新北市新店區安康路二段161號","121.510215","24.9593266666667","6500600","新店區"
"231018","107-UY","2017/06/22 14:19:22","新北市新店區中央四街52號","121.52768","24.975015","6500600","新店區"
"231011","108-UY","2017/06/22 14:19:16","新北市新店區中興路二段100巷2號","121.547508333333","24.9712583333333","6500600","新店區"
"231021","187-VK","2017/06/22 14:19:14","新北市新店區桂山路51巷6-1號","121.562173333333","24.9015383333333","6500600","新店區"
"231007","189-VK","2017/06/22 11:55:11","新北市新店區安華路28-1號","121.519691666667","24.9610933333333","6500600","新店區"
"231017","AAD-862","2017/06/22 14:19:19","新北市新店區北宜路二段392巷4號","121.565525","24.9533316666667","6500600","新店區"
"231027","3712-VJ","2017/06/22 14:19:04","新北市新店區光明街286巷16號","121.540993333333","24.9634533333333","6500600","新店區"
"231038","4715-K9","2017/06/22 14:19:17","新北市新店區溪洲路6巷27號","121.534021666667","24.9620833333333","6500600","新店區"
"231036","512-UM","2017/06/22 14:19:14","新北市新店區安祥路109巷90弄20號","121.477461666667","24.95945","6500600","新店區"
"231023","513-UM","2017/06/22 14:19:22","新北市新店區光明街51號","121.538635","24.9601133333333","6500600","新店區"
"231035","515-UM","2017/06/22 14:19:18","新北市新店區碧安街3號","121.516903333333","24.9677116666667","6500600","新店區"
"231003","616-UM","2017/06/22 14:19:17","新北市新店區中興路一段212號","121.543825","24.9656066666667","6500600","新店區"
"231001","619-UM","2017/06/22 14:19:12","新北市新店區北新路一段90號","121.541875","24.9686416666667","6500600","新店區"
"231034","645-TV","2017/06/22 14:19:15","新北市新店區車子路11號","121.502906666667","24.9517533333333","6500600","新店區"
"231013","719-UM","2017/06/22 14:19:24","新北市新店區大豐路60號","121.53962","24.979665","6500600","新店區"
"231031","720-UM","2017/06/22 14:19:07","新北市新店區溪洲路201-1號","121.529726666667","24.96738","6500600","新店區"
"231005","897-TW","2017/06/22 14:19:18","新北市新店區中興路三段221-3號","121.54344","24.9824883333333","6500600","新店區"
"231006","898-TW","2017/06/22 14:19:23","新北市新店區玉山路22號","121.567916666667","24.9553766666667","6500600","新店區"
"231004","899-TW","2017/06/22 14:19:16","新北市新店區北新路二段17號","121.542758333333","24.9715083333333","6500600","新店區"
"231037","AKT-0513","2017/06/22 14:19:22","新北市新店區車子路3號","121.50454","24.9558333333333","6500600","新店區"
"235030","003-UY","2017/06/22 14:19:07","新北市中和區景新街2號","121.502608333333","24.99965","6500300","中和區"
"235028","005-UY","2017/06/22 14:19:09","新北市中和區中和路24號","121.49972","25.0017716666667","6500300","中和區"
"235027","006-UY","2017/06/22 14:19:11","新北市中和區連勝街121巷14號","121.494923333333","24.9945466666667","6500300","中和區"
"235020","096-UM","2017/06/22 14:19:15","新北市中和區員山路474號","121.479885","25.00667","6500300","中和區"
"235003","097-UM","2017/06/22 14:19:11","新北市中和區秀峰街103巷6弄13號","121.51968","24.989955","6500300","中和區"
"235029","098-UM","2017/06/22 14:19:19","新北市中和區福祥路2號","121.499616666667","25.0029183333333","6500300","中和區"
"235022","151-BY","2017/06/22 14:19:09","新北市中和區連城路469巷79弄2號","121.483478333333","24.9936866666667","6500300","中和區"
"235019","183-VK","2017/06/22 14:19:06","新北市中和區中山路三段209號","121.471913333333","25.0062933333333","6500300","中和區"
"235002","185-VK","2017/06/22 14:19:20","新北市中和區大仁街20巷22號","121.518646666667","24.9932","6500300","中和區"
"235013","186-VK","2017/06/22 14:19:16","新北市中和區景新街224-6號","121.507518333333","24.9949033333333","6500300","中和區"
"235031","255-BX","2017/06/22 14:19:09","新北市中和區新生街168號","121.48372","25.000215","6500300","中和區"
"235008","293-VK","2017/06/22 14:19:23","新北市中和區中興街235巷1號","121.500768333333","24.9896383333333","6500300","中和區"
"235036","301-VK","2017/06/22 14:19:08","新北市中和區莊敬路49巷18號","121.501718333333","25.0060666666667","6500300","中和區"
"235007","352-BY","2017/06/22 14:19:12","新北市中和區景平路296號","121.512928333333","24.9927583333333","6500300","中和區"
"235004","375-QA","2017/06/22 14:19:17","新北市中和區保健路50巷66號","121.509363333333","24.9951283333333","6500300","中和區"
"235015","376-QA","2017/06/22 14:19:15","新北市中和區和平街24巷2號","121.510013333333","24.9903366666667","6500300","中和區"
"235032","377-QA","2017/06/22 14:19:20","新北市中和區連城路75巷1-3號","121.497775","24.9998583333333","6500300","中和區"
"235025","378-QA","2017/06/22 14:19:19","新北市中和區員山路343號","121.48125","25.0016183333333","6500300","中和區"
"235014","4979-A6","2017/06/22 14:19:05","新北市中和區中正路151號","121.498996666667","24.993305","6500300","中和區"
"235033","4980-A6","2017/06/22 14:19:24","新北市中和區景平路668號","121.497203333333","25.0009433333333","6500300","中和區"
"235006","551-UM","2017/06/22 14:19:20","新北市中和區安樂路197號","121.51458","24.998305","6500300","中和區"
"235034","558-UM","2017/06/22 14:19:22","新北市中和區中和路174號","121.504763333333","24.9997016666667","6500300","中和區"
"235009","565-BX","2017/06/22 14:19:02","新北市中和區景新街437巷2弄1號","121.513606666667","24.989135","6500300","中和區"
"235024","647-TV","2017/06/22 14:19:19","新北市中和區中山路三段61號","121.47664","25.0057","6500300","中和區"
"235011","732-UM","2017/06/22 14:19:09","新北市中和區和平街58號","121.508458333333","24.9907133333333","6500300","中和區"
"235010","733-UM","2017/06/22 14:19:19","新北市中和區華新街113巷2弄2號","121.507338333333","24.981995","6500300","中和區"
"235035","783-BX","2017/06/22 14:19:05","新北市中和區立德街72巷18號","121.487811666667","25.0081666666667","6500300","中和區"
"235026","800-TS","2017/06/22 14:19:08","新北市中和區橋安街2號","121.492836666667","25.0034316666667","6500300","中和區"
"235021","801-TS","2017/06/22 14:19:13","新北市中和區員山路325-2號","121.481218333333","25.0007816666667","6500300","中和區"
"235005","802-TS","2017/06/22 14:19:19","新北市中和區中安街104-1號","121.511645","25.0011583333333","6500300","中和區"
"235016","805-TS","2017/06/22 14:19:09","新北市中和區興南路二段142巷31弄61號","121.501731666667","24.9835466666667","6500300","中和區"
"235012","896-TW","2017/06/22 14:19:08","新北市中和區華新街109巷1號","121.50877","24.9824533333333","6500300","中和區"
"235017","900-TW","2017/06/22 14:19:15","新北市中和區華安街30巷2號","121.467003333333","24.9977216666667","6500300","中和區"
"235004","157-BY","2017/06/22 14:19:19","新北市中和區保健路60號","121.510938333333","24.9965916666667","6500300","中和區"
"235001","AAC-213","2017/06/22 14:19:09","新北市永和區民族街81巷62號","121.520426666667","24.9963833333333","6500300","中和區"
"235023","AAC-215","2017/06/22 14:19:01","新北市中和區圓通路286巷16-5號","121.491583333333","24.991295","6500300","中和區"
"220016","013-TV","2017/06/22 14:19:12","新北市板橋區林森街1巷28號","121.482738333333","25.0242983333333","6500100","板橋區"
"220013","072-UY","2017/06/22 14:19:05","新北市板橋區民族路129巷12弄5號","121.46806","25.0083083333333","6500100","板橋區"
"220034","073-UY","2017/06/22 14:19:16","新北市板橋區中正路216巷98號","121.45871","25.0191633333333","6500100","板橋區"
"220105","075-UY","2017/06/22 14:19:19","新北市板橋區雙十路三段10巷23號","121.472488333333","25.0312","6500100","板橋區"
"220017","AAD-861","2017/06/22 14:19:19","新北市板橋區華興街72號","121.457405","25.0051916666667","6500100","板橋區"
"220046","120-SR","2017/06/22 14:19:16","新北市板橋區幸福路70巷14號","121.460585","25.0205083333333","6500100","板橋區"
"247019","893-R6","2017/06/22 14:19:07","新北市蘆洲區仁愛街35巷15弄6號","121.471445","25.0925283333333","6501400","蘆洲區"
"247009","546-UM","2017/06/22 14:19:07","新北市蘆洲區三民路26巷29號","121.476868333333","25.08287","6501400","蘆洲區"
"247017","500-BY","2017/06/22 14:19:13","新北市蘆洲區民權路76號","121.474726666667","25.0874866666667","6501400","蘆洲區"
"247002","402-BY","2017/06/22 14:19:18","新北市蘆洲區三民路88號","121.473521666667","25.0858483333333","6501400","蘆洲區"
"247005","341-TH","2017/06/22 14:19:06","新北市蘆洲區九芎街153巷18號","121.46579","25.07864","6501400","蘆洲區"
"247007","339-TH","2017/06/22 14:19:17","新北市蘆洲區中山一路197巷4弄21號","121.474013333333","25.0805866666667","6501400","蘆洲區"
"247023","337-TH","2017/06/22 14:19:08","新北市蘆洲區長榮路709號","121.461013333333","25.092995","6501400","蘆洲區"
"247001","336-TH","2017/06/22 14:19:11","新北市蘆洲區永樂街57號","121.456688333333","25.08859","6501400","蘆洲區"
"247013","057-VK","2017/06/22 14:19:06","新北市蘆洲區中山一路196號","121.473728333333","25.0808766666667","6501400","蘆洲區"
"247003","056-VK","2017/06/22 14:19:23","新北市蘆洲區長安街174號","121.459188333333","25.0833566666667","6501400","蘆洲區"
"247011","007-UY","2017/06/22 14:19:18","新北市蘆洲區信義路351巷18號","121.476723333333","25.0868166666667","6501400","蘆洲區"
"247021","002-UY","2017/06/22 14:19:04","新北市蘆洲區民族路403號","121.469153333333","25.0899016666667","6501400","蘆洲區"
"247015","001-UY","2017/06/22 14:19:21","新北市蘆洲區光華路110巷16號","121.466811666667","25.08328","6501400","蘆洲區"
"228005","097-TW","2017/06/22 14:19:09","新北市貢寮區美豐里雞母嶺街67號","121.896331666667","25.0645683333333","6502600","貢寮區"
"228004","212-TW","2017/06/22 14:19:10","新北市貢寮區雙玉里田寮洋街39號","121.92506","25.01393","6502600","貢寮區"
"208004","AAC-292","2017/06/22 14:19:12","新北市金山區六股里下六股65號","121.614425","25.2236","6502700","金山區"
"207002","749-BX","2017/06/22 14:19:14","新北市萬里區溪底里溪底路21號","121.611498333333","25.14836","6502800","萬里區"
"207001","463-BY","2017/06/22 14:19:19","新北市萬里區磺潭里清水18號","121.637826666667","25.19772","6502800","萬里區"
"252004","249-BX","2017/06/22 14:19:13","新北市八里區中山路三段409號","121.368731666667","25.1357916666667","6502100","三芝區"
"252005","702-TV","2017/06/22 14:19:09","新北市三芝區橫山里橫山45-1號","121.536658333333","25.2572916666667","6502100","三芝區"
"252005","AAC-283","2017/06/22 00:09:37","新北市三芝區埔坪里埔頭坑41號","121.504506666667","25.2644366666667","6502100","三芝區"
"236066","105-UM","2017/06/22 14:19:17","新北市土城區仁愛路25-1號","121.462663333333","24.9783316666667","6501300","土城區"
"236040","107-UM","2017/06/22 14:19:17","新北市土城區裕生路21巷2弄1號","121.448638333333","24.9871666666667","6501300","土城區"
"236076","166-UM","2017/06/22 14:19:15","新北市土城區中央路三段281巷23弄20號","121.426368333333","24.96149","6501300","土城區"
"236028","253-BX","2017/06/22 14:19:19","新北市土城區順風路28號","121.44033","24.9769533333333","6501300","土城區"
"236024","269-VK","2017/06/22 14:19:21","新北市土城區承天路18號","121.439471666667","24.9634666666667","6501300","土城區"
"236012","270-VK","2017/06/22 14:19:14","新北市土城區青雲路39巷7號","121.46035","24.9875066666667","6501300","土城區"
"236033","271-VK","2017/06/22 14:19:13","新北市土城區青雲路485號","121.458906666667","24.9737066666667","6501300","土城區"
"236018","401-BY","2017/06/22 14:19:08","新北市土城區金城路二段396號","121.463831666667","24.985755","6501300","土城區"
"236005","498-BY","2017/06/22 14:19:15","新北市土城區中華路一段56巷22號","121.444583333333","24.989495","6501300","土城區"
"236056","912-UM","2017/06/22 14:19:11","新北市土城區中央路四段147號","121.415618333333","24.9570816666667","6501300","土城區"
"236047","913-UM","2017/06/22 14:19:13","新北市土城區明德路一段369號","121.45561","24.97794","6501300","土城區"
"236060","915-UM","2017/06/22 14:18:46","新北市土城區金城路三段245號","121.4716","24.9897933333333","6501300","土城區"
"236052","AAC-216","2017/06/22 14:19:20","新北市土城區中華路二段98號","121.438116666667","24.97442","6501300","土城區"
"242043","172-VK","2017/06/22 14:19:06","新北市板橋區大觀路三段50巷91號","121.43109","24.9965583333333","6500500","新莊區"
"221010","276-VK","2017/06/22 14:19:11","新北市汐止區汐萬路一段115巷1號","121.654496666667","25.07046","6501100","汐止區"
"221002","753-BX","2017/06/22 14:19:20","新北市汐止區福德一路300巷26號","121.630613333333","25.0643033333333","6501100","汐止區"
"220027","145-BY","2017/06/22 14:19:05","新北市板橋區民權路202巷13弄25號","121.45852","25.0162816666667","6500100","板橋區"
"220038","146-RM","2017/06/22 14:19:07","新北市板橋區文化路二段15號","121.468643333333","25.0243916666667","6500100","板橋區"
"220028","200-UY","2017/06/22 14:19:24","新北市板橋區大觀路二段1巷16號","121.449006666667","25.00381","6500100","板橋區"
"220030","610-BX","2017/06/22 14:19:14","新北市板橋區溪崑二街89號","121.427276666667","24.9894483333333","6500100","板橋區"
"220050","245-BX","2017/06/22 14:19:14","新北市板橋區莊敬路231號","121.472533333333","25.0216033333333","6500100","板橋區"
"220023","256-TC","2017/06/22 14:19:11","新北市鶯歌區建國路154號","121.350818333333","24.9537","6500100","板橋區"
"220043","267-BY","2017/06/22 14:19:01","新北市板橋區吳鳳路21巷2號","121.466945","25.0312033333333","6500100","板橋區"
"220004","276-BY","2017/06/22 14:19:15","新北市板橋區信義路105-1號","121.457498333333","24.9936066666667","6500100","板橋區"
"220020","277-BY","2017/06/22 14:19:19","新北市板橋區金門街344巷3號","121.427813333333","24.9848333333333","6500100","板橋區"
"220012","280-UM","2017/06/22 14:19:18","新北市板橋區板新路238號","121.468173333333","25.0160616666667","6500100","板橋區"
"220019","283-VK","2017/06/22 14:19:24","新北市板橋區重慶路245巷50弄48號","121.465238333333","24.9996083333333","6500100","板橋區"
"220001","285-VK","2017/06/22 14:19:19","新北市板橋區富山街5號","121.478585","25.0215666666667","6500100","板橋區"
"220031","286-VK","2017/06/22 14:19:14","新北市板橋區大觀路二段174巷194號","121.442368333333","25.0039333333333","6500100","板橋區"
"220029","287-VK","2017/06/22 14:19:02","新北市板橋區南雅西路一段82號","121.453373333333","25.0056766666667","6500100","板橋區"
"220039","288-VK","2017/06/22 14:19:07","新北市板橋區四維路298號","121.462688333333","25.02942","6500100","板橋區"
"220009","295-UM","2017/06/22 14:19:13","新北市板橋區中山路二段255巷7號","121.477005","25.0179116666667","6500100","板橋區"
"220032","296-UM","2017/06/22 14:19:20","新北市板橋區溪崑二街22巷24號","121.428351666667","24.99187","6500100","板橋區"
"220023","297-UM","2017/06/22 14:19:06","新北市板橋區南雅南路一段1巷38號","121.457253333333","25.0066083333333","6500100","板橋區"
"220010","305-R5","2017/06/22 14:19:12","新北市板橋區三民路二段居仁巷1弄34號","121.480368333333","25.01359","6500100","板橋區"
"220041","307-R5","2017/06/22 14:19:08","新北市板橋區光武街48巷25號","121.467768333333","25.0268383333333","6500100","板橋區"
"220047","317-R6","2017/06/22 14:19:15","新北市板橋區四維路100號","121.465723333333","25.0243783333333","6500100","板橋區"
"220037","491-VK","2017/06/22 14:19:00","新北市板橋區雙十路二段239號","121.47272","25.0289816666667","6500100","板橋區"
"220104","560-BX","2017/06/22 14:19:09","新北市板橋區新生街89巷36號","121.456578333333","25.0225366666667","6500100","板橋區"
"220052","561-BX","2017/06/22 14:19:08","新北市板橋區文化路一段188巷7弄42號","121.468228333333","25.0193566666667","6500100","板橋區"
"220011","609-BX","2017/06/22 14:19:12","新北市板橋區三民路二段202-18號","121.478983333333","25.01348","6500100","板橋區"
"220040","637-BX","2017/06/22 14:19:15","新北市板橋區文聖街160號","121.478916666667","25.0271033333333","6500100","板橋區"
"220005","686-BX","2017/06/22 14:19:21","新北市板橋區重慶路247-3號","121.463278333333","25.0003383333333","6500100","板橋區"
"220025","687-BX","2017/06/22 14:19:17","新北市板橋區大觀路二段313號","121.441846666667","24.9986816666667","6500100","板橋區"
"220042","689-BX","2017/06/22 14:19:24","新北市板橋區文化路一段241號","121.464205","25.017735","6500100","板橋區"
"220002","741-BX","2017/06/22 14:19:20","新北市板橋區重慶路69巷20號","121.462795","25.00702","6500100","板橋區"
"220003","827-TW","2017/06/22 14:19:19","新北市板橋區新民街4巷2號","121.464336666667","25.010135","6500100","板橋區"
"220014","829-TW","2017/06/22 14:19:20","新北市板橋區長安街138巷5弄62號","121.474111666667","25.0095933333333","6500100","板橋區"
"220051","830-TW","2017/06/22 14:19:17","新北市板橋區文聖街159號","121.47886","25.0274766666667","6500100","板橋區"
"220045","831-TW","2017/06/22 14:19:08","新北市板橋區大同街14-4號","121.477478333333","25.0269683333333","6500100","板橋區"
"220022","895-R6","2017/06/22 14:19:04","新北市板橋區文化路一段27-1號","121.459901666667","25.0127966666667","6500100","板橋區"
"220021","985-R7","2017/06/22 14:19:21","新北市板橋區民權路194號","121.459208333333","25.0137516666667","6500100","板橋區"
"220018","AAC-253","2017/06/22 14:19:10","新北市板橋區四川路一段367號","121.458323333333","24.99971","6500100","板橋區"
