"lineid","car","time","location","longitude","latitude","cityid","cityname"
"234064","847-RS","2017/06/22 14:36:33","新北市永和區福和路1號","121.52663","25.0098583333333","6500400","永和區"
"248003","677-BX","2017/06/22 15:19:16","新北市五股區中興路四段54號","121.438018333333","25.083","6501500","五股區"
"243001","297-R6","2017/06/22 15:19:09","新北市泰山區忠孝街14-1號","121.427808333333","25.0650216666667","6501600","泰山區"
"243003","549-UM","2017/06/22 15:19:07","新北市泰山區公園路88-1號","121.423665","25.05711","6501600","泰山區"
"231002","002-UM","2017/06/22 15:19:18","新北市新店區中正路700巷1號","121.533983333333","24.991255","6500600","新店區"
"231025","0291-UT","2017/06/22 15:19:10","新北市新店區中央路234號","121.529436666667","24.97259","6500600","新店區"
"231028","046-UY","2017/06/22 15:19:15","新北市新店區僑信路108巷41號","121.499106666667","24.9463583333333","6500600","新店區"
"231030","047-UY","2017/06/22 15:19:04","新北市新店區安和路二段207號","121.51778","24.97525","6500600","新店區"
"231029","106-UY","2017/06/22 15:19:20","新北市新店區安康路三段740號","121.47379","24.9419916666667","6500600","新店區"
"231018","107-UY","2017/06/22 15:19:22","新北市新店區中央七街11號","121.5303","24.9749416666667","6500600","新店區"
"231011","108-UY","2017/06/22 15:19:06","新北市新店區寶元路一段23號","121.541293333333","24.9866216666667","6500600","新店區"
"231021","187-VK","2017/06/22 15:19:14","新北市新店區湖興路128-9號","121.565598333333","24.9313216666667","6500600","新店區"
"231007","189-VK","2017/06/22 11:55:11","新北市新店區安華路28-1號","121.519691666667","24.9610933333333","6500600","新店區"
"231026","256-BX","2017/06/22 15:19:13","新北市新店區中正路265巷21號","121.537738333333","24.9731833333333","6500600","新店區"
"231017","AAD-862","2017/06/22 15:19:19","新北市新店區明山路45號","121.563826666667","24.9559283333333","6500600","新店區"
"231024","3713-VJ","2017/06/22 15:19:17","新北市新店區新明街26巷10號","121.54137","24.9688166666667","6500600","新店區"
"231036","512-UM","2017/06/22 15:19:14","新北市新店區安祥路69巷17號","121.481916666667","24.9613433333333","6500600","新店區"
"231023","513-UM","2017/06/22 15:19:22","新北市新店區北新路一段64巷37號","121.542083333333","24.9656633333333","6500600","新店區"
"231035","515-UM","2017/06/22 15:19:18","新北市新店區永平街23巷6號","121.516768333333","24.9831683333333","6500600","新店區"
"231003","616-UM","2017/06/22 15:19:17","新北市新店區寶橋路230號","121.551548333333","24.9788533333333","6500600","新店區"
"231001","619-UM","2017/06/22 15:19:12","新北市新店區北新路一段311號","121.541601666667","24.9678483333333","6500600","新店區"
"231034","645-TV","2017/06/22 15:19:15","新北市新店區如意街1巷2號","121.495803333333","24.9495833333333","6500600","新店區"
"231039","718-UY","2017/06/22 15:19:11","新北市新店區寶元路一段61號","121.542221666667","24.9860533333333","6500600","新店區"
"231031","720-UM","2017/06/22 15:19:07","新北市新店區和成街15巷2號","121.487743333333","24.9472533333333","6500600","新店區"
"231005","897-TW","2017/06/22 15:19:18","新北市新店區民族路61號","121.53986","24.9783383333333","6500600","新店區"
"231006","898-TW","2017/06/22 15:19:03","新北市新店區新坡一街105-1號","121.547698333333","24.9632066666667","6500600","新店區"
"231004","899-TW","2017/06/22 15:19:15","新北市新店區建國路31號","121.540286666667","24.9741416666667","6500600","新店區"
"231037","AKT-0513","2017/06/22 15:19:22","新北市新店區安民街365巷7弄3號","121.516151666667","24.9752766666667","6500600","新店區"
"241020","413-TH","2017/06/22 15:19:17","新北市三重區忠孝路三段2號","121.481973333333","25.0676866666667","6500200","三重區"
"235030","003-UY","2017/06/22 15:19:07","新北市中和區保平路328號","121.506988333333","25.0042266666667","6500300","中和區"
"235003","097-UM","2017/06/22 15:19:11","新北市中和區安平路68-1號","121.510666666667","24.9962583333333","6500300","中和區"
"235029","098-UM","2017/06/22 14:33:17","新北市中和區員山路36巷16-3號","121.48507","24.9912","6500300","中和區"
"235036","301-VK","2017/06/22 15:19:08","新北市八里區中山路三段386號","121.368473333333","25.135915","6500300","中和區"
"235007","352-BY","2017/06/22 15:19:12","新北市中和區興南路二段159巷10號","121.505058333333","24.9832583333333","6500300","中和區"
"235004","375-QA","2017/06/22 15:19:17","新北市中和區保健路26巷21號","121.508698333333","24.99712","6500300","中和區"
"235014","4979-A6","2017/06/22 15:19:05","新北市中和區景安路82巷6弄3號","121.505168333333","24.996405","6500300","中和區"
"235033","4980-A6","2017/06/22 15:19:03","新北市中和區中正路368號","121.492896666667","24.9941866666667","6500300","中和區"
"235034","558-UM","2017/06/22 15:19:22","新北市中和區圓通路69號","121.500115","24.9970233333333","6500300","中和區"
"235010","733-UM","2017/06/22 15:19:19","新北市中和區興南路三段35號","121.497066666667","24.9780483333333","6500300","中和區"
"235035","783-BX","2017/06/22 15:19:05","新北市中和區建康路11號","121.48613","25.0001516666667","6500300","中和區"
"235012","896-TW","2017/06/22 15:19:08","新北市中和區景新街368號","121.512203333333","24.9904166666667","6500300","中和區"
"235001","AAC-213","2017/06/22 15:19:09","新北市中和區秀朗路三段131號","121.52547","24.9928583333333","6500300","中和區"
"235023","AAC-215","2017/06/22 15:19:21","新北市中和區圓通路435巷2-10號","121.487431666667","24.986675","6500300","中和區"
"220013","072-UY","2017/06/22 15:19:05","新北市板橋區大觀路二段365巷13號","121.440908333333","24.9981166666667","6500100","板橋區"
"220034","073-UY","2017/06/22 15:19:16","新北市樹林區八德街491-8號","121.402875","24.9692883333333","6500100","板橋區"
"220017","AAD-861","2017/06/22 15:19:18","新北市板橋區大明街15巷3號","121.45888","25.0023016666667","6500100","板橋區"
"220046","120-SR","2017/06/22 15:19:16","新北市板橋區光正街42號","121.461833333333","25.0175","6500100","板橋區"
"247002","402-BY","2017/06/22 15:19:12","新北市蘆洲區光榮路24號","121.460691666667","25.0883266666667","6501400","蘆洲區"
"247002","336-TH","2017/06/22 15:18:51","新北市林口區太平里180號","121.368093333333","25.134735","6501400","蘆洲區"
"228003","097-TW","2017/06/22 15:17:39","新北市貢寮區貢寮里朝陽街1-2號","121.912356666667","25.0212416666667","6502600","貢寮區"
"208004","AAC-292","2017/06/22 15:19:12","新北市金山區六股里下六股15號","121.625236666667","25.22423","6502700","金山區"
"207001","463-BY","2017/06/22 15:19:18","新北市萬里區大鵬里萬里加投9號","121.652246666667","25.208695","6502800","萬里區"
"252005","702-TV","2017/06/22 15:19:09","新北市三芝區育英街23號","121.501603333333","25.2581233333333","6502100","三芝區"
"236066","105-UM","2017/06/22 15:19:17","新北市土城區裕民路185巷36弄6號","121.454488333333","24.984615","6501300","土城區"
"236040","107-UM","2017/06/22 15:19:17","新北市土城區裕民路285號","121.456118333333","24.981715","6501300","土城區"
"236076","166-UM","2017/06/22 15:19:15","新北市土城區中州路27巷4號","121.413508333333","24.95761","6501300","土城區"
"236028","253-BX","2017/06/22 15:19:19","新北市土城區中央路一段290號","121.443275","24.9824016666667","6501300","土城區"
"236024","269-VK","2017/06/22 15:19:21","新北市土城區中央路二段149巷15弄1號","121.442598333333","24.9768516666667","6501300","土城區"
"236012","270-VK","2017/06/22 15:19:14","新北市土城區學府路一段33號","121.458021666667","24.9884233333333","6501300","土城區"
"236033","271-VK","2017/06/22 15:19:18","新北市土城區國際路139巷10號","121.468456666667","24.9766966666667","6501300","土城區"
"236018","401-BY","2017/06/22 15:19:08","新北市土城區峰廷街3號","121.469136666667","24.9873533333333","6501300","土城區"
"236056","912-UM","2017/06/22 15:19:11","新北市土城區金城路二段39巷4號","121.450251666667","24.9781766666667","6501300","土城區"
"236047","913-UM","2017/06/22 15:19:01","新北市土城區清水路328號","121.46396","24.9854516666667","6501300","土城區"
"236060","915-UM","2017/06/22 15:19:06","新北市土城區延平街71號","121.467611666667","24.99289","6501300","土城區"
"236052","AAC-216","2017/06/22 15:19:20","新北市土城區學府路一段276號","121.449965","24.98297","6501300","土城區"
"238002","755-BX","2017/06/22 15:19:11","新北市樹林區大安路568-1號","121.412426666667","24.984215","6500700","樹林區"
"238010","601-UM","2017/06/22 15:19:12","新北市樹林區文化街91巷20號","121.415686666667","24.9893083333333","6500700","樹林區"
"238006","599-UM","2017/06/22 15:19:18","新北市樹林區八德街251巷9號","121.422195","24.9785233333333","6500700","樹林區"
"238005","571-TV","2017/06/22 15:19:07","新北市板橋區大觀路三段20號","121.434483333333","24.9958416666667","6500700","樹林區"
"238011","5061-A6","2017/06/22 15:19:12","新北市樹林區博愛一街29巷64號","121.425926666667","24.9916316666667","6500700","樹林區"
"238009","312-TH","2017/06/22 15:19:15","新北市樹林區忠孝街37號","121.423811666667","24.9819766666667","6500700","樹林區"
"238008","311-TH","2017/06/22 15:09:08","新北市樹林區西圳街一段118巷16號","121.394491666667","24.9658483333333","6500700","樹林區"
"238012","303-VK","2017/06/22 15:19:15","新北市樹林區中山路二段48-1號","121.416555","24.9845216666667","6500700","樹林區"
"238004","283-BY","2017/06/22 15:19:02","新北市樹林區東興街3號","121.409108333333","24.98022","6500700","樹林區"
"238001","282-BY","2017/06/22 15:19:09","新北市樹林區大安路495號","121.414198333333","24.98659","6500700","樹林區"
"238007","268-VK","2017/06/22 15:19:16","新北市板橋區大觀路三段6號","121.434896666667","24.99579","6500700","樹林區"
"238013","172-UY","2017/06/22 15:19:08","新北市樹林區東大街144號","121.410013333333","24.975925","6500700","樹林區"
"238003","169-UY","2017/06/22 15:19:24","新北市樹林區中山路二段38號","121.417188333333","24.9848216666667","6500700","樹林區"
"221010","276-VK","2017/06/22 14:27:36","新北市汐止區汐萬路一段256巷3號","121.653441666667","25.0746116666667","6501100","汐止區"
"221002","753-BX","2017/06/22 15:19:20","新北市汐止區汐萬路一段256巷1號","121.652033333333","25.0748166666667","6501100","汐止區"
"220027","145-BY","2017/06/22 15:19:05","新北市板橋區大觀路一段29巷59-5號","121.451406666667","25.0072183333333","6500100","板橋區"
"220038","146-RM","2017/06/22 15:19:23","新北市板橋區互助街66號","121.461123333333","25.0266566666667","6500100","板橋區"
"220030","610-BX","2017/06/22 15:19:17","新北市板橋區篤行路一段39號","121.432183333333","24.994005","6500100","板橋區"
"220050","245-BX","2017/06/22 15:19:14","新北市板橋區雙十路二段47巷2弄24號","121.47556","25.0268583333333","6500100","板橋區"
"220023","256-TC","2017/06/22 15:19:05","新北市板橋區華東街1-9號","121.4481","24.9948483333333","6500100","板橋區"
"220012","280-UM","2017/06/22 15:19:18","新北市板橋區長安街331巷50-3號","121.473531666667","25.0130116666667","6500100","板橋區"
"220031","286-VK","2017/06/22 15:08:34","新北市板橋區僑中二街90巷37號","121.444398333333","25.0094366666667","6500100","板橋區"
"220029","287-VK","2017/06/22 15:19:02","新北市板橋區僑中一街80巷1弄17號","121.446718333333","25.0119333333333","6500100","板橋區"
"220009","295-UM","2017/06/22 15:19:13","新北市板橋區四川路一段286巷14號","121.458131666667","25.0011183333333","6500100","板橋區"
"220041","307-R5","2017/06/22 15:19:08","新北市板橋區文化路一段39號","121.4603","25.013295","6500100","板橋區"
"220037","491-VK","2017/06/22 15:18:40","新北市板橋區民治街92號","121.47921","25.0317833333333","6500100","板橋區"
"220052","561-BX","2017/06/22 15:19:08","新北市板橋區漢生西路28號","121.463491666667","25.0183033333333","6500100","板橋區"
"220011","609-BX","2017/06/22 15:19:12","新北市板橋區三民路一段89號","121.47953","25.02178","6500100","板橋區"
"220025","687-BX","2017/06/22 15:19:17","新北市板橋區大觀路三段54號","121.433198333333","24.9955083333333","6500100","板橋區"
"220042","689-BX","2017/06/22 15:19:04","新北市板橋區長江路二段110號","121.465285","25.0314683333333","6500100","板橋區"
"220003","827-TW","2017/06/22 15:19:03","新北市板橋區仁愛路25號","121.458963333333","24.999465","6500100","板橋區"
"220051","830-TW","2017/06/22 15:19:17","新北市板橋區漢生東路7號","121.464691666667","25.017575","6500100","板橋區"
"220018","AAC-253","2017/06/22 15:19:09","新北市板橋區成都街23號","121.460716666667","25.0049016666667","6500100","板橋區"
