"lineid","car","time","location","longitude","latitude","cityid","cityname"
"234064","847-RS","2017/06/22 14:36:33","新北市永和區福和路1號","121.52663","25.0098583333333","6500400","永和區"
"243001","297-R6","2017/06/22 15:49:09","新北市泰山區橫窠雅2號","121.402003333333","25.07224","6501600","泰山區"
"231030","047-UY","2017/06/22 15:49:12","新北市新店區安和路三段130號","121.516581666667","24.9858516666667","6500600","新店區"
"231029","106-UY","2017/06/22 15:49:20","新北市新店區薏仁坑路自強巷1號","121.49675","24.9580716666667","6500600","新店區"
"231018","107-UY","2017/06/22 15:49:03","新北市新店區復興路102號","121.531813333333","24.9889183333333","6500600","新店區"
"231011","108-UY","2017/06/22 15:49:18","新北市新店區文化路15號","121.542993333333","24.9795183333333","6500600","新店區"
"231021","187-VK","2017/06/22 15:49:14","新北市新店區新烏路一段85巷6號","121.549258333333","24.9426283333333","6500600","新店區"
"231007","189-VK","2017/06/22 11:55:11","新北市新店區安華路28-1號","121.519691666667","24.9610933333333","6500600","新店區"
"231026","256-BX","2017/06/22 15:49:12","新北市新店區三民路159巷2號","121.534083333333","24.97402","6500600","新店區"
"231046","278-BY","2017/06/22 15:49:13","新北市新店區安華路28-1號","121.519821666667","24.9614883333333","6500600","新店區"
"231017","AAD-862","2017/06/22 15:49:19","新北市新店區中華路52號","121.539615","24.968575","6500600","新店區"
"231038","4715-K9","2017/06/22 15:49:17","新北市新店區安康路二段22號","121.515983333333","24.9638116666667","6500600","新店區"
"231023","513-UM","2017/06/22 15:49:11","新北市新店區大新街9巷28號","121.544463333333","24.9669233333333","6500600","新店區"
"231035","515-UM","2017/06/22 15:49:18","新北市新店區安民街379巷3號","121.516071666667","24.976275","6500600","新店區"
"231003","616-UM","2017/06/22 15:49:17","新北市新店區寶興路60巷3號","121.54988","24.97182","6500600","新店區"
"231034","645-TV","2017/06/22 15:49:15","新北市新店區玫瑰路57巷32號","121.49681","24.9463066666667","6500600","新店區"
"231013","719-UM","2017/06/22 15:49:19","新北市新店區永業路81巷1弄3號","121.529833333333","24.94962","6500600","新店區"
"231031","720-UM","2017/06/22 15:49:07","新北市新店區雙城路60巷16弄13號","121.491726666667","24.9478833333333","6500600","新店區"
"231037","AKT-0513","2017/06/22 15:49:02","新北市新店區安興路112號","121.514611666667","24.9776183333333","6500600","新店區"
"241011","013-R5","2017/06/22 15:49:24","新北市三重區文化北路248號","121.49741","25.069955","6500200","三重區"
"241028","022-UY","2017/06/22 15:49:15","新北市三重區中正南路42號","121.49382","25.0600366666667","6500200","三重區"
"241017","063-VK","2017/06/22 15:49:11","新北市三重區大仁街42號","121.491661666667","25.0643416666667","6500200","三重區"
"241024","065-VK","2017/06/22 15:49:09","新北市三重區力行路一段38巷8號","121.485188333333","25.06652","6500200","三重區"
"241026","066-VK","2017/06/22 15:49:11","新北市三重區重新路三段2號","121.495553333333","25.0615166666667","6500200","三重區"
"241003","091-VK","2017/06/22 15:49:07","新北市三重區成功路24號","121.489696666667","25.0504116666667","6500200","三重區"
"241015","156-TC","2017/06/22 15:49:08","新北市三重區重新路四段121號","121.484893333333","25.0524783333333","6500200","三重區"
"241005","262-UM","2017/06/22 15:49:14","新北市三重區環河南路86-7號","121.502031666667","25.0589866666667","6500200","三重區"
"241029","265-UM","2017/06/22 15:49:16","新北市三重區同安東街57號","121.498428333333","25.057275","6500200","三重區"
"241016","266-UM","2017/06/22 15:49:15","新北市三重區重新路四段121號","121.48522","25.0521233333333","6500200","三重區"
"241022","267-UM","2017/06/22 15:49:18","新北市三重區重新路四段121號","121.484778333333","25.0525683333333","6500200","三重區"
"241018","268-UM","2017/06/22 15:49:08","新北市三重區重新路三段132號","121.491606666667","25.0597","6500200","三重區"
"241013","270-UM","2017/06/22 15:49:12","新北市三重區六張街30號","121.49525","25.0705066666667","6500200","三重區"
"241007","398-BY","2017/06/22 15:49:16","新北市三重區重新路四段121號","121.485233333333","25.05205","6500200","三重區"
"241020","413-TH","2017/06/22 15:49:17","新北市三重區忠孝路二段52號","121.485108333333","25.0703783333333","6500200","三重區"
"241014","543-UM","2017/06/22 15:49:00","新北市三重區重新路四段121號","121.485088333333","25.0520233333333","6500200","三重區"
"241023","545-UM","2017/06/22 15:49:12","新北市三重區捷運路36號","121.483025","25.054925","6500200","三重區"
"241001","547-UM","2017/06/22 15:49:05","新北市三重區重新路四段121號","121.484573333333","25.0523683333333","6500200","三重區"
"241006","AAD-863","2017/06/22 15:49:11","新北市三重區捷運路11-2號","121.486196666667","25.0563633333333","6500200","三重區"
"241012","887-TS","2017/06/22 15:49:18","新北市三重區文化北路140巷30號","121.49758","25.0668516666667","6500200","三重區"
"241033","AAC-255","2017/06/22 15:49:18","新北市三重區興德路82號","121.474113333333","25.0530366666667","6500200","三重區"
"235029","098-UM","2017/06/22 15:46:25","新北市中和區員山路36巷16-3號","121.485106666667","24.9912116666667","6500300","中和區"
"235036","301-VK","2017/06/22 15:49:08","新北市板橋區民生路三段323號","121.463438333333","25.0313216666667","6500300","中和區"
"235033","4980-A6","2017/06/22 15:49:03","新北市中和區新生街284號","121.483786666667","24.9967083333333","6500300","中和區"
"235010","733-UM","2017/06/22 15:49:19","新北市中和區興南路三段35號","121.497028333333","24.9780416666667","6500300","中和區"
"235026","800-TS","2017/06/22 15:49:08","新北市中和區橋和路88-1號","121.490258333333","25.0054116666667","6500300","中和區"
"235001","AAC-213","2017/06/22 15:49:09","新北市中和區秀朗路三段50巷11號","121.525476666667","24.9952716666667","6500300","中和區"
"235023","AAC-215","2017/06/22 15:49:21","新北市中和區員山路66-4號","121.481936666667","24.991835","6500300","中和區"
"220017","AAD-861","2017/06/22 15:49:19","新北市板橋區金門街337巷9弄2-1號","121.432043333333","24.9831183333333","6500100","板橋區"
"247002","402-BY","2017/06/22 15:49:12","新北市林口區汕頭32號","121.366613333333","25.134995","6501400","蘆洲區"
"247002","336-TH","2017/06/22 15:44:51","新北市五股區中興路三段163號","121.449361666667","25.0806883333333","6501400","蘆洲區"
"228003","097-TW","2017/06/22 15:17:39","新北市貢寮區貢寮里朝陽街1-2號","121.912356666667","25.0212416666667","6502600","貢寮區"
"224007","273-VK","2017/06/22 15:49:00","新北市瑞芳區大寮路55號","121.781703333333","25.0979966666667","6501200","瑞芳區"
"227004","642-TC","2017/06/22 15:49:14","新北市雙溪區平林里外平林44號","121.852926666667","25.036325","6502500","雙溪區"
"227010","400-TW","2017/06/22 15:49:12","新北市雙溪區牡丹里中正路54號","121.86541","25.040255","6502500","雙溪區"
"236066","105-UM","2017/06/22 15:49:17","新北市土城區大安路126號","121.433976666667","24.969735","6501300","土城區"
"236076","166-UM","2017/06/22 15:49:15","新北市土城區民權街17號","121.414045","24.9637416666667","6501300","土城區"
"236028","253-BX","2017/06/22 15:49:19","新北市土城區學成路128巷11號","121.449541666667","24.9900533333333","6501300","土城區"
"236024","269-VK","2017/06/22 15:49:21","新北市土城區中央路一段249巷11號","121.445936666667","24.9855983333333","6501300","土城區"
"236012","270-VK","2017/06/22 15:49:14","新北市土城區廣明街61號","121.455003333333","24.993645","6501300","土城區"
"236018","401-BY","2017/06/22 15:49:08","新北市土城區延吉街137巷25弄5號","121.471453333333","24.9851983333333","6501300","土城區"
"236056","912-UM","2017/06/22 15:49:11","新北市土城區中央路一段269-4號","121.444798333333","24.9851066666667","6501300","土城區"
"236047","913-UM","2017/06/22 15:49:21","新北市土城區金城路三段245號","121.471551666667","24.9900866666667","6501300","土城區"
"236052","AAC-216","2017/06/22 15:49:20","新北市土城區學府路一段101號","121.456096666667","24.98789","6501300","土城區"
"238002","755-BX","2017/06/22 15:49:15","新北市樹林區啟智街44巷1號","121.420385","24.9926566666667","6500700","樹林區"
"238010","601-UM","2017/06/22 15:49:12","新北市樹林區龍興街13巷8號","121.403268333333","25.0163083333333","6500700","樹林區"
"238006","599-UM","2017/06/22 15:49:18","新北市樹林區國凱街138巷10號","121.423508333333","24.9804683333333","6500700","樹林區"
"238005","571-TV","2017/06/22 15:49:07","新北市樹林區中華路150-10號","121.415921666667","24.9802133333333","6500700","樹林區"
"238011","5061-A6","2017/06/22 15:49:12","新北市樹林區中山路二段219號","121.402861666667","24.9764433333333","6500700","樹林區"
"238009","312-TH","2017/06/22 15:49:18","新北市樹林區太順街50號","121.418191666667","24.9794283333333","6500700","樹林區"
"238008","311-TH","2017/06/22 15:29:28","新北市樹林區西圳街一段165巷13號","121.395471666667","24.9620766666667","6500700","樹林區"
"238012","303-VK","2017/06/22 15:49:15","新北市樹林區中山路一段163號","121.421805","24.9887","6500700","樹林區"
"238004","283-BY","2017/06/22 15:49:18","新北市樹林區光興街8-2號","121.41273","25.0029666666667","6500700","樹林區"
"238001","282-BY","2017/06/22 15:49:09","新北市樹林區潭興街93號","121.424793333333","24.9986216666667","6500700","樹林區"
"238007","268-VK","2017/06/22 15:49:15","新北市樹林區三俊街279號","121.423125","25.0141616666667","6500700","樹林區"
"238013","172-UY","2017/06/22 15:49:14","新北市樹林區中洲街20巷1弄6號","121.397633333333","24.9717183333333","6500700","樹林區"
"238003","169-UY","2017/06/22 15:49:04","新北市樹林區文化街56號","121.41807","24.9886516666667","6500700","樹林區"
"221010","276-VK","2017/06/22 14:27:36","新北市汐止區汐萬路一段256巷3號","121.653441666667","25.0746116666667","6501100","汐止區"
"220027","145-BY","2017/06/22 15:48:05","新北市樹林區中山路三段214號","121.380025","24.9678383333333","6500100","板橋區"
"220050","245-BX","2017/06/22 15:49:14","新北市板橋區三民路一段22號","121.478708333333","25.0234733333333","6500100","板橋區"
"220025","687-BX","2017/06/22 15:49:17","新北市樹林區八德街588號","121.39811","24.9692516666667","6500100","板橋區"
"220003","827-TW","2017/06/22 15:49:03","新北市樹林區中山路三段214號","121.380095","24.967735","6500100","板橋區"
