"lineid","car","time","location","longitude","latitude","cityid","cityname"
"234064","847-RS","2017/06/22 14:36:33","新北市永和區福和路1號","121.52663","25.0098583333333","6500400","永和區"
"249005","172-UM","2017/06/22 17:19:04","新北市八里區華富山25號","121.419176666667","25.13046","6502300","八里區"
"249001","173-UM","2017/06/22 17:19:08","新北市八里區中華路二段165巷3號","121.407638333333","25.1509016666667","6502300","八里區"
"249004","303-UY","2017/06/22 17:19:06","新北市八里區文化街28號","121.423895","25.1598416666667","6502300","八里區"
"249002","305-UY","2017/06/22 17:19:04","新北市八里區龍米路二段117巷35號","121.443706666667","25.1419866666667","6502300","八里區"
"249003","593-UM","2017/06/22 17:19:13","新北市八里區商港路80號","121.395485","25.1463816666667","6502300","八里區"
"244013","069-UM","2017/06/22 17:19:17","新北市林口區粉寮69號","121.40506","25.09081","6501700","林口區"
"244007","080-UY","2017/06/22 17:19:14","新北市林口區菁埔25-8號","121.377081666667","25.0965333333333","6501700","林口區"
"244019","403-UM","2017/06/22 17:19:07","新北市林口區四維路156號","121.380573333333","25.075565","6501700","林口區"
"244022","483-VK","2017/06/22 17:19:07","新北市林口區仁愛路一段667巷37號","121.387003333333","25.0760466666667","6501700","林口區"
"244009","656-BX","2017/06/22 17:19:14","新北市林口區松柏路82號","121.37905","25.0900866666667","6501700","林口區"
"244021","657-BX","2017/06/22 17:19:04","新北市林口區粉寮路二段160巷18號","121.405616666667","25.0925866666667","6501700","林口區"
"244011","701-TV","2017/06/22 17:19:15","新北市林口區粉寮69號","121.404995","25.0908533333333","6501700","林口區"
"244025","837-TS","2017/06/22 17:19:14","新北市林口區民族路157號","121.367048333333","25.07644","6501700","林口區"
"243016","680-BX","2017/06/22 16:15:58","新北市泰山區犁頭窠3-1號","121.421888333333","25.060535","6501600","泰山區"
"231007","189-VK","2017/06/22 11:55:11","新北市新店區安華路28-1號","121.519691666667","24.9610933333333","6500600","新店區"
"241011","013-R5","2017/06/22 17:19:04","新北市三重區河邊北街100巷33號","121.502561666667","25.07019","6500200","三重區"
"241028","022-UY","2017/06/22 17:19:15","新北市三重區仁化街59號","121.493715","25.0590516666667","6500200","三重區"
"241008","059-VK","2017/06/22 17:19:20","新北市三重區下竹圍街2號","121.480645","25.07607","6500200","三重區"
"241009","060-VK","2017/06/22 17:19:05","新北市三重區仁愛街618號","121.483573333333","25.0806483333333","6500200","三重區"
"241017","063-VK","2017/06/22 17:19:11","新北市三重區大同北路55號","121.495143333333","25.0632533333333","6500200","三重區"
"241024","065-VK","2017/06/22 17:19:09","新北市三重區中正北路193巷21弄26號","121.477965","25.070855","6500200","三重區"
"241026","066-VK","2017/06/22 17:19:11","新北市三重區文化南路31-2號","121.500043333333","25.061745","6500200","三重區"
"241002","090-VK","2017/06/22 17:19:19","新北市三重區仁愛街357巷27號","121.49275","25.0804416666667","6500200","三重區"
"241003","091-VK","2017/06/22 17:19:07","新北市三重區富福街60號","121.491935","25.0845266666667","6500200","三重區"
"241015","156-TC","2017/06/22 17:19:08","新北市三重區福德北路89號","121.50185","25.0662533333333","6500200","三重區"
"241005","262-UM","2017/06/22 17:19:14","新北市三重區碧華街50號","121.483501666667","25.0812416666667","6500200","三重區"
"241029","265-UM","2017/06/22 17:19:16","新北市三重區重安街1號","121.490111666667","25.0581733333333","6500200","三重區"
"241016","266-UM","2017/06/22 17:19:15","新北市三重區新北大道一段7號","121.489633333333","25.0612766666667","6500200","三重區"
"241022","267-UM","2017/06/22 17:19:17","新北市三重區中正北路111-1號","121.485696666667","25.06527","6500200","三重區"
"241018","268-UM","2017/06/22 17:19:08","新北市三重區民生東街2號","121.49247","25.0681483333333","6500200","三重區"
"241032","269-UM","2017/06/22 17:19:07","新北市三重區新北大道一段133巷12號","121.482433333333","25.0609233333333","6500200","三重區"
"241013","270-UM","2017/06/22 17:19:12","新北市三重區仁昌街1號","121.495925","25.07372","6500200","三重區"
"241025","271-UM","2017/06/22 17:19:07","新北市三重區中正北路295號","121.474505","25.0712216666667","6500200","三重區"
"241007","398-BY","2017/06/22 17:19:15","新北市三重區慈愛街8號","121.484485","25.0783783333333","6500200","三重區"
"241020","413-TH","2017/06/22 17:19:17","新北市三重區自強路三段72號","121.486835","25.07357","6500200","三重區"
"241004","475-VK","2017/06/22 17:19:15","新北市三重區五華街122巷19號","121.491095","25.0827066666667","6500200","三重區"
"241019","478-VK","2017/06/22 17:19:08","新北市三重區自強路二段74巷6號","121.488336666667","25.0697666666667","6500200","三重區"
"241030","480-VK","2017/06/22 17:19:17","新北市三重區成功路73巷6號","121.48906","25.0516516666667","6500200","三重區"
"241014","543-UM","2017/06/22 17:19:20","新北市三重區介壽路39巷160號","121.501958333333","25.0708066666667","6500200","三重區"
"241023","545-UM","2017/06/22 17:19:12","新北市三重區三民街188號","121.481848333333","25.065675","6500200","三重區"
"241001","547-UM","2017/06/22 17:19:05","新北市三重區仁愛街269巷8號","121.493341666667","25.0790116666667","6500200","三重區"
"241006","AAD-863","2017/06/22 17:19:08","新北市三重區車路頭街135-1號","121.484268333333","25.0759816666667","6500200","三重區"
"241024","743-BX","2017/06/22 17:19:13","新北市三重區捷運路36號","121.483278333333","25.0553833333333","6500200","三重區"
"241012","887-TS","2017/06/22 17:19:18","新北市三重區河邊北街256巷2號","121.501593333333","25.076195","6500200","三重區"
"241033","AAC-255","2017/06/22 17:19:18","新北市三重區中興北街148號","121.469","25.0564516666667","6500200","三重區"
"235064","005-UY","2017/06/22 17:13:49","新北市中和區員山路36巷16-2號","121.485256666667","24.9913533333333","6500300","中和區"
"235029","098-UM","2017/06/22 17:07:34","新北市中和區興南路三段47巷32-6號","121.497025","24.977845","6500300","中和區"
"235062","800-TS","2017/06/22 17:09:03","新北市中和區員山路36巷16-3號","121.48515","24.9914516666667","6500300","中和區"
"235017","900-TW","2017/06/22 15:54:31","新北市中和區員山路36巷16-2號","121.485218333333","24.991515","6500300","中和區"
"247020","893-R6","2017/06/22 17:19:10","新北市蘆洲區民族路426巷8號","121.473723333333","25.0920716666667","6501400","蘆洲區"
"247010","546-UM","2017/06/22 17:19:09","新北市蘆洲區三民路26巷10號","121.476858333333","25.082625","6501400","蘆洲區"
"247018","500-BY","2017/06/22 17:19:06","新北市蘆洲區民權路96巷1弄2號","121.474381666667","25.0882383333333","6501400","蘆洲區"
"247006","341-TH","2017/06/22 17:19:12","新北市蘆洲區長安街108巷5弄1號","121.461188333333","25.0817283333333","6501400","蘆洲區"
"247008","339-TH","2017/06/22 17:19:07","新北市蘆洲區信義路30巷162號","121.475498333333","25.076135","6501400","蘆洲區"
"247024","337-TH","2017/06/22 17:19:10","新北市蘆洲區長榮路335號","121.459543333333","25.0874666666667","6501400","蘆洲區"
"247002","336-TH","2017/06/22 17:19:20","新北市蘆洲區永樂街38巷45弄16號","121.457505","25.0900683333333","6501400","蘆洲區"
"247014","057-VK","2017/06/22 17:19:02","新北市蘆洲區中正路94號","121.470363333333","25.0839716666667","6501400","蘆洲區"
"247004","056-VK","2017/06/22 17:19:10","新北市蘆洲區中原路56號","121.459018333333","25.0822666666667","6501400","蘆洲區"
"247012","007-UY","2017/06/22 17:19:04","新北市蘆洲區信義路319巷10弄15號","121.477401666667","25.0864533333333","6501400","蘆洲區"
"247022","002-UY","2017/06/22 17:19:19","新北市蘆洲區民義街5號","121.471216666667","25.0885716666667","6501400","蘆洲區"
"247016","001-UY","2017/06/22 17:19:20","新北市蘆洲區光華路22巷47號","121.468173333333","25.0848033333333","6501400","蘆洲區"
"228003","097-TW","2017/06/22 17:19:02","新北市貢寮區福隆里興隆街18號","121.944888333333","25.0167233333333","6502600","貢寮區"
"228001","212-TW","2017/06/22 17:19:01","新北市貢寮區仁理村仁和路1號","121.92416","25.0478116666667","6502600","貢寮區"
"228002","585-TW","2017/06/22 17:19:06","新北市貢寮區雙玉里下雙溪街28號","121.925028333333","25.01182","6502600","貢寮區"
"224010","AGQ-8101","2017/06/22 09:09:42","新北市瑞芳區民權街3-1號","121.809426666667","25.108175","6501200","瑞芳區"
"224006","676-BX","2017/06/22 17:19:12","新北市瑞芳區大寮路63巷11號","121.780175","25.095005","6501200","瑞芳區"
"224009","285-BY","2017/06/22 17:19:02","新北市瑞芳區汽車路145號","121.838591666667","25.1098866666667","6501200","瑞芳區"
"224008","275-VK","2017/06/22 17:19:03","新北市瑞芳區侯硐路127號","121.831515","25.089995","6501200","瑞芳區"
"224005","271-BY","2017/06/22 17:19:09","新北市瑞芳區鼻頭路127號","121.916656666667","25.121975","6501200","瑞芳區"
"227004","642-TC","2017/06/22 17:19:14","新北市雙溪區上林里內平林90號","121.827556666667","25.0275016666667","6502500","雙溪區"
"227010","400-TW","2017/06/22 17:19:12","新北市雙溪區三貂里定福路1-6號","121.849463333333","25.063475","6502500","雙溪區"
"251004","009-UM","2017/06/22 17:19:10","新北市淡水區中正東路二段88巷15號","121.459061666667","25.1503916666667","6501000","淡水區"
"251007","179-VK","2017/06/22 17:19:21","新北市淡水區民生路60號","121.462075","25.1379633333333","6501000","淡水區"
"251008","181-VK","2017/06/22 17:19:04","新北市淡水區大同路293號","121.467683333333","25.142345","6501000","淡水區"
"251014","182-VK","2017/06/22 17:19:19","新北市淡水區公埔子30-2號","121.46569","25.2286716666667","6501000","淡水區"
"251010","413-VK","2017/06/22 17:19:09","新北市淡水區中正路二段38號","121.419623333333","25.1822416666667","6501000","淡水區"
"251012","441-VK","2017/06/22 17:19:20","新北市淡水區中山北路一段158號","121.44416","25.17784","6501000","淡水區"
"251016","442-VK","2017/06/22 17:19:08","新北市淡水區鄒厝崙14號","121.461605","25.1904533333333","6501000","淡水區"
"251005","443-VK","2017/06/22 17:19:06","新北市淡水區鄧公路19-1號","121.450268333333","25.1699666666667","6501000","淡水區"
"251006","561-UM","2017/06/22 17:19:18","新北市淡水區大智街8號","121.44161","25.1745283333333","6501000","淡水區"
"251011","650-BX","2017/06/22 17:19:19","新北市淡水區坪頂路120巷2號","121.465181666667","25.161025","6501000","淡水區"
"251003","766-UM","2017/06/22 17:19:09","新北市淡水區中正路二段31號","121.419368333333","25.1816883333333","6501000","淡水區"
"207003","550-UM","2017/06/22 17:19:05","新北市萬里區萬里里瑪鋉路314號","121.688228333333","25.18204","6502800","萬里區"
"252002","178-VK","2017/06/22 17:19:19","新北市三芝區忠孝街1-14號","121.505511666667","25.2539383333333","6502100","三芝區"
"252001","702-TV","2017/06/22 17:19:05","新北市三芝區長安街119號","121.49807","25.259645","6502100","三芝區"
"242021","AAC-296","2017/06/22 17:19:21","新北市新莊區中港路343號","121.45199","25.0454766666667","6500500","新莊區"
"242029","986-R7","2017/06/22 17:19:22","新北市新莊區新泰路500號","121.442346666667","25.04633","6500500","新莊區"
"242048","751-BX","2017/06/22 17:19:05","新北市新莊區龍安路253號","121.419611666667","25.0200583333333","6500500","新莊區"
"242025","615-BX","2017/06/22 17:19:12","新北市新莊區中平路82巷29號","121.44605","25.0449","6500500","新莊區"
"242023","613-BX","2017/06/22 17:19:09","新北市新莊區中環路二段392-1號","121.442386666667","25.0457416666667","6500500","新莊區"
"242027","612-BX","2017/06/22 17:19:04","新北市新莊區中平路82巷36-2號","121.446423333333","25.0448866666667","6500500","新莊區"
"242036","566-BX","2017/06/22 17:19:15","新北市新莊區新樹路207-7號","121.435903333333","25.023915","6500500","新莊區"
"242042","497-BY","2017/06/22 17:19:16","新北市新莊區新樹路113巷21號","121.43938","25.0263566666667","6500500","新莊區"
"242004","442-UM","2017/06/22 17:19:09","新北市新莊區和興街67號","121.446275","25.04116","6500500","新莊區"
"242046","441-UM","2017/06/22 17:19:13","新北市新莊區新樹路67巷32號","121.440435","25.0303233333333","6500500","新莊區"
"242051","440-UM","2017/06/22 17:19:12","新北市新莊區瓊林路192號","121.43913","25.0207816666667","6500500","新莊區"
"242031","415-TV","2017/06/22 17:19:10","新北市新莊區中環路二段392-1號","121.442426666667","25.04567","6500500","新莊區"
"242002","413-TV","2017/06/22 17:19:17","新北市新莊區新莊路773號","121.442006666667","25.0327933333333","6500500","新莊區"
"242039","400-BY","2017/06/22 17:19:07","新北市新莊區新樹路44號","121.437656666667","25.0277316666667","6500500","新莊區"
"242061","362-BY","2017/06/22 10:11:21","新北市新莊區三和路12-21號","121.442178333333","25.0385983333333","6500500","新莊區"
"242058","353-BY","2017/06/22 17:19:05","新北市新莊區三和路12-21號","121.442198333333","25.0386633333333","6500500","新莊區"
"242011","132-UY","2017/06/22 17:19:16","新北市新莊區中誠街19號","121.451535","25.048","6500500","新莊區"
"242034","133-UY","2017/06/22 17:19:05","新北市新莊區瓊林路21-1號","121.445898333333","25.0286816666667","6500500","新莊區"
"242019","135-UY","2017/06/22 17:19:18","新北市新莊區中平路82巷32號","121.446175","25.0448833333333","6500500","新莊區"
"242044","172-VK","2017/06/22 17:19:19","新北市新莊區富國路101-1號","121.421368333333","25.0255033333333","6500500","新莊區"
"242007","173-VK","2017/06/22 10:58:03","新北市板橋區長江路一段105巷1弄7號","121.458806666667","25.0318066666667","6500500","新莊區"
"242013","175-VK","2017/06/22 17:19:05","新北市新莊區中環路二段392-1號","121.442313333333","25.0452483333333","6500500","新莊區"
"242056","176-VK","2017/06/22 17:19:16","新北市新莊區新莊路763巷8號","121.442416666667","25.0323266666667","6500500","新莊區"
"242017","348-TH","2017/06/22 17:19:12","新北市新莊區中平路82巷36-1號","121.446276666667","25.0448966666667","6500500","新莊區"
"242053","349-TH","2017/06/22 17:19:06","新北市新莊區瓊林路59-89號","121.442151666667","25.02444","6500500","新莊區"
"242015","350-TH","2017/06/22 17:19:19","新北市新莊區公園一路136號","121.446195","25.038165","6500500","新莊區"
"242009","351-TH","2017/06/22 17:19:11","新北市新莊區中平路441號","121.44346","25.0556","6500500","新莊區"
"238015","755-BX","2017/06/22 17:19:06","新北市樹林區大安路499號","121.414243333333","24.9865266666667","6500700","樹林區"
"238023","601-UM","2017/06/22 17:19:12","新北市樹林區中正路433號","121.415038333333","25.008535","6500700","樹林區"
"238019","599-UM","2017/06/22 17:19:18","新北市樹林區八德街170號","121.421673333333","24.97812","6500700","樹林區"
"238018","571-TV","2017/06/22 17:19:07","新北市板橋區篤行路三段98號","121.42584","24.9847866666667","6500700","樹林區"
"238024","5061-A6","2017/06/22 17:19:13","新北市樹林區鎮前街6號","121.426435","24.9935633333333","6500700","樹林區"
"238022","312-TH","2017/06/22 17:19:07","新北市樹林區忠孝街31號","121.423665","24.98221","6500700","樹林區"
"238021","311-TH","2017/06/22 15:29:28","新北市樹林區西圳街一段165巷13號","121.395471666667","24.9620766666667","6500700","樹林區"
"238025","303-VK","2017/06/22 17:19:15","新北市樹林區千歲街72號","121.426235","24.9976133333333","6500700","樹林區"
"238017","283-BY","2017/06/22 17:19:13","新北市樹林區中正路248巷28弄2號","121.41837","25.0080366666667","6500700","樹林區"
"238014","282-BY","2017/06/22 17:19:09","新北市樹林區大慶街99-1號","121.427641666667","24.9995783333333","6500700","樹林區"
"238020","268-VK","2017/06/22 17:19:15","新北市樹林區大安路277號","121.418653333333","24.9933066666667","6500700","樹林區"
"238026","172-UY","2017/06/22 17:19:10","新北市樹林區東順街100號","121.406045","24.9748833333333","6500700","樹林區"
"238016","169-UY","2017/06/22 17:19:04","新北市樹林區八德街1號","121.417511666667","24.9849583333333","6500700","樹林區"
"239007","AAC-297","2017/06/22 17:19:14","新北市鶯歌區光復街10-2號","121.351738333333","24.9551066666667","6500800","鶯歌區"
"239006","891-R6","2017/06/22 17:19:02","新北市鶯歌區德昌二街71號","121.333368333333","24.9582933333333","6500800","鶯歌區"
"239008","527-UM","2017/06/22 17:19:05","新北市鶯歌區西湖街289巷8號","121.340203333333","24.968095","6500800","鶯歌區"
"239005","526-UM","2017/06/22 17:19:01","新北市鶯歌區福德三街12號","121.329735","24.9676433333333","6500800","鶯歌區"
"239001","417-VK","2017/06/22 17:19:12","新北市鶯歌區尖山路178號","121.344606666667","24.9475416666667","6500800","鶯歌區"
"239003","360-BY","2017/06/22 17:19:18","新北市鶯歌區德昌二街21號","121.333188333333","24.9590383333333","6500800","鶯歌區"
"239002","359-BY","2017/06/22 17:19:07","新北市鶯歌區南雅路43號","121.348583333333","24.954255","6500800","鶯歌區"
"239004","193-VK","2017/06/22 17:19:06","新北市鶯歌區文化路324巷1-37號","121.35219","24.9458383333333","6500800","鶯歌區"
"221010","276-VK","2017/06/22 14:27:36","新北市汐止區汐萬路一段256巷3號","121.653441666667","25.0746116666667","6501100","汐止區"
