"lineid","car","time","location","longitude","latitude","cityid","cityname"
"234064","847-RS","2017/06/22 14:36:33","新北市永和區福和路1號","121.52663","25.0098583333333","6500400","永和區"
"249005","172-UM","2017/06/22 17:29:04","新北市八里區荖阡里38-2號","121.409461666667","25.126085","6502300","八里區"
"249001","173-UM","2017/06/22 17:29:08","新北市八里區中華路一段1-5號","121.42321","25.1586583333333","6502300","八里區"
"249004","303-UY","2017/06/22 17:29:06","新北市八里區民有街24號","121.415888333333","25.1567233333333","6502300","八里區"
"249002","305-UY","2017/06/22 17:29:04","新北市八里區龍形五街35巷3號","121.449423333333","25.1331466666667","6502300","八里區"
"249003","593-UM","2017/06/22 17:29:13","新北市八里區中山路二段341號","121.399558333333","25.147375","6502300","八里區"
"244013","069-UM","2017/06/22 17:29:17","新北市林口區粉寮路17巷1號","121.398463333333","25.0806833333333","6501700","林口區"
"244007","080-UY","2017/06/22 17:29:14","新北市林口區湖子5號","121.391058333333","25.0923466666667","6501700","林口區"
"244019","403-UM","2017/06/22 17:29:08","新北市林口區文化二路一段338號","121.372686666667","25.0748466666667","6501700","林口區"
"244022","483-VK","2017/06/22 17:29:07","新北市林口區興林路151巷10號","121.390083333333","25.07373","6501700","林口區"
"244017","485-VK","2017/06/22 17:29:19","新北市林口區粉寮路37-1號","121.401311666667","25.0850683333333","6501700","林口區"
"244009","656-BX","2017/06/22 17:29:14","新北市林口區中湖40-9號","121.383228333333","25.0911516666667","6501700","林口區"
"244021","657-BX","2017/06/22 17:29:04","新北市林口區粉寮路二段221號","121.404205","25.0903966666667","6501700","林口區"
"244011","701-TV","2017/06/22 17:29:15","新北市林口區仁愛路一段645號","121.388638333333","25.0766383333333","6501700","林口區"
"244025","837-TS","2017/06/22 17:29:14","新北市林口區民族路157號","121.367036666667","25.07644","6501700","林口區"
"243016","680-BX","2017/06/22 16:15:58","新北市泰山區犁頭窠3-1號","121.421888333333","25.060535","6501600","泰山區"
"231007","189-VK","2017/06/22 11:55:11","新北市新店區安華路28-1號","121.519691666667","24.9610933333333","6500600","新店區"
"241011","013-R5","2017/06/22 17:29:04","新北市三重區河邊北街110巷62號","121.502425","25.0704983333333","6500200","三重區"
"241017","063-VK","2017/06/22 17:29:11","新北市三重區重新路三段45-6號","121.493403333333","25.0618483333333","6500200","三重區"
"241024","065-VK","2017/06/22 17:29:09","新北市三重區大勇街82巷15弄19號","121.480643333333","25.0719183333333","6500200","三重區"
"241003","091-VK","2017/06/22 17:29:07","新北市三重區碧華街259號","121.489775","25.0830833333333","6500200","三重區"
"241015","156-TC","2017/06/22 17:29:08","新北市三重區長元街65巷16弄10號","121.50337","25.06623","6500200","三重區"
"241005","262-UM","2017/06/22 17:29:14","新北市三重區永安北路二段25巷43號","121.483096666667","25.0819616666667","6500200","三重區"
"241029","265-UM","2017/06/22 17:29:16","新北市三重區重新路四段43號","121.48807","25.057555","6500200","三重區"
"241016","266-UM","2017/06/22 17:29:15","新北市三重區信義西街148號","121.49544","25.0639433333333","6500200","三重區"
"241022","267-UM","2017/06/22 17:29:17","新北市三重區重陽路二段59號","121.487331666667","25.0635733333333","6500200","三重區"
"241032","269-UM","2017/06/22 17:29:07","新北市三重區名源街59號","121.482316666667","25.0595216666667","6500200","三重區"
"241013","270-UM","2017/06/22 17:29:12","新北市三重區三和路三段107巷12號","121.494853333333","25.0730366666667","6500200","三重區"
"241025","271-UM","2017/06/22 17:29:07","新北市三重區三民街324號","121.476675","25.069245","6500200","三重區"
"241007","398-BY","2017/06/22 17:29:15","新北市三重區三和路四段145巷170號","121.48842","25.0794883333333","6500200","三重區"
"241020","413-TH","2017/06/22 17:29:17","新北市三重區忠孝路一段115號","121.488981666667","25.0719966666667","6500200","三重區"
"241019","478-VK","2017/06/22 17:29:08","新北市三重區自強路二段26巷7號","121.489088333333","25.0691116666667","6500200","三重區"
"241030","480-VK","2017/06/22 17:29:06","新北市三重區集美街173號","121.49102","25.05368","6500200","三重區"
"241014","543-UM","2017/06/22 17:29:16","新北市三重區長壽街50號","121.500601666667","25.06821","6500200","三重區"
"241023","545-UM","2017/06/22 17:29:12","新北市三重區三民街146巷3弄2號","121.481706666667","25.0646","6500200","三重區"
"241024","743-BX","2017/06/22 17:29:13","新北市三重區國道路一段58巷18號","121.481043333333","25.07213","6500200","三重區"
"241012","887-TS","2017/06/22 17:29:18","新北市三重區仁福街64巷1號","121.497893333333","25.0747","6500200","三重區"
"241033","AAC-255","2017/06/22 17:29:18","新北市三重區興德路131巷6號","121.470055","25.0532533333333","6500200","三重區"
"235064","005-UY","2017/06/22 17:13:49","新北市中和區員山路36巷16-2號","121.485256666667","24.9913533333333","6500300","中和區"
"235029","098-UM","2017/06/22 17:07:34","新北市中和區興南路三段47巷32-6號","121.497025","24.977845","6500300","中和區"
"235062","800-TS","2017/06/22 17:29:05","新北市中和區和城路一段271巷1號","121.485545","24.9918783333333","6500300","中和區"
"235017","900-TW","2017/06/22 15:54:31","新北市中和區員山路36巷16-2號","121.485218333333","24.991515","6500300","中和區"
"247020","893-R6","2017/06/22 17:29:10","新北市蘆洲區仁愛街101巷10號","121.470636666667","25.0940666666667","6501400","蘆洲區"
"247010","546-UM","2017/06/22 17:29:09","新北市蘆洲區信義路159號","121.47973","25.0817916666667","6501400","蘆洲區"
"247018","500-BY","2017/06/22 17:29:06","新北市蘆洲區民義街22巷16號","121.471703333333","25.08817","6501400","蘆洲區"
"247006","341-TH","2017/06/22 17:29:12","新北市蘆洲區長安街46巷6號","121.46359","25.0798333333333","6501400","蘆洲區"
"247008","339-TH","2017/06/22 17:29:07","新北市蘆洲區信義路34巷130號","121.475695","25.0764983333333","6501400","蘆洲區"
"247024","337-TH","2017/06/22 17:29:17","新北市蘆洲區長興路331號","121.460681666667","25.090485","6501400","蘆洲區"
"247002","336-TH","2017/06/22 17:29:19","新北市蘆洲區永平街56號","121.457601666667","25.0915166666667","6501400","蘆洲區"
"247014","057-VK","2017/06/22 17:29:22","新北市蘆洲區三民路38-1號","121.475516666667","25.0830383333333","6501400","蘆洲區"
"247004","056-VK","2017/06/22 17:29:10","新北市蘆洲區長安街233巷26號","121.458418333333","25.082455","6501400","蘆洲區"
"247012","007-UY","2017/06/22 17:29:03","新北市蘆洲區三民路88號","121.47384","25.085195","6501400","蘆洲區"
"247022","002-UY","2017/06/22 17:28:59","新北市蘆洲區三民路289號","121.466938333333","25.0902683333333","6501400","蘆洲區"
"247016","001-UY","2017/06/22 17:28:40","新北市蘆洲區光華路70巷11號","121.467668333333","25.0832733333333","6501400","蘆洲區"
"228003","097-TW","2017/06/22 17:29:02","新北市貢寮區仁理村研海街62-2號","121.925568333333","25.0454766666667","6502600","貢寮區"
"228001","212-TW","2017/06/22 17:29:21","新北市貢寮區仁理村仁愛路25號","121.924678333333","25.0533166666667","6502600","貢寮區"
"228002","585-TW","2017/06/22 17:29:06","新北市貢寮區福隆里福隆街17號","121.944806666667","25.01629","6502600","貢寮區"
"224010","AGQ-8101","2017/06/22 09:09:42","新北市瑞芳區民權街3-1號","121.809426666667","25.108175","6501200","瑞芳區"
"224006","676-BX","2017/06/22 17:29:18","新北市瑞芳區傑魚坑路319號","121.786008333333","25.1041283333333","6501200","瑞芳區"
"224009","285-BY","2017/06/22 17:29:22","新北市瑞芳區汽車路11號","121.84605","25.11058","6501200","瑞芳區"
"224008","275-VK","2017/06/22 17:29:23","新北市瑞芳區九芎橋路112號","121.83292","25.09316","6501200","瑞芳區"
"224005","271-BY","2017/06/22 17:29:09","新北市瑞芳區海濱路3巷2-11號","121.849441666667","25.12625","6501200","瑞芳區"
"227004","642-TC","2017/06/22 17:29:13","新北市雙溪區平林里外平林62號","121.84439","25.0347466666667","6502500","雙溪區"
"227010","400-TW","2017/06/22 17:29:12","新北市雙溪區三貂里十三層5-3號","121.852328333333","25.076665","6502500","雙溪區"
"251004","009-UM","2017/06/22 17:29:10","新北市淡水區中正東路二段88巷15號","121.459053333333","25.150315","6501000","淡水區"
"251001","011-UM","2017/06/22 17:29:17","新北市淡水區中正路261號","121.431908333333","25.17479","6501000","淡水區"
"251007","179-VK","2017/06/22 17:29:01","新北市淡水區民生路47-4號","121.46205","25.1379666666667","6501000","淡水區"
"251008","181-VK","2017/06/22 17:29:04","新北市淡水區大同路124巷17號","121.463561666667","25.13982","6501000","淡水區"
"251014","182-VK","2017/06/22 17:29:19","新北市淡水區公埔子20-2號","121.469888333333","25.2289983333333","6501000","淡水區"
"251010","413-VK","2017/06/22 17:29:09","新北市淡水區中正路二段211號","121.426206666667","25.189135","6501000","淡水區"
"251012","441-VK","2017/06/22 17:29:20","新北市淡水區北新路111號","121.448076666667","25.1783483333333","6501000","淡水區"
"251016","442-VK","2017/06/22 17:29:08","新北市淡水區大竹圍10號","121.464625","25.1926533333333","6501000","淡水區"
"251005","443-VK","2017/06/22 17:29:06","新北市淡水區鄧公路31巷1號","121.451358333333","25.170815","6501000","淡水區"
"251006","561-UM","2017/06/22 17:29:18","新北市淡水區中山北路一段119巷3號","121.442363333333","25.176985","6501000","淡水區"
"251011","650-BX","2017/06/22 17:29:19","新北市淡水區坪頂路712號","121.482495","25.15851","6501000","淡水區"
"251002","672-BX","2017/06/22 17:29:10","新北市淡水區中正路一段49號","121.424378333333","25.1775133333333","6501000","淡水區"
"251003","766-UM","2017/06/22 17:29:09","新北市淡水區中山路158號","121.44077","25.1728383333333","6501000","淡水區"
"207003","550-UM","2017/06/22 17:29:19","新北市萬里區龜吼里玉田路46-10號","121.68325","25.18913","6502800","萬里區"
"207004","225-TW","2017/06/22 17:29:12","新北市萬里區萬里里景美路8-3號","121.684396666667","25.1728116666667","6502800","萬里區"
"252002","178-VK","2017/06/22 17:29:19","新北市三芝區忠孝街1-14號","121.505503333333","25.253945","6502100","三芝區"
"252001","702-TV","2017/06/22 17:29:05","新北市三芝區長安街119號","121.498075","25.2596533333333","6502100","三芝區"
"208002","170-UY","2017/06/22 15:39:50","新北市金山區磺清路135號","121.639433333333","25.2277016666667","6502700","金山區"
"237011","572-TV","2017/06/22 17:29:11","新北市三峽區中山路459巷163-3號","121.348666666667","24.9329633333333","6500900","三峽區"
"237016","649-BX","2017/06/22 17:29:00","新北市三峽區中山路459巷163-3號","121.348705","24.9330483333333","6500900","三峽區"
"242021","AAC-296","2017/06/22 17:29:21","新北市新莊區中正路134號","121.452708333333","25.0361333333333","6500500","新莊區"
"242029","986-R7","2017/06/22 17:29:22","新北市新莊區幸福路1號","121.459576666667","25.0494633333333","6500500","新莊區"
"242048","751-BX","2017/06/22 17:29:05","新北市新莊區四維路219號","121.421615","25.019885","6500500","新莊區"
"242025","615-BX","2017/06/22 17:29:12","新北市新莊區中港路281號","121.453216666667","25.0437766666667","6500500","新莊區"
"242023","613-BX","2017/06/22 17:29:17","新北市新莊區公園路138號","121.452788333333","25.04006","6500500","新莊區"
"242027","612-BX","2017/06/22 17:29:04","新北市新莊區思源路31號","121.459981666667","25.0394666666667","6500500","新莊區"
"242036","566-BX","2017/06/22 17:29:15","新北市新莊區建國二路11號","121.434295","25.0239583333333","6500500","新莊區"
"242042","497-BY","2017/06/22 17:29:14","新北市新莊區建國一路13號","121.433793333333","25.0316983333333","6500500","新莊區"
"242004","442-UM","2017/06/22 17:29:09","新北市新莊區中港路280號","121.453028333333","25.0440916666667","6500500","新莊區"
"242046","441-UM","2017/06/22 17:29:13","新北市新莊區新樹路67巷32號","121.440363333333","25.0303483333333","6500500","新莊區"
"242051","440-UM","2017/06/22 17:29:12","新北市新莊區瓊林南路73-26號","121.435071666667","25.0152733333333","6500500","新莊區"
"242031","415-TV","2017/06/22 17:29:10","新北市新莊區新泰路403號","121.44333","25.0440733333333","6500500","新莊區"
"242002","413-TV","2017/06/22 17:29:17","新北市新莊區新莊路249號","121.45449","25.0349683333333","6500500","新莊區"
"242039","400-BY","2017/06/22 17:29:07","新北市新莊區民安路274號","121.427648333333","25.021475","6500500","新莊區"
"242061","362-BY","2017/06/22 17:29:10","新北市新莊區瓊林北路6號","121.440908333333","25.0230116666667","6500500","新莊區"
"242058","353-BY","2017/06/22 17:29:16","新北市新莊區中正路442號","121.440283333333","25.0335716666667","6500500","新莊區"
"242011","132-UY","2017/06/22 17:29:16","新北市新莊區中港路467號","121.452305","25.0489583333333","6500500","新莊區"
"242034","133-UY","2017/06/22 17:29:22","新北市新莊區新莊路376號","121.44922","25.03352","6500500","新莊區"
"242019","135-UY","2017/06/22 17:29:18","新北市新莊區中港路50號","121.455401666667","25.038435","6500500","新莊區"
"242044","172-VK","2017/06/22 17:28:59","新北市新莊區富國路87號","121.420515","25.0257566666667","6500500","新莊區"
"242007","173-VK","2017/06/22 17:29:00","新北市新莊區自立街77號","121.454328333333","25.0454366666667","6500500","新莊區"
"242013","175-VK","2017/06/22 17:29:05","新北市新莊區中誠街14號","121.451983333333","25.0482666666667","6500500","新莊區"
"242056","176-VK","2017/06/22 17:29:16","新北市新莊區景德路208號","121.449061666667","25.0337716666667","6500500","新莊區"
"242017","348-TH","2017/06/22 17:29:12","新北市新莊區中華路一段103號","121.452743333333","25.0438716666667","6500500","新莊區"
"242053","349-TH","2017/06/22 17:29:06","新北市新莊區瓊林南路305巷23號","121.435408333333","25.00503","6500500","新莊區"
"242015","350-TH","2017/06/22 17:29:19","新北市新莊區新泰路161號","121.447813333333","25.0370133333333","6500500","新莊區"
"242009","351-TH","2017/06/22 17:29:18","新北市新莊區中原路87號","121.456701666667","25.0544133333333","6500500","新莊區"
"238015","755-BX","2017/06/22 17:29:06","新北市樹林區大安路267號","121.41911","24.9937283333333","6500700","樹林區"
"238023","601-UM","2017/06/22 17:29:12","新北市樹林區中正路433號","121.41503","25.0085116666667","6500700","樹林區"
"238019","599-UM","2017/06/22 17:29:18","新北市樹林區太平路1-3號","121.418511666667","24.984725","6500700","樹林區"
"238018","571-TV","2017/06/22 17:29:07","新北市樹林區鎮前街269巷21號","121.419851666667","24.9852666666667","6500700","樹林區"
"238024","5061-A6","2017/06/22 17:29:13","新北市樹林區鎮前街60號","121.425715","24.9924083333333","6500700","樹林區"
"238022","312-TH","2017/06/22 17:29:07","新北市樹林區和平街31號","121.422613333333","24.9815383333333","6500700","樹林區"
"238021","311-TH","2017/06/22 15:29:28","新北市樹林區西圳街一段165巷13號","121.395471666667","24.9620766666667","6500700","樹林區"
"238025","303-VK","2017/06/22 17:29:15","新北市樹林區保安街一段249號","121.419786666667","24.996775","6500700","樹林區"
"238017","283-BY","2017/06/22 17:29:22","新北市樹林區中正路452號","121.41312","25.0120733333333","6500700","樹林區"
"238014","282-BY","2017/06/22 17:29:09","新北市樹林區長壽街70巷35弄6號","121.42137","24.9951183333333","6500700","樹林區"
"238020","268-VK","2017/06/22 17:29:15","新北市樹林區中正路22-1號","121.427803333333","24.9992816666667","6500700","樹林區"
"238026","172-UY","2017/06/22 17:29:10","新北市樹林區味王街14號","121.40317","24.9759116666667","6500700","樹林區"
"238016","169-UY","2017/06/22 17:29:14","新北市樹林區中山路一段4號","121.424163333333","24.993165","6500700","樹林區"
"239007","AAC-297","2017/06/22 17:29:13","新北市鶯歌區中山路300號","121.343093333333","24.9574766666667","6500800","鶯歌區"
"239006","891-R6","2017/06/22 17:29:01","新北市鶯歌區福安街7巷24弄46號","121.334741666667","24.9659966666667","6500800","鶯歌區"
"239008","527-UM","2017/06/22 17:29:05","新北市鶯歌區大湖路730號","121.332458333333","24.9768166666667","6500800","鶯歌區"
"239005","526-UM","2017/06/22 17:29:01","新北市鶯歌區鶯桃路二段11號","121.325706666667","24.971765","6500800","鶯歌區"
"239001","417-VK","2017/06/22 17:29:12","新北市鶯歌區黃厝街4號","121.342761666667","24.9461633333333","6500800","鶯歌區"
"239003","360-BY","2017/06/22 17:29:20","新北市鶯歌區德昌街1號","121.334003333333","24.960785","6500800","鶯歌區"
"239002","359-BY","2017/06/22 17:29:07","新北市鶯歌區育才街27巷1號","121.349145","24.9549633333333","6500800","鶯歌區"
"239004","193-VK","2017/06/22 17:29:06","新北市鶯歌區三鶯路23號","121.355638333333","24.9416616666667","6500800","鶯歌區"
"221010","276-VK","2017/06/22 14:27:36","新北市汐止區汐萬路一段256巷3號","121.653441666667","25.0746116666667","6501100","汐止區"
"221033","647-BX","2017/06/22 15:17:48","新北市汐止區康寧街901號","121.651551666667","25.0749933333333","6501100","汐止區"
