"lineid","car","time","location","longitude","latitude","cityid","cityname"
"234013","149-BY","2017/06/22 18:29:05","新北市永和區福和路1號","121.526316666667","25.0094433333333","6500400","永和區"
"234007","207-UY","2017/06/22 18:29:12","新北市永和區環河西路二段229巷5號","121.501526666667","25.0099233333333","6500400","永和區"
"234081","298-R6","2017/06/22 18:29:03","新北市永和區環河東路二段98號","121.524183333333","25.0103883333333","6500400","永和區"
"234086","338-UY","2017/06/22 18:29:06","新北市永和區豫溪街217巷11號","121.524635","25.00969","6500400","永和區"
"234064","847-RS","2017/06/22 14:36:33","新北市永和區福和路1號","121.52663","25.0098583333333","6500400","永和區"
"234042","862-TW","2017/06/22 18:29:05","新北市永和區福和路1號","121.526013333333","25.009195","6500400","永和區"
"234026","9371-KE","2017/06/22 18:29:05","新北市永和區中正路708號","121.515923333333","25.0099833333333","6500400","永和區"
"234011","9373-KE","2017/06/22 18:29:15","新北市永和區文化路162號","121.512255","25.0153816666667","6500400","永和區"
"249005","172-UM","2017/06/22 18:29:04","新北市八里區中華路三段53號","121.394995","25.14154","6502300","八里區"
"249001","173-UM","2017/06/22 18:29:08","新北市八里區龍米路一段98號","121.453375","25.12471","6502300","八里區"
"249004","303-UY","2017/06/22 18:29:06","新北市八里區忠孝路82號","121.426066666667","25.1604033333333","6502300","八里區"
"249002","305-UY","2017/06/22 18:29:04","新北市八里區龍形三街26號","121.448253333333","25.1316916666667","6502300","八里區"
"248016","026-BX","2017/06/22 18:29:10","新北市五股區凌雲路一段83巷21號","121.448945","25.1011283333333","6501500","五股區"
"248006","077-UY","2017/06/22 18:29:17","新北市五股區四維路38號","121.467256666667","25.07154","6501500","五股區"
"248008","095-VK","2017/06/22 18:29:19","新北市五股區四維路185巷42弄1號","121.463371666667","25.076875","6501500","五股區"
"248020","225-UY","2017/06/22 18:29:15","新北市五股區孝義路70-1號","121.452168333333","25.1134483333333","6501500","五股區"
"248012","247-BX","2017/06/22 15:18:18","新北市五股區中興路二段37巷24號","121.460858333333","25.0751416666667","6501500","五股區"
"248014","261-SL","2017/06/22 18:29:04","新北市五股區自強路143號","121.432043333333","25.0694583333333","6501500","五股區"
"248010","272-BY","2017/06/22 18:29:09","新北市五股區水碓路1號","121.433831666667","25.0721016666667","6501500","五股區"
"248002","678-BX","2017/06/22 18:29:15","新北市五股區西雲路167號","121.446656666667","25.09468","6501500","五股區"
"234023","9380-KE","2017/06/22 18:29:19","新北市永和區豫溪街217巷1號","121.524916666667","25.0093083333333","6500400","永和區"
"234077","969-R7","2017/06/22 18:29:18","新北市永和區豫溪街217巷27號","121.524276666667","25.0101966666667","6500400","永和區"
"232011","375-UM","2017/06/22 18:29:19","新北市坪林區坪雙路一段43號","121.71178","24.9425066666667","6502000","坪林區"
"244013","069-UM","2017/06/22 18:29:17","新北市林口區中山路202-6號","121.387971666667","25.0790616666667","6501700","林口區"
"244007","080-UY","2017/06/22 18:29:14","新北市林口區後湖11-63號","121.387048333333","25.0976366666667","6501700","林口區"
"244019","403-UM","2017/06/22 18:29:07","新北市林口區麗園路89號","121.373118333333","25.0687066666667","6501700","林口區"
"244022","483-VK","2017/06/22 18:29:07","新北市林口區四維路245巷53號","121.38281","25.075475","6501700","林口區"
"244017","485-VK","2017/06/22 18:29:19","新北市林口區公園路30號","121.366891666667","25.0675933333333","6501700","林口區"
"244009","656-BX","2017/06/22 18:29:14","新北市林口區民生路131巷1號","121.37743","25.088475","6501700","林口區"
"244021","657-BX","2017/06/22 18:29:14","新北市林口區自強六街18號","121.399621666667","25.07647","6501700","林口區"
"244011","701-TV","2017/06/22 18:29:15","新北市林口區林口路13號","121.39161","25.0778416666667","6501700","林口區"
"244025","837-TS","2017/06/22 18:29:14","新北市林口區南勢六街55號","121.355745","25.0714833333333","6501700","林口區"
"243013","AAD-798","2017/06/22 18:29:16","新北市泰山區工專路58號","121.423068333333","25.04013","6501600","泰山區"
"243012","646-TV","2017/06/22 18:29:18","新北市泰山區忠孝街14-1號","121.427653333333","25.0649883333333","6501600","泰山區"
"243016","680-BX","2017/06/22 18:29:04","新北市泰山區犁頭窠3-1號","121.422421666667","25.0606433333333","6501600","泰山區"
"222003","436-BY","2017/06/22 18:29:00","新北市深坑區旺耽路8號","121.63075","25.0053883333333","6501800","深坑區"
"222002","659-BX","2017/06/22 18:29:07","新北市深坑區雲鄉路204號","121.621658333333","24.9979316666667","6501800","深坑區"
"222001","696-SL","2017/06/22 18:29:03","新北市深坑區北深路一段199號","121.630418333333","25.0089783333333","6501800","深坑區"
"231041","002-UM","2017/06/22 18:29:02","新北市新店區安華路28-1號","121.519738333333","24.9608683333333","6500600","新店區"
"231056","0291-UT","2017/06/22 18:29:12","新北市新店區中正路438號","121.534178333333","24.9783266666667","6500600","新店區"
"231059","046-UY","2017/06/22 18:29:10","新北市新店區安華路28-1號","121.51959","24.9607733333333","6500600","新店區"
"231060","106-UY","2017/06/22 18:29:08","新北市新店區安華路28-1號","121.519706666667","24.9607733333333","6500600","新店區"
"231051","107-UY","2017/06/22 18:29:01","新北市新店區安華路28-1號","121.51941","24.9613966666667","6500600","新店區"
"231047","108-UY","2017/06/22 18:29:02","新北市新店區安華路28-1號","121.519593333333","24.96088","6500600","新店區"
"231052","187-VK","2017/06/22 18:29:21","新北市新店區新烏路一段17巷2號","121.546341666667","24.95096","6500600","新店區"
"231007","189-VK","2017/06/22 11:55:11","新北市新店區安華路28-1號","121.519691666667","24.9610933333333","6500600","新店區"
"231057","256-BX","2017/06/22 18:29:04","新北市新店區安康路一段85號","121.529471666667","24.9614183333333","6500600","新店區"
"231063","268-BY","2017/06/22 18:29:13","新北市新店區安華路28-1號","121.519366666667","24.9605716666667","6500600","新店區"
"231046","278-BY","2017/06/22 18:29:17","新北市新店區直潭七街60號","121.532353333333","24.939805","6500600","新店區"
"231050","AAD-862","2017/06/22 18:29:00","新北市新店區安華路28-1號","121.519733333333","24.9612516666667","6500600","新店區"
"231058","3712-VJ","2017/06/22 18:29:06","新北市新店區新店後街98號","121.537588333333","24.9551533333333","6500600","新店區"
"231055","3713-VJ","2017/06/22 18:29:07","新北市新店區中正路128巷7弄2號","121.542318333333","24.9717866666667","6500600","新店區"
"231067","4772-VM","2017/06/22 18:29:05","新北市新店區安華路1-1號","121.51906","24.9605616666667","6500600","新店區"
"231065","512-UM","2017/06/22 16:04:51","新北市新店區安華路28-1號","121.519501666667","24.9611933333333","6500600","新店區"
"231054","513-UM","2017/06/22 18:29:13","新北市新店區安華路3號","121.519381666667","24.9597616666667","6500600","新店區"
"231064","515-UM","2017/06/22 16:37:24","新北市新店區安華路28-1號","121.519696666667","24.9611533333333","6500600","新店區"
"231042","616-UM","2017/06/22 18:29:05","新北市新店區安華路28-1號","121.519483333333","24.9605733333333","6500600","新店區"
"231040","619-UM","2017/06/22 18:29:13","新北市新店區安華路28-1號","121.519628333333","24.96076","6500600","新店區"
"231049","719-UM","2017/06/22 18:29:11","新北市新店區安華路28-1號","121.519778333333","24.9612","6500600","新店區"
"231062","720-UM","2017/06/22 18:29:22","新北市新店區安華路28-1號","121.519061666667","24.9613166666667","6500600","新店區"
"231044","897-TW","2017/06/22 18:29:04","新北市新店區安華路28-1號","121.519643333333","24.960905","6500600","新店區"
"231045","898-TW","2017/06/22 18:29:12","新北市新店區安華路28-1號","121.51937","24.9610133333333","6500600","新店區"
"231043","899-TW","2017/06/22 16:45:20","新北市新店區安華路28-1號","121.518985","24.9609233333333","6500600","新店區"
"231066","AKT-0513","2017/06/22 18:29:09","新北市新店區安華路30巷1號","121.519385","24.9595766666667","6500600","新店區"
"241017","063-VK","2017/06/22 18:27:31","新北市八里區荖阡坑路34號","121.402495","25.12846","6500200","三重區"
"235066","003-UY","2017/06/22 18:29:19","新北市中和區水源路2-2號","121.502936666667","25.00346","6500300","中和區"
"235064","005-UY","2017/06/22 18:29:08","新北市中和區圓通路145巷9弄2號","121.498028333333","24.9949516666667","6500300","中和區"
"235063","006-UY","2017/06/22 18:29:04","新北市中和區連城路347巷45號","121.488711666667","24.9946683333333","6500300","中和區"
"235056","096-UM","2017/06/22 18:29:03","新北市板橋區三民路二段220巷19號","121.47787","25.01145","6500300","中和區"
"235039","097-UM","2017/06/22 18:29:11","新北市中和區宜安路56號","121.511775","24.9968366666667","6500300","中和區"
"235029","098-UM","2017/06/22 17:07:34","新北市中和區興南路三段47巷32-6號","121.497025","24.977845","6500300","中和區"
"235058","151-BY","2017/06/22 18:29:14","新北市中和區圓通路369巷30弄16號","121.489553333333","24.9851466666667","6500300","中和區"
"235055","183-VK","2017/06/22 18:29:08","新北市土城區延壽路118-4號","121.469093333333","24.9943016666667","6500300","中和區"
"235038","185-VK","2017/06/22 18:29:02","新北市中和區秀朗路三段128巷17弄5號","121.524233333333","24.9934516666667","6500300","中和區"
"235049","186-VK","2017/06/22 18:29:13","新北市中和區景平路486號","121.504843333333","24.993925","6500300","中和區"
"235072","301-VK","2017/06/22 18:29:08","新北市中和區連城路237-1號","121.493825","24.9973816666667","6500300","中和區"
"235043","352-BY","2017/06/22 18:29:02","新北市中和區景平路297號","121.506765","24.9931183333333","6500300","中和區"
"235040","375-QA","2017/06/22 18:29:03","新北市中和區中正路166-1號","121.49833","24.9938416666667","6500300","中和區"
"235051","376-QA","2017/06/22 18:29:14","新北市中和區興南路二段242巷12號","121.502616666667","24.9829666666667","6500300","中和區"
"235068","377-QA","2017/06/22 18:29:16","新北市中和區錦和路203巷13號","121.491388333333","24.9906216666667","6500300","中和區"
"235061","378-QA","2017/06/22 18:29:01","新北市中和區莒光路171號","121.47284","24.9997916666667","6500300","中和區"
"235050","4979-A6","2017/06/22 18:29:07","新北市中和區景新街362巷10號","121.511868333333","24.990115","6500300","中和區"
"235069","4980-A6","2017/06/22 18:29:09","新北市中和區連城路99巷9號","121.497006666667","24.99918","6500300","中和區"
"235042","551-UM","2017/06/22 18:29:09","新北市中和區自立路56巷20號","121.522503333333","24.9916883333333","6500300","中和區"
"235070","558-UM","2017/06/22 18:29:19","新北市中和區圓通路138號","121.498355","24.99577","6500300","中和區"
"235045","565-BX","2017/06/22 18:29:09","新北市中和區復興路20號","121.505441666667","24.9899716666667","6500300","中和區"
"235060","647-TV","2017/06/22 18:29:11","新北市中和區員山路90號","121.480891666667","24.99438","6500300","中和區"
"235047","732-UM","2017/06/22 18:29:08","新北市中和區復興路22號","121.505348333333","24.9899933333333","6500300","中和區"
"235046","733-UM","2017/06/22 18:29:12","新北市中和區中正路637巷52弄1號","121.485495","24.9933783333333","6500300","中和區"
"235062","800-TS","2017/06/22 18:29:01","新北市中和區景平路989巷2號","121.495645","25.0054966666667","6500300","中和區"
"235057","801-TS","2017/06/22 18:29:13","新北市中和區員山路261號","121.481285","24.9991483333333","6500300","中和區"
"235041","802-TS","2017/06/22 18:29:19","新北市中和區中正路637巷52弄1號","121.485498333333","24.99342","6500300","中和區"
"235052","805-TS","2017/06/22 18:29:03","新北市中和區興南路二段133號","121.505298333333","24.9841366666667","6500300","中和區"
"235048","896-TW","2017/06/22 18:29:00","新北市中和區中正路171號","121.497783333333","24.9935016666667","6500300","中和區"
"235053","900-TW","2017/06/22 18:29:09","新北市中和區連城路569巷9弄22號","121.479863333333","24.9935066666667","6500300","中和區"
"235040","157-BY","2017/06/22 18:29:05","新北市中和區安平路38號","121.509748333333","24.9950366666667","6500300","中和區"
"235037","AAC-213","2017/06/22 18:29:16","新北市中和區景德街1號","121.519118333333","24.9914883333333","6500300","中和區"
"235059","AAC-215","2017/06/22 18:12:06","新北市中和區員山路36巷16-3號","121.485151666667","24.9914283333333","6500300","中和區"
"220068","013-TV","2017/06/22 18:29:14","新北市板橋區民生路二段36-1號","121.47246","25.016565","6500100","板橋區"
"220065","072-UY","2017/06/22 16:27:37","新北市板橋區民生路二段15-1號","121.47272","25.016455","6500100","板橋區"
"220086","073-UY","2017/06/22 18:29:06","新北市板橋區華東街1-10號","121.448248333333","24.9950583333333","6500100","板橋區"
"247006","341-TH","2017/06/22 18:29:12","新北市林口區太平里180號","121.368136666667","25.1346733333333","6501400","蘆洲區"
"247022","002-UY","2017/06/22 18:29:19","新北市八里區商港路20號","121.396668333333","25.1445066666667","6501400","蘆洲區"
"226004","312-R5","2017/06/22 18:28:32","新北市平溪區靜安路二段294巷6號","121.735623333333","25.0238233333333","6502400","平溪區"
"228003","097-TW","2017/06/22 18:29:02","新北市貢寮區和美里和美街36-1號","121.912303333333","25.085505","6502600","貢寮區"
"228001","212-TW","2017/06/22 18:29:01","新北市貢寮區仁理村仁義街4號","121.923658333333","25.0520283333333","6502600","貢寮區"
"228002","585-TW","2017/06/22 18:29:06","新北市貢寮區福連里香蘭街24號","121.984125","25.0215266666667","6502600","貢寮區"
"224006","676-BX","2017/06/22 18:29:12","新北市瑞芳區逢甲路76-1號","121.810391666667","25.10832","6501200","瑞芳區"
"224002","639-TC","2017/06/22 18:29:02","新北市瑞芳區正貿新村21號","121.813141666667","25.1057983333333","6501200","瑞芳區"
"224011","420-VK","2017/06/22 18:29:07","新北市瑞芳區崙頂路1-6號","121.847075","25.1047333333333","6501200","瑞芳區"
"224009","285-BY","2017/06/22 18:29:02","新北市瑞芳區祈堂路184號","121.85774","25.1095083333333","6501200","瑞芳區"
"224008","275-VK","2017/06/22 18:29:03","新北市瑞芳區逢甲路15號","121.8098","25.1086916666667","6501200","瑞芳區"
"224007","273-VK","2017/06/22 18:29:00","新北市瑞芳區大埔路吉慶公園城7號","121.765475","25.1003083333333","6501200","瑞芳區"
"224005","271-BY","2017/06/22 18:29:09","新北市瑞芳區台電新村113號","121.81171","25.1283083333333","6501200","瑞芳區"
"227004","642-TC","2017/06/22 18:29:14","新北市雙溪區魚行里坤溪22號","121.870443333333","25.02892","6502500","雙溪區"
"227010","400-TW","2017/06/22 18:29:18","新北市雙溪區牡丹里牡丹137號","121.85114","25.0590416666667","6502500","雙溪區"
"253006","032-BX","2017/06/22 18:29:13","新北市石門區公地20號","121.545768333333","25.2902133333333","6502200","石門區"
"253005","295-VK","2017/06/22 18:29:03","新北市石門區老崩山10-7號","121.552475","25.2909316666667","6502200","石門區"
"208001","742-BX","2017/06/22 18:29:01","新北市金山區文化二路4號","121.63685","25.2246083333333","6502700","金山區"
"208003","665-BX","2017/06/22 18:29:04","新北市金山區中山路116號","121.63929","25.219925","6502700","金山區"
"251004","009-UM","2017/06/22 18:29:10","新北市淡水區大同路1號","121.461118333333","25.1408016666667","6501000","淡水區"
"251001","011-UM","2017/06/22 18:29:17","新北市淡水區自強路415巷2號","121.4654","25.1342883333333","6501000","淡水區"
"251008","181-VK","2017/06/22 18:29:04","新北市淡水區北投子93-2號","121.46585","25.1764233333333","6501000","淡水區"
"251014","182-VK","2017/06/22 18:29:19","新北市淡水區南平20-1號","121.493925","25.2171333333333","6501000","淡水區"
"251010","413-VK","2017/06/22 18:29:09","新北市淡水區沙崙路181巷1號","121.424136666667","25.184185","6501000","淡水區"
"251012","441-VK","2017/06/22 18:29:20","新北市淡水區北新路一段157號","121.458725","25.18226","6501000","淡水區"
"251016","442-VK","2017/06/22 18:29:09","新北市淡水區下圭柔山115-7號","121.44647","25.2096783333333","6501000","淡水區"
"251006","561-UM","2017/06/22 18:29:18","新北市淡水區崁頂36-1號","121.438961666667","25.1946766666667","6501000","淡水區"
"251011","650-BX","2017/06/22 18:28:59","新北市淡水區中正東路77號","121.44761","25.1673766666667","6501000","淡水區"
"251002","672-BX","2017/06/22 18:29:10","新北市淡水區竿蓁二街19巷20弄2號","121.453228333333","25.163535","6501000","淡水區"
"251003","766-UM","2017/06/22 18:29:09","新北市淡水區北新路69巷26號","121.446765","25.1800383333333","6501000","淡水區"
"207003","550-UM","2017/06/22 18:29:04","新北市萬里區野柳里港東路162-11號","121.690236666667","25.20396","6502800","萬里區"
"207004","225-TW","2017/06/22 18:29:12","新北市萬里區萬里里瑪鋉路272-1號","121.68882","25.18088","6502800","萬里區"
"252002","178-VK","2017/06/22 18:29:19","新北市三芝區中山路二段39號","121.502926666667","25.25513","6502100","三芝區"
"252003","249-BX","2017/06/22 18:29:12","新北市三芝區後厝里北勢子41-5號","121.472733333333","25.2530566666667","6502100","三芝區"
"252001","702-TV","2017/06/22 18:29:05","新北市三芝區中興街二段2號","121.498313333333","25.2567","6502100","三芝區"
"208002","170-UY","2017/06/22 18:29:08","新北市金山區磺港里磺港路169號","121.642745","25.2245","6502700","金山區"
"237004","078-UY","2017/06/22 18:29:09","新北市三峽區五寮89-7號","121.359326666667","24.8564783333333","6500900","三峽區"
"237007","153-BY","2017/06/22 18:29:10","新北市三峽區中正路三段124號","121.354476666667","24.9036566666667","6500900","三峽區"
"237009","210-TH","2017/06/22 18:29:00","新北市三峽區民族街123號","121.369318333333","24.9285566666667","6500900","三峽區"
"237013","252-BX","2017/06/22 18:29:08","新北市三峽區永安街46-2號","121.376741666667","24.9304916666667","6500900","三峽區"
"237012","275-BY","2017/06/22 18:29:03","新北市三峽區三樹路112號","121.378413333333","24.9392683333333","6500900","三峽區"
"237008","302-VK","2017/06/22 18:29:13","新北市三峽區白雞68-133號","121.390835","24.9083233333333","6500900","三峽區"
"237014","433-BY","2017/06/22 18:29:21","新北市三峽區民生街119-4號","121.373628333333","24.93521","6500900","三峽區"
"237006","5529-G3","2017/06/22 18:29:04","新北市三峽區溪東路473巷31號","121.414988333333","24.929085","6500900","三峽區"
"237011","572-TV","2017/06/22 18:29:11","新北市三峽區溪東路356號","121.413443333333","24.9279933333333","6500900","三峽區"
"237016","649-BX","2017/06/22 18:29:20","新北市三峽區竹崙路152號","121.434685","24.9084766666667","6500900","三峽區"
"237010","706-TV","2017/06/22 18:29:02","新北市三峽區復興路449號","121.362573333333","24.938525","6500900","三峽區"
"237005","AKY-6261","2017/06/22 18:29:15","新北市三峽區秀川街44巷1號","121.37154","24.93399","6500900","三峽區"
"236071","105-UM","2017/06/22 18:29:07","新北市土城區永豐路255巷27弄45號","121.477048333333","24.97369","6501300","土城區"
"236042","107-UM","2017/06/22 18:29:18","新北市土城區裕民路67巷13號","121.449921666667","24.988335","6501300","土城區"
"236078","166-UM","2017/06/22 18:29:19","新北市土城區中央路四段27巷10弄2號","121.42468","24.96188","6501300","土城區"
"236030","253-BX","2017/06/22 18:29:03","新北市土城區中華路二段169巷5號","121.439278333333","24.97557","6501300","土城區"
"236026","269-VK","2017/06/22 18:29:11","新北市土城區南天母路137-10號","121.448555","24.95409","6501300","土城區"
"236014","270-VK","2017/06/22 18:29:13","新北市土城區青雲路39巷7號","121.46033","24.987385","6501300","土城區"
"236037","271-VK","2017/06/22 18:29:03","新北市土城區青雲路451巷5號","121.459291666667","24.97471","6501300","土城區"
"236021","401-BY","2017/06/22 18:29:04","新北市土城區永豐路202巷5-2號","121.466335","24.98327","6501300","土城區"
"236058","912-UM","2017/06/22 18:29:10","新北市土城區中央路四段464號","121.40993","24.950545","6501300","土城區"
"236051","913-UM","2017/06/22 18:29:02","新北市土城區青雲路483巷10弄34號","121.459255","24.9721333333333","6501300","土城區"
"236062","915-UM","2017/06/22 18:29:18","新北市土城區延壽路77巷6弄12號","121.468443333333","24.993025","6501300","土城區"
"236053","AAC-216","2017/06/22 18:29:08","新北市土城區中華路二段103號","121.439185","24.9773283333333","6501300","土城區"
"242021","AAC-296","2017/06/22 18:29:01","新北市新莊區中正路265號","121.44955","25.035225","6500500","新莊區"
"242042","497-BY","2017/06/22 18:29:14","新北市新莊區天祥街53號","121.41488","25.0304116666667","6500500","新莊區"
"242046","441-UM","2017/06/22 18:29:13","新北市新莊區中正路803巷41號","121.422086666667","25.0277883333333","6500500","新莊區"
"242061","362-BY","2017/06/22 18:29:06","新北市新莊區四維路10號","121.423875","25.02513","6500500","新莊區"
"242058","353-BY","2017/06/22 18:29:05","新北市新莊區中正路897-10號","121.411603333333","25.0216216666667","6500500","新莊區"
"242044","172-VK","2017/06/22 18:29:19","新北市新莊區中正路新旺巷27號","121.416173333333","25.0229116666667","6500500","新莊區"
"242056","176-VK","2017/06/22 18:29:16","新北市新莊區新泰路357巷3弄33號","121.442541666667","25.0405033333333","6500500","新莊區"
"242053","349-TH","2017/06/22 18:29:06","新北市樹林區樹新路120巷20號","121.43062","24.9967466666667","6500500","新莊區"
"238015","755-BX","2017/06/22 18:29:05","新北市樹林區啟智街173巷2號","121.415681666667","24.9875866666667","6500700","樹林區"
"238023","601-UM","2017/06/22 18:29:12","新北市樹林區忠義街1號","121.409668333333","25.0156","6500700","樹林區"
"238019","599-UM","2017/06/22 18:29:17","新北市樹林區中華路190-16號","121.41181","24.9806533333333","6500700","樹林區"
"238018","571-TV","2017/06/22 18:29:07","新北市樹林區保安街一段16巷25號","121.428343333333","24.994115","6500700","樹林區"
"238024","5061-A6","2017/06/22 18:29:14","新北市樹林區育英街2巷23號","121.423318333333","24.990025","6500700","樹林區"
"238021","311-TH","2017/06/22 18:21:57","新北市樹林區柑園街二段25號","121.387726666667","24.9555783333333","6500700","樹林區"
"238025","303-VK","2017/06/22 18:29:15","新北市樹林區保安街一段112號","121.423688333333","24.9949583333333","6500700","樹林區"
"238020","268-VK","2017/06/22 18:29:15","桃園市龜山區萬壽路一段121號","121.408968333333","25.018315","6500700","樹林區"
"238026","172-UY","2017/06/22 18:29:09","新北市樹林區八德街626號","121.397018333333","24.969695","6500700","樹林區"
"238016","169-UY","2017/06/22 18:29:04","新北市樹林區文化街27號","121.419213333333","24.9876183333333","6500700","樹林區"
"239007","AAC-297","2017/06/22 18:29:13","新北市鶯歌區育才街89號","121.346933333333","24.9546433333333","6500800","鶯歌區"
"239008","527-UM","2017/06/22 18:29:05","新北市鶯歌區國際一路14號","121.33619","24.97652","6500800","鶯歌區"
"239005","526-UM","2017/06/22 18:29:21","新北市鶯歌區鶯桃路668巷25號","121.329058333333","24.970295","6500800","鶯歌區"
"239001","417-VK","2017/06/22 18:29:12","新北市鶯歌區國中街109號","121.341533333333","24.941395","6500800","鶯歌區"
"239003","360-BY","2017/06/22 18:29:20","新北市鶯歌區福安街13巷1號","121.335588333333","24.965315","6500800","鶯歌區"
"239002","359-BY","2017/06/22 18:29:07","新北市鶯歌區中正一路461-5號","121.3636","24.9564","6500800","鶯歌區"
"239004","193-VK","2017/06/22 18:29:06","新北市鶯歌區尖山路168巷2號","121.345061666667","24.9482383333333","6500800","鶯歌區"
"221008","489-VK","2017/06/22 18:29:21","新北市汐止區康寧街901號","121.651465","25.0749733333333","6501100","汐止區"
"221036","130-UY","2017/06/22 18:29:09","新北市汐止區長興街一段80號","121.670951666667","25.079815","6501100","汐止區"
"221015","131-UY","2017/06/22 18:29:11","新北市汐止區鄉友街41號","121.668906666667","25.0814416666667","6501100","汐止區"
"221010","269-BY","2017/06/22 18:29:16","新北市汐止區汐萬路三段213-1號","121.642708333333","25.1007683333333","6501100","汐止區"
"221010","276-VK","2017/06/22 14:27:36","新北市汐止區汐萬路一段256巷3號","121.653441666667","25.0746116666667","6501100","汐止區"
"221031","277-VK","2017/06/22 01:58:15","新北市汐止區汐萬路一段256巷3號","121.652443333333","25.0743566666667","6501100","汐止區"
"221012","278-VK","2017/06/22 18:29:04","新北市汐止區保長路51巷1號","121.673181666667","25.0788433333333","6501100","汐止區"
"221023","279-VK","2017/06/22 18:29:00","新北市汐止區康寧街399號","121.629746666667","25.06788","6501100","汐止區"
"221032","280-BY","2017/06/22 18:29:11","新北市汐止區福山街58巷5號","121.617778333333","25.0461516666667","6501100","汐止區"
"221027","281-BY","2017/06/22 18:29:10","新北市汐止區和平街6巷5弄15號","121.662836666667","25.0717866666667","6501100","汐止區"
"221038","297-VK","2017/06/22 18:29:10","新北市汐止區仁愛路336號","121.663955","25.0681516666667","6501100","汐止區"
"221029","298-VK","2017/06/22 18:29:04","新北市汐止區樟樹二路355-1號","121.644703333333","25.0752333333333","6501100","汐止區"
"221021","299-VK","2017/06/22 18:28:39","新北市汐止區新台五路一段140號","121.65303","25.061975","6501100","汐止區"
"221035","622-UM","2017/06/22 18:29:12","新北市汐止區大同路二段49號","121.648711666667","25.0628433333333","6501100","汐止區"
"221025","623-UM","2017/06/22 18:29:00","新北市汐止區仁愛路122巷13號","121.66359","25.0633183333333","6501100","汐止區"
"221038","646-BX","2017/06/22 15:23:21","新北市汐止區康寧街901號","121.651748333333","25.07496","6501100","汐止區"
"221033","647-BX","2017/06/22 18:29:15","新北市汐止區宜興街75號","121.622876666667","25.0432416666667","6501100","汐止區"
"221002","707-TV","2017/06/22 18:29:12","新北市汐止區福德一路157號","121.636468333333","25.0665416666667","6501100","汐止區"
"220056","276-BY","2017/06/22 18:29:07","新北市板橋區中山路二段18號","121.472393333333","25.0149733333333","6500100","板橋區"
"220053","285-VK","2017/06/22 18:29:15","新北市板橋區中山路二段89巷7弄15號","121.472745","25.016925","6500100","板橋區"
"220054","741-BX","2017/06/22 18:29:18","新北市板橋區民生路二段36-1號","121.472545","25.0167483333333","6500100","板橋區"
"220073","985-R7","2017/06/22 18:29:03","新北市板橋區華東街1-10號","121.448398333333","24.9950416666667","6500100","板橋區"
