"lineid","car","time","location","longitude","latitude","cityid","cityname"
"234046","148-BY","2017/06/22 19:09:06","新北市永和區永元路20號","121.522385","25.00041","6500400","永和區"
"234013","149-BY","2017/06/22 19:09:05","新北市永和區中山路一段70號","121.512528333333","25.0107716666667","6500400","永和區"
"234007","207-UY","2017/06/22 19:09:12","新北市永和區保平路268巷51弄12號","121.50634","25.0064016666667","6500400","永和區"
"234081","298-R6","2017/06/22 19:09:03","新北市永和區福和路145號","121.520745","25.0075983333333","6500400","永和區"
"234038","336-UY","2017/06/22 19:09:14","新北市永和區環河東路四段84號","121.528251666667","24.9977683333333","6500400","永和區"
"234064","337-UY","2017/06/22 19:09:15","新北市永和區秀朗路二段48號","121.521635","25.0021833333333","6500400","永和區"
"234086","338-UY","2017/06/22 19:09:06","新北市永和區永貞路113號","121.517586666667","25.0042716666667","6500400","永和區"
"234070","552-UM","2017/06/22 19:09:05","新北市永和區豫溪街90號","121.51859","25.0100516666667","6500400","永和區"
"234054","553-UM","2017/06/22 19:09:08","新北市永和區中興街133巷8號","121.518791666667","25.0127433333333","6500400","永和區"
"234017","745-BX","2017/06/22 19:09:18","新北市永和區文化路90巷26號","121.513716666667","25.01637","6500400","永和區"
"234030","746-BX","2017/06/22 19:09:06","新北市永和區厚德街114號","121.523155","24.998925","6500400","永和區"
"234042","840-RS","2017/06/22 19:09:05","新北市永和區福和路175號","121.519995","25.0076166666667","6500400","永和區"
"234061","AAD-866","2017/06/22 19:09:09","新北市永和區安樂路306-8號","121.514615","25.0053016666667","6500400","永和區"
"234064","847-RS","2017/06/22 14:36:33","新北市永和區福和路1號","121.52663","25.0098583333333","6500400","永和區"
"234042","862-TW","2017/06/22 19:02:18","新北市永和區福和路1號","121.526388333333","25.00971","6500400","永和區"
"234050","863-TW","2017/06/22 19:09:13","新北市永和區文化路135巷26弄2號","121.510545","25.014415","6500400","永和區"
"234026","9371-KE","2017/06/22 19:09:05","新北市永和區安樂路208-1號","121.515005","25.00208","6500400","永和區"
"234011","9373-KE","2017/06/22 19:09:15","新北市永和區仁愛路141巷3弄4號","121.51177","25.0124033333333","6500400","永和區"
"249005","172-UM","2017/06/22 19:09:17","新北市八里區中華路三段145巷5號","121.391981666667","25.1333733333333","6502300","八里區"
"249001","173-UM","2017/06/22 19:09:08","新北市八里區龍米路二段228-1號","121.432758333333","25.1584266666667","6502300","八里區"
"248016","026-BX","2017/06/22 19:09:10","新北市五股區成泰路三段577巷45號","121.450805","25.1030166666667","6501500","五股區"
"248020","225-UY","2017/06/22 19:09:15","新北市五股區凌雲路三段57號","121.425293333333","25.1250166666667","6501500","五股區"
"248012","247-BX","2017/06/22 15:18:18","新北市五股區中興路二段37巷24號","121.460858333333","25.0751416666667","6501500","五股區"
"248010","272-BY","2017/06/22 19:09:09","新北市五股區水碓一路23號","121.43067","25.0712633333333","6501500","五股區"
"248002","678-BX","2017/06/22 19:09:05","新北市五股區凌雲路一段158巷14-1號","121.447863333333","25.1035416666667","6501500","五股區"
"234023","9380-KE","2017/06/22 19:08:59","新北市永和區勵行街84巷14號","121.516395","25.0125233333333","6500400","永和區"
"234077","969-R7","2017/06/22 19:09:18","新北市永和區民族街29號","121.518773333333","24.9995566666667","6500400","永和區"
"234074","AAC-211","2017/06/22 19:09:13","新北市永和區竹林路222號","121.520703333333","25.0080816666667","6500400","永和區"
"234067","AAC-212","2017/06/22 19:09:13","新北市永和區保平路33號","121.512135","25.0072366666667","6500400","永和區"
"234003","AAC-295","2017/06/22 19:07:09","新北市永和區中山路一段106號","121.510993333333","25.010415","6500400","永和區"
"244013","069-UM","2017/06/22 19:09:17","新北市林口區麗園二街1巷6-1號","121.377975","25.0704033333333","6501700","林口區"
"244019","403-UM","2017/06/22 19:09:07","新北市林口區麗園二街47巷17號","121.381478333333","25.069625","6501700","林口區"
"244022","483-VK","2017/06/22 19:09:06","新北市林口區文化三路一段617巷88號","121.370483333333","25.07823","6501700","林口區"
"244017","485-VK","2017/06/22 19:08:59","新北市林口區公園路125號","121.369155","25.07011","6501700","林口區"
"244009","656-BX","2017/06/22 19:09:14","新北市林口區台電新村26號","121.387123333333","25.086145","6501700","林口區"
"244011","701-TV","2017/06/22 19:09:15","新北市林口區竹林路56號","121.387468333333","25.0781183333333","6501700","林口區"
"244025","837-TS","2017/06/22 19:09:14","新北市林口區文化三路一段447巷59-1號","121.367283333333","25.0748983333333","6501700","林口區"
"243013","AAD-798","2017/06/22 19:09:16","新北市泰山區漢口街3號","121.423273333333","25.0366933333333","6501600","泰山區"
"243009","297-R6","2017/06/22 19:09:01","新北市泰山區明志路一段117巷24號","121.434203333333","25.0634883333333","6501600","泰山區"
"243015","380-SR","2017/06/22 19:09:01","新北市泰山區明志路一段431號","121.430793333333","25.0566683333333","6501600","泰山區"
"243014","421-VK","2017/06/22 19:09:05","新北市泰山區泰林路二段364號","121.428618333333","25.0637366666667","6501600","泰山區"
"243010","548-UM","2017/06/22 19:09:16","新北市泰山區明志路一段485號","121.430788333333","25.0553733333333","6501600","泰山區"
"243011","549-UM","2017/06/22 19:09:03","新北市泰山區明志路二段356號","121.425333333333","25.045265","6501600","泰山區"
"243012","646-TV","2017/06/22 19:09:18","新北市泰山區辭修路36巷8弄5號","121.427885","25.0585966666667","6501600","泰山區"
"243016","680-BX","2017/06/22 19:09:15","新北市泰山區明志路3段87-1號","121.425128333333","25.0414133333333","6501600","泰山區"
"222003","436-BY","2017/06/22 19:09:11","新北市深坑區深南路152號","121.623565","25.0147533333333","6501800","深坑區"
"222002","659-BX","2017/06/22 19:09:20","新北市深坑區烏月路7號","121.633206666667","25.00792","6501800","深坑區"
"222001","696-SL","2017/06/22 19:09:03","新北市深坑區北深路一段300號","121.62423","25.0057616666667","6501800","深坑區"
"231041","002-UM","2017/06/22 19:09:02","新北市新店區中央路238號","121.52914","24.97219","6500600","新店區"
"231056","0291-UT","2017/06/22 19:09:12","新北市新店區二十張路60巷8號","121.535783333333","24.9813016666667","6500600","新店區"
"231059","046-UY","2017/06/22 19:09:10","新北市新店區安和路二段138號","121.519563333333","24.9723033333333","6500600","新店區"
"231061","047-UY","2017/06/22 19:09:16","新北市新店區安康路一段75-1號","121.530053333333","24.9611233333333","6500600","新店區"
"231060","106-UY","2017/06/22 19:09:08","新北市新店區安康路二段330號","121.504396666667","24.957875","6500600","新店區"
"231051","107-UY","2017/06/22 19:09:17","新北市新店區中正路382巷3號","121.535066666667","24.9774266666667","6500600","新店區"
"231047","108-UY","2017/06/22 19:09:02","新北市新店區德正街31號","121.544658333333","24.9712433333333","6500600","新店區"
"231052","187-VK","2017/06/22 19:09:21","新北市新店區自強路68號","121.546228333333","24.925215","6500600","新店區"
"231007","189-VK","2017/06/22 11:55:11","新北市新店區安華路28-1號","121.519691666667","24.9610933333333","6500600","新店區"
"231063","268-BY","2017/06/22 19:09:14","新北市新店區車子路148號","121.505348333333","24.9471866666667","6500600","新店區"
"231046","278-BY","2017/06/22 19:09:17","新北市新店區新潭路一段2號","121.523298333333","24.94438","6500600","新店區"
"231050","AAD-862","2017/06/22 19:09:00","新北市新店區竹林路2巷31號","121.550398333333","24.9501666666667","6500600","新店區"
"231058","3712-VJ","2017/06/22 19:09:06","新北市新店區光明街138巷13弄9號","121.54016","24.9614683333333","6500600","新店區"
"231055","3713-VJ","2017/06/22 19:09:07","新北市新店區溪園路365-8號","121.52254","24.9807066666667","6500600","新店區"
"231067","4772-VM","2017/06/22 19:09:05","新北市新店區安康路一段247巷30號","121.524616666667","24.96224","6500600","新店區"
"231065","512-UM","2017/06/22 19:09:00","新北市新店區安祥路140號","121.47445","24.9558916666667","6500600","新店區"
"231054","513-UM","2017/06/22 19:09:13","新北市新店區新店路143號","121.53706","24.9548466666667","6500600","新店區"
"231064","515-UM","2017/06/22 19:09:14","新北市新店區安忠路59號","121.51223","24.9587033333333","6500600","新店區"
"231042","616-UM","2017/06/22 19:09:05","新北市新店區中興路一段123號","121.541811666667","24.9632216666667","6500600","新店區"
"231040","619-UM","2017/06/22 19:09:13","新北市新店區三民路98-3號","121.534001666667","24.9734433333333","6500600","新店區"
"231049","719-UM","2017/06/22 19:09:11","新北市新店區二十張路25巷8號","121.538831666667","24.98205","6500600","新店區"
"231062","720-UM","2017/06/22 19:09:02","新北市新店區安平路11巷2號","121.524311666667","24.9652866666667","6500600","新店區"
"231044","897-TW","2017/06/22 19:09:04","新北市新店區中興路三段175號","121.544158333333","24.9808766666667","6500600","新店區"
"231045","898-TW","2017/06/22 19:09:12","新北市新店區北宜路一段111號","121.540008333333","24.9546433333333","6500600","新店區"
"231043","899-TW","2017/06/22 19:09:01","新北市新店區中興路二段252號","121.547395","24.9758933333333","6500600","新店區"
"231066","AKT-0513","2017/06/22 19:09:09","新北市新店區安康路三段355巷1號","121.48441","24.950655","6500600","新店區"
"241026","066-VK","2017/06/22 19:09:11","新北市三重區泉州街74號","121.49469","25.0546566666667","6500200","三重區"
"241029","265-UM","2017/06/22 19:09:10","新北市三重區集美街237號","121.492308333333","25.05531","6500200","三重區"
"241035","462-BY","2017/06/22 19:09:19","新北市三重區重新路四段121號","121.484891666667","25.0520616666667","6500200","三重區"
"235066","003-UY","2017/06/22 19:09:19","新北市中和區水源路7巷4號","121.504061666667","25.0037366666667","6500300","中和區"
"235064","005-UY","2017/06/22 19:09:08","新北市中和區泰和街44巷29號","121.49817","25.001105","6500300","中和區"
"235063","006-UY","2017/06/22 19:09:04","新北市中和區中正路582號","121.486125","24.9949166666667","6500300","中和區"
"235056","096-UM","2017/06/22 19:09:03","新北市中和區中正路1224號","121.47959","25.01087","6500300","中和區"
"235039","097-UM","2017/06/22 19:09:11","新北市永和區安樂路58巷2號","121.515065","24.9979683333333","6500300","中和區"
"235029","098-UM","2017/06/22 17:07:34","新北市中和區興南路三段47巷32-6號","121.497025","24.977845","6500300","中和區"
"235058","151-BY","2017/06/22 19:09:14","新北市中和區員山路143巷8號","121.480595","24.9961283333333","6500300","中和區"
"235055","183-VK","2017/06/22 19:09:08","新北市中和區德光路77巷6弄2號","121.469895","25.0034116666667","6500300","中和區"
"235038","185-VK","2017/06/22 19:09:02","新北市中和區立人街24-5號","121.518913333333","24.9941416666667","6500300","中和區"
"235049","186-VK","2017/06/22 19:09:13","新北市中和區明仁街1號","121.505733333333","24.995635","6500300","中和區"
"235067","255-BX","2017/06/22 19:09:10","新北市中和區新生街176巷22號","121.482643333333","24.9999783333333","6500300","中和區"
"235044","293-VK","2017/06/22 19:09:07","新北市中和區復興路280巷33弄7號","121.501458333333","24.9912966666667","6500300","中和區"
"235072","301-VK","2017/06/22 19:09:08","新北市中和區永和路1-5號","121.499571666667","25.00329","6500300","中和區"
"235043","352-BY","2017/06/22 19:09:01","新北市中和區景平路116號","121.51947","24.9916183333333","6500300","中和區"
"235040","375-QA","2017/06/22 19:09:03","新北市中和區安平路59號","121.50978","24.99517","6500300","中和區"
"235051","376-QA","2017/06/22 19:09:14","新北市中和區忠孝街19巷48號","121.509513333333","24.985075","6500300","中和區"
"235068","377-QA","2017/06/22 19:09:15","新北市中和區圓通路162巷37弄3號","121.496435","24.995515","6500300","中和區"
"235061","378-QA","2017/06/22 19:09:01","新北市中和區民享街3號","121.473901666667","25.005745","6500300","中和區"
"235050","4979-A6","2017/06/22 19:09:07","新北市中和區復興路249巷11弄3號","121.503415","24.989735","6500300","中和區"
"235069","4980-A6","2017/06/22 19:09:09","新北市中和區廣福路112號","121.502041666667","25.0011566666667","6500300","中和區"
"235042","551-UM","2017/06/22 19:09:18","新北市中和區自立路117巷4弄2號","121.522533333333","24.9945016666667","6500300","中和區"
"235070","558-UM","2017/06/22 19:09:19","新北市中和區安和路215號","121.505966666667","24.9991133333333","6500300","中和區"
"235045","565-BX","2017/06/22 19:09:09","新北市中和區景新街467巷20弄23號","121.515076666667","24.987475","6500300","中和區"
"235060","647-TV","2017/06/22 19:09:11","新北市中和區民治街23巷2號","121.475388333333","25.00208","6500300","中和區"
"235047","732-UM","2017/06/22 19:09:08","新北市中和區興南路一段95號","121.509561666667","24.9884883333333","6500300","中和區"
"235046","733-UM","2017/06/22 19:09:12","新北市中和區興南路二段33號","121.507796666667","24.98576","6500300","中和區"
"235071","783-BX","2017/06/22 19:09:01","新北市中和區員山路88號","121.480898333333","24.9943216666667","6500300","中和區"
"235057","801-TS","2017/06/22 19:09:13","新北市中和區民利街56號","121.479083333333","24.9986766666667","6500300","中和區"
"235041","802-TS","2017/06/22 19:09:19","新北市中和區安平路133號","121.511726666667","24.998135","6500300","中和區"
"235052","805-TS","2017/06/22 19:09:03","新北市中和區興南路二段114巷12號","121.503921666667","24.9844566666667","6500300","中和區"
"235048","896-TW","2017/06/22 19:09:00","新北市中和區工專路147號","121.508448333333","24.97887","6500300","中和區"
"235053","900-TW","2017/06/22 19:09:13","新北市中和區和平路200巷27號","121.464928333333","24.994685","6500300","中和區"
"235040","157-BY","2017/06/22 19:09:04","新北市中和區宜安路11巷9號","121.51289","24.9952316666667","6500300","中和區"
"235037","AAC-213","2017/06/22 19:09:16","新北市中和區自立路99巷36弄16號","121.523825","24.9941933333333","6500300","中和區"
"235059","AAC-215","2017/06/22 19:09:06","新北市中和區圓通路294巷11弄1號","121.488518333333","24.9899533333333","6500300","中和區"
"220068","013-TV","2017/06/22 19:09:14","新北市板橋區翠華街6巷11號","121.480875","25.0240633333333","6500100","板橋區"
"220065","072-UY","2017/06/22 19:09:00","新北市板橋區民族路287巷19號","121.470801666667","25.00752","6500100","板橋區"
"220086","073-UY","2017/06/22 19:09:06","新北市板橋區中正路232號","121.455798333333","25.0187266666667","6500100","板橋區"
"220106","075-UY","2017/06/22 19:09:08","新北市板橋區文化路二段315號","121.472118333333","25.0297366666667","6500100","板橋區"
"220069","AAD-861","2017/06/22 19:09:09","新北市板橋區南雅南路一段1巷42號","121.457503333333","25.0063","6500100","板橋區"
"220097","120-SR","2017/06/22 19:09:03","新北市板橋區新生街96號","121.458381666667","25.0220616666667","6500100","板橋區"
"247006","341-TH","2017/06/22 19:09:12","新北市五股區中興路三段163號","121.449375","25.080725","6501400","蘆洲區"
"247002","336-TH","2017/06/22 18:56:18","新北市五股區中興路三段2巷10號","121.449208333333","25.0810733333333","6501400","蘆洲區"
"247014","057-VK","2017/06/22 19:09:02","新北市五股區成洲一路23號","121.45014","25.0958566666667","6501400","蘆洲區"
"226004","312-R5","2017/06/22 19:09:12","新北市平溪區靜安路三段280號","121.776448333333","25.0406616666667","6502400","平溪區"
"228003","097-TW","2017/06/22 19:09:02","新北市貢寮區和美里和美街38號","121.912185","25.0891883333333","6502600","貢寮區"
"228001","212-TW","2017/06/22 19:09:01","新北市貢寮區仁理村仁和路270巷3弄6號","121.924973333333","25.0538916666667","6502600","貢寮區"
"228002","585-TW","2017/06/22 19:09:06","新北市貢寮區福隆里福隆街32-1號","121.94505","25.0174166666667","6502600","貢寮區"
"224010","AGQ-8101","2017/06/22 19:09:17","新北市瑞芳區街頂巷80號","121.84427","25.1084566666667","6501200","瑞芳區"
"224006","676-BX","2017/06/22 19:09:12","新北市瑞芳區三爪子坑路106巷112號","121.808478333333","25.1044383333333","6501200","瑞芳區"
"224011","420-VK","2017/06/22 19:09:07","新北市瑞芳區崙頂路1-6號","121.847095","25.1047483333333","6501200","瑞芳區"
"224009","285-BY","2017/06/22 19:09:02","新北市瑞芳區長仁路40號","121.865185","25.1180316666667","6501200","瑞芳區"
"224008","275-VK","2017/06/22 19:09:03","新北市瑞芳區逢甲路271-1號","121.801686666667","25.11197","6501200","瑞芳區"
"224005","271-BY","2017/06/22 19:09:09","新北市瑞芳區岳王路90-1號","121.810873333333","25.11138","6501200","瑞芳區"
"227004","642-TC","2017/06/22 19:09:14","新北市雙溪區平林里外平林9-4號","121.859208333333","25.03802","6502500","雙溪區"
"227010","400-TW","2017/06/22 19:09:06","新北市雙溪區牡丹里中正路39號","121.864781666667","25.03855","6502500","雙溪區"
"253006","032-BX","2017/06/22 19:09:13","新北市石門區崁子腳58-22號","121.53141","25.2874416666667","6502200","石門區"
"253005","295-VK","2017/06/22 19:09:05","新北市石門區阿里荖35-2號","121.606548333333","25.280725","6502200","石門區"
"208001","742-BX","2017/06/22 19:09:15","新北市金山區金包里街14巷6號","121.640693333333","25.221075","6502700","金山區"
"208003","665-BX","2017/06/22 19:09:14","新北市金山區中正路149號","121.631786666667","25.2213783333333","6502700","金山區"
"251009","008-UM","2017/06/22 19:09:17","新北市淡水區清水街99-1號","121.440678333333","25.1706983333333","6501000","淡水區"
"251001","011-UM","2017/06/22 19:09:17","新北市淡水區民權路185-1號","121.459503333333","25.134395","6501000","淡水區"
"251007","179-VK","2017/06/22 19:09:21","新北市淡水區民生路145巷54號","121.467618333333","25.1389383333333","6501000","淡水區"
"251014","182-VK","2017/06/22 19:09:19","新北市淡水區小中寮15-2號","121.484746666667","25.2298183333333","6501000","淡水區"
"251010","413-VK","2017/06/22 19:09:09","新北市淡水區中正路一段156巷3號","121.421175","25.1802816666667","6501000","淡水區"
"251016","442-VK","2017/06/22 19:09:08","新北市淡水區淡金路三段28號","121.447725","25.1988016666667","6501000","淡水區"
"251005","443-VK","2017/06/22 19:09:06","新北市淡水區中山路127號","121.44143","25.1711783333333","6501000","淡水區"
"251006","561-UM","2017/06/22 19:09:18","新北市淡水區中山北路一段149巷24號","121.442871666667","25.1779033333333","6501000","淡水區"
"251011","650-BX","2017/06/22 19:09:19","新北市淡水區中正東路二段143巷2弄1號","121.46075","25.147465","6501000","淡水區"
"251002","672-BX","2017/06/22 19:09:10","新北市淡水區中山路47號","121.443383333333","25.17045","6501000","淡水區"
"251003","766-UM","2017/06/22 19:09:09","新北市淡水區中山路185號","121.441268333333","25.1741233333333","6501000","淡水區"
"207003","550-UM","2017/06/22 19:09:04","新北市萬里區大鵬里萬里加投24號","121.649141666667","25.2076516666667","6502800","萬里區"
"207004","225-TW","2017/06/22 19:09:12","新北市萬里區萬里里瑪鋉路54巷20號","121.690865","25.1772716666667","6502800","萬里區"
"252002","178-VK","2017/06/22 19:09:19","新北市三芝區中正路一段16-1號","121.502886666667","25.2587916666667","6502100","三芝區"
"252003","249-BX","2017/06/22 19:09:12","新北市三芝區錫板里南勢崗6號","121.479546666667","25.2619116666667","6502100","三芝區"
"252001","702-TV","2017/06/22 19:09:05","新北市三芝區長勤街45巷2號","121.500371666667","25.2550783333333","6502100","三芝區"
"208002","170-UY","2017/06/22 19:09:08","新北市金山區中正路69巷19號","121.634045","25.2210816666667","6502700","金山區"
"237004","078-UY","2017/06/22 19:09:09","新北市三峽區有木150-1號","121.44812","24.8476666666667","6500900","三峽區"
"237007","153-BY","2017/06/22 19:09:10","新北市三峽區中正路二段42巷40-7號","121.365003333333","24.92011","6500900","三峽區"
"237013","252-BX","2017/06/22 19:09:07","新北市鶯歌區中正一路481號","121.374336666667","24.9605066666667","6500900","三峽區"
"237012","275-BY","2017/06/22 19:08:43","新北市三峽區三樹路222巷254弄15號","121.392146666667","24.9440383333333","6500900","三峽區"
"237008","302-VK","2017/06/22 19:09:13","新北市三峽區大同路174巷4號","121.37261","24.9270666666667","6500900","三峽區"
"237014","433-BY","2017/06/22 19:09:12","新北市三峽區復興路480巷15號","121.358606666667","24.9392133333333","6500900","三峽區"
"237006","5529-G3","2017/06/22 19:09:04","新北市三峽區溪北街109號","121.398388333333","24.9354466666667","6500900","三峽區"
"237011","572-TV","2017/06/22 19:09:11","新北市三峽區介壽路二段167號","121.394626666667","24.93606","6500900","三峽區"
"237016","649-BX","2017/06/22 19:09:00","新北市三峽區建安29-2號","121.446363333333","24.9273033333333","6500900","三峽區"
"237010","706-TV","2017/06/22 19:07:42","新北市三峽區國光街25號","121.375441666667","24.9368833333333","6500900","三峽區"
"237005","AKY-6261","2017/06/22 19:09:15","新北市三峽區中山路459巷163-3號","121.348695","24.93291","6500900","三峽區"
"236071","105-UM","2017/06/22 19:09:07","新北市土城區裕生路102巷32號","121.445883333333","24.9850433333333","6501300","土城區"
"236042","107-UM","2017/06/22 19:08:58","新北市土城區學府路一段189巷7號","121.452601666667","24.9846983333333","6501300","土城區"
"236078","166-UM","2017/06/22 19:09:13","新北市土城區龍泉路10-1號","121.4095","24.949285","6501300","土城區"
"236026","269-VK","2017/06/22 19:09:11","新北市土城區中正路56巷2號","121.44385","24.97536","6501300","土城區"
"236014","270-VK","2017/06/22 19:09:13","新北市土城區學府路一段37巷30號","121.457353333333","24.987585","6501300","土城區"
"236037","271-VK","2017/06/22 19:09:15","新北市土城區清水路143號","121.458353333333","24.9816816666667","6501300","土城區"
"236021","401-BY","2017/06/22 19:09:15","新北市土城區延峰街33巷1號","121.4697","24.9846683333333","6501300","土城區"
"236058","912-UM","2017/06/22 19:09:18","新北市土城區金城路二段230號","121.456505","24.9828933333333","6501300","土城區"
"236051","913-UM","2017/06/22 19:08:41","新北市土城區明德路一段398-1號","121.453695","24.9792366666667","6501300","土城區"
"236062","915-UM","2017/06/22 19:09:18","新北市土城區金城路三段97號","121.467211666667","24.987565","6501300","土城區"
"236053","AAC-216","2017/06/22 19:09:07","新北市土城區學成路10號","121.453391666667","24.9865783333333","6501300","土城區"
"238023","601-UM","2017/06/22 19:09:12","新北市樹林區大慶街120號","121.395978333333","25.013535","6500700","樹林區"
"238019","599-UM","2017/06/22 19:09:17","新北市樹林區東榮街75號","121.416976666667","24.9829816666667","6500700","樹林區"
"238018","571-TV","2017/06/22 19:09:07","新北市樹林區太平路48號","121.419016666667","24.982565","6500700","樹林區"
"238022","312-TH","2017/06/22 19:09:07","新北市樹林區東興街14-2號","121.410098333333","24.978435","6500700","樹林區"
"238021","311-TH","2017/06/22 19:05:37","新北市樹林區西圳街二段123巷6弄2號","121.384481666667","24.9572483333333","6500700","樹林區"
"238025","303-VK","2017/06/22 19:09:18","新北市樹林區中山路三段349號","121.389995","24.9705083333333","6500700","樹林區"
"238017","283-BY","2017/06/22 19:09:02","新北市樹林區保安街二段37-1號","121.416296666667","24.9999933333333","6500700","樹林區"
"238014","282-BY","2017/06/22 19:09:09","新北市樹林區潭興街143巷28弄2號","121.424923333333","24.9996066666667","6500700","樹林區"
"238020","268-VK","2017/06/22 19:09:15","新北市樹林區俊英街184號","121.425986666667","25.0076866666667","6500700","樹林區"
"238026","172-UY","2017/06/22 19:09:09","新北市樹林區佳園路一段41巷18號","121.39385","24.9710116666667","6500700","樹林區"
"238016","169-UY","2017/06/22 19:09:04","新北市樹林區復興路335巷6弄2號","121.418333333333","24.9875716666667","6500700","樹林區"
"239007","AAC-297","2017/06/22 19:09:13","新北市鶯歌區中正一路303巷5號","121.355891666667","24.958425","6500800","鶯歌區"
"239006","891-R6","2017/06/22 19:09:12","新北市鶯歌區鶯桃路296巷84弄29號","121.337395","24.961355","6500800","鶯歌區"
"239008","527-UM","2017/06/22 19:09:15","新北市鶯歌區國際二路8巷2號","121.338253333333","24.9739483333333","6500800","鶯歌區"
"239005","526-UM","2017/06/22 19:09:01","新北市鶯歌區大湖路361巷20號","121.33049","24.97802","6500800","鶯歌區"
"239001","417-VK","2017/06/22 19:09:12","新北市鶯歌區中正三路147巷6號","121.337033333333","24.9396266666667","6500800","鶯歌區"
"239003","360-BY","2017/06/22 19:09:20","新北市鶯歌區鶯桃路515號","121.331291666667","24.966875","6500800","鶯歌區"
"239004","193-VK","2017/06/22 19:09:06","新北市鶯歌區中正三路228號","121.331338333333","24.9374766666667","6500800","鶯歌區"
"221008","489-VK","2017/06/22 19:09:01","新北市汐止區康寧街464號","121.631788333333","25.0681683333333","6501100","汐止區"
"221036","130-UY","2017/06/22 19:09:09","新北市汐止區南昌街35號","121.662883333333","25.0687883333333","6501100","汐止區"
"221015","131-UY","2017/06/22 19:09:11","新北市汐止區汐萬路一段266號","121.65125","25.0737083333333","6501100","汐止區"
"221010","269-BY","2017/06/22 19:09:16","新北市汐止區康寧街901號","121.651283333333","25.07504","6501100","汐止區"
"221010","276-VK","2017/06/22 14:27:36","新北市汐止區汐萬路一段256巷3號","121.653441666667","25.0746116666667","6501100","汐止區"
"221031","277-VK","2017/06/22 01:58:15","新北市汐止區汐萬路一段256巷3號","121.652443333333","25.0743566666667","6501100","汐止區"
"221012","278-VK","2017/06/22 19:09:04","新北市汐止區康寧街901號","121.650805","25.075175","6501100","汐止區"
"221023","279-VK","2017/06/22 19:09:00","新北市汐止區康寧街901號","121.65103","25.07509","6501100","汐止區"
"221027","281-BY","2017/06/22 18:55:10","新北市汐止區康寧街901號","121.650843333333","25.0752483333333","6501100","汐止區"
"221038","297-VK","2017/06/22 19:09:10","新北市汐止區康寧街901號","121.65162","25.0750316666667","6501100","汐止區"
"221029","298-VK","2017/06/22 19:09:05","新北市汐止區康寧街901號","121.651551666667","25.0749983333333","6501100","汐止區"
"221021","299-VK","2017/06/22 18:37:54","新北市汐止區龍安路44號","121.65415","25.0635116666667","6501100","汐止區"
"221025","623-UM","2017/06/22 19:09:00","新北市汐止區康寧街901號","121.651523333333","25.0749916666667","6501100","汐止區"
"221038","646-BX","2017/06/22 15:23:21","新北市汐止區康寧街901號","121.651748333333","25.07496","6501100","汐止區"
"221033","647-BX","2017/06/22 19:09:15","新北市汐止區南勢街1巷1號","121.627045","25.0374433333333","6501100","汐止區"
"221002","707-TV","2017/06/22 19:09:12","新北市汐止區大同路一段89-1號","121.624255","25.05465","6501100","汐止區"
"220079","145-BY","2017/06/22 19:09:13","新北市板橋區民權路202巷11弄2號","121.460546666667","25.01573","6500100","板橋區"
"220089","146-RM","2017/06/22 19:09:12","新北市板橋區文化路二段413號","121.474361666667","25.0323416666667","6500100","板橋區"
"220080","200-UY","2017/06/22 19:09:07","新北市板橋區大觀路二段265巷3弄13-1號","121.443363333333","24.9981866666667","6500100","板橋區"
"220082","610-BX","2017/06/22 19:09:15","新北市板橋區溪崑二街88號","121.427253333333","24.9895833333333","6500100","板橋區"
"220101","245-BX","2017/06/22 19:09:14","新北市板橋區莊敬路217號","121.471955","25.0219783333333","6500100","板橋區"
"220094","267-BY","2017/06/22 19:09:18","新北市板橋區光武街121號","121.466368333333","25.0279833333333","6500100","板橋區"
"220056","276-BY","2017/06/22 19:09:15","新北市板橋區信義路74巷1弄10號","121.45742","24.9928966666667","6500100","板橋區"
"220072","277-BY","2017/06/22 19:09:15","新北市板橋區金門街369巷55號","121.429105","24.984235","6500100","板橋區"
"220064","280-UM","2017/06/22 19:09:20","新北市板橋區板新路13號","121.475085","25.0126516666667","6500100","板橋區"
"220071","283-VK","2017/06/22 19:09:18","新北市板橋區重慶路219號","121.463076666667","25.0013566666667","6500100","板橋區"
"220053","285-VK","2017/06/22 19:09:15","新北市板橋區懷仁街35巷7號","121.47689","25.0197166666667","6500100","板橋區"
"220083","286-VK","2017/06/22 19:09:12","新北市板橋區僑中二街152號","121.444735","25.00433","6500100","板橋區"
"220081","287-VK","2017/06/22 19:09:10","新北市板橋區光華街17-1號","121.453835","25.012115","6500100","板橋區"
"220090","288-VK","2017/06/22 19:09:08","新北市板橋區裕民街45巷4號","121.461526666667","25.0283816666667","6500100","板橋區"
"220061","295-UM","2017/06/22 19:09:05","新北市板橋區中山路二段273號","121.477718333333","25.0179416666667","6500100","板橋區"
"220084","296-UM","2017/06/22 19:09:09","新北市板橋區大觀路三段8-1號","121.434701666667","24.9956433333333","6500100","板橋區"
"220075","297-UM","2017/06/22 19:09:16","新北市板橋區南雅南路一段1巷21號","121.45721","25.006685","6500100","板橋區"
"220062","305-R5","2017/06/22 19:09:13","新北市板橋區三民路二段居仁巷2弄54號","121.480806666667","25.0127916666667","6500100","板橋區"
"220092","307-R5","2017/06/22 19:09:15","新北市板橋區文化路二段225巷60弄31號","121.46915","25.029205","6500100","板橋區"
"220098","317-R6","2017/06/22 19:09:01","新北市板橋區四維路103巷9號","121.46504","25.02421","6500100","板橋區"
"220088","491-VK","2017/06/22 19:08:23","新北市板橋區文化路二段182巷3弄26號","121.472046666667","25.0280216666667","6500100","板橋區"
"220035","560-BX","2017/06/22 19:09:02","新北市板橋區中正路381號","121.454128333333","25.0215083333333","6500100","板橋區"
"220103","561-BX","2017/06/22 19:09:17","新北市板橋區文化路一段188巷9弄124號","121.46903","25.01912","6500100","板橋區"
"220063","609-BX","2017/06/22 19:09:13","新北市板橋區三民路二段228號","121.47872","25.01127","6500100","板橋區"
"220091","637-BX","2017/06/22 19:09:07","新北市板橋區萬板路466-1號","121.47963","25.0258233333333","6500100","板橋區"
"220057","686-BX","2017/06/22 19:09:18","新北市板橋區重慶路36號","121.461258333333","25.007595","6500100","板橋區"
"220077","687-BX","2017/06/22 19:09:07","新北市板橋區大觀路二段175號","121.445018333333","25.000205","6500100","板橋區"
"220093","689-BX","2017/06/22 19:09:12","新北市板橋區民生路三段275號","121.464261666667","25.0299483333333","6500100","板橋區"
"220054","741-BX","2017/06/22 19:09:18","新北市板橋區重慶路93巷2號","121.462266666667","25.005715","6500100","板橋區"
"220055","827-TW","2017/06/22 19:09:16","新北市板橋區中山路一段130號","121.463425","25.0108066666667","6500100","板橋區"
"220067","829-TW","2017/06/22 19:09:11","新北市板橋區中山路二段90巷43弄10號","121.476706666667","25.0150483333333","6500100","板橋區"
"220102","830-TW","2017/06/22 19:09:10","新北市板橋區萬板路818巷2號","121.482898333333","25.0272433333333","6500100","板橋區"
"220096","831-TW","2017/06/22 19:09:15","新北市板橋區雙十路二段47巷3號","121.476226666667","25.0260766666667","6500100","板橋區"
"220074","895-R6","2017/06/22 19:09:14","新北市板橋區西門街1號","121.456171666667","25.011705","6500100","板橋區"
"220073","985-R7","2017/06/22 19:09:03","新北市板橋區中正路148號","121.456828333333","25.0163583333333","6500100","板橋區"
"220070","AAC-253","2017/06/22 19:09:17","新北市板橋區四川路一段233號","121.460051666667","25.0029483333333","6500100","板橋區"
