"lineid","car","time","location","longitude","latitude","cityid","cityname"
"234046","148-BY","2017/06/22 19:39:21","新北市永和區秀朗路二段99號","121.523465","25.0017","6500400","永和區"
"234013","149-BY","2017/06/22 19:39:05","新北市永和區永平路203巷5弄1號","121.509166666667","25.0097466666667","6500400","永和區"
"234007","207-UY","2017/06/22 19:39:12","新北市中和區中和路356號","121.510133333333","25.00148","6500400","永和區"
"234081","298-R6","2017/06/22 19:39:03","新北市永和區福和路7巷15弄19號","121.525981666667","25.00759","6500400","永和區"
"234038","336-UY","2017/06/22 19:39:14","新北市永和區環河東路四段26號","121.528555","24.9994216666667","6500400","永和區"
"234064","337-UY","2017/06/22 19:39:15","新北市永和區秀朗路二段24巷28弄2號","121.519775","25.0017566666667","6500400","永和區"
"234086","338-UY","2017/06/22 19:39:06","新北市永和區成功路一段18巷15號","121.52624","25.0050133333333","6500400","永和區"
"234070","552-UM","2017/06/22 19:39:05","新北市永和區竹林路58-2號","121.518028333333","25.013895","6500400","永和區"
"234054","553-UM","2017/06/22 19:39:08","新北市永和區竹林路39巷18號","121.518745","25.0146533333333","6500400","永和區"
"234017","745-BX","2017/06/22 19:38:58","新北市永和區永和路二段405巷6號","121.515296666667","25.017465","6500400","永和區"
"234030","746-BX","2017/06/22 19:39:02","新北市永和區四維街103巷16號","121.523691666667","24.9971133333333","6500400","永和區"
"234042","840-RS","2017/06/22 19:39:05","新北市永和區永貞路302號","121.512093333333","25.0046966666667","6500400","永和區"
"234061","AAD-866","2017/06/22 19:39:09","新北市永和區永貞路190號","121.51606","25.0042466666667","6500400","永和區"
"234064","847-RS","2017/06/22 14:36:33","新北市永和區福和路1號","121.52663","25.0098583333333","6500400","永和區"
"234042","862-TW","2017/06/22 19:02:18","新北市永和區福和路1號","121.526388333333","25.00971","6500400","永和區"
"234050","863-TW","2017/06/22 19:39:13","新北市永和區保安路62號","121.510013333333","25.016495","6500400","永和區"
"234026","9371-KE","2017/06/22 19:39:05","新北市永和區中和路501巷5號","121.510446666667","25.0025933333333","6500400","永和區"
"249004","303-UY","2017/06/22 19:39:10","新北市八里區博物館路15號","121.415375","25.1637016666667","6502300","八里區"
"249002","305-UY","2017/06/22 19:39:03","新北市八里區頂寮二街35號","121.450243333333","25.1251033333333","6502300","八里區"
"249003","593-UM","2017/06/22 19:39:14","新北市八里區華峰三街31號","121.39934","25.145805","6502300","八里區"
"248016","026-BX","2017/06/22 19:39:10","新北市五股區成泰路三段476號","121.45182","25.101445","6501500","五股區"
"248008","095-VK","2017/06/22 19:39:19","新北市五股區四維路118巷13號","121.469186666667","25.074235","6501500","五股區"
"248020","225-UY","2017/06/22 19:39:15","新北市五股區中直路28-3號","121.42383","25.1122066666667","6501500","五股區"
"248012","247-BX","2017/06/22 15:18:18","新北市五股區中興路二段37巷24號","121.460858333333","25.0751416666667","6501500","五股區"
"248014","261-SL","2017/06/22 19:39:16","新北市五股區五福路23巷9號","121.433606666667","25.0886566666667","6501500","五股區"
"248010","272-BY","2017/06/22 19:39:08","新北市五股區自強路76號","121.432943333333","25.0728733333333","6501500","五股區"
"248002","678-BX","2017/06/22 19:39:05","新北市五股區成泰路三段577巷77號","121.449815","25.1036966666667","6501500","五股區"
"234077","969-R7","2017/06/22 19:39:18","新北市永和區民權路1巷10號","121.520816666667","24.99842","6500400","永和區"
"234074","AAC-211","2017/06/22 19:39:14","新北市永和區竹林路225巷8號","121.521221666667","25.0084733333333","6500400","永和區"
"234067","AAC-212","2017/06/22 19:39:13","新北市永和區永貞路408號","121.50901","25.0077883333333","6500400","永和區"
"234003","AAC-295","2017/06/22 19:36:29","新北市永和區福和路352號","121.514738333333","25.0073716666667","6500400","永和區"
"244019","403-UM","2017/06/22 19:39:07","新北市林口區四維路116號","121.37762","25.0780683333333","6501700","林口區"
"244011","701-TV","2017/06/22 19:39:15","新北市林口區太平里8-2號","121.36262","25.1343066666667","6501700","林口區"
"244025","837-TS","2017/06/22 19:39:14","新北市八里區中山路三段390號","121.368313333333","25.1352516666667","6501700","林口區"
"243013","AAD-798","2017/06/22 19:39:16","新北市泰山區應化街7號","121.423886666667","25.0437166666667","6501600","泰山區"
"243009","297-R6","2017/06/22 19:39:01","新北市泰山區美寧街60號","121.430903333333","25.0646666666667","6501600","泰山區"
"243015","380-SR","2017/06/22 19:39:01","新北市泰山區民權街70號","121.428436666667","25.0498133333333","6501600","泰山區"
"243014","421-VK","2017/06/22 19:39:06","新北市泰山區泰林路二段33-8號","121.43517","25.056525","6501600","泰山區"
"243010","548-UM","2017/06/22 19:39:09","新北市泰山區民生路33號","121.430713333333","25.0521483333333","6501600","泰山區"
"243011","549-UM","2017/06/22 19:39:03","新北市泰山區明志路三段204巷10弄1號","121.423218333333","25.0383833333333","6501600","泰山區"
"243012","646-TV","2017/06/22 19:39:18","新北市泰山區全興路216-2號","121.433963333333","25.0554366666667","6501600","泰山區"
"243016","680-BX","2017/06/22 19:39:04","新北市泰山區中山路三段79號","121.418195","25.0321233333333","6501600","泰山區"
"222003","436-BY","2017/06/22 19:32:54","新北市深坑區深南路51-1號","121.62113","25.0100483333333","6501800","深坑區"
"222002","659-BX","2017/06/22 19:39:07","新北市深坑區北深路一段177號","121.632551666667","25.0108966666667","6501800","深坑區"
"222001","696-SL","2017/06/22 19:39:03","新北市深坑區北深路二段198號","121.613088333333","25.0016233333333","6501800","深坑區"
"231041","002-UM","2017/06/22 19:39:02","新北市新店區中正路485號","121.533781666667","24.9818716666667","6500600","新店區"
"231059","046-UY","2017/06/22 19:39:10","新北市新店區安和路三段47-1號","121.518076666667","24.9822433333333","6500600","新店區"
"231061","047-UY","2017/06/22 19:39:10","新北市新店區安民街189-1號","121.516895","24.9710866666667","6500600","新店區"
"231060","106-UY","2017/06/22 19:39:08","新北市新店區安康路二段133號","121.512075","24.96046","6500600","新店區"
"231051","107-UY","2017/06/22 19:39:17","新北市新店區中央四街70號","121.526765","24.97551","6500600","新店區"
"231047","108-UY","2017/06/22 19:39:02","新北市新店區五峰路61巷9-1號","121.549415","24.9695333333333","6500600","新店區"
"231052","187-VK","2017/06/22 19:39:01","新北市新店區新烏路二段478號","121.552863333333","24.908005","6500600","新店區"
"231007","189-VK","2017/06/22 11:55:11","新北市新店區安華路28-1號","121.519691666667","24.9610933333333","6500600","新店區"
"231057","256-BX","2017/06/22 19:39:04","新北市新店區橘園一路11號","121.547998333333","24.9340283333333","6500600","新店區"
"231063","268-BY","2017/06/22 19:39:13","新北市新店區達觀路28號","121.502051666667","24.940375","6500600","新店區"
"231046","278-BY","2017/06/22 19:39:17","新北市新店區中正路329巷1弄2號","121.535671666667","24.9749133333333","6500600","新店區"
"231050","AAD-862","2017/06/22 19:39:00","新北市新店區郵政路101號","121.554241666667","24.9513416666667","6500600","新店區"
"231058","3712-VJ","2017/06/22 19:39:05","新北市新店區中正路76巷11弄20號","121.54374","24.971715","6500600","新店區"
"231067","4772-VM","2017/06/22 19:39:18","新北市新店區安康路二段320巷15弄2號","121.504236666667","24.9596383333333","6500600","新店區"
"231065","512-UM","2017/06/22 19:39:00","新北市新店區安祥路109巷85弄9號","121.478043333333","24.9603133333333","6500600","新店區"
"231054","513-UM","2017/06/22 19:39:19","新北市新店區北宜路一段41-1號","121.538386666667","24.957355","6500600","新店區"
"231064","515-UM","2017/06/22 19:39:14","新北市新店區安和路一段52巷2號","121.517631666667","24.9661916666667","6500600","新店區"
"231042","616-UM","2017/06/22 19:39:05","新北市新店區中興路一段216號","121.543846666667","24.9657033333333","6500600","新店區"
"231040","619-UM","2017/06/22 19:39:13","新北市新店區北新路一段96巷23號","121.542955","24.9688283333333","6500600","新店區"
"231049","719-UM","2017/06/22 19:39:11","新北市新店區大豐路40號","121.540241666667","24.979915","6500600","新店區"
"231062","720-UM","2017/06/22 19:39:04","新北市新店區碧潭路77巷2號","121.534263333333","24.95766","6500600","新店區"
"231044","897-TW","2017/06/22 19:39:04","新北市新店區北新路三段3號","121.542115","24.9792916666667","6500600","新店區"
"231045","898-TW","2017/06/22 19:39:15","新北市新店區北宜路二段329號","121.557401666667","24.95401","6500600","新店區"
"231043","899-TW","2017/06/22 19:39:01","新北市新店區北新路二段131號","121.542953333333","24.975355","6500600","新店區"
"231066","AKT-0513","2017/06/22 19:39:09","新北市新店區安康路二段341巷32號","121.496858333333","24.9544583333333","6500600","新店區"
"241011","013-R5","2017/06/22 19:39:04","新北市三重區秀江街196號","121.497635","25.07161","6500200","三重區"
"241028","022-UY","2017/06/22 19:38:58","新北市三重區中正南路212號","121.493903333333","25.055655","6500200","三重區"
"241008","059-VK","2017/06/22 19:39:09","新北市三重區永福街135巷2號","121.47856","25.07675","6500200","三重區"
"241009","060-VK","2017/06/22 19:39:04","新北市三重區永安北路一段121號","121.480445","25.079835","6500200","三重區"
"241031","061-VK","2017/06/22 19:39:09","新北市三重區重新路四段248號","121.486101666667","25.0534083333333","6500200","三重區"
"241017","063-VK","2017/06/22 19:39:11","新北市三重區民生街59號","121.491023333333","25.066235","6500200","三重區"
"241026","066-VK","2017/06/22 19:39:11","新北市三重區光興街51號","121.499111666667","25.0602483333333","6500200","三重區"
"241015","156-TC","2017/06/22 19:39:08","新北市三重區福德北路34號","121.502056666667","25.0652633333333","6500200","三重區"
"241029","265-UM","2017/06/22 19:39:10","新北市三重區重安街102號","121.493105","25.0559816666667","6500200","三重區"
"241032","269-UM","2017/06/22 19:39:03","新北市三重區三陽路62號","121.484196666667","25.0586366666667","6500200","三重區"
"241013","270-UM","2017/06/22 19:39:09","新北市三重區仁福街64巷38號","121.49723","25.0760366666667","6500200","三重區"
"241025","271-UM","2017/06/22 19:39:10","新北市三重區頂崁街212號","121.477021666667","25.0675533333333","6500200","三重區"
"241007","398-BY","2017/06/22 19:39:02","新北市三重區三和路四段125巷76號","121.487325","25.07856","6500200","三重區"
"241020","413-TH","2017/06/22 19:39:17","新北市三重區三和路四段20巷93號","121.488446666667","25.0732516666667","6500200","三重區"
"241035","462-BY","2017/06/22 19:38:59","新北市三重區正義北路88號","121.497173333333","25.0646783333333","6500200","三重區"
"241019","478-VK","2017/06/22 19:39:08","新北市三重區六張街230號","121.487728333333","25.0681616666667","6500200","三重區"
"241014","543-UM","2017/06/22 19:39:01","新北市三重區河邊北街84號","121.504193333333","25.0692816666667","6500200","三重區"
"241023","545-UM","2017/06/22 19:39:12","新北市三重區忠孝路三段99巷23弄3號","121.479415","25.0646433333333","6500200","三重區"
"241001","547-UM","2017/06/22 19:39:19","新北市三重區仁愛街315巷46號","121.49362","25.0799416666667","6500200","三重區"
"241006","AAD-863","2017/06/22 19:39:13","新北市三重區聯華街91號","121.485586666667","25.07537","6500200","三重區"
"241012","887-TS","2017/06/22 19:39:14","新北市三重區河邊北街262號","121.501558333333","25.0762733333333","6500200","三重區"
"235066","003-UY","2017/06/22 19:38:59","新北市中和區景新街135號","121.505896666667","24.9971283333333","6500300","中和區"
"235064","005-UY","2017/06/22 19:39:08","新北市中和區南山路66號","121.502393333333","24.9962666666667","6500300","中和區"
"235063","006-UY","2017/06/22 19:39:03","新北市中和區連城路203巷10弄4號","121.494901666667","24.9972866666667","6500300","中和區"
"235056","096-UM","2017/06/22 19:39:03","新北市中和區員山路581巷2弄10號","121.478028333333","25.00972","6500300","中和區"
"235039","097-UM","2017/06/22 19:39:11","新北市中和區秀峰街119巷8弄14號","121.519025","24.9899966666667","6500300","中和區"
"235029","098-UM","2017/06/22 17:07:34","新北市中和區興南路三段47巷32-6號","121.497025","24.977845","6500300","中和區"
"235058","151-BY","2017/06/22 19:39:14","新北市中和區連城路374巷13號","121.481466666667","24.9959116666667","6500300","中和區"
"235055","183-VK","2017/06/22 19:39:08","新北市中和區民享街2巷2號","121.473758333333","25.0059466666667","6500300","中和區"
"235038","185-VK","2017/06/22 19:39:02","新北市中和區立人街63號","121.520188333333","24.9944066666667","6500300","中和區"
"235049","186-VK","2017/06/22 19:39:13","新北市中和區安平路16號","121.509248333333","24.99416","6500300","中和區"
"235067","255-BX","2017/06/22 19:39:10","新北市中和區新生街225號","121.483826666667","24.999315","6500300","中和區"
"235044","293-VK","2017/06/22 19:39:07","新北市中和區景安路194號","121.504331666667","24.9916316666667","6500300","中和區"
"235072","301-VK","2017/06/22 19:39:08","新北市中和區連城路176號","121.493095","24.996885","6500300","中和區"
"235043","352-BY","2017/06/22 19:39:01","新北市中和區安樂路14號","121.511861666667","24.9919716666667","6500300","中和區"
"235040","375-QA","2017/06/22 19:39:03","新北市中和區安平路38號","121.509895","24.9949966666667","6500300","中和區"
"235051","376-QA","2017/06/22 19:39:14","新北市中和區南山路231號","121.503575","24.9935666666667","6500300","中和區"
"235068","377-QA","2017/06/22 19:39:15","新北市中和區景平路624-1號","121.500415","24.9976133333333","6500300","中和區"
"235061","378-QA","2017/06/22 19:39:00","新北市中和區員山路145號","121.481023333333","24.9962333333333","6500300","中和區"
"235050","4979-A6","2017/06/22 19:39:07","新北市中和區中正路501號","121.488936666667","24.9935483333333","6500300","中和區"
"235042","551-UM","2017/06/22 19:39:09","新北市中和區宜安路152號","121.50938","24.99878","6500300","中和區"
"235070","558-UM","2017/06/22 19:39:19","新北市中和區中和路42號","121.500241666667","25.0009683333333","6500300","中和區"
"235045","565-BX","2017/06/22 19:39:09","新北市中和區景德街130號","121.514333333333","24.9911133333333","6500300","中和區"
"235060","647-TV","2017/06/22 19:39:11","新北市中和區中山路二段523巷11號","121.481776666667","25.0041183333333","6500300","中和區"
"235047","732-UM","2017/06/22 19:39:08","新北市中和區南山路263巷10號","121.50443","24.9927383333333","6500300","中和區"
"235046","733-UM","2017/06/22 19:39:12","新北市中和區忠孝街46-2號","121.511123333333","24.98348","6500300","中和區"
"235071","783-BX","2017/06/22 19:39:01","新北市中和區中正路839巷29號","121.483563333333","25.0023783333333","6500300","中和區"
"235057","801-TS","2017/06/22 19:39:13","新北市中和區中山路三段31號","121.479153333333","25.0058516666667","6500300","中和區"
"235041","802-TS","2017/06/22 19:39:19","新北市中和區中和路294號","121.508593333333","24.999825","6500300","中和區"
"235052","805-TS","2017/06/22 19:39:03","新北市中和區華新街143巷69弄16號","121.507626666667","24.9789","6500300","中和區"
"235048","896-TW","2017/06/22 19:39:00","新北市中和區忠孝街64號","121.511898333333","24.9839233333333","6500300","中和區"
"235053","900-TW","2017/06/22 19:39:09","新北市中和區華順街2巷2號","121.467605","24.9988483333333","6500300","中和區"
"235040","157-BY","2017/06/22 19:39:04","新北市中和區宜安路100號","121.510556666667","24.9978266666667","6500300","中和區"
"235037","AAC-213","2017/06/22 19:39:16","新北市中和區秀朗路三段50巷29弄1號","121.524061666667","24.9950883333333","6500300","中和區"
"235059","AAC-215","2017/06/22 19:39:06","新北市中和區錦和路366號","121.490643333333","24.9910583333333","6500300","中和區"
"220068","013-TV","2017/06/22 19:39:16","新北市板橋區中山路二段418號","121.48302","25.0210733333333","6500100","板橋區"
"220065","072-UY","2017/06/22 19:39:12","新北市板橋區國泰街111巷1號","121.465821666667","25.0063166666667","6500100","板橋區"
"220086","073-UY","2017/06/22 19:39:06","新北市板橋區中正路236巷37號","121.457466666667","25.0193883333333","6500100","板橋區"
"220106","075-UY","2017/06/22 19:39:16","新北市板橋區江寧路三段42號","121.471581666667","25.0319383333333","6500100","板橋區"
"220069","AAD-861","2017/06/22 19:39:09","新北市板橋區大明街20巷29弄2號","121.458128333333","25.0035333333333","6500100","板橋區"
"220097","120-SR","2017/06/22 19:39:12","新北市板橋區新海路70號","121.461913333333","25.0217266666667","6500100","板橋區"
"247006","341-TH","2017/06/22 19:39:12","新北市蘆洲區永安南路二段108-2號","121.462816666667","25.0783416666667","6501400","蘆洲區"
"247008","339-TH","2017/06/22 19:39:07","新北市蘆洲區中山一路124號","121.476598333333","25.0816833333333","6501400","蘆洲區"
"247002","336-TH","2017/06/22 19:34:48","新北市蘆洲區環堤大道365號","121.456898333333","25.0988133333333","6501400","蘆洲區"
"247014","057-VK","2017/06/22 19:39:02","新北市蘆洲區忠孝路20號","121.470663333333","25.0841566666667","6501400","蘆洲區"
"247004","056-VK","2017/06/22 19:39:20","新北市蘆洲區長安街98巷6號","121.462431666667","25.0813666666667","6501400","蘆洲區"
"226004","312-R5","2017/06/22 19:39:12","新北市平溪區十分里十分街58巷6號","121.775483333333","25.0419683333333","6502400","平溪區"
"228003","097-TW","2017/06/22 19:39:02","新北市貢寮區真理里美艷山街27號","121.923311666667","25.0688283333333","6502600","貢寮區"
"228001","212-TW","2017/06/22 19:39:01","新北市貢寮區真理里延平街49號","121.924655","25.05565","6502600","貢寮區"
"224010","AGQ-8101","2017/06/22 19:36:57","新北市瑞芳區汽車路18-1號","121.845296666667","25.1099033333333","6501200","瑞芳區"
"224002","639-TC","2017/06/22 19:39:02","新北市瑞芳區民享新村13號","121.816593333333","25.1057616666667","6501200","瑞芳區"
"224011","420-VK","2017/06/22 19:39:07","新北市瑞芳區崙頂路1-6號","121.847068333333","25.1047116666667","6501200","瑞芳區"
"224008","275-VK","2017/06/22 19:39:03","新北市瑞芳區瑞芳街104號","121.80151","25.11044","6501200","瑞芳區"
"227004","642-TC","2017/06/22 19:39:14","新北市雙溪區雙溪里太平路61號","121.864995","25.03583","6502500","雙溪區"
"227010","400-TW","2017/06/22 19:39:06","新北市雙溪區新基里新基北街20號","121.867245","25.0388766666667","6502500","雙溪區"
"208001","742-BX","2017/06/22 19:39:15","新北市金山區六股里下六股65號","121.614598333333","25.2230983333333","6502700","金山區"
"208003","665-BX","2017/06/22 19:39:04","新北市金山區仁愛路37-4號","121.636203333333","25.21975","6502700","金山區"
"251009","008-UM","2017/06/22 19:12:57","新北市淡水區中正路114號","121.441708333333","25.1695983333333","6501000","淡水區"
"251004","009-UM","2017/06/22 19:39:09","新北市淡水區民權路187號","121.459288333333","25.1334733333333","6501000","淡水區"
"251001","011-UM","2017/06/22 19:38:57","新北市淡水區水源街二段189-4號","121.456348333333","25.1767933333333","6501000","淡水區"
"251007","179-VK","2017/06/22 19:39:01","新北市淡水區中正東路一段3巷31號","121.451841666667","25.16571","6501000","淡水區"
"251008","181-VK","2017/06/22 19:39:04","新北市淡水區中正路一段8巷1弄11號","121.42835","25.1765483333333","6501000","淡水區"
"251014","182-VK","2017/06/22 19:39:19","新北市淡水區桂竹圍4-1號","121.474541666667","25.2319333333333","6501000","淡水區"
"251010","413-VK","2017/06/22 19:39:09","新北市淡水區新市五路二段75號","121.43133","25.1982483333333","6501000","淡水區"
"251012","441-VK","2017/06/22 19:39:00","新北市淡水區新市二路四段265號","121.445396666667","25.1922083333333","6501000","淡水區"
"251016","442-VK","2017/06/22 19:39:08","新北市淡水區淡金路三段350巷18號","121.450721666667","25.208395","6501000","淡水區"
"251005","443-VK","2017/06/22 19:39:06","新北市淡水區原德路112號","121.443503333333","25.1738416666667","6501000","淡水區"
"251006","561-UM","2017/06/22 19:39:18","新北市淡水區中山北路一段207巷26號","121.443435","25.179195","6501000","淡水區"
"251011","650-BX","2017/06/22 19:39:19","新北市淡水區八勢一街26號","121.460885","25.1559216666667","6501000","淡水區"
"207003","550-UM","2017/06/22 19:39:04","新北市萬里區大鵬里下社15-1號","121.647908333333","25.2181983333333","6502800","萬里區"
"207004","225-TW","2017/06/22 19:39:12","新北市萬里區萬里里瑪鋉路21號","121.6874","25.1754133333333","6502800","萬里區"
"252002","178-VK","2017/06/22 19:38:59","新北市三芝區利民街35號","121.503753333333","25.259365","6502100","三芝區"
"252001","702-TV","2017/06/22 19:39:05","新北市三芝區公正街9號","121.499765","25.2574833333333","6502100","三芝區"
"208002","170-UY","2017/06/22 19:39:08","新北市金山區中山路313巷13號","121.635308333333","25.2231983333333","6502700","金山區"
"237004","078-UY","2017/06/22 19:39:09","新北市三峽區金敏5號","121.38572","24.874945","6500900","三峽區"
"237007","153-BY","2017/06/22 19:39:10","新北市三峽區二鬮路178號","121.359108333333","24.9068533333333","6500900","三峽區"
"237009","210-TH","2017/06/22 19:39:00","新北市三峽區中園街45號","121.368266666667","24.926165","6500900","三峽區"
"237013","252-BX","2017/06/22 19:39:07","新北市三峽區光明路75巷20號","121.377513333333","24.9281716666667","6500900","三峽區"
"237012","275-BY","2017/06/22 19:39:03","新北市三峽區民生街3號","121.374545","24.9353766666667","6500900","三峽區"
"237008","302-VK","2017/06/22 19:39:13","新北市三峽區永安街95巷11號","121.37485","24.9285833333333","6500900","三峽區"
"237014","433-BY","2017/06/22 19:39:12","新北市三峽區中園街41號","121.368223333333","24.9262766666667","6500900","三峽區"
"237006","5529-G3","2017/06/22 19:39:03","新北市三峽區中正路一段336巷15弄2號","121.369966666667","24.9249533333333","6500900","三峽區"
"237016","649-BX","2017/06/22 19:39:00","新北市三峽區成福路219號","121.426738333333","24.9267733333333","6500900","三峽區"
"237005","AKY-6261","2017/06/22 19:39:14","新北市三峽區中山路231巷1弄3號","121.362943333333","24.9368216666667","6500900","三峽區"
"236071","105-UM","2017/06/22 19:39:07","新北市土城區裕民路193-1號","121.453846666667","24.9842466666667","6501300","土城區"
"236042","107-UM","2017/06/22 19:39:18","新北市土城區學士路31號","121.453011666667","24.9821916666667","6501300","土城區"
"236078","166-UM","2017/06/22 19:39:13","新北市土城區中州路27巷63號","121.412965","24.956805","6501300","土城區"
"236030","253-BX","2017/06/22 19:39:09","新北市土城區福祥街55號","121.440871666667","24.9801183333333","6501300","土城區"
"236026","269-VK","2017/06/22 19:39:11","新北市土城區中央路二段61巷22號","121.443213333333","24.978745","6501300","土城區"
"236037","271-VK","2017/06/22 19:39:02","新北市土城區清水路98巷3弄22號","121.458176666667","24.9808083333333","6501300","土城區"
"236021","401-BY","2017/06/22 19:39:03","新北市土城區峰廷街3號","121.469201666667","24.9873933333333","6501300","土城區"
"236051","913-UM","2017/06/22 19:39:02","新北市土城區明德路一段20巷1弄15號","121.464858333333","24.9844066666667","6501300","土城區"
"236062","915-UM","2017/06/22 19:39:18","新北市土城區延平街32號","121.468175","24.9916416666667","6501300","土城區"
"236053","AAC-216","2017/06/22 19:39:15","新北市土城區學府路一段246號","121.45163","24.9846333333333","6501300","土城區"
"242004","442-UM","2017/06/22 19:39:11","新北市新莊區化成路13號","121.464803333333","25.0433716666667","6500500","新莊區"
"242031","415-TV","2017/06/22 19:39:07","新北市新莊區新泰路213巷56號","121.44491","25.03848","6500500","新莊區"
"242034","133-UY","2017/06/22 19:39:05","新北市新莊區仁愛街12號","121.44428","25.0352283333333","6500500","新莊區"
"242007","173-VK","2017/06/22 19:39:00","新北市新莊區福壽街336號","121.457776666667","25.0582466666667","6500500","新莊區"
"242013","175-VK","2017/06/22 19:39:05","新北市新莊區中誠街121巷5號","121.449508333333","25.04725","6500500","新莊區"
"242015","350-TH","2017/06/22 19:39:01","新北市新莊區新泰路401巷29-1號","121.442398333333","25.0437766666667","6500500","新莊區"
"238023","601-UM","2017/06/22 19:39:12","新北市樹林區三福街75號","121.407486666667","25.0163566666667","6500700","樹林區"
"238018","571-TV","2017/06/22 19:39:07","新北市樹林區八德街286號","121.41031","24.9699516666667","6500700","樹林區"
"238024","5061-A6","2017/06/22 19:39:13","新北市樹林區中山路三段107號","121.399743333333","24.9746733333333","6500700","樹林區"
"238022","312-TH","2017/06/22 19:39:17","新北市樹林區名園街31號","121.419523333333","24.979085","6500700","樹林區"
"238021","311-TH","2017/06/22 19:31:17","新北市樹林區柑園街二段337-6號","121.370363333333","24.9503333333333","6500700","樹林區"
"238025","303-VK","2017/06/22 19:39:14","新北市樹林區中山路一段145號","121.422296666667","24.98947","6500700","樹林區"
"238017","283-BY","2017/06/22 19:39:15","新北市樹林區保安街二段195-2號","121.414033333333","25.0035583333333","6500700","樹林區"
"238014","282-BY","2017/06/22 19:39:09","新北市樹林區千歲街6巷26號","121.42574","24.9951","6500700","樹林區"
"238020","268-VK","2017/06/22 19:39:15","新北市樹林區俊英街123巷2號","121.424415","25.0106183333333","6500700","樹林區"
"238026","172-UY","2017/06/22 19:39:09","新北市樹林區佳園路二段95號","121.39053","24.959155","6500700","樹林區"
"238016","169-UY","2017/06/22 19:39:04","新北市樹林區東和街2號","121.405405","24.9803083333333","6500700","樹林區"
"239007","AAC-297","2017/06/22 19:39:13","新北市鶯歌區大湖路133號","121.342791666667","24.9645916666667","6500800","鶯歌區"
"239006","891-R6","2017/06/22 19:39:01","新北市鶯歌區建國路512巷39號","121.33941","24.9511916666667","6500800","鶯歌區"
"239001","417-VK","2017/06/22 19:39:12","新北市鶯歌區鶯桃路165號","121.337046666667","24.9550483333333","6500800","鶯歌區"
"239003","360-BY","2017/06/22 19:39:00","新北市鶯歌區國華路56號","121.342281666667","24.9549283333333","6500800","鶯歌區"
"239004","193-VK","2017/06/22 19:39:06","新北市鶯歌區二甲路26-3號","121.339265","24.9353916666667","6500800","鶯歌區"
"221008","489-VK","2017/06/22 19:39:01","新北市汐止區康寧街145號","121.621991666667","25.0667","6501100","汐止區"
"221036","130-UY","2017/06/22 19:39:09","新北市汐止區汐萬路一段256巷1號","121.65183","25.07479","6501100","汐止區"
"221015","131-UY","2017/06/22 19:39:10","新北市汐止區汐萬路一段256巷1號","121.651755","25.0748433333333","6501100","汐止區"
"221010","269-BY","2017/06/22 19:39:16","新北市汐止區汐萬路一段411號","121.649235","25.079415","6501100","汐止區"
"221010","276-VK","2017/06/22 14:27:36","新北市汐止區汐萬路一段256巷3號","121.653441666667","25.0746116666667","6501100","汐止區"
"221031","277-VK","2017/06/22 01:58:15","新北市汐止區汐萬路一段256巷3號","121.652443333333","25.0743566666667","6501100","汐止區"
"221012","278-VK","2017/06/22 19:39:04","新北市汐止區大同路三段523號","121.680718333333","25.07139","6501100","汐止區"
"221023","279-VK","2017/06/22 19:39:00","新北市汐止區民族六街21-2號","121.630133333333","25.06899","6501100","汐止區"
"221032","280-BY","2017/06/22 19:39:11","新北市汐止區橫科路322巷24弄6-1號","121.620733333333","25.0500133333333","6501100","汐止區"
"221027","281-BY","2017/06/22 19:39:09","新北市汐止區忠孝東路9號","121.6583","25.0659666666667","6501100","汐止區"
"221038","297-VK","2017/06/22 19:39:10","新北市汐止區忠孝東路200號","121.661561666667","25.06599","6501100","汐止區"
"221029","298-VK","2017/06/22 19:39:04","新北市汐止區康寧街901號","121.651378333333","25.07502","6501100","汐止區"
"221021","299-VK","2017/06/22 19:37:54","新北市汐止區大同路二段179號","121.651933333333","25.06409","6501100","汐止區"
"221025","623-UM","2017/06/22 19:39:19","新北市汐止區福安街20巷1號","121.662618333333","25.0650133333333","6501100","汐止區"
"221038","646-BX","2017/06/22 15:23:21","新北市汐止區康寧街901號","121.651748333333","25.07496","6501100","汐止區"
"221033","647-BX","2017/06/22 19:39:15","新北市汐止區南勢街1巷1號","121.626995","25.0374566666667","6501100","汐止區"
"221002","707-TV","2017/06/22 19:39:12","新北市汐止區大同路一段219巷27號","121.633316666667","25.0583566666667","6501100","汐止區"
"220079","145-BY","2017/06/22 19:39:13","新北市板橋區建國街23號","121.457976666667","25.0170666666667","6500100","板橋區"
"220089","146-RM","2017/06/22 19:39:12","新北市板橋區文德路36號","121.462403333333","25.0242433333333","6500100","板橋區"
"220080","200-UY","2017/06/22 19:39:07","新北市板橋區大觀路二段37巷300號","121.450098333333","25.00209","6500100","板橋區"
"220082","610-BX","2017/06/22 19:39:19","新北市板橋區金門街96-2號","121.433101666667","24.99235","6500100","板橋區"
"220101","245-BX","2017/06/22 19:39:14","新北市板橋區縣民大道三段33巷6弄1號","121.473936666667","25.021235","6500100","板橋區"
"220094","267-BY","2017/06/22 19:39:18","新北市板橋區松江街109巷1號","121.469076666667","25.0306233333333","6500100","板橋區"
"220056","276-BY","2017/06/22 19:39:09","新北市板橋區四川路二段47巷8弄8-1號","121.454203333333","24.994","6500100","板橋區"
"220072","277-BY","2017/06/22 19:39:15","新北市板橋區金門街253巷17弄1號","121.433211666667","24.9886533333333","6500100","板橋區"
"220064","280-UM","2017/06/22 19:39:20","新北市板橋區民權路33號","121.462281666667","25.0112716666667","6500100","板橋區"
"220071","283-VK","2017/06/22 19:39:18","新北市板橋區忠孝路24巷6號","121.460093333333","25.0014933333333","6500100","板橋區"
"220053","285-VK","2017/06/22 19:39:15","新北市板橋區中山路二段148巷30號","121.477201666667","25.0161066666667","6500100","板橋區"
"220083","286-VK","2017/06/22 19:39:12","新北市板橋區大觀路二段174巷179弄19號","121.441273333333","25.004145","6500100","板橋區"
"220081","287-VK","2017/06/22 19:39:10","新北市板橋區華東街330號","121.45317","25.0037816666667","6500100","板橋區"
"220090","288-VK","2017/06/22 19:39:08","新北市板橋區長江路一段134號","121.460541666667","25.0300383333333","6500100","板橋區"
"220061","295-UM","2017/06/22 19:39:05","新北市板橋區中山路一段275號","121.469171666667","25.0136166666667","6500100","板橋區"
"220084","296-UM","2017/06/22 19:39:09","新北市板橋區篤行路三段玉平巷76弄8號","121.427693333333","24.9857016666667","6500100","板橋區"
"220075","297-UM","2017/06/22 19:39:16","新北市板橋區南雅西路二段301巷50弄27-1號","121.452373333333","25.017065","6500100","板橋區"
"220062","305-R5","2017/06/22 19:26:33","新北市板橋區三民路二段153巷4弄6號","121.479793333333","25.0145833333333","6500100","板橋區"
"220092","307-R5","2017/06/22 19:39:15","新北市板橋區文化路一段387巷3號","121.46674","25.021905","6500100","板橋區"
"220098","317-R6","2017/06/22 19:39:01","新北市板橋區四維路297號","121.46318","25.0283816666667","6500100","板橋區"
"220088","491-VK","2017/06/22 19:38:14","新北市板橋區文化路二段443號","121.475285","25.03318","6500100","板橋區"
"220035","560-BX","2017/06/22 19:39:02","新北市板橋區中正路328號","121.4544","25.0215816666667","6500100","板橋區"
"220103","561-BX","2017/06/22 19:38:58","新北市板橋區文化路一段266號","121.466888333333","25.0207283333333","6500100","板橋區"
"220063","609-BX","2017/06/22 19:39:18","新北市板橋區中山路二段467號","121.481961666667","25.0205383333333","6500100","板橋區"
"220091","637-BX","2017/06/22 19:39:08","新北市板橋區懷德街139巷20弄66號","121.480273333333","25.030465","6500100","板橋區"
"220057","686-BX","2017/06/22 19:39:18","新北市板橋區五權街7-1號","121.464008333333","24.99468","6500100","板橋區"
"220077","687-BX","2017/06/22 19:39:07","新北市板橋區僑中三街1號","121.446958333333","25.0044116666667","6500100","板橋區"
"220093","689-BX","2017/06/22 19:39:12","新北市板橋區新海路436號","121.458093333333","25.0277166666667","6500100","板橋區"
"220054","741-BX","2017/06/22 19:38:58","新北市板橋區忠孝路201巷1-1號","121.465053333333","25.0027733333333","6500100","板橋區"
"220055","827-TW","2017/06/22 19:39:16","新北市板橋區國慶路149巷2弄2號","121.46135","24.9964783333333","6500100","板橋區"
"220067","829-TW","2017/06/22 19:39:11","新北市板橋區長安街144號","121.472925","25.01028","6500100","板橋區"
"220102","830-TW","2017/06/22 19:39:10","新北市板橋區雙十路二段46巷19號","121.476206666667","25.028225","6500100","板橋區"
"220096","831-TW","2017/06/22 19:39:15","新北市板橋區民生路二段226巷10弄2號","121.47045","25.0217883333333","6500100","板橋區"
"220074","895-R6","2017/06/22 19:39:14","新北市板橋區北門街58號","121.456681666667","25.0113066666667","6500100","板橋區"
"220073","985-R7","2017/06/22 19:39:03","新北市板橋區國光路33號","121.457261666667","25.017585","6500100","板橋區"
"220070","AAC-253","2017/06/22 19:39:17","新北市板橋區忠孝路58號","121.461165","25.00201","6500100","板橋區"
