"lineid","car","time","location","longitude","latitude","cityid","cityname"
"234046","148-BY","2017/06/22 19:59:14","新北市永和區林森路80號","121.52343","25.0037266666667","6500400","永和區"
"234013","149-BY","2017/06/22 19:59:05","新北市永和區保安路246號","121.50648","25.0126683333333","6500400","永和區"
"234007","207-UY","2017/06/22 19:59:12","新北市永和區保生路22巷19弄2號","121.507145","25.0085066666667","6500400","永和區"
"234081","298-R6","2017/06/22 19:59:03","新北市永和區永亨路100號","121.523196666667","25.004755","6500400","永和區"
"234038","336-UY","2017/06/22 19:59:14","新北市永和區成功路一段137號","121.526828333333","25.0016166666667","6500400","永和區"
"234064","337-UY","2017/06/22 19:59:15","新北市永和區中正路368巷1弄45號","121.519083333333","25.0009866666667","6500400","永和區"
"234086","338-UY","2017/06/22 19:59:06","新北市永和區中正路479號","121.516978333333","25.0063983333333","6500400","永和區"
"234070","552-UM","2017/06/22 19:59:05","新北市永和區中正路614號","121.517","25.0075516666667","6500400","永和區"
"234054","553-UM","2017/06/22 19:59:08","新北市永和區環河東路一段122號","121.52065","25.0154866666667","6500400","永和區"
"234017","745-BX","2017/06/22 19:59:18","新北市永和區信義路121號","121.512311666667","25.01495","6500400","永和區"
"234030","746-BX","2017/06/22 19:59:02","新北市永和區民權路49巷5弄37號","121.52179","24.9979766666667","6500400","永和區"
"234042","840-RS","2017/06/22 19:59:05","新北市永和區中和路389巷16號","121.508158333333","25.0011516666667","6500400","永和區"
"234061","AAD-866","2017/06/22 19:59:09","新北市永和區中正路283巷27號","121.51641","24.99986","6500400","永和區"
"234064","847-RS","2017/06/22 14:36:33","新北市永和區福和路1號","121.52663","25.0098583333333","6500400","永和區"
"234042","862-TW","2017/06/22 19:02:18","新北市永和區福和路1號","121.526388333333","25.00971","6500400","永和區"
"234050","863-TW","2017/06/22 19:59:13","新北市永和區保安路264號","121.505911666667","25.0124033333333","6500400","永和區"
"234026","9371-KE","2017/06/22 19:59:05","新北市永和區水源街21巷14弄3號","121.5114","25.0037466666667","6500400","永和區"
"249005","172-UM","2017/06/22 19:59:04","新北市八里區長坑口40-1號","121.388185","25.130235","6502300","八里區"
"249001","173-UM","2017/06/22 19:59:12","新北市八里區中華路二段312號","121.403726666667","25.1483883333333","6502300","八里區"
"249004","303-UY","2017/06/22 19:59:10","新北市八里區中華路一段333-1號","121.41306","25.154095","6502300","八里區"
"249002","305-UY","2017/06/22 19:59:03","新北市八里區頂寮一街8-1號","121.452265","25.1242716666667","6502300","八里區"
"249003","593-UM","2017/06/22 19:59:11","新北市八里區中華路二段558號","121.39874","25.1452066666667","6502300","八里區"
"248016","026-BX","2017/06/22 19:59:10","新北市五股區成泰路三段577巷80弄25號","121.449578333333","25.10455","6501500","五股區"
"248008","095-VK","2017/06/22 19:59:19","新北市三重區中正北路598巷5號","121.46966","25.0715966666667","6501500","五股區"
"248020","225-UY","2017/06/22 19:59:15","新北市五股區凌雲路三段1-4號","121.431698333333","25.105675","6501500","五股區"
"248012","247-BX","2017/06/22 15:18:18","新北市五股區中興路二段37巷24號","121.460858333333","25.0751416666667","6501500","五股區"
"248014","261-SL","2017/06/22 19:59:13","新北市五股區五福路22巷2號","121.434478333333","25.0889533333333","6501500","五股區"
"248010","272-BY","2017/06/22 19:59:08","新北市五股區登林路75號","121.428386666667","25.069855","6501500","五股區"
"248002","678-BX","2017/06/22 19:59:05","新北市五股區成泰路三段514號","121.45214","25.1021083333333","6501500","五股區"
"234077","969-R7","2017/06/22 19:58:59","新北市永和區民有街18號","121.516481666667","24.996665","6500400","永和區"
"234074","AAC-211","2017/06/22 19:59:15","新北市永和區豫溪街160巷3號","121.523448333333","25.00963","6500400","永和區"
"234067","AAC-212","2017/06/22 19:59:13","新北市永和區保平路236巷24弄15號","121.508476666667","25.0070583333333","6500400","永和區"
"234003","AAC-295","2017/06/22 19:57:09","新北市永和區永和路二段3號","121.5144","25.0099583333333","6500400","永和區"
"244025","837-TS","2017/06/22 19:59:14","新北市八里區長道坑7-3號","121.393285","25.12331","6501700","林口區"
"243013","AAD-798","2017/06/22 19:59:16","新北市泰山區應化街7號","121.42388","25.0437183333333","6501600","泰山區"
"243009","297-R6","2017/06/22 19:59:01","新北市泰山區楓江路16巷32號","121.43398","25.06147","6501600","泰山區"
"243015","380-SR","2017/06/22 19:59:01","新北市泰山區明志路二段194號","121.427503333333","25.04964","6501600","泰山區"
"243014","421-VK","2017/06/22 19:59:05","新北市泰山區泰林路二段168號","121.433855","25.060485","6501600","泰山區"
"243010","548-UM","2017/06/22 19:59:09","新北市泰山區中華街10巷2號","121.4281","25.0523716666667","6501600","泰山區"
"243011","549-UM","2017/06/22 19:59:06","新北市泰山區明志路三段180號","121.424196666667","25.0389033333333","6501600","泰山區"
"243012","646-TV","2017/06/22 19:59:01","新北市泰山區全興路180號","121.433191666667","25.057545","6501600","泰山區"
"243016","680-BX","2017/06/22 19:59:06","新北市泰山區明志路三段423號","121.421281666667","25.0332633333333","6501600","泰山區"
"222003","436-BY","2017/06/22 19:59:08","新北市深坑區埔新街14號","121.620738333333","25.00395","6501800","深坑區"
"222002","659-BX","2017/06/22 19:59:07","新北市深坑區北深路二段81巷8弄2號","121.618303333333","25.0031066666667","6501800","深坑區"
"222001","696-SL","2017/06/22 19:59:03","新北市深坑區北深路三段164號","121.602331666667","25.00339","6501800","深坑區"
"231041","002-UM","2017/06/22 19:59:19","新北市新店區中正路351號","121.535305","24.9759483333333","6500600","新店區"
"231059","046-UY","2017/06/22 19:59:10","新北市新店區安康路二段160號","121.512183333333","24.9608383333333","6500600","新店區"
"231061","047-UY","2017/06/22 19:59:10","新北市新店區安民街133巷26號","121.515381666667","24.9693716666667","6500600","新店區"
"231060","106-UY","2017/06/22 19:59:08","新北市新店區安康路二段335號","121.498401666667","24.955935","6500600","新店區"
"231051","107-UY","2017/06/22 19:59:17","新北市新店區中央路208號","121.53014","24.9739916666667","6500600","新店區"
"231047","108-UY","2017/06/22 19:59:02","新北市新店區寶宏路38號","121.549493333333","24.9756","6500600","新店區"
"231052","187-VK","2017/06/22 19:59:01","新北市新店區新烏路三段寶島巷4號","121.55157","24.8992583333333","6500600","新店區"
"231007","189-VK","2017/06/22 11:55:11","新北市新店區安華路28-1號","121.519691666667","24.9610933333333","6500600","新店區"
"231057","256-BX","2017/06/22 19:59:04","新北市新店區花園二路一段11號","121.555493333333","24.932465","6500600","新店區"
"231063","268-BY","2017/06/22 19:59:13","新北市新店區黎明路3號","121.503693333333","24.9524783333333","6500600","新店區"
"231050","AAD-862","2017/06/22 19:59:00","新北市新店區北宜路二段360-1號","121.564708333333","24.9524533333333","6500600","新店區"
"231055","3713-VJ","2017/06/22 19:59:07","新北市新店區中華路83巷67號","121.538343333333","24.9672533333333","6500600","新店區"
"231067","4772-VM","2017/06/22 19:58:58","新北市新店區秀山路11巷8號","121.531898333333","24.959365","6500600","新店區"
"231065","512-UM","2017/06/22 19:59:00","新北市新店區安祥路109巷8號","121.475443333333","24.95886","6500600","新店區"
"231054","513-UM","2017/06/22 19:59:13","新北市新店區光明街32號","121.538338333333","24.9589983333333","6500600","新店區"
"231064","515-UM","2017/06/22 19:59:14","新北市新店區安民街136號","121.516561666667","24.9694133333333","6500600","新店區"
"231042","616-UM","2017/06/22 19:59:15","新北市新店區中興路一段298號","121.546156666667","24.9695466666667","6500600","新店區"
"231040","619-UM","2017/06/22 19:59:13","新北市新店區中正路64號","121.544243333333","24.9702233333333","6500600","新店區"
"231068","718-UY","2017/06/22 19:59:09","新北市新店區安華路28-1號","121.519341666667","24.9610683333333","6500600","新店區"
"231049","719-UM","2017/06/22 19:59:11","新北市新店區民族路45-1號","121.540498333333","24.9786116666667","6500600","新店區"
"231062","720-UM","2017/06/22 19:59:02","新北市新店區華城路36巷1號","121.527878333333","24.95536","6500600","新店區"
"231044","897-TW","2017/06/22 19:59:04","新北市新店區復興路44-1號","121.538596666667","24.9868083333333","6500600","新店區"
"231045","898-TW","2017/06/22 19:59:12","新北市新店區北宜路二段353-3號","121.558405","24.9542333333333","6500600","新店區"
"231043","899-TW","2017/06/22 19:59:17","新北市新店區中正路263-1號","121.53864","24.9737033333333","6500600","新店區"
"231066","AKT-0513","2017/06/22 19:59:09","新北市新店區柴埕路57號","121.51367","24.9652183333333","6500600","新店區"
"241011","013-R5","2017/06/22 19:59:04","新北市三重區三和路二段210號","121.498065","25.0693116666667","6500200","三重區"
"241028","022-UY","2017/06/22 19:59:18","新北市三重區重新路三段94號","121.492606666667","25.060905","6500200","三重區"
"241008","059-VK","2017/06/22 19:59:09","新北市三重區力行路二段136巷49弄2號","121.479301666667","25.075215","6500200","三重區"
"241009","060-VK","2017/06/22 19:59:04","新北市三重區三和路四段390巷39號","121.480245","25.07872","6500200","三重區"
"241031","061-VK","2017/06/22 19:59:09","新北市三重區重新路四段184巷16號","121.487126666667","25.0549966666667","6500200","三重區"
"241017","063-VK","2017/06/22 19:59:11","新北市三重區自強路一段298號","121.491425","25.0683916666667","6500200","三重區"
"241024","065-VK","2017/06/22 19:59:09","新北市三重區力行路一段178巷11號","121.481516666667","25.0713966666667","6500200","三重區"
"241026","066-VK","2017/06/22 19:59:19","新北市三重區中央南路1號","121.50128","25.0630816666667","6500200","三重區"
"241003","091-VK","2017/06/22 19:59:15","新北市三重區仁愛街445巷36號","121.491393333333","25.0833","6500200","三重區"
"241015","156-TC","2017/06/22 19:59:08","新北市三重區三和路二段6-2號","121.501235","25.066725","6500200","三重區"
"241005","262-UM","2017/06/22 19:59:14","新北市三重區溪尾街325巷32號","121.488683333333","25.0834583333333","6500200","三重區"
"241029","265-UM","2017/06/22 19:59:10","新北市三重區重新路三段204號","121.490045","25.05852","6500200","三重區"
"241016","266-UM","2017/06/22 19:59:05","新北市三重區正義北路46號","121.497378333333","25.063745","6500200","三重區"
"241018","268-UM","2017/06/22 19:59:07","新北市三重區雙園街39號","121.495478333333","25.0677033333333","6500200","三重區"
"241032","269-UM","2017/06/22 19:59:03","新北市三重區朝陽街26巷1弄8號","121.483106666667","25.0566733333333","6500200","三重區"
"241013","270-UM","2017/06/22 19:59:09","新北市三重區三和路三段117號","121.493043333333","25.073125","6500200","三重區"
"241025","271-UM","2017/06/22 19:59:10","新北市三重區頂崁街210巷16號","121.47649","25.0677266666667","6500200","三重區"
"241007","398-BY","2017/06/22 19:59:02","新北市三重區慈愛街72號","121.48756","25.0797416666667","6500200","三重區"
"241020","413-TH","2017/06/22 19:59:17","新北市三重區忠孝路一段101號","121.489476666667","25.0721083333333","6500200","三重區"
"241035","462-BY","2017/06/22 19:59:18","新北市三重區大榮街9號","121.498218333333","25.0632133333333","6500200","三重區"
"241004","475-VK","2017/06/22 19:59:08","新北市三重區五華街108-2號","121.492428333333","25.08277","6500200","三重區"
"241019","478-VK","2017/06/22 19:59:08","新北市三重區自強路二段7號","121.490186666667","25.0689883333333","6500200","三重區"
"241030","480-VK","2017/06/22 19:59:06","新北市三重區重新路四段248-1號","121.486196666667","25.0534483333333","6500200","三重區"
"241014","543-UM","2017/06/22 19:59:01","新北市三重區三和路二段156號","121.499403333333","25.0684533333333","6500200","三重區"
"241023","545-UM","2017/06/22 19:59:12","新北市三重區大有街1-1號","121.477716666667","25.0656883333333","6500200","三重區"
"241001","547-UM","2017/06/22 19:58:59","新北市三重區五華街11號","121.494973333333","25.0803433333333","6500200","三重區"
"241006","AAD-863","2017/06/22 19:59:13","新北市三重區力行路二段78號","121.4819","25.0737283333333","6500200","三重區"
"241012","887-TS","2017/06/22 19:59:18","新北市三重區仁厚街86號","121.500848333333","25.07689","6500200","三重區"
"241033","AAC-255","2017/06/22 19:59:04","新北市三重區中興北街115號","121.469748333333","25.048685","6500200","三重區"
"235066","003-UY","2017/06/22 19:58:59","新北市中和區光華街7號","121.504368333333","25.0043083333333","6500300","中和區"
"235056","096-UM","2017/06/22 19:59:03","新北市板橋區漢生東路346號","121.471986666667","25.00737","6500300","中和區"
"235039","097-UM","2017/06/22 19:59:11","新北市中和區大勇街27巷2號","121.517278333333","24.9935916666667","6500300","中和區"
"235029","098-UM","2017/06/22 17:07:34","新北市中和區興南路三段47巷32-6號","121.497025","24.977845","6500300","中和區"
"235058","151-BY","2017/06/22 19:59:14","新北市中和區員山路150巷2弄18號","121.48167","24.9977283333333","6500300","中和區"
"235055","183-VK","2017/06/22 19:59:08","新北市中和區德光路15巷7號","121.47131","25.0039633333333","6500300","中和區"
"235038","185-VK","2017/06/22 19:59:02","新北市中和區大智街55巷30弄20號","121.521156666667","24.9931616666667","6500300","中和區"
"235049","186-VK","2017/06/22 19:59:13","新北市中和區景平路385號","121.50304","24.9940366666667","6500300","中和區"
"235067","255-BX","2017/06/22 19:59:10","新北市中和區新生街220巷25號","121.482673333333","24.9985183333333","6500300","中和區"
"235044","293-VK","2017/06/22 19:59:07","新北市中和區南山路421巷1弄34號","121.50709","24.9905166666667","6500300","中和區"
"235072","301-VK","2017/06/22 19:59:08","新北市八里區荖阡坑路24-2號","121.399576666667","25.1330016666667","6500300","中和區"
"235043","352-BY","2017/06/22 19:59:01","新北市中和區興南路二段159巷7號","121.50538","24.983165","6500300","中和區"
"235040","375-QA","2017/06/22 19:59:16","新北市中和區保健路19巷2弄2號","121.508323333333","24.9983683333333","6500300","中和區"
"235051","376-QA","2017/06/22 19:59:14","新北市中和區中興街233巷8弄4號","121.501438333333","24.9892083333333","6500300","中和區"
"235068","377-QA","2017/06/22 19:59:15","新北市中和區福美路301巷44號","121.497668333333","25.00341","6500300","中和區"
"235061","378-QA","2017/06/22 19:59:20","新北市中和區員山路226巷9弄1號","121.48191","25.0004366666667","6500300","中和區"
"235050","4979-A6","2017/06/22 19:59:07","新北市中和區景平路149號","121.513776666667","24.992295","6500300","中和區"
"235069","4980-A6","2017/06/22 19:59:09","新北市中和區景新街132巷8-4號","121.504625","24.9981883333333","6500300","中和區"
"235070","558-UM","2017/06/22 19:59:19","新北市中和區連勝街49號","121.49801","24.9972466666667","6500300","中和區"
"235047","732-UM","2017/06/22 19:59:08","新北市中和區和平街80號","121.507748333333","24.991175","6500300","中和區"
"235046","733-UM","2017/06/22 19:59:12","新北市中和區興南路一段71號","121.510063333333","24.9893366666667","6500300","中和區"
"235057","801-TS","2017/06/22 19:59:13","新北市中和區員山路130號","121.481176666667","24.9962633333333","6500300","中和區"
"235041","802-TS","2017/06/22 19:58:59","新北市中和區中和路416號","121.511651666667","25.0030416666667","6500300","中和區"
"235052","805-TS","2017/06/22 19:59:03","新北市中和區興南路二段121號","121.505703333333","24.9841166666667","6500300","中和區"
"235048","896-TW","2017/06/22 19:59:13","新北市中和區興南路一段50號","121.510961666667","24.990555","6500300","中和區"
"235053","900-TW","2017/06/22 19:59:09","新北市中和區國光街189巷22號","121.467721666667","25.000905","6500300","中和區"
"235037","AAC-213","2017/06/22 19:59:16","新北市中和區自立路15巷4號","121.522681666667","24.9959866666667","6500300","中和區"
"235059","AAC-215","2017/06/22 19:59:18","新北市中和區圓通路367巷13弄26號","121.493011666667","24.9882916666667","6500300","中和區"
"220068","013-TV","2017/06/22 19:59:14","新北市板橋區光復街80號","121.482968333333","25.018535","6500100","板橋區"
"220065","072-UY","2017/06/22 19:59:00","新北市板橋區民族路69巷18弄1號","121.466451666667","25.0099683333333","6500100","板橋區"
"220086","073-UY","2017/06/22 19:59:06","新北市板橋區南雅西路二段2-1號","121.45318","25.0088916666667","6500100","板橋區"
"220106","075-UY","2017/06/22 19:59:08","新北市板橋區民治街71巷33號","121.480581666667","25.03336","6500100","板橋區"
"220069","AAD-861","2017/06/22 19:59:09","新北市板橋區南雅南路二段18號","121.45449","25.003535","6500100","板橋區"
"220097","120-SR","2017/06/22 19:59:05","新北市板橋區漢生西路56號","121.463108333333","25.0187833333333","6500100","板橋區"
"247020","893-R6","2017/06/22 19:59:16","新北市蘆洲區民義街59號","121.472911666667","25.0898333333333","6501400","蘆洲區"
"247017","500-BY","2017/06/22 19:59:04","新北市蘆洲區民族路229號","121.477498333333","25.08986","6501400","蘆洲區"
"247006","341-TH","2017/06/22 19:59:12","新北市蘆洲區九芎街115號","121.465595","25.07953","6501400","蘆洲區"
"247008","339-TH","2017/06/22 19:59:07","新北市蘆洲區中山一路103巷25號","121.47585","25.0809833333333","6501400","蘆洲區"
"247024","337-TH","2017/06/22 19:59:04","新北市蘆洲區光榮路120巷12號","121.465526666667","25.08846","6501400","蘆洲區"
"247002","336-TH","2017/06/22 19:34:48","新北市蘆洲區環堤大道365號","121.456898333333","25.0988133333333","6501400","蘆洲區"
"247014","057-VK","2017/06/22 19:59:02","新北市蘆洲區成功路137號","121.472225","25.0824416666667","6501400","蘆洲區"
"247004","056-VK","2017/06/22 19:58:59","新北市蘆洲區永康街75號","121.455795","25.0851533333333","6501400","蘆洲區"
"247012","007-UY","2017/06/22 19:59:09","新北市蘆洲區中興街15巷41號","121.479698333333","25.0884566666667","6501400","蘆洲區"
"247022","002-UY","2017/06/22 19:59:11","新北市蘆洲區中正路184號","121.466996666667","25.0879916666667","6501400","蘆洲區"
"247016","001-UY","2017/06/22 19:59:16","新北市蘆洲區光華路80-1號","121.467788333333","25.0826783333333","6501400","蘆洲區"
"228003","097-TW","2017/06/22 19:59:02","新北市貢寮區仁理村仁和路260號","121.924175","25.054215","6502600","貢寮區"
"224010","AGQ-8101","2017/06/22 19:59:17","新北市瑞芳區汽車路11號","121.84585","25.11066","6501200","瑞芳區"
"224011","420-VK","2017/06/22 19:59:07","新北市瑞芳區崙頂路1-6號","121.847076666667","25.1046966666667","6501200","瑞芳區"
"227004","642-TC","2017/06/22 19:59:14","新北市雙溪區雙溪里長安街16號","121.864955","25.0347016666667","6502500","雙溪區"
"227010","400-TW","2017/06/22 19:59:06","新北市雙溪區新基里新基南街25號","121.866253333333","25.0381533333333","6502500","雙溪區"
"208001","742-BX","2017/06/22 19:59:01","新北市金山區南勢41號","121.629078333333","25.2198433333333","6502700","金山區"
"208003","665-BX","2017/06/22 19:59:12","新北市金山區海興路190號","121.633301666667","25.2407216666667","6502700","金山區"
"251009","008-UM","2017/06/22 19:12:57","新北市淡水區中正路114號","121.441708333333","25.1695983333333","6501000","淡水區"
"251004","009-UM","2017/06/22 19:59:10","新北市淡水區民生路16巷12號","121.461245","25.1373816666667","6501000","淡水區"
"251001","011-UM","2017/06/22 19:59:17","新北市淡水區新市二路四段265號","121.445705","25.1924916666667","6501000","淡水區"
"251007","179-VK","2017/06/22 19:59:01","新北市淡水區中山北路三段156號","121.445138333333","25.1959883333333","6501000","淡水區"
"251008","181-VK","2017/06/22 19:59:08","新北市淡水區淡海路63巷2號","121.422838333333","25.1808866666667","6501000","淡水區"
"251014","182-VK","2017/06/22 19:59:19","新北市淡水區石頭厝14-53號","121.464133333333","25.2366766666667","6501000","淡水區"
"251010","413-VK","2017/06/22 19:59:09","新北市淡水區崁頂里77號","121.430446666667","25.2030566666667","6501000","淡水區"
"251012","441-VK","2017/06/22 19:59:00","新北市淡水區下圭柔山100-1號","121.437898333333","25.2106266666667","6501000","淡水區"
"251016","442-VK","2017/06/22 19:59:08","新北市淡水區淡金路四段540號","121.45194","25.2268033333333","6501000","淡水區"
"251005","443-VK","2017/06/22 19:59:06","新北市淡水區學府路136巷29號","121.451453333333","25.1727633333333","6501000","淡水區"
"251006","561-UM","2017/06/22 19:58:58","新北市淡水區北新路6號","121.444428333333","25.1774283333333","6501000","淡水區"
"251011","650-BX","2017/06/22 19:58:59","新北市淡水區崁頂55-3號","121.44232","25.196655","6501000","淡水區"
"207003","550-UM","2017/06/22 19:59:04","新北市萬里區磺潭里公館崙5號","121.641876666667","25.2142333333333","6502800","萬里區"
"207004","225-TW","2017/06/22 19:59:12","新北市萬里區北基里忠二街35號","121.685638333333","25.17576","6502800","萬里區"
"252002","178-VK","2017/06/22 19:59:19","新北市三芝區三民街39巷5號","121.505371666667","25.2576566666667","6502100","三芝區"
"252001","702-TV","2017/06/22 19:59:05","新北市三芝區公正街9號","121.49977","25.25749","6502100","三芝區"
"208002","170-UY","2017/06/22 19:59:08","新北市金山區環金路91號","121.636701666667","25.2172616666667","6502700","金山區"
"237007","153-BY","2017/06/22 19:59:10","新北市三峽區二鬮路136巷20弄81號","121.358165","24.909305","6500900","三峽區"
"237009","210-TH","2017/06/22 19:59:00","新北市三峽區民族街78巷20號","121.36816","24.929565","6500900","三峽區"
"237013","252-BX","2017/06/22 19:59:07","新北市三峽區介壽路一段542-2號","121.386648333333","24.9331133333333","6500900","三峽區"
"237012","275-BY","2017/06/22 19:59:03","新北市三峽區中華路5-1號","121.374696666667","24.93256","6500900","三峽區"
"237008","302-VK","2017/06/22 19:59:13","新北市三峽區安溪路342號","121.370128333333","24.9265083333333","6500900","三峽區"
"237014","433-BY","2017/06/22 19:59:12","新北市三峽區添福59-5號","121.374535","24.9034116666667","6500900","三峽區"
"237006","5529-G3","2017/06/22 19:59:03","新北市三峽區中正路一段510號","121.369901666667","24.920275","6500900","三峽區"
"237016","649-BX","2017/06/22 19:59:20","新北市三峽區橫溪路99巷71-1號","121.40089","24.93764","6500900","三峽區"
"237005","AKY-6261","2017/06/22 19:59:14","新北市三峽區長泰街20號","121.378763333333","24.93178","6500900","三峽區"
"236071","105-UM","2017/06/22 19:59:07","新北市土城區千歲路11號","121.440861666667","24.9697383333333","6501300","土城區"
"236042","107-UM","2017/06/22 19:59:18","新北市土城區學府路一段143巷9號","121.453963333333","24.9858733333333","6501300","土城區"
"236078","166-UM","2017/06/22 19:59:13","新北市土城區福安街88號","121.417891666667","24.9642266666667","6501300","土城區"
"236030","253-BX","2017/06/22 19:59:09","新北市土城區中華路一段203巷5號","121.44336","24.9849366666667","6501300","土城區"
"236026","269-VK","2017/06/22 19:59:11","新北市土城區員林街6-1號","121.442631666667","24.97803","6501300","土城區"
"236014","270-VK","2017/06/22 19:59:13","新北市土城區廣福街123號","121.456285","24.9928483333333","6501300","土城區"
"236037","271-VK","2017/06/22 19:59:16","新北市土城區國際路127-7號","121.467891666667","24.97604","6501300","土城區"
"236021","401-BY","2017/06/22 19:59:04","新北市土城區延吉街165巷9號","121.470331666667","24.9852166666667","6501300","土城區"
"236058","912-UM","2017/06/22 19:59:10","新北市土城區中央路一段130號","121.446346666667","24.9877883333333","6501300","土城區"
"236051","913-UM","2017/06/22 19:59:02","新北市土城區金城路三段115號","121.467626666667","24.9877833333333","6501300","土城區"
"236062","915-UM","2017/06/22 19:58:58","新北市土城區延和路250巷13號","121.469245","24.9894016666667","6501300","土城區"
"236053","AAC-216","2017/06/22 19:59:07","新北市土城區延和路215號","121.469861666667","24.9897833333333","6501300","土城區"
"242021","AAC-296","2017/06/22 19:59:16","新北市新莊區建中街16巷28號","121.449151666667","25.038735","6500500","新莊區"
"242029","986-R7","2017/06/22 19:59:19","新北市新莊區中平路377巷1-6號","121.444491666667","25.0524233333333","6500500","新莊區"
"242025","615-BX","2017/06/22 19:59:03","新北市新莊區五工二路86巷8號","121.459841666667","25.0665583333333","6500500","新莊區"
"242023","613-BX","2017/06/22 19:59:16","新北市新莊區化成路374號","121.46587","25.0497933333333","6500500","新莊區"
"242027","612-BX","2017/06/22 19:59:14","新北市新莊區立信一街56號","121.443105","25.0495833333333","6500500","新莊區"
"242036","566-BX","2017/06/22 19:59:15","新北市新莊區建安街41巷5號","121.429206666667","25.0252383333333","6500500","新莊區"
"242042","497-BY","2017/06/22 19:59:14","新北市新莊區青山路一段26號","121.410933333333","25.0276083333333","6500500","新莊區"
"242004","442-UM","2017/06/22 19:59:11","新北市新莊區化成路314巷20弄1號","121.46699","25.0482466666667","6500500","新莊區"
"242051","440-UM","2017/06/22 19:59:20","新北市新莊區龍安路466號","121.426913333333","25.0176166666667","6500500","新莊區"
"242031","415-TV","2017/06/22 19:59:16","新北市新莊區公園一路61號","121.443071666667","25.0364116666667","6500500","新莊區"
"242002","413-TV","2017/06/22 19:59:17","新北市新莊區新泰路72號","121.449176666667","25.03487","6500500","新莊區"
"242039","400-BY","2017/06/22 19:59:07","新北市新莊區民安路276號","121.427666666667","25.0215183333333","6500500","新莊區"
"242061","362-BY","2017/06/22 19:59:01","新北市新莊區瓊泰路1號","121.445125","25.028605","6500500","新莊區"
"242058","353-BY","2017/06/22 19:59:07","新北市新莊區八德街105號","121.424193333333","25.0211716666667","6500500","新莊區"
"242011","132-UY","2017/06/22 19:59:16","新北市新莊區中港路531巷56號","121.450065","25.05166","6500500","新莊區"
"242034","133-UY","2017/06/22 19:59:05","新北市新莊區建中街72-1號","121.447486666667","25.036915","6500500","新莊區"
"242019","135-UY","2017/06/22 19:59:17","新北市新莊區民生街15巷1弄1號","121.455775","25.042195","6500500","新莊區"
"242044","172-VK","2017/06/22 19:58:59","新北市新莊區新北大道七段776巷10號","121.412123333333","25.0252616666667","6500500","新莊區"
"242007","173-VK","2017/06/22 19:59:20","新北市新莊區思源路587號","121.459803333333","25.0594783333333","6500500","新莊區"
"242013","175-VK","2017/06/22 19:59:06","新北市新莊區中華路二段83-1號","121.452563333333","25.0488033333333","6500500","新莊區"
"242056","176-VK","2017/06/22 19:59:13","新北市新莊區中正路347巷15號","121.447333333333","25.0344016666667","6500500","新莊區"
"242017","348-TH","2017/06/22 19:59:12","新北市新莊區中華路二段3巷16號","121.453313333333","25.0461516666667","6500500","新莊區"
"242015","350-TH","2017/06/22 19:59:01","新北市新莊區復興路一段47巷4號","121.446978333333","25.0423516666667","6500500","新莊區"
"242009","351-TH","2017/06/22 19:59:11","新北市新莊區昌盛街27號","121.453788333333","25.05008","6500500","新莊區"
"238015","755-BX","2017/06/22 19:59:17","新北市樹林區中山路三段36號","121.395025","24.9726566666667","6500700","樹林區"
"238023","601-UM","2017/06/22 19:59:12","新北市樹林區中正路216-3號","121.419465","25.0061483333333","6500700","樹林區"
"238024","5061-A6","2017/06/22 19:58:33","新北市樹林區中山路三段210-2號","121.380688333333","24.96661","6500700","樹林區"
"238021","311-TH","2017/06/22 19:55:57","新北市樹林區佳園路三段147號","121.385843333333","24.949385","6500700","樹林區"
"238025","303-VK","2017/06/22 19:59:14","新北市樹林區中山路三段361號","121.389481666667","24.970205","6500700","樹林區"
"238017","283-BY","2017/06/22 19:59:02","新北市樹林區保安街二段37-1號","121.416093333333","25.000125","6500700","樹林區"
"238014","282-BY","2017/06/22 19:59:09","新北市樹林區千歲街46巷11號","121.426693333333","24.9966433333333","6500700","樹林區"
"238020","268-VK","2017/06/22 19:59:15","新北市板橋區大觀路三段50巷89號","121.431333333333","24.996375","6500700","樹林區"
"239006","891-R6","2017/06/22 19:59:01","新北市鶯歌區文化路267號","121.353245","24.9530083333333","6500800","鶯歌區"
"239001","417-VK","2017/06/22 19:59:12","新北市鶯歌區建國路367巷1號","121.33917","24.9495783333333","6500800","鶯歌區"
"221008","489-VK","2017/06/22 19:59:01","台北市內湖區康樂街72巷2號","121.6186","25.069375","6501100","汐止區"
"221036","130-UY","2017/06/22 19:59:09","新北市汐止區忠孝東路258巷9號","121.663698333333","25.0673633333333","6501100","汐止區"
"221015","131-UY","2017/06/22 19:59:10","新北市汐止區橋東街5巷2-1號","121.666718333333","25.0758366666667","6501100","汐止區"
"221010","269-BY","2017/06/22 19:59:16","新北市汐止區連峰街270號","121.644231666667","25.081465","6501100","汐止區"
"221010","276-VK","2017/06/22 14:27:36","新北市汐止區汐萬路一段256巷3號","121.653441666667","25.0746116666667","6501100","汐止區"
"221031","277-VK","2017/06/22 01:58:15","新北市汐止區汐萬路一段256巷3號","121.652443333333","25.0743566666667","6501100","汐止區"
"221012","278-VK","2017/06/22 19:58:04","新北市汐止區大同路三段355號","121.675336666667","25.0731683333333","6501100","汐止區"
"221023","279-VK","2017/06/22 19:59:00","新北市汐止區明峰街196號","121.627991666667","25.0694283333333","6501100","汐止區"
"221032","280-BY","2017/06/22 19:59:11","新北市汐止區橫科路18巷32弄8號","121.617506666667","25.04986","6501100","汐止區"
"221027","281-BY","2017/06/22 19:59:09","新北市汐止區中正路69號","121.66166","25.0697016666667","6501100","汐止區"
"221038","297-VK","2017/06/22 19:59:10","新北市汐止區忠孝東路424號","121.66595","25.0716716666667","6501100","汐止區"
"221029","298-VK","2017/06/22 19:59:04","新北市汐止區樟樹一路137巷26號","121.641041666667","25.065965","6501100","汐止區"
"221021","299-VK","2017/06/22 19:42:54","新北市汐止區汐碇路14號","121.653158333333","25.058655","6501100","汐止區"
"221035","622-UM","2017/06/22 19:59:12","新北市汐止區長江街39巷20號","121.655345","25.0720533333333","6501100","汐止區"
"221025","623-UM","2017/06/22 19:58:59","新北市汐止區秀峰路109巷12號","121.6605","25.063435","6501100","汐止區"
"221038","646-BX","2017/06/22 15:23:21","新北市汐止區康寧街901號","121.651748333333","25.07496","6501100","汐止區"
"221033","647-BX","2017/06/22 19:59:15","新北市汐止區東勢街190巷5號","121.633933333333","25.0415533333333","6501100","汐止區"
"221018","753-BX","2017/06/22 19:59:18","新北市汐止區茄苳路204號","121.670485","25.0689983333333","6501100","汐止區"
"220079","145-BY","2017/06/22 19:59:13","新北市板橋區中正路135巷12弄4-1號","121.455681666667","25.0157616666667","6500100","板橋區"
"220089","146-RM","2017/06/22 19:59:12","新北市板橋區新海路385巷32號","121.457461666667","25.025485","6500100","板橋區"
"220080","200-UY","2017/06/22 19:59:07","新北市板橋區大觀路二段37巷39號","121.448698333333","25.0027083333333","6500100","板橋區"
"220082","610-BX","2017/06/22 19:59:18","新北市板橋區溪北路45號","121.427708333333","24.9901483333333","6500100","板橋區"
"220101","245-BX","2017/06/22 19:59:14","新北市板橋區縣民大道三段41號","121.474138333333","25.0208716666667","6500100","板橋區"
"220094","267-BY","2017/06/22 19:59:18","新北市板橋區陽明街249號","121.462778333333","25.0250683333333","6500100","板橋區"
"220072","277-BY","2017/06/22 19:59:15","新北市板橋區金門街127巷17號","121.433745","24.9911283333333","6500100","板橋區"
"220064","280-UM","2017/06/22 19:59:15","新北市板橋區區運路2號","121.465066666667","25.00905","6500100","板橋區"
"220071","283-VK","2017/06/22 19:59:18","新北市板橋區五權街32巷28號","121.463895","24.99272","6500100","板橋區"
"220053","285-VK","2017/06/22 19:59:15","新北市板橋區永豐街40號","121.47431","25.0176933333333","6500100","板橋區"
"220083","286-VK","2017/06/22 19:59:12","新北市板橋區僑中二街126巷2號","121.445385","25.00525","6500100","板橋區"
"220081","287-VK","2017/06/22 19:59:10","新北市板橋區大觀路一段29巷77號","121.45049","25.0065816666667","6500100","板橋區"
"220090","288-VK","2017/06/22 19:59:08","新北市板橋區綠堤街29號","121.455771666667","25.0264483333333","6500100","板橋區"
"220061","295-UM","2017/06/22 19:59:05","新北市板橋區觀光街1巷8號","121.471853333333","25.015415","6500100","板橋區"
"220084","296-UM","2017/06/22 19:59:09","新北市板橋區溪崑二街124巷12號","121.425595","24.9882966666667","6500100","板橋區"
"220075","297-UM","2017/06/22 19:59:16","新北市板橋區金華街10巷48弄45號","121.45857","25.0201133333333","6500100","板橋區"
"220062","305-R5","2017/06/22 19:59:13","新北市板橋區萬安街20巷10弄16號","121.485013333333","25.0236433333333","6500100","板橋區"
"220092","307-R5","2017/06/22 19:59:15","新北市板橋區幸福路60巷58號","121.459471666667","25.0221216666667","6500100","板橋區"
"220098","317-R6","2017/06/22 19:59:01","新北市板橋區龍泉街55巷42號","121.458021666667","25.0245133333333","6500100","板橋區"
"220088","491-VK","2017/06/22 19:58:14","新北市板橋區大同街71號","121.479541666667","25.0279216666667","6500100","板橋區"
"220035","560-BX","2017/06/22 19:59:03","新北市板橋區新生街29巷15弄2號","121.45653","25.022115","6500100","板橋區"
"220103","561-BX","2017/06/22 19:58:57","新北市板橋區自由路39號","121.465578333333","25.0232","6500100","板橋區"
"220091","637-BX","2017/06/22 19:59:14","新北市板橋區文聖街101巷1號","121.477998333333","25.02967","6500100","板橋區"
"220057","686-BX","2017/06/22 19:59:18","新北市板橋區廣和街75巷2號","121.462646666667","24.9924516666667","6500100","板橋區"
"220093","689-BX","2017/06/22 19:59:17","新北市板橋區長江路三段96號","121.474441666667","25.0343366666667","6500100","板橋區"
"220054","741-BX","2017/06/22 19:59:11","新北市板橋區實踐路93巷62號","121.466418333333","25.00487","6500100","板橋區"
"220055","827-TW","2017/06/22 19:59:16","新北市板橋區國慶路149巷36號","121.4611","24.99804","6500100","板橋區"
"220067","829-TW","2017/06/22 19:59:11","新北市板橋區漢生東路163號","121.469318333333","25.0125716666667","6500100","板橋區"
"220102","830-TW","2017/06/22 19:59:10","新北市板橋區懷德街66巷36號","121.476303333333","25.031615","6500100","板橋區"
"220096","831-TW","2017/06/22 19:59:15","新北市板橋區莒光路15巷4號","121.470078333333","25.0251366666667","6500100","板橋區"
"220074","895-R6","2017/06/22 19:59:14","新北市板橋區府中路29-1號","121.458728333333","25.0082783333333","6500100","板橋區"
"220073","985-R7","2017/06/22 19:59:03","新北市板橋區大仁街113號","121.452416666667","25.0156266666667","6500100","板橋區"
"220070","AAC-253","2017/06/22 19:59:17","新北市板橋區民族路233號","121.469816666667","25.0070883333333","6500100","板橋區"
