"lineid","car","time","location","longitude","latitude","cityid","cityname"
"234081","298-R6","2017/06/22 20:39:03","新北市永和區永亨路70號","121.520883333333","25.0056883333333","6500400","永和區"
"234064","337-UY","2017/06/22 20:39:15","新北市永和區永利路99號","121.521858333333","25.00307","6500400","永和區"
"234054","553-UM","2017/06/22 20:39:08","新北市永和區環河東路一段80號","121.51962","25.01649","6500400","永和區"
"234042","840-RS","2017/06/22 20:39:05","新北市永和區福和路67號","121.522785","25.0077733333333","6500400","永和區"
"234061","AAD-866","2017/06/22 20:39:17","新北市永和區秀朗路一段108巷8號","121.516543333333","25.00371","6500400","永和區"
"234064","847-RS","2017/06/22 14:36:33","新北市永和區福和路1號","121.52663","25.0098583333333","6500400","永和區"
"234042","862-TW","2017/06/22 19:02:18","新北市永和區福和路1號","121.526388333333","25.00971","6500400","永和區"
"249001","173-UM","2017/06/22 20:39:08","新北市八里區中山路三段382號","121.368633333333","25.136215","6502300","八里區"
"249004","303-UY","2017/06/22 20:39:10","新北市八里區中山路一段338號","121.41253","25.158925","6502300","八里區"
"234023","9380-KE","2017/06/22 20:39:12","新北市永和區竹林路23號","121.517313333333","25.0147116666667","6500400","永和區"
"234074","AAC-211","2017/06/22 20:39:13","新北市永和區竹林路121號","121.520003333333","25.0114116666667","6500400","永和區"
"234067","AAC-212","2017/06/22 20:39:13","新北市永和區保平路292巷46弄2號","121.507475","25.0053283333333","6500400","永和區"
"234003","AAC-295","2017/06/22 20:37:49","新北市永和區中正路624巷2號","121.517153333333","25.0078883333333","6500400","永和區"
"243009","297-R6","2017/06/22 20:39:01","新北市泰山區泰林路二段538號","121.423458333333","25.0639983333333","6501600","泰山區"
"243010","548-UM","2017/06/22 20:39:09","新北市泰山區泰林路二段603號","121.421388333333","25.0636983333333","6501600","泰山區"
"243011","549-UM","2017/06/22 20:39:03","新北市泰山區公園路80號","121.423668333333","25.055975","6501600","泰山區"
"243016","680-BX","2017/06/22 20:39:04","新北市泰山區黎明路1號","121.421235","25.06339","6501600","泰山區"
"222003","436-BY","2017/06/22 20:39:08","新北市深坑區深坑街164號","121.612688333333","25.0011833333333","6501800","深坑區"
"222002","659-BX","2017/06/22 20:39:07","新北市深坑區萬福路45號","121.599485","25.0068366666667","6501800","深坑區"
"222001","696-SL","2017/06/22 20:39:03","新北市深坑區北深路三段256號","121.599793333333","25.0044","6501800","深坑區"
"231041","002-UM","2017/06/22 20:39:02","新北市新店區中正路558號","121.533753333333","24.9873916666667","6500600","新店區"
"231056","0291-UT","2017/06/22 20:39:12","新北市新店區民生路75巷225號","121.531995","24.9818866666667","6500600","新店區"
"231059","046-UY","2017/06/22 20:39:15","新北市新店區僑愛七路37號","121.50115","24.94457","6500600","新店區"
"231061","047-UY","2017/06/22 20:39:10","新北市新店區新和街37號","121.519293333333","24.9849866666667","6500600","新店區"
"231060","106-UY","2017/06/22 20:39:08","新北市新店區安康路三段628號","121.478815","24.94598","6500600","新店區"
"231051","107-UY","2017/06/22 20:38:57","新北市新店區中央六街13號","121.529901666667","24.97468","6500600","新店區"
"231047","108-UY","2017/06/22 20:39:01","新北市新店區寶慶街58巷2號","121.542076666667","24.9868316666667","6500600","新店區"
"231052","187-VK","2017/06/22 20:39:01","新北市新店區廣興路7-9號","121.54573","24.9118716666667","6500600","新店區"
"231007","189-VK","2017/06/22 11:55:11","新北市新店區安華路28-1號","121.519691666667","24.9610933333333","6500600","新店區"
"231057","256-BX","2017/06/22 20:39:04","新北市新店區花園六路二段1-8號","121.55408","24.9331433333333","6500600","新店區"
"231063","268-BY","2017/06/22 20:39:13","新北市新店區玫瑰路4-1號","121.493661666667","24.951355","6500600","新店區"
"231050","AAD-862","2017/06/22 20:38:59","新北市新店區建安街15巷1號","121.539715","24.97544","6500600","新店區"
"231058","3712-VJ","2017/06/22 20:39:05","新北市新店區平等街48巷12號","121.535608333333","24.973345","6500600","新店區"
"231065","512-UM","2017/06/22 20:39:01","新北市新店區安祥路102巷144號","121.486775","24.9646033333333","6500600","新店區"
"231054","513-UM","2017/06/22 20:39:13","新北市新店區北新路一段64巷37號","121.542128333333","24.9656716666667","6500600","新店區"
"231064","515-UM","2017/06/22 20:39:14","新北市新店區安和路三段147號","121.516806666667","24.9855266666667","6500600","新店區"
"231042","616-UM","2017/06/22 20:39:05","新北市新店區寶高路23號","121.553021666667","24.97745","6500600","新店區"
"231040","619-UM","2017/06/22 20:39:13","新北市新店區中正路247巷4弄10號","121.538428333333","24.973365","6500600","新店區"
"231068","718-UY","2017/06/22 20:39:09","新北市新店區寶元路一段85巷10號","121.543055","24.9859866666667","6500600","新店區"
"231049","719-UM","2017/06/22 20:39:11","新北市新店區永業路81巷1弄1-1號","121.529545","24.9494766666667","6500600","新店區"
"231062","720-UM","2017/06/22 20:39:02","新北市新店區安泰路12巷2號","121.485526666667","24.9502833333333","6500600","新店區"
"231044","897-TW","2017/06/22 20:39:04","新北市新店區建國路293巷2號","121.536883333333","24.9863116666667","6500600","新店區"
"231045","898-TW","2017/06/22 20:39:12","新北市新店區長春路211號","121.559215","24.96203","6500600","新店區"
"231043","899-TW","2017/06/22 20:39:20","新北市新店區建國路40號","121.540518333333","24.9747166666667","6500600","新店區"
"231066","AKT-0513","2017/06/22 20:39:09","新北市新店區安興路105-1號","121.514591666667","24.977705","6500600","新店區"
"241011","013-R5","2017/06/22 20:39:04","新北市三重區龍濱路285號","121.501095","25.073325","6500200","三重區"
"241028","022-UY","2017/06/22 20:39:18","新北市三重區光興街91號","121.49738","25.0599866666667","6500200","三重區"
"241008","059-VK","2017/06/22 20:39:09","新北市三重區下竹圍街42號","121.481076666667","25.0748866666667","6500200","三重區"
"241009","060-VK","2017/06/22 20:39:04","新北市三重區永安北路一段121號","121.480451666667","25.0798433333333","6500200","三重區"
"241031","061-VK","2017/06/22 20:39:09","新北市三重區重陽路一段113巷1弄49號","121.488128333333","25.0585933333333","6500200","三重區"
"241017","063-VK","2017/06/22 20:39:11","新北市三重區大同北路269號","121.490833333333","25.0673883333333","6500200","三重區"
"241024","065-VK","2017/06/22 20:39:09","新北市三重區忠孝路三段51號","121.480831666667","25.0667183333333","6500200","三重區"
"241026","066-VK","2017/06/22 20:39:11","新北市三重區文化南路3號","121.499995","25.06241","6500200","三重區"
"241002","090-VK","2017/06/22 20:38:59","新北市三重區仁義街167巷32弄1號","121.498243333333","25.0822216666667","6500200","三重區"
"241003","091-VK","2017/06/22 20:39:14","新北市三重區五華街141巷58號","121.493555","25.0867416666667","6500200","三重區"
"241015","156-TC","2017/06/22 20:39:08","新北市三重區文化北路127號","121.497785","25.0688016666667","6500200","三重區"
"241005","262-UM","2017/06/22 20:39:14","新北市三重區碧華街422號","121.492421666667","25.0853416666667","6500200","三重區"
"241029","265-UM","2017/06/22 20:39:10","新北市三重區集美街126巷27號","121.490213333333","25.0538066666667","6500200","三重區"
"241016","266-UM","2017/06/22 20:39:05","新北市三重區長壽西街143-3號","121.494348333333","25.066675","6500200","三重區"
"241018","268-UM","2017/06/22 20:39:07","新北市三重區重陽路四段65號","121.492161666667","25.070555","6500200","三重區"
"241032","269-UM","2017/06/22 20:39:03","新北市三重區重陽路一段120巷35號","121.485106666667","25.0601716666667","6500200","三重區"
"241013","270-UM","2017/06/22 20:39:09","新北市三重區溪尾街5巷20號","121.492408333333","25.0745516666667","6500200","三重區"
"241025","271-UM","2017/06/22 20:39:10","新北市三重區頂崁街141號","121.477903333333","25.0650083333333","6500200","三重區"
"241007","398-BY","2017/06/22 20:39:02","新北市三重區三和路四段95-7號","121.487751666667","25.0760933333333","6500200","三重區"
"241020","413-TH","2017/06/22 20:39:17","新北市三重區忠孝路一段83號","121.490221666667","25.0721783333333","6500200","三重區"
"241035","462-BY","2017/06/22 20:39:18","新北市三重區正義北路291號","121.494805","25.070615","6500200","三重區"
"241004","475-VK","2017/06/22 20:39:18","新北市三重區仁愛街396號","121.49081","25.0810516666667","6500200","三重區"
"241019","478-VK","2017/06/22 20:39:08","新北市三重區忠孝路一段8-1號","121.492058333333","25.0715216666667","6500200","三重區"
"241030","480-VK","2017/06/22 20:39:05","新北市三重區成功路73巷9號","121.48943","25.0518866666667","6500200","三重區"
"241014","543-UM","2017/06/22 20:39:01","新北市三重區三和路二段103號","121.49949","25.0685316666667","6500200","三重區"
"241023","545-UM","2017/06/22 20:39:12","新北市三重區自由街35巷2號","121.47895","25.0668866666667","6500200","三重區"
"241001","547-UM","2017/06/22 20:38:59","新北市三重區自強路三段110巷3號","121.486613333333","25.0748866666667","6500200","三重區"
"241006","AAD-863","2017/06/22 20:39:12","新北市三重區車路頭街135-1號","121.484265","25.0761433333333","6500200","三重區"
"241012","887-TS","2017/06/22 20:39:18","新北市三重區河邊北街174巷1號","121.502935","25.0733833333333","6500200","三重區"
"241033","AAC-255","2017/06/22 20:39:03","新北市三重區光復路二段1號","121.472345","25.0533966666667","6500200","三重區"
"235039","097-UM","2017/06/22 20:39:11","新北市中和區大勇街27巷16號","121.51672","24.9939383333333","6500300","中和區"
"235029","098-UM","2017/06/22 17:07:34","新北市中和區興南路三段47巷32-6號","121.497025","24.977845","6500300","中和區"
"235072","301-VK","2017/06/22 20:39:08","新北市中和區民樂路81號","121.484798333333","25.0014783333333","6500300","中和區"
"235069","4980-A6","2017/06/22 20:39:09","新北市中和區連城路308號","121.483685","24.9964066666667","6500300","中和區"
"235037","AAC-213","2017/06/22 20:39:16","新北市中和區自立路141巷17號","121.523231666667","24.9937483333333","6500300","中和區"
"220069","AAD-861","2017/06/22 20:39:09","新北市板橋區大觀路三段54號","121.433261666667","24.995565","6500100","板橋區"
"247020","893-R6","2017/06/22 20:39:18","新北市蘆洲區仁愛街47號","121.471986666667","25.0931683333333","6501400","蘆洲區"
"247010","546-UM","2017/06/22 20:38:57","新北市蘆洲區集賢路400號","121.480278333333","25.0821783333333","6501400","蘆洲區"
"247006","341-TH","2017/06/22 20:39:12","新北市蘆洲區和平路146號","121.466825","25.0808666666667","6501400","蘆洲區"
"247008","339-TH","2017/06/22 20:39:07","新北市蘆洲區重陽一街23號","121.48085","25.0818333333333","6501400","蘆洲區"
"247024","337-TH","2017/06/22 20:39:04","新北市蘆洲區長樂路112號","121.461958333333","25.0894866666667","6501400","蘆洲區"
"247002","336-TH","2017/06/22 20:39:08","新北市蘆洲區長安街375巷36-1號","121.455871666667","25.0880783333333","6501400","蘆洲區"
"247014","057-VK","2017/06/22 20:39:02","新北市蘆洲區成功路74號","121.473206666667","25.0811716666667","6501400","蘆洲區"
"247004","056-VK","2017/06/22 20:38:59","新北市蘆洲區長安街295號","121.458101666667","25.0847466666667","6501400","蘆洲區"
"247012","007-UY","2017/06/22 20:39:09","新北市蘆洲區復興路340巷2號","121.482268333333","25.0902533333333","6501400","蘆洲區"
"247022","002-UY","2017/06/22 20:39:11","新北市蘆洲區中正路243巷18弄4號","121.467033333333","25.086525","6501400","蘆洲區"
"247016","001-UY","2017/06/22 20:39:16","新北市蘆洲區中山二路286號","121.468973333333","25.07781","6501400","蘆洲區"
"224011","420-VK","2017/06/22 20:20:47","新北市瑞芳區明燈路二段66號","121.80935","25.10758","6501200","瑞芳區"
"251009","008-UM","2017/06/22 20:39:17","新北市淡水區下圭柔山90-8號","121.431401666667","25.211195","6501000","淡水區"
"251001","011-UM","2017/06/22 20:38:57","新北市淡水區淡金路182號","121.459306666667","25.1660433333333","6501000","淡水區"
"251014","182-VK","2017/06/22 20:39:19","新北市淡水區桂竹圍10-1號","121.471","25.2318083333333","6501000","淡水區"
"251010","413-VK","2017/06/22 20:39:09","新北市淡水區沙崙路181巷15號","121.42389","25.1844016666667","6501000","淡水區"
"251012","441-VK","2017/06/22 20:39:20","新北市淡水區興仁路108號","121.45163","25.2181483333333","6501000","淡水區"
"251016","442-VK","2017/06/22 20:39:08","新北市淡水區後洲子16-1號","121.449528333333","25.2240566666667","6501000","淡水區"
"251005","443-VK","2017/06/22 20:39:06","新北市淡水區下圭柔山91-3號","121.430833333333","25.2098666666667","6501000","淡水區"
"251011","650-BX","2017/06/22 20:38:59","新北市淡水區新市一路一段361號","121.436276666667","25.186185","6501000","淡水區"
"251002","672-BX","2017/06/22 20:39:12","新北市淡水區中正路36號","121.443783333333","25.1692033333333","6501000","淡水區"
"251003","766-UM","2017/06/22 20:39:00","新北市淡水區新民街152巷6弄20號","121.438696666667","25.1785","6501000","淡水區"
"252001","702-TV","2017/06/22 20:39:05","新北市三芝區中山路一段155號","121.502413333333","25.2558983333333","6502100","三芝區"
"237012","275-BY","2017/06/22 20:39:03","新北市樹林區中山路三段210-2號","121.380685","24.9666733333333","6500900","三峽區"
"242021","AAC-296","2017/06/22 20:39:16","新北市新莊區公園路126號","121.45176","25.0403066666667","6500500","新莊區"
"242029","986-R7","2017/06/22 20:38:59","新北市新莊區昌平街19號","121.454378333333","25.05139","6500500","新莊區"
"242048","751-BX","2017/06/22 20:39:04","新北市新莊區中正路596號","121.426688333333","25.0301433333333","6500500","新莊區"
"242025","615-BX","2017/06/22 20:39:07","新北市新莊區五工一路72巷17號","121.461771666667","25.06616","6500500","新莊區"
"242023","613-BX","2017/06/22 20:39:16","新北市新莊區化成路750-2號","121.465508333333","25.0578716666667","6500500","新莊區"
"242027","612-BX","2017/06/22 20:39:20","新北市新莊區思源路145號","121.459898333333","25.0441333333333","6500500","新莊區"
"242036","566-BX","2017/06/22 20:39:15","新北市新莊區建安街16號","121.428716666667","25.0265083333333","6500500","新莊區"
"242042","497-BY","2017/06/22 20:39:14","新北市新莊區天祥街15巷11號","121.416663333333","25.0275133333333","6500500","新莊區"
"242004","442-UM","2017/06/22 20:39:11","新北市新莊區化成路371巷5號","121.464445","25.0570816666667","6500500","新莊區"
"242046","441-UM","2017/06/22 20:39:13","新北市新莊區富國路22巷19號","121.418406666667","25.0257733333333","6500500","新莊區"
"242051","440-UM","2017/06/22 20:38:59","新北市新莊區民安西路97-1號","121.427006666667","25.0189483333333","6500500","新莊區"
"242031","415-TV","2017/06/22 20:39:07","新北市新莊區三泰路17號","121.438001666667","25.0351833333333","6500500","新莊區"
"242002","413-TV","2017/06/22 20:39:17","新北市新莊區中正路育農巷1號","121.456903333333","25.0380533333333","6500500","新莊區"
"242039","400-BY","2017/06/22 20:39:15","新北市新莊區瓊林路204-13號","121.437403333333","25.0214233333333","6500500","新莊區"
"242061","362-BY","2017/06/22 20:39:01","新北市新莊區新樹路258巷1-1號","121.432193333333","25.0155216666667","6500500","新莊區"
"242058","353-BY","2017/06/22 20:39:07","新北市新莊區四維路117號","121.423081666667","25.023155","6500500","新莊區"
"242011","132-UY","2017/06/22 20:39:16","新北市新莊區中信街99巷8號","121.44723","25.0535433333333","6500500","新莊區"
"242034","133-UY","2017/06/22 20:39:05","新北市新莊區中正路330號","121.445923333333","25.0347716666667","6500500","新莊區"
"242019","135-UY","2017/06/22 20:39:17","新北市新莊區銘德街104號","121.455671666667","25.0434416666667","6500500","新莊區"
"242044","172-VK","2017/06/22 20:39:19","新北市新莊區中正路新生巷85弄1號","121.41714","25.0217266666667","6500500","新莊區"
"242007","173-VK","2017/06/22 20:39:00","新北市新莊區思源路287巷15號","121.458963333333","25.0482166666667","6500500","新莊區"
"242013","175-VK","2017/06/22 20:39:05","新北市新莊區中平路292巷1弄3號","121.445421666667","25.05162","6500500","新莊區"
"242056","176-VK","2017/06/22 20:39:13","新北市新莊區瓊泰路94巷48號","121.444893333333","25.0294216666667","6500500","新莊區"
"242017","348-TH","2017/06/22 20:39:12","新北市新莊區中港三街102號","121.448556666667","25.0461733333333","6500500","新莊區"
"242053","349-TH","2017/06/22 20:39:05","新北市新莊區西盛街324巷10號","121.427608333333","25.0147633333333","6500500","新莊區"
"242015","350-TH","2017/06/22 20:39:01","新北市新莊區中和街54號","121.448063333333","25.0446033333333","6500500","新莊區"
"242009","351-TH","2017/06/22 20:39:03","新北市新莊區幸福路64巷4弄5號","121.457406666667","25.05002","6500500","新莊區"
"238023","601-UM","2017/06/22 20:39:12","新北市樹林區中山路三段204號","121.387283333333","24.9682766666667","6500700","樹林區"
"221008","489-VK","2017/06/22 20:39:01","新北市汐止區康寧街747號","121.63839","25.0730433333333","6501100","汐止區"
"221036","130-UY","2017/06/22 20:39:09","新北市汐止區新昌路17號","121.661818333333","25.0675066666667","6501100","汐止區"
"221015","131-UY","2017/06/22 20:39:16","新北市汐止區建成路60號","121.663391666667","25.072955","6501100","汐止區"
"221010","276-VK","2017/06/22 14:27:36","新北市汐止區汐萬路一段256巷3號","121.653441666667","25.0746116666667","6501100","汐止區"
"221031","277-VK","2017/06/22 01:58:15","新北市汐止區汐萬路一段256巷3號","121.652443333333","25.0743566666667","6501100","汐止區"
"221012","278-VK","2017/06/22 20:39:04","新北市汐止區大同路三段241號","121.672638333333","25.0767233333333","6501100","汐止區"
"221023","279-VK","2017/06/22 20:39:20","新北市汐止區民族二街30巷1號","121.635048333333","25.0718","6501100","汐止區"
"221032","280-BY","2017/06/22 20:39:10","新北市汐止區橫科路322巷24弄6-1號","121.620878333333","25.0498716666667","6501100","汐止區"
"221027","281-BY","2017/06/22 20:39:09","新北市汐止區大同路二段431號","121.658935","25.0672616666667","6501100","汐止區"
"221038","297-VK","2017/06/22 20:39:10","新北市汐止區忠孝東路9號","121.6579","25.065865","6501100","汐止區"
"221029","298-VK","2017/06/22 20:39:04","新北市汐止區大同路一段511號","121.645285","25.0622883333333","6501100","汐止區"
"221021","299-VK","2017/06/22 19:42:54","新北市汐止區汐碇路14號","121.653158333333","25.058655","6501100","汐止區"
"221035","622-UM","2017/06/22 20:39:12","新北市汐止區長江街101-5號","121.658676666667","25.0731466666667","6501100","汐止區"
"221025","623-UM","2017/06/22 20:38:59","新北市汐止區水源路二段189號","121.657788333333","25.05331","6501100","汐止區"
"221038","646-BX","2017/06/22 15:23:21","新北市汐止區康寧街901號","121.651748333333","25.07496","6501100","汐止區"
"221033","647-BX","2017/06/22 20:39:15","新北市汐止區合順街18巷8弄5號","121.62033","25.0419216666667","6501100","汐止區"
"221002","707-TV","2017/06/22 20:39:12","新北市汐止區福德二路136號","121.630871666667","25.065215","6501100","汐止區"
"221018","753-BX","2017/06/22 20:39:01","新北市汐止區茄苳路144號","121.669153333333","25.0698216666667","6501100","汐止區"
"220101","245-BX","2017/06/22 20:37:34","新北市五股區中直路17-4號","121.422466666667","25.1114983333333","6500100","板橋區"
"220083","286-VK","2017/06/22 20:39:12","新北市板橋區僑中二街104巷10號","121.445548333333","25.0080816666667","6500100","板橋區"
"220081","287-VK","2017/06/22 20:39:10","新北市板橋區大觀路二段32號","121.444785","25.0018333333333","6500100","板橋區"
"220103","561-BX","2017/06/22 20:39:17","新北市板橋區漢生東路83巷27號","121.467438333333","25.0168066666667","6500100","板橋區"
"220070","AAC-253","2017/06/22 20:39:17","新北市板橋區大觀路三段59巷17弄7號","121.434798333333","24.9953616666667","6500100","板橋區"
