"lineid","car","time","location","longitude","latitude","cityid","cityname"
"231007","189-VK","2017/12/26 10:18:12","新北市新店區新潭路三段211號","121.504448333333","24.9052566666667","6500600","新店區"
"231009","192-VK","2017/12/26 10:18:00","新北市新店區小坑一路22號","121.532301666667","24.9137516666667","6500600","新店區"
"227006","282-VK","2017/12/26 10:18:06","新北市雙溪區長源里柑腳19號","121.804551666667","25.0141483333333","6502500","雙溪區"
"227012","030-BX","2017/12/26 10:16:13","新北市雙溪區泰平里料角坑43號","121.793085","24.956485","6502500","雙溪區"
"252004","249-BX","2017/12/26 10:18:09","新北市三芝區古庄里山豬堀1-1號","121.500895","25.2504666666667","6502100","三芝區"
"252007","AAC-283","2017/12/26 10:17:54","新北市三芝區古庄里茂興店74號","121.493058333333","25.2667633333333","6502100","三芝區"
