"lineid","car","time","location","longitude","latitude","cityid","cityname"
"234012","149-BY","2017/12/26 14:19:26","新北市永和區保安路292號","121.504818333333","25.0121066666667","6500400","永和區"
"234078","298-R6","2017/12/26 14:19:30","新北市永和區永貞路19號","121.520951666667","25.0071816666667","6500400","永和區"
"234036","336-UY","2017/12/26 14:19:28","新北市永和區成功路一段91號","121.527146666667","25.0027383333333","6500400","永和區"
"234062","337-UY","2017/12/26 14:19:38","新北市永和區得和路211號","121.519178333333","25.00021","6500400","永和區"
"234084","338-UY","2017/12/26 14:19:41","新北市永和區永和路二段85號","121.514705","25.0114116666667","6500400","永和區"
"234052","553-UM","2017/12/26 14:19:43","新北市永和區光復街2巷16弄20-2號","121.517403333333","25.0163133333333","6500400","永和區"
"234015","745-BX","2017/12/26 14:19:29","新北市永和區仁愛路85號","121.513156666667","25.0131983333333","6500400","永和區"
"234028","746-BX","2017/12/26 14:19:36","新北市永和區民權路49巷21號","121.521101666667","24.9973916666667","6500400","永和區"
"234060","AAD-866","2017/12/26 14:19:22","新北市永和區安樂路194巷17弄7號","121.516008333333","25.0012633333333","6500400","永和區"
"234068","847-RS","2017/12/26 14:19:29","新北市永和區永寧街115巷9號","121.518471666667","25.00616","6500400","永和區"
"234040","862-TW","2017/12/26 14:19:34","新北市中和區安平路160號","121.512628333333","24.99855","6500400","永和區"
"234048","863-TW","2017/12/26 14:19:20","新北市永和區新生路21號","121.50932","25.01672","6500400","永和區"
"234025","9371-KE","2017/12/26 14:19:40","新北市永和區安樂路144巷31號","121.51521","24.9997","6500400","永和區"
"248017","225-UY","2017/12/26 14:19:18","新北市五股區壟路12-5號","121.415606666667","25.08751","6501500","五股區"
"234022","9380-KE","2017/12/26 14:19:34","新北市永和區竹林路23號","121.51733","25.0146666666667","6500400","永和區"
"234076","969-R7","2017/12/26 14:19:29","新北市永和區民族街81巷60號","121.520151666667","24.9965466666667","6500400","永和區"
"234072","AAC-211","2017/12/26 14:19:41","新北市永和區竹林路119巷30弄2號","121.522086666667","25.0116266666667","6500400","永和區"
"234066","AAC-212","2017/12/26 14:19:32","新北市永和區保平路268巷51弄22號","121.506755","25.0060783333333","6500400","永和區"
"234001","AAC-295","2017/12/26 14:19:21","新北市永和區中正路614-1號","121.517046666667","25.0075783333333","6500400","永和區"
"244002","248-BX","2017/12/26 14:19:36","新北市林口區竹林路266號","121.389671666667","25.080905","6501700","林口區"
"231002","001-UM","2017/12/26 14:19:34","新北市新店區中正路487號","121.53378","24.9820666666667","6500600","新店區"
"231037","0293-UT","2017/12/26 14:19:34","新北市新店區車子路10-1號","121.504611666667","24.9548316666667","6500600","新店區"
"231028","046-UY","2017/12/26 14:19:20","新北市新店區安和路一段47號","121.517323333333","24.9657966666667","6500600","新店區"
"231030","047-UY","2017/12/26 14:19:42","新北市新店區安民街14號","121.515375","24.964485","6500600","新店區"
"231029","106-UY","2017/12/26 14:19:33","新北市新店區安康路二段207號","121.509008333333","24.9589366666667","6500600","新店區"
"231018","107-UY","2017/12/26 14:19:28","新北市新店區中央四街23號","121.52902","24.9742183333333","6500600","新店區"
"231012","108-UY","2017/12/26 14:19:23","新北市新店區寶興路61巷1號","121.55078","24.972035","6500600","新店區"
"231020","187-VK","2017/12/26 14:19:27","新北市新店區桂山路35號","121.559298333333","24.9029466666667","6500600","新店區"
"231015","KEA-2219","2017/12/26 14:19:05","新北市新店區北宜路二段392巷9號","121.56656","24.9531183333333","6500600","新店區"
"231023","AAD-862","2017/12/26 14:19:34","新北市新店區光明街138巷13弄1號","121.540346666667","24.9611816666667","6500600","新店區"
"231027","3712-VJ","2017/12/26 14:19:26","新北市新店區北新路二段90號","121.542965","24.972975","6500600","新店區"
"231025","3713-VJ","2017/12/26 14:19:17","新北市新店區自立街90號","121.537075","24.9799933333333","6500600","新店區"
"231024","4716-K9","2017/12/26 14:19:36","新北市新店區新生街13巷42-1號","121.538906666667","24.9665216666667","6500600","新店區"
"231038","4715-K9","2017/12/26 14:19:41","新北市新店區溪洲路6巷88號","121.533226666667","24.9636366666667","6500600","新店區"
"231036","512-UM","2017/12/26 14:19:29","新北市新店區安祥路109巷98號","121.47796","24.9592733333333","6500600","新店區"
"231035","515-UM","2017/12/26 14:19:39","新北市新店區安和路二段77號","121.518378333333","24.96884","6500600","新店區"
"231006","617-UM","2017/12/26 14:19:30","新北市新店區北宜路二段446號","121.569906666667","24.9562533333333","6500600","新店區"
"231001","619-UM","2017/12/26 14:19:41","新北市新店區北新路一段40號","121.540921666667","24.96604","6500600","新店區"
"231003","641-BX","2017/12/26 14:19:32","新北市新店區中興路一段216號","121.54393","24.9658083333333","6500600","新店區"
"231034","645-TV","2017/12/26 14:19:25","新北市新店區黎明路3號","121.503505","24.9524316666667","6500600","新店區"
"231013","719-UM","2017/12/26 14:19:26","新北市新店區建國路249號","121.537535","24.9825333333333","6500600","新店區"
"231032","720-UM","2017/12/26 14:19:35","新北市新店區溪洲路200-3號","121.52917","24.96798","6500600","新店區"
"231005","897-TW","2017/12/26 14:19:22","新北市新店區中興路三段141號","121.544468333333","24.979835","6500600","新店區"
"231004","899-TW","2017/12/26 14:19:37","新北市新店區中正路217號","121.539646666667","24.9727883333333","6500600","新店區"
"235030","003-UY","2017/12/26 14:19:26","新北市中和區景新街8號","121.502641666667","24.9994933333333","6500300","中和區"
"235028","005-UY","2017/12/26 14:19:21","新北市中和區泰和街36號","121.499368333333","25.0001683333333","6500300","中和區"
"235027","006-UY","2017/12/26 14:19:30","新北市中和區連勝街161號","121.494246666667","24.996585","6500300","中和區"
"235010","031-BX","2017/12/26 14:19:28","新北市中和區忠孝街2巷14弄10號","121.510755","24.981425","6500300","中和區"
"235020","096-UM","2017/12/26 14:19:32","新北市中和區員山路551號","121.479561666667","25.00743","6500300","中和區"
"235003","097-UM","2017/12/26 14:19:24","新北市中和區秀峰街119巷8弄9號","121.518983333333","24.98993","6500300","中和區"
"235004","150-BY","2017/12/26 14:19:40","新北市中和區保健路94號","121.512196666667","24.99597","6500300","中和區"
"235022","151-BY","2017/12/26 14:19:26","新北市中和區員山路36巷16-2號","121.485226666667","24.9916216666667","6500300","中和區"
"235019","183-VK","2017/12/26 14:19:30","新北市中和區中山路三段181巷6號","121.47285","25.005825","6500300","中和區"
"235002","185-VK","2017/12/26 14:19:29","新北市中和區大仁街10巷51號","121.519921666667","24.9924483333333","6500300","中和區"
"235013","186-VK","2017/12/26 14:19:26","新北市中和區景新街230巷2號","121.50814","24.9941283333333","6500300","中和區"
"235031","255-BX","2017/12/26 14:19:25","新北市中和區新生街174號","121.48371","24.9999866666667","6500300","中和區"
"235008","293-VK","2017/12/26 14:19:39","新北市中和區復興路304號","121.501311666667","24.9903883333333","6500300","中和區"
"235036","301-VK","2017/12/26 14:19:36","新北市中和區永和路76號","121.497765","25.0051","6500300","中和區"
"235007","352-BY","2017/12/26 14:19:33","新北市中和區景平路290號","121.513048333333","24.99299","6500300","中和區"
"235032","377-QA","2017/12/26 14:19:34","新北市中和區景平路493巷8號","121.499355","24.99713","6500300","中和區"
"235025","378-QA","2017/12/26 14:19:34","新北市中和區民利街70號","121.478666666667","24.998365","6500300","中和區"
"235014","4979-A6","2017/12/26 14:19:38","新北市中和區圓通路141巷48弄15號","121.498155","24.993805","6500300","中和區"
"235033","4980-A6","2017/12/26 14:19:29","新北市中和區永和路1-5號","121.499468333333","25.0033366666667","6500300","中和區"
"235006","551-UM","2017/12/26 14:19:38","新北市中和區安樂路191巷20號","121.514315","24.99797","6500300","中和區"
"235034","558-UM","2017/12/26 14:19:40","新北市中和區中和路24號","121.499695","25.001725","6500300","中和區"
"235009","565-BX","2017/12/26 14:19:34","新北市中和區景新街423巷41號","121.51436","24.9897683333333","6500300","中和區"
"235018","640-BX","2017/12/26 14:19:27","新北市中和區民德路105-1號","121.469063333333","25.0007733333333","6500300","中和區"
"235024","647-TV","2017/12/26 14:19:31","新北市中和區民治街22號","121.47516","25.0041983333333","6500300","中和區"
"235011","732-UM","2017/12/26 14:19:34","新北市中和區景平路241巷17號","121.509198333333","24.9924483333333","6500300","中和區"
"235026","800-TS","2017/12/26 14:19:24","新北市中和區中山路二段408號","121.489865","25.0037816666667","6500300","中和區"
"235021","801-TS","2017/12/26 14:19:42","新北市中和區員山路263號","121.481283333333","24.999245","6500300","中和區"
"235005","802-TS","2017/12/26 14:19:33","新北市中和區安平路101號","121.511405","24.997265","6500300","中和區"
"235016","805-TS","2017/12/26 14:19:30","新北市中和區興南路二段130號","121.504163333333","24.9836416666667","6500300","中和區"
"235012","896-TW","2017/12/26 14:19:28","新北市中和區華新街109巷4號","121.509016666667","24.9821366666667","6500300","中和區"
"235017","900-TW","2017/12/26 14:19:33","新北市中和區華安街17巷37-2號","121.467763333333","24.9983516666667","6500300","中和區"
"235029","911-UM","2017/12/26 14:19:34","新北市中和區福美路269號","121.498143333333","25.0050216666667","6500300","中和區"
"235015","157-BY","2017/12/26 14:19:37","新北市中和區和平街24巷5號","121.509938333333","24.9905083333333","6500300","中和區"
"235001","AAC-213","2017/12/26 14:19:18","新北市中和區秀朗路三段10巷16弄5號","121.523351666667","24.995925","6500300","中和區"
"235023","AAC-215","2017/12/26 14:19:41","新北市中和區圓通路286巷1號","121.491435","24.9910866666667","6500300","中和區"
"220016","013-TV","2017/12/26 14:19:25","新北市板橋區林森街1巷1號","121.482098333333","25.0241616666667","6500100","板橋區"
"220013","072-UY","2017/12/26 14:19:37","新北市板橋區國泰街75巷2弄3號","121.467455","25.0061366666667","6500100","板橋區"
"220034","073-UY","2017/12/26 14:19:43","新北市板橋區中正路216巷35號","121.45696","25.018815","6500100","板橋區"
"220017","AAD-861","2017/12/26 14:19:20","新北市板橋區華興街21巷23號","121.458786666667","25.0037216666667","6500100","板橋區"
"220045","120-SR","2017/12/26 14:19:33","新北市板橋區大同街38號","121.478565","25.0274466666667","6500100","板橋區"
"247021","893-R6","2017/12/26 14:19:33","新北市蘆洲區仁愛街212巷13-1號","121.464531666667","25.093665","6501400","蘆洲區"
"247011","546-UM","2017/12/26 14:19:33","新北市蘆洲區民權路3巷2號","121.476318333333","25.08564","6501400","蘆洲區"
"247019","500-BY","2017/12/26 14:19:25","新北市蘆洲區仁愛街39號","121.472216666667","25.0929216666667","6501400","蘆洲區"
"247007","341-TH","2017/12/26 14:19:32","新北市蘆洲區中山一路129號","121.475651666667","25.0814316666667","6501400","蘆洲區"
"247009","339-TH","2017/12/26 14:19:30","新北市蘆洲區鷺江街38號","121.477426666667","25.083","6501400","蘆洲區"
"247001","337-TH","2017/12/26 14:19:24","新北市蘆洲區永樂街77號","121.456006666667","25.0887016666667","6501400","蘆洲區"
"247003","336-TH","2017/12/26 14:19:35","新北市蘆洲區長安街196號","121.458631666667","25.0840283333333","6501400","蘆洲區"
"247015","057-VK","2017/12/26 14:17:53","新北市蘆洲區中正路185巷31弄47號","121.467426666667","25.0831316666667","6501400","蘆洲區"
"247005","056-VK","2017/12/26 14:19:32","新北市蘆洲區長安街23巷10號","121.463648333333","25.078795","6501400","蘆洲區"
"247013","007-UY","2017/12/26 14:19:35","新北市蘆洲區中山一路216號","121.473061666667","25.0805566666667","6501400","蘆洲區"
"247023","002-UY","2017/12/26 14:19:31","新北市蘆洲區長榮路661號","121.46021","25.0914633333333","6501400","蘆洲區"
"247017","001-UY","2017/12/26 14:19:21","新北市蘆洲區民權路87-2號","121.473071666667","25.0887866666667","6501400","蘆洲區"
"228004","212-TW","2017/12/26 14:19:31","新北市貢寮區雙玉里田寮洋街39號","121.924861666667","25.0138383333333","6502600","貢寮區"
"228005","828-UM","2017/12/26 14:19:34","新北市貢寮區美豐里土地公嶺54號","121.894845","25.0652166666667","6502600","貢寮區"
"208004","AAC-292","2017/12/26 14:19:37","新北市金山區六股里下六股65號","121.614418333333","25.2236216666667","6502700","金山區"
"207002","749-BX","2017/12/26 14:19:35","新北市萬里區溪底里溪底路13號","121.614481666667","25.14918","6502800","萬里區"
"207001","662-BX","2017/12/26 14:19:34","新北市萬里區磺潭里清水18號","121.637851666667","25.1976933333333","6502800","萬里區"
"252005","AAC-283","2017/12/26 14:19:25","新北市三芝區埔坪里埔頭坑85號","121.507706666667","25.2545","6502100","三芝區"
"236065","105-UM","2017/12/26 14:19:31","新北市土城區明德路一段138號","121.463498333333","24.9788566666667","6501300","土城區"
"236041","107-UM","2017/12/26 14:19:36","新北市土城區裕生路21巷6弄20號","121.44857","24.9866916666667","6501300","土城區"
"236075","166-UM","2017/12/26 13:53:50","新北市土城區中央路三段171號","121.431738333333","24.96547","6501300","土城區"
"236029","253-BX","2017/12/26 14:19:34","新北市土城區順風路66號","121.44036","24.9775683333333","6501300","土城區"
"236025","269-VK","2017/12/26 14:19:32","新北市土城區承天路20號","121.439521666667","24.9633933333333","6501300","土城區"
"236013","270-VK","2017/12/26 14:19:36","新北市土城區青雲路39巷7號","121.46032","24.9875566666667","6501300","土城區"
"236034","271-VK","2017/12/26 14:19:28","新北市土城區青雲路451巷8弄11號","121.459578333333","24.9743483333333","6501300","土城區"
"236017","401-BY","2017/12/26 14:19:26","新北市土城區清水路50號","121.455433333333","24.9810683333333","6501300","土城區"
"236006","498-BY","2017/12/26 14:19:40","新北市土城區中華路一段69號","121.445198333333","24.9879933333333","6501300","土城區"
"236057","912-UM","2017/12/26 14:19:40","新北市土城區中央路四段286-1號","121.41433","24.9563766666667","6501300","土城區"
"236045","913-UM","2017/12/26 14:19:36","新北市土城區明德路一段288號","121.45672","24.977645","6501300","土城區"
"236061","915-UM","2017/12/26 14:19:33","新北市土城區延壽路44巷15號","121.47155","24.9930116666667","6501300","土城區"
"236054","AAC-216","2017/12/26 14:19:28","新北市土城區中華路二段102號","121.438035","24.97436","6501300","土城區"
"221012","276-VK","2017/12/26 13:22:07","新北市汐止區汐萬路一段256巷3號","121.653455","25.0746116666667","6501100","汐止區"
"220027","145-BY","2017/12/26 14:19:37","新北市板橋區民權路255號","121.457135","25.0157833333333","6500100","板橋區"
"220028","200-UY","2017/12/26 14:19:34","新北市板橋區大觀路二段7巷110號","121.450476666667","25.0027783333333","6500100","板橋區"
"220030","610-BX","2017/12/26 14:19:33","新北市板橋區金門街369巷58號","121.428028333333","24.9815533333333","6500100","板橋區"
"220050","245-BX","2017/12/26 14:19:28","新北市板橋區莊敬路19號","121.473935","25.028105","6500100","板橋區"
"220105","257-TC","2017/12/26 14:19:25","新北市板橋區宏國路106號","121.470438333333","25.0319183333333","6500100","板橋區"
"220004","276-BY","2017/12/26 14:19:40","新北市板橋區信義路91-2號","121.457358333333","24.9938233333333","6500100","板橋區"
"220020","277-BY","2017/12/26 14:19:29","新北市板橋區金門街337巷7弄23號","121.430663333333","24.9852766666667","6500100","板橋區"
"220019","283-VK","2017/12/26 14:19:30","新北市板橋區大豐街26號","121.461991666667","25.0013766666667","6500100","板橋區"
"220043","285-UM","2017/12/26 14:19:41","新北市板橋區吳鳳路23號","121.467035","25.031115","6500100","板橋區"
"220001","285-VK","2017/12/26 14:19:38","新北市板橋區富山街18巷28號","121.47845","25.02289","6500100","板橋區"
"220031","286-VK","2017/12/26 14:19:39","新北市板橋區龍興街73巷2號","121.443983333333","25.002245","6500100","板橋區"
"220029","287-VK","2017/12/26 14:19:22","新北市板橋區南雅西路一段23號","121.453983333333","25.0042616666667","6500100","板橋區"
"220039","288-VK","2017/12/26 14:19:32","新北市板橋區長江路一段106巷13弄11號","121.460536666667","25.029335","6500100","板橋區"
"220009","295-UM","2017/12/26 14:17:30","新北市板橋區中山路二段320號","121.480765","25.01946","6500100","板橋區"
"220023","297-UM","2017/12/26 14:19:29","新北市板橋區南雅南路一段1巷1弄10號","121.456991666667","25.0063116666667","6500100","板橋區"
"220010","303-R5","2017/12/26 14:19:36","新北市板橋區三民路二段153巷11號","121.480888333333","25.0151183333333","6500100","板橋區"
"220041","307-R5","2017/12/26 14:19:30","新北市板橋區松江街76號","121.468741666667","25.0279333333333","6500100","板橋區"
"220047","317-R6","2017/12/26 14:19:33","新北市板橋區四維路208號","121.464018333333","25.02734","6500100","板橋區"
"220012","486-VK","2017/12/26 14:19:38","新北市板橋區縣民大道二段1號","121.462355","25.0116433333333","6500100","板橋區"
"220038","487-VK","2017/12/26 14:19:37","新北市板橋區文化路一段357號","121.466676666667","25.0210816666667","6500100","板橋區"
"220037","491-VK","2017/12/26 14:19:25","新北市板橋區雙十路二段34號","121.47609","25.027215","6500100","板橋區"
"220104","560-BX","2017/12/26 14:19:40","新北市板橋區中正路360巷36號","121.455658333333","25.0231033333333","6500100","板橋區"
"220052","561-BX","2017/12/26 14:19:36","新北市板橋區文化路一段188巷7弄33-3號","121.468091666667","25.019615","6500100","板橋區"
"220032","568-UM","2017/12/26 14:19:31","新北市板橋區溪崑二街22巷16號","121.42831","24.9916016666667","6500100","板橋區"
"220011","609-BX","2017/12/26 14:19:40","新北市板橋區三民路二段204號","121.478918333333","25.01224","6500100","板橋區"
"220040","637-BX","2017/12/26 14:19:30","新北市板橋區文聖街233號","121.480668333333","25.0254916666667","6500100","板橋區"
"220005","686-BX","2017/12/26 14:19:41","新北市板橋區重慶路308巷12號","121.463406666667","24.997795","6500100","板橋區"
"220025","687-BX","2017/12/26 14:19:37","新北市板橋區大觀路二段163號","121.445275","25.0005166666667","6500100","板橋區"
"220042","689-BX","2017/12/26 14:19:39","新北市板橋區文化路一段241號","121.464246666667","25.01779","6500100","板橋區"
"220002","741-BX","2017/12/26 14:19:32","新北市板橋區校前街37號","121.461008333333","25.0032333333333","6500100","板橋區"
"220003","827-TW","2017/12/26 14:19:27","新北市板橋區新民街6巷7號","121.465045","25.01032","6500100","板橋區"
"220014","829-TW","2017/12/26 14:19:23","新北市板橋區長安街138巷7弄36號","121.47384","25.0088933333333","6500100","板橋區"
"220051","830-TW","2017/12/26 14:19:37","新北市板橋區文聖街70號","121.47724","25.0303066666667","6500100","板橋區"
"220022","895-R6","2017/12/26 14:19:30","新北市板橋區北門街23-2號","121.456783333333","25.0111666666667","6500100","板橋區"
"220021","985-R7","2017/12/26 14:19:39","新北市板橋區中正路249號","121.455726666667","25.0182216666667","6500100","板橋區"
"220046","AAC-210","2017/12/26 14:19:22","新北市板橋區幸福路32巷3弄12號","121.460771666667","25.020735","6500100","板橋區"
"220018","AAC-253","2017/12/26 14:19:34","新北市板橋區忠孝路131號","121.463133333333","25.0023883333333","6500100","板橋區"
