"lineid","car","time","location","longitude","latitude","cityid","cityname"
"249005","172-UM","2017/12/26 16:59:40","新北市八里區渡船頭6-6號","121.431583333333","25.155085","6502300","八里區"
"249001","173-UM","2017/12/26 16:59:57","新北市八里區中山路三段109號","121.390478333333","25.1419583333333","6502300","八里區"
"249004","303-UY","2017/12/26 16:59:50","新北市八里區挖子尾街40號","121.415663333333","25.1659483333333","6502300","八里區"
"249002","305-UY","2017/12/26 16:58:39","新北市八里區牛寮埔4號","121.433611666667","25.1422116666667","6502300","八里區"
"249003","593-UM","2017/12/26 16:59:45","新北市八里區中山路二段277號","121.40188","25.14873","6502300","八里區"
"244007","080-UY","2017/12/26 16:59:53","新北市林口區中湖43-5號","121.3818","25.0923933333333","6501700","林口區"
"244023","483-VK","2017/12/26 16:59:56","新北市林口區粉寮路一段183號","121.400093333333","25.082395","6501700","林口區"
"244009","837-TS","2017/12/26 16:59:41","新北市林口區粉寮69號","121.405013333333","25.0908516666667","6501700","林口區"
"244021","838-TS","2017/12/26 16:59:18","新北市林口區粉寮69號","121.404796666667","25.090775","6501700","林口區"
"231046","278-BY","2017/12/26 16:59:53","新北市新店區永業路121號","121.528978333333","24.945485","6500600","新店區"
"241011","013-R5","2017/12/26 16:59:52","新北市三重區仁愛街55巷5號","121.498475","25.0725983333333","6500200","三重區"
"241028","022-UY","2017/12/26 16:59:41","新北市三重區中正南路32-1號","121.493783333333","25.0602","6500200","三重區"
"241008","059-VK","2017/12/26 16:59:43","新北市三重區永福街179巷6號","121.478846666667","25.0749316666667","6500200","三重區"
"241009","060-VK","2017/12/26 16:59:56","新北市三重區仁美街106號","121.485555","25.0806816666667","6500200","三重區"
"241031","061-VK","2017/12/26 16:59:38","新北市三重區三寧街38號","121.489941666667","25.0601783333333","6500200","三重區"
"241015","062-VK","2017/12/26 16:59:53","新北市三重區三和路二段13號","121.501343333333","25.06677","6500200","三重區"
"241017","063-VK","2017/12/26 16:59:54","新北市三重區大仁街3巷10號","121.491893333333","25.063795","6500200","三重區"
"241024","065-VK","2017/12/26 16:59:49","新北市三重區大勇街82巷26弄33號","121.478303333333","25.0719866666667","6500200","三重區"
"241002","090-VK","2017/12/26 16:59:40","新北市三重區仁義街126號","121.497591666667","25.0802483333333","6500200","三重區"
"241003","091-VK","2017/12/26 16:59:38","新北市三重區五華街141巷58號","121.493578333333","25.08679","6500200","三重區"
"241005","262-UM","2017/12/26 16:59:46","新北市三重區仁華街82號","121.48526","25.0831716666667","6500200","三重區"
"241026","265-UM","2017/12/26 16:59:58","新北市三重區文化南路42號","121.500446666667","25.0602483333333","6500200","三重區"
"241016","266-UM","2017/12/26 16:59:43","新北市三重區大同北路121巷2號","121.493673333333","25.0640983333333","6500200","三重區"
"241022","267-UM","2017/12/26 16:59:45","新北市三重區中華路132號","121.4835","25.0640433333333","6500200","三重區"
"241018","268-UM","2017/12/26 16:59:43","新北市三重區六張街90巷8號","121.493123333333","25.0696383333333","6500200","三重區"
"241032","269-UM","2017/12/26 16:59:57","新北市三重區重陽路一段130巷11號","121.486005","25.060645","6500200","三重區"
"241013","270-UM","2017/12/26 16:59:54","新北市三重區仁孝街6號","121.495976666667","25.0739533333333","6500200","三重區"
"241025","271-UM","2017/12/26 16:59:41","新北市三重區中正北路510號","121.472681666667","25.0714716666667","6500200","三重區"
"241007","398-BY","2017/12/26 16:59:48","新北市三重區三和路四段145巷153號","121.487576666667","25.0790433333333","6500200","三重區"
"241020","413-TH","2017/12/26 16:59:56","新北市三重區國道路一段5號","121.486303333333","25.0733966666667","6500200","三重區"
"241004","475-VK","2017/12/26 16:59:58","新北市三重區五華街98巷8號","121.491943333333","25.08184","6500200","三重區"
"241019","478-VK","2017/12/26 16:59:40","新北市三重區三張街104號","121.487861666667","25.0698783333333","6500200","三重區"
"241030","480-VK","2017/12/26 16:59:52","新北市三重區昌隆街64號","121.491065","25.0510366666667","6500200","三重區"
"241014","543-UM","2017/12/26 16:59:39","新北市三重區三和路二段173巷149號","121.501241666667","25.0707733333333","6500200","三重區"
"241023","545-UM","2017/12/26 16:59:49","新北市三重區忠孝路三段84巷1號","121.480251666667","25.0644883333333","6500200","三重區"
"241001","547-UM","2017/12/26 16:59:44","新北市三重區仁愛街170號","121.49427","25.0765866666667","6500200","三重區"
"241006","AAD-863","2017/12/26 16:59:44","新北市三重區車路頭街129號","121.484148333333","25.0756866666667","6500200","三重區"
"241012","941-UM","2017/12/26 16:59:43","新北市三重區龍門路274巷36號","121.500811666667","25.0750016666667","6500200","三重區"
"241029","942-UM","2017/12/26 16:59:44","新北市三重區中正南路222號","121.493588333333","25.054835","6500200","三重區"
"241033","AAC-255","2017/12/26 16:59:51","新北市三重區中興北街271號","121.469111666667","25.0606033333333","6500200","三重區"
"235065","911-UM","2017/12/26 16:59:53","新北市中和區員山路36巷16-3號","121.48511","24.99119","6500300","中和區"
"247020","500-BY","2017/12/26 16:59:40","新北市蘆洲區民族路422巷82弄14號","121.473848333333","25.0938","6501400","蘆洲區"
"247008","341-TH","2017/12/26 16:59:42","新北市蘆洲區民生街2巷7號","121.475585","25.0797883333333","6501400","蘆洲區"
"247010","339-TH","2017/12/26 16:59:49","新北市蘆洲區信義路172號","121.479386666667","25.0839733333333","6501400","蘆洲區"
"247002","337-TH","2017/12/26 16:59:53","新北市蘆洲區永平街24號","121.458991666667","25.0907666666667","6501400","蘆洲區"
"247004","336-TH","2017/12/26 16:59:51","新北市蘆洲區長安街193巷41號","121.459223333333","25.0810883333333","6501400","蘆洲區"
"247016","057-VK","2017/12/26 16:59:37","新北市蘆洲區正和街3號","121.470563333333","25.0826516666667","6501400","蘆洲區"
"247006","056-VK","2017/12/26 16:59:42","新北市蘆洲區長安街111巷19號","121.460853333333","25.0802883333333","6501400","蘆洲區"
"247014","007-UY","2017/12/26 16:59:56","新北市蘆洲區中央路20巷14號","121.474105","25.0827466666667","6501400","蘆洲區"
"247024","002-UY","2017/12/26 16:59:47","新北市蘆洲區長興路202號","121.46058","25.0874116666667","6501400","蘆洲區"
"247018","001-UY","2017/12/26 16:59:40","新北市蘆洲區民族路306號","121.477528333333","25.0900733333333","6501400","蘆洲區"
"228002","585-TW","2017/12/26 16:59:52","新北市貢寮區貢寮里朝陽街67號","121.909905","25.02181","6502600","貢寮區"
"228001","670-TC","2017/12/26 16:59:52","新北市貢寮區貢寮里朝陽街1-2號","121.91231","25.02124","6502600","貢寮區"
"228003","828-UM","2017/12/26 16:59:39","新北市貢寮區福隆里興隆街22號","121.944713333333","25.01665","6502600","貢寮區"
"224010","AGQ-8101","2017/12/26 08:47:11","新北市瑞芳區民權街3-1號","121.809206666667","25.108175","6501200","瑞芳區"
"224006","676-BX","2017/12/26 16:59:46","新北市瑞芳區大寮路356-1號","121.784835","25.1032533333333","6501200","瑞芳區"
"224009","285-BY","2017/12/26 16:59:55","新北市瑞芳區濱二路28號","121.83918","25.11355","6501200","瑞芳區"
"224008","275-VK","2017/12/26 16:59:48","新北市瑞芳區明燈路一段200號","121.830803333333","25.1053483333333","6501200","瑞芳區"
"224007","272-VK","2017/12/26 16:59:38","新北市瑞芳區瑞竹路44號","121.763631666667","25.1033633333333","6501200","瑞芳區"
"224005","271-BY","2017/12/26 16:59:34","新北市瑞芳區哩咾路1號","121.878111666667","25.1225966666667","6501200","瑞芳區"
"227003","642-TC","2017/12/26 16:59:39","新北市雙溪區長源里柑腳39號","121.803433333333","25.0133416666667","6502500","雙溪區"
"227009","400-TW","2017/12/26 16:59:49","新北市雙溪區牡丹里聖南26號","121.856691666667","25.0530083333333","6502500","雙溪區"
"251004","009-UM","2017/12/26 16:59:39","新北市淡水區中正路二段31號","121.419188333333","25.181905","6501000","淡水區"
"251014","180-VK","2017/12/26 16:59:57","新北市淡水區淡金路四段472巷24號","121.452943333333","25.223995","6501000","淡水區"
"251008","181-VK","2017/12/26 16:59:41","新北市淡水區樹梅坑9號","121.472725","25.1426466666667","6501000","淡水區"
"251010","413-VK","2017/12/26 16:59:38","新北市淡水區沙崙路238號","121.425648333333","25.1847133333333","6501000","淡水區"
"251012","441-VK","2017/12/26 16:59:44","新北市淡水區沙崙路50號","121.422376666667","25.1821216666667","6501000","淡水區"
"251016","442-VK","2017/12/26 16:59:51","新北市淡水區瓦坑3號","121.477646666667","25.1809083333333","6501000","淡水區"
"251005","443-VK","2017/12/26 16:59:37","新北市淡水區中正路二段31號","121.419378333333","25.1816333333333","6501000","淡水區"
"251006","561-UM","2017/12/26 16:59:48","新北市淡水區中正路259號","121.433025","25.1745266666667","6501000","淡水區"
"251009","575-R6","2017/12/26 16:59:40","新北市淡水區中正路257號","121.433303333333","25.1744966666667","6501000","淡水區"
"251007","577-R6","2017/12/26 16:59:45","新北市淡水區中山路18-1號","121.444435","25.169415","6501000","淡水區"
"251011","650-BX","2017/12/26 16:59:42","新北市淡水區中山路26-1號","121.444366666667","25.1696933333333","6501000","淡水區"
"252001","702-TV","2017/12/26 16:59:53","新北市三芝區淡金路二段76-1號","121.503813333333","25.260855","6502100","三芝區"
"242051","751-BX","2017/12/26 16:59:47","新北市新莊區新泰路357巷3弄57號","121.442206666667","25.0392416666667","6500500","新莊區"
"242025","615-BX","2017/12/26 16:59:36","新北市新莊區新泰路255巷83號","121.442353333333","25.0387083333333","6500500","新莊區"
"242023","613-BX","2017/12/26 16:59:52","新北市新莊區新泰路357巷3弄57號","121.442361666667","25.0392933333333","6500500","新莊區"
"242039","566-BX","2017/12/26 16:59:51","新北市新莊區新泰路255巷83號","121.442133333333","25.0390966666667","6500500","新莊區"
"242005","442-UM","2017/12/26 03:59:45","新北市新莊區三和路12-21號","121.442073333333","25.0387116666667","6500500","新莊區"
"242048","441-UM","2017/12/26 16:59:55","新北市新莊區三和路12-21號","121.442178333333","25.0383666666667","6500500","新莊區"
"242054","440-UM","2017/12/26 16:59:51","新北市新莊區新泰路357巷3弄57號","121.44218","25.0392316666667","6500500","新莊區"
"242034","415-TV","2017/12/26 01:29:46","新北市新莊區新泰路357巷3弄57號","121.442026666667","25.0391233333333","6500500","新莊區"
"242044","413-TV","2017/12/26 16:55:22","新北市新莊區新泰路357巷3弄57號","121.441778333333","25.0394233333333","6500500","新莊區"
"242042","400-BY","2017/12/26 16:59:37","新北市新莊區新泰路357巷3弄57號","121.442053333333","25.039605","6500500","新莊區"
"242061","362-BY","2017/12/26 16:59:51","新北市新莊區三和路12-21號","121.442238333333","25.0386116666667","6500500","新莊區"
"242058","353-BY","2017/12/26 16:59:50","新北市新莊區新泰路255巷83號","121.442346666667","25.0389633333333","6500500","新莊區"
"242007","132-UY","2017/12/26 01:30:35","新北市新莊區三和路12-21號","121.441993333333","25.0387566666667","6500500","新莊區"
"242037","133-UY","2017/12/26 16:59:39","新北市新莊區三和路12-21號","121.442051666667","25.0388116666667","6500500","新莊區"
"242046","172-VK","2017/12/26 14:45:00","新北市新莊區三和路12-21號","121.441931666667","25.038815","6500500","新莊區"
"242002","176-VK","2017/12/26 16:59:46","新北市新莊區三和路12-21號","121.441828333333","25.038675","6500500","新莊區"
"242013","346-TH","2017/12/26 05:00:15","新北市新莊區三和路12-16號","121.441963333333","25.0374633333333","6500500","新莊區"
"242019","348-TH","2017/12/26 16:58:56","新北市新莊區三和路18-25號","121.441623333333","25.03946","6500500","新莊區"
"242017","350-TH","2017/12/26 16:59:51","新北市新莊區新泰路255巷83號","121.441996666667","25.0389066666667","6500500","新莊區"
"242011","351-TH","2017/12/26 16:59:38","新北市新莊區新泰路357巷3弄57號","121.441988333333","25.0395066666667","6500500","新莊區"
"238023","601-UM","2017/12/26 16:59:58","新北市樹林區育德街78-1號","121.38839","24.9682","6500700","樹林區"
"238019","599-UM","2017/12/26 16:59:54","新北市樹林區育德街78-1號","121.388068333333","24.96828","6500700","樹林區"
"238018","571-TV","2017/12/26 16:59:51","新北市樹林區育德街78-1號","121.388153333333","24.9680283333333","6500700","樹林區"
"238021","KEA-2217","2017/12/26 16:59:52","新北市樹林區育德街78-1號","121.38806","24.96807","6500700","樹林區"
"238022","KEA-2213","2017/12/26 16:59:49","新北市樹林區育德街78-1號","121.387836666667","24.9681216666667","6500700","樹林區"
"238025","303-VK","2017/12/26 16:59:40","新北市樹林區育德街78-1號","121.388263333333","24.96828","6500700","樹林區"
"238017","283-BY","2017/12/26 16:59:40","新北市樹林區育德街78號","121.388183333333","24.9683033333333","6500700","樹林區"
"238026","172-UY","2017/12/26 16:59:55","新北市樹林區育德街78號","121.38758","24.9683866666667","6500700","樹林區"
"239007","AAC-297","2017/12/26 12:34:48","新北市鶯歌區二甲路13-16號","121.345018333333","24.9352183333333","6500800","鶯歌區"
"239006","891-R6","2017/12/26 09:21:19","新北市鶯歌區二甲路13-16號","121.34494","24.93484","6500800","鶯歌區"
"239008","527-UM","2017/12/26 02:11:25","新北市鶯歌區二甲路13-16號","121.345048333333","24.935105","6500800","鶯歌區"
"239005","526-UM","2017/12/26 03:24:36","新北市鶯歌區二甲路13-16號","121.345031666667","24.9350883333333","6500800","鶯歌區"
"239001","417-VK","2017/12/26 11:31:13","新北市鶯歌區二甲路13號","121.344106666667","24.935195","6500800","鶯歌區"
"239002","359-BY","2017/12/26 11:09:09","新北市鶯歌區二甲路13-16號","121.34498","24.9352783333333","6500800","鶯歌區"
"239004","193-VK","2017/12/26 16:59:49","新北市鶯歌區二甲路12-2號","121.345678333333","24.9348183333333","6500800","鶯歌區"
"221012","276-VK","2017/12/26 13:22:07","新北市汐止區汐萬路一段256巷3號","121.653455","25.0746116666667","6501100","汐止區"
"242056","280-VK","2017/12/26 16:59:46","新北市新莊區三和路12-21號","121.441913333333","25.038295","6500500","新莊區"
