"lineid","car","time","location","longitude","latitude","cityid","cityname"
"234046","148-BY","2017/12/26 19:17:53","新北市永和區得和路362號","121.524115","24.9993933333333","6500400","永和區"
"234013","149-BY","2017/12/26 19:17:46","新北市永和區仁愛路128號","121.511383333333","25.0131633333333","6500400","永和區"
"234007","207-UY","2017/12/26 19:17:49","新北市永和區中山路一段242號","121.507836666667","25.0077983333333","6500400","永和區"
"234081","298-R6","2017/12/26 19:17:52","新北市永和區福和路5-4號","121.524938333333","25.0084866666667","6500400","永和區"
"234038","336-UY","2017/12/26 19:17:36","新北市永和區民樂街59巷24號","121.528351666667","24.998165","6500400","永和區"
"234064","337-UY","2017/12/26 19:17:50","新北市永和區永元路17巷1弄2號","121.521545","25.0004483333333","6500400","永和區"
"234086","338-UY","2017/12/26 19:17:38","新北市永和區永亨路9號","121.519426666667","25.0058416666667","6500400","永和區"
"234054","553-UM","2017/12/26 19:17:38","新北市永和區中興街50號","121.516728333333","25.0115516666667","6500400","永和區"
"234017","745-BX","2017/12/26 19:17:40","新北市永和區文化路144巷19弄12號","121.51239","25.0167366666667","6500400","永和區"
"234030","746-BX","2017/12/26 19:17:48","新北市永和區民生路25巷9號","121.523725","24.9986666666667","6500400","永和區"
"234061","AAD-866","2017/12/26 19:17:45","新北市永和區中正路391巷2號","121.51691","25.0040766666667","6500400","永和區"
"234070","847-RS","2017/12/26 19:17:51","新北市永和區豫溪街74巷1號","121.517253333333","25.0099133333333","6500400","永和區"
"234042","862-TW","2017/12/26 19:17:50","新北市永和區水源街56號","121.509533333333","25.0043283333333","6500400","永和區"
"234050","863-TW","2017/12/26 19:17:48","新北市永和區仁愛路148號","121.510668333333","25.0134083333333","6500400","永和區"
"234026","9371-KE","2017/12/26 19:17:52","新北市永和區得和路42巷23號","121.515345","24.99964","6500400","永和區"
"234011","9373-KE","2017/12/26 19:17:47","新北市永和區保福路二段2號","121.511113333333","25.0108283333333","6500400","永和區"
"249005","172-UM","2017/12/26 19:17:40","新北市八里區中華路三段170-1號","121.39217","25.1303266666667","6502300","八里區"
"249001","173-UM","2017/12/26 19:17:36","新北市八里區中華路一段254號","121.416321666667","25.1555183333333","6502300","八里區"
"249003","593-UM","2017/12/26 19:17:33","新北市八里區中山路二段466巷36弄20號","121.398543333333","25.14885","6502300","八里區"
"248020","225-UY","2017/12/26 19:13:37","新北市五股區凌雲路三段57號","121.425313333333","25.1250033333333","6501500","五股區"
"248012","247-BX","2017/12/26 19:17:43","新北市五股區中興路四段48巷16號","121.438655","25.0834366666667","6501500","五股區"
"248010","272-BY","2017/12/26 19:17:50","新北市五股區自強路90巷72號","121.430658333333","25.0712433333333","6501500","五股區"
"248004","677-BX","2017/12/26 19:17:49","新北市五股區五福路40號","121.43391","25.0892433333333","6501500","五股區"
"248002","678-BX","2017/12/26 19:17:47","新北市五股區凌雲路一段158巷14-1號","121.447796666667","25.1034716666667","6501500","五股區"
"234023","9380-KE","2017/12/26 19:17:49","新北市永和區竹林路124巷12號","121.519295","25.01128","6500400","永和區"
"234077","969-R7","2017/12/26 19:17:41","新北市永和區民族街41巷13號","121.519156666667","24.9989766666667","6500400","永和區"
"234074","AAC-211","2017/12/26 19:17:35","新北市永和區竹林路126號","121.520006666667","25.01126","6500400","永和區"
"234067","AAC-212","2017/12/26 19:17:23","新北市永和區保平路50巷8弄19號","121.511556666667","25.0078783333333","6500400","永和區"
"234003","AAC-295","2017/12/26 19:17:47","新北市永和區永平路192號","121.510333333333","25.0093366666667","6500400","永和區"
"244013","069-UM","2017/12/26 19:17:51","新北市林口區麗園一街11巷5號","121.37767","25.07046","6501700","林口區"
"244019","403-UM","2017/12/26 19:17:40","新北市林口區麗園二街81-1號","121.382186666667","25.06785","6501700","林口區"
"244023","483-VK","2017/12/26 19:17:36","新北市林口區民富街206號","121.37133","25.0759933333333","6501700","林口區"
"244011","656-BX","2017/12/26 19:17:46","新北市林口區中山路262-1號","121.38465","25.0799666666667","6501700","林口區"
"243012","AAD-798","2017/12/26 19:17:46","新北市泰山區同義街55號","121.431841666667","25.0559033333333","6501600","泰山區"
"243011","297-R6","2017/12/26 19:17:41","新北市泰山區中央路36巷1號","121.426276666667","25.042695","6501600","泰山區"
"243015","380-SR","2017/12/26 19:17:41","新北市泰山區公園路71號","121.426285","25.0553733333333","6501600","泰山區"
"243014","421-VK","2017/12/26 19:17:43","新北市泰山區泰林路二段232號","121.432458333333","25.0619633333333","6501600","泰山區"
"243010","KEA-2215","2017/12/26 19:17:50","新北市泰山區明志路一段492巷7號","121.429921666667","25.0547716666667","6501600","泰山區"
"243009","KEA-2216","2017/12/26 19:17:46","新北市泰山區和平街13巷23號","121.434365","25.065635","6501600","泰山區"
"243013","646-TV","2017/12/26 19:17:39","新北市泰山區明志路三段163巷4號","121.425","25.039345","6501600","泰山區"
"243016","680-BX","2017/12/26 19:17:50","新北市泰山區明志路三段135號","121.42503","25.040385","6501600","泰山區"
"222003","436-BY","2017/12/26 19:17:46","新北市深坑區深南路204號","121.626683333333","25.01599","6501800","深坑區"
"222002","659-BX","2017/12/26 19:17:53","新北市深坑區北深路一段177號","121.632563333333","25.0108966666667","6501800","深坑區"
"222001","696-SL","2017/12/26 19:17:47","新北市深坑區北深路二段48號","121.619466666667","25.00429","6501800","深坑區"
"231041","001-UM","2017/12/26 19:17:47","新北市新店區溪園路245-6號","121.52542","24.9832916666667","6500600","新店區"
"231066","0293-UT","2017/12/26 19:17:41","新北市新店區安康路三段355巷45號","121.484998333333","24.9493883333333","6500600","新店區"
"231059","046-UY","2017/12/26 19:17:40","新北市新店區安和路二段240號","121.516676666667","24.9785916666667","6500600","新店區"
"231061","047-UY","2017/12/26 19:17:46","新北市新店區安康路一段231號","121.525356666667","24.9631966666667","6500600","新店區"
"231060","106-UY","2017/12/26 19:17:41","新北市新店區安康路二段115-1號","121.512495","24.96162","6500600","新店區"
"231051","107-UY","2017/12/26 19:17:48","新北市新店區中央路81號","121.532125","24.9766066666667","6500600","新店區"
"231048","108-UY","2017/12/26 19:17:50","新北市新店區中興路一段282-1號","121.546005","24.9684083333333","6500600","新店區"
"231053","187-VK","2017/12/26 19:17:45","新北市新店區自強路199號","121.546653333333","24.9201216666667","6500600","新店區"
"231050","KEA-2219","2017/12/26 19:17:35","新北市新店區竹林路63-1號","121.552913333333","24.9513083333333","6500600","新店區"
"231046","278-BY","2017/12/26 19:17:33","新北市新店區華城路36巷1-1號","121.528451666667","24.9552516666667","6500600","新店區"
"231054","AAD-862","2017/12/26 19:17:41","新北市新店區國校路20-1號","121.537911666667","24.9550866666667","6500600","新店區"
"231058","3712-VJ","2017/12/26 19:17:44","新北市新店區光明街286巷6號","121.540541666667","24.96376","6500600","新店區"
"231067","4772-VM","2017/12/26 19:17:36","新北市新店區安豐路5號","121.50174","24.9573033333333","6500600","新店區"
"231065","512-UM","2017/12/26 19:17:32","新北市新店區安祥路110巷25號","121.47337","24.95621","6500600","新店區"
"231064","515-UM","2017/12/26 19:17:50","新北市新店區安忠路57巷5-6號","121.513215","24.9588483333333","6500600","新店區"
"231045","617-UM","2017/12/26 19:17:42","新北市新店區北宜路一段260號","121.545703333333","24.95275","6500600","新店區"
"231040","619-UM","2017/12/26 19:17:42","新北市新店區三民路32號","121.536733333333","24.97119","6500600","新店區"
"231042","641-BX","2017/12/26 19:17:48","新北市新店區中興路一段24-2號","121.538553333333","24.9583833333333","6500600","新店區"
"231063","645-TV","2017/12/26 19:17:37","新北市新店區達觀路10號","121.50342","24.9438533333333","6500600","新店區"
"231049","719-UM","2017/12/26 19:17:43","新北市新店區明德路111號","121.541523333333","24.9793816666667","6500600","新店區"
"231062","720-UM","2017/12/26 19:17:48","新北市新店區莒光路70號","121.522925","24.9551383333333","6500600","新店區"
"231044","897-TW","2017/12/26 19:17:34","新北市新店區中興路三段302號","121.542408333333","24.9851966666667","6500600","新店區"
"231043","899-TW","2017/12/26 19:17:48","新北市新店區寶橋路4號","121.54323","24.9734783333333","6500600","新店區"
"241009","060-VK","2017/12/26 19:17:35","新北市三重區仁美街114巷1號","121.48533","25.0809733333333","6500200","三重區"
"241031","061-VK","2017/12/26 19:17:38","新北市三重區重新路四段254號","121.48519","25.0529883333333","6500200","三重區"
"241017","063-VK","2017/12/26 19:17:34","新北市三重區大同北路182號","121.491721666667","25.065795","6500200","三重區"
"241026","265-UM","2017/12/26 19:17:40","新北市三重區中正南路216號","121.493713333333","25.0551316666667","6500200","三重區"
"241022","267-UM","2017/12/26 19:17:40","新北市三重區中正北路111-1號","121.485463333333","25.0654616666667","6500200","三重區"
"241032","269-UM","2017/12/26 19:17:49","新北市三重區名源街54號","121.482536666667","25.05932","6500200","三重區"
"241020","413-TH","2017/12/26 19:17:52","新北市三重區忠孝路一段101號","121.489446666667","25.0721266666667","6500200","三重區"
"241029","942-UM","2017/12/26 19:17:33","新北市三重區重安街83號","121.492498333333","25.0557933333333","6500200","三重區"
"235066","003-UY","2017/12/26 19:17:42","新北市中和區廣福路112號","121.502168333333","25.0011433333333","6500300","中和區"
"235064","005-UY","2017/12/26 19:17:35","新北市中和區連城路2號","121.499326666667","25.0023933333333","6500300","中和區"
"235063","006-UY","2017/12/26 19:17:46","新北市中和區連城路249巷19弄1號","121.493901666667","24.996335","6500300","中和區"
"235046","031-BX","2017/12/26 19:17:44","新北市中和區忠孝街2巷13弄2號","121.510443333333","24.9818866666667","6500300","中和區"
"235056","096-UM","2017/12/26 19:17:36","新北市中和區員山路611巷11弄18號","121.478538333333","25.0102616666667","6500300","中和區"
"235039","097-UM","2017/12/26 19:17:48","新北市中和區景平路64巷14弄15號","121.522803333333","24.991285","6500300","中和區"
"235040","150-BY","2017/12/26 19:17:35","新北市中和區保健路48巷61號","121.509361666667","24.9959283333333","6500300","中和區"
"235058","151-BY","2017/12/26 19:17:36","新北市中和區連城路523巷9弄1號","121.481716666667","24.9946866666667","6500300","中和區"
"235055","183-VK","2017/12/26 19:17:38","新北市中和區德光路132號","121.467998333333","25.0031916666667","6500300","中和區"
"235038","185-VK","2017/12/26 19:17:35","新北市中和區大仁街20巷59號","121.519931666667","24.9934166666667","6500300","中和區"
"235049","186-VK","2017/12/26 19:17:36","新北市中和區景新街239號","121.50814","24.9944633333333","6500300","中和區"
"235067","255-BX","2017/12/26 19:17:46","新北市中和區新生街148巷16號","121.482593333333","25.000735","6500300","中和區"
"235044","293-VK","2017/12/26 19:17:46","新北市中和區中興街239號","121.500511666667","24.9891766666667","6500300","中和區"
"235072","301-VK","2017/12/26 19:17:43","新北市中和區連城路145號","121.495726666667","24.9987233333333","6500300","中和區"
"235043","352-BY","2017/12/26 19:17:38","新北市中和區景平路166號","121.517016666667","24.99218","6500300","中和區"
"235068","377-QA","2017/12/26 19:17:37","新北市中和區連勝街38巷16號","121.497781666667","24.9978733333333","6500300","中和區"
"235061","378-QA","2017/12/26 19:17:41","新北市中和區民樂路15號","121.481803333333","25.0017683333333","6500300","中和區"
"235050","4979-A6","2017/12/26 19:17:36","新北市中和區景安路208巷23號","121.502448333333","24.99193","6500300","中和區"
"235069","4980-A6","2017/12/26 19:17:44","新北市中和區莊敬路31巷32-1號","121.500001666667","25.0056566666667","6500300","中和區"
"235042","551-UM","2017/12/26 19:17:49","新北市中和區大勇街60巷14弄2號","121.518668333333","24.9944833333333","6500300","中和區"
"235070","558-UM","2017/12/26 19:17:34","新北市中和區中和路98號","121.501405","25.0003583333333","6500300","中和區"
"235045","565-BX","2017/12/26 19:17:41","新北市中和區景新街437巷31號","121.514691666667","24.9895216666667","6500300","中和區"
"235054","640-BX","2017/12/26 19:17:45","新北市中和區國光街109巷2弄1號","121.469676666667","25.000495","6500300","中和區"
"235060","647-TV","2017/12/26 19:17:44","新北市中和區中山路三段120號","121.475168333333","25.0062783333333","6500300","中和區"
"235047","732-UM","2017/12/26 19:17:49","新北市中和區和平街54巷1弄1號","121.508681666667","24.990965","6500300","中和區"
"235057","801-TS","2017/12/26 19:17:35","新北市中和區民利街50號","121.479348333333","24.99878","6500300","中和區"
"235041","802-TS","2017/12/26 19:17:52","新北市中和區中和路258號","121.507593333333","24.999585","6500300","中和區"
"235052","805-TS","2017/12/26 19:17:52","新北市中和區興南路二段116號","121.504751666667","24.9838066666667","6500300","中和區"
"235048","896-TW","2017/12/26 19:17:43","新北市中和區忠孝街64號","121.511921666667","24.98396","6500300","中和區"
"235053","900-TW","2017/12/26 19:17:53","新北市中和區華安街30巷2號","121.467008333333","24.9976666666667","6500300","中和區"
"235065","911-UM","2017/12/26 19:17:33","新北市中和區中山路二段136巷6弄10號","121.50209","25.0042266666667","6500300","中和區"
"235051","157-BY","2017/12/26 19:17:35","新北市中和區和平街24巷4號","121.509986666667","24.9904433333333","6500300","中和區"
"235037","AAC-213","2017/12/26 19:17:50","新北市中和區秀朗路三段50巷12弄2號","121.52429","24.9951566666667","6500300","中和區"
"235059","AAC-215","2017/12/26 19:17:45","新北市中和區錦和路201號","121.490815","24.990445","6500300","中和區"
"220068","013-TV","2017/12/26 19:17:46","新北市板橋區翠華街6巷29號","121.481428333333","25.0244683333333","6500100","板橋區"
"220065","072-UY","2017/12/26 19:17:37","新北市板橋區民族路170巷5號","121.467411666667","25.0074066666667","6500100","板橋區"
"220086","073-UY","2017/12/26 19:17:51","新北市板橋區中正路216巷150弄4號","121.460658333333","25.0192333333333","6500100","板橋區"
"220069","AAD-861","2017/12/26 19:17:35","新北市板橋區大華街73號","121.459415","25.003485","6500100","板橋區"
"220096","120-SR","2017/12/26 19:17:40","新北市板橋區大同街8巷54號","121.477986666667","25.0261616666667","6500100","板橋區"
"247004","336-TH","2017/12/26 19:17:40","新北市蘆洲區環堤大道365號","121.457851666667","25.0976066666667","6501400","蘆洲區"
"226004","205-ST","2017/12/26 19:17:51","新北市平溪區南山里南山坪20號","121.771993333333","25.036985","6502400","平溪區"
"228002","585-TW","2017/12/26 19:17:32","新北市貢寮區福隆里興隆街100巷7號","121.935028333333","25.0183283333333","6502600","貢寮區"
"228001","670-TC","2017/12/26 19:17:51","新北市貢寮區真理里新港街10號","121.925523333333","25.05437","6502600","貢寮區"
"228003","828-UM","2017/12/26 19:17:38","新北市貢寮區和美里和美街19-2號","121.912801666667","25.0825983333333","6502600","貢寮區"
"224010","AGQ-8101","2017/12/26 19:17:08","新北市瑞芳區基山街113號","121.844431666667","25.1086033333333","6501200","瑞芳區"
"224006","676-BX","2017/12/26 19:17:25","新北市瑞芳區中山路216號","121.800658333333","25.1068683333333","6501200","瑞芳區"
"224009","285-BY","2017/12/26 19:17:54","新北市瑞芳區洞頂路8號","121.861826666667","25.1219833333333","6501200","瑞芳區"
"224008","275-VK","2017/12/26 19:17:47","新北市瑞芳區一坑路285號","121.801186666667","25.1085333333333","6501200","瑞芳區"
"224005","271-BY","2017/12/26 19:17:40","新北市瑞芳區蛇子形路3-3號","121.824128333333","25.1031433333333","6501200","瑞芳區"
"227003","642-TC","2017/12/26 19:17:42","新北市雙溪區平林里梅竹蹊66-1號","121.860148333333","25.0358183333333","6502500","雙溪區"
"227009","400-TW","2017/12/26 19:17:49","新北市雙溪區新基里新基北街40號","121.868496666667","25.038025","6502500","雙溪區"
"253005","032-BX","2017/12/26 19:17:34","新北市石門區阿里荖5號","121.611036666667","25.2795266666667","6502200","石門區"
"253006","741-TV","2017/12/26 19:17:34","新北市石門區崁子腳26號","121.535476666667","25.2907166666667","6502200","石門區"
"208002","742-BX","2017/12/26 19:17:36","新北市金山區中正路136號","121.631735","25.2216433333333","6502700","金山區"
"208003","665-BX","2017/12/26 19:17:37","新北市金山區中山路174-1號","121.638215","25.2211283333333","6502700","金山區"
"208001","761-BX","2017/12/26 19:17:46","新北市金山區慈護街33號","121.639495","25.219855","6502700","金山區"
"251014","180-VK","2017/12/26 19:17:36","新北市淡水區小中寮19-7號","121.484745","25.2296316666667","6501000","淡水區"
"251010","413-VK","2017/12/26 19:17:38","新北市淡水區沙崙路27號","121.421525","25.1816033333333","6501000","淡水區"
"251012","441-VK","2017/12/26 19:17:44","新北市淡水區中山北路三段164號","121.445721666667","25.1965616666667","6501000","淡水區"
"251016","442-VK","2017/12/26 19:17:50","新北市淡水區下圭柔山119-51號","121.450743333333","25.2084416666667","6501000","淡水區"
"251005","443-VK","2017/12/26 19:17:37","新北市淡水區水源街一段26號","121.443076666667","25.1722816666667","6501000","淡水區"
"251001","559-UM","2017/12/26 19:17:33","新北市淡水區自強路201巷39號","121.462096666667","25.1268483333333","6501000","淡水區"
"251006","561-UM","2017/12/26 19:17:48","新北市淡水區大信街33號","121.442018333333","25.17732","6501000","淡水區"
"251009","575-R6","2017/12/26 19:17:40","新北市淡水區大忠街5巷9號","121.44341","25.1765666666667","6501000","淡水區"
"251007","577-R6","2017/12/26 19:17:47","新北市淡水區民生路117巷5-1號","121.464933333333","25.1390216666667","6501000","淡水區"
"251002","672-BX","2017/12/26 19:17:43","新北市淡水區中正路372號","121.433721666667","25.17449","6501000","淡水區"
"251003","673-BX","2017/12/26 19:17:41","新北市淡水區中山北路一段96號","121.442496666667","25.1763683333333","6501000","淡水區"
"207003","550-UM","2017/12/26 19:17:46","新北市萬里區大鵬里萬里加投79-3號","121.647323333333","25.2123433333333","6502800","萬里區"
"207004","225-TW","2017/12/26 19:17:42","新北市萬里區萬里里成功新村63號","121.688293333333","25.17457","6502800","萬里區"
"252003","249-BX","2017/12/26 19:17:46","新北市三芝區淡金路二段103號","121.504343333333","25.261455","6502100","三芝區"
"252001","702-TV","2017/12/26 19:17:33","新北市三芝區長勤街9巷9弄2號","121.501765","25.2549566666667","6502100","三芝區"
"237004","078-UY","2017/12/26 19:17:52","新北市三峽區有木206號","121.439091666667","24.8514983333333","6500900","三峽區"
"237007","153-BY","2017/12/26 19:16:54","新北市三峽區中正路二段176巷86號","121.36312","24.9127366666667","6500900","三峽區"
"237009","210-TH","2017/12/26 19:17:41","新北市三峽區信義街13號","121.370868333333","24.9358416666667","6500900","三峽區"
"237013","252-BX","2017/12/26 19:17:38","新北市三峽區光明路75巷29號","121.377688333333","24.9283833333333","6500900","三峽區"
"237012","275-BY","2017/12/26 19:17:45","新北市三峽區三樹路222巷236弄8-3號","121.391358333333","24.9430366666667","6500900","三峽區"
"237008","302-VK","2017/12/26 19:17:40","新北市三峽區光明路106巷70號","121.374901666667","24.9266616666667","6500900","三峽區"
"237014","433-BY","2017/12/26 19:17:39","新北市三峽區中山路222-1號","121.362835","24.9372783333333","6500900","三峽區"
"237006","5529-G3","2017/12/26 19:17:47","新北市三峽區中正路一段336巷15弄2號","121.36996","24.9249516666667","6500900","三峽區"
"237016","649-BX","2017/12/26 19:17:49","新北市三峽區安坑66號","121.470375","24.928875","6500900","三峽區"
"237005","AKY-6261","2017/12/26 19:17:37","新北市三峽區中山路459巷92號","121.353878333333","24.9357983333333","6500900","三峽區"
"236070","105-UM","2017/12/26 19:17:36","新北市土城區中央路一段52號","121.447365","24.989935","6501300","土城區"
"236079","166-UM","2017/12/26 16:29:10","新北市土城區城林路6巷80號","121.438455","24.9797383333333","6501300","土城區"
"236027","269-VK","2017/12/26 19:17:50","新北市土城區中央路二段149巷16號","121.442865","24.9765933333333","6501300","土城區"
"236015","270-VK","2017/12/26 19:17:41","新北市土城區學府路一段23巷21-2號","121.458093333333","24.9873683333333","6501300","土城區"
"236023","401-BY","2017/12/26 19:17:34","新北市土城區峰廷街18號","121.468993333333","24.9872566666667","6501300","土城區"
"236059","912-UM","2017/12/26 19:17:36","新北市土城區金城路一段84號","121.444705","24.9735366666667","6501300","土城區"
"236049","913-UM","2017/12/26 19:17:54","新北市土城區明德路一段398-1號","121.453655","24.979085","6501300","土城區"
"238015","755-BX","2017/12/26 19:17:48","新北市樹林區備內街19號","121.412691666667","24.9870483333333","6500700","樹林區"
"238023","601-UM","2017/12/26 19:17:38","新北市樹林區三興路77號","121.392573333333","25.014385","6500700","樹林區"
"238019","599-UM","2017/12/26 19:17:54","新北市樹林區鎮前街347巷2弄1號","121.416701666667","24.9837333333333","6500700","樹林區"
"238005","571-TV","2017/12/26 19:17:51","新北市樹林區中華路353-1號","121.414863333333","24.9802316666667","6500700","樹林區"
"238024","5061-A6","2017/12/26 19:17:43","新北市樹林區福德街36-2號","121.40038","24.9751733333333","6500700","樹林區"
"238022","KEA-2213","2017/12/26 19:17:49","新北市樹林區中山路二段147號","121.406455","24.97877","6500700","樹林區"
"238025","303-VK","2017/12/26 19:17:40","新北市樹林區中山路二段133號","121.40666","24.9791166666667","6500700","樹林區"
"238017","283-BY","2017/12/26 19:17:40","新北市樹林區光興街81巷22號","121.410783333333","25.0019833333333","6500700","樹林區"
"238014","282-BY","2017/12/26 19:17:42","新北市樹林區千歲街35號","121.425258333333","24.99594","6500700","樹林區"
"238020","268-VK","2017/12/26 19:17:37","新北市樹林區俊英街195號","121.423396666667","25.012235","6500700","樹林區"
"238026","172-UY","2017/12/26 19:17:35","新北市樹林區寶園街10號","121.385333333333","24.9534816666667","6500700","樹林區"
"238016","169-UY","2017/12/26 19:17:39","新北市樹林區中山路一段412號","121.417436666667","24.985215","6500700","樹林區"
"239007","AAC-297","2017/12/26 19:17:50","新北市鶯歌區大湖路余厝巷1-2號","121.342346666667","24.9613066666667","6500800","鶯歌區"
"239006","891-R6","2017/12/26 19:17:52","新北市鶯歌區尖山埔路233號","121.344715","24.95027","6500800","鶯歌區"
"239008","527-UM","2017/12/26 19:17:31","新北市鶯歌區大湖路532號","121.337061666667","24.97274","6500800","鶯歌區"
"239005","526-UM","2017/12/26 19:17:50","新北市鶯歌區中湖街315巷1號","121.346328333333","24.9781016666667","6500800","鶯歌區"
"239001","417-VK","2017/12/26 19:17:51","新北市鶯歌區建國路463號","121.339398333333","24.9521816666667","6500800","鶯歌區"
"239003","360-BY","2017/12/26 19:17:35","新北市鶯歌區建國路149號","121.350905","24.953515","6500800","鶯歌區"
"239002","359-BY","2017/12/26 19:17:49","新北市鶯歌區湖山路27巷1號","121.340315","24.97424","6500800","鶯歌區"
"239004","193-VK","2017/12/26 19:17:49","新北市鶯歌區鶯華新村21號","121.330286666667","24.93453","6500800","鶯歌區"
"221008","489-VK","2017/12/26 19:17:40","新北市汐止區康寧街308號","121.626575","25.0672666666667","6501100","汐止區"
"221036","130-UY","2017/12/26 19:17:47","新北市汐止區汐萬路一段256巷3號","121.653416666667","25.0746583333333","6501100","汐止區"
"221010","269-BY","2017/12/26 19:17:36","新北市汐止區康寧街901號","121.651411666667","25.0750566666667","6501100","汐止區"
"221012","276-VK","2017/12/26 13:22:07","新北市汐止區汐萬路一段256巷3號","121.653455","25.0746116666667","6501100","汐止區"
"221012","278-VK","2017/12/26 19:17:47","新北市汐止區康寧街901號","121.650825","25.0752733333333","6501100","汐止區"
"221023","279-VK","2017/12/26 19:17:48","新北市汐止區康寧街901號","121.650971666667","25.0752033333333","6501100","汐止區"
"221027","281-BY","2017/12/26 19:17:32","新北市汐止區康寧街901號","121.651435","25.0749866666667","6501100","汐止區"
"221029","298-VK","2017/12/26 19:17:39","新北市汐止區康寧街901號","121.651645","25.0749216666667","6501100","汐止區"
"221021","299-VK","2017/12/26 19:17:43","新北市汐止區康寧街901號","121.651568333333","25.0749733333333","6501100","汐止區"
"221031","353-TW","2017/12/26 19:17:48","新北市汐止區汐萬路一段256巷1號","121.651711666667","25.0748833333333","6501100","汐止區"
"221015","567-BX","2017/12/26 19:17:33","新北市汐止區康寧街901號","121.651606666667","25.0749016666667","6501100","汐止區"
"221025","623-UM","2017/12/26 19:17:49","新北市汐止區康寧街901號","121.651375","25.0750483333333","6501100","汐止區"
"221038","646-BX","2017/12/26 19:17:47","新北市汐止區汐萬路一段312號","121.650673333333","25.0753233333333","6501100","汐止區"
"221033","647-BX","2017/12/26 19:17:52","新北市汐止區南勢街1巷1號","121.627023333333","25.0374283333333","6501100","汐止區"
"221002","707-TV","2017/12/26 19:17:31","新北市汐止區大同路一段247號","121.635725","25.0581383333333","6501100","汐止區"
"221018","753-BX","2017/12/26 19:17:38","新北市汐止區康寧街901號","121.65149","25.0749683333333","6501100","汐止區"
"220079","145-BY","2017/12/26 19:17:55","新北市板橋區民權路302巷18號","121.458016666667","25.0164","6500100","板橋區"
"220080","200-UY","2017/12/26 19:17:49","新北市板橋區大觀路二段19巷88號","121.449193333333","25.0028666666667","6500100","板橋區"
"220082","610-BX","2017/12/26 19:17:49","新北市板橋區溪城路79號","121.42666","24.9836533333333","6500100","板橋區"
"220101","245-BX","2017/12/26 19:17:47","新北市板橋區雙十路二段47巷57號","121.474968333333","25.0251616666667","6500100","板橋區"
"220106","257-TC","2017/12/26 19:17:35","新北市板橋區雙十路三段66巷1號","121.470541666667","25.03196","6500100","板橋區"
"220056","276-BY","2017/12/26 19:17:48","新北市板橋區信義路147號","121.458128333333","24.99295","6500100","板橋區"
"220072","277-BY","2017/12/26 19:17:54","新北市板橋區金門街337巷10弄1號","121.430033333333","24.98496","6500100","板橋區"
"220071","283-VK","2017/12/26 19:17:47","新北市板橋區大豐街30號","121.461865","25.001355","6500100","板橋區"
"220094","285-UM","2017/12/26 19:17:40","新北市板橋區光武街110巷46號","121.467128333333","25.030165","6500100","板橋區"
"220053","285-VK","2017/12/26 19:17:34","新北市板橋區永豐街146號","121.478123333333","25.021225","6500100","板橋區"
"220083","286-VK","2017/12/26 19:17:45","新北市板橋區大觀路二段174巷196弄15號","121.443055","25.003665","6500100","板橋區"
"220081","287-VK","2017/12/26 19:17:32","新北市板橋區南雅西路一段82號","121.45337","25.00568","6500100","板橋區"
"220090","288-VK","2017/12/26 19:17:38","新北市板橋區長江路一段106巷13弄35號","121.4614","25.029795","6500100","板橋區"
"220061","295-UM","2017/12/26 19:17:50","新北市板橋區中山路二段318巷20弄34號","121.481181666667","25.0188016666667","6500100","板橋區"
"220084","296-UM","2017/12/26 19:17:40","新北市板橋區溪崑二街66巷6號","121.42761","24.9905566666667","6500100","板橋區"
"220075","297-UM","2017/12/26 19:17:36","新北市板橋區中正路275巷93號","121.451523333333","25.0185716666667","6500100","板橋區"
"220062","303-R5","2017/12/26 19:17:49","新北市板橋區三民路二段居仁巷2弄19號","121.479798333333","25.01288","6500100","板橋區"
"220092","307-R5","2017/12/26 19:17:46","新北市板橋區光武街65號","121.467381666667","25.0259066666667","6500100","板橋區"
"220098","317-R6","2017/12/26 19:17:47","新北市板橋區民有街70號","121.465338333333","25.02669","6500100","板橋區"
"220064","486-VK","2017/12/26 19:17:36","新北市板橋區中山路二段18號","121.472331666667","25.01484","6500100","板橋區"
"220089","487-VK","2017/12/26 19:17:39","新北市板橋區民生路二段250號","121.468256666667","25.023505","6500100","板橋區"
"220088","491-VK","2017/12/26 19:17:40","新北市板橋區雙十路二段126號","121.474151666667","25.02869","6500100","板橋區"
"220035","560-BX","2017/12/26 19:17:50","新北市板橋區中正路326巷13號","121.455218333333","25.0223166666667","6500100","板橋區"
"220103","561-BX","2017/12/26 19:17:45","新北市板橋區介壽街62號","121.469196666667","25.0194933333333","6500100","板橋區"
"220063","609-BX","2017/12/26 19:17:54","新北市板橋區三民路一段140號","121.479151666667","25.02036","6500100","板橋區"
"220091","637-BX","2017/12/26 19:17:46","新北市板橋區萬板路408號","121.478988333333","25.0255266666667","6500100","板橋區"
"220057","686-BX","2017/12/26 19:17:41","新北市板橋區重慶路308巷20號","121.463486666667","24.9975066666667","6500100","板橋區"
"220077","687-BX","2017/12/26 19:17:45","新北市板橋區僑中一街70號","121.447686666667","25.01152","6500100","板橋區"
"220093","689-BX","2017/12/26 19:17:51","新北市板橋區民生路三段97號","121.4668","25.0249233333333","6500100","板橋區"
"220054","741-BX","2017/12/26 19:17:41","新北市板橋區四川路一段185號","121.46064","25.0037483333333","6500100","板橋區"
"220055","827-TW","2017/12/26 19:17:41","新北市板橋區實踐路65巷17號","121.464393333333","25.00653","6500100","板橋區"
"220067","829-TW","2017/12/26 19:17:51","新北市板橋區長安街285號","121.474113333333","25.0117833333333","6500100","板橋區"
"220102","830-TW","2017/12/26 19:17:45","新北市板橋區萬板路562號","121.480938333333","25.0269133333333","6500100","板橋區"
"220074","895-R6","2017/12/26 19:17:46","新北市板橋區中正路自強新村91-1號","121.454848333333","25.0131283333333","6500100","板橋區"
"220073","985-R7","2017/12/26 19:17:43","新北市板橋區新生街64-1號","121.457245","25.02083","6500100","板橋區"
"220097","AAC-210","2017/12/26 19:17:48","新北市板橋區幸福路49號","121.461196666667","25.019945","6500100","板橋區"
"220070","AAC-253","2017/12/26 19:17:36","新北市板橋區忠孝路151號","121.463498333333","25.0024333333333","6500100","板橋區"
