"lineid","car","time","location","longitude","latitude","cityid","cityname"
"234007","695-BX","2017/06/26 10:31:53","新北市永和區福和路1號","121.526608333333","25.0100533333333","6500400","永和區"
"231008","188-VK","2017/06/26 11:09:08","新北市新店區廣興路10號","121.546131666667","24.91233","6500600","新店區"
"235028","005-UY","2017/06/26 11:09:06","新北市中和區員山路36巷16-3號","121.485083333333","24.9913566666667","6500300","中和區"
"227005","282-VK","2017/06/26 11:09:17","新北市雙溪區泰平里泰平54號","121.829806666667","24.9766133333333","6502500","雙溪區"
"252006","073-UM","2017/06/26 10:51:19","新北市三芝區埔坪里埔頭坑41號","121.504301666667","25.26454","6502100","三芝區"
"252006","AAC-283","2017/06/26 00:22:52","新北市三芝區埔坪里埔頭坑41號","121.504508333333","25.264495","6502100","三芝區"
