"lineid","car","time","location","longitude","latitude","cityid","cityname"
"234007","695-BX","2017/06/26 10:31:53","新北市永和區福和路1號","121.526608333333","25.0100533333333","6500400","永和區"
"231008","188-VK","2017/06/26 11:33:08","新北市新店區成功路105號","121.536626666667","24.8945516666667","6500600","新店區"
"235028","005-UY","2017/06/26 11:16:16","新北市中和區員山路36巷16-3號","121.485088333333","24.991335","6500300","中和區"
"227005","282-VK","2017/06/26 11:37:17","新北市雙溪區魚行里丁子蘭坑17號","121.865478333333","25.0173316666667","6502500","雙溪區"
"252006","073-UM","2017/06/26 10:51:19","新北市三芝區埔坪里埔頭坑41號","121.504301666667","25.26454","6502100","三芝區"
"252006","AAC-283","2017/06/26 00:22:52","新北市三芝區埔坪里埔頭坑41號","121.504508333333","25.264495","6502100","三芝區"
