"lineid","car","time","location","longitude","latitude","cityid","cityname"
"234044","148-BY","2017/06/26 13:38:54","新北市永和區秀朗路二段99號","121.523486666667","25.001735","6500400","永和區"
"234012","149-BY","2017/06/26 13:39:01","新北市永和區永平路246號","121.508723333333","25.0110533333333","6500400","永和區"
"234005","207-UY","2017/06/26 13:39:03","新北市永和區中山路一段50號","121.513218333333","25.0105966666667","6500400","永和區"
"234078","298-R6","2017/06/26 13:39:10","新北市永和區國中路104巷8弄11號","121.525136666667","25.0066716666667","6500400","永和區"
"234036","336-UY","2017/06/26 13:39:12","新北市永和區民樂街39巷18弄2號","121.528481666667","24.99956","6500400","永和區"
"234062","337-UY","2017/06/26 13:38:55","新北市永和區秀朗路一段192巷6弄14號","121.519128333333","25.0022883333333","6500400","永和區"
"234084","338-UY","2017/06/26 13:38:55","新北市永和區永元路138號","121.522895","25.0030783333333","6500400","永和區"
"234068","552-UM","2017/06/26 13:38:54","新北市永和區永和路二段234號","121.515735","25.0143333333333","6500400","永和區"
"234052","553-UM","2017/06/26 13:39:05","新北市永和區竹林路39巷20號","121.518808333333","25.0147433333333","6500400","永和區"
"234007","695-BX","2017/06/26 10:31:53","新北市永和區福和路1號","121.526608333333","25.0100533333333","6500400","永和區"
"234028","746-BX","2017/06/26 13:38:59","新北市永和區民生路37巷5號","121.523573333333","24.99804","6500400","永和區"
"234060","AAD-866","2017/06/26 13:39:09","新北市永和區永貞路180號","121.516436666667","25.0043083333333","6500400","永和區"
"234015","845-RS","2017/06/26 13:39:00","新北市永和區忠孝街17-1號","121.514398333333","25.0156316666667","6500400","永和區"
"234040","862-TW","2017/06/26 13:38:56","新北市永和區水源街30巷2號","121.511413333333","25.0046116666667","6500400","永和區"
"234048","863-TW","2017/06/26 13:39:10","新北市永和區保安路29號","121.510028333333","25.0163466666667","6500400","永和區"
"234010","9373-KE","2017/06/26 13:39:11","新北市永和區保福路二段14-1號","121.510956666667","25.0114","6500400","永和區"
"248013","025-BX","2017/06/26 13:38:57","新北市五股區民義路一段107巷23號","121.43183","25.084675","6501500","五股區"
"248015","026-BX","2017/06/26 13:39:01","新北市五股區凌雲路一段149巷13-1號","121.448603333333","25.1008633333333","6501500","五股區"
"248005","077-UY","2017/06/26 13:38:59","新北市五股區中興路一段21號","121.469138333333","25.072295","6501500","五股區"
"248007","095-VK","2017/06/26 13:38:58","新北市五股區中興路一段150巷10號","121.464668333333","25.07434","6501500","五股區"
"248019","225-UY","2017/06/26 13:38:28","新北市五股區孝義路73-1號","121.445406666667","25.1195516666667","6501500","五股區"
"248011","247-BX","2017/06/26 13:39:12","新北市五股區成泰路三段2巷1-10號","121.441238333333","25.0870266666667","6501500","五股區"
"248009","272-BY","2017/06/26 13:38:55","新北市五股區水碓七路168號","121.430781666667","25.0739733333333","6501500","五股區"
"248003","655-BX","2017/06/26 13:39:05","新北市五股區民義路一段283號","121.425843333333","25.09273","6501500","五股區"
"248001","678-BX","2017/06/26 13:39:03","新北市五股區成泰路三段435巷11號","121.449311666667","25.09782","6501500","五股區"
"234022","9380-KE","2017/06/26 13:39:07","新北市永和區竹林路91巷47弄2號","121.521556666667","25.0130883333333","6500400","永和區"
"234076","969-R7","2017/06/26 13:39:12","新北市永和區得和路104巷16號","121.517898333333","24.9994666666667","6500400","永和區"
"234072","AAC-211","2017/06/26 13:38:59","新北市永和區竹林路213巷26號","121.522185","25.00897","6500400","永和區"
"234066","AAC-212","2017/06/26 13:39:08","新北市永和區永貞路408號","121.50896","25.007785","6500400","永和區"
"234001","AAC-295","2017/06/26 13:37:02","新北市永和區秀朗路一段42號","121.514638333333","25.006615","6500400","永和區"
"244001","248-BX","2017/06/26 13:39:05","新北市林口區後坑33號","121.348955","25.12828","6501700","林口區"
"243005","AAD-798","2017/06/26 13:39:05","新北市泰山區明志路三段206巷1號","121.423326666667","25.0379016666667","6501600","泰山區"
"243001","297-R6","2017/06/26 12:39:18","新北市泰山區黎明路31號","121.421806666667","25.0607716666667","6501600","泰山區"
"243007","380-SR","2017/06/26 13:38:42","新北市泰山區犁頭窠3-1號","121.422","25.0603816666667","6501600","泰山區"
"243006","421-VK","2017/06/26 13:38:58","新北市泰山區犁頭窠3-1號","121.422276666667","25.0605433333333","6501600","泰山區"
"243004","646-TV","2017/06/26 13:38:59","新北市泰山區泰林路二段247號","121.431943333333","25.06219","6501600","泰山區"
"243008","680-BX","2017/06/26 13:38:49","新北市泰山區明志路一段453-1號","121.430741666667","25.0563583333333","6501600","泰山區"
"231002","002-UM","2017/06/26 13:39:08","新北市新店區中央三街127號","121.524111666667","24.976835","6500600","新店區"
"231025","0291-UT","2017/06/26 13:38:59","新北市新店區中央六街56號","121.527853333333","24.9757266666667","6500600","新店區"
"231028","046-UY","2017/06/26 13:39:05","新北市新店區安和路二段163號","121.518918333333","24.9743016666667","6500600","新店區"
"231030","047-UY","2017/06/26 13:39:00","新北市新店區安康路一段88號","121.527995","24.9619116666667","6500600","新店區"
"231029","106-UY","2017/06/26 13:39:09","新北市新店區安康路二段310號","121.50576","24.9581133333333","6500600","新店區"
"231018","107-UY","2017/06/26 13:39:00","新北市新店區百忍街5號","121.534876666667","24.9755533333333","6500600","新店區"
"231011","108-UY","2017/06/26 13:39:11","新北市新店區德正街27巷29弄46-1號","121.545756666667","24.9725733333333","6500600","新店區"
"231019","187-VK","2017/06/26 13:38:52","新北市新店區永興路125號","121.544261666667","24.9310466666667","6500600","新店區"
"231026","256-BX","2017/06/26 13:39:02","新北市新店區北新路一段32號","121.54084","24.9658683333333","6500600","新店區"
"231010","278-BY","2017/06/26 13:38:59","新北市新店區中正路307巷17號","121.53585","24.9735566666667","6500600","新店區"
"231014","AAD-862","2017/06/26 13:39:03","新北市新店區竹林路2巷15號","121.550386666667","24.9515216666667","6500600","新店區"
"231027","3712-VJ","2017/06/26 13:38:59","新北市新店區國校路68號","121.538605","24.9531216666667","6500600","新店區"
"231024","3713-VJ","2017/06/26 13:38:53","新北市新店區華興街38巷3號","121.537178333333","24.9691983333333","6500600","新店區"
"231038","4715-K9","2017/06/26 13:37:35","新北市新店區安華路30巷1號","121.519506666667","24.95927","6500600","新店區"
"231036","512-UM","2017/06/26 13:38:59","新北市新店區安祥路147巷39號","121.4766","24.956435","6500600","新店區"
"231023","513-UM","2017/06/26 13:39:00","新北市新店區新店路143號","121.537083333333","24.954825","6500600","新店區"
"231035","515-UM","2017/06/26 13:38:55","新北市新店區安忠路90號","121.511526666667","24.95805","6500600","新店區"
"231003","616-UM","2017/06/26 13:38:59","新北市新店區中正路71號","121.543601666667","24.9697316666667","6500600","新店區"
"231006","617-UM","2017/06/26 13:39:08","新北市新店區光明街1-1號","121.538055","24.959035","6500600","新店區"
"231001","619-UM","2017/06/26 13:39:04","新北市新店區中正路406號","121.534463333333","24.9775533333333","6500600","新店區"
"231034","645-TV","2017/06/26 13:39:01","新北市新店區達觀路8巷2號","121.504073333333","24.9425816666667","6500600","新店區"
"231013","719-UM","2017/06/26 13:38:54","新北市新店區中正路454-5號","121.53457","24.97907","6500600","新店區"
"231031","720-UM","2017/06/26 13:38:53","新北市新店區莒光路40號","121.523371666667","24.9587466666667","6500600","新店區"
"231005","897-TW","2017/06/26 13:39:02","新北市新店區寶中路72號","121.547885","24.9806183333333","6500600","新店區"
"231004","899-TW","2017/06/26 13:38:53","新北市新店區北新路二段18號","121.542768333333","24.9712566666667","6500600","新店區"
"231037","AKT-0513","2017/06/26 13:39:10","新北市新店區薏仁坑路8-2號","121.499356666667","24.9588466666667","6500600","新店區"
"235030","003-UY","2017/06/26 13:39:08","新北市中和區水源路34巷2號","121.504701666667","25.003535","6500300","中和區"
"235028","005-UY","2017/06/26 13:38:54","新北市中和區連城路89巷7號","121.497166666667","24.99932","6500300","中和區"
"235027","006-UY","2017/06/26 13:39:03","新北市中和區連城路347巷4弄2號","121.488206666667","24.99569","6500300","中和區"
"235026","031-BX","2017/06/26 13:39:07","新北市中和區景平路677巷5號","121.496185","25.0026933333333","6500300","中和區"
"235020","096-UM","2017/06/26 13:38:57","新北市中和區員山路466巷20號","121.481051666667","25.0065116666667","6500300","中和區"
"235003","097-UM","2017/06/26 13:39:06","新北市中和區景平路278巷14弄1號","121.513996666667","24.9930316666667","6500300","中和區"
"235004","150-BY","2017/06/26 13:39:00","新北市中和區安平路59號","121.50955","24.9951216666667","6500300","中和區"
"235022","151-BY","2017/06/26 13:39:01","新北市中和區員山路37-8號","121.482093333333","24.9899816666667","6500300","中和區"
"235019","183-VK","2017/06/26 13:39:03","新北市中和區莒光路84巷21號","121.47158","25.0020616666667","6500300","中和區"
"235002","185-VK","2017/06/26 13:39:04","新北市中和區秀朗路三段128巷17弄43號","121.522873333333","24.9931533333333","6500300","中和區"
"235013","186-VK","2017/06/26 13:39:09","新北市中和區景安路179號","121.505155","24.9941533333333","6500300","中和區"
"235031","255-BX","2017/06/26 13:39:02","新北市中和區新生街220巷13號","121.482916666667","24.9985066666667","6500300","中和區"
"235008","293-VK","2017/06/26 13:38:57","新北市中和區復興路301巷2弄1號","121.50147","24.98989","6500300","中和區"
"235036","301-VK","2017/06/26 13:39:02","新北市中和區連城路185號","121.495118333333","24.998175","6500300","中和區"
"235007","352-BY","2017/06/26 13:39:07","新北市中和區景平路171號","121.512195","24.9922883333333","6500300","中和區"
"235015","376-QA","2017/06/26 13:38:55","新北市中和區華新街216號","121.506438333333","24.9817733333333","6500300","中和區"
"235032","377-QA","2017/06/26 13:39:06","新北市中和區中正路273-3號","121.495648333333","24.9934433333333","6500300","中和區"
"235025","378-QA","2017/06/26 13:38:55","新北市中和區民享街92巷18號","121.474318333333","24.9997766666667","6500300","中和區"
"235014","4979-A6","2017/06/26 13:39:01","新北市中和區景新街496巷30弄11號","121.513088333333","24.98551","6500300","中和區"
"235033","4980-A6","2017/06/26 13:38:51","新北市中和區連城路65巷3號","121.497805","25.001095","6500300","中和區"
"235006","551-UM","2017/06/26 13:38:59","新北市中和區成功路107巷2號","121.526271666667","24.99124","6500300","中和區"
"235070","558-UM","2017/06/26 13:38:56","新北市中和區景平路421號","121.501776666667","24.9952516666667","6500300","中和區"
"235009","565-BX","2017/06/26 13:38:53","新北市中和區南山路236巷24弄23號","121.504843333333","24.9888833333333","6500300","中和區"
"235018","640-BX","2017/06/26 13:38:58","新北市中和區民享街93巷14號","121.475235","25.0009533333333","6500300","中和區"
"235024","647-TV","2017/06/26 13:39:07","新北市中和區中山路三段1號","121.479991666667","25.0057566666667","6500300","中和區"
"235011","732-UM","2017/06/26 13:38:56","新北市中和區南山路320巷10弄21號","121.506771666667","24.9867283333333","6500300","中和區"
"235010","733-UM","2017/06/26 13:39:04","新北市中和區南山路421巷1弄39號","121.507058333333","24.9903083333333","6500300","中和區"
"235035","783-BX","2017/06/26 13:38:53","新北市中和區環河西路三段123號","121.488973333333","25.01081","6500300","中和區"
"235026","800-TS","2017/06/26 12:27:01","新北市中和區員山路36巷16-3號","121.485045","24.9913366666667","6500300","中和區"
"235021","801-TS","2017/06/26 13:39:00","新北市中和區民安街41號","121.479966666667","25.0002583333333","6500300","中和區"
"235005","802-TS","2017/06/26 13:39:11","新北市永和區中和路503號","121.510691666667","25.00231","6500300","中和區"
"235016","805-TS","2017/06/26 13:38:59","新北市中和區興南路三段20巷4號","121.497131666667","24.97955","6500300","中和區"
"235012","896-TW","2017/06/26 13:39:09","新北市中和區中正路83號","121.500671666667","24.993485","6500300","中和區"
"235017","900-TW","2017/06/26 13:38:52","新北市中和區莒光路211-39號","121.470348333333","24.9931783333333","6500300","中和區"
"235001","AAC-213","2017/06/26 13:39:06","新北市中和區景平路151巷59-1號","121.514958333333","24.990035","6500300","中和區"
"235023","AAC-215","2017/06/26 13:38:57","新北市中和區員山路36巷16-3號","121.485028333333","24.9912883333333","6500300","中和區"
"220016","013-TV","2017/06/26 13:38:52","新北市板橋區民生路二段36-1號","121.472668333333","25.0166433333333","6500100","板橋區"
"220013","072-UY","2017/06/26 13:39:10","新北市板橋區民生路二段15-1號","121.472705","25.016445","6500100","板橋區"
"220034","073-UY","2017/06/26 13:39:06","新北市板橋區南雅西路二段175巷1號","121.451768333333","25.0125116666667","6500100","板橋區"
"247007","339-TH","2017/06/26 13:39:07","新北市蘆洲區民族路422巷82弄36號","121.474241666667","25.097395","6501400","蘆洲區"
"247023","337-TH","2017/06/26 13:38:58","新北市蘆洲區三民路378號","121.464096666667","25.0917016666667","6501400","蘆洲區"
"247013","057-VK","2017/06/26 13:38:56","新北市蘆洲區中正路507號","121.461053333333","25.097685","6501400","蘆洲區"
"247003","056-VK","2017/06/26 13:38:55","新北市五股區中興路二段182巷15弄13號","121.456886666667","25.0817816666667","6501400","蘆洲區"
"247023","053-VK","2017/06/26 13:38:22","新北市蘆洲區三民路615號","121.460058333333","25.0945616666667","6501400","蘆洲區"
"247015","001-UY","2017/06/26 13:39:01","新北市五股區凌雲路一段21號","121.45433","25.0993466666667","6501400","蘆洲區"
"208004","AAC-292","2017/06/26 13:39:04","新北市金山區山城路10巷10號","121.593583333333","25.2020633333333","6502700","金山區"
"207002","749-BX","2017/06/26 13:38:50","新北市萬里區崁腳里崁腳路166號","121.645173333333","25.1560266666667","6502800","萬里區"
"207001","463-BY","2017/06/26 13:39:06","新北市萬里區大鵬里萬里加投46號","121.641948333333","25.2108983333333","6502800","萬里區"
"252005","AAC-283","2017/06/26 00:22:52","新北市三芝區埔坪里埔頭坑41號","121.504508333333","25.264495","6502100","三芝區"
"236040","107-UM","2017/06/26 13:39:06","新北市土城區城林路6巷80號","121.438421666667","24.9798033333333","6501300","土城區"
"236074","166-UM","2017/06/26 13:39:09","新北市土城區中華路二段2號","121.439338333333","24.9796166666667","6501300","土城區"
"236028","253-BX","2017/06/26 13:38:56","新北市土城區城林路6巷80號","121.438371666667","24.9797483333333","6501300","土城區"
"236012","270-VK","2017/06/26 13:39:06","新北市土城區城林路6巷80號","121.438536666667","24.97976","6501300","土城區"
"236005","498-BY","2017/06/26 13:39:10","新北市土城區慶祥街38號","121.437203333333","24.9747466666667","6501300","土城區"
"236024","913-UM","2017/06/26 13:38:59","新北市土城區城林路6巷80號","121.438475","24.9796883333333","6501300","土城區"
"221038","277-VK","2017/06/26 00:20:35","新北市汐止區汐萬路一段256巷3號","121.65254","25.0745833333333","6501100","汐止區"
"221032","280-BY","2017/06/26 13:38:55","新北市汐止區仁愛路1號","121.659013333333","25.0643016666667","6501100","汐止區"
"221002","707-TV","2017/06/26 13:38:52","新北市汐止區康寧街83巷43號","121.620461666667","25.0673083333333","6501100","汐止區"
"221002","753-BX","2017/06/26 13:39:09","新北市汐止區福德二路91巷2號","121.632678333333","25.0661","6501100","汐止區"
"220027","145-BY","2017/06/26 13:38:53","新北市板橋區民權路117號","121.458575","25.01325","6500100","板橋區"
"220030","610-BX","2017/06/26 13:39:02","新北市板橋區華東街1-9號","121.448283333333","24.99488","6500100","板橋區"
"220004","276-BY","2017/06/26 13:39:11","新北市板橋區四川路一段467號","121.457378333333","24.99792","6500100","板橋區"
"220020","277-BY","2017/06/26 13:39:00","新北市板橋區華東街1-10號","121.448275","24.9950566666667","6500100","板橋區"
"220012","280-UM","2017/06/26 13:38:57","新北市板橋區民生路二段17號","121.472618333333","25.016445","6500100","板橋區"
"220043","283-UM","2017/06/26 13:39:00","新北市板橋區民生路二段188號","121.470151666667","25.0202633333333","6500100","板橋區"
"220019","283-VK","2017/06/26 13:38:59","新北市板橋區民生路二段15-1號","121.472686666667","25.0163916666667","6500100","板橋區"
"220001","285-VK","2017/06/26 13:39:01","新北市板橋區民生路二段22號","121.472685","25.0165833333333","6500100","板橋區"
"220031","286-VK","2017/06/26 13:39:07","新北市板橋區華東街1-9號","121.448278333333","24.9948616666667","6500100","板橋區"
"220039","288-VK","2017/06/26 13:39:13","新北市板橋區民生路二段120號","121.470373333333","25.0198116666667","6500100","板橋區"
"220009","293-UM","2017/06/26 13:38:57","新北市板橋區民生路二段22號","121.472793333333","25.0165533333333","6500100","板橋區"
"220032","296-UM","2017/06/26 13:39:07","新北市板橋區華東街1-9號","121.448138333333","24.9949333333333","6500100","板橋區"
"220023","297-UM","2017/06/26 13:38:58","新北市板橋區華東街1-9號","121.448176666667","24.9949616666667","6500100","板橋區"
"220010","305-R5","2017/06/26 13:18:30","新北市板橋區民生路二段22號","121.472773333333","25.0166","6500100","板橋區"
"220104","560-BX","2017/06/26 13:38:51","新北市板橋區南雅西路二段2-1號","121.453308333333","25.0088566666667","6500100","板橋區"
"220011","609-BX","2017/06/26 13:39:05","新北市板橋區民生路二段17號","121.472645","25.0164133333333","6500100","板橋區"
"220005","686-BX","2017/06/26 13:38:56","新北市板橋區民生路二段36-1號","121.472598333333","25.0168","6500100","板橋區"
"220025","687-BX","2017/06/26 13:39:03","新北市板橋區大觀路三段229號","121.430751666667","24.9923066666667","6500100","板橋區"
"220002","741-BX","2017/06/26 13:39:09","新北市板橋區民生路二段15-1號","121.472726666667","25.0164783333333","6500100","板橋區"
"220022","895-R6","2017/06/26 13:39:10","新北市板橋區館前西路127號","121.456571666667","25.0075233333333","6500100","板橋區"
"220021","985-R7","2017/06/26 13:39:03","新北市板橋區華東街1-10號","121.448356666667","24.9949","6500100","板橋區"
