"lineid","car","time","location","longitude","latitude","cityid","cityname"
"234044","148-BY","2017/06/26 13:49:08","","121.526278333333","25.0031916666667","6500400","永和區"
"234012","149-BY","2017/06/26 13:49:05","新北市永和區仁愛路200號","121.509478333333","25.0123566666667","6500400","永和區"
"234005","207-UY","2017/06/26 13:49:03","新北市永和區永和路一段32號","121.513091666667","25.00498","6500400","永和區"
"234078","298-R6","2017/06/26 13:48:48","新北市永和區永亨路98號","121.52306","25.004825","6500400","永和區"
"234036","336-UY","2017/06/26 13:48:52","新北市永和區成功路二段147號","121.52668","24.9977316666667","6500400","永和區"
"234062","337-UY","2017/06/26 13:48:55","新北市永和區中正路368巷53號","121.51918","25.00072","6500400","永和區"
"234084","338-UY","2017/06/26 13:48:55","新北市永和區成功路一段18巷20號","121.526161666667","25.0051766666667","6500400","永和區"
"234068","552-UM","2017/06/26 13:48:54","新北市永和區竹林路189號","121.520555","25.009445","6500400","永和區"
"234052","553-UM","2017/06/26 13:49:06","新北市永和區竹林路39巷28弄11號","121.519523333333","25.0144816666667","6500400","永和區"
"234007","695-BX","2017/06/26 10:31:53","新北市永和區福和路1號","121.526608333333","25.0100533333333","6500400","永和區"
"234028","746-BX","2017/06/26 13:48:59","新北市永和區民生路67巷35號","121.524668333333","24.9973983333333","6500400","永和區"
"234060","AAD-866","2017/06/26 13:48:52","新北市永和區中正路94號","121.514161666667","24.995445","6500400","永和區"
"234015","845-RS","2017/06/26 13:49:00","新北市永和區文化路144巷19弄20號","121.512213333333","25.01679","6500400","永和區"
"234040","862-TW","2017/06/26 13:48:56","新北市永和區中和路305巷16弄1號","121.507433333333","25.001385","6500400","永和區"
"234048","863-TW","2017/06/26 13:48:50","新北市永和區保福路二段163巷17號","121.508965","25.014545","6500400","永和區"
"234010","9373-KE","2017/06/26 13:49:11","","121.508185","25.01456","6500400","永和區"
"248015","026-BX","2017/06/26 13:49:01","新北市五股區凌雲路一段133巷22號","121.449181666667","25.1015666666667","6501500","五股區"
"248005","077-UY","2017/06/26 13:49:00","新北市五股區四維路114號","121.467826666667","25.0741133333333","6501500","五股區"
"248007","095-VK","2017/06/26 13:48:58","新北市五股區中興路一段151巷23號","121.465213333333","25.07236","6501500","五股區"
"248019","225-UY","2017/06/26 13:48:48","新北市五股區凌雲路三段86號","121.430375","25.1183316666667","6501500","五股區"
"248011","247-BX","2017/06/26 13:48:52","新北市五股區成泰路二段195巷1號","121.440405","25.087475","6501500","五股區"
"248009","272-BY","2017/06/26 13:48:55","新北市五股區水碓九路20號","121.42786","25.07172","6501500","五股區"
"248003","655-BX","2017/06/26 13:49:05","新北市五股區民義路二段52-22號","121.40952","25.1052466666667","6501500","五股區"
"248001","678-BX","2017/06/26 13:49:03","","121.451415","25.100405","6501500","五股區"
"234022","9380-KE","2017/06/26 13:48:46","新北市永和區中正路702巷20弄1號","121.51651","25.0105516666667","6500400","永和區"
"234076","969-R7","2017/06/26 13:49:12","","121.51878","24.99955","6500400","永和區"
"234072","AAC-211","2017/06/26 13:49:03","新北市永和區豫溪街162巷2號","121.523566666667","25.00957","6500400","永和區"
"234066","AAC-212","2017/06/26 13:49:08","","121.510213333333","25.0084533333333","6500400","永和區"
"234001","AAC-295","2017/06/26 13:46:22","新北市永和區永和路一段17號","121.512941666667","25.0055866666667","6500400","永和區"
"244001","248-BX","2017/06/26 13:48:45","新北市林口區汕頭18號","121.363508333333","25.1344283333333","6501700","林口區"
"243005","AAD-798","2017/06/26 13:49:05","新北市泰山區明志路三段206巷1號","121.423328333333","25.037905","6501600","泰山區"
"243001","297-R6","2017/06/26 13:48:51","新北市泰山區黎明路25號","121.421961666667","25.0609183333333","6501600","泰山區"
"243007","380-SR","2017/06/26 13:49:03","新北市泰山區美寧街54號","121.430516666667","25.0645066666667","6501600","泰山區"
"243006","421-VK","2017/06/26 13:48:58","新北市泰山區黎明路25號","121.422291666667","25.0607833333333","6501600","泰山區"
"243004","646-TV","2017/06/26 13:48:59","新北市泰山區福興三街13號","121.434368333333","25.0577833333333","6501600","泰山區"
"243008","680-BX","2017/06/26 13:48:49","新北市泰山區明志路二段137號","121.427711666667","25.05068","6501600","泰山區"
"231002","002-UM","2017/06/26 13:49:08","","121.523608333333","24.97905","6500600","新店區"
"231025","0291-UT","2017/06/26 13:47:19","新北市新店區中央六街56號","121.527861666667","24.97571","6500600","新店區"
"231028","046-UY","2017/06/26 13:49:05","新北市新店區安和路三段9巷1號","121.518048333333","24.98065","6500600","新店區"
"231030","047-UY","2017/06/26 13:49:00","新北市新店區安康路一段202號","121.524266666667","24.9634433333333","6500600","新店區"
"231029","106-UY","2017/06/26 13:48:49","新北市新店區安康路二段156號","121.512366666667","24.9608766666667","6500600","新店區"
"231018","107-UY","2017/06/26 13:49:00","新北市新店區中正路382巷36號","121.535676666667","24.9783266666667","6500600","新店區"
"231011","108-UY","2017/06/26 13:48:54","新北市新店區德正街27巷26號","121.545251666667","24.9710116666667","6500600","新店區"
"231019","187-VK","2017/06/26 13:48:52","新北市新店區湖子內路22號","121.542338333333","24.93081","6500600","新店區"
"231026","256-BX","2017/06/26 13:49:02","新北市新店區三民路84巷12號","121.534916666667","24.9731466666667","6500600","新店區"
"231010","278-BY","2017/06/26 13:48:59","新北市新店區平等街61號","121.536085","24.9726183333333","6500600","新店區"
"231014","AAD-862","2017/06/26 13:49:05","新北市新店區竹林路83號","121.554066666667","24.95085","6500600","新店區"
"231027","3712-VJ","2017/06/26 13:48:59","新北市新店區北宜路一段105巷42號","121.540618333333","24.95579","6500600","新店區"
"231024","3713-VJ","2017/06/26 13:48:54","新北市新店區新生街13巷40號","121.538798333333","24.966875","6500600","新店區"
"231038","4715-K9","2017/06/26 13:48:59","新北市新店區安華路30巷1號","121.519611666667","24.9594733333333","6500600","新店區"
"231036","512-UM","2017/06/26 13:48:59","新北市新店區安祥路110巷2號","121.474736666667","24.9569633333333","6500600","新店區"
"231023","513-UM","2017/06/26 13:49:00","新北市新店區國校路65巷1號","121.538341666667","24.95405","6500600","新店區"
"231035","515-UM","2017/06/26 13:48:55","新北市新店區安忠路57巷7弄1號","121.513238333333","24.95865","6500600","新店區"
"231003","616-UM","2017/06/26 13:48:59","新北市新店區中興路一段264號","121.544731666667","24.9671966666667","6500600","新店區"
"231006","617-UM","2017/06/26 13:49:03","新北市新店區北宜路一段196-1號","121.543195","24.9529483333333","6500600","新店區"
"231001","619-UM","2017/06/26 13:49:04","新北市新店區三民路86號","121.53438","24.97271","6500600","新店區"
"231034","645-TV","2017/06/26 13:49:01","新北市新店區達觀路16號","121.503101666667","24.9408283333333","6500600","新店區"
"231013","719-UM","2017/06/26 13:48:54","新北市新店區二十張路25巷16號","121.539225","24.9820283333333","6500600","新店區"
"231031","720-UM","2017/06/26 13:48:53","新北市新店區莒光路44巷21弄11-3號","121.518471666667","24.9521166666667","6500600","新店區"
"231005","897-TW","2017/06/26 13:48:59","新北市新店區寶中路123號","121.549663333333","24.9794016666667","6500600","新店區"
"231004","899-TW","2017/06/26 13:48:53","新北市新店區中興路三段1-20號","121.546635","24.9759266666667","6500600","新店區"
"231037","AKT-0513","2017/06/26 13:48:50","新北市新店區安康路三段359巷12弄27號","121.483951666667","24.9493133333333","6500600","新店區"
"235030","003-UY","2017/06/26 13:49:08","","121.504073333333","25.0031566666667","6500300","中和區"
"235028","005-UY","2017/06/26 13:48:54","新北市中和區連城路89巷1號","121.496701666667","25.0000016666667","6500300","中和區"
"235027","006-UY","2017/06/26 13:49:03","新北市中和區連城路317-1號","121.489173333333","24.996235","6500300","中和區"
"235026","031-BX","2017/06/26 13:49:07","","121.49509","25.0041133333333","6500300","中和區"
"235020","096-UM","2017/06/26 13:48:57","新北市中和區中正路1180號","121.481225","25.0098216666667","6500300","中和區"
"235003","097-UM","2017/06/26 13:49:06","","121.5168","24.9932383333333","6500300","中和區"
"235004","150-BY","2017/06/26 13:49:00","新北市中和區宜安路119巷1號","121.509953333333","24.9977516666667","6500300","中和區"
"235022","151-BY","2017/06/26 13:49:01","新北市中和區連城路534巷10號","121.475181666667","24.9921183333333","6500300","中和區"
"235019","183-VK","2017/06/26 13:49:02","新北市中和區民德路25巷18號","121.469641666667","25.00297","6500300","中和區"
"235002","185-VK","2017/06/26 13:49:04","新北市中和區大勇街60巷9號","121.518418333333","24.99477","6500300","中和區"
"235013","186-VK","2017/06/26 13:48:59","新北市中和區景安路132巷6號","121.504646666667","24.9943833333333","6500300","中和區"
"235031","255-BX","2017/06/26 13:49:02","新北市中和區新生街242巷1弄1號","121.48335","24.9977366666667","6500300","中和區"
"235008","293-VK","2017/06/26 13:48:57","新北市中和區復興路280巷1弄2號","121.502251666667","24.99069","6500300","中和區"
"235036","301-VK","2017/06/26 13:49:02","新北市中和區中山路二段172號","121.501126666667","25.0027566666667","6500300","中和區"
"235007","352-BY","2017/06/26 13:49:07","","121.524185","24.990315","6500300","中和區"
"235015","376-QA","2017/06/26 13:48:55","新北市中和區工專路141號","121.50849","24.979","6500300","中和區"
"235032","377-QA","2017/06/26 13:49:06","新北市中和區中正路167巷46號","121.498443333333","24.99266","6500300","中和區"
"235025","378-QA","2017/06/26 13:48:55","新北市中和區民享街54巷16弄4號","121.473316666667","25.0026066666667","6500300","中和區"
"235014","4979-A6","2017/06/26 13:49:01","新北市中和區忠孝街62巷2號","121.512065","24.9837766666667","6500300","中和區"
"235033","4980-A6","2017/06/26 13:48:51","新北市中和區南山路52巷21號","121.501175","24.9972383333333","6500300","中和區"
"235006","551-UM","2017/06/26 13:48:59","新北市中和區秀朗路三段128巷31號","121.524676666667","24.9943","6500300","中和區"
"235070","558-UM","2017/06/26 13:48:56","新北市中和區安和路159號","121.506163333333","24.997295","6500300","中和區"
"235009","565-BX","2017/06/26 13:48:53","新北市中和區南山路236巷57號","121.504575","24.988105","6500300","中和區"
"235018","640-BX","2017/06/26 13:48:58","新北市中和區民享街57號","121.474108333333","25.0024783333333","6500300","中和區"
"235024","647-TV","2017/06/26 13:49:07","","121.479378333333","25.0060666666667","6500300","中和區"
"235011","732-UM","2017/06/26 13:48:56","新北市中和區興南路二段34巷56弄1號","121.504858333333","24.9850516666667","6500300","中和區"
"235010","733-UM","2017/06/26 13:49:04","新北市中和區忠孝街103-1號","121.511753333333","24.98618","6500300","中和區"
"235035","783-BX","2017/06/26 13:48:53","新北市中和區中山路二段482巷26號","121.49044","25.0063716666667","6500300","中和區"
"235026","800-TS","2017/06/26 12:27:01","新北市中和區員山路36巷16-3號","121.485045","24.9913366666667","6500300","中和區"
"235021","801-TS","2017/06/26 13:49:00","新北市中和區員山路327巷21號","121.480581666667","25.0016483333333","6500300","中和區"
"235005","802-TS","2017/06/26 13:48:51","新北市永和區中和路573號","121.511738333333","25.0035116666667","6500300","中和區"
"235016","805-TS","2017/06/26 13:48:59","新北市中和區興南路二段399巷2-1號","121.498551666667","24.9795116666667","6500300","中和區"
"235012","896-TW","2017/06/26 13:48:49","新北市中和區南山路417號","121.507215","24.9895516666667","6500300","中和區"
"235017","900-TW","2017/06/26 13:48:53","新北市中和區華順街73號","121.465346666667","24.9980733333333","6500300","中和區"
"235001","AAC-213","2017/06/26 13:48:46","新北市中和區景平路111巷9弄2號","121.516625","24.9911016666667","6500300","中和區"
"235023","AAC-215","2017/06/26 13:48:57","新北市中和區圓通路385號","121.490181666667","24.9892566666667","6500300","中和區"
"220016","013-TV","2017/06/26 13:48:52","新北市板橋區民生路二段36-1號","121.472551666667","25.01662","6500100","板橋區"
"220013","072-UY","2017/06/26 13:48:50","新北市板橋區民生路二段22號","121.472681666667","25.0165433333333","6500100","板橋區"
"220034","073-UY","2017/06/26 13:49:05","","121.452841666667","25.014125","6500100","板橋區"
"220105","075-UY","2017/06/26 13:48:46","新北市板橋區民生路二段161巷9號","121.470341666667","25.0195683333333","6500100","板橋區"
"247007","339-TH","2017/06/26 13:49:07","","121.482171666667","25.0832933333333","6501400","蘆洲區"
"247023","337-TH","2017/06/26 13:48:58","新北市蘆洲區得勝街111號","121.472693333333","25.0834416666667","6501400","蘆洲區"
"247005","335-TH","2017/06/26 13:49:04","","121.46928","25.079","6501400","蘆洲區"
"247013","057-VK","2017/06/26 13:48:56","新北市蘆洲區中正路102號","121.46975","25.084415","6501400","蘆洲區"
"247003","056-VK","2017/06/26 13:48:55","新北市蘆洲區中原路23號","121.46053","25.0827433333333","6501400","蘆洲區"
"247023","053-VK","2017/06/26 13:47:42","新北市蘆洲區光復路100巷2號","121.465158333333","25.0856066666667","6501400","蘆洲區"
"247015","001-UY","2017/06/26 13:49:01","新北市蘆洲區光華路29號","121.469203333333","25.0831516666667","6501400","蘆洲區"
"208004","AAC-292","2017/06/26 13:49:04","","121.585065","25.18632","6502700","金山區"
"207002","749-BX","2017/06/26 13:48:50","新北市萬里區崁腳里崁腳路166號","121.645145","25.1560083333333","6502800","萬里區"
"207001","463-BY","2017/06/26 13:48:58","新北市萬里區磺潭里公館崙58號","121.628668333333","25.2056716666667","6502800","萬里區"
"252005","AAC-283","2017/06/26 00:22:52","新北市三芝區埔坪里埔頭坑41號","121.504508333333","25.264495","6502100","三芝區"
"236064","105-UM","2017/06/26 13:49:01","新北市土城區城林路6巷80號","121.438305","24.9796933333333","6501300","土城區"
"236040","107-UM","2017/06/26 13:49:06","新北市土城區中央路一段264-2號","121.443715","24.983735","6501300","土城區"
"236074","166-UM","2017/06/26 13:48:52","新北市土城區中央路二段237號","121.44027","24.9721633333333","6501300","土城區"
"236028","253-BX","2017/06/26 13:48:56","新北市土城區城林路6巷80號","121.438371666667","24.9797483333333","6501300","土城區"
"236024","269-VK","2017/06/26 13:49:02","","121.43816","24.9743133333333","6501300","土城區"
"236012","270-VK","2017/06/26 13:49:06","新北市土城區福仁街29號","121.440141666667","24.9757783333333","6501300","土城區"
"236016","401-BY","2017/06/26 13:48:51","新北市土城區城林路6巷80號","121.438573333333","24.9797366666667","6501300","土城區"
"236005","498-BY","2017/06/26 13:48:50","新北市土城區中華路一段301號","121.439943333333","24.9792333333333","6501300","土城區"
"236056","912-UM","2017/06/26 13:48:45","新北市土城區城林路6巷80號","121.438411666667","24.97975","6501300","土城區"
"236024","913-UM","2017/06/26 13:48:59","新北市土城區城林路6巷80號","121.438548333333","24.9797233333333","6501300","土城區"
"236052","AAC-216","2017/06/26 13:48:52","新北市土城區城林路6巷80號","121.438326666667","24.9797366666667","6501300","土城區"
"221038","277-VK","2017/06/26 00:20:35","新北市汐止區汐萬路一段256巷3號","121.65254","25.0745833333333","6501100","汐止區"
"221002","707-TV","2017/06/26 13:48:52","新北市汐止區康寧街61巷50弄8號","121.620453333333","25.0673883333333","6501100","汐止區"
"221002","753-BX","2017/06/26 13:48:50","新北市汐止區工建路202號","121.636043333333","25.06323","6501100","汐止區"
"220027","145-BY","2017/06/26 13:48:53","新北市板橋區中正路79號","121.45639","25.014055","6500100","板橋區"
"220030","610-BX","2017/06/26 13:49:02","新北市板橋區篤行路二段150號","121.42961","24.988145","6500100","板橋區"
"220050","245-BX","2017/06/26 02:45:39","新北市板橋區民生路二段161巷1號","121.470061666667","25.0198466666667","6500100","板橋區"
"220017","258-TC","2017/06/26 13:48:52","新北市板橋區民生路二段15-1號","121.472738333333","25.0164616666667","6500100","板橋區"
"220004","276-BY","2017/06/26 13:49:11","","121.451536666667","24.9943283333333","6500100","板橋區"
"220020","277-BY","2017/06/26 13:49:00","新北市板橋區金門街31巷42號","121.434093333333","24.9935516666667","6500100","板橋區"
"220012","280-UM","2017/06/26 13:48:57","新北市板橋區民生路二段36-1號","121.472618333333","25.01659","6500100","板橋區"
"220043","283-UM","2017/06/26 13:49:00","新北市板橋區民生路二段120號","121.470301666667","25.0199466666667","6500100","板橋區"
"220019","283-VK","2017/06/26 13:48:59","新北市板橋區民生路二段17號","121.472588333333","25.0164883333333","6500100","板橋區"
"220001","285-VK","2017/06/26 13:49:01","新北市板橋區民生路二段36-1號","121.472561666667","25.0166816666667","6500100","板橋區"
"220031","286-VK","2017/06/26 13:48:47","新北市板橋區大觀路二段22號","121.446598333333","25.00327","6500100","板橋區"
"220029","287-VK","2017/06/26 13:48:51","新北市板橋區大觀路一段28巷106-2號","121.450611666667","25.0110383333333","6500100","板橋區"
"220039","288-VK","2017/06/26 13:48:52","新北市板橋區民生路二段120號","121.470423333333","25.0197283333333","6500100","板橋區"
"220009","293-UM","2017/06/26 13:48:57","新北市板橋區民生路二段36-1號","121.472451666667","25.01671","6500100","板橋區"
"220032","296-UM","2017/06/26 13:49:02","新北市板橋區大觀路二段148巷49號","121.441736666667","25.0010183333333","6500100","板橋區"
"220023","297-UM","2017/06/26 13:48:58","新北市板橋區大觀路一段28巷106-3號","121.451391666667","25.0108066666667","6500100","板橋區"
"220010","305-R5","2017/06/26 13:18:30","新北市板橋區民生路二段22號","121.472773333333","25.0166","6500100","板橋區"
"220041","307-R5","2017/06/26 13:48:53","新北市板橋區民生路二段120號","121.470425","25.0195683333333","6500100","板橋區"
"220047","317-R6","2017/06/26 13:48:57","新北市板橋區民生路二段120號","121.470435","25.0198333333333","6500100","板橋區"
"220038","487-VK","2017/06/26 13:48:50","新北市板橋區民生路二段120號","121.470496666667","25.0196716666667","6500100","板橋區"
"220037","491-VK","2017/06/26 13:48:40","新北市板橋區民生路二段120號","121.47054","25.019655","6500100","板橋區"
"220104","560-BX","2017/06/26 13:48:51","新北市板橋區中正路275巷77號","121.452363333333","25.0180683333333","6500100","板橋區"
"220052","561-BX","2017/06/26 13:48:50","新北市板橋區民生路二段120號","121.470421666667","25.0198916666667","6500100","板橋區"
"220011","609-BX","2017/06/26 13:49:05","新北市板橋區民生路二段36-1號","121.472631666667","25.0165583333333","6500100","板橋區"
"220040","637-BX","2017/06/26 13:48:52","新北市板橋區民生路二段161巷1號","121.470218333333","25.020075","6500100","板橋區"
"220005","686-BX","2017/06/26 13:48:56","新北市板橋區民生路二段36-1號","121.472618333333","25.0165816666667","6500100","板橋區"
"220025","687-BX","2017/06/26 13:49:03","新北市板橋區大觀路三段133巷19號","121.43277","24.9943166666667","6500100","板橋區"
"220042","689-BX","2017/06/26 13:48:52","新北市板橋區民生路二段161巷3號","121.470143333333","25.0197816666667","6500100","板橋區"
"220002","741-BX","2017/06/26 13:49:09","","121.472638333333","25.0165183333333","6500100","板橋區"
"220003","827-TW","2017/06/26 13:48:49","新北市板橋區民生路二段36-1號","121.472556666667","25.0166266666667","6500100","板橋區"
"220014","829-TW","2017/06/26 13:48:58","新北市板橋區民生路二段15-1號","121.47273","25.01646","6500100","板橋區"
"220051","830-TW","2017/06/26 01:01:03","新北市板橋區民生路二段161巷7號","121.470175","25.01965","6500100","板橋區"
"220045","831-TW","2017/06/26 01:36:25","新北市板橋區民生路二段161巷1號","121.47013","25.0200683333333","6500100","板橋區"
"220022","895-R6","2017/06/26 13:49:00","新北市板橋區館前西路118號","121.456863333333","25.007655","6500100","板橋區"
"220021","985-R7","2017/06/26 13:48:03","新北市板橋區華興街91巷4號","121.456508333333","25.0051116666667","6500100","板橋區"
"220018","AAC-253","2017/06/26 13:49:00","新北市板橋區民生路二段36-1號","121.47259","25.016665","6500100","板橋區"
