"lineid","car","time","location","longitude","latitude","cityid","cityname"
"234044","148-BY","2017/06/26 13:58:54","新北市永和區永利路222號","121.523548333333","25.0025266666667","6500400","永和區"
"234012","149-BY","2017/06/26 13:58:54","新北市永和區保生路55號","121.504711666667","25.01058","6500400","永和區"
"234005","207-UY","2017/06/26 13:59:03","新北市中和區中和路328號","121.509955","25.001075","6500400","永和區"
"234078","298-R6","2017/06/26 13:59:08","新北市永和區林森路112巷9弄1號","121.522295","25.0042766666667","6500400","永和區"
"234036","336-UY","2017/06/26 13:59:12","新北市永和區成功路二段74號","121.526626666667","24.9992866666667","6500400","永和區"
"234062","337-UY","2017/06/26 13:59:05","新北市永和區中正路412巷20弄21號","121.518933333333","25.0015033333333","6500400","永和區"
"234084","338-UY","2017/06/26 13:58:55","新北市永和區永亨路130號","121.5246","25.0039666666667","6500400","永和區"
"234068","552-UM","2017/06/26 13:59:02","新北市永和區大新街109巷4號","121.518456666667","25.008015","6500400","永和區"
"234052","553-UM","2017/06/26 13:59:06","新北市永和區竹林路37號","121.51787","25.0142116666667","6500400","永和區"
"234007","695-BX","2017/06/26 10:31:53","新北市永和區福和路1號","121.526608333333","25.0100533333333","6500400","永和區"
"234028","746-BX","2017/06/26 13:59:06","新北市永和區民權路49巷8號","121.520623333333","24.9969733333333","6500400","永和區"
"234060","AAD-866","2017/06/26 13:59:09","新北市永和區中正路283巷53弄2號","121.515896666667","24.9992283333333","6500400","永和區"
"234015","845-RS","2017/06/26 13:59:00","新北市永和區環河西路一段9號","121.514683333333","25.0180966666667","6500400","永和區"
"234040","862-TW","2017/06/26 13:58:56","新北市永和區中和路305巷2弄28號","121.507486666667","24.9999783333333","6500400","永和區"
"234048","863-TW","2017/06/26 13:59:10","新北市永和區保安路250號","121.506305","25.0126083333333","6500400","永和區"
"234025","9371-KE","2017/06/26 13:58:54","新北市永和區自由街58號","121.513776666667","25.0059783333333","6500400","永和區"
"248015","026-BX","2017/06/26 13:59:01","新北市五股區成泰路三段543巷1號","121.450908333333","25.1021833333333","6501500","五股區"
"248007","095-VK","2017/06/26 13:58:58","新北市五股區中興路一段128巷30號","121.465735","25.0751016666667","6501500","五股區"
"248019","225-UY","2017/06/26 13:59:08","新北市五股區凌雲路三段57號","121.425206666667","25.1249916666667","6501500","五股區"
"248011","247-BX","2017/06/26 13:58:52","新北市五股區成泰路二段195巷1號","121.440316666667","25.0874233333333","6501500","五股區"
"248009","272-BY","2017/06/26 13:58:55","新北市五股區水碓一路23號","121.430613333333","25.0712616666667","6501500","五股區"
"248003","655-BX","2017/06/26 13:59:05","新北市五股區民義路一段240號","121.426995","25.0916116666667","6501500","五股區"
"248001","678-BX","2017/06/26 13:59:03","新北市五股區凌雲路一段158巷6號","121.448126666667","25.1027583333333","6501500","五股區"
"234022","9380-KE","2017/06/26 13:59:06","新北市永和區永和路二段127號","121.514983333333","25.0120783333333","6500400","永和區"
"234076","969-R7","2017/06/26 13:59:12","新北市永和區民治街59巷4號","121.5183","24.9977566666667","6500400","永和區"
"234072","AAC-211","2017/06/26 13:58:59","新北市永和區豫溪街165號","121.521795","25.0104266666667","6500400","永和區"
"234066","AAC-212","2017/06/26 13:58:52","新北市永和區保平路268巷32號","121.507398333333","25.00657","6500400","永和區"
"234001","AAC-295","2017/06/26 13:57:22","新北市永和區福和路319號","121.515975","25.0072616666667","6500400","永和區"
"244001","248-BX","2017/06/26 13:59:05","新北市八里區中山路三段382號","121.368741666667","25.1358883333333","6501700","林口區"
"243005","AAD-798","2017/06/26 13:59:05","新北市泰山區明志路三段206巷1號","121.423315","25.037905","6501600","泰山區"
"243001","297-R6","2017/06/26 13:58:51","新北市泰山區泰林路二段480-1號","121.42501","25.0640216666667","6501600","泰山區"
"243007","380-SR","2017/06/26 13:59:12","新北市泰山區泰林路二段216號","121.432726666667","25.061855","6501600","泰山區"
"243006","421-VK","2017/06/26 13:58:58","新北市泰山區黎明路23號","121.420896666667","25.0626016666667","6501600","泰山區"
"243002","548-UM","2017/06/26 13:59:04","新北市泰山區辭修路26巷4號","121.429136666667","25.058375","6501600","泰山區"
"243003","549-UM","2017/06/26 13:58:58","新北市泰山區明志路二段298巷12號","121.426016666667","25.0466883333333","6501600","泰山區"
"243004","646-TV","2017/06/26 13:58:59","新北市泰山區全興路184號","121.433416666667","25.0573833333333","6501600","泰山區"
"243008","680-BX","2017/06/26 13:58:50","新北市泰山區明志路二段218號","121.42733","25.0486766666667","6501600","泰山區"
"231002","002-UM","2017/06/26 13:58:48","新北市新店區中正路707號","121.533671666667","24.9912116666667","6500600","新店區"
"231025","0291-UT","2017/06/26 13:58:59","新北市新店區中正路351-3號","121.535236666667","24.9760283333333","6500600","新店區"
"231028","046-UY","2017/06/26 13:59:05","新北市新店區安和路三段133號","121.517075","24.98535","6500600","新店區"
"231030","047-UY","2017/06/26 13:59:00","新北市新店區安興路7號","121.515021666667","24.96827","6500600","新店區"
"231029","106-UY","2017/06/26 13:59:09","新北市新店區安康路二段105號","121.512818333333","24.9625283333333","6500600","新店區"
"231018","107-UY","2017/06/26 13:59:00","新北市新店區中央路116號","121.531053333333","24.9750983333333","6500600","新店區"
"231011","108-UY","2017/06/26 13:59:11","新北市新店區五峰路79號","121.546261666667","24.9676716666667","6500600","新店區"
"231019","187-VK","2017/06/26 13:58:52","新北市新店區新烏路二段50巷3號","121.547606666667","24.92766","6500600","新店區"
"231026","256-BX","2017/06/26 13:59:02","新北市新店區環河路103-6號","121.531396666667","24.9709866666667","6500600","新店區"
"231014","AAD-862","2017/06/26 13:59:03","新北市新店區北宜路二段148號","121.557721666667","24.9534483333333","6500600","新店區"
"231027","3712-VJ","2017/06/26 13:58:59","新北市新店區北宜路一段3號","121.538401666667","24.9584133333333","6500600","新店區"
"231024","3713-VJ","2017/06/26 13:58:58","新北市新店區北新路一段271巷31號","121.540045","24.9671466666667","6500600","新店區"
"231038","4715-K9","2017/06/26 13:58:55","新北市新店區溪洲路121號","121.531325","24.9626716666667","6500600","新店區"
"231036","512-UM","2017/06/26 13:58:59","新北市新店區安祥路128號","121.474458333333","24.956315","6500600","新店區"
"231023","513-UM","2017/06/26 13:59:00","新北市新店區文中路40-6號","121.539801666667","24.9565266666667","6500600","新店區"
"231035","515-UM","2017/06/26 13:58:55","新北市新店區安康路二段85巷18號","121.513778333333","24.9621783333333","6500600","新店區"
"231003","616-UM","2017/06/26 13:58:59","新北市新店區中興路一段113號","121.541398333333","24.9626866666667","6500600","新店區"
"231006","617-UM","2017/06/26 13:59:08","新北市新店區北宜路二段211號","121.553203333333","24.9533016666667","6500600","新店區"
"231001","619-UM","2017/06/26 13:59:04","新北市新店區三民路24號","121.537148333333","24.9709833333333","6500600","新店區"
"231034","645-TV","2017/06/26 13:59:01","新北市新店區達觀路8巷1-1號","121.504643333333","24.9426566666667","6500600","新店區"
"231013","719-UM","2017/06/26 13:58:54","新北市新店區明德路66號","121.541545","24.9795016666667","6500600","新店區"
"231031","720-UM","2017/06/26 13:58:53","新北市新店區華城路2號","121.530501666667","24.9605866666667","6500600","新店區"
"231005","897-TW","2017/06/26 13:58:59","新北市新店區中興路三段168號","121.544328333333","24.9808083333333","6500600","新店區"
"231004","899-TW","2017/06/26 13:59:09","新北市新店區寶橋路9號","121.54371","24.9737266666667","6500600","新店區"
"231037","AKT-0513","2017/06/26 13:58:50","新北市新店區安康路三段355巷1號","121.484345","24.9510033333333","6500600","新店區"
"235030","003-UY","2017/06/26 13:59:08","新北市中和區中山路二段131巷5弄2號","121.502871666667","25.0028133333333","6500300","中和區"
"235028","005-UY","2017/06/26 13:58:54","新北市中和區泰和街24號","121.499601666667","25.0005083333333","6500300","中和區"
"235027","006-UY","2017/06/26 13:59:03","新北市中和區錦和路216號","121.490513333333","24.9942166666667","6500300","中和區"
"235026","031-BX","2017/06/26 13:59:07","新北市中和區中山路二段340巷32號","121.493421666667","25.00368","6500300","中和區"
"235020","096-UM","2017/06/26 13:58:57","新北市中和區中正路1204號","121.480088333333","25.010535","6500300","中和區"
"235003","097-UM","2017/06/26 13:59:06","新北市中和區景平路64巷12號","121.522318333333","24.9913","6500300","中和區"
"235004","150-BY","2017/06/26 13:59:00","新北市中和區宜安路100號","121.510528333333","24.9977966666667","6500300","中和區"
"235022","151-BY","2017/06/26 13:59:01","新北市中和區員山路109號","121.480836666667","24.9947166666667","6500300","中和區"
"235019","183-VK","2017/06/26 13:59:02","新北市中和區民生街72號","121.468533333333","25.0048533333333","6500300","中和區"
"235002","185-VK","2017/06/26 13:59:04","新北市中和區大勇街41號","121.517688333333","24.9945083333333","6500300","中和區"
"235013","186-VK","2017/06/26 13:58:59","新北市中和區景新街220號","121.507158333333","24.9950766666667","6500300","中和區"
"235031","255-BX","2017/06/26 13:59:02","新北市中和區新生街268號","121.48377","24.997105","6500300","中和區"
"235008","293-VK","2017/06/26 13:58:57","新北市中和區中興街131號","121.500018333333","24.9915933333333","6500300","中和區"
"235036","301-VK","2017/06/26 13:59:02","新北市中和區中山路二段47號","121.50445","25.0048516666667","6500300","中和區"
"235007","352-BY","2017/06/26 13:59:07","新北市中和區秀朗路三段97號","121.526563333333","24.994965","6500300","中和區"
"235015","376-QA","2017/06/26 13:58:55","新北市中和區忠孝街13號","121.51","24.9827616666667","6500300","中和區"
"235032","377-QA","2017/06/26 13:59:06","新北市中和區圓通路281巷3號","121.495693333333","24.9927866666667","6500300","中和區"
"235025","378-QA","2017/06/26 13:58:55","新北市中和區民享街59巷2號","121.474386666667","25.0024783333333","6500300","中和區"
"235014","4979-A6","2017/06/26 13:59:01","新北市中和區華新街50巷7號","121.507665","24.98391","6500300","中和區"
"235033","4980-A6","2017/06/26 13:58:51","新北市中和區圓通路2號","121.501973333333","24.998045","6500300","中和區"
"235006","551-UM","2017/06/26 13:58:59","新北市中和區秀朗路三段18號","121.526255","24.99637","6500300","中和區"
"235070","558-UM","2017/06/26 13:58:56","新北市中和區圓通路50號","121.5007","24.99769","6500300","中和區"
"235009","565-BX","2017/06/26 13:58:53","新北市中和區南山路174-3號","121.505036666667","24.9912266666667","6500300","中和區"
"235018","640-BX","2017/06/26 13:58:58","新北市中和區民享街35巷3號","121.474438333333","25.00398","6500300","中和區"
"235024","647-TV","2017/06/26 13:59:07","新北市中和區中山路三段153號","121.473588333333","25.0062166666667","6500300","中和區"
"235011","732-UM","2017/06/26 13:58:56","新北市中和區興南路二段54巷2-8號","121.50598","24.9855983333333","6500300","中和區"
"235010","733-UM","2017/06/26 13:59:04","新北市中和區興南路一段129號","121.508968333333","24.9876816666667","6500300","中和區"
"235035","783-BX","2017/06/26 13:59:07","新北市中和區立德街98巷48號","121.487955","25.0092116666667","6500300","中和區"
"235026","800-TS","2017/06/26 12:27:01","新北市中和區員山路36巷16-3號","121.485045","24.9913366666667","6500300","中和區"
"235021","801-TS","2017/06/26 13:59:00","新北市中和區民安街25巷23號","121.480586666667","24.9998266666667","6500300","中和區"
"235005","802-TS","2017/06/26 13:58:51","新北市中和區永貞路266號","121.513671666667","25.0037233333333","6500300","中和區"
"235016","805-TS","2017/06/26 13:58:59","新北市中和區興南路二段244號","121.503246666667","24.9819566666667","6500300","中和區"
"235012","896-TW","2017/06/26 13:58:49","新北市中和區華新街47號","121.507801666667","24.9845366666667","6500300","中和區"
"235017","900-TW","2017/06/26 13:58:57","新北市中和區民德路290巷15號","121.466603333333","24.9959083333333","6500300","中和區"
"235001","AAC-213","2017/06/26 13:59:06","新北市中和區自立路173號","121.523123333333","24.9923466666667","6500300","中和區"
"235023","AAC-215","2017/06/26 13:58:57","新北市中和區圓通路367巷20弄23號","121.491475","24.9883333333333","6500300","中和區"
"220016","013-TV","2017/06/26 13:58:55","新北市板橋區中山路二段465巷78號","121.481151666667","25.022265","6500100","板橋區"
"220013","072-UY","2017/06/26 13:58:50","新北市板橋區長安街297號","121.474433333333","25.012015","6500100","板橋區"
"220034","073-UY","2017/06/26 13:59:06","新北市板橋區大智街20號","121.455718333333","25.01485","6500100","板橋區"
"220105","075-UY","2017/06/26 13:59:05","新北市板橋區民生路二段234巷9號","121.468491666667","25.0228666666667","6500100","板橋區"
"247019","893-R6","2017/06/26 13:59:06","新北市蘆洲區民族路422巷13號","121.473885","25.0924433333333","6501400","蘆洲區"
"247009","546-UM","2017/06/26 13:58:53","新北市蘆洲區集賢路224巷27號","121.481713333333","25.0871316666667","6501400","蘆洲區"
"247017","500-BY","2017/06/26 13:58:50","新北市蘆洲區民族路327巷73號","121.475278333333","25.0898083333333","6501400","蘆洲區"
"247007","339-TH","2017/06/26 13:59:07","新北市蘆洲區中山一路6號","121.480928333333","25.0803433333333","6501400","蘆洲區"
"247023","337-TH","2017/06/26 13:58:58","新北市蘆洲區忠孝路22號","121.470861666667","25.0842483333333","6501400","蘆洲區"
"247001","336-TH","2017/06/26 13:59:03","新北市蘆洲區永平街32巷74號","121.460673333333","25.0935433333333","6501400","蘆洲區"
"247005","335-TH","2017/06/26 13:59:04","新北市蘆洲區中山一路312號","121.469235","25.0770816666667","6501400","蘆洲區"
"247013","057-VK","2017/06/26 13:58:56","新北市蘆洲區中正路168號","121.468651666667","25.085835","6501400","蘆洲區"
"247003","056-VK","2017/06/26 13:59:05","新北市蘆洲區長榮路38-2號","121.463361666667","25.0825266666667","6501400","蘆洲區"
"247023","053-VK","2017/06/26 13:58:42","新北市蘆洲區長樂路80號","121.462418333333","25.0875116666667","6501400","蘆洲區"
"247011","007-UY","2017/06/26 13:59:01","新北市蘆洲區民族路156號","121.479633333333","25.0861416666667","6501400","蘆洲區"
"247021","002-UY","2017/06/26 13:59:05","新北市蘆洲區中正路263巷2號","121.467341666667","25.087415","6501400","蘆洲區"
"247015","001-UY","2017/06/26 13:59:01","新北市蘆洲區光華路31號","121.469131666667","25.0831533333333","6501400","蘆洲區"
"228003","097-TW","2017/06/26 13:59:12","新北市貢寮區龍門里復興街24號","121.9243","25.0267","6502600","貢寮區"
"208004","AAC-292","2017/06/26 13:59:04","新北市金山區山城路95-1號","121.599006666667","25.1997083333333","6502700","金山區"
"207002","749-BX","2017/06/26 13:57:50","新北市萬里區溪底里烏塗炭9號","121.636713333333","25.15121","6502800","萬里區"
"207001","463-BY","2017/06/26 13:58:58","新北市萬里區磺潭里清水18號","121.637811666667","25.19772","6502800","萬里區"
"252005","AAC-283","2017/06/26 00:22:52","新北市三芝區埔坪里埔頭坑41號","121.504508333333","25.264495","6502100","三芝區"
"236064","105-UM","2017/06/26 13:59:01","新北市土城區城林路6巷80號","121.438341666667","24.9797233333333","6501300","土城區"
"236040","107-UM","2017/06/26 13:59:06","新北市土城區裕生路61號","121.447615","24.98604","6501300","土城區"
"236074","166-UM","2017/06/26 13:58:52","新北市土城區永寧路20號","121.429826666667","24.96156","6501300","土城區"
"236028","253-BX","2017/06/26 13:58:56","新北市土城區城林路6巷80號","121.438361666667","24.9797733333333","6501300","土城區"
"236024","269-VK","2017/06/26 13:59:02","新北市土城區承天路18號","121.439441666667","24.9634983333333","6501300","土城區"
"236012","270-VK","2017/06/26 13:59:06","新北市土城區學府路二段1號","121.44944","24.982195","6501300","土城區"
"236032","271-VK","2017/06/26 13:59:01","新北市土城區中央路二段280號","121.440741666667","24.9740316666667","6501300","土城區"
"236016","401-BY","2017/06/26 13:58:51","新北市土城區城林路6巷80號","121.438593333333","24.9797216666667","6501300","土城區"
"236005","498-BY","2017/06/26 13:58:50","新北市土城區中央路一段363號","121.443325","24.980915","6501300","土城區"
"236056","912-UM","2017/06/26 13:59:05","新北市土城區中央路三段194號","121.43037","24.965015","6501300","土城區"
"236024","913-UM","2017/06/26 13:58:59","新北市土城區城林路6巷80號","121.438545","24.9797016666667","6501300","土城區"
"236060","915-UM","2017/06/26 13:59:04","新北市土城區城林路6巷80號","121.438455","24.979805","6501300","土城區"
"236052","AAC-216","2017/06/26 13:58:52","新北市土城區城林路6巷80號","121.438326666667","24.979745","6501300","土城區"
"221038","277-VK","2017/06/26 00:20:35","新北市汐止區汐萬路一段256巷3號","121.65254","25.0745833333333","6501100","汐止區"
"221002","707-TV","2017/06/26 13:59:05","新北市汐止區福德一路214號","121.63444","25.0651983333333","6501100","汐止區"
"221002","753-BX","2017/06/26 13:58:50","新北市汐止區大同路一段160-10號","121.634541666667","25.0543266666667","6501100","汐止區"
"220027","145-BY","2017/06/26 13:58:54","新北市板橋區民權路202巷7弄32號","121.458781666667","25.0150233333333","6500100","板橋區"
"220030","610-BX","2017/06/26 13:59:02","新北市板橋區篤行路三段91號","121.426426666667","24.9849116666667","6500100","板橋區"
"220050","245-BX","2017/06/26 13:58:53","新北市板橋區民生路二段224號","121.469281666667","25.0220266666667","6500100","板橋區"
"220017","258-TC","2017/06/26 13:58:52","新北市板橋區中山路一段26號","121.460393333333","25.0084883333333","6500100","板橋區"
"220004","276-BY","2017/06/26 13:59:11","新北市板橋區信義路42號","121.457143333333","24.99457","6500100","板橋區"
"220020","277-BY","2017/06/26 13:59:04","新北市板橋區大觀路三段36巷8號","121.43391","24.996115","6500100","板橋區"
"220012","280-UM","2017/06/26 13:58:57","新北市板橋區漢生東路123號","121.467643333333","25.0145116666667","6500100","板橋區"
"220043","283-UM","2017/06/26 13:59:00","新北市板橋區文化路二段2號","121.468821666667","25.0238016666667","6500100","板橋區"
"220019","283-VK","2017/06/26 13:58:59","新北市板橋區民族路57號","121.465056666667","25.0091516666667","6500100","板橋區"
"220001","285-VK","2017/06/26 13:59:01","新北市板橋區成功路10號","121.475471666667","25.0170133333333","6500100","板橋區"
"220031","286-VK","2017/06/26 13:59:07","新北市板橋區大觀路一段38巷156弄102號","121.44324","25.0072616666667","6500100","板橋區"
"220029","287-VK","2017/06/26 13:58:52","新北市板橋區南雅西路二段96號","121.452388333333","25.0114","6500100","板橋區"
"220039","288-VK","2017/06/26 13:58:52","新北市板橋區民生路二段232-10號","121.468521666667","25.0225683333333","6500100","板橋區"
"220009","293-UM","2017/06/26 13:58:57","新北市板橋區富山街109巷28弄6號","121.475741666667","25.021595","6500100","板橋區"
"220032","296-UM","2017/06/26 13:59:07","新北市板橋區大觀路二段174巷102弄27號","121.442008333333","25.0012533333333","6500100","板橋區"
"220023","297-UM","2017/06/26 13:58:58","新北市板橋區南興路17號","121.45498","25.007845","6500100","板橋區"
"220010","305-R5","2017/06/26 13:58:56","新北市板橋區三民路二段245巷32號","121.480466666667","25.0125583333333","6500100","板橋區"
"220041","307-R5","2017/06/26 13:58:52","新北市板橋區民生路二段56-6號","121.470943333333","25.0185233333333","6500100","板橋區"
"220047","317-R6","2017/06/26 13:58:57","新北市板橋區民生路二段236號","121.468231666667","25.0229016666667","6500100","板橋區"
"220038","487-VK","2017/06/26 13:59:10","新北市板橋區民生路二段232-11號","121.468621666667","25.022515","6500100","板橋區"
"220037","491-VK","2017/06/26 13:57:59","新北市板橋區民生路二段120號","121.4709","25.0194616666667","6500100","板橋區"
"220104","560-BX","2017/06/26 13:58:51","新北市板橋區中正路275巷3號","121.455271666667","25.01877","6500100","板橋區"
"220052","561-BX","2017/06/26 13:58:50","新北市板橋區民生路二段123號","121.470645","25.0186166666667","6500100","板橋區"
"220011","609-BX","2017/06/26 13:59:05","新北市板橋區民生路一段76號","121.473711666667","25.015405","6500100","板橋區"
"220040","637-BX","2017/06/26 13:58:52","新北市板橋區萬板路66號","121.472541666667","25.0233566666667","6500100","板橋區"
"220005","686-BX","2017/06/26 13:58:56","新北市板橋區民權路45號","121.462155","25.0112033333333","6500100","板橋區"
"220025","687-BX","2017/06/26 13:59:03","新北市板橋區大觀路二段431-1號","121.441215","24.994685","6500100","板橋區"
"220042","689-BX","2017/06/26 13:58:52","新北市板橋區民生路二段120號","121.470665","25.0196766666667","6500100","板橋區"
"220002","741-BX","2017/06/26 13:59:09","新北市板橋區館前東路5號","121.459701666667","25.0073833333333","6500100","板橋區"
"220003","827-TW","2017/06/26 13:59:09","新北市板橋區觀光街4-1號","121.472251666667","25.0158266666667","6500100","板橋區"
"220014","829-TW","2017/06/26 13:59:10","新北市板橋區三民路二段正隆巷26號","121.477401666667","25.01334","6500100","板橋區"
"220051","830-TW","2017/06/26 13:58:56","新北市板橋區萬板路165號","121.474065","25.02344","6500100","板橋區"
"220045","831-TW","2017/06/26 13:58:52","新北市板橋區萬板路30號","121.47225","25.0223683333333","6500100","板橋區"
"220022","895-R6","2017/06/26 13:59:10","新北市板橋區南雅東路1號","121.455513333333","25.0055533333333","6500100","板橋區"
"220021","985-R7","2017/06/26 13:59:03","新北市板橋區館前西路152-1號","121.455348333333","25.008485","6500100","板橋區"
"220046","AAC-210","2017/06/26 13:58:56","新北市板橋區民生路二段236號","121.468196666667","25.0232266666667","6500100","板橋區"
"220018","AAC-253","2017/06/26 13:59:00","新北市板橋區中山路一段23號","121.460286666667","25.00854","6500100","板橋區"
