"lineid","car","time","location","longitude","latitude","cityid","cityname"
"234005","207-UY","2017/06/26 14:29:03","新北市永和區中正路506號","121.517356666667","25.00452","6500400","永和區"
"234078","298-R6","2017/06/26 14:29:08","新北市永和區永貞路82號","121.520146666667","25.00504","6500400","永和區"
"234036","336-UY","2017/06/26 14:28:52","新北市永和區環河東路四段52號","121.528626666667","24.99829","6500400","永和區"
"234062","337-UY","2017/06/26 14:28:55","新北市永和區中正路530號","121.5173","25.0051266666667","6500400","永和區"
"234084","338-UY","2017/06/26 14:28:59","新北市永和區永和路二段61號","121.514676666667","25.0111083333333","6500400","永和區"
"234068","552-UM","2017/06/26 14:28:55","新北市永和區永亨路7號","121.519396666667","25.0057416666667","6500400","永和區"
"234052","553-UM","2017/06/26 14:29:06","新北市永和區光復街42號","121.516673333333","25.0176433333333","6500400","永和區"
"234007","695-BX","2017/06/26 10:31:53","新北市永和區福和路1號","121.526608333333","25.0100533333333","6500400","永和區"
"234028","746-BX","2017/06/26 14:28:59","新北市永和區中正路64號","121.513418333333","24.994835","6500400","永和區"
"234060","AAD-866","2017/06/26 14:29:09","新北市永和區秀安街18號","121.51538","25.0026083333333","6500400","永和區"
"234015","845-RS","2017/06/26 14:29:07","新北市永和區文化路122號","121.51315","25.01527","6500400","永和區"
"234040","862-TW","2017/06/26 14:28:56","新北市永和區安樂路437號","121.514351666667","25.0047883333333","6500400","永和區"
"234048","863-TW","2017/06/26 14:28:16","新北市永和區新生路173巷2弄16號","121.50696","25.01421","6500400","永和區"
"234025","9371-KE","2017/06/26 14:28:54","新北市永和區得和路42巷23號","121.515373333333","24.9996716666667","6500400","永和區"
"234010","9373-KE","2017/06/26 14:28:32","新北市永和區環河西路二段245-1號","121.500408333333","25.0090933333333","6500400","永和區"
"248013","025-BX","2017/06/26 14:28:51","新北市五股區民義路一段183巷9-3號","121.430228333333","25.0865","6501500","五股區"
"248015","026-BX","2017/06/26 14:29:01","新北市五股區成泰路三段613號","121.452825","25.1036716666667","6501500","五股區"
"248007","095-VK","2017/06/26 14:28:57","新北市五股區中興路一段95巷15號","121.466595","25.0722966666667","6501500","五股區"
"248019","225-UY","2017/06/26 14:16:33","新北市五股區凌雲路三段57號","121.425203333333","25.125015","6501500","五股區"
"248009","272-BY","2017/06/26 14:28:55","新北市五股區水碓一路23號","121.430598333333","25.0712583333333","6501500","五股區"
"248003","655-BX","2017/06/26 14:29:05","新北市五股區五福路7號","121.434213333333","25.087745","6501500","五股區"
"248001","678-BX","2017/06/26 14:29:03","新北市五股區成泰路三段436號","121.450908333333","25.0994833333333","6501500","五股區"
"234022","9380-KE","2017/06/26 14:29:06","新北市永和區竹林路26號","121.516943333333","25.0147266666667","6500400","永和區"
"234076","969-R7","2017/06/26 14:28:52","新北市永和區民族街81巷62號","121.520295","24.9964883333333","6500400","永和區"
"234072","AAC-211","2017/06/26 14:29:05","新北市永和區竹林路41號","121.51805","25.014295","6500400","永和區"
"234066","AAC-212","2017/06/26 14:29:08","新北市永和區保平路195號","121.509001666667","25.0051533333333","6500400","永和區"
"234001","AAC-295","2017/06/26 14:26:22","新北市永和區自強街26號","121.51543","25.0079766666667","6500400","永和區"
"244001","248-BX","2017/06/26 14:29:05","新北市林口區林口路76號","121.389671666667","25.0806916666667","6501700","林口區"
"243005","AAD-798","2017/06/26 14:29:05","新北市泰山區民國街30號","121.425593333333","25.0427733333333","6501600","泰山區"
"243001","297-R6","2017/06/26 14:28:51","新北市泰山區美寧街106號","121.432648333333","25.064465","6501600","泰山區"
"243007","380-SR","2017/06/26 14:29:03","新北市泰山區民權街17號","121.428455","25.0508233333333","6501600","泰山區"
"243006","421-VK","2017/06/26 14:28:58","新北市泰山區中港西路455號","121.433218333333","25.0532016666667","6501600","泰山區"
"243002","548-UM","2017/06/26 14:28:58","新北市泰山區中華街10巷2號","121.42811","25.0523983333333","6501600","泰山區"
"243003","549-UM","2017/06/26 14:28:55","新北市泰山區貴子路67巷1號","121.43065","25.0397866666667","6501600","泰山區"
"243004","646-TV","2017/06/26 14:28:59","新北市泰山區全興路13號","121.432301666667","25.0589616666667","6501600","泰山區"
"243008","680-BX","2017/06/26 14:29:09","新北市泰山區中山路三段6-3號","121.418826666667","25.0322433333333","6501600","泰山區"
"231002","002-UM","2017/06/26 14:28:48","新北市新店區中央路109號","121.530941666667","24.974655","6500600","新店區"
"231025","0291-UT","2017/06/26 14:28:59","新北市新店區自立街42號","121.538251666667","24.97875","6500600","新店區"
"231028","046-UY","2017/06/26 14:29:05","新北市新店區安康路二段147-1號","121.511265","24.9597566666667","6500600","新店區"
"231030","047-UY","2017/06/26 14:29:00","新北市新店區安民街40號","121.51594","24.96532","6500600","新店區"
"231029","106-UY","2017/06/26 14:28:49","新北市新店區安康路二段380號","121.500673333333","24.9570266666667","6500600","新店區"
"231018","107-UY","2017/06/26 14:29:00","新北市新店區中央二街35號","121.527851666667","24.9739216666667","6500600","新店區"
"231011","108-UY","2017/06/26 14:28:50","新北市新店區寶橋路162號","121.549131666667","24.9770216666667","6500600","新店區"
"231019","187-VK","2017/06/26 14:28:52","新北市新店區桂山路61巷2號","121.565453333333","24.90122","6500600","新店區"
"231014","AAD-862","2017/06/26 14:29:03","新北市新店區北宜路三段187號","121.587973333333","24.9521883333333","6500600","新店區"
"231027","3712-VJ","2017/06/26 14:28:59","新北市新店區北新路二段42號","121.542958333333","24.971765","6500600","新店區"
"231038","4715-K9","2017/06/26 14:28:55","新北市新店區溪洲路8巷120-1號","121.532865","24.963215","6500600","新店區"
"231036","512-UM","2017/06/26 14:28:59","新北市新店區安祥路109巷21號","121.47614","24.95922","6500600","新店區"
"231023","513-UM","2017/06/26 14:29:02","新北市新店區光明街158號","121.539486666667","24.96176","6500600","新店區"
"231035","515-UM","2017/06/26 14:28:55","新北市新店區安康路二段58巷3號","121.514751666667","24.9642316666667","6500600","新店區"
"231003","616-UM","2017/06/26 14:29:01","新北市新店區中興路一段252號","121.54443","24.9664633333333","6500600","新店區"
"231006","617-UM","2017/06/26 14:28:48","新北市新店區北宜路二段491號","121.562665","24.953795","6500600","新店區"
"231001","619-UM","2017/06/26 14:29:04","新北市新店區中正路75巷71號","121.543055","24.9689566666667","6500600","新店區"
"231034","645-TV","2017/06/26 14:29:01","新北市新店區黎明路3號","121.50352","24.9524166666667","6500600","新店區"
"231013","719-UM","2017/06/26 14:28:54","新北市新店區民權路98-1號","121.536366666667","24.9833416666667","6500600","新店區"
"231031","720-UM","2017/06/26 14:28:53","新北市新店區安業街33號","121.51746","24.9771916666667","6500600","新店區"
"231005","897-TW","2017/06/26 14:28:59","新北市新店區寶強路51號","121.543971666667","24.9791916666667","6500600","新店區"
"231004","899-TW","2017/06/26 14:28:53","新北市新店區中正路211號","121.539783333333","24.9727116666667","6500600","新店區"
"235030","003-UY","2017/06/26 14:29:08","新北市中和區中和路102號","121.502705","24.9997433333333","6500300","中和區"
"235028","005-UY","2017/06/26 14:28:54","新北市中和區中和路35號","121.500076666667","25.0015166666667","6500300","中和區"
"235027","006-UY","2017/06/26 14:29:03","新北市中和區連城路231號","121.493966666667","24.99728","6500300","中和區"
"235026","031-BX","2017/06/26 14:29:07","新北市中和區中山路二段386號","121.490531666667","25.0035466666667","6500300","中和區"
"235020","096-UM","2017/06/26 14:28:57","新北市中和區民富街19號","121.476501666667","25.0075183333333","6500300","中和區"
"235003","097-UM","2017/06/26 14:29:06","新北市中和區秀峰街119巷8弄1號","121.51938","24.98911","6500300","中和區"
"235004","150-BY","2017/06/26 14:29:00","新北市中和區安樂路91號","121.51295","24.99479","6500300","中和區"
"235022","151-BY","2017/06/26 14:29:01","新北市中和區連城路346-1號","121.482456666667","24.9955733333333","6500300","中和區"
"235019","183-VK","2017/06/26 14:29:02","新北市中和區中山路三段181巷32號","121.47311","25.00493","6500300","中和區"
"235002","185-VK","2017/06/26 14:29:04","新北市中和區大智街55巷31號","121.52055","24.9929066666667","6500300","中和區"
"235013","186-VK","2017/06/26 14:28:59","新北市中和區景平路396-2號","121.509783333333","24.993185","6500300","中和區"
"235031","255-BX","2017/06/26 14:29:02","新北市中和區連城路463號","121.484196666667","24.99614","6500300","中和區"
"235008","293-VK","2017/06/26 14:28:57","新北市中和區復興路327巷4號","121.500665","24.9897833333333","6500300","中和區"
"235036","301-VK","2017/06/26 14:29:02","新北市中和區中山路二段3巷22弄1號","121.50649","25.0053633333333","6500300","中和區"
"235007","352-BY","2017/06/26 14:29:07","新北市中和區景平路296號","121.512911666667","24.9925916666667","6500300","中和區"
"235015","376-QA","2017/06/26 14:28:35","新北市中和區和平街54巷6弄1號","121.508853333333","24.9911983333333","6500300","中和區"
"235032","377-QA","2017/06/26 14:29:06","新北市中和區景平路493巷2弄2號","121.499578333333","24.9973916666667","6500300","中和區"
"235025","378-QA","2017/06/26 14:28:55","新北市中和區民安街27號","121.480308333333","25.00045","6500300","中和區"
"235014","4979-A6","2017/06/26 14:29:01","新北市中和區中正路395號","121.489418333333","24.993825","6500300","中和區"
"235006","551-UM","2017/06/26 14:28:59","新北市中和區中和路350巷15弄2號","121.510593333333","25.00089","6500300","中和區"
"235070","558-UM","2017/06/26 14:28:56","新北市中和區泰和街2號","121.50008","25.0013883333333","6500300","中和區"
"235009","565-BX","2017/06/26 14:29:05","新北市中和區景新街437巷26號","121.514573333333","24.989385","6500300","中和區"
"235018","640-BX","2017/06/26 14:28:58","新北市中和區國光街109巷27號","121.469433333333","24.9994166666667","6500300","中和區"
"235024","647-TV","2017/06/26 14:29:07","新北市中和區員山路294巷19號","121.482353333333","25.0023666666667","6500300","中和區"
"235011","732-UM","2017/06/26 14:28:56","新北市中和區景平路239巷36號","121.50836","24.992305","6500300","中和區"
"235010","733-UM","2017/06/26 14:29:08","新北市中和區忠孝街37巷5號","121.510923333333","24.983415","6500300","中和區"
"235035","783-BX","2017/06/26 14:28:53","新北市中和區連城路469巷69號","121.48349","24.9942233333333","6500300","中和區"
"235026","800-TS","2017/06/26 12:27:01","新北市中和區員山路36巷16-3號","121.485045","24.9913366666667","6500300","中和區"
"235021","801-TS","2017/06/26 14:29:00","新北市中和區員山路421號","121.48093","25.0034083333333","6500300","中和區"
"235005","802-TS","2017/06/26 14:28:51","新北市中和區宜安路118巷14號","121.510695","24.9985083333333","6500300","中和區"
"235016","805-TS","2017/06/26 14:28:59","新北市中和區華新街137號","121.506551666667","24.9818","6500300","中和區"
"235012","896-TW","2017/06/26 14:29:09","新北市中和區忠孝街39-4號","121.511805","24.9839233333333","6500300","中和區"
"235017","900-TW","2017/06/26 14:28:52","新北市中和區華安街17巷31號","121.467508333333","24.9982716666667","6500300","中和區"
"235001","AAC-213","2017/06/26 14:29:06","新北市中和區秀朗路三段60巷34號","121.525225","24.9949683333333","6500300","中和區"
"235023","AAC-215","2017/06/26 14:28:57","新北市中和區圓通路319號","121.492688333333","24.990695","6500300","中和區"
"220016","013-TV","2017/06/26 14:29:08","新北市板橋區萬安街55號","121.483938333333","25.02383","6500100","板橋區"
"220013","072-UY","2017/06/26 14:28:50","新北市板橋區國泰街76巷34號","121.46705","25.0071466666667","6500100","板橋區"
"220034","073-UY","2017/06/26 14:29:06","新北市板橋區中正路250巷42號","121.457153333333","25.0194683333333","6500100","板橋區"
"220105","075-UY","2017/06/26 14:29:05","新北市板橋區雙十路三段70巷1號","121.47025","25.032455","6500100","板橋區"
"247019","893-R6","2017/06/26 14:29:06","新北市蘆洲區仁愛街93巷8號","121.470765","25.0940466666667","6501400","蘆洲區"
"247009","546-UM","2017/06/26 14:28:53","新北市蘆洲區鷺江街52號","121.47717","25.0832633333333","6501400","蘆洲區"
"247017","500-BY","2017/06/26 14:28:50","新北市蘆洲區復興路227巷47-1號","121.479378333333","25.0917283333333","6501400","蘆洲區"
"247007","339-TH","2017/06/26 14:29:07","新北市蘆洲區信義路113巷1弄20號","121.477516666667","25.0803383333333","6501400","蘆洲區"
"247023","337-TH","2017/06/26 14:27:40","新北市五股區中興路三段2巷10號","121.448806666667","25.08169","6501400","蘆洲區"
"247001","336-TH","2017/06/26 14:29:03","新北市蘆洲區永樂街38巷33弄54號","121.456678333333","25.0899616666667","6501400","蘆洲區"
"247005","335-TH","2017/06/26 14:29:04","新北市蘆洲區永安南路二段166號","121.461301666667","25.0790216666667","6501400","蘆洲區"
"247013","057-VK","2017/06/26 14:28:56","新北市蘆洲區中山二路225號","121.47029","25.0801166666667","6501400","蘆洲區"
"247003","056-VK","2017/06/26 14:28:55","新北市蘆洲區中原路12巷28號","121.460626666667","25.08417","6501400","蘆洲區"
"247023","053-VK","2017/06/26 14:27:42","新北市蘆洲區中正路263巷2號","121.467248333333","25.0875866666667","6501400","蘆洲區"
"247011","007-UY","2017/06/26 14:29:00","新北市蘆洲區復興路80號","121.475103333333","25.08665","6501400","蘆洲區"
"247021","002-UY","2017/06/26 14:29:05","新北市蘆洲區三民路128巷34號","121.471103333333","25.0884416666667","6501400","蘆洲區"
"247015","001-UY","2017/06/26 14:29:01","新北市蘆洲區中正路185巷68弄25號","121.466201666667","25.0854183333333","6501400","蘆洲區"
"228003","097-TW","2017/06/26 14:28:59","新北市貢寮區真理里延平街36號","121.924501666667","25.0564466666667","6502600","貢寮區"
"208004","AAC-292","2017/06/26 14:29:04","新北市金山區重和里牛埔仔9號","121.601881666667","25.220685","6502700","金山區"
"207002","749-BX","2017/06/26 14:28:50","新北市萬里區溪底里富士坪路24-2號","121.619715","25.1523366666667","6502800","萬里區"
"207001","463-BY","2017/06/26 14:28:58","新北市萬里區磺潭里清水15號","121.63784","25.198125","6502800","萬里區"
"252005","AAC-283","2017/06/26 00:22:52","新北市三芝區埔坪里埔頭坑41號","121.504508333333","25.264495","6502100","三芝區"
"236064","105-UM","2017/06/26 14:29:01","新北市土城區永豐路302-1號","121.47185","24.977655","6501300","土城區"
"236040","107-UM","2017/06/26 14:29:06","新北市土城區學成路99巷11號","121.44999","24.9884283333333","6501300","土城區"
"236074","166-UM","2017/06/26 14:28:52","新北市土城區中央路三段281巷23弄12號","121.426283333333","24.9615716666667","6501300","土城區"
"236028","253-BX","2017/06/26 14:28:56","新北市土城區水源街81巷3號","121.439608333333","24.97631","6501300","土城區"
"236024","269-VK","2017/06/26 14:29:02","新北市土城區承天路67號","121.439605","24.96346","6501300","土城區"
"236012","270-VK","2017/06/26 14:29:06","新北市土城區青雲路39巷7號","121.460328333333","24.9875333333333","6501300","土城區"
"236032","271-VK","2017/06/26 14:29:01","新北市土城區青雲路451巷6號","121.459521666667","24.97466","6501300","土城區"
"236016","401-BY","2017/06/26 14:29:11","新北市土城區永豐路202巷14號","121.466306666667","24.9834266666667","6501300","土城區"
"236005","498-BY","2017/06/26 14:29:10","新北市土城區日新街27號","121.443993333333","24.98784","6501300","土城區"
"236056","912-UM","2017/06/26 14:29:05","新北市土城區中央路四段464號","121.409925","24.950585","6501300","土城區"
"236044","913-UM","2017/06/26 14:28:59","新北市土城區明德路一段216號","121.461095","24.9775916666667","6501300","土城區"
"236060","915-UM","2017/06/26 14:29:04","新北市土城區延壽路1-9號","121.469216666667","24.9939316666667","6501300","土城區"
"236052","AAC-216","2017/06/26 14:28:52","新北市土城區中華路二段107號","121.439251666667","24.9772383333333","6501300","土城區"
"221038","277-VK","2017/06/26 00:20:35","新北市汐止區汐萬路一段256巷3號","121.65254","25.0745833333333","6501100","汐止區"
"221002","753-BX","2017/06/26 14:28:49","新北市新店區薏仁坑路23號","121.497971666667","24.9589516666667","6501100","汐止區"
"220027","145-BY","2017/06/26 14:29:01","新北市板橋區光正街45巷6弄19號","121.4609","25.0169016666667","6500100","板橋區"
"220030","610-BX","2017/06/26 14:29:02","新北市板橋區溪城路115號","121.427436666667","24.9826083333333","6500100","板橋區"
"220050","245-BX","2017/06/26 14:29:03","新北市板橋區縣民大道三段250號","121.47753","25.0229516666667","6500100","板橋區"
"220017","258-TC","2017/06/26 14:28:52","新北市板橋區四川路一段110號","121.459495","25.00443","6500100","板橋區"
"220004","276-BY","2017/06/26 14:28:51","新北市板橋區干城路147號","121.46","24.9929716666667","6500100","板橋區"
"220020","277-BY","2017/06/26 14:28:59","新北市板橋區金門街337巷14弄2號","121.430443333333","24.984535","6500100","板橋區"
"220012","280-UM","2017/06/26 14:28:57","新北市板橋區館前西路19號","121.458726666667","25.00687","6500100","板橋區"
"220043","283-UM","2017/06/26 14:29:00","新北市板橋區吳鳳路50號","121.46796","25.0304883333333","6500100","板橋區"
"220019","283-VK","2017/06/26 14:28:59","新北市板橋區大豐街19號","121.462265","25.0014316666667","6500100","板橋區"
"220001","285-VK","2017/06/26 14:29:01","新北市板橋區縣民大道三段262-4號","121.478263333333","25.0228733333333","6500100","板橋區"
"220031","286-VK","2017/06/26 14:29:07","新北市板橋區龍興街73巷31號","121.442633333333","25.0026516666667","6500100","板橋區"
"220029","287-VK","2017/06/26 14:28:51","新北市板橋區南雅南路一段106號","121.4549","25.0043333333333","6500100","板橋區"
"220039","288-VK","2017/06/26 14:29:02","新北市板橋區長江路一段106巷13弄12號","121.460588333333","25.0292566666667","6500100","板橋區"
"220009","293-UM","2017/06/26 14:28:57","新北市板橋區成功路6巷9號","121.475881666667","25.0170366666667","6500100","板橋區"
"220032","296-UM","2017/06/26 14:29:07","新北市板橋區滿平街136巷10弄11號","121.427261666667","24.9873216666667","6500100","板橋區"
"220023","297-UM","2017/06/26 14:28:58","新北市板橋區南雅西路一段10巷7弄1號","121.45466","25.00447","6500100","板橋區"
"220010","305-R5","2017/06/26 14:29:10","新北市板橋區三民路二段181巷9號","121.479983333333","25.014385","6500100","板橋區"
"220041","307-R5","2017/06/26 14:28:53","新北市板橋區文化路二段65號","121.469005","25.0257416666667","6500100","板橋區"
"220047","317-R6","2017/06/26 14:28:57","新北市板橋區四維路266巷2弄27號","121.464101666667","25.0280116666667","6500100","板橋區"
"220038","487-VK","2017/06/26 14:29:04","新北市板橋區文化路一段210號","121.46639","25.0202566666667","6500100","板橋區"
"220037","491-VK","2017/06/26 14:28:39","新北市板橋區雙十路二段239號","121.472753333333","25.02905","6500100","板橋區"
"220104","560-BX","2017/06/26 14:28:51","新北市板橋區中正路433巷1弄8-3號","121.453643333333","25.0230566666667","6500100","板橋區"
"220052","561-BX","2017/06/26 14:29:10","新北市板橋區文化路一段270巷2號","121.46735","25.0204983333333","6500100","板橋區"
"220011","609-BX","2017/06/26 14:29:05","新北市板橋區三民路二段204號","121.478836666667","25.012235","6500100","板橋區"
"220040","637-BX","2017/06/26 14:29:02","新北市板橋區文聖街149巷2號","121.47877","25.0281283333333","6500100","板橋區"
"220005","686-BX","2017/06/26 14:28:56","新北市板橋區和平路143巷12號","121.463106666667","24.9959916666667","6500100","板橋區"
"220025","687-BX","2017/06/26 14:29:03","新北市板橋區大觀路二段75號","121.446551666667","25.0022283333333","6500100","板橋區"
"220042","689-BX","2017/06/26 14:28:52","新北市板橋區新海路129號","121.460908333333","25.0231233333333","6500100","板橋區"
"220002","741-BX","2017/06/26 14:29:09","新北市板橋區重慶路155巷41號","121.46362","25.0041516666667","6500100","板橋區"
"220003","827-TW","2017/06/26 14:28:49","新北市板橋區實踐路85號","121.463956666667","25.0056166666667","6500100","板橋區"
"220014","829-TW","2017/06/26 14:28:58","新北市板橋區漢生東路299巷8-2號","121.472108333333","25.008655","6500100","板橋區"
"220051","830-TW","2017/06/26 14:28:56","新北市板橋區松柏街22巷9-2號","121.474748333333","25.0294983333333","6500100","板橋區"
"220045","831-TW","2017/06/26 14:28:52","新北市板橋區大同街35巷9號","121.477645","25.0276366666667","6500100","板橋區"
"220022","895-R6","2017/06/26 14:28:50","新北市板橋區大東街44號","121.45649","25.00846","6500100","板橋區"
"220021","985-R7","2017/06/26 14:29:11","新北市板橋區中正路372巷8號","121.454953333333","25.0240733333333","6500100","板橋區"
"220046","AAC-210","2017/06/26 14:28:56","新北市板橋區幸福路60巷56-1號","121.459776666667","25.0221183333333","6500100","板橋區"
"220018","AAC-253","2017/06/26 14:29:00","新北市板橋區忠孝路136號","121.463605","25.0023466666667","6500100","板橋區"
