"lineid","car","time","location","longitude","latitude","cityid","cityname"
"234007","695-BX","2017/06/26 10:31:53","新北市永和區福和路1號","121.526608333333","25.0100533333333","6500400","永和區"
"234048","863-TW","2017/06/26 15:18:50","新北市八里區中山路三段106號","121.392326666667","25.143085","6500400","永和區"
"243003","549-UM","2017/06/26 15:18:54","新北市泰山區同義街168號","121.433511666667","25.0530833333333","6501600","泰山區"
"231002","002-UM","2017/06/26 15:18:48","新北市新店區中正路700巷1號","121.534016666667","24.9911583333333","6500600","新店區"
"231025","0291-UT","2017/06/26 15:18:59","新北市新店區中央路2號","121.533636666667","24.978845","6500600","新店區"
"231028","046-UY","2017/06/26 15:19:05","新北市新店區僑信路102巷42號","121.49884","24.94683","6500600","新店區"
"231030","047-UY","2017/06/26 15:19:00","新北市新店區安民街341-1號","121.516816666667","24.974855","6500600","新店區"
"231029","106-UY","2017/06/26 15:18:49","新北市新店區安康路三段738號","121.473828333333","24.94201","6500600","新店區"
"231018","107-UY","2017/06/26 15:19:00","新北市新店區中央七街70號","121.527496666667","24.9765316666667","6500600","新店區"
"231011","108-UY","2017/06/26 15:18:50","新北市新店區順安街74號","121.541143333333","24.986675","6500600","新店區"
"231039","110-UY","2017/06/26 15:19:01","新北市新店區寶安街13號","121.541998333333","24.9818183333333","6500600","新店區"
"231019","187-VK","2017/06/26 14:47:53","新北市新店區永福路38-1號","121.553351666667","24.9292983333333","6500600","新店區"
"231026","256-BX","2017/06/26 15:18:51","新北市新店區中正路265巷21號","121.53775","24.97321","6500600","新店區"
"231014","AAD-862","2017/06/26 15:19:03","新北市新店區明山路45號","121.563825","24.955895","6500600","新店區"
"231024","3713-VJ","2017/06/26 15:18:53","新北市新店區新明街26巷12號","121.541498333333","24.9689983333333","6500600","新店區"
"231036","512-UM","2017/06/26 15:18:59","新北市新店區安祥路69巷19號","121.48188","24.9613233333333","6500600","新店區"
"231023","513-UM","2017/06/26 15:19:00","新北市新店區行政街43號","121.543211666667","24.9657083333333","6500600","新店區"
"231035","515-UM","2017/06/26 15:18:55","新北市新店區永平街14號","121.516956666667","24.9835866666667","6500600","新店區"
"231003","616-UM","2017/06/26 15:18:59","新北市新店區寶橋路188-7號","121.550411666667","24.9781333333333","6500600","新店區"
"231006","617-UM","2017/06/26 15:19:08","新北市新店區新坡一街101號","121.547968333333","24.9630316666667","6500600","新店區"
"231001","619-UM","2017/06/26 15:19:04","新北市新店區北新路一段323號","121.54169","24.96827","6500600","新店區"
"231034","645-TV","2017/06/26 15:19:01","新北市新店區如意街3巷1號","121.495715","24.9494266666667","6500600","新店區"
"231031","720-UM","2017/06/26 15:18:53","新北市新店區和成街15巷2號","121.487758333333","24.9472666666667","6500600","新店區"
"231005","897-TW","2017/06/26 15:18:59","新北市新店區北新路三段54號","121.542148333333","24.98018","6500600","新店區"
"231004","899-TW","2017/06/26 15:18:53","新北市新店區博愛街13巷24號","121.54026","24.97409","6500600","新店區"
"231037","AKT-0513","2017/06/26 15:18:50","新北市新店區安民街365巷1弄10號","121.516525","24.9750533333333","6500600","新店區"
"241020","413-TH","2017/06/26 15:18:58","新北市三重區重新路四段121號","121.483856666667","25.0530983333333","6500200","三重區"
"235030","003-UY","2017/06/26 15:18:48","新北市中和區保平路330號","121.5069","25.004285","6500300","中和區"
"235003","097-UM","2017/06/26 15:19:06","新北市中和區安平路120號","121.511843333333","24.9976383333333","6500300","中和區"
"235014","4979-A6","2017/06/26 15:19:01","新北市中和區景平路464巷2弄1-4號","121.505996666667","24.994035","6500300","中和區"
"235033","4980-A6","2017/06/26 15:18:51","新北市中和區南山路85號","121.502025","24.9979583333333","6500300","中和區"
"235070","558-UM","2017/06/26 15:18:56","新北市中和區圓通路123號","121.499313333333","24.9961366666667","6500300","中和區"
"235035","783-BX","2017/06/26 15:18:53","新北市中和區永和路454號","121.483871666667","25.0119433333333","6500300","中和區"
"235026","800-TS","2017/06/26 12:27:01","新北市中和區員山路36巷16-3號","121.485045","24.9913366666667","6500300","中和區"
"235012","896-TW","2017/06/26 15:18:49","新北市中和區景新街345-1號","121.511946666667","24.991155","6500300","中和區"
"235001","AAC-213","2017/06/26 15:18:45","新北市中和區秀朗路三段147號","121.5249","24.992305","6500300","中和區"
"235023","AAC-215","2017/06/26 15:18:57","新北市中和區圓通路435巷2-10號","121.487478333333","24.9866533333333","6500300","中和區"
"220013","072-UY","2017/06/26 15:18:50","新北市板橋區館前西路121號","121.456791666667","25.007545","6500100","板橋區"
"247007","339-TH","2017/06/26 15:18:47","新北市林口區太平里180號","121.368401666667","25.1344283333333","6501400","蘆洲區"
"247023","337-TH","2017/06/26 14:27:40","新北市五股區中興路三段2巷10號","121.448806666667","25.08169","6501400","蘆洲區"
"247005","335-TH","2017/06/26 15:19:04","新北市林口區汕頭32號","121.366375","25.1346033333333","6501400","蘆洲區"
"247013","057-VK","2017/06/26 15:18:36","新北市林口區太平里180號","121.366558333333","25.13445","6501400","蘆洲區"
"228003","097-TW","2017/06/26 15:18:59","新北市貢寮區貢寮里朝陽街1-2號","121.912338333333","25.021265","6502600","貢寮區"
"208004","AAC-292","2017/06/26 15:19:04","新北市金山區三界壇路111巷18-1號","121.61934","25.2319283333333","6502700","金山區"
"207001","463-BY","2017/06/26 15:18:58","新北市萬里區磺潭里員潭路1-4號","121.646555","25.2011833333333","6502800","萬里區"
"236064","105-UM","2017/06/26 15:19:01","新北市土城區學府路一段129巷28號","121.45451","24.985775","6501300","土城區"
"236040","107-UM","2017/06/26 15:19:06","新北市土城區裕民路263-1號","121.45517","24.9825083333333","6501300","土城區"
"236074","166-UM","2017/06/26 15:18:52","新北市土城區中州路12巷5號","121.4149","24.9573866666667","6501300","土城區"
"236028","253-BX","2017/06/26 15:18:56","新北市土城區中央路一段294號","121.443281666667","24.9823666666667","6501300","土城區"
"236024","269-VK","2017/06/26 15:19:02","新北市土城區中央路二段149巷8-1號","121.442548333333","24.9766033333333","6501300","土城區"
"236012","270-VK","2017/06/26 15:19:06","新北市土城區學府路一段15-1號","121.458453333333","24.98803","6501300","土城區"
"236032","271-VK","2017/06/26 15:19:08","新北市土城區國際路158巷24弄2號","121.468521666667","24.9758683333333","6501300","土城區"
"236016","401-BY","2017/06/26 15:18:51","新北市土城區峰廷街3號","121.469215","24.98736","6501300","土城區"
"236056","912-UM","2017/06/26 15:19:05","新北市土城區金城路一段32號","121.441476666667","24.9698333333333","6501300","土城區"
"236044","913-UM","2017/06/26 15:18:59","新北市土城區金城路二段271號","121.464008333333","24.9859566666667","6501300","土城區"
"236060","915-UM","2017/06/26 15:19:04","新北市土城區延平街33巷1號","121.467836666667","24.9916583333333","6501300","土城區"
"236052","AAC-216","2017/06/26 15:18:52","新北市土城區學府路一段276號","121.44997","24.9829533333333","6501300","土城區"
"238002","755-BX","2017/06/26 15:19:06","新北市樹林區大安路509號","121.414115","24.9863366666667","6500700","樹林區"
"238010","601-UM","2017/06/26 15:18:52","新北市樹林區大安路225號","121.419896666667","24.99484","6500700","樹林區"
"238006","599-UM","2017/06/26 15:19:07","新北市樹林區八德街251巷5號","121.422046666667","24.9784566666667","6500700","樹林區"
"238005","571-TV","2017/06/26 15:18:59","新北市板橋區大觀路三段59巷42號","121.435163333333","24.9949216666667","6500700","樹林區"
"238011","5061-A6","2017/06/26 15:19:04","新北市樹林區四德街7巷28號","121.425803333333","24.9919","6500700","樹林區"
"238009","312-TH","2017/06/26 15:18:58","新北市樹林區忠孝街31號","121.42374","24.9822033333333","6500700","樹林區"
"238008","311-TH","2017/06/26 15:10:00","新北市樹林區佳園路二段13號","121.393565","24.963955","6500700","樹林區"
"238012","303-VK","2017/06/26 15:19:01","新北市樹林區中山路二段78號","121.415131666667","24.983835","6500700","樹林區"
"238004","283-BY","2017/06/26 15:19:03","新北市樹林區大安路401號","121.4157","24.9891833333333","6500700","樹林區"
"238001","282-BY","2017/06/26 15:18:51","新北市樹林區大安路523號","121.413983333333","24.9861133333333","6500700","樹林區"
"238007","268-VK","2017/06/26 15:18:53","新北市板橋區大觀路三段59巷42號","121.435205","24.9945733333333","6500700","樹林區"
"238013","172-UY","2017/06/26 15:18:49","新北市樹林區東順街86號","121.408386666667","24.975685","6500700","樹林區"
"238003","169-UY","2017/06/26 15:18:48","新北市樹林區中山路二段72-1號","121.41563","24.9840133333333","6500700","樹林區"
"220050","245-BX","2017/06/26 15:18:53","新北市板橋區雙十路二段47巷37號","121.474933333333","25.0253466666667","6500100","板橋區"
"220017","258-TC","2017/06/26 15:19:05","新北市板橋區大明街19號","121.458776666667","25.002565","6500100","板橋區"
"220012","280-UM","2017/06/26 15:18:57","新北市板橋區長安街331巷50-3號","121.47354","25.0130016666667","6500100","板橋區"
"220031","286-VK","2017/06/26 15:19:07","新北市板橋區僑中二街102巷30號","121.444963333333","25.0085366666667","6500100","板橋區"
"220029","287-VK","2017/06/26 15:18:56","新北市板橋區僑中一街80巷1弄13號","121.44692","25.0119633333333","6500100","板橋區"
"220039","288-VK","2017/06/26 15:18:52","新北市板橋區幸福路32巷65號","121.460335","25.0222716666667","6500100","板橋區"
"220009","293-UM","2017/06/26 15:18:57","新北市板橋區四川路一段286巷22號","121.458025","25.0011183333333","6500100","板橋區"
"220041","307-R5","2017/06/26 15:19:00","新北市板橋區民權路174號","121.459465","25.0132816666667","6500100","板橋區"
"220038","487-VK","2017/06/26 15:18:50","新北市板橋區互助街73號","121.460311666667","25.0261583333333","6500100","板橋區"
"220037","491-VK","2017/06/26 15:18:42","新北市板橋區民治街57巷2號","121.479488333333","25.0333333333333","6500100","板橋區"
"220052","561-BX","2017/06/26 15:18:50","新北市板橋區陽明街279巷35-2號","121.461101666667","25.0256816666667","6500100","板橋區"
"220011","609-BX","2017/06/26 15:19:05","新北市板橋區三民路一段107號","121.479363333333","25.0213916666667","6500100","板橋區"
"220025","687-BX","2017/06/26 15:19:03","新北市板橋區大觀路三段56號","121.433456666667","24.9954416666667","6500100","板橋區"
"220042","689-BX","2017/06/26 15:19:05","新北市板橋區長江路二段278-1號","121.46985","25.0327916666667","6500100","板橋區"
"220051","830-TW","2017/06/26 15:18:56","新北市板橋區漢生東路17號","121.464835","25.01732","6500100","板橋區"
"220046","AAC-210","2017/06/26 15:18:59","新北市板橋區公館街60號","121.4613","25.0163933333333","6500100","板橋區"
"220018","AAC-253","2017/06/26 15:19:00","新北市板橋區德興街13號","121.453436666667","24.9944","6500100","板橋區"
