"lineid","car","time","location","longitude","latitude","cityid","cityname"
"234007","695-BX","2017/06/26 10:31:53","新北市永和區福和路1號","121.526608333333","25.0100533333333","6500400","永和區"
"248010","272-BY","2017/06/26 15:21:09","新北市五股區中興路二段83巷26-6號","121.459915","25.0749033333333","6501500","五股區"
"243009","297-R6","2017/06/26 15:40:56","新北市泰山區黎明路25號","121.42213","25.0608133333333","6501600","泰山區"
"231030","047-UY","2017/06/26 15:59:01","新北市新店區永平街6號","121.517401666667","24.9835733333333","6500600","新店區"
"231018","107-UY","2017/06/26 15:59:00","新北市新店區中正路663巷1弄2號","121.532913333333","24.99003","6500600","新店區"
"231011","108-UY","2017/06/26 15:58:50","新北市新店區溪園路369號","121.523005","24.98011","6500600","新店區"
"231019","187-VK","2017/06/26 14:47:53","新北市新店區永福路38-1號","121.553351666667","24.9292983333333","6500600","新店區"
"231026","256-BX","2017/06/26 15:58:51","新北市新店區民生路23號","121.532753333333","24.9864583333333","6500600","新店區"
"231046","278-BY","2017/06/26 15:58:48","新北市新店區安華路28-1號","121.519685","24.9615183333333","6500600","新店區"
"231014","AAD-862","2017/06/26 15:59:03","新北市新店區中正路284巷4弄8號","121.538533333333","24.9746033333333","6500600","新店區"
"231038","4715-K9","2017/06/26 15:58:55","新北市新店區安康路二段228巷13號","121.509483333333","24.9598483333333","6500600","新店區"
"231035","515-UM","2017/06/26 15:58:55","新北市新店區安民街322巷12號","121.51826","24.974125","6500600","新店區"
"231003","616-UM","2017/06/26 15:58:59","新北市新店區中興路二段197號","121.548181666667","24.9737083333333","6500600","新店區"
"231034","645-TV","2017/06/26 15:59:01","新北市新店區吉祥街3巷2號","121.497238333333","24.9478816666667","6500600","新店區"
"231013","719-UM","2017/06/26 15:58:58","新北市新店區華潭街1巷92號","121.529551666667","24.9506083333333","6500600","新店區"
"231037","AKT-0513","2017/06/26 15:58:50","新北市新店區吉安街39號","121.515358333333","24.9662816666667","6500600","新店區"
"241011","013-R5","2017/06/26 15:58:50","新北市三重區雙園街11號","121.496683333333","25.0680083333333","6500200","三重區"
"241028","022-UY","2017/06/26 15:59:02","新北市三重區電信街95號","121.495538333333","25.0582416666667","6500200","三重區"
"241015","062-VK","2017/06/26 15:58:50","新北市三重區重新路四段121號","121.485088333333","25.0520016666667","6500200","三重區"
"241017","063-VK","2017/06/26 15:58:37","新北市三重區民生街86號","121.49027","25.0642633333333","6500200","三重區"
"241024","065-VK","2017/06/26 15:58:53","新北市三重區力行路一段38巷27號","121.485386666667","25.0670566666667","6500200","三重區"
"241026","066-VK","2017/06/26 15:58:57","新北市三重區中正南路68號","121.494181666667","25.0594133333333","6500200","三重區"
"241003","091-VK","2017/06/26 15:58:49","新北市三重區進安街76號","121.496126666667","25.0845516666667","6500200","三重區"
"241005","262-UM","2017/06/26 15:58:54","新北市三重區自強路四段107-1號","121.491761666667","25.0800083333333","6500200","三重區"
"241007","265-UM","2017/06/26 15:58:57","新北市三重區力行路一段259號","121.482395","25.0710783333333","6500200","三重區"
"241016","266-UM","2017/06/26 15:58:49","新北市三重區重新路四段121號","121.48471","25.0518983333333","6500200","三重區"
"241022","267-UM","2017/06/26 15:58:59","新北市三重區三民街175巷4號","121.483558333333","25.06542","6500200","三重區"
"241018","268-UM","2017/06/26 15:58:53","新北市三重區中正北路27號","121.491778333333","25.062425","6500200","三重區"
"241013","270-UM","2017/06/26 15:59:00","新北市三重區三和路三段16巷34號","121.496031666667","25.0699433333333","6500200","三重區"
"241025","271-UM","2017/06/26 15:58:46","新北市三重區三民街148號","121.482586666667","25.0654183333333","6500200","三重區"
"241008","412-TH","2017/06/26 15:58:57","新北市三重區捷運路36號","121.483493333333","25.0539433333333","6500200","三重區"
"241020","413-TH","2017/06/26 15:58:58","新北市三重區力行路一段189號","121.483575","25.0698333333333","6500200","三重區"
"241014","543-UM","2017/06/26 15:58:50","新北市三重區重新路四段121號","121.485041666667","25.051875","6500200","三重區"
"241023","545-UM","2017/06/26 15:58:53","新北市三重區三民街175巷14號","121.4838","25.0655983333333","6500200","三重區"
"241006","AAD-863","2017/06/26 15:59:00","新北市三重區力行路二段134號","121.48232","25.0755566666667","6500200","三重區"
"241001","887-TS","2017/06/26 15:58:55","新北市三重區重新路四段121號","121.485031666667","25.052165","6500200","三重區"
"241012","941-UM","2017/06/26 15:59:03","新北市三重區正義北路111號","121.497173333333","25.06573","6500200","三重區"
"241029","942-UM","2017/06/26 15:58:48","新北市三重區大同南路242號","121.496913333333","25.0559266666667","6500200","三重區"
"241033","AAC-255","2017/06/26 15:58:25","台北市萬華區長順街46巷49號","121.486918333333","25.0309716666667","6500200","三重區"
"235026","031-BX","2017/06/26 15:58:47","新北市中和區橋和路166號","121.494366666667","25.0064433333333","6500300","中和區"
"235026","800-TS","2017/06/26 12:27:01","新北市中和區員山路36巷16-3號","121.485045","24.9913366666667","6500300","中和區"
"247023","337-TH","2017/06/26 14:27:40","新北市五股區中興路三段2巷10號","121.448806666667","25.08169","6501400","蘆洲區"
"228003","097-TW","2017/06/26 15:20:06","新北市貢寮區貢寮里朝陽街1-2號","121.912338333333","25.0212583333333","6502600","貢寮區"
"224007","272-VK","2017/06/26 15:58:53","新北市瑞芳區粗坑口路1巷1-1號","121.762013333333","25.097375","6501200","瑞芳區"
"224005","271-BY","2017/06/26 15:59:04","新北市瑞芳區瑞興新村12巷1號","121.788473333333","25.1083566666667","6501200","瑞芳區"
"227001","642-TC","2017/06/26 15:58:55","新北市雙溪區平林里外平林67號","121.843595","25.0350066666667","6502500","雙溪區"
"227008","400-TW","2017/06/26 15:58:46","新北市雙溪區三港里雙澳路26號","121.869555","25.0483016666667","6502500","雙溪區"
"236064","105-UM","2017/06/26 15:59:00","新北市土城區民權街14號","121.415011666667","24.96422","6501300","土城區"
"236074","166-UM","2017/06/26 15:58:56","新北市土城區民族街20號","121.41898","24.9629833333333","6501300","土城區"
"236056","912-UM","2017/06/26 15:58:45","新北市土城區中央路一段343號","121.443283333333","24.9814083333333","6501300","土城區"
"236052","AAC-216","2017/06/26 15:58:52","新北市土城區中華路一段166號","121.44144","24.9831816666667","6501300","土城區"
"238002","755-BX","2017/06/26 15:58:26","新北市樹林區大安路307巷1弄6號","121.418366666667","24.9922133333333","6500700","樹林區"
"238010","601-UM","2017/06/26 15:58:58","新北市樹林區龍興街14巷17號","121.402086666667","25.0159883333333","6500700","樹林區"
"238006","599-UM","2017/06/26 15:58:47","新北市樹林區水源街32巷48號","121.42526","24.9807616666667","6500700","樹林區"
"238005","571-TV","2017/06/26 15:58:59","新北市樹林區博愛街215號","121.424025","24.986545","6500700","樹林區"
"238011","5061-A6","2017/06/26 15:59:03","新北市樹林區山佳街57號","121.392843333333","24.9725433333333","6500700","樹林區"
"238009","312-TH","2017/06/26 15:56:18","新北市樹林區太順街86巷28號","121.416523333333","24.9787166666667","6500700","樹林區"
"238008","311-TH","2017/06/26 15:10:00","新北市樹林區佳園路二段13號","121.393565","24.963955","6500700","樹林區"
"238012","303-VK","2017/06/26 15:59:01","新北市樹林區保安二街161號","121.422168333333","24.9955066666667","6500700","樹林區"
"238004","283-BY","2017/06/26 15:59:03","新北市樹林區中正路433-2號","121.414895","25.0081583333333","6500700","樹林區"
"238001","282-BY","2017/06/26 15:58:51","新北市樹林區保安二街40巷25號","121.425791666667","24.9944566666667","6500700","樹林區"
"238007","268-VK","2017/06/26 15:58:53","新北市樹林區三俊街199巷37號","121.420675","25.0183883333333","6500700","樹林區"
"238013","172-UY","2017/06/26 15:58:49","新北市樹林區佳園路一段38號","121.392756666667","24.970745","6500700","樹林區"
"238003","169-UY","2017/06/26 15:58:48","新北市樹林區日新街172巷6號","121.419876666667","24.9882916666667","6500700","樹林區"
"220017","258-TC","2017/06/26 15:58:51","新北市樹林區中山路三段210-2號","121.380758333333","24.9667333333333","6500100","板橋區"
"220025","687-BX","2017/06/26 15:58:43","新北市樹林區西圳街一段52巷27號","121.404618333333","24.964975","6500100","板橋區"
"220018","AAC-253","2017/06/26 15:58:24","新北市板橋區中山路二段89巷5弄12號","121.472713333333","25.016785","6500100","板橋區"
