"lineid","car","time","location","longitude","latitude","cityid","cityname"
"234007","695-BX","2017/06/26 18:07:49","新北市永和區福和路1號","121.526651666667","25.0101766666667","6500400","永和區"
"234026","9371-KE","2017/06/26 18:09:39","新北市永和區永和路一段72巷4號","121.513431666667","25.0061266666667","6500400","永和區"
"234011","9373-KE","2017/06/26 18:09:57","新北市永和區福和路1號","121.525591666667","25.0092933333333","6500400","永和區"
"249005","172-UM","2017/06/26 18:09:44","新北市八里區荖阡坑路15號","121.401551666667","25.1398183333333","6502300","八里區"
"249001","173-UM","2017/06/26 18:09:50","新北市八里區龍米路二段30號","121.448693333333","25.139835","6502300","八里區"
"249004","303-UY","2017/06/26 18:09:54","新北市八里區龍米路二段155巷2弄7號","121.439028333333","25.1536283333333","6502300","八里區"
"249002","305-UY","2017/06/26 18:09:50","新北市八里區龍米路一段356巷40號","121.452301666667","25.1305433333333","6502300","八里區"
"249003","593-UM","2017/06/26 18:09:42","新北市八里區中華路二段165巷19弄22號","121.410328333333","25.15168","6502300","八里區"
"248014","025-BX","2017/06/26 18:09:45","新北市五股區成泰路一段220號","121.436443333333","25.079635","6501500","五股區"
"248016","026-BX","2017/06/26 18:09:48","新北市五股區成泰路三段221巷16號","121.4458","25.0934816666667","6501500","五股區"
"248006","077-UY","2017/06/26 18:09:55","新北市五股區中興路二段56號","121.461735","25.0768216666667","6501500","五股區"
"248008","095-VK","2017/06/26 18:09:50","新北市五股區中興路二段182巷15弄16號","121.458128333333","25.0805016666667","6501500","五股區"
"248018","225-UY","2017/06/26 18:09:48","新北市五股區成泰路三段59號","121.443261666667","25.0895966666667","6501500","五股區"
"248012","247-BX","2017/06/26 18:09:56","新北市五股區新五路三段2號","121.444683333333","25.08808","6501500","五股區"
"248010","272-BY","2017/06/26 18:09:48","新北市五股區成泰路一段198號","121.435921666667","25.0787783333333","6501500","五股區"
"248004","677-BX","2017/06/26 18:09:59","新北市五股區中興路四段54號","121.438003333333","25.0830266666667","6501500","五股區"
"248002","678-BX","2017/06/26 18:09:44","新北市五股區新五路二段367號","121.444348333333","25.0880533333333","6501500","五股區"
"232011","375-UM","2017/06/26 18:09:52","新北市坪林區水柳腳6號","121.711341666667","24.9356283333333","6502000","坪林區"
"244013","069-UM","2017/06/26 18:09:45","新北市林口區中山路27號","121.395411666667","25.0782816666667","6501700","林口區"
"244006","080-UY","2017/06/26 18:09:57","新北市林口區林口路296號","121.386043333333","25.0854716666667","6501700","林口區"
"244019","403-UM","2017/06/26 18:09:46","新北市林口區文化一路一段90號","121.373016666667","25.0708333333333","6501700","林口區"
"244009","410-SL","2017/06/26 18:09:53","新北市林口區佳林路43號","121.386381666667","25.0816916666667","6501700","林口區"
"244023","483-VK","2017/06/26 18:09:41","新北市林口區東湖路105巷7號","121.383768333333","25.072925","6501700","林口區"
"244017","485-VK","2017/06/26 18:09:51","新北市林口區忠孝路504巷21號","121.369756666667","25.0696283333333","6501700","林口區"
"244021","657-BX","2017/06/26 18:09:54","新北市林口區自強八街23號","121.399893333333","25.0758516666667","6501700","林口區"
"244011","701-TV","2017/06/26 18:09:23","新北市林口區中山路3號","121.396563333333","25.0781116666667","6501700","林口區"
"244025","837-TS","2017/06/26 18:09:45","新北市林口區文化北路一段290號","121.359985","25.07244","6501700","林口區"
"243013","AAD-798","2017/06/26 18:09:44","新北市泰山區黎明路22號","121.42083","25.0607983333333","6501600","泰山區"
"243009","297-R6","2017/06/26 15:40:56","新北市泰山區黎明路25號","121.42213","25.0608133333333","6501600","泰山區"
"243015","380-SR","2017/06/26 17:46:17","新北市泰山區犁頭窠3-1號","121.42219","25.0605866666667","6501600","泰山區"
"222003","436-BY","2017/06/26 18:09:56","新北市深坑區阿柔洋49-1號","121.611638333333","24.9965066666667","6501800","深坑區"
"222001","696-SL","2017/06/26 18:09:22","新北市深坑區北深路二段151號","121.614083333333","25.00218","6501800","深坑區"
"231059","046-UY","2017/06/26 18:09:51","新北市新店區安華路28-1號","121.519553333333","24.960785","6500600","新店區"
"231061","047-UY","2017/06/26 18:09:41","新北市新店區安華路28-1號","121.519281666667","24.9610783333333","6500600","新店區"
"231060","106-UY","2017/06/26 18:09:53","新北市新店區安華路28-1號","121.51979","24.96082","6500600","新店區"
"231051","107-UY","2017/06/26 18:09:39","新北市新店區安康路一段355-3號","121.5195","24.9622366666667","6500600","新店區"
"231052","187-VK","2017/06/26 16:04:52","新北市新店區薏仁坑路自強巷1號","121.497633333333","24.95755","6500600","新店區"
"231057","256-BX","2017/06/26 18:09:26","新北市新店區安華路28-1號","121.519921666667","24.9612316666667","6500600","新店區"
"231046","278-BY","2017/06/26 18:09:58","新北市新店區下石厝路18號","121.53342","24.927975","6500600","新店區"
"231058","3712-VJ","2017/06/26 18:09:47","新北市新店區安華路28-1號","121.519206666667","24.96059","6500600","新店區"
"231055","3713-VJ","2017/06/26 18:09:50","新北市新店區安華路28-1號","121.5192","24.9606966666667","6500600","新店區"
"231042","616-UM","2017/06/26 18:09:39","新北市新店區安華路28-1號","121.51948","24.960615","6500600","新店區"
"231045","617-UM","2017/06/26 18:09:53","新北市新店區安華路28-1號","121.519448333333","24.9610766666667","6500600","新店區"
"231040","619-UM","2017/06/26 18:09:39","新北市新店區安華路28-1號","121.519541666667","24.9608083333333","6500600","新店區"
"231049","719-UM","2017/06/26 18:09:43","新北市新店區安華路28-1號","121.519618333333","24.96132","6500600","新店區"
"231062","720-UM","2017/06/26 18:09:42","新北市新店區安華路28-1號","121.519331666667","24.9611233333333","6500600","新店區"
"241033","AAC-255","2017/06/26 18:09:25","新北市三重區光復路一段47號","121.472086666667","25.04853","6500200","三重區"
"235064","005-UY","2017/06/26 18:09:51","新北市中和區錦和路350-1號","121.490083333333","24.9935466666667","6500300","中和區"
"235063","006-UY","2017/06/26 18:09:40","新北市中和區員山路36巷16-3號","121.484993333333","24.9913316666667","6500300","中和區"
"235062","031-BX","2017/06/26 18:09:55","新北市中和區中山路二段480號","121.487643333333","25.0048133333333","6500300","中和區"
"235056","096-UM","2017/06/26 18:09:46","新北市中和區連城路469巷1號","121.483611666667","24.9958683333333","6500300","中和區"
"235039","097-UM","2017/06/26 18:09:36","新北市中和區員山路36巷16-2號","121.485411666667","24.9915516666667","6500300","中和區"
"235040","150-BY","2017/06/26 18:09:44","新北市中和區和城路一段271巷1號","121.485441666667","24.9918416666667","6500300","中和區"
"235058","151-BY","2017/06/26 18:09:50","新北市中和區圓通路367巷33弄59號","121.495601666667","24.9861516666667","6500300","中和區"
"235038","185-VK","2017/06/26 18:09:51","新北市中和區景平路123號","121.515455","24.9921433333333","6500300","中和區"
"235067","255-BX","2017/06/26 18:09:45","新北市中和區和城路一段271巷1號","121.485466666667","24.991775","6500300","中和區"
"235043","352-BY","2017/06/26 18:09:53","新北市中和區員山路36巷16-2號","121.485366666667","24.991345","6500300","中和區"
"235051","376-QA","2017/06/26 18:07:26","新北市中和區中正路305號","121.49269","24.9940383333333","6500300","中和區"
"235061","378-QA","2017/06/26 18:07:33","新北市中和區和城路一段271巷1號","121.486008333333","24.992135","6500300","中和區"
"235050","4979-A6","2017/06/26 18:09:50","新北市中和區錦和路350-1號","121.490591666667","24.9935866666667","6500300","中和區"
"235069","4980-A6","2017/06/26 18:09:39","新北市中和區中正路406號","121.492575","24.9941683333333","6500300","中和區"
"235054","640-BX","2017/06/26 18:09:51","新北市中和區中正路637巷52弄11號","121.48486","24.9936783333333","6500300","中和區"
"235071","783-BX","2017/06/26 18:09:47","新北市中和區員山路36巷16-3號","121.485213333333","24.991195","6500300","中和區"
"235026","800-TS","2017/06/26 17:26:01","新北市中和區員山路36巷16-2號","121.4852","24.99141","6500300","中和區"
"235037","AAC-213","2017/06/26 18:09:49","新北市中和區錦和路350-1號","121.490181666667","24.993575","6500300","中和區"
"247008","339-TH","2017/06/26 18:09:49","新北市五股區凌雲路三段17-2號","121.429771666667","25.1085766666667","6501400","蘆洲區"
"247023","337-TH","2017/06/26 14:27:40","新北市五股區中興路三段2巷10號","121.448806666667","25.08169","6501400","蘆洲區"
"247002","336-TH","2017/06/26 18:09:52","新北市蘆洲區永平街32巷69弄1號","121.459871666667","25.0932433333333","6501400","蘆洲區"
"247006","335-TH","2017/06/26 18:09:35","新北市五股區天乙路101-6號","121.444341666667","25.1069433333333","6501400","蘆洲區"
"247014","057-VK","2017/06/26 18:09:36","新北市林口區太平里180號","121.368163333333","25.13432","6501400","蘆洲區"
"226004","205-ST","2017/06/26 18:09:53","新北市平溪區白石里白石腳32號","121.719388333333","25.0215183333333","6502400","平溪區"
"228003","097-TW","2017/06/26 18:09:51","新北市貢寮區真理里美艷山街6-2號","121.928945","25.0607333333333","6502600","貢寮區"
"228002","585-TW","2017/06/26 18:09:40","新北市貢寮區福連里馬崗街37-4號","122.001515","25.0117","6502600","貢寮區"
"228001","670-TC","2017/06/26 18:09:57","新北市貢寮區真理里新港街26巷55弄2-1號","121.927363333333","25.0529083333333","6502600","貢寮區"
"224006","676-BX","2017/06/26 18:09:51","新北市瑞芳區三爪子坑路32巷124號","121.809226666667","25.1066766666667","6501200","瑞芳區"
"224002","639-TC","2017/06/26 18:09:57","新北市瑞芳區三爪子坑路94-9號","121.808936666667","25.105215","6501200","瑞芳區"
"224011","420-VK","2017/06/26 18:09:58","新北市瑞芳區明燈路一段1號","121.827628333333","25.1096066666667","6501200","瑞芳區"
"224009","285-BY","2017/06/26 18:09:39","新北市瑞芳區金光路145號","121.853003333333","25.1063","6501200","瑞芳區"
"224008","275-VK","2017/06/26 18:09:54","新北市瑞芳區逢甲路38號","121.811345","25.10839","6501200","瑞芳區"
"224007","272-VK","2017/06/26 18:09:53","新北市瑞芳區大寮路84號","121.78036","25.1012766666667","6501200","瑞芳區"
"224005","271-BY","2017/06/26 18:09:54","新北市瑞芳區深澳路189-1號","121.820666666667","25.133905","6501200","瑞芳區"
"227001","642-TC","2017/06/26 18:09:49","新北市雙溪區雙溪里太平路2號","121.863743333333","25.0349833333333","6502500","雙溪區"
"253006","032-BX","2017/06/26 18:09:57","新北市石門區老梅路52巷21號","121.546433333333","25.2885233333333","6502200","石門區"
"253005","295-VK","2017/06/26 18:09:39","新北市石門區福安街39號","121.568518333333","25.2920866666667","6502200","石門區"
"208003","665-BX","2017/06/26 18:09:43","新北市金山區磺港里磺港路48-1號","121.64794","25.228385","6502700","金山區"
"208001","761-BX","2017/06/26 18:09:37","新北市金山區磺港里磺港路110號","121.646356666667","25.22683","6502700","金山區"
"251009","008-UM","2017/06/26 17:29:15","新北市淡水區新生街90巷3號","121.439551666667","25.174505","6501000","淡水區"
"251004","009-UM","2017/06/26 18:09:41","新北市淡水區民族路102號","121.462626666667","25.1353116666667","6501000","淡水區"
"251005","010-UM","2017/06/26 18:09:37","新北市淡水區水源街一段122巷9號","121.447283333333","25.1713316666667","6501000","淡水區"
"251008","181-VK","2017/06/26 18:09:48","新北市淡水區淡金路8-1號","121.45734","25.159805","6501000","淡水區"
"251013","182-VK","2017/06/26 18:09:50","新北市淡水區竹圍子10-2號","121.476128333333","25.1949566666667","6501000","淡水區"
"251010","413-VK","2017/06/26 18:09:38","新北市淡水區中正路二段52號","121.419801666667","25.183325","6501000","淡水區"
"251012","441-VK","2017/06/26 18:09:54","新北市淡水區北新路三段157號","121.48894","25.1903733333333","6501000","淡水區"
"251015","442-VK","2017/06/26 18:09:56","新北市淡水區興福寮88巷1號","121.485493333333","25.1650583333333","6501000","淡水區"
"251001","559-UM","2017/06/26 18:09:50","新北市淡水區自立路6-3號","121.462676666667","25.1294266666667","6501000","淡水區"
"251006","561-UM","2017/06/26 18:09:39","新北市淡水區真理街3巷20號","121.437538333333","25.1760633333333","6501000","淡水區"
"251011","650-BX","2017/06/26 18:09:50","新北市淡水區三空泉9-2號","121.474138333333","25.1634383333333","6501000","淡水區"
"251002","672-BX","2017/06/26 18:09:41","新北市淡水區中正東路一段49號","121.452425","25.1627266666667","6501000","淡水區"
"251003","766-UM","2017/06/26 18:09:51","新北市淡水區北新路180號","121.44941","25.17871","6501000","淡水區"
"207003","550-UM","2017/06/26 18:09:40","新北市萬里區野柳里港西路11號","121.685105","25.204125","6502800","萬里區"
"207004","225-TW","2017/06/26 18:09:50","新北市萬里區中幅里中福路132號","121.674923333333","25.1666066666667","6502800","萬里區"
"252002","178-VK","2017/06/26 18:09:57","新北市三芝區中山路二段43號","121.502985","25.255005","6502100","三芝區"
"252003","249-BX","2017/06/26 18:09:48","新北市三芝區埔頭里埔頭37號","121.498413333333","25.2602966666667","6502100","三芝區"
"252001","702-TV","2017/06/26 18:09:44","新北市三芝區中興街二段2號","121.498308333333","25.256675","6502100","三芝區"
"208002","170-UY","2017/06/26 18:09:45","新北市金山區三界壇路56號","121.62211","25.2296733333333","6502700","金山區"
"237004","078-UY","2017/06/26 18:09:42","新北市三峽區大埔路148號","121.365175","24.899175","6500900","三峽區"
"237007","153-BY","2017/06/26 18:09:51","新北市三峽區中正路二段370巷83號","121.364375","24.9115","6500900","三峽區"
"237009","210-TH","2017/06/26 18:09:52","新北市三峽區大仁路50巷16號","121.365353333333","24.9380816666667","6500900","三峽區"
"237013","252-BX","2017/06/26 18:09:50","新北市三峽區長泰街46號","121.378111666667","24.9323866666667","6500900","三峽區"
"237012","275-BY","2017/06/26 18:09:51","新北市三峽區民生街19巷7弄37號","121.377391666667","24.9354716666667","6500900","三峽區"
"237008","302-VK","2017/06/26 18:09:41","新北市三峽區白雞44-38號","121.37743","24.9102616666667","6500900","三峽區"
"237014","433-BY","2017/06/26 18:09:41","新北市三峽區復興路158號","121.371385","24.9383316666667","6500900","三峽區"
"237006","5529-G3","2017/06/26 18:09:40","新北市三峽區溪東路178巷13弄12號","121.406218333333","24.932185","6500900","三峽區"
"237011","572-TV","2017/06/26 18:09:49","新北市三峽區橫溪路53-1號","121.396703333333","24.9354166666667","6500900","三峽區"
"237015","649-BX","2017/06/26 18:09:53","新北市三峽區紫微路42-1號","121.42245","24.9199466666667","6500900","三峽區"
"237010","706-TV","2017/06/26 18:09:37","新北市三峽區民族街148巷3號","121.369123333333","24.9284566666667","6500900","三峽區"
"237005","AKY-6261","2017/06/26 18:09:51","新北市三峽區文化路65巷12號","121.37202","24.9355183333333","6500900","三峽區"
"236069","105-UM","2017/06/26 18:09:40","新北市土城區明德路二段69號","121.451386666667","24.9811066666667","6501300","土城區"
"236042","107-UM","2017/06/26 18:09:37","新北市土城區裕生路65-1號","121.447538333333","24.98583","6501300","土城區"
"236078","166-UM","2017/06/26 18:09:57","新北市土城區永寧路41號","121.429973333333","24.9619233333333","6501300","土城區"
"236030","253-BX","2017/06/26 18:09:48","新北市土城區城林路6巷80號","121.438465","24.97981","6501300","土城區"
"236026","269-VK","2017/06/26 18:09:41","新北市土城區承天路67號","121.43951","24.963515","6501300","土城區"
"236014","270-VK","2017/06/26 18:09:57","新北市土城區學府路一段77號","121.456815","24.9881883333333","6501300","土城區"
"236036","271-VK","2017/06/26 18:09:37","新北市土城區青雲路449-1號","121.458978333333","24.97464","6501300","土城區"
"236020","401-BY","2017/06/26 18:09:55","新北市土城區明德路二段141號","121.448666666667","24.9827716666667","6501300","土城區"
"236058","912-UM","2017/06/26 18:09:40","新北市土城區中央路四段10號","121.421895","24.9614366666667","6501300","土城區"
"236048","913-UM","2017/06/26 18:09:50","新北市土城區學士路123號","121.446575","24.97588","6501300","土城區"
"236062","915-UM","2017/06/26 18:09:23","新北市土城區員福街2號","121.441965","24.9783666666667","6501300","土城區"
"236053","AAC-216","2017/06/26 18:09:45","新北市土城區中華路二段62號","121.438978333333","24.97697","6501300","土城區"
"242021","AAC-296","2017/06/26 18:09:45","新北市新莊區新興街102巷1號","121.450735","25.0389983333333","6500500","新莊區"
"242048","751-BX","2017/06/26 18:09:49","新北市新莊區民安路49號","121.423931666667","25.0262466666667","6500500","新莊區"
"242025","615-BX","2017/06/26 18:09:53","新北市新莊區五權一路110號","121.459863333333","25.06799","6500500","新莊區"
"242023","613-BX","2017/06/26 18:09:56","新北市新莊區幸福路763-2號","121.447813333333","25.0490533333333","6500500","新莊區"
"242027","612-BX","2017/06/26 18:09:56","新北市新莊區幸福路532號","121.455753333333","25.0493683333333","6500500","新莊區"
"242036","566-BX","2017/06/26 18:09:38","新北市新莊區後港一路49巷3弄1號","121.425781666667","25.0268733333333","6500500","新莊區"
"242042","497-BY","2017/06/26 18:09:55","新北市新莊區天祥街121巷13號","121.41437","25.0291483333333","6500500","新莊區"
"242004","442-UM","2017/06/26 18:09:49","新北市新莊區自立街81號","121.454551666667","25.0453983333333","6500500","新莊區"
"242046","441-UM","2017/06/26 18:09:58","新北市新莊區福營路279號","121.427383333333","25.0294466666667","6500500","新莊區"
"242050","440-UM","2017/06/26 18:09:40","新北市新莊區民本街11巷35號","121.429121666667","25.0202766666667","6500500","新莊區"
"242031","415-TV","2017/06/26 18:09:41","新北市新莊區新泰路253號","121.446025","25.039835","6500500","新莊區"
"242002","413-TV","2017/06/26 18:09:54","新北市新莊區新莊路14號","121.459081666667","25.037625","6500500","新莊區"
"242039","400-BY","2017/06/26 18:09:49","新北市新莊區民安東路145號","121.431865","25.0206316666667","6500500","新莊區"
"242060","362-BY","2017/06/26 18:09:43","新北市新莊區新樹路44號","121.437623333333","25.0277416666667","6500500","新莊區"
"242058","353-BY","2017/06/26 18:09:30","新北市新莊區中山路三段656號","121.413305","25.0242316666667","6500500","新莊區"
"242011","132-UY","2017/06/26 18:09:55","新北市新莊區中信街90號","121.447891666667","25.0534283333333","6500500","新莊區"
"242044","172-VK","2017/06/26 18:09:53","新北市新莊區天泉二街11號","121.415111666667","25.0249216666667","6500500","新莊區"
"242007","173-VK","2017/06/26 18:09:52","新北市新莊區自重街2號","121.453346666667","25.0474933333333","6500500","新莊區"
"242013","175-VK","2017/06/26 18:09:38","新北市新莊區新樹路69-65號","121.442121666667","25.02921","6500500","新莊區"
"242056","176-VK","2017/06/26 18:09:49","新北市新莊區泰豐街11巷9號","121.448075","25.0312916666667","6500500","新莊區"
"242019","346-TH","2017/06/26 18:09:47","新北市新莊區公園路129-1號","121.456766666667","25.04067","6500500","新莊區"
"242034","347-TH","2017/06/26 18:09:41","新北市新莊區景德路267號","121.448065","25.0335666666667","6500500","新莊區"
"242017","348-TH","2017/06/26 18:09:54","新北市新莊區中港路303號","121.4529","25.04459","6500500","新莊區"
"242053","349-TH","2017/06/26 18:09:57","新北市新莊區民安西路327巷4弄1號","121.428061666667","25.0115416666667","6500500","新莊區"
"242015","350-TH","2017/06/26 18:09:45","新北市新莊區中平路152巷36號","121.446221666667","25.0472116666667","6500500","新莊區"
"242009","351-TH","2017/06/26 18:09:46","新北市新莊區幸福路600號","121.452995","25.0493133333333","6500500","新莊區"
"238015","755-BX","2017/06/26 18:09:47","新北市樹林區文化街91巷14號","121.415803333333","24.98947","6500700","樹林區"
"238023","601-UM","2017/06/26 18:09:52","新北市樹林區龍興街46巷17號","121.40235","25.015225","6500700","樹林區"
"238019","599-UM","2017/06/26 18:09:47","新北市樹林區水源街32巷74號","121.425008333333","24.9802016666667","6500700","樹林區"
"238018","571-TV","2017/06/26 18:09:58","新北市樹林區樹新路245號","121.431246666667","25.000705","6500700","樹林區"
"238022","312-TH","2017/06/26 18:09:37","新北市樹林區太平路174巷24號","121.417591666667","24.9766216666667","6500700","樹林區"
"238021","311-TH","2017/06/26 18:09:12","新北市樹林區柑園街一段23-8號","121.404216666667","24.9603483333333","6500700","樹林區"
"238025","303-VK","2017/06/26 18:09:41","新北市樹林區保安街二段162號","121.413241666667","25.004645","6500700","樹林區"
"238017","283-BY","2017/06/26 18:09:42","新北市樹林區中正路677號","121.411971666667","25.0134316666667","6500700","樹林區"
"238014","282-BY","2017/06/26 18:09:58","新北市樹林區中正路47號","121.426756666667","24.9997116666667","6500700","樹林區"
"238020","268-VK","2017/06/26 18:09:39","新北市樹林區三龍街82號","121.414025","25.018475","6500700","樹林區"
"238026","172-UY","2017/06/26 18:09:57","新北市樹林區佳園路一段37號","121.393131666667","24.9709966666667","6500700","樹林區"
"238016","169-UY","2017/06/26 18:09:48","新北市樹林區文化街30號","121.419001666667","24.9878533333333","6500700","樹林區"
"239007","AAC-297","2017/06/26 18:09:42","新北市鶯歌區尖山埔路100號","121.34739","24.9511783333333","6500800","鶯歌區"
"239006","891-R6","2017/06/26 18:09:42","新北市鶯歌區鶯桃路378號","121.33381","24.9632666666667","6500800","鶯歌區"
"239008","527-UM","2017/06/26 18:09:54","新北市鶯歌區國際一路179號","121.336195","24.9764916666667","6500800","鶯歌區"
"239005","526-UM","2017/06/26 18:09:40","新北市鶯歌區鶯桃路668巷74-1號","121.329946666667","24.9717783333333","6500800","鶯歌區"
"239001","417-VK","2017/06/26 18:09:45","新北市鶯歌區尖山路386號","121.342061666667","24.9434816666667","6500800","鶯歌區"
"239003","360-BY","2017/06/26 18:09:51","新北市鶯歌區福安街32巷34號","121.335285","24.9634983333333","6500800","鶯歌區"
"239002","359-BY","2017/06/26 18:09:46","新北市鶯歌區中山路329巷6弄24號","121.343438333333","24.9557833333333","6500800","鶯歌區"
"221008","489-VK","2017/06/26 18:09:48","新北市汐止區康寧街315號","121.627051666667","25.0678933333333","6501100","汐止區"
"221036","130-UY","2017/06/26 18:09:58","新北市汐止區大同路三段141號","121.669346666667","25.07777","6501100","汐止區"
"221015","131-UY","2017/06/26 18:09:43","新北市汐止區鄉長路二段29-1號","121.66829","25.0830366666667","6501100","汐止區"
"221010","269-BY","2017/06/26 18:09:51","新北市汐止區祥雲街12號","121.646123333333","25.0898483333333","6501100","汐止區"
"221031","277-VK","2017/06/26 00:20:35","新北市汐止區汐萬路一段256巷3號","121.65254","25.0745833333333","6501100","汐止區"
"221012","278-VK","2017/06/26 18:09:46","新北市汐止區保一街67號","121.67426","25.0799033333333","6501100","汐止區"
"221023","279-VK","2017/06/26 18:09:41","新北市汐止區明峰街180號","121.628586666667","25.0700866666667","6501100","汐止區"
"221032","280-BY","2017/06/26 18:09:42","新北市汐止區力行街42號","121.616675","25.050015","6501100","汐止區"
"221029","298-VK","2017/06/26 18:09:48","新北市汐止區樟樹二路134號","121.639955","25.0656383333333","6501100","汐止區"
"221021","299-VK","2017/06/26 17:44:43","新北市汐止區汐萬路一段39-3號","121.655023333333","25.0694283333333","6501100","汐止區"
"221002","488-VK","2017/06/26 18:09:39","新北市汐止區福德一路201巷42號","121.635618333333","25.0651116666667","6501100","汐止區"
"221035","622-UM","2017/06/26 18:09:44","新北市汐止區大同路二段196號","121.652976666667","25.0646466666667","6501100","汐止區"
"221025","623-UM","2017/06/26 18:09:51","新北市汐止區勤進路1號","121.660458333333","25.0621416666667","6501100","汐止區"
"221038","646-BX","2017/06/26 18:09:36","新北市汐止區南興路83巷1號","121.652873333333","25.0590716666667","6501100","汐止區"
"221033","647-BX","2017/06/26 18:09:55","新北市汐止區林森街3號","121.621166666667","25.041005","6501100","汐止區"
"221018","753-BX","2017/06/26 18:09:41","新北市汐止區茄苳路43號","121.66582","25.070855","6501100","汐止區"
"220018","AAC-253","2017/06/26 15:58:24","新北市板橋區中山路二段89巷5弄12號","121.472713333333","25.016785","6500100","板橋區"
