"lineid","car","time","location","longitude","latitude","cityid","cityname"
"234046","148-BY","2017/06/26 19:09:48","新北市永和區永元路25號","121.522078333333","25.00069","6500400","永和區"
"234013","149-BY","2017/06/26 19:09:35","新北市永和區保福路二段85號","121.510633333333","25.0127266666667","6500400","永和區"
"234007","207-UY","2017/06/26 19:09:50","新北市永和區保平路268巷51弄12號","121.506446666667","25.0063583333333","6500400","永和區"
"234081","298-R6","2017/06/26 19:09:53","新北市永和區福和路57巷14弄1號","121.522753333333","25.00692","6500400","永和區"
"234038","336-UY","2017/06/26 19:09:55","新北市永和區環河東路4段84-1號","121.528315","24.9980166666667","6500400","永和區"
"234064","337-UY","2017/06/26 19:09:48","新北市永和區秀朗路二段46號","121.521321666667","25.002375","6500400","永和區"
"234086","338-UY","2017/06/26 19:09:51","新北市永和區永貞路118號","121.51873","25.0044816666667","6500400","永和區"
"234070","552-UM","2017/06/26 19:09:43","新北市永和區豫溪街137號","121.519776666667","25.010395","6500400","永和區"
"234054","553-UM","2017/06/26 19:09:45","新北市永和區中興街135號","121.518533333333","25.0124283333333","6500400","永和區"
"234007","695-BX","2017/06/26 18:07:49","新北市永和區福和路1號","121.526651666667","25.0101766666667","6500400","永和區"
"234030","746-BX","2017/06/26 19:09:53","新北市永和區民生路23號","121.522851666667","24.9987983333333","6500400","永和區"
"234061","AAD-866","2017/06/26 19:09:44","新北市永和區安樂路306-6號","121.514768333333","25.005465","6500400","永和區"
"234017","845-RS","2017/06/26 19:09:51","新北市永和區文化路90巷3弄2號","121.513883333333","25.015535","6500400","永和區"
"234042","862-TW","2017/06/26 19:09:42","新北市永和區永貞路334號","121.511256666667","25.0055833333333","6500400","永和區"
"234050","863-TW","2017/06/26 19:09:49","新北市永和區文化路135巷26弄1號","121.510618333333","25.0143616666667","6500400","永和區"
"234026","9371-KE","2017/06/26 19:09:39","新北市永和區安樂路272巷9弄7號","121.515053333333","25.00458","6500400","永和區"
"234011","9373-KE","2017/06/26 19:09:37","新北市永和區仁愛路141巷30弄5號","121.511926666667","25.011575","6500400","永和區"
"249005","172-UM","2017/06/26 19:09:44","新北市八里區中華路三段99巷1號","121.393781666667","25.13843","6502300","八里區"
"249001","173-UM","2017/06/26 19:09:50","新北市八里區龍米路二段236-1號","121.431041666667","25.1586533333333","6502300","八里區"
"248016","026-BX","2017/06/26 19:09:48","新北市五股區成泰路三段543巷36弄6號","121.450781666667","25.1028216666667","6501500","五股區"
"248006","077-UY","2017/06/26 19:09:54","新北市五股區四維路112號","121.467851666667","25.0739366666667","6501500","五股區"
"248018","225-UY","2017/06/26 19:09:48","新北市五股區民義路一段287巷9號","121.42503","25.091925","6501500","五股區"
"248012","247-BX","2017/06/26 19:09:35","新北市五股區中興路四段48巷16號","121.438645","25.0835316666667","6501500","五股區"
"248010","272-BY","2017/06/26 19:09:48","新北市五股區水碓一路23號","121.430628333333","25.0712566666667","6501500","五股區"
"248004","677-BX","2017/06/26 19:09:39","新北市五股區六合街3號","121.431843333333","25.0884566666667","6501500","五股區"
"248002","678-BX","2017/06/26 19:09:44","新北市五股區凌雲路一段158巷6號","121.447801666667","25.10295","6501500","五股區"
"234023","9380-KE","2017/06/26 19:09:50","新北市永和區中興街82號","121.518255","25.0121233333333","6500400","永和區"
"234077","969-R7","2017/06/26 19:09:49","新北市永和區民權路40號","121.520223333333","24.9987483333333","6500400","永和區"
"234074","AAC-211","2017/06/26 19:09:37","新北市永和區竹林路211號","121.520583333333","25.008875","6500400","永和區"
"234067","AAC-212","2017/06/26 19:09:47","新北市永和區保平路11號","121.512931666667","25.00755","6500400","永和區"
"234003","AAC-295","2017/06/26 19:07:40","新北市永和區保福路一段73號","121.512128333333","25.0102733333333","6500400","永和區"
"244013","069-UM","2017/06/26 19:09:45","新北市林口區麗園二街1巷6-1號","121.377953333333","25.07037","6501700","林口區"
"244019","403-UM","2017/06/26 19:09:46","新北市林口區麗園二街85號","121.382398333333","25.0675233333333","6501700","林口區"
"244009","410-SL","2017/06/26 19:09:53","新北市林口區竹林路366巷10號","121.392381666667","25.0847433333333","6501700","林口區"
"244023","483-VK","2017/06/26 19:09:41","新北市林口區文化三路一段617巷88號","121.370445","25.0782066666667","6501700","林口區"
"244011","701-TV","2017/06/26 19:09:43","新北市林口區竹林路76號","121.38787","25.078545","6501700","林口區"
"243013","AAD-798","2017/06/26 19:09:44","新北市泰山區漢口街7號","121.423496666667","25.036595","6501600","泰山區"
"243009","297-R6","2017/06/26 19:09:47","新北市泰山區明志路一段117巷26號","121.434215","25.0636033333333","6501600","泰山區"
"243015","380-SR","2017/06/26 19:09:39","新北市泰山區明志路一段453號","121.430795","25.05619","6501600","泰山區"
"243014","421-VK","2017/06/26 19:09:47","新北市泰山區泰林路二段299號","121.430045","25.0629816666667","6501600","泰山區"
"243010","548-UM","2017/06/26 19:09:45","新北市泰山區仁愛路39巷21號","121.431116666667","25.055185","6501600","泰山區"
"243011","549-UM","2017/06/26 19:09:37","新北市泰山區明志路二段358號","121.425393333333","25.0451816666667","6501600","泰山區"
"243012","646-TV","2017/06/26 19:09:51","新北市泰山區辭修路36巷1弄7號","121.428313333333","25.058035","6501600","泰山區"
"243016","680-BX","2017/06/26 19:09:41","新北市泰山區明志路三段1號","121.424915","25.0434533333333","6501600","泰山區"
"222003","436-BY","2017/06/26 19:09:49","新北市深坑區深南路158號","121.626108333333","25.0145366666667","6501800","深坑區"
"222002","659-BX","2017/06/26 19:09:56","新北市深坑區烏月路1號","121.633115","25.0083983333333","6501800","深坑區"
"222001","696-SL","2017/06/26 19:09:42","新北市深坑區北深路一段300號","121.624218333333","25.0057466666667","6501800","深坑區"
"231041","002-UM","2017/06/26 19:09:05","新北市新店區中央路151號","121.529353333333","24.9719433333333","6500600","新店區"
"231056","0291-UT","2017/06/26 19:09:45","新北市新店區二十張路46巷37弄21-1號","121.535816666667","24.98148","6500600","新店區"
"231059","046-UY","2017/06/26 19:09:51","新北市新店區安和路二段167號","121.518775","24.9744133333333","6500600","新店區"
"231061","047-UY","2017/06/26 19:09:41","新北市新店區安康路一段107-2號","121.52873","24.961695","6500600","新店區"
"231060","106-UY","2017/06/26 19:09:53","新北市新店區安康路二段193號","121.50922","24.9590433333333","6500600","新店區"
"231051","107-UY","2017/06/26 19:09:55","新北市新店區中正路380號","121.534961666667","24.9770666666667","6500600","新店區"
"231047","108-UY","2017/06/26 19:09:42","新北市新店區德正街27巷29弄15號","121.545046666667","24.971865","6500600","新店區"
"231052","187-VK","2017/06/26 19:09:41","新北市新店區自強路99號","121.546253333333","24.9235616666667","6500600","新店區"
"231063","268-BY","2017/06/26 19:09:42","新北市新店區車子路162號","121.504531666667","24.946035","6500600","新店區"
"231046","278-BY","2017/06/26 19:09:38","新北市新店區新潭路一段32號","121.523351666667","24.9422816666667","6500600","新店區"
"231050","AAD-862","2017/06/26 19:09:45","新北市新店區竹林路2巷31號","121.550378333333","24.9501833333333","6500600","新店區"
"231058","3712-VJ","2017/06/26 19:09:47","新北市新店區光明街138巷13弄7號","121.54022","24.9614883333333","6500600","新店區"
"231055","3713-VJ","2017/06/26 19:09:50","新北市新店區中央二街81號","121.525638333333","24.975085","6500600","新店區"
"231067","4772-VM","2017/06/26 19:09:57","新北市新店區安康路一段201-1號","121.526178333333","24.9629583333333","6500600","新店區"
"231065","512-UM","2017/06/26 19:09:50","新北市新店區安祥路112號","121.474931666667","24.9568283333333","6500600","新店區"
"231054","513-UM","2017/06/26 19:09:52","新北市新店區新店路179號","121.537058333333","24.9558816666667","6500600","新店區"
"231064","515-UM","2017/06/26 19:09:45","新北市新店區安忠路63巷1號","121.511635","24.9581566666667","6500600","新店區"
"231042","616-UM","2017/06/26 19:09:39","新北市新店區中興路一段115號","121.54154","24.9627416666667","6500600","新店區"
"231045","617-UM","2017/06/26 19:09:53","新北市新店區北宜路一段154號","121.540351666667","24.9536133333333","6500600","新店區"
"231040","619-UM","2017/06/26 19:09:39","新北市新店區三民路98-3號","121.53401","24.9734233333333","6500600","新店區"
"231049","719-UM","2017/06/26 19:09:43","新北市新店區二十張路25巷1號","121.538875","24.9821516666667","6500600","新店區"
"231062","720-UM","2017/06/26 19:09:42","新北市新店區安平路11巷2號","121.5243","24.9653","6500600","新店區"
"231044","897-TW","2017/06/26 19:09:43","新北市新店區中興路三段172號","121.544245","24.9810166666667","6500600","新店區"
"231043","899-TW","2017/06/26 19:09:44","新北市新店區寶橋路98號","121.546838333333","24.9759866666667","6500600","新店區"
"231066","AKT-0513","2017/06/26 19:09:48","新北市新店區安康路三段359巷12弄1號","121.484478333333","24.9498983333333","6500600","新店區"
"241026","066-VK","2017/06/26 19:09:36","新北市三重區泉州街74號","121.49473","25.054685","6500200","三重區"
"241020","413-TH","2017/06/26 19:09:38","新北市三重區忠孝路二段34號","121.485856666667","25.07099","6500200","三重區"
"241029","942-UM","2017/06/26 19:09:48","新北市三重區集美街263號","121.492478333333","25.0557283333333","6500200","三重區"
"235066","003-UY","2017/06/26 19:09:50","新北市中和區廣福路32號","121.504651666667","25.0023616666667","6500300","中和區"
"235064","005-UY","2017/06/26 19:09:51","新北市中和區泰和街38巷38號","121.498393333333","25.0015883333333","6500300","中和區"
"235063","006-UY","2017/06/26 19:09:40","新北市中和區連城路411號","121.48591","24.9962216666667","6500300","中和區"
"235056","096-UM","2017/06/26 19:09:46","新北市中和區員山路534號","121.478893333333","25.0098466666667","6500300","中和區"
"235039","097-UM","2017/06/26 19:09:55","新北市永和區安樂路110號","121.514171666667","24.999795","6500300","中和區"
"235040","150-BY","2017/06/26 19:09:44","新北市中和區宜安路16號","121.513283333333","24.9957166666667","6500300","中和區"
"235058","151-BY","2017/06/26 19:09:50","新北市中和區員山路122號","121.48123","24.9959","6500300","中和區"
"235055","183-VK","2017/06/26 19:09:38","新北市中和區德光路77巷21號","121.469946666667","25.0033116666667","6500300","中和區"
"235038","185-VK","2017/06/26 19:09:51","新北市中和區自強路66號","121.519846666667","24.9942266666667","6500300","中和區"
"235049","186-VK","2017/06/26 19:09:42","新北市中和區景安路100號","121.505363333333","24.995665","6500300","中和區"
"235067","255-BX","2017/06/26 19:09:45","新北市中和區新生街213號","121.483786666667","24.99967","6500300","中和區"
"235044","293-VK","2017/06/26 19:09:43","新北市中和區復興路280巷33弄13號","121.501553333333","24.99106","6500300","中和區"
"235072","301-VK","2017/06/26 19:09:52","新北市中和區永和路39巷2號","121.498033333333","25.0050083333333","6500300","中和區"
"235043","352-BY","2017/06/26 19:09:53","新北市中和區景平路116號","121.519386666667","24.99165","6500300","中和區"
"235051","376-QA","2017/06/26 19:09:46","新北市中和區忠孝街19巷52號","121.509571666667","24.9852733333333","6500300","中和區"
"235068","377-QA","2017/06/26 19:09:51","新北市中和區圓通路162巷14號","121.496683333333","24.9956083333333","6500300","中和區"
"235061","378-QA","2017/06/26 19:09:53","新北市中和區中山路三段63巷9號","121.47712","25.0042483333333","6500300","中和區"
"235050","4979-A6","2017/06/26 19:09:49","新北市中和區復興路81號","121.503593333333","24.9898583333333","6500300","中和區"
"235069","4980-A6","2017/06/26 19:09:39","新北市中和區中山路二段181巷5號","121.501156666667","25.0019916666667","6500300","中和區"
"235042","551-UM","2017/06/26 19:09:49","新北市中和區自立路16巷2號","121.521686666667","24.9937133333333","6500300","中和區"
"235070","558-UM","2017/06/26 19:09:55","新北市中和區安和路216-1號","121.50611","24.9992166666667","6500300","中和區"
"235045","565-BX","2017/06/26 19:09:34","新北市中和區景新街467巷15弄2號","121.514066666667","24.9883583333333","6500300","中和區"
"235054","640-BX","2017/06/26 19:09:51","新北市中和區國光街8巷2號","121.471805","25.0001883333333","6500300","中和區"
"235060","647-TV","2017/06/26 19:09:51","新北市中和區民治街3巷1號","121.474968333333","25.005365","6500300","中和區"
"235047","732-UM","2017/06/26 19:09:46","新北市中和區興南路二段39號","121.50756","24.9857216666667","6500300","中和區"
"235046","733-UM","2017/06/26 19:09:38","新北市中和區忠孝街1巷79號","121.508178333333","24.9849116666667","6500300","中和區"
"235071","783-BX","2017/06/26 19:09:47","新北市中和區員山路109號","121.480868333333","24.9947","6500300","中和區"
"235026","800-TS","2017/06/26 17:26:01","新北市中和區員山路36巷16-2號","121.4852","24.99141","6500300","中和區"
"235057","801-TS","2017/06/26 19:09:43","新北市中和區民利街47巷2弄2號","121.478438333333","24.9980816666667","6500300","中和區"
"235041","802-TS","2017/06/26 19:09:50","新北市中和區安平路145巷14號","121.511453333333","24.9983166666667","6500300","中和區"
"235052","805-TS","2017/06/26 19:09:39","新北市中和區興南路二段142巷19弄40號","121.50248","24.9833433333333","6500300","中和區"
"235048","896-TW","2017/06/26 19:09:44","新北市中和區華新街133號","121.506748333333","24.9818766666667","6500300","中和區"
"235053","900-TW","2017/06/26 19:09:41","新北市中和區和平路200巷1-7號","121.46453","24.9951666666667","6500300","中和區"
"235037","AAC-213","2017/06/26 19:09:48","新北市中和區秀朗路三段128巷25弄6號","121.524018333333","24.9939333333333","6500300","中和區"
"235059","AAC-215","2017/06/26 19:09:42","新北市中和區圓通路294巷17-5號","121.488696666667","24.990405","6500300","中和區"
"220068","013-TV","2017/06/26 19:09:39","新北市板橋區翠華街6巷11號","121.480873333333","25.0240666666667","6500100","板橋區"
"220065","072-UY","2017/06/26 19:09:51","新北市板橋區民族路223號","121.469586666667","25.007255","6500100","板橋區"
"220086","073-UY","2017/06/26 19:09:47","新北市板橋區民權路209-1號","121.45785","25.014845","6500100","板橋區"
"220106","075-UY","2017/06/26 19:09:51","新北市板橋區文化路二段315號","121.472148333333","25.0297816666667","6500100","板橋區"
"247023","337-TH","2017/06/26 14:27:40","新北市五股區中興路三段2巷10號","121.448806666667","25.08169","6501400","蘆洲區"
"247006","335-TH","2017/06/26 19:09:55","新北市五股區中興路三段163號","121.449185","25.0809283333333","6501400","蘆洲區"
"247014","057-VK","2017/06/26 19:09:45","新北市五股區凌雲路一段21號","121.45252","25.1002733333333","6501400","蘆洲區"
"226004","205-ST","2017/06/26 19:09:53","新北市平溪區靜安路三段86號","121.770016666667","25.034685","6502400","平溪區"
"228003","097-TW","2017/06/26 19:09:51","新北市貢寮區和美里和美街32號","121.913723333333","25.0835133333333","6502600","貢寮區"
"228002","585-TW","2017/06/26 19:09:40","新北市貢寮區福隆里福隆街36號","121.945108333333","25.0174533333333","6502600","貢寮區"
"228001","670-TC","2017/06/26 19:09:57","新北市貢寮區真理里新港街10號","121.925521666667","25.054365","6502600","貢寮區"
"224010","AGQ-8101","2017/06/26 18:58:32","新北市瑞芳區基山街3號","121.845176666667","25.1097233333333","6501200","瑞芳區"
"224006","676-BX","2017/06/26 19:09:51","新北市瑞芳區三爪子坑路106巷1-2號","121.80802","25.1048666666667","6501200","瑞芳區"
"224011","420-VK","2017/06/26 19:09:38","新北市瑞芳區崙頂路1-6號","121.847103333333","25.1047033333333","6501200","瑞芳區"
"224009","285-BY","2017/06/26 19:09:39","新北市瑞芳區長仁路37-1號","121.865428333333","25.117765","6501200","瑞芳區"
"224008","275-VK","2017/06/26 19:09:54","新北市瑞芳區一坑路70-10號","121.80341","25.108165","6501200","瑞芳區"
"224005","271-BY","2017/06/26 19:09:54","新北市瑞芳區連福新城30號","121.820396666667","25.1191233333333","6501200","瑞芳區"
"227001","642-TC","2017/06/26 19:09:49","新北市雙溪區平林里外平林8號","121.859751666667","25.0380566666667","6502500","雙溪區"
"227008","400-TW","2017/06/26 19:09:44","新北市雙溪區牡丹里中正路23號","121.864436666667","25.037705","6502500","雙溪區"
"253006","032-BX","2017/06/26 19:09:36","新北市石門區海灣新城18號","121.525861666667","25.2847933333333","6502200","石門區"
"253005","295-VK","2017/06/26 19:09:39","新北市石門區小坑14-3號","121.600653333333","25.28719","6502200","石門區"
"208003","665-BX","2017/06/26 19:09:43","新北市金山區中正路135號","121.632396666667","25.221505","6502700","金山區"
"208001","761-BX","2017/06/26 19:09:37","新北市金山區溫泉路4號","121.639638333333","25.2219483333333","6502700","金山區"
"251009","008-UM","2017/06/26 19:09:55","新北市淡水區清水街99-1號","121.440753333333","25.1707083333333","6501000","淡水區"
"251005","010-UM","2017/06/26 19:09:37","新北市淡水區原德路2號","121.442213333333","25.1712583333333","6501000","淡水區"
"251007","179-VK","2017/06/26 19:09:55","新北市淡水區民生路145巷58號","121.468083333333","25.1388233333333","6501000","淡水區"
"251013","182-VK","2017/06/26 19:09:37","新北市淡水區安子內12號","121.48152","25.2191133333333","6501000","淡水區"
"251010","413-VK","2017/06/26 19:09:38","新北市淡水區中正路一段156巷3號","121.421223333333","25.1802766666667","6501000","淡水區"
"251015","442-VK","2017/06/26 19:09:56","新北市淡水區南勢埔34號","121.484281666667","25.1799366666667","6501000","淡水區"
"251001","559-UM","2017/06/26 19:09:37","新北市淡水區自強路201巷43號","121.462075","25.1268433333333","6501000","淡水區"
"251011","650-BX","2017/06/26 19:09:40","新北市淡水區中正東路二段143巷2弄1號","121.460703333333","25.1473783333333","6501000","淡水區"
"251002","672-BX","2017/06/26 19:09:39","新北市淡水區中山路93-1號","121.44231","25.170485","6501000","淡水區"
"251003","766-UM","2017/06/26 19:09:56","新北市淡水區中山路170號","121.441255","25.1738883333333","6501000","淡水區"
"207003","550-UM","2017/06/26 19:09:40","新北市萬里區大鵬里萬里加投24-2號","121.649136666667","25.20736","6502800","萬里區"
"207004","225-TW","2017/06/26 19:09:50","新北市萬里區萬里里瑪鋉下街2號","121.691045","25.178285","6502800","萬里區"
"252002","178-VK","2017/06/26 19:09:36","新北市三芝區中正路一段16-1號","121.502955","25.2587383333333","6502100","三芝區"
"252003","249-BX","2017/06/26 19:09:48","新北市三芝區古庄里四棧橋42號","121.48162","25.2634666666667","6502100","三芝區"
"252001","702-TV","2017/06/26 19:09:44","新北市三芝區長勤街82號","121.500295","25.2550566666667","6502100","三芝區"
"208002","170-UY","2017/06/26 19:09:45","新北市金山區中正路69巷15號","121.634053333333","25.221215","6502700","金山區"
"237004","078-UY","2017/06/26 19:09:42","新北市三峽區有木132號","121.43722","24.8529216666667","6500900","三峽區"
"237007","153-BY","2017/06/26 19:09:51","新北市三峽區中正路二段83巷17號","121.367188333333","24.917805","6500900","三峽區"
"237013","252-BX","2017/06/26 19:09:50","新北市三峽區光明路69巷2號","121.376238333333","24.9287933333333","6500900","三峽區"
"237012","275-BY","2017/06/26 19:09:31","新北市三峽區三樹路222巷236弄8號","121.391505","24.94262","6500900","三峽區"
"237008","302-VK","2017/06/26 19:09:41","新北市三峽區大同路174巷4號","121.372603333333","24.9270316666667","6500900","三峽區"
"237014","433-BY","2017/06/26 19:08:41","新北市三峽區中山路257巷3號","121.362363333333","24.9369916666667","6500900","三峽區"
"237006","5529-G3","2017/06/26 19:09:40","新北市三峽區溪北街109號","121.39835","24.9354733333333","6500900","三峽區"
"237011","572-TV","2017/06/26 19:07:49","新北市三峽區介壽路三段107號","121.395568333333","24.9395433333333","6500900","三峽區"
"237015","649-BX","2017/06/26 19:09:49","新北市三峽區建安114號","121.4652","24.91893","6500900","三峽區"
"237010","706-TV","2017/06/26 19:09:37","新北市三峽區國光街36號","121.374923333333","24.9377383333333","6500900","三峽區"
"237005","AKY-6261","2017/06/26 19:09:51","新北市三峽區中山路459巷163-3號","121.348626666667","24.9329166666667","6500900","三峽區"
"236069","105-UM","2017/06/26 19:09:40","新北市土城區裕生路84巷2號","121.447365","24.9855033333333","6501300","土城區"
"236078","166-UM","2017/06/26 19:09:52","新北市土城區中央路四段464號","121.409936666667","24.95058","6501300","土城區"
"236026","269-VK","2017/06/26 19:09:56","新北市土城區中正路59號","121.444333333333","24.9755766666667","6501300","土城區"
"236014","270-VK","2017/06/26 19:09:37","新北市土城區青雲路20號","121.460045","24.9888133333333","6501300","土城區"
"236036","271-VK","2017/06/26 19:09:37","新北市土城區清水路145號","121.45838","24.9818233333333","6501300","土城區"
"236020","401-BY","2017/06/26 19:09:54","新北市土城區延吉街217巷11弄3號","121.469161666667","24.9843983333333","6501300","土城區"
"236058","912-UM","2017/06/26 19:09:40","新北市土城區金城路二段260號","121.45775","24.9837883333333","6501300","土城區"
"236048","913-UM","2017/06/26 19:09:50","新北市土城區明德路一段398-1號","121.453653333333","24.9790666666667","6501300","土城區"
"236053","AAC-216","2017/06/26 19:09:45","新北市土城區學成路24號","121.452896666667","24.9869716666667","6501300","土城區"
"238015","755-BX","2017/06/26 19:09:44","新北市樹林區備內街158巷31號","121.40824","24.9899216666667","6500700","樹林區"
"238023","601-UM","2017/06/26 19:09:52","新北市樹林區大慶街78號","121.396095","25.0139583333333","6500700","樹林區"
"238019","599-UM","2017/06/26 19:09:47","新北市樹林區東榮街28號","121.417611666667","24.983565","6500700","樹林區"
"238018","571-TV","2017/06/26 19:09:38","新北市樹林區八德街37-3號","121.418963333333","24.9829816666667","6500700","樹林區"
"238022","312-TH","2017/06/26 19:09:17","新北市樹林區中山路二段151巷15弄13號","121.408438333333","24.9767183333333","6500700","樹林區"
"238021","311-TH","2017/06/26 18:50:52","新北市樹林區西圳街一段118巷16號","121.3941","24.9663183333333","6500700","樹林區"
"238025","303-VK","2017/06/26 19:09:41","新北市樹林區中山路三段90-1號","121.393251666667","24.97227","6500700","樹林區"
"238017","283-BY","2017/06/26 19:09:42","新北市樹林區光興街125號","121.408421666667","25.0024783333333","6500700","樹林區"
"238014","282-BY","2017/06/26 19:09:50","新北市樹林區千歲街134巷7號","121.427645","24.998585","6500700","樹林區"
"238020","268-VK","2017/06/26 19:09:53","新北市樹林區俊英街83巷1號","121.425821666667","25.0079416666667","6500700","樹林區"
"238026","172-UY","2017/06/26 19:09:10","新北市樹林區佳園路一段41巷32號","121.394906666667","24.9707416666667","6500700","樹林區"
"238016","169-UY","2017/06/26 19:09:48","新北市樹林區復興路335巷8號","121.418383333333","24.9875766666667","6500700","樹林區"
"239007","AAC-297","2017/06/26 19:09:42","新北市鶯歌區中山路138巷5號","121.350086666667","24.9586233333333","6500800","鶯歌區"
"239006","891-R6","2017/06/26 19:09:49","新北市鶯歌區鶯桃路268巷16弄6號","121.336173333333","24.960225","6500800","鶯歌區"
"239008","527-UM","2017/06/26 19:09:34","新北市鶯歌區國際二路6巷15號","121.338898333333","24.9738683333333","6500800","鶯歌區"
"239005","526-UM","2017/06/26 19:09:39","新北市鶯歌區大湖路532號","121.337273333333","24.9724616666667","6500800","鶯歌區"
"239001","417-VK","2017/06/26 19:09:45","新北市鶯歌區永安街32號","121.337731666667","24.956","6500800","鶯歌區"
"239003","360-BY","2017/06/26 19:09:50","新北市鶯歌區鶯桃路517號","121.331198333333","24.9669666666667","6500800","鶯歌區"
"239004","193-VK","2017/06/26 19:09:46","新北市鶯歌區中正三路335巷16號","121.328601666667","24.9347333333333","6500800","鶯歌區"
"221008","489-VK","2017/06/26 19:09:48","新北市汐止區康寧街428巷2號","121.630758333333","25.0680033333333","6501100","汐止區"
"221036","130-UY","2017/06/26 19:09:38","新北市汐止區忠孝東路258巷11弄11號","121.66419","25.067785","6501100","汐止區"
"221010","269-BY","2017/06/26 19:09:51","新北市汐止區康寧街901號","121.65132","25.074975","6501100","汐止區"
"221031","277-VK","2017/06/26 00:20:35","新北市汐止區汐萬路一段256巷3號","121.65254","25.0745833333333","6501100","汐止區"
"221012","278-VK","2017/06/26 19:09:46","新北市汐止區康寧街901號","121.650825","25.0752583333333","6501100","汐止區"
"221023","279-VK","2017/06/26 19:09:41","新北市汐止區康寧街901號","121.651031666667","25.0751966666667","6501100","汐止區"
"221027","281-BY","2017/06/26 19:02:37","新北市汐止區康寧街901號","121.650886666667","25.0752416666667","6501100","汐止區"
"221029","298-VK","2017/06/26 19:09:48","新北市汐止區汐萬路一段256巷3號","121.652501666667","25.0746216666667","6501100","汐止區"
"221021","299-VK","2017/06/26 19:09:43","新北市汐止區康寧街901號","121.651351666667","25.0749683333333","6501100","汐止區"
"221002","488-VK","2017/06/26 19:09:39","新北市汐止區大同路一段363號","121.640191666667","25.0601933333333","6501100","汐止區"
"221025","623-UM","2017/06/26 19:09:51","新北市汐止區康寧街901號","121.651063333333","25.0752316666667","6501100","汐止區"
"221038","646-BX","2017/06/26 19:09:36","新北市汐止區汐萬路一段256巷1號","121.651666666667","25.0748483333333","6501100","汐止區"
"221033","647-BX","2017/06/26 19:09:45","新北市汐止區南勢街1巷1號","121.627045","25.03739","6501100","汐止區"
"221018","753-BX","2017/06/26 19:09:41","新北市汐止區康寧街901號","121.651028333333","25.0751816666667","6501100","汐止區"
"220079","145-BY","2017/06/26 19:08:53","新北市板橋區民權路260巷75號","121.46082","25.0148733333333","6500100","板橋區"
"220082","610-BX","2017/06/26 19:09:41","新北市板橋區溪崑二街9-3號","121.42898","24.9918583333333","6500100","板橋區"
"220101","245-BX","2017/06/26 19:09:37","新北市板橋區莊敬路142-3號","121.471245","25.0231166666667","6500100","板橋區"
"220069","258-TC","2017/06/26 19:09:54","新北市板橋區東興街48號","121.458536666667","25.0058383333333","6500100","板橋區"
"220056","276-BY","2017/06/26 19:09:40","新北市板橋區信義路74巷1弄1號","121.457291666667","24.9930966666667","6500100","板橋區"
"220072","277-BY","2017/06/26 19:09:47","新北市板橋區溪北路158號","121.430566666667","24.9882133333333","6500100","板橋區"
"220094","283-UM","2017/06/26 19:09:48","新北市板橋區光武街108-5號","121.46571","25.0291666666667","6500100","板橋區"
"220071","283-VK","2017/06/26 19:09:52","新北市板橋區重慶路223巷17號","121.463261666667","25.001975","6500100","板橋區"
"220053","285-VK","2017/06/26 19:09:52","新北市板橋區懷仁街35巷2弄1號","121.476921666667","25.0197033333333","6500100","板橋區"
"220083","286-VK","2017/06/26 19:09:54","新北市板橋區龍興街99巷13號","121.443696666667","25.003085","6500100","板橋區"
"220081","287-VK","2017/06/26 19:09:52","新北市板橋區光華街39巷6號","121.4535","25.0131516666667","6500100","板橋區"
"220090","288-VK","2017/06/26 19:09:53","新北市板橋區裕民街45巷2號","121.461478333333","25.0285183333333","6500100","板橋區"
"220061","293-UM","2017/06/26 19:09:52","新北市板橋區中山路二段273號","121.477675","25.0179083333333","6500100","板橋區"
"220084","296-UM","2017/06/26 19:09:48","新北市板橋區大觀路三段50巷47號","121.432786666667","24.9958516666667","6500100","板橋區"
"220075","297-UM","2017/06/26 19:09:53","新北市板橋區南雅南路一段1巷33號","121.457375","25.006595","6500100","板橋區"
"220062","305-R5","2017/06/26 19:09:46","新北市板橋區三民路二段245巷71號","121.481088333333","25.0126866666667","6500100","板橋區"
"220092","307-R5","2017/06/26 19:09:51","新北市板橋區文化路二段225巷60弄37號","121.469098333333","25.0293283333333","6500100","板橋區"
"220098","317-R6","2017/06/26 19:09:36","新北市板橋區四維路103巷27號","121.464541666667","25.0239116666667","6500100","板橋區"
"220064","486-VK","2017/06/26 19:09:54","新北市板橋區板新路55號","121.473933333333","25.0133083333333","6500100","板橋區"
"220089","487-VK","2017/06/26 19:09:37","新北市板橋區文化路二段503號","121.476035","25.0345416666667","6500100","板橋區"
"220088","491-VK","2017/06/26 19:07:58","新北市板橋區莊敬路79號","121.472893333333","25.0266866666667","6500100","板橋區"
"220035","560-BX","2017/06/26 19:09:37","新北市板橋區中正路330號","121.45444","25.02174","6500100","板橋區"
"220103","561-BX","2017/06/26 19:09:45","新北市板橋區文化路一段188巷9弄21號","121.468458333333","25.019495","6500100","板橋區"
"220063","609-BX","2017/06/26 19:09:40","新北市板橋區三民路二段115號","121.479276666667","25.0158383333333","6500100","板橋區"
"220091","637-BX","2017/06/26 19:09:46","新北市板橋區縣民大道三段245巷17號","121.480918333333","25.0264983333333","6500100","板橋區"
"220057","686-BX","2017/06/26 19:09:49","新北市板橋區重慶路89巷2-1號","121.462086666667","25.0060983333333","6500100","板橋區"
"220077","687-BX","2017/06/26 19:09:54","新北市板橋區大觀路二段141號","121.445806666667","25.0011733333333","6500100","板橋區"
"220093","689-BX","2017/06/26 19:09:49","新北市板橋區民生路三段271號","121.464335","25.0298083333333","6500100","板橋區"
"220054","741-BX","2017/06/26 19:09:38","新北市板橋區實踐路78號","121.463686666667","25.005405","6500100","板橋區"
"220055","827-TW","2017/06/26 19:09:38","新北市板橋區中山路一段130號","121.46342","25.0108566666667","6500100","板橋區"
"220067","829-TW","2017/06/26 19:09:56","新北市板橋區三民路二段正隆巷42號","121.476961666667","25.0138016666667","6500100","板橋區"
"220102","830-TW","2017/06/26 19:09:46","新北市板橋區萬板路818巷9號","121.482935","25.02691","6500100","板橋區"
"220096","831-TW","2017/06/26 19:09:44","新北市板橋區雙十路二段47巷6號","121.476178333333","25.0260866666667","6500100","板橋區"
"220074","895-R6","2017/06/26 19:09:53","新北市板橋區西門街1號","121.456258333333","25.0116183333333","6500100","板橋區"
"220073","985-R7","2017/06/26 19:09:41","新北市板橋區中正路162號","121.456521666667","25.0168533333333","6500100","板橋區"
"220097","AAC-210","2017/06/26 19:09:42","新北市板橋區漢生西路89巷5弄5號","121.460866666667","25.0196266666667","6500100","板橋區"
"220070","AAC-253","2017/06/26 19:09:46","新北市板橋區四川路一段257號","121.459713333333","25.0023483333333","6500100","板橋區"
