"lineid","car","time","location","longitude","latitude","cityid","cityname"
"234046","148-BY","2017/06/26 19:39:48","新北市永和區秀朗路二段190號","121.526521666667","25.000765","6500400","永和區"
"234013","149-BY","2017/06/26 19:39:35","新北市永和區永平路254號","121.50827","25.01119","6500400","永和區"
"234007","207-UY","2017/06/26 19:39:50","新北市永和區中和路525號","121.511273333333","25.0028966666667","6500400","永和區"
"234081","298-R6","2017/06/26 19:39:53","新北市永和區環河東路三段38號","121.526546666667","25.0067166666667","6500400","永和區"
"234038","336-UY","2017/06/26 19:39:34","新北市永和區民樂街31巷10弄2號","121.52817","25.0006633333333","6500400","永和區"
"234064","337-UY","2017/06/26 19:39:48","新北市永和區秀朗路二段24巷24號","121.520015","25.00203","6500400","永和區"
"234086","338-UY","2017/06/26 19:39:51","新北市永和區林森路29巷2號","121.526151666667","25.0051433333333","6500400","永和區"
"234070","552-UM","2017/06/26 19:39:43","新北市永和區永和路二段234號","121.515786666667","25.0145766666667","6500400","永和區"
"234054","553-UM","2017/06/26 19:39:45","新北市永和區竹林路41號","121.517995","25.0142766666667","6500400","永和區"
"234007","695-BX","2017/06/26 18:07:49","新北市永和區福和路1號","121.526651666667","25.0101766666667","6500400","永和區"
"234030","746-BX","2017/06/26 19:39:53","新北市永和區民生路67巷18號","121.523476666667","24.99714","6500400","永和區"
"234061","AAD-866","2017/06/26 19:39:43","新北市永和區永貞路166號","121.516973333333","25.004465","6500400","永和區"
"234017","845-RS","2017/06/26 19:39:51","新北市永和區文化路90巷32弄7號","121.513448333333","25.016875","6500400","永和區"
"234042","862-TW","2017/06/26 19:39:42","新北市中和區中和路462號","121.512211666667","25.0039833333333","6500400","永和區"
"234050","863-TW","2017/06/26 19:39:49","新北市永和區保安路53號","121.50946","25.0157966666667","6500400","永和區"
"234026","9371-KE","2017/06/26 19:39:39","新北市永和區中和路501巷5號","121.510483333333","25.0025916666667","6500400","永和區"
"234011","9373-KE","2017/06/26 19:39:37","新北市永和區仁愛路295號","121.504843333333","25.0091483333333","6500400","永和區"
"249004","303-UY","2017/06/26 19:39:44","新北市八里區博物館路23號","121.414588333333","25.1631783333333","6502300","八里區"
"249002","305-UY","2017/06/26 19:39:42","新北市八里區頂寮三街72號","121.45046","25.125125","6502300","八里區"
"249003","593-UM","2017/06/26 19:39:44","新北市八里區華峰三街27號","121.399446666667","25.1458916666667","6502300","八里區"
"248014","025-BX","2017/06/26 19:39:45","新北市五股區五福路23巷8號","121.433536666667","25.0888083333333","6501500","五股區"
"248016","026-BX","2017/06/26 19:39:48","新北市五股區成泰路三段569號","121.452176666667","25.1023233333333","6501500","五股區"
"248008","095-VK","2017/06/26 19:39:51","新北市五股區四維路155巷2號","121.467815","25.07465","6501500","五股區"
"248018","225-UY","2017/06/26 19:29:48","新北市五股區壟路16號","121.415","25.0853916666667","6501500","五股區"
"248012","247-BX","2017/06/26 19:39:36","新北市五股區成泰路二段91巷6號","121.437941666667","25.0845233333333","6501500","五股區"
"248010","272-BY","2017/06/26 19:39:50","新北市五股區自強路99號","121.432251666667","25.071225","6501500","五股區"
"248004","677-BX","2017/06/26 19:39:39","新北市五股區成泰路二段82號","121.437463333333","25.0823116666667","6501500","五股區"
"248002","678-BX","2017/06/26 19:39:44","新北市五股區成泰路三段577巷77號","121.449751666667","25.1037516666667","6501500","五股區"
"234077","969-R7","2017/06/26 19:39:49","新北市永和區民族街67巷16號","121.51936","24.9971066666667","6500400","永和區"
"234074","AAC-211","2017/06/26 19:39:37","新北市永和區竹林路223號","121.520911666667","25.0085183333333","6500400","永和區"
"234067","AAC-212","2017/06/26 19:39:45","新北市永和區中山路一段186號","121.508968333333","25.0090733333333","6500400","永和區"
"234003","AAC-295","2017/06/26 19:38:20","新北市永和區自由街69號","121.51356","25.005365","6500400","永和區"
"244019","403-UM","2017/06/26 19:39:46","新北市林口區四維路130號","121.37918","25.07714","6501700","林口區"
"243013","AAD-798","2017/06/26 19:39:44","新北市泰山區應化街7號","121.423875","25.0437133333333","6501600","泰山區"
"243009","297-R6","2017/06/26 19:39:47","新北市泰山區美寧街60號","121.430946666667","25.0646966666667","6501600","泰山區"
"243015","380-SR","2017/06/26 19:39:39","新北市泰山區民權街66巷10號","121.428458333333","25.050045","6501600","泰山區"
"243014","421-VK","2017/06/26 19:39:47","新北市泰山區泰林路二段33-8號","121.435166666667","25.0564566666667","6501600","泰山區"
"243010","548-UM","2017/06/26 19:39:45","新北市泰山區民生路33號","121.430726666667","25.0521883333333","6501600","泰山區"
"243011","549-UM","2017/06/26 19:39:37","新北市泰山區中山路二段672號","121.427283333333","25.03747","6501600","泰山區"
"243012","646-TV","2017/06/26 19:39:31","新北市泰山區仁愛路100巷29號","121.433611666667","25.05503","6501600","泰山區"
"243016","680-BX","2017/06/26 19:39:41","新北市泰山區中山路三段114號","121.417865","25.0320783333333","6501600","泰山區"
"222003","436-BY","2017/06/26 19:39:36","新北市深坑區深南路51-1號","121.62113","25.0100083333333","6501800","深坑區"
"222002","659-BX","2017/06/26 19:39:56","新北市深坑區北深路一段177號","121.63255","25.0109133333333","6501800","深坑區"
"222001","696-SL","2017/06/26 19:39:42","新北市深坑區北深路二段198號","121.613051666667","25.001585","6501800","深坑區"
"231041","002-UM","2017/06/26 19:39:45","新北市新店區中正路485號","121.533871666667","24.981875","6500600","新店區"
"231059","046-UY","2017/06/26 19:39:51","新北市新店區安和路三段29-3號","121.51736","24.9812333333333","6500600","新店區"
"231061","047-UY","2017/06/26 19:39:41","新北市新店區碧安街11巷21號","121.516336666667","24.9686283333333","6500600","新店區"
"231060","106-UY","2017/06/26 19:39:33","新北市新店區安康路二段135號","121.511945","24.9603916666667","6500600","新店區"
"231051","107-UY","2017/06/26 19:39:39","新北市新店區中央四街100號","121.525406666667","24.97634","6500600","新店區"
"231047","108-UY","2017/06/26 19:39:42","新北市新店區五峰路63巷28號","121.5466","24.969395","6500600","新店區"
"231052","187-VK","2017/06/26 19:39:41","新北市新店區新烏路二段486號","121.553003333333","24.90792","6500600","新店區"
"231057","256-BX","2017/06/26 19:39:38","新北市新店區橘園一路11號","121.547961666667","24.9340116666667","6500600","新店區"
"231063","268-BY","2017/06/26 19:39:42","新北市新店區達觀路40號","121.503286666667","24.938665","6500600","新店區"
"231046","278-BY","2017/06/26 19:39:38","新北市新店區自由街9號","121.535586666667","24.9749316666667","6500600","新店區"
"231050","AAD-862","2017/06/26 19:39:45","新北市新店區郵政路21號","121.556353333333","24.9513783333333","6500600","新店區"
"231058","3712-VJ","2017/06/26 19:39:47","新北市新店區寶橋路56號","121.546051666667","24.975475","6500600","新店區"
"231067","4772-VM","2017/06/26 19:39:52","新北市新店區精忠路10-1號","121.532678333333","24.9590416666667","6500600","新店區"
"231065","512-UM","2017/06/26 19:39:50","新北市新店區安祥路109巷90弄92號","121.475861666667","24.9580083333333","6500600","新店區"
"231054","513-UM","2017/06/26 19:39:52","新北市新店區文中路40號","121.539735","24.9565683333333","6500600","新店區"
"231064","515-UM","2017/06/26 19:39:44","新北市新店區安和路一段49號","121.51752","24.965815","6500600","新店區"
"231042","616-UM","2017/06/26 19:39:39","新北市新店區中興路一段216號","121.54382","24.9658633333333","6500600","新店區"
"231045","617-UM","2017/06/26 19:39:53","新北市新店區北宜路二段108-1號","121.55584","24.9536783333333","6500600","新店區"
"231040","619-UM","2017/06/26 19:39:39","新北市新店區北新路一段96巷23號","121.54281","24.9687033333333","6500600","新店區"
"231049","719-UM","2017/06/26 19:39:43","新北市新店區北新路三段76號","121.542126666667","24.9806033333333","6500600","新店區"
"231062","720-UM","2017/06/26 19:39:51","新北市新店區碧潭路77巷2號","121.534211666667","24.9576733333333","6500600","新店區"
"231044","897-TW","2017/06/26 19:39:42","新北市新店區民權路25號","121.541076666667","24.9828266666667","6500600","新店區"
"231043","899-TW","2017/06/26 19:39:46","新北市新店區北新路二段68號","121.543088333333","24.97242","6500600","新店區"
"231066","AKT-0513","2017/06/26 19:39:28","新北市新店區安康路三段41號","121.492883333333","24.952855","6500600","新店區"
"241011","013-R5","2017/06/26 19:39:50","新北市三重區秀江街188號","121.49777","25.0716333333333","6500200","三重區"
"241028","022-UY","2017/06/26 19:39:54","新北市三重區中正南路196號","121.493885","25.0560366666667","6500200","三重區"
"241009","060-VK","2017/06/26 19:39:37","新北市三重區三和路四段412號","121.480923333333","25.079825","6500200","三重區"
"241031","061-VK","2017/06/26 19:39:48","新北市三重區重新路四段248號","121.486061666667","25.0534466666667","6500200","三重區"
"241015","062-VK","2017/06/26 19:39:50","新北市三重區福德北路57號","121.502098333333","25.065315","6500200","三重區"
"241017","063-VK","2017/06/26 19:39:37","新北市三重區大仁街12號","121.491498333333","25.063185","6500200","三重區"
"241024","065-VK","2017/06/26 19:39:39","新北市三重區國道路一段58巷20號","121.481241666667","25.0720416666667","6500200","三重區"
"241026","066-VK","2017/06/26 19:39:35","新北市三重區文化南路65巷40號","121.498975","25.0607116666667","6500200","三重區"
"241007","265-UM","2017/06/26 19:38:06","新北市三重區溪尾街126巷70號","121.488033333333","25.078805","6500200","三重區"
"241022","267-UM","2017/06/26 19:39:54","新北市三重區中正北路162號","121.484661666667","25.0661566666667","6500200","三重區"
"241018","268-UM","2017/06/26 19:39:54","新北市三重區大智街59號","121.49268","25.0678983333333","6500200","三重區"
"241032","269-UM","2017/06/26 19:39:50","新北市三重區重陽路一段60巷67號","121.484378333333","25.058235","6500200","三重區"
"241013","270-UM","2017/06/26 19:39:45","新北市三重區仁愛街129巷5號","121.495826666667","25.0751533333333","6500200","三重區"
"241025","271-UM","2017/06/26 19:39:45","新北市三重區頂崁街210巷3號","121.476803333333","25.0676766666667","6500200","三重區"
"241008","412-TH","2017/06/26 19:39:37","新北市三重區永福街135巷15號","121.478135","25.0769966666667","6500200","三重區"
"241020","413-TH","2017/06/26 19:39:38","新北市三重區三和路四段20巷91號","121.48849","25.0732833333333","6500200","三重區"
"241019","478-VK","2017/06/26 19:39:47","新北市三重區六張街194巷1弄2號","121.488563333333","25.068155","6500200","三重區"
"241030","480-VK","2017/06/26 19:39:50","新北市三重區新興路30-1號","121.491861666667","25.0531233333333","6500200","三重區"
"241014","543-UM","2017/06/26 19:39:36","新北市三重區河邊北街82號","121.504176666667","25.0689716666667","6500200","三重區"
"241023","545-UM","2017/06/26 19:39:54","新北市三重區忠孝路三段99巷15號","121.47954","25.0642716666667","6500200","三重區"
"241006","AAD-863","2017/06/26 19:39:54","新北市三重區聯華街77號","121.485873333333","25.0754216666667","6500200","三重區"
"241035","743-BX","2017/06/26 19:39:46","新北市三重區信義西街72號","121.4977","25.0645616666667","6500200","三重區"
"241001","887-TS","2017/06/26 19:39:38","新北市三重區仁愛街315巷22號","121.493465","25.079805","6500200","三重區"
"241012","941-UM","2017/06/26 19:39:43","新北市三重區河邊北街256巷21號","121.500868333333","25.07606","6500200","三重區"
"241029","942-UM","2017/06/26 19:39:48","新北市三重區中正南路157號","121.493878333333","25.0561866666667","6500200","三重區"
"235066","003-UY","2017/06/26 19:39:50","新北市中和區景新街117號","121.505563333333","24.99766","6500300","中和區"
"235064","005-UY","2017/06/26 19:39:51","新北市中和區南華路17-3號","121.502565","24.9957933333333","6500300","中和區"
"235063","006-UY","2017/06/26 19:39:40","新北市中和區連城路203巷10弄1號","121.495081666667","24.9973483333333","6500300","中和區"
"235056","096-UM","2017/06/26 19:39:46","新北市中和區員山路581巷31弄7號","121.477053333333","25.01035","6500300","中和區"
"235039","097-UM","2017/06/26 19:39:35","新北市中和區秀峰街103巷2弄4號","121.519946666667","24.9904866666667","6500300","中和區"
"235040","150-BY","2017/06/26 19:39:44","新北市中和區安平路82號","121.511186666667","24.9968116666667","6500300","中和區"
"235058","151-BY","2017/06/26 19:39:50","新北市中和區員山路124巷2號","121.48147","24.9958616666667","6500300","中和區"
"235055","183-VK","2017/06/26 19:39:38","新北市中和區民享街83號","121.474225","25.0016966666667","6500300","中和區"
"235038","185-VK","2017/06/26 19:39:51","新北市中和區自強路64號","121.520031666667","24.9943766666667","6500300","中和區"
"235049","186-VK","2017/06/26 19:39:42","新北市中和區安平路14號","121.509228333333","24.9941483333333","6500300","中和區"
"235067","255-BX","2017/06/26 19:39:44","新北市中和區新生街268號","121.483571666667","24.9971766666667","6500300","中和區"
"235044","293-VK","2017/06/26 19:39:43","新北市中和區景安路206號","121.504005","24.9909283333333","6500300","中和區"
"235072","301-VK","2017/06/26 19:39:32","新北市中和區錦和路93巷2弄1號","121.490285","24.995625","6500300","中和區"
"235043","352-BY","2017/06/26 19:39:53","新北市中和區安樂路34號","121.511883333333","24.9923483333333","6500300","中和區"
"235051","376-QA","2017/06/26 19:14:46","新北市中和區興南路一段73巷6號","121.510286666667","24.9888666666667","6500300","中和區"
"235068","377-QA","2017/06/26 19:39:51","新北市中和區景平路493-5號","121.500076666667","24.9979","6500300","中和區"
"235061","378-QA","2017/06/26 19:39:40","新北市中和區民安街4號","121.480848333333","25.0011216666667","6500300","中和區"
"235050","4979-A6","2017/06/26 19:39:30","新北市中和區中正路637巷52弄3號","121.485321666667","24.9934733333333","6500300","中和區"
"235042","551-UM","2017/06/26 19:39:47","新北市中和區保健路19巷4弄14號","121.508831666667","24.9982916666667","6500300","中和區"
"235070","558-UM","2017/06/26 19:39:35","新北市中和區中山路二段228號","121.498951666667","25.002875","6500300","中和區"
"235045","565-BX","2017/06/26 19:39:54","新北市中和區景新街423號","121.512978333333","24.9892866666667","6500300","中和區"
"235054","640-BX","2017/06/26 19:39:51","新北市中和區國光街112巷22弄20號","121.470575","25.0023033333333","6500300","中和區"
"235060","647-TV","2017/06/26 19:39:51","新北市中和區新生街114巷24號","121.482461666667","25.0024083333333","6500300","中和區"
"235047","732-UM","2017/06/26 19:39:44","新北市中和區和平街182巷3號","121.505088333333","24.9925916666667","6500300","中和區"
"235046","733-UM","2017/06/26 19:39:38","新北市中和區忠孝街64號","121.5119","24.9839216666667","6500300","中和區"
"235071","783-BX","2017/06/26 19:39:47","新北市中和區中正路839巷29號","121.483591666667","25.0023616666667","6500300","中和區"
"235026","800-TS","2017/06/26 17:26:01","新北市中和區員山路36巷16-2號","121.4852","24.99141","6500300","中和區"
"235057","801-TS","2017/06/26 19:39:53","新北市中和區員山路412號","121.480291666667","25.0050066666667","6500300","中和區"
"235041","802-TS","2017/06/26 19:39:50","新北市永和區中和路415號","121.509213333333","25.0005283333333","6500300","中和區"
"235052","805-TS","2017/06/26 19:39:39","新北市中和區華新街151號","121.50617","24.9815816666667","6500300","中和區"
"235048","896-TW","2017/06/26 19:39:44","新北市中和區忠孝街112號","121.512206666667","24.985405","6500300","中和區"
"235053","900-TW","2017/06/26 19:39:41","新北市中和區民德路188號","121.468036666667","24.9989916666667","6500300","中和區"
"235037","AAC-213","2017/06/26 19:39:48","新北市中和區秀朗路三段50巷10弄2號","121.524773333333","24.9951216666667","6500300","中和區"
"235059","AAC-215","2017/06/26 19:39:42","新北市中和區圓通路337號","121.491676666667","24.9905683333333","6500300","中和區"
"220068","013-TV","2017/06/26 19:39:39","新北市板橋區中山路二段418號","121.482936666667","25.021095","6500100","板橋區"
"220065","072-UY","2017/06/26 19:39:52","新北市板橋區國泰街98號","121.466805","25.0064716666667","6500100","板橋區"
"220086","073-UY","2017/06/26 19:39:38","新北市板橋區國光路31巷17號","121.45677","25.0184583333333","6500100","板橋區"
"220106","075-UY","2017/06/26 19:39:51","新北市板橋區江寧路三段41號","121.471463333333","25.03193","6500100","板橋區"
"247008","339-TH","2017/06/26 19:39:45","新北市蘆洲區中山一路78號","121.478348333333","25.0811966666667","6501400","蘆洲區"
"247023","337-TH","2017/06/26 14:27:40","新北市五股區中興路三段2巷10號","121.448806666667","25.08169","6501400","蘆洲區"
"247002","336-TH","2017/06/26 19:39:43","新北市蘆洲區三民路595號","121.461048333333","25.0936816666667","6501400","蘆洲區"
"247006","335-TH","2017/06/26 19:39:55","新北市五股區中興路二段182巷15弄13號","121.456943333333","25.0816983333333","6501400","蘆洲區"
"247014","057-VK","2017/06/26 19:39:45","新北市蘆洲區中正路92號","121.470255","25.083775","6501400","蘆洲區"
"247004","056-VK","2017/06/26 19:39:40","新北市蘆洲區中華街6巷12號","121.463071666667","25.081965","6501400","蘆洲區"
"226004","205-ST","2017/06/26 19:39:53","新北市平溪區十分里十分街78號","121.77635","25.0421633333333","6502400","平溪區"
"228003","097-TW","2017/06/26 19:39:51","新北市貢寮區真理里美艷山街15-3號","121.923725","25.0679933333333","6502600","貢寮區"
"228001","670-TC","2017/06/26 19:39:36","新北市貢寮區真理里大澳街3號","121.924698333333","25.0556933333333","6502600","貢寮區"
"224002","639-TC","2017/06/26 19:39:54","新北市瑞芳區民享新村13號","121.816635","25.105795","6501200","瑞芳區"
"224011","420-VK","2017/06/26 19:39:38","新北市瑞芳區崙頂路1-6號","121.847058333333","25.1046883333333","6501200","瑞芳區"
"227001","642-TC","2017/06/26 19:39:49","新北市雙溪區雙溪里太平路61號","121.864885","25.035835","6502500","雙溪區"
"227008","400-TW","2017/06/26 19:39:44","新北市雙溪區新基里新基南街2號","121.866966666667","25.037235","6502500","雙溪區"
"253006","032-BX","2017/06/26 19:39:36","新北市石門區小坑12-8號","121.59539","25.285055","6502200","石門區"
"208003","665-BX","2017/06/26 19:39:44","新北市金山區仁愛路5號","121.638311666667","25.219845","6502700","金山區"
"208001","761-BX","2017/06/26 19:39:37","新北市金山區南勢湖12號","121.621293333333","25.2193283333333","6502700","金山區"
"251009","008-UM","2017/06/26 19:12:55","新北市淡水區中正路8巷2-1號","121.44176","25.16988","6501000","淡水區"
"251004","009-UM","2017/06/26 19:39:41","新北市淡水區民權路84號","121.459176666667","25.13353","6501000","淡水區"
"251005","010-UM","2017/06/26 19:39:37","新北市淡水區原德路108巷2號","121.443383333333","25.1734933333333","6501000","淡水區"
"251007","179-VK","2017/06/26 19:39:55","新北市淡水區中正東路一段3巷2號","121.450723333333","25.1647383333333","6501000","淡水區"
"251008","181-VK","2017/06/26 19:39:54","新北市淡水區中正路一段8巷2弄2號","121.428173333333","25.17712","6501000","淡水區"
"251013","182-VK","2017/06/26 19:39:37","新北市淡水區店子後9號","121.459915","25.2187883333333","6501000","淡水區"
"251010","413-VK","2017/06/26 19:39:18","新北市淡水區新市五路二段75號","121.431436666667","25.1984583333333","6501000","淡水區"
"251012","441-VK","2017/06/26 19:39:54","新北市淡水區新市二路四段265號","121.445395","25.1922066666667","6501000","淡水區"
"251015","442-VK","2017/06/26 19:39:36","新北市淡水區山子頂22-1號","121.492456666667","25.19004","6501000","淡水區"
"251001","559-UM","2017/06/26 19:39:53","新北市淡水區民權路49號","121.459776666667","25.1392783333333","6501000","淡水區"
"251006","561-UM","2017/06/26 19:39:39","新北市淡水區中山北路一段207巷68號","121.441696666667","25.1792416666667","6501000","淡水區"
"251011","650-BX","2017/06/26 19:39:40","新北市淡水區八勢一街30巷1號","121.460871666667","25.1559833333333","6501000","淡水區"
"207003","550-UM","2017/06/26 19:39:40","新北市萬里區大鵬里下社35號","121.64944","25.2168283333333","6502800","萬里區"
"207004","225-TW","2017/06/26 19:39:50","新北市萬里區萬里里瑪鋉路5-2號","121.686925","25.1752833333333","6502800","萬里區"
"252002","178-VK","2017/06/26 19:39:36","新北市三芝區中正路一段18巷21號","121.503928333333","25.2591283333333","6502100","三芝區"
"252001","702-TV","2017/06/26 19:39:44","新北市三芝區公正街9號","121.499775","25.2574816666667","6502100","三芝區"
"208002","170-UY","2017/06/26 19:39:45","新北市金山區四維路2號","121.635568333333","25.2224983333333","6502700","金山區"
"237004","078-UY","2017/06/26 19:39:47","新北市三峽區插角43-8號","121.405688333333","24.8714216666667","6500900","三峽區"
"237007","153-BY","2017/06/26 19:39:51","新北市三峽區二鬮路9號","121.35911","24.9068933333333","6500900","三峽區"
"237009","210-TH","2017/06/26 19:39:51","新北市三峽區民權街225號","121.36783","24.92809","6500900","三峽區"
"237013","252-BX","2017/06/26 19:39:50","新北市三峽區介壽路一段309號","121.381286666667","24.9303866666667","6500900","三峽區"
"237012","275-BY","2017/06/26 19:39:51","新北市三峽區三樹路17號","121.377486666667","24.9375216666667","6500900","三峽區"
"237008","302-VK","2017/06/26 19:39:41","新北市三峽區永安街95巷6號","121.374798333333","24.9285833333333","6500900","三峽區"
"237014","433-BY","2017/06/26 19:39:40","新北市三峽區嘉添33-1號","121.368731666667","24.9113283333333","6500900","三峽區"
"237006","5529-G3","2017/06/26 19:39:40","新北市三峽區中正路一段336巷15弄2號","121.36996","24.9249533333333","6500900","三峽區"
"237011","572-TV","2017/06/26 19:39:49","新北市三峽區中正路二段9號","121.36722","24.9195633333333","6500900","三峽區"
"237015","649-BX","2017/06/26 19:39:49","新北市三峽區成福路255號","121.42774","24.9235483333333","6500900","三峽區"
"237010","706-TV","2017/06/26 19:15:17","新北市三峽區民生街29號","121.375833333333","24.93652","6500900","三峽區"
"237005","AKY-6261","2017/06/26 19:39:51","新北市三峽區中山路219巷9號","121.363181666667","24.9362416666667","6500900","三峽區"
"236069","105-UM","2017/06/26 19:39:40","新北市土城區裕民路185巷36弄10號","121.454375","24.9845733333333","6501300","土城區"
"236042","107-UM","2017/06/26 19:39:37","新北市土城區學士路20號","121.453178333333","24.9827466666667","6501300","土城區"
"236078","166-UM","2017/06/26 19:39:52","新北市土城區中州路22號","121.414591666667","24.95744","6501300","土城區"
"236030","253-BX","2017/06/26 19:39:48","新北市土城區福祥街55號","121.440875","24.980165","6501300","土城區"
"236026","269-VK","2017/06/26 19:39:41","新北市土城區中央路二段61巷22號","121.443253333333","24.9787533333333","6501300","土城區"
"236036","271-VK","2017/06/26 19:39:37","新北市土城區清水路98巷3弄1號","121.457581666667","24.9813333333333","6501300","土城區"
"236020","401-BY","2017/06/26 19:39:35","新北市土城區金城路三段200-9號","121.469155","24.9875","6501300","土城區"
"236048","913-UM","2017/06/26 19:39:50","新北市土城區明德路一段67號","121.46543","24.9843016666667","6501300","土城區"
"236062","915-UM","2017/06/26 19:39:43","新北市土城區延平街22號","121.468291666667","24.9913083333333","6501300","土城區"
"236053","AAC-216","2017/06/26 19:39:45","新北市土城區學府路一段230號","121.45197","24.98492","6501300","土城區"
"242048","751-BX","2017/06/26 19:39:49","新北市新莊區後港一路16號","121.424793333333","25.0258033333333","6500500","新莊區"
"242004","442-UM","2017/06/26 19:39:49","新北市新莊區化成路29巷6號","121.464738333333","25.0439033333333","6500500","新莊區"
"242031","415-TV","2017/06/26 19:39:51","新北市新莊區新泰路213巷18號","121.4461","25.0387933333333","6500500","新莊區"
"242060","362-BY","2017/06/26 19:39:43","新北市新莊區新泰路357巷3弄49號","121.44188","25.040095","6500500","新莊區"
"242007","173-VK","2017/06/26 19:39:52","新北市新莊區福壽街336號","121.457791666667","25.0582783333333","6500500","新莊區"
"242013","175-VK","2017/06/26 19:39:37","新北市新莊區中誠街121巷11號","121.449483333333","25.0470283333333","6500500","新莊區"
"242017","348-TH","2017/06/26 19:39:34","新北市新莊區三和路12-17號","121.442355","25.0375216666667","6500500","新莊區"
"242015","350-TH","2017/06/26 19:39:38","新北市新莊區新泰路255巷83號","121.442016666667","25.0388633333333","6500500","新莊區"
"238015","755-BX","2017/06/26 19:39:44","新北市樹林區中興街2號","121.420783333333","24.989665","6500700","樹林區"
"238023","601-UM","2017/06/26 19:39:53","新北市樹林區三福街24號","121.408423333333","25.0166783333333","6500700","樹林區"
"238018","571-TV","2017/06/26 19:39:38","新北市樹林區中華路6-3號","121.424756666667","24.9839933333333","6500700","樹林區"
"238024","5061-A6","2017/06/26 19:39:55","新北市樹林區中山路三段155巷12號","121.396045","24.9725183333333","6500700","樹林區"
"238022","312-TH","2017/06/26 19:39:43","新北市樹林區太元街110巷4號","121.41937","24.9778883333333","6500700","樹林區"
"238021","311-TH","2017/06/26 18:50:52","新北市樹林區西圳街一段118巷16號","121.3941","24.9663183333333","6500700","樹林區"
"238025","303-VK","2017/06/26 19:39:43","新北市樹林區中山路一段183-1號","121.42149","24.9880233333333","6500700","樹林區"
"238017","283-BY","2017/06/26 19:39:42","新北市樹林區保安街二段48號","121.415325","25.0023116666667","6500700","樹林區"
"238014","282-BY","2017/06/26 19:39:51","新北市樹林區保安二街60號","121.424168333333","24.9952316666667","6500700","樹林區"
"238020","268-VK","2017/06/26 19:39:40","新北市樹林區俊英街123巷27號","121.423861666667","25.0104583333333","6500700","樹林區"
"238026","172-UY","2017/06/26 19:39:37","新北市樹林區佳園路二段141號","121.390148333333","24.9577916666667","6500700","樹林區"
"238016","169-UY","2017/06/26 19:39:48","新北市樹林區東佳路218號","121.410796666667","24.9818566666667","6500700","樹林區"
"239006","891-R6","2017/06/26 19:39:42","新北市鶯歌區尖山埔路120號","121.344036666667","24.9500183333333","6500800","鶯歌區"
"239001","417-VK","2017/06/26 19:39:49","新北市鶯歌區尖山埔路146號","121.343398333333","24.94973","6500800","鶯歌區"
"239003","360-BY","2017/06/26 19:39:50","新北市鶯歌區中山路129號","121.349496666667","24.956945","6500800","鶯歌區"
"239004","193-VK","2017/06/26 19:39:46","新北市鶯歌區二甲路佳美巷7號","121.337291666667","24.9342183333333","6500800","鶯歌區"
"221008","489-VK","2017/06/26 19:39:48","新北市汐止區康寧街145號","121.62205","25.0666483333333","6501100","汐止區"
"221036","130-UY","2017/06/26 19:39:38","新北市汐止區康寧街901號","121.651668333333","25.0749116666667","6501100","汐止區"
"221010","269-BY","2017/06/26 19:39:51","新北市汐止區汐萬路二段23巷1號","121.649503333333","25.080815","6501100","汐止區"
"221031","277-VK","2017/06/26 00:20:35","新北市汐止區汐萬路一段256巷3號","121.65254","25.0745833333333","6501100","汐止區"
"221012","278-VK","2017/06/26 19:39:46","新北市汐止區茄安路194號","121.677878333333","25.0702983333333","6501100","汐止區"
"221023","279-VK","2017/06/26 19:39:41","新北市汐止區民族六街19號","121.630185","25.0690566666667","6501100","汐止區"
"221032","280-BY","2017/06/26 19:39:42","新北市汐止區新台五路一段78號","121.647316666667","25.06136","6501100","汐止區"
"221027","281-BY","2017/06/26 19:39:53","新北市汐止區忠孝東路9號","121.658303333333","25.0659533333333","6501100","汐止區"
"221029","298-VK","2017/06/26 19:39:48","新北市汐止區康寧街901號","121.651403333333","25.0749516666667","6501100","汐止區"
"221021","299-VK","2017/06/26 19:36:23","新北市汐止區大同路二段169巷22弄32號","121.651603333333","25.0651583333333","6501100","汐止區"
"221002","488-VK","2017/06/26 19:39:39","新北市汐止區工建路302-1號","121.634761666667","25.0605883333333","6501100","汐止區"
"221025","623-UM","2017/06/26 19:39:51","新北市汐止區福安街17號","121.662488333333","25.06519","6501100","汐止區"
"221038","646-BX","2017/06/26 19:39:36","新北市汐止區忠孝東路208號","121.661908333333","25.066455","6501100","汐止區"
"221033","647-BX","2017/06/26 19:39:45","新北市汐止區南勢街3號","121.627053333333","25.03739","6501100","汐止區"
"220079","145-BY","2017/06/26 19:39:43","新北市板橋區復興街90號","121.45957","25.0176916666667","6500100","板橋區"
"220082","610-BX","2017/06/26 19:39:41","新北市板橋區大觀路三段162號","121.431351666667","24.9931583333333","6500100","板橋區"
"220101","245-BX","2017/06/26 19:39:37","新北市板橋區莊敬路208巷2弄4號","121.471865","25.0214333333333","6500100","板橋區"
"220069","258-TC","2017/06/26 19:39:39","新北市板橋區稚暉街62號","121.457068333333","25.00398","6500100","板橋區"
"220056","276-BY","2017/06/26 19:39:40","新北市板橋區四川路二段47巷3弄2號","121.454205","24.9946816666667","6500100","板橋區"
"220072","277-BY","2017/06/26 19:39:39","新北市板橋區溪北路142號","121.429961666667","24.988425","6500100","板橋區"
"220094","283-UM","2017/06/26 19:39:50","新北市板橋區銘傳街41-4號","121.469236666667","25.0314433333333","6500100","板橋區"
"220071","283-VK","2017/06/26 19:39:47","新北市板橋區忠孝路48巷2弄10號","121.46023","25.0010466666667","6500100","板橋區"
"220053","285-VK","2017/06/26 19:39:47","新北市板橋區中山路二段148巷30號","121.477098333333","25.01609","6500100","板橋區"
"220083","286-VK","2017/06/26 19:39:34","新北市板橋區龍興街71巷20號","121.442896666667","25.0022466666667","6500100","板橋區"
"220081","287-VK","2017/06/26 19:39:52","新北市板橋區大觀路一段75巷30號","121.448285","25.0042083333333","6500100","板橋區"
"220090","288-VK","2017/06/26 19:39:33","新北市板橋區長江路一段106巷13弄21號","121.46089","25.0295583333333","6500100","板橋區"
"220061","293-UM","2017/06/26 19:39:52","新北市板橋區中山路一段265巷16號","121.46855","25.0145616666667","6500100","板橋區"
"220084","296-UM","2017/06/26 19:39:48","新北市板橋區滿平街84巷120弄10號","121.426616666667","24.9860016666667","6500100","板橋區"
"220075","297-UM","2017/06/26 19:39:53","新北市板橋區南雅西路二段301巷50弄12號","121.452368333333","25.0170183333333","6500100","板橋區"
"220062","305-R5","2017/06/26 19:39:46","新北市板橋區三民路二段81巷1號","121.479615","25.016775","6500100","板橋區"
"220092","307-R5","2017/06/26 19:39:51","新北市板橋區文化路一段387巷21-4號","121.465991666667","25.0222266666667","6500100","板橋區"
"220098","317-R6","2017/06/26 19:39:56","新北市板橋區四維路269巷11號","121.462803333333","25.0281283333333","6500100","板橋區"
"220064","486-VK","2017/06/26 19:39:54","新北市板橋區民權路33號","121.46217","25.010985","6500100","板橋區"
"220089","487-VK","2017/06/26 19:39:37","新北市板橋區幸福路70巷1號","121.460633333333","25.0200366666667","6500100","板橋區"
"220088","491-VK","2017/06/26 19:38:46","新北市板橋區文化路二段446號","121.474665","25.0323683333333","6500100","板橋區"
"220035","560-BX","2017/06/26 19:39:54","新北市板橋區中正路415號","121.454156666667","25.022705","6500100","板橋區"
"220103","561-BX","2017/06/26 19:39:45","新北市板橋區文化路一段286巷2號","121.467573333333","25.0213716666667","6500100","板橋區"
"220063","609-BX","2017/06/26 19:39:40","新北市板橋區中山路二段553巷4弄9號","121.483521666667","25.0226683333333","6500100","板橋區"
"220091","637-BX","2017/06/26 19:39:52","新北市板橋區懷德街139巷20弄2號","121.479908333333","25.0307933333333","6500100","板橋區"
"220057","686-BX","2017/06/26 19:39:48","新北市板橋區國慶路182巷28-1號","121.463125","24.9952233333333","6500100","板橋區"
"220077","687-BX","2017/06/26 19:39:39","新北市板橋區僑中三街3號","121.446745","25.0045583333333","6500100","板橋區"
"220093","689-BX","2017/06/26 19:39:49","新北市板橋區新海路398號","121.458743333333","25.02663","6500100","板橋區"
"220054","741-BX","2017/06/26 19:39:38","新北市板橋區忠孝路105號","121.462678333333","25.002415","6500100","板橋區"
"220055","827-TW","2017/06/26 19:39:38","新北市板橋區國慶路149巷1弄2號","121.461278333333","24.996605","6500100","板橋區"
"220067","829-TW","2017/06/26 19:39:36","新北市板橋區漢生東路193巷57號","121.471733333333","25.011675","6500100","板橋區"
"220102","830-TW","2017/06/26 19:39:50","新北市板橋區松柏街42-1號","121.475218333333","25.0299766666667","6500100","板橋區"
"220096","831-TW","2017/06/26 19:39:43","新北市板橋區萬板路36號","121.471801666667","25.0225066666667","6500100","板橋區"
"220074","895-R6","2017/06/26 19:39:32","新北市板橋區北門街25號","121.45664","25.0112166666667","6500100","板橋區"
"220073","985-R7","2017/06/26 19:39:41","新北市板橋區中正路199號","121.456325","25.0172833333333","6500100","板橋區"
"220097","AAC-210","2017/06/26 19:39:44","新北市板橋區幸福路32巷4弄16號","121.461461666667","25.02158","6500100","板橋區"
"220070","AAC-253","2017/06/26 19:39:37","新北市板橋區忠孝路3號","121.459766666667","25.0018166666667","6500100","板橋區"
