"lineid","car","time","location","longitude","latitude","cityid","cityname"
"234046","148-BY","2017/06/26 20:09:48","新北市永和區成功路一段32號","121.527043333333","25.0046483333333","6500400","永和區"
"234013","149-BY","2017/06/26 20:09:55","新北市永和區中山路一段242號","121.50782","25.0079983333333","6500400","永和區"
"234007","207-UY","2017/06/26 20:09:50","新北市永和區保生路22巷17號","121.507045","25.0082183333333","6500400","永和區"
"234081","298-R6","2017/06/26 20:09:53","新北市永和區永亨路113號","121.523605","25.0046083333333","6500400","永和區"
"234038","336-UY","2017/06/26 20:04:49","新北市永和區成功路二段152-2號","121.526558333333","24.9966","6500400","永和區"
"234064","337-UY","2017/06/26 20:09:48","新北市永和區永利路92號","121.52075","25.0037016666667","6500400","永和區"
"234086","338-UY","2017/06/26 20:09:51","新北市永和區福和路100號","121.522285","25.0079366666667","6500400","永和區"
"234070","552-UM","2017/06/26 20:09:43","新北市永和區福和路187號","121.519821666667","25.0075633333333","6500400","永和區"
"234054","553-UM","2017/06/26 20:09:45","新北市永和區博愛街21巷1號","121.51775","25.0158433333333","6500400","永和區"
"234007","695-BX","2017/06/26 18:07:49","新北市永和區福和路1號","121.526651666667","25.0101766666667","6500400","永和區"
"234030","746-BX","2017/06/26 20:09:53","新北市永和區民有街25巷6號","121.517298333333","24.996435","6500400","永和區"
"234061","AAD-866","2017/06/26 20:09:43","新北市永和區中正路283巷84號","121.515478333333","24.998855","6500400","永和區"
"234017","845-RS","2017/06/26 20:09:51","新北市永和區文化路123號","121.512298333333","25.0152983333333","6500400","永和區"
"234042","862-TW","2017/06/26 20:09:42","新北市永和區雙和街64巷14號","121.509653333333","25.0033083333333","6500400","永和區"
"234050","863-TW","2017/06/26 20:09:49","新北市永和區新生路204號","121.505521666667","25.0132533333333","6500400","永和區"
"234026","9371-KE","2017/06/26 20:09:39","新北市永和區保生路55-1號","121.504896666667","25.011495","6500400","永和區"
"234011","9373-KE","2017/06/26 20:09:37","新北市永和區保生路55-1號","121.504501666667","25.0109166666667","6500400","永和區"
"249005","172-UM","2017/06/26 20:09:44","新北市八里區福德新村30號","121.386208333333","25.13654","6502300","八里區"
"249001","173-UM","2017/06/26 20:09:46","新北市八里區中華路二段322號","121.403365","25.1479566666667","6502300","八里區"
"249004","303-UY","2017/06/26 20:09:44","新北市八里區中山路一段215號","121.4113","25.15784","6502300","八里區"
"249002","305-UY","2017/06/26 20:09:42","新北市五股區成泰路四段24號","121.454413333333","25.1079133333333","6502300","八里區"
"249003","593-UM","2017/06/26 20:09:44","新北市八里區中山路二段540巷9弄5號","121.396923333333","25.1469866666667","6502300","八里區"
"248014","025-BX","2017/06/26 20:09:45","新北市五股區五福路14巷29號","121.435441666667","25.0890183333333","6501500","五股區"
"248016","026-BX","2017/06/26 20:09:48","新北市五股區成泰路三段577巷80弄72號","121.448918333333","25.1047133333333","6501500","五股區"
"248008","095-VK","2017/06/26 20:09:50","新北市五股區中興路一段1巷13號","121.469616666667","25.071465","6501500","五股區"
"248018","225-UY","2017/06/26 20:09:48","新北市五股區登林路55號","121.429236666667","25.069335","6501500","五股區"
"248012","247-BX","2017/06/26 20:09:35","新北市五股區六合街85號","121.430545","25.0896616666667","6501500","五股區"
"248010","272-BY","2017/06/26 20:09:48","新北市五股區成泰路一段7巷66號","121.43265","25.0679133333333","6501500","五股區"
"248004","677-BX","2017/06/26 20:09:39","新北市五股區成泰路一段173號","121.43521","25.0746466666667","6501500","五股區"
"248002","678-BX","2017/06/26 20:09:44","新北市五股區成泰路三段369-1號","121.448773333333","25.0958516666667","6501500","五股區"
"234023","9380-KE","2017/06/26 20:09:50","新北市永和區中正路662巷42號","121.518191666667","25.0088066666667","6500400","永和區"
"234077","969-R7","2017/06/26 20:09:49","新北市永和區中正路164號","121.515033333333","24.9965433333333","6500400","永和區"
"234074","AAC-211","2017/06/26 20:09:46","新北市永和區豫溪街161-1號","121.521503333333","25.0104483333333","6500400","永和區"
"234067","AAC-212","2017/06/26 20:09:45","新北市永和區永貞路313號","121.510065","25.0065466666667","6500400","永和區"
"234003","AAC-295","2017/06/26 20:07:20","新北市永和區中正路634號","121.516913333333","25.0081133333333","6500400","永和區"
"244019","403-UM","2017/06/26 20:09:46","新北市林口區太平里180號","121.368511666667","25.13424","6501700","林口區"
"243013","AAD-798","2017/06/26 20:09:44","新北市泰山區明志路三段74巷10號","121.424413333333","25.0417533333333","6501600","泰山區"
"243009","297-R6","2017/06/26 20:09:49","新北市泰山區泰林路二段138號","121.434315","25.0598216666667","6501600","泰山區"
"243015","380-SR","2017/06/26 20:09:40","新北市泰山區明志路一段384號","121.430738333333","25.0574883333333","6501600","泰山區"
"243014","421-VK","2017/06/26 20:09:47","新北市泰山區明志路一段143號","121.43339","25.063015","6501600","泰山區"
"243010","548-UM","2017/06/26 20:09:45","新北市泰山區明志路二段136巷20弄1號","121.426426666667","25.0516866666667","6501600","泰山區"
"243011","549-UM","2017/06/26 20:09:37","新北市新莊區丹鳳街40號","121.421621666667","25.0296033333333","6501600","泰山區"
"243012","646-TV","2017/06/26 20:09:51","新北市泰山區楓江路67-5號","121.436646666667","25.0632733333333","6501600","泰山區"
"243016","680-BX","2017/06/26 20:09:41","新北市泰山區明志路三段385號","121.421628333333","25.03462","6501600","泰山區"
"222003","436-BY","2017/06/26 20:09:36","新北市深坑區埔新街60號","121.620195","25.0025016666667","6501800","深坑區"
"222002","659-BX","2017/06/26 20:09:38","新北市深坑區北深路三段160號","121.602655","25.0033766666667","6501800","深坑區"
"222001","696-SL","2017/06/26 20:09:42","新北市深坑區北深路三段197號","121.601028333333","25.00373","6501800","深坑區"
"231041","002-UM","2017/06/26 20:09:45","新北市新店區中正路460號","121.534026666667","24.9793516666667","6500600","新店區"
"231056","0291-UT","2017/06/26 20:09:45","新北市新店區北新路二段29巷3弄1號","121.542241666667","24.9730133333333","6500600","新店區"
"231059","046-UY","2017/06/26 20:09:51","新北市新店區安德街60巷27號","121.511175","24.9633083333333","6500600","新店區"
"231061","047-UY","2017/06/26 20:09:41","新北市新店區安興路33-1號","121.515895","24.97046","6500600","新店區"
"231060","106-UY","2017/06/26 20:09:53","新北市新店區安康路三段41號","121.492998333333","24.9529116666667","6500600","新店區"
"231051","107-UY","2017/06/26 20:09:39","新北市新店區中央五街28號","121.529013333333","24.974675","6500600","新店區"
"231047","108-UY","2017/06/26 20:09:42","新北市新店區寶橋路57號","121.545211666667","24.9746266666667","6500600","新店區"
"231068","110-UY","2017/06/26 20:09:36","新北市新店區北新路二段2號","121.542606666667","24.97053","6500600","新店區"
"231052","187-VK","2017/06/26 20:09:41","新北市新店區新烏路三段266號","121.550201666667","24.89984","6500600","新店區"
"231057","256-BX","2017/06/26 20:09:38","新北市新店區花園一路一段2號","121.553148333333","24.9323716666667","6500600","新店區"
"231063","268-BY","2017/06/26 20:09:42","新北市新店區黎明路55巷2號","121.502403333333","24.9481933333333","6500600","新店區"
"231050","AAD-862","2017/06/26 20:09:45","新北市新店區北宜路二段360-1號","121.564725","24.9523416666667","6500600","新店區"
"231055","3713-VJ","2017/06/26 20:09:50","新北市新店區中華路48巷34號","121.54099","24.9693466666667","6500600","新店區"
"231067","4772-VM","2017/06/26 20:09:52","新北市新店區安康路一段35號","121.531706666667","24.960485","6500600","新店區"
"231065","512-UM","2017/06/26 20:09:50","新北市新店區安祥路106巷165號","121.47374","24.9593583333333","6500600","新店區"
"231054","513-UM","2017/06/26 20:09:52","新北市新店區檳榔路22巷1號","121.541331666667","24.9641316666667","6500600","新店區"
"231064","515-UM","2017/06/26 20:09:44","新北市新店區安民街3巷1號","121.514565","24.9643416666667","6500600","新店區"
"231042","616-UM","2017/06/26 20:09:39","新北市新店區中興路二段222號","121.548086666667","24.975065","6500600","新店區"
"231045","617-UM","2017/06/26 20:09:53","新北市新店區北宜路一段164號","121.540458333333","24.9533816666667","6500600","新店區"
"231040","619-UM","2017/06/26 20:09:39","新北市新店區中正路108號","121.543041666667","24.9706033333333","6500600","新店區"
"231049","719-UM","2017/06/26 20:09:43","新北市新店區北新路二段171巷13號","121.542135","24.9763216666667","6500600","新店區"
"231062","720-UM","2017/06/26 20:09:42","新北市新店區安康路一段198號","121.524356666667","24.96343","6500600","新店區"
"231044","897-TW","2017/06/26 20:09:42","新北市新店區寶慶街58巷6號","121.542063333333","24.9869866666667","6500600","新店區"
"231043","899-TW","2017/06/26 20:09:44","新北市新店區民族路245號","121.536413333333","24.975505","6500600","新店區"
"231066","AKT-0513","2017/06/26 20:09:48","新北市新店區安德街60巷21號","121.510398333333","24.9633566666667","6500600","新店區"
"241011","013-R5","2017/06/26 20:09:50","新北市三重區秀江街248號","121.49623","25.071435","6500200","三重區"
"241028","022-UY","2017/06/26 20:09:34","新北市三重區仁化街123號","121.494626666667","25.0575833333333","6500200","三重區"
"241009","060-VK","2017/06/26 20:09:37","新北市三重區三和路四段360-1號","121.48316","25.07842","6500200","三重區"
"241031","061-VK","2017/06/26 20:09:48","新北市三重區過圳街9-1號","121.488773333333","25.060145","6500200","三重區"
"241015","062-VK","2017/06/26 20:09:50","新北市三重區福德北路30號","121.502216666667","25.0649616666667","6500200","三重區"
"241017","063-VK","2017/06/26 20:09:37","新北市三重區大智街116號","121.493028333333","25.0670316666667","6500200","三重區"
"241024","065-VK","2017/06/26 20:09:39","新北市三重區中正北路294號","121.480161666667","25.0687983333333","6500200","三重區"
"241026","066-VK","2017/06/26 20:09:35","新北市三重區福德南路65巷2號","121.50243","25.0604766666667","6500200","三重區"
"241002","090-VK","2017/06/26 20:09:51","新北市三重區五華街35巷46號","121.495475","25.0816633333333","6500200","三重區"
"241003","091-VK","2017/06/26 20:09:49","新北市三重區仁愛街466號","121.48991","25.08227","6500200","三重區"
"241005","262-UM","2017/06/26 20:09:34","新北市三重區五華街180巷34號","121.488021666667","25.0852983333333","6500200","三重區"
"241007","265-UM","2017/06/26 20:09:45","新北市三重區三和路四段109號","121.48635","25.07725","6500200","三重區"
"241016","266-UM","2017/06/26 20:09:48","新北市三重區大同北路79號","121.495056666667","25.0637033333333","6500200","三重區"
"241022","267-UM","2017/06/26 20:09:34","新北市三重區過圳街19號","121.488678333333","25.0605883333333","6500200","三重區"
"241018","268-UM","2017/06/26 20:09:41","新北市三重區雙園街103號","121.493698333333","25.0673366666667","6500200","三重區"
"241032","269-UM","2017/06/26 20:09:50","新北市三重區捷運路65號","121.483415","25.0556333333333","6500200","三重區"
"241013","270-UM","2017/06/26 20:09:45","新北市三重區三和路三段139巷25號","121.49368","25.0738916666667","6500200","三重區"
"241025","271-UM","2017/06/26 20:09:45","新北市三重區中正北路169號","121.478623333333","25.0694266666667","6500200","三重區"
"241008","412-TH","2017/06/26 20:09:37","新北市三重區永福街197巷37弄20號","121.47761","25.0740416666667","6500200","三重區"
"241020","413-TH","2017/06/26 20:09:50","新北市三重區三和路三段121號","121.49284","25.0731366666667","6500200","三重區"
"241004","475-VK","2017/06/26 20:09:46","新北市三重區自強路四段112號","121.491671666667","25.0800683333333","6500200","三重區"
"241019","478-VK","2017/06/26 20:09:47","新北市三重區自強路二段20-1號","121.489616666667","25.0691966666667","6500200","三重區"
"241030","480-VK","2017/06/26 20:09:50","新北市三重區成功路145巷31號","121.487591666667","25.0531183333333","6500200","三重區"
"241014","543-UM","2017/06/26 20:09:36","新北市三重區長樂街110號","121.501508333333","25.0696783333333","6500200","三重區"
"241023","545-UM","2017/06/26 20:09:34","新北市三重區頂崁街225號","121.47704","25.0680566666667","6500200","三重區"
"241006","AAD-863","2017/06/26 20:09:34","新北市三重區車路頭街135-1號","121.484285","25.07612","6500200","三重區"
"241035","743-BX","2017/06/26 20:09:46","新北市三重區正義北路33巷25號","121.498433333333","25.063815","6500200","三重區"
"241001","887-TS","2017/06/26 20:09:38","新北市三重區溪尾街26號","121.490915","25.0763833333333","6500200","三重區"
"241012","941-UM","2017/06/26 20:09:43","新北市三重區仁福街64巷23號","121.49783","25.0754916666667","6500200","三重區"
"241029","942-UM","2017/06/26 20:09:48","新北市三重區光明路32巷9號","121.491773333333","25.0585766666667","6500200","三重區"
"235066","003-UY","2017/06/26 20:09:50","新北市中和區水源路127巷9號","121.508025","25.0036416666667","6500300","中和區"
"235026","031-BX","2017/06/26 20:09:35","新北市中和區和城路一段271巷1號","121.485458333333","24.9916283333333","6500300","中和區"
"235039","097-UM","2017/06/26 20:09:55","新北市中和區大勇街25巷29弄3號","121.515181666667","24.9936966666667","6500300","中和區"
"235040","150-BY","2017/06/26 20:09:44","新北市中和區保健路33巷5號","121.508941666667","24.9979833333333","6500300","中和區"
"235058","151-BY","2017/06/26 20:09:50","新北市中和區中正路657號","121.485055","24.9961433333333","6500300","中和區"
"235055","183-VK","2017/06/26 20:09:38","新北市中和區民生街23巷3弄2號","121.471081666667","25.0049616666667","6500300","中和區"
"235038","185-VK","2017/06/26 20:09:51","新北市中和區自立路3號","121.522558333333","24.9966533333333","6500300","中和區"
"235044","293-VK","2017/06/26 20:09:43","新北市中和區板南路128巷1號","121.502626666667","24.992495","6500300","中和區"
"235072","301-VK","2017/06/26 20:09:52","新北市八里區中山路三段216號","121.377905","25.1416216666667","6500300","中和區"
"235051","376-QA","2017/06/26 19:14:46","新北市中和區興南路一段73巷6號","121.510286666667","24.9888666666667","6500300","中和區"
"235068","377-QA","2017/06/26 20:09:31","新北市中和區中山路二段252號","121.49756","25.0028083333333","6500300","中和區"
"235050","4979-A6","2017/06/26 20:09:49","新北市中和區景新街296號","121.511178333333","24.9919716666667","6500300","中和區"
"235069","4980-A6","2017/06/26 20:09:39","新北市中和區景新街64巷11弄1號","121.503946666667","24.9985","6500300","中和區"
"235070","558-UM","2017/06/26 20:09:35","新北市中和區連勝街9-13號","121.499316666667","24.998205","6500300","中和區"
"235054","640-BX","2017/06/26 20:09:51","新北市中和區莒光路110號","121.472356666667","25.0020666666667","6500300","中和區"
"235046","733-UM","2017/06/26 20:09:43","新北市中和區忠孝街31巷45號","121.509666666667","24.9853583333333","6500300","中和區"
"235026","800-TS","2017/06/26 17:26:01","新北市中和區員山路36巷16-2號","121.4852","24.99141","6500300","中和區"
"235041","802-TS","2017/06/26 20:09:49","新北市中和區中安街34號","121.513166666667","25.0027816666667","6500300","中和區"
"235052","805-TS","2017/06/26 20:09:39","新北市中和區華新街93號","121.508611666667","24.9831683333333","6500300","中和區"
"235048","896-TW","2017/06/26 20:09:44","新北市中和區景新街498號","121.513663333333","24.9871583333333","6500300","中和區"
"235037","AAC-213","2017/06/26 20:09:48","新北市中和區秀朗路三段10巷29弄10號","121.524928333333","24.9958883333333","6500300","中和區"
"235059","AAC-215","2017/06/26 20:09:42","新北市中和區圓通路335巷33弄1號","121.493528333333","24.9894333333333","6500300","中和區"
"220068","013-TV","2017/06/26 20:09:47","新北市板橋區中山路二段424號","121.483626666667","25.021465","6500100","板橋區"
"220065","072-UY","2017/06/26 20:09:51","新北市板橋區中山路一段154巷3弄2號","121.465403333333","25.0104433333333","6500100","板橋區"
"220086","073-UY","2017/06/26 20:09:38","新北市板橋區南雅西路二段11號","121.452948333333","25.0094016666667","6500100","板橋區"
"220106","075-UY","2017/06/26 20:09:51","新北市板橋區仁化街131號","121.477131666667","25.032785","6500100","板橋區"
"247020","893-R6","2017/06/26 20:09:38","新北市蘆洲區民義街68巷56號","121.474238333333","25.0893633333333","6501400","蘆洲區"
"247010","546-UM","2017/06/26 20:09:44","新北市蘆洲區信義路179號","121.479766666667","25.082385","6501400","蘆洲區"
"247018","500-BY","2017/06/26 20:09:47","新北市蘆洲區民族路350號","121.476423333333","25.0906683333333","6501400","蘆洲區"
"247008","339-TH","2017/06/26 20:09:45","新北市蘆洲區集賢路300號","121.481495","25.0852183333333","6501400","蘆洲區"
"247023","337-TH","2017/06/26 14:27:40","新北市五股區中興路三段2巷10號","121.448806666667","25.08169","6501400","蘆洲區"
"247002","336-TH","2017/06/26 20:09:43","新北市蘆洲區長安街246巷35號","121.458621666667","25.0865516666667","6501400","蘆洲區"
"247006","335-TH","2017/06/26 20:09:35","新北市蘆洲區中山二路300巷1號","121.468565","25.07692","6501400","蘆洲區"
"247014","057-VK","2017/06/26 20:09:44","新北市蘆洲區中山二路265巷29號","121.47091","25.0796766666667","6501400","蘆洲區"
"247004","056-VK","2017/06/26 20:09:40","新北市蘆洲區永安南路二段328巷15弄2號","121.45659","25.083795","6501400","蘆洲區"
"247024","053-VK","2017/06/26 20:09:37","新北市蘆洲區光榮路66巷17號","121.463523333333","25.0881566666667","6501400","蘆洲區"
"247012","007-UY","2017/06/26 20:09:40","新北市蘆洲區中興街15巷39號","121.479803333333","25.0884183333333","6501400","蘆洲區"
"247022","002-UY","2017/06/26 20:09:49","新北市蘆洲區三民路193號","121.47044","25.0877583333333","6501400","蘆洲區"
"247016","001-UY","2017/06/26 20:09:50","新北市蘆洲區光華路150巷18號","121.465341666667","25.08303","6501400","蘆洲區"
"224011","420-VK","2017/06/26 20:09:38","新北市瑞芳區崙頂路3-1號","121.846996666667","25.1046783333333","6501200","瑞芳區"
"227001","642-TC","2017/06/26 20:09:49","新北市雙溪區魚行里新店74-1號","121.871843333333","25.0303616666667","6502500","雙溪區"
"208003","665-BX","2017/06/26 20:09:43","新北市金山區海興路85號","121.632783333333","25.2401233333333","6502700","金山區"
"251004","009-UM","2017/06/26 20:02:01","新北市淡水區民族路31-11號","121.461346666667","25.136405","6501000","淡水區"
"251005","010-UM","2017/06/26 20:09:41","新北市淡水區學府路121號","121.450388333333","25.1726266666667","6501000","淡水區"
"251008","181-VK","2017/06/26 20:09:34","新北市淡水區淡海路72巷33弄2號","121.42444","25.1827066666667","6501000","淡水區"
"251013","182-VK","2017/06/26 20:09:37","新北市淡水區奎柔山路460號","121.463743333333","25.2046483333333","6501000","淡水區"
"251010","413-VK","2017/06/26 20:09:38","新北市淡水區新市二路二段112號","121.428421666667","25.1951216666667","6501000","淡水區"
"251012","441-VK","2017/06/26 20:09:34","新北市淡水區下圭柔山70巷3號","121.446373333333","25.2077066666667","6501000","淡水區"
"251015","442-VK","2017/06/26 20:09:36","新北市淡水區埤島3-23號","121.44735","25.1895616666667","6501000","淡水區"
"251001","559-UM","2017/06/26 20:09:37","新北市淡水區新市二路四段265號","121.445718333333","25.1924816666667","6501000","淡水區"
"251006","561-UM","2017/06/26 20:09:39","新北市淡水區北新路141巷29號","121.448066666667","25.179655","6501000","淡水區"
"251011","650-BX","2017/06/26 20:07:40","新北市淡水區崁頂78-5號","121.42939","25.2071866666667","6501000","淡水區"
"251002","672-BX","2017/06/26 20:09:37","新北市淡水區中正路334號","121.435825","25.17319","6501000","淡水區"
"251003","766-UM","2017/06/26 20:09:51","新北市淡水區中山北路一段271號","121.444621666667","25.1812833333333","6501000","淡水區"
"207003","550-UM","2017/06/26 20:09:40","新北市萬里區大鵬里萬里加投180號","121.643015","25.2157616666667","6502800","萬里區"
"207004","225-TW","2017/06/26 20:09:50","新北市萬里區北基里愛二街2號","121.682323333333","25.17674","6502800","萬里區"
"252002","178-VK","2017/06/26 20:09:36","新北市三芝區三民街39巷5號","121.505383333333","25.25771","6502100","三芝區"
"252001","702-TV","2017/06/26 20:09:44","新北市三芝區公正街66號","121.499811666667","25.257495","6502100","三芝區"
"237004","078-UY","2017/06/26 20:09:42","新北市三峽區中正路一段375號","121.370795","24.9225116666667","6500900","三峽區"
"237007","153-BY","2017/06/26 20:09:51","新北市三峽區二鬮路136巷147號","121.357146666667","24.910795","6500900","三峽區"
"237009","210-TH","2017/06/26 20:09:51","新北市三峽區民族街28巷2-8號","121.368933333333","24.9306916666667","6500900","三峽區"
"237013","252-BX","2017/06/26 20:09:50","新北市三峽區大勇路1-3號","121.367005","24.9385866666667","6500900","三峽區"
"237012","275-BY","2017/06/26 20:09:51","新北市三峽區中華路98號","121.371085","24.9280383333333","6500900","三峽區"
"237008","302-VK","2017/06/26 20:09:41","新北市三峽區中正路一段108巷7弄13號","121.373291666667","24.9296116666667","6500900","三峽區"
"237006","5529-G3","2017/06/26 20:09:42","新北市三峽區嘉添9號","121.368721666667","24.91203","6500900","三峽區"
"237015","649-BX","2017/06/26 20:09:49","新北市三峽區介壽路三段1號","121.395318333333","24.9361916666667","6500900","三峽區"
"237005","AKY-6261","2017/06/26 20:09:51","新北市三峽區三樹路2號","121.377141666667","24.9371133333333","6500900","三峽區"
"236069","105-UM","2017/06/26 20:09:40","新北市土城區大安路2號","121.432876666667","24.96546","6501300","土城區"
"236042","107-UM","2017/06/26 20:09:37","新北市土城區學府路一段122-2號","121.455351666667","24.9875933333333","6501300","土城區"
"236078","166-UM","2017/06/26 20:09:52","新北市土城區三民路61巷10號","121.4192","24.96423","6501300","土城區"
"236030","253-BX","2017/06/26 20:09:48","新北市土城區中央路一段156巷6號","121.445738333333","24.9875033333333","6501300","土城區"
"236026","269-VK","2017/06/26 20:09:43","新北市土城區明德路二段102巷14號","121.445581666667","24.9846083333333","6501300","土城區"
"236014","270-VK","2017/06/26 20:09:37","新北市土城區德興街137號","121.455096666667","24.991665","6501300","土城區"
"236036","271-VK","2017/06/26 20:09:37","新北市土城區明德路一段151號","121.46503","24.9799666666667","6501300","土城區"
"236020","401-BY","2017/06/26 20:09:35","新北市土城區延吉街65號","121.472268333333","24.9874766666667","6501300","土城區"
"236058","912-UM","2017/06/26 20:09:40","新北市土城區中央路一段361號","121.443136666667","24.9810183333333","6501300","土城區"
"236048","913-UM","2017/06/26 20:09:50","新北市土城區金城路三段22-1號","121.4652","24.9863716666667","6501300","土城區"
"236062","915-UM","2017/06/26 20:09:43","新北市土城區延和路18巷12號","121.464496666667","24.98801","6501300","土城區"
"236053","AAC-216","2017/06/26 20:09:49","新北市土城區學府路一段62號","121.45711","24.9884133333333","6501300","土城區"
"242021","AAC-296","2017/06/26 20:09:31","新北市新莊區建中街24號","121.449148333333","25.03759","6500500","新莊區"
"242048","751-BX","2017/06/26 20:09:49","新北市新莊區四維路152巷34號","121.421936666667","25.0223633333333","6500500","新莊區"
"242023","613-BX","2017/06/26 20:09:33","新北市新莊區化成路540-2號","121.466261666667","25.053345","6500500","新莊區"
"242027","612-BX","2017/06/26 20:09:49","新北市新莊區幸福路808號","121.445996666667","25.0491566666667","6500500","新莊區"
"242036","566-BX","2017/06/26 20:09:50","新北市新莊區建安街9巷3-1號","121.429003333333","25.0266733333333","6500500","新莊區"
"242042","497-BY","2017/06/26 20:09:44","新北市新莊區青山路一段179號","121.400431666667","25.0302316666667","6500500","新莊區"
"242004","442-UM","2017/06/26 20:09:49","新北市新莊區頭前路149號","121.461003333333","25.0525866666667","6500500","新莊區"
"242046","441-UM","2017/06/26 20:09:40","新北市新莊區裕民街55巷9號","121.419183333333","25.0238033333333","6500500","新莊區"
"242050","440-UM","2017/06/26 20:09:42","新北市新莊區民安西路170號","121.42598","25.0159833333333","6500500","新莊區"
"242031","415-TV","2017/06/26 20:09:37","新北市新莊區中正路380號","121.443045","25.0341333333333","6500500","新莊區"
"242002","413-TV","2017/06/26 20:09:42","新北市新莊區中正路48-2號","121.463923333333","25.04103","6500500","新莊區"
"242039","400-BY","2017/06/26 20:09:41","新北市新莊區民安西路113-1號","121.426801666667","25.0181016666667","6500500","新莊區"
"242060","362-BY","2017/06/26 20:09:43","新北市新莊區瓊林路104-17號","121.44344","25.0263466666667","6500500","新莊區"
"242058","353-BY","2017/06/26 20:09:35","新北市新莊區八德街169號","121.423246666667","25.0190066666667","6500500","新莊區"
"242011","132-UY","2017/06/26 20:09:54","新北市新莊區中信街61號","121.449221666667","25.050765","6500500","新莊區"
"242044","172-VK","2017/06/26 20:09:36","新北市新莊區萬壽路一段21巷17弄10號","121.411116666667","25.0201883333333","6500500","新莊區"
"242007","173-VK","2017/06/26 20:09:52","新北市新莊區福壽街184巷28號","121.459323333333","25.05328","6500500","新莊區"
"242013","175-VK","2017/06/26 20:09:37","新北市新莊區幸福路678巷3弄3號","121.450326666667","25.049855","6500500","新莊區"
"242056","176-VK","2017/06/26 20:09:49","新北市新莊區新莊路649巷15弄1號","121.445006666667","25.0314833333333","6500500","新莊區"
"242019","346-TH","2017/06/26 20:09:50","新北市新莊區思源路137號","121.459785","25.0437333333333","6500500","新莊區"
"242034","347-TH","2017/06/26 20:09:39","新北市新莊區中正路318巷18號","121.446456666667","25.0360733333333","6500500","新莊區"
"242017","348-TH","2017/06/26 20:09:55","新北市新莊區中港路367號","121.451883333333","25.0463233333333","6500500","新莊區"
"242053","349-TH","2017/06/26 20:09:45","新北市新莊區西盛街399號","121.427821666667","25.0127966666667","6500500","新莊區"
"242015","350-TH","2017/06/26 20:09:38","新北市新莊區中平路26巷34號","121.446251666667","25.0432683333333","6500500","新莊區"
"242009","351-TH","2017/06/26 20:09:46","新北市新莊區昌平街55號","121.45474","25.05296","6500500","新莊區"
"238015","755-BX","2017/06/26 20:09:44","新北市樹林區育德街78-1號","121.387508333333","24.9682683333333","6500700","樹林區"
"238023","601-UM","2017/06/26 20:09:32","新北市樹林區保安街一段195號","121.420915","24.99616","6500700","樹林區"
"238021","311-TH","2017/06/26 18:50:52","新北市樹林區西圳街一段118巷16號","121.3941","24.9663183333333","6500700","樹林區"
"238025","303-VK","2017/06/26 20:09:41","新北市樹林區中山路三段204號","121.387336666667","24.968315","6500700","樹林區"
"221008","489-VK","2017/06/26 20:09:48","新北市汐止區忠三街9巷8號","121.625025","25.0793","6501100","汐止區"
"221036","130-UY","2017/06/26 20:09:38","新北市汐止區新台五路二段110號","121.662663333333","25.0660316666667","6501100","汐止區"
"221015","131-UY","2017/06/26 20:09:43","新北市汐止區建成路19號","121.664428333333","25.0726033333333","6501100","汐止區"
"221010","269-BY","2017/06/26 20:09:51","新北市汐止區八連路一段203號","121.641098333333","25.0808783333333","6501100","汐止區"
"221031","277-VK","2017/06/26 00:20:35","新北市汐止區汐萬路一段256巷3號","121.65254","25.0745833333333","6501100","汐止區"
"221012","278-VK","2017/06/26 20:09:46","新北市汐止區汐平路一段61號","121.682708333333","25.0704483333333","6501100","汐止區"
"221023","279-VK","2017/06/26 20:09:41","新北市汐止區明峰街298巷7弄1號","121.624981666667","25.0687983333333","6501100","汐止區"
"221032","280-BY","2017/06/26 20:09:42","新北市汐止區弘道街8巷3弄2號","121.6171","25.0481133333333","6501100","汐止區"
"221027","281-BY","2017/06/26 20:09:33","新北市汐止區中正路110號","121.660863333333","25.069495","6501100","汐止區"
"221029","298-VK","2017/06/26 20:09:48","新北市汐止區樟樹一路119巷12號","121.64123","25.06447","6501100","汐止區"
"221021","299-VK","2017/06/26 19:54:04","新北市汐止區水源路一段143號","121.656098333333","25.0621066666667","6501100","汐止區"
"221002","488-VK","2017/06/26 20:09:39","新北市汐止區福德一路213巷2弄43號","121.635155","25.06444","6501100","汐止區"
"221035","622-UM","2017/06/26 20:09:50","新北市汐止區長江街67巷2弄2號","121.656736666667","25.0721533333333","6501100","汐止區"
"221025","623-UM","2017/06/26 20:09:51","新北市汐止區水源路一段241號","121.654185","25.0600616666667","6501100","汐止區"
"221038","646-BX","2017/06/26 20:09:36","新北市汐止區忠孝東路488號","121.666561666667","25.0748016666667","6501100","汐止區"
"221033","647-BX","2017/06/26 20:09:44","新北市汐止區東勢街201巷104號","121.633508333333","25.04307","6501100","汐止區"
"221018","753-BX","2017/06/26 20:09:41","新北市汐止區茄福街35巷33號","121.673378333333","25.06634","6501100","汐止區"
"220101","245-BX","2017/06/26 20:09:39","新北市板橋區莒光路167-4號","121.474355","25.0235033333333","6500100","板橋區"
"220069","258-TC","2017/06/26 20:09:39","新北市板橋區大明街21號","121.458725","25.002605","6500100","板橋區"
"220072","277-BY","2017/06/26 20:09:39","新北市板橋區篤行路二段1巷6-3號","121.43223","24.9929133333333","6500100","板橋區"
"220094","283-UM","2017/06/26 20:09:48","新北市板橋區陽明街18號","121.466496666667","25.0217183333333","6500100","板橋區"
"220071","283-VK","2017/06/26 20:09:49","新北市板橋區和平路178號","121.463443333333","24.995485","6500100","板橋區"
"220053","285-VK","2017/06/26 20:09:47","新北市板橋區懷仁街92-4號","121.477518333333","25.0181033333333","6500100","板橋區"
"220083","286-VK","2017/06/26 20:09:54","新北市板橋區僑中二街52號","121.446723333333","25.01038","6500100","板橋區"
"220081","287-VK","2017/06/26 20:09:52","新北市板橋區僑中一街124巷20弄36號","121.447595","25.013795","6500100","板橋區"
"220090","288-VK","2017/06/26 20:01:33","新北市板橋區綠堤街33-4號","121.455751666667","25.0264516666667","6500100","板橋區"
"220061","293-UM","2017/06/26 20:09:52","新北市板橋區觀光街1巷1號","121.472236666667","25.0154483333333","6500100","板橋區"
"220084","296-UM","2017/06/26 20:09:48","新北市板橋區板林路190號","121.424551666667","24.9882816666667","6500100","板橋區"
"220075","297-UM","2017/06/26 20:09:53","新北市板橋區金華街10巷77號","121.458021666667","25.0204216666667","6500100","板橋區"
"220062","305-R5","2017/06/26 20:09:06","新北市板橋區中山路二段494號","121.485903333333","25.0220966666667","6500100","板橋區"
"220092","307-R5","2017/06/26 20:09:51","新北市板橋區文化路一段83號","121.461048333333","25.0140166666667","6500100","板橋區"
"220098","317-R6","2017/06/26 20:09:36","新北市板橋區新海路72巷15號","121.462463333333","25.0221166666667","6500100","板橋區"
"220064","486-VK","2017/06/26 20:09:54","新北市板橋區長安街331巷28號","121.473891666667","25.0127183333333","6500100","板橋區"
"220089","487-VK","2017/06/26 20:09:38","新北市板橋區新海路378號","121.459221666667","25.02591","6500100","板橋區"
"220088","491-VK","2017/06/26 20:09:44","新北市板橋區仁化街124號","121.477228333333","25.0325783333333","6500100","板橋區"
"220035","560-BX","2017/06/26 20:09:33","新北市板橋區新生街46號","121.45673","25.0210333333333","6500100","板橋區"
"220103","561-BX","2017/06/26 20:09:45","新北市板橋區文化路一段421巷11弄15號","121.466811666667","25.0225083333333","6500100","板橋區"
"220057","686-BX","2017/06/26 20:09:48","新北市板橋區四川路二段78號","121.452216666667","24.994775","6500100","板橋區"
"220077","687-BX","2017/06/26 20:09:38","新北市板橋區大觀路二段443-2號","121.440156666667","24.9951483333333","6500100","板橋區"
"220093","689-BX","2017/06/26 20:09:49","新北市板橋區長江路二段237號","121.468645","25.0326616666667","6500100","板橋區"
"220054","741-BX","2017/06/26 20:09:43","新北市板橋區忠孝路忠義巷6號","121.4653","25.0034466666667","6500100","板橋區"
"220055","827-TW","2017/06/26 20:09:38","新北市板橋區仁愛路76巷1弄2號","121.460535","24.999415","6500100","板橋區"
"220067","829-TW","2017/06/26 20:09:36","新北市板橋區中山路一段282-1號","121.46891","25.0134383333333","6500100","板橋區"
"220102","830-TW","2017/06/26 20:09:45","新北市板橋區懷德街78巷21號","121.477833333333","25.0312816666667","6500100","板橋區"
"220096","831-TW","2017/06/26 20:09:43","新北市板橋區莒光路40巷17弄7號","121.470503333333","25.0236583333333","6500100","板橋區"
"220074","895-R6","2017/06/26 20:09:52","新北市板橋區文化路一段32巷21弄14號","121.460261666667","25.011325","6500100","板橋區"
"220073","985-R7","2017/06/26 20:09:41","新北市板橋區南雅西路二段2-1號","121.453223333333","25.0090183333333","6500100","板橋區"
"220097","AAC-210","2017/06/26 20:09:52","新北市板橋區文化路一段221巷16號","121.463091666667","25.017805","6500100","板橋區"
"220070","AAC-253","2017/06/26 20:09:46","新北市板橋區成都街43號","121.461233333333","25.0049633333333","6500100","板橋區"
