"lineid","car","time","location","longitude","latitude","cityid","cityname"
"234081","298-R6","2017/06/26 20:49:33","新北市永和區永貞路82號","121.520266666667","25.004975","6500400","永和區"
"234038","336-UY","2017/06/26 20:49:32","新北市永和區成功路二段80號","121.526595","24.998895","6500400","永和區"
"234064","337-UY","2017/06/26 20:48:46","新北市中和區中和路428號","121.511758333333","25.0033966666667","6500400","永和區"
"234007","695-BX","2017/06/26 18:07:49","新北市永和區福和路1號","121.526651666667","25.0101766666667","6500400","永和區"
"249004","303-UY","2017/06/26 20:49:44","新北市八里區中山路一段63號","121.418366666667","25.1595283333333","6502300","八里區"
"234023","9380-KE","2017/06/26 20:49:50","新北市永和區仁愛路301號","121.503836666667","25.0081383333333","6500400","永和區"
"234074","AAC-211","2017/06/26 20:49:37","新北市永和區環河東路二段20號","121.522281666667","25.0130766666667","6500400","永和區"
"234067","AAC-212","2017/06/26 20:49:45","新北市永和區保平路290號","121.50804","25.0044733333333","6500400","永和區"
"244022","483-VK","2017/06/26 20:49:46","新北市林口區粉寮69號","121.40504","25.090795","6501700","林口區"
"222003","436-BY","2017/06/26 20:49:36","新北市深坑區文山路三段48-1號","121.60989","24.998525","6501800","深坑區"
"222002","659-BX","2017/06/26 20:49:51","新北市深坑區北深路三段93巷73號","121.603441666667","25.0011483333333","6501800","深坑區"
"222001","696-SL","2017/06/26 20:49:42","新北市深坑區北深路三段166號","121.602396666667","25.0035233333333","6501800","深坑區"
"231041","002-UM","2017/06/26 20:49:45","新北市新店區中正路700巷3號","121.533733333333","24.99132","6500600","新店區"
"231056","0291-UT","2017/06/26 20:49:45","新北市新店區中央七街61巷10號","121.52865","24.9763316666667","6500600","新店區"
"231059","046-UY","2017/06/26 20:49:46","新北市新店區僑信路132巷38號","121.49977","24.945385","6500600","新店區"
"231061","047-UY","2017/06/26 20:49:40","新北市新店區新和街93巷2號","121.521015","24.9865033333333","6500600","新店區"
"231060","106-UY","2017/06/26 20:49:33","新北市新店區安康路三段742號","121.473806666667","24.9419266666667","6500600","新店區"
"231051","107-UY","2017/06/26 20:49:39","新北市新店區中央五街1號","121.530151666667","24.9741516666667","6500600","新店區"
"231047","108-UY","2017/06/26 20:49:42","新北市新店區寶元路二段1巷1號","121.55074","24.984035","6500600","新店區"
"231068","110-UY","2017/06/26 20:49:36","新北市新店區寶元路一段102號","121.545068333333","24.9832466666667","6500600","新店區"
"231057","256-BX","2017/06/26 20:49:38","新北市新店區花園六路二段18號","121.555143333333","24.933255","6500600","新店區"
"231063","268-BY","2017/06/26 20:49:42","新北市新店區如意街7-1號","121.495216666667","24.9486233333333","6500600","新店區"
"231050","AAD-862","2017/06/26 20:49:45","新北市新店區中正路247巷3號","121.538893333333","24.9729083333333","6500600","新店區"
"231058","3712-VJ","2017/06/26 20:49:47","新北市新店區中正路305號","121.53653","24.9745883333333","6500600","新店區"
"231065","512-UM","2017/06/26 20:49:50","新北市新店區安祥路104巷52號","121.483031666667","24.963595","6500600","新店區"
"231054","513-UM","2017/06/26 20:49:52","新北市新店區中正路75巷65號","121.543238333333","24.969155","6500600","新店區"
"231064","515-UM","2017/06/26 20:49:44","新北市新店區安民街376號","121.516508333333","24.9764033333333","6500600","新店區"
"231042","616-UM","2017/06/26 20:49:39","新北市新店區寶高路118號","121.55453","24.9759633333333","6500600","新店區"
"231040","619-UM","2017/06/26 20:49:39","新北市新店區中正路276號","121.538918333333","24.9737383333333","6500600","新店區"
"231049","719-UM","2017/06/26 20:49:43","新北市新店區永業路81巷9弄5號","121.531031666667","24.950585","6500600","新店區"
"231062","720-UM","2017/06/26 20:49:42","新北市新店區和成街18巷18號","121.487593333333","24.9463733333333","6500600","新店區"
"231044","897-TW","2017/06/26 20:49:42","新北市新店區建國路120號","121.539208333333","24.978635","6500600","新店區"
"231043","899-TW","2017/06/26 20:49:44","新北市新店區建國路29號","121.540196666667","24.9740816666667","6500600","新店區"
"231066","AKT-0513","2017/06/26 20:49:48","新北市新店區安興路105號","121.514736666667","24.9777016666667","6500600","新店區"
"241011","013-R5","2017/06/26 20:49:30","新北市三重區河邊北街138號","121.50332","25.0720566666667","6500200","三重區"
"241028","022-UY","2017/06/26 20:49:34","新北市三重區中正南路44號","121.493885","25.060025","6500200","三重區"
"241009","060-VK","2017/06/26 20:49:37","新北市三重區三和路四段388-2號","121.482028333333","25.079105","6500200","三重區"
"241031","061-VK","2017/06/26 20:49:48","新北市三重區重陽路一段113巷1弄1號","121.487473333333","25.0598183333333","6500200","三重區"
"241015","062-VK","2017/06/26 20:49:50","新北市三重區三和路二段154巷3號","121.499026666667","25.0683833333333","6500200","三重區"
"241017","063-VK","2017/06/26 20:49:37","新北市三重區民生街32號","121.491776666667","25.0670666666667","6500200","三重區"
"241024","065-VK","2017/06/26 20:49:39","新北市三重區國道路一段58巷15號","121.48138","25.07205","6500200","三重區"
"241026","066-VK","2017/06/26 20:49:35","新北市三重區文化南路7號","121.500006666667","25.0623583333333","6500200","三重區"
"241002","090-VK","2017/06/26 20:49:51","新北市三重區仁義街159巷28號","121.498075","25.08171","6500200","三重區"
"241003","091-VK","2017/06/26 20:49:49","新北市三重區五華街141巷58號","121.493603333333","25.08678","6500200","三重區"
"241005","262-UM","2017/06/26 20:49:34","新北市三重區五華街141巷58號","121.49334","25.0865133333333","6500200","三重區"
"241007","265-UM","2017/06/26 20:49:38","新北市三重區三和路四段143-1號","121.484446666667","25.0783283333333","6500200","三重區"
"241016","266-UM","2017/06/26 20:49:41","新北市三重區正義北路202號","121.496245","25.0671883333333","6500200","三重區"
"241022","267-UM","2017/06/26 20:49:34","新北市三重區過圳街27-5號","121.487921666667","25.0623966666667","6500200","三重區"
"241018","268-UM","2017/06/26 20:49:34","新北市三重區正義北路269號","121.495466666667","25.0699333333333","6500200","三重區"
"241032","269-UM","2017/06/26 20:49:50","新北市三重區重陽路一段120巷48號","121.485068333333","25.0601583333333","6500200","三重區"
"241013","270-UM","2017/06/26 20:49:44","新北市三重區三和路三段107巷2號","121.494191666667","25.0729666666667","6500200","三重區"
"241025","271-UM","2017/06/26 20:49:44","新北市三重區貴陽街14號","121.484193333333","25.0618566666667","6500200","三重區"
"241008","412-TH","2017/06/26 20:49:37","新北市三重區永福街72巷11號","121.479473333333","25.076815","6500200","三重區"
"241020","413-TH","2017/06/26 20:49:38","新北市三重區忠孝路一段101號","121.489416666667","25.072085","6500200","三重區"
"241004","475-VK","2017/06/26 20:49:46","新北市三重區溪尾街165巷12號","121.48942","25.0804866666667","6500200","三重區"
"241019","478-VK","2017/06/26 20:49:47","新北市三重區三張街45號","121.49134","25.071105","6500200","三重區"
"241030","480-VK","2017/06/26 20:49:50","新北市三重區昌隆街26號","121.492111666667","25.0522866666667","6500200","三重區"
"241014","543-UM","2017/06/26 20:49:36","新北市三重區龍濱路118-3號","121.501803333333","25.0703766666667","6500200","三重區"
"241023","545-UM","2017/06/26 20:49:34","新北市三重區重陽路二段18巷6號","121.48645","25.06216","6500200","三重區"
"241006","AAD-863","2017/06/26 20:49:34","新北市三重區車路頭街135-1號","121.48425","25.0761616666667","6500200","三重區"
"241001","887-TS","2017/06/26 20:49:38","新北市三重區三和路四段160巷104號","121.4851","25.0744216666667","6500200","三重區"
"241012","941-UM","2017/06/26 20:49:43","新北市三重區仁信街27號","121.501265","25.0755283333333","6500200","三重區"
"241029","942-UM","2017/06/26 20:49:48","新北市三重區重安街18號","121.490336666667","25.0580666666667","6500200","三重區"
"235026","031-BX","2017/06/26 20:11:18","新北市中和區和城路一段271巷1號","121.48548","24.991625","6500300","中和區"
"235039","097-UM","2017/06/26 20:49:35","新北市中和區大勇街29巷10號","121.516076666667","24.9945583333333","6500300","中和區"
"235058","151-BY","2017/06/26 20:49:50","新北市林口區太平里180號","121.368245","25.1343916666667","6500300","中和區"
"235072","301-VK","2017/06/26 20:49:52","新北市板橋區民生路二段161巷1號","121.470083333333","25.019945","6500300","中和區"
"235069","4980-A6","2017/06/26 20:49:39","新北市中和區連城路467-4號","121.483705","24.9961583333333","6500300","中和區"
"235026","800-TS","2017/06/26 20:49:52","新北市中和區員山路36巷16-3號","121.485053333333","24.991315","6500300","中和區"
"235037","AAC-213","2017/06/26 20:49:48","新北市中和區更生街11號","121.52181","24.9962666666667","6500300","中和區"
"247020","893-R6","2017/06/26 20:49:38","新北市蘆洲區仁愛街81號","121.471355","25.0938866666667","6501400","蘆洲區"
"247018","500-BY","2017/06/26 20:49:47","新北市蘆洲區民權路70號","121.47491","25.087355","6501400","蘆洲區"
"247008","339-TH","2017/06/26 20:49:45","新北市蘆洲區集賢路269巷29號","121.482425","25.0833266666667","6501400","蘆洲區"
"247023","337-TH","2017/06/26 14:27:40","新北市五股區中興路三段2巷10號","121.448806666667","25.08169","6501400","蘆洲區"
"247002","336-TH","2017/06/26 20:49:43","新北市蘆洲區長榮路345號","121.459501666667","25.0875983333333","6501400","蘆洲區"
"247006","335-TH","2017/06/26 20:49:35","新北市蘆洲區長安街2號","121.464695","25.0786816666667","6501400","蘆洲區"
"247014","057-VK","2017/06/26 20:49:44","新北市蘆洲區三民路86號","121.474726666667","25.08433","6501400","蘆洲區"
"247004","056-VK","2017/06/26 20:49:41","新北市蘆洲區長安街100號","121.461556666667","25.0810116666667","6501400","蘆洲區"
"247024","053-VK","2017/06/26 20:48:17","新北市蘆洲區長樂路136號","121.462106666667","25.0900733333333","6501400","蘆洲區"
"247012","007-UY","2017/06/26 20:49:39","新北市蘆洲區信義路285號","121.478706666667","25.0854666666667","6501400","蘆洲區"
"247022","002-UY","2017/06/26 20:49:47","新北市蘆洲區中正路185巷46弄12號","121.467151666667","25.0851716666667","6501400","蘆洲區"
"247016","001-UY","2017/06/26 20:49:30","新北市蘆洲區正和街10號","121.470338333333","25.0827333333333","6501400","蘆洲區"
"224011","420-VK","2017/06/26 20:28:03","新北市瑞芳區明燈路二段66號","121.809496666667","25.1073283333333","6501200","瑞芳區"
"251009","008-UM","2017/06/26 20:49:34","新北市淡水區新市一路三段151號","121.448346666667","25.1835366666667","6501000","淡水區"
"251005","010-UM","2017/06/26 20:49:37","新北市淡水區中山北路三段138號","121.445811666667","25.194805","6501000","淡水區"
"251007","179-VK","2017/06/26 20:49:35","新北市淡水區鄧公路29巷6號","121.451973333333","25.1701466666667","6501000","淡水區"
"251013","182-VK","2017/06/26 20:49:36","新北市淡水區埤島41號","121.452016666667","25.197855","6501000","淡水區"
"251010","413-VK","2017/06/26 20:49:38","新北市淡水區沙崙路126號","121.423458333333","25.1829883333333","6501000","淡水區"
"251012","441-VK","2017/06/26 20:49:34","新北市淡水區興仁路162號","121.451558333333","25.2207066666667","6501000","淡水區"
"251015","442-VK","2017/06/26 20:49:36","新北市淡水區淡金路四段542巷17號","121.452716666667","25.2270733333333","6501000","淡水區"
"251001","559-UM","2017/06/26 20:49:37","新北市淡水區淡金路218號","121.460545","25.1671833333333","6501000","淡水區"
"251011","650-BX","2017/06/26 20:49:40","新北市淡水區新民街一段11號","121.43319","25.184505","6501000","淡水區"
"251002","672-BX","2017/06/26 20:49:37","新北市淡水區英專路42號","121.445575","25.1701966666667","6501000","淡水區"
"251003","766-UM","2017/06/26 20:49:41","新北市淡水區中山北路一段247巷68號","121.443","25.1794416666667","6501000","淡水區"
"252001","702-TV","2017/06/26 20:49:44","新北市三芝區淡金路二段76-2號","121.504046666667","25.260985","6502100","三芝區"
"242021","AAC-296","2017/06/26 20:49:51","新北市新莊區中華路一段130號","121.452458333333","25.04096","6500500","新莊區"
"242048","751-BX","2017/06/26 20:49:49","新北市新莊區建國一路109號","121.434913333333","25.0283383333333","6500500","新莊區"
"242023","613-BX","2017/06/26 20:49:33","新北市新莊區思源路63號","121.459948333333","25.0403683333333","6500500","新莊區"
"242036","566-BX","2017/06/26 20:49:50","新北市新莊區後港一路203號","121.434431666667","25.028295","6500500","新莊區"
"242042","497-BY","2017/06/26 20:49:35","新北市新莊區天祥街42號","121.41708","25.0287266666667","6500500","新莊區"
"242046","441-UM","2017/06/26 20:49:40","新北市新莊區龍安路112號","121.41876","25.0204316666667","6500500","新莊區"
"242050","440-UM","2017/06/26 20:49:42","新北市新莊區民安東路152號","121.431703333333","25.0204833333333","6500500","新莊區"
"242031","415-TV","2017/06/26 20:49:37","新北市新莊區中正路500號","121.435936666667","25.03312","6500500","新莊區"
"242002","413-TV","2017/06/26 20:49:42","新北市新莊區中港路8號","121.454941666667","25.03691","6500500","新莊區"
"242039","400-BY","2017/06/26 20:49:41","新北市新莊區瓊林路170-1號","121.441166666667","25.0236183333333","6500500","新莊區"
"242011","132-UY","2017/06/26 20:49:34","新北市新莊區中榮街103號","121.44488","25.0527983333333","6500500","新莊區"
"242044","172-VK","2017/06/26 20:49:42","新北市新莊區龍安路112號","121.418541666667","25.0204816666667","6500500","新莊區"
"242013","175-VK","2017/06/26 20:49:37","新北市新莊區中和街175巷11號","121.447265","25.050615","6500500","新莊區"
"242056","176-VK","2017/06/26 20:49:49","新北市新莊區瓊泰路94巷4號","121.443503333333","25.029415","6500500","新莊區"
"242019","346-TH","2017/06/26 20:49:50","新北市新莊區中港路166號","121.455023333333","25.04159","6500500","新莊區"
"242034","347-TH","2017/06/26 20:49:39","新北市新莊區中正路449號","121.443086666667","25.0341183333333","6500500","新莊區"
"242017","348-TH","2017/06/26 20:49:34","新北市新莊區中華路一段2號","121.452125","25.03651","6500500","新莊區"
"242053","349-TH","2017/06/26 20:49:44","新北市新莊區民安西路300號","121.4263","25.012185","6500500","新莊區"
"242015","350-TH","2017/06/26 20:49:38","新北市新莊區復興路一段85號","121.448456666667","25.0428216666667","6500500","新莊區"
"242009","351-TH","2017/06/26 20:49:46","新北市新莊區幸福路10號","121.459225","25.0495166666667","6500500","新莊區"
"238023","601-UM","2017/06/26 20:49:52","新北市樹林區育德街78-1號","121.387351666667","24.9682683333333","6500700","樹林區"
"221036","130-UY","2017/06/26 20:49:38","新北市汐止區南昌街22-1號","121.663203333333","25.0683133333333","6501100","汐止區"
"221015","131-UY","2017/06/26 20:49:43","新北市汐止區大同路二段669號","121.665056666667","25.0719983333333","6501100","汐止區"
"221031","277-VK","2017/06/26 00:20:35","新北市汐止區汐萬路一段256巷3號","121.65254","25.0745833333333","6501100","汐止區"
"221027","281-BY","2017/06/26 20:49:42","新北市汐止區大同路二段423號","121.658645","25.0672833333333","6501100","汐止區"
"221029","298-VK","2017/06/26 20:49:48","新北市汐止區樟樹二路339巷18號","121.641825","25.0713383333333","6501100","汐止區"
"221021","299-VK","2017/06/26 20:12:03","新北市汐止區莊敬街119巷11號","121.655758333333","25.0601933333333","6501100","汐止區"
"221002","488-VK","2017/06/26 20:49:39","新北市汐止區福德二路136號","121.630796666667","25.0652633333333","6501100","汐止區"
"221035","622-UM","2017/06/26 20:49:43","新北市汐止區汐萬路一段136號","121.653336666667","25.0711783333333","6501100","汐止區"
"221025","623-UM","2017/06/26 20:49:51","新北市汐止區汐萬路一段302號","121.65055","25.074625","6501100","汐止區"
"221038","646-BX","2017/06/26 20:49:36","新北市汐止區大同路二段184巷7號","121.653711666667","25.0641883333333","6501100","汐止區"
"221033","647-BX","2017/06/26 20:49:44","新北市汐止區合順街18巷8弄5號","121.620286666667","25.0418616666667","6501100","汐止區"
"221018","753-BX","2017/06/26 20:49:41","新北市汐止區茄苳路109號","121.667806666667","25.071365","6501100","汐止區"
"220035","560-BX","2017/06/26 20:49:33","新北市樹林區中山路三段214號","121.379758333333","24.9676083333333","6500100","板橋區"
"220097","AAC-210","2017/06/26 20:49:42","新北市樹林區佳園路一段153號","121.393975","24.9687316666667","6500100","板橋區"
"220070","AAC-253","2017/06/26 20:49:37","新北市樹林區八德街800號","121.395276666667","24.9688083333333","6500100","板橋區"
