"lineid","car","time","location","longitude","latitude","cityid","cityname"
"234038","336-UY","2017/06/26 21:09:32","新北市永和區成功路一段91號","121.527078333333","25.0027516666667","6500400","永和區"
"234007","695-BX","2017/06/26 18:07:49","新北市永和區福和路1號","121.526651666667","25.0101766666667","6500400","永和區"
"234023","9380-KE","2017/06/26 21:09:30","新北市永和區保生路55號","121.504888333333","25.0101716666667","6500400","永和區"
"244022","483-VK","2017/06/26 20:49:46","新北市林口區粉寮69號","121.40504","25.090795","6501700","林口區"
"231059","046-UY","2017/06/26 21:09:51","新北市新店區僑義路24號","121.500595","24.9500933333333","6500600","新店區"
"231061","047-UY","2017/06/26 21:09:40","新北市新店區永平街58號","121.516113333333","24.9846883333333","6500600","新店區"
"231060","106-UY","2017/06/26 21:09:33","新北市新店區安康路三段2-1號","121.493421666667","24.953435","6500600","新店區"
"231051","107-UY","2017/06/26 21:09:38","新北市新店區中正路663巷7弄13號","121.532856666667","24.9900333333333","6500600","新店區"
"231047","108-UY","2017/06/26 21:09:42","新北市新店區北新路三段2號","121.542665","24.9791183333333","6500600","新店區"
"231063","268-BY","2017/06/26 21:09:42","新北市新店區玫瑰路58巷2號","121.495436666667","24.9466383333333","6500600","新店區"
"231050","AAD-862","2017/06/26 21:09:45","新北市新店區三民路35巷2號","121.537461666667","24.970675","6500600","新店區"
"231065","512-UM","2017/06/26 21:09:50","新北市新店區安祥路69巷41弄25號","121.482208333333","24.96136","6500600","新店區"
"231054","513-UM","2017/06/26 21:09:52","新北市新店區中興路一段267號","121.544831666667","24.96759","6500600","新店區"
"231064","515-UM","2017/06/26 21:09:44","新北市新店區安康路二段320巷6號","121.505178333333","24.9600466666667","6500600","新店區"
"231042","616-UM","2017/06/26 21:09:39","新北市新店區寶興路60巷6號","121.549793333333","24.971805","6500600","新店區"
"231040","619-UM","2017/06/26 21:09:39","新北市新店區北新路一段100號","121.542163333333","24.9694833333333","6500600","新店區"
"231062","720-UM","2017/06/26 21:09:42","新北市新店區雙城路60巷16弄2號","121.491783333333","24.9477566666667","6500600","新店區"
"231066","AKT-0513","2017/06/26 21:09:48","新北市新店區薏仁坑路23號","121.49815","24.95899","6500600","新店區"
"241011","013-R5","2017/06/26 21:09:50","新北市三重區龍濱路120-1號","121.501941666667","25.0709933333333","6500200","三重區"
"241028","022-UY","2017/06/26 21:09:34","新北市三重區正義南路54號","121.498385","25.06066","6500200","三重區"
"241009","060-VK","2017/06/26 21:09:37","新北市三重區忠孝路二段122號","121.482976666667","25.0687716666667","6500200","三重區"
"241031","061-VK","2017/06/26 21:09:48","新北市三重區重新路四段116號","121.487116666667","25.0568083333333","6500200","三重區"
"241015","062-VK","2017/06/26 21:09:50","新北市三重區福德北路57號","121.502201666667","25.06539","6500200","三重區"
"241017","063-VK","2017/06/26 21:09:37","新北市三重區國隆路31號","121.492381666667","25.064495","6500200","三重區"
"241024","065-VK","2017/06/26 21:09:39","新北市三重區國道路一段58巷15號","121.481393333333","25.0720083333333","6500200","三重區"
"241026","066-VK","2017/06/26 21:09:35","新北市三重區文化南路42號","121.500325","25.0602516666667","6500200","三重區"
"241002","090-VK","2017/06/26 21:09:31","新北市三重區五華街19號","121.494896666667","25.08041","6500200","三重區"
"241003","091-VK","2017/06/26 21:09:49","新北市三重區進安街198號","121.493908333333","25.086015","6500200","三重區"
"241005","262-UM","2017/06/26 21:09:34","新北市三重區五華街172號","121.488895","25.0860983333333","6500200","三重區"
"241007","265-UM","2017/06/26 21:09:38","新北市三重區仁美街64號","121.486398333333","25.0785233333333","6500200","三重區"
"241016","266-UM","2017/06/26 21:09:41","新北市三重區信義西街138號","121.495623333333","25.0643316666667","6500200","三重區"
"241022","267-UM","2017/06/26 21:09:34","新北市三重區中正北路64巷24號","121.48612","25.0637333333333","6500200","三重區"
"241018","268-UM","2017/06/26 21:09:34","新北市三重區六張街39號","121.49426","25.07049","6500200","三重區"
"241032","269-UM","2017/06/26 21:09:09","新北市三重區新北大道一段252號","121.479568333333","25.06163","6500200","三重區"
"241013","270-UM","2017/06/26 21:09:44","新北市三重區仁愛街127號","121.495561666667","25.0748566666667","6500200","三重區"
"241025","271-UM","2017/06/26 21:09:44","新北市三重區三民街157巷2號","121.483741666667","25.06461","6500200","三重區"
"241008","412-TH","2017/06/26 21:09:37","新北市三重區三和路二段180號","121.498823333333","25.0689433333333","6500200","三重區"
"241020","413-TH","2017/06/26 21:09:38","新北市三重區忠孝路二段35號","121.485898333333","25.0711","6500200","三重區"
"241004","475-VK","2017/06/26 21:09:46","新北市三重區仁愛街418號","121.490493333333","25.0813783333333","6500200","三重區"
"241019","478-VK","2017/06/26 21:09:47","新北市三重區自強路二段74巷23-1號","121.487955","25.06983","6500200","三重區"
"241030","480-VK","2017/06/26 21:09:50","新北市三重區五谷王北街20巷15弄1號","121.475073333333","25.0484916666667","6500200","三重區"
"241014","543-UM","2017/06/26 21:09:36","新北市三重區長安街82-1號","121.50137","25.06768","6500200","三重區"
"241023","545-UM","2017/06/26 21:09:34","新北市三重區忠孝路三段50巷41弄70號","121.482191666667","25.06376","6500200","三重區"
"241006","AAD-863","2017/06/26 21:09:34","新北市三重區民生街84號","121.490058333333","25.0643116666667","6500200","三重區"
"241001","887-TS","2017/06/26 21:09:38","新北市三重區自強路三段87巷3號","121.487625","25.0747516666667","6500200","三重區"
"241012","941-UM","2017/06/26 21:09:43","新北市三重區河邊北街238-1號","121.501715","25.0756733333333","6500200","三重區"
"241029","942-UM","2017/06/26 21:09:48","新北市三重區正義南路107號","121.498155","25.0585466666667","6500200","三重區"
"241033","AAC-255","2017/06/26 21:09:51","新北市三重區重光街118-1號","121.466275","25.0646816666667","6500200","三重區"
"235026","031-BX","2017/06/26 20:11:18","新北市中和區和城路一段271巷1號","121.48548","24.991625","6500300","中和區"
"235058","151-BY","2017/06/26 21:06:50","新北市五股區凌雲路一段21號","121.45271","25.1003466666667","6500300","中和區"
"235026","800-TS","2017/06/26 21:09:52","新北市中和區員山路36巷16-3號","121.485031666667","24.9913716666667","6500300","中和區"
"247020","893-R6","2017/06/26 21:09:38","新北市蘆洲區民族路422巷15弄23號","121.472955","25.0928866666667","6501400","蘆洲區"
"247010","546-UM","2017/06/26 21:09:44","新北市蘆洲區鷺江街52號","121.47721","25.0832733333333","6501400","蘆洲區"
"247018","500-BY","2017/06/26 21:09:47","新北市蘆洲區民族路408巷13號","121.474988333333","25.0921866666667","6501400","蘆洲區"
"247008","339-TH","2017/06/26 21:09:45","新北市蘆洲區民生街74號","121.472901666667","25.0791033333333","6501400","蘆洲區"
"247023","337-TH","2017/06/26 14:27:40","新北市五股區中興路三段2巷10號","121.448806666667","25.08169","6501400","蘆洲區"
"247002","336-TH","2017/06/26 21:09:43","新北市蘆洲區永平街20號","121.459168333333","25.09069","6501400","蘆洲區"
"247006","335-TH","2017/06/26 21:09:38","新北市蘆洲區九芎街15巷12號","121.467891666667","25.07786","6501400","蘆洲區"
"247014","057-VK","2017/06/26 21:09:44","新北市蘆洲區中央路155號","121.472628333333","25.0847066666667","6501400","蘆洲區"
"247004","056-VK","2017/06/26 21:09:40","新北市蘆洲區永安南路二段320號","121.457111666667","25.082665","6501400","蘆洲區"
"247024","053-VK","2017/06/26 21:09:37","新北市蘆洲區長興路50巷1號","121.463721666667","25.08379","6501400","蘆洲區"
"247012","007-UY","2017/06/26 21:09:39","新北市蘆洲區復興路58號","121.474026666667","25.0860683333333","6501400","蘆洲區"
"247022","002-UY","2017/06/26 21:09:47","新北市蘆洲區中正路261號","121.467513333333","25.0873583333333","6501400","蘆洲區"
"247016","001-UY","2017/06/26 21:09:30","新北市蘆洲區和平路157號","121.46669","25.0807466666667","6501400","蘆洲區"
"224011","420-VK","2017/06/26 20:28:03","新北市瑞芳區明燈路二段66號","121.809496666667","25.1073283333333","6501200","瑞芳區"
"251009","008-UM","2017/06/26 21:09:34","新北市淡水區民族路112巷57號","121.462051666667","25.1343616666667","6501000","淡水區"
"251004","009-UM","2017/06/26 21:09:41","新北市淡水區民權路49號","121.459646666667","25.1394433333333","6501000","淡水區"
"251005","010-UM","2017/06/26 21:09:37","新北市淡水區博愛街66號","121.447098333333","25.1685883333333","6501000","淡水區"
"251013","182-VK","2017/06/26 21:09:36","新北市淡水區行忠路328號","121.460476666667","25.19964","6501000","淡水區"
"251010","413-VK","2017/06/26 21:09:38","新北市淡水區中正路一段63巷9號","121.422675","25.1772283333333","6501000","淡水區"
"251012","441-VK","2017/06/26 21:09:34","新北市淡水區六塊厝16-3號","121.45705","25.2419233333333","6501000","淡水區"
"251015","442-VK","2017/06/26 21:09:36","新北市淡水區淡金路四段542巷59號","121.454781666667","25.2269366666667","6501000","淡水區"
"251001","559-UM","2017/06/26 21:09:37","新北市淡水區新市一路三段101巷16弄14號","121.446813333333","25.18395","6501000","淡水區"
"251011","650-BX","2017/06/26 21:09:40","新北市淡水區新民街222巷16弄12號","121.43686","25.180035","6501000","淡水區"
"251002","672-BX","2017/06/26 21:09:51","新北市淡水區水源街二段34巷3號","121.450221666667","25.1732233333333","6501000","淡水區"
"251003","766-UM","2017/06/26 21:09:31","新北市淡水區新春街103號","121.440025","25.1821916666667","6501000","淡水區"
"252001","702-TV","2017/06/26 21:09:44","新北市三芝區埔坪里埔頭坑41號","121.504548333333","25.2646483333333","6502100","三芝區"
"221029","298-VK","2017/06/26 21:09:48","新北市汐止區康寧街901號","121.6517","25.0749016666667","6501100","汐止區"
"221018","753-BX","2017/06/26 21:09:41","新北市汐止區汐萬路一段256巷3號","121.653481666667","25.0746366666667","6501100","汐止區"
"220097","AAC-210","2017/06/26 20:56:42","新北市樹林區中山路三段210-2號","121.380558333333","24.9675733333333","6500100","板橋區"
"220070","AAC-253","2017/06/26 21:09:37","新北市樹林區八德街445-1號","121.405","24.9693083333333","6500100","板橋區"
