"lineid","car","time","location","longitude","latitude","cityid","cityname"
"234007","695-BX","2017/06/26 18:07:49","新北市永和區福和路1號","121.526651666667","25.0101766666667","6500400","永和區"
"244022","483-VK","2017/06/26 20:49:46","新北市林口區粉寮69號","121.40504","25.090795","6501700","林口區"
"231063","268-BY","2017/06/26 21:39:41","新北市新店區如意街26號","121.493913333333","24.9483166666667","6500600","新店區"
"231064","515-UM","2017/06/26 21:39:44","新北市新店區安華路28-1號","121.519648333333","24.961245","6500600","新店區"
"241024","065-VK","2017/06/26 21:39:39","新北市三重區新北大道一段7號","121.489831666667","25.06129","6500200","三重區"
"241005","262-UM","2017/06/26 21:39:34","新北市三重區碧華街50號","121.483493333333","25.0812516666667","6500200","三重區"
"241032","269-UM","2017/06/26 21:39:30","新北市樹林區八德街495-3號","121.401663333333","24.9693116666667","6500200","三重區"
"235026","031-BX","2017/06/26 20:11:18","新北市中和區和城路一段271巷1號","121.48548","24.991625","6500300","中和區"
"235058","151-BY","2017/06/26 21:39:50","新北市中和區員山路36巷13號","121.484358333333","24.9906816666667","6500300","中和區"
"235026","800-TS","2017/06/26 21:37:13","新北市中和區員山路36巷16-3號","121.48508","24.9913616666667","6500300","中和區"
"247023","337-TH","2017/06/26 14:27:40","新北市五股區中興路三段2巷10號","121.448806666667","25.08169","6501400","蘆洲區"
"247006","335-TH","2017/06/26 21:39:35","新北市八里區中山路三段112號","121.387646666667","25.1464233333333","6501400","蘆洲區"
"247014","057-VK","2017/06/26 21:39:44","新北市八里區荖阡坑路32號","121.403433333333","25.1277933333333","6501400","蘆洲區"
"224011","420-VK","2017/06/26 21:39:48","新北市瑞芳區中正路72號","121.806106666667","25.1074933333333","6501200","瑞芳區"
"251009","008-UM","2017/06/26 21:37:34","新北市淡水區民族路31巷58號","121.462876666667","25.1367783333333","6501000","淡水區"
"251004","009-UM","2017/06/26 21:39:41","新北市淡水區民權路103號","121.460403333333","25.1378133333333","6501000","淡水區"
"251005","010-UM","2017/06/26 21:39:37","新北市淡水區英專路101巷22號","121.444956666667","25.1721833333333","6501000","淡水區"
"251008","181-VK","2017/06/26 21:39:33","新北市淡水區水源街二段80號","121.451511666667","25.174195","6501000","淡水區"
"251010","413-VK","2017/06/26 21:39:38","新北市淡水區沙崙路216巷19號","121.426121666667","25.1842216666667","6501000","淡水區"
"251012","441-VK","2017/06/26 21:39:34","新北市淡水區淡金路四段457號","121.451795","25.2231416666667","6501000","淡水區"
"251015","442-VK","2017/06/26 21:39:35","新北市淡水區淡金路二段15號","121.44621","25.1892033333333","6501000","淡水區"
"251001","559-UM","2017/06/26 21:39:37","新北市淡水區新市二路三段172巷23號","121.437036666667","25.1918633333333","6501000","淡水區"
"251006","561-UM","2017/06/26 21:39:28","新北市淡水區公明街58號","121.443521666667","25.1686283333333","6501000","淡水區"
"251011","650-BX","2017/06/26 21:39:51","新北市淡水區新民街226巷1號","121.436138333333","25.18065","6501000","淡水區"
"251002","672-BX","2017/06/26 21:39:50","新北市淡水區學府路183號","121.446553333333","25.1747216666667","6501000","淡水區"
"251003","766-UM","2017/06/26 21:39:43","新北市淡水區新民街276號","121.435495","25.18145","6501000","淡水區"
"220097","AAC-210","2017/06/26 20:56:42","新北市樹林區中山路三段210-2號","121.380558333333","24.9675733333333","6500100","板橋區"
"220070","AAC-253","2017/06/26 21:39:37","新北市板橋區民生路二段17號","121.472583333333","25.0164816666667","6500100","板橋區"
