"lineid","car","time","location","longitude","latitude","cityid","cityname"
"248005","653-BX","2017/06/27 07:29:16","新北市五股區明德路8號","121.433333333333","25.071625","6501500","五股區"
"232002","291-BY","2017/06/27 07:29:18","新北市坪林區下坑子口6-15號","121.711518333333","24.9433583333333","6502000","坪林區"
"232013","705-BZ","2017/06/27 07:22:22","新北市坪林區北宜路七段338號","121.696936666667","24.934885","6502000","坪林區"
"244002","248-BX","2017/06/27 07:29:31","新北市林口區頂福里71-22號","121.35391","25.0797733333333","6501700","林口區"
"222004","289-BY","2017/06/27 07:29:23","新北市深坑區文化街39巷13號","121.618918333333","25.00104","6501800","深坑區"
"222003","436-BY","2017/06/27 07:29:18","新北市深坑區北深路二段155-7號","121.613535","25.0019683333333","6501800","深坑區"
"235042","551-UM","2017/06/27 07:29:16","新北市中和區和平街29-1號","121.507465","24.9910083333333","6500300","中和區"
"220034","015-TV","2017/06/27 07:25:09","新北市板橋區國光路51號","121.458046666667","25.01802","6500100","板橋區"
"247002","402-BY","2017/06/27 07:29:24","新北市蘆洲區忠孝路92號","121.471385","25.0858483333333","6501400","蘆洲區"
"226005","5620-A6","2017/06/27 07:29:21","新北市平溪區嶺腳里嶺腳寮10號","121.747353333333","25.0295683333333","6502400","平溪區"
"226002","7418-A5","2017/06/27 07:21:17","新北市平溪區南山里南山坪4號","121.763215","25.031895","6502400","平溪區"
"226003","AGD-0702","2017/06/27 07:29:26","新北市平溪區嶺腳里嶺腳寮9-1號","121.747588333333","25.029695","6502400","平溪區"
"223006","022-BY","2017/06/27 07:29:26","新北市坪林區北宜路八段301號","121.71121","24.9338416666667","6501900","石碇區"
"223002","198-BX","2017/06/27 07:29:24","新北市石碇區北宜路五段崙尾寮巷8號","121.646081666667","24.955155","6501900","石碇區"
"223003","205-TH","2017/06/27 07:16:23","新北市石碇區烏塗窟36-1號","121.656486666667","24.9720883333333","6501900","石碇區"
"223008","406-TH","2017/06/27 07:29:01","新北市石碇區南勢坑4-2號","121.697598333333","24.9846516666667","6501900","石碇區"
"223001","592-UM","2017/06/27 07:29:25","新北市石碇區烏塗窟1-1號","121.655356666667","24.976005","6501900","石碇區"
"223004","660-BX","2017/06/27 07:29:24","新北市石碇區楓子林36-1號","121.64231","25.0094766666667","6501900","石碇區"
"223007","661-BX","2017/06/27 07:29:15","新北市石碇區蚯蚓坑19-6號","121.685456666667","25.0021033333333","6501900","石碇區"
"223005","677-TV","2017/06/27 07:29:25","新北市石碇區楓子林36-3號","121.642346666667","25.009585","6501900","石碇區"
"227006","282-VK","2017/06/27 07:29:19","新北市雙溪區新基里自強路7號","121.866288333333","25.0390733333333","6502500","雙溪區"
"252004","249-BX","2017/06/27 07:29:27","新北市三芝區福德里大湖9-1號","121.505331666667","25.22235","6502100","三芝區"
"252007","AAC-283","2017/06/27 00:11:29","新北市三芝區埔坪里埔頭坑41號","121.504471666667","25.2644566666667","6502100","三芝區"
"237001","159-UY","2017/06/27 01:51:33","新北市三峽區中山路459巷139號","121.350615","24.9325516666667","6500900","三峽區"
"236008","165-UM","2017/06/27 07:29:21","新北市土城區延和路101號","121.46753","24.990125","6501300","土城區"
"236002","339-SR","2017/06/27 07:29:30","新北市土城區南天母路139-1號","121.447851666667","24.9536166666667","6501300","土城區"
