"lineid","car","time","location","longitude","latitude","cityid","cityname"
"231009","192-VK","2017/08/08 10:19:58","新北市新店區小坑一路22號","121.533081666667","24.9138016666667","6500600","新店區"
"231007","719-UM","2017/08/08 10:19:53","新北市新店區新潭路三段215巷25號","121.508093333333","24.9041266666667","6500600","新店區"
"231066","AKT-0513","2017/08/08 10:19:45","新北市新店區永福路42號","121.555023333333","24.9281016666667","6500600","新店區"
"227006","282-VK","2017/08/08 10:19:56","新北市雙溪區長源里柑腳8號","121.804635","25.0143683333333","6502500","雙溪區"
"227012","030-BX","2017/08/08 10:10:24","新北市雙溪區泰平里烏山路13號","121.794791666667","24.949905","6502500","雙溪區"
"253001","4710-YM","2017/08/08 10:19:42","新北市石門區小坑9號","121.594303333333","25.2886033333333","6502200","石門區"
"252004","702-TV","2017/08/08 10:19:42","新北市三芝區長安街79號","121.499386666667","25.2570533333333","6502100","三芝區"
"252007","AAC-283","2017/08/08 10:19:45","新北市三芝區新庄里番社后2號","121.50159","25.2655016666667","6502100","三芝區"
