"lineid","car","time","location","longitude","latitude","cityid","cityname"
"231009","192-VK","2017/08/08 10:39:58","新北市新店區小坑一路21-1號","121.530833333333","24.9109316666667","6500600","新店區"
"231007","719-UM","2017/08/08 10:39:56","新北市新店區新潭路三段76-1號","121.504983333333","24.91087","6500600","新店區"
"231066","AKT-0513","2017/08/08 10:39:45","新北市新店區永福路42號","121.555126666667","24.9279083333333","6500600","新店區"
"227006","282-VK","2017/08/08 10:38:56","新北市雙溪區新基里新基北街72號","121.874781666667","25.04294","6502500","雙溪區"
"227012","030-BX","2017/08/08 10:38:22","新北市雙溪區泰平里料角坑37號","121.794703333333","24.9588566666667","6502500","雙溪區"
"253001","4710-YM","2017/08/08 10:39:42","新北市石門區小坑9號","121.594076666667","25.2887766666667","6502200","石門區"
