"lineid","car","time","location","longitude","latitude","cityid","cityname"
"231009","192-VK","2017/08/08 10:59:38","新北市新店區松林路16巷41號","121.54635","24.907305","6500600","新店區"
"231007","719-UM","2017/08/08 10:59:34","新北市新店區新潭路一段160巷17號","121.529676666667","24.9317783333333","6500600","新店區"
"231066","AKT-0513","2017/08/08 10:59:43","新北市新店區永福路42號","121.554963333333","24.9283483333333","6500600","新店區"
"227006","282-VK","2017/08/08 10:59:36","新北市雙溪區新基里新基北街60號","121.868503333333","25.0396683333333","6502500","雙溪區"
"253001","4710-YM","2017/08/08 10:58:27","新北市石門區中山路64-1號","121.567448333333","25.2904633333333","6502200","石門區"
