"lineid","car","time","location","longitude","latitude","cityid","cityname"
"231009","192-VK","2017/08/08 11:15:58","新北市新店區成功路200號","121.52992","24.8880183333333","6500600","新店區"
"231007","719-UM","2017/08/08 11:29:33","新北市新店區安康路一段74號","121.528291666667","24.9618783333333","6500600","新店區"
"231066","AKT-0513","2017/08/08 11:29:23","新北市新店區新烏路一段1號","121.547426666667","24.951855","6500600","新店區"
"227006","282-VK","2017/08/08 11:29:36","新北市雙溪區魚行里新店14號","121.869456666667","25.0322366666667","6502500","雙溪區"
"253001","4710-YM","2017/08/08 10:58:27","新北市石門區中山路64-1號","121.567448333333","25.2904633333333","6502200","石門區"
