"lineid","car","time","location","longitude","latitude","cityid","cityname"
"234010","9373-KE","2017/08/08 14:43:58","新北市永和區福和路1號","121.526343333333","25.0098083333333","6500400","永和區"
"231002","002-UM","2017/08/08 15:28:59","新北市新店區環河路152號","121.535353333333","24.9664083333333","6500600","新店區"
"231025","0291-UT","2017/08/08 15:29:09","新北市新店區安民街251巷1號","121.516116666667","24.9729283333333","6500600","新店區"
"231028","046-UY","2017/08/08 15:28:54","新北市新店區僑信路48號","121.499295","24.9504083333333","6500600","新店區"
"231030","047-UY","2017/08/08 15:29:04","新北市新店區新和街46號","121.51932","24.9849733333333","6500600","新店區"
"231029","106-UY","2017/08/08 15:28:58","新北市新店區安康路三段800號","121.470868333333","24.9399233333333","6500600","新店區"
"231018","107-UY","2017/08/08 15:28:48","新北市新店區中央八街92號","121.526723333333","24.9775133333333","6500600","新店區"
"231012","108-UY","2017/08/08 15:29:03","新北市新店區寶慶街5號","121.544213333333","24.9866783333333","6500600","新店區"
"231020","187-VK","2017/08/08 15:28:51","新北市新店區湖興路128-15號","121.566313333333","24.9313316666667","6500600","新店區"
"231026","256-BX","2017/08/08 15:28:51","新北市新店區三民路117巷8弄2號","121.534013333333","24.9710316666667","6500600","新店區"
"231034","268-BY","2017/08/08 15:29:03","新北市新店區富貴街9巷6號","121.494198333333","24.949155","6500600","新店區"
"231015","AAD-862","2017/08/08 15:28:47","新北市新店區明山路45號","121.563815","24.9559","6500600","新店區"
"231024","3713-VJ","2017/08/08 15:28:58","新北市新店區安光路10-1號","121.513758333333","24.9643916666667","6500600","新店區"
"231036","512-UM","2017/08/08 15:29:07","新北市新店區安祥路69巷50號","121.482038333333","24.959935","6500600","新店區"
"231023","513-UM","2017/08/08 15:29:04","新北市新店區北新路一段96巷23號","121.54275","24.9687233333333","6500600","新店區"
"231035","515-UM","2017/08/08 15:28:55","新北市新店區安民街365巷7弄2號","121.515966666667","24.9754883333333","6500600","新店區"
"231003","641-BX","2017/08/08 15:28:59","新北市新店區寶高路116號","121.554511666667","24.9761266666667","6500600","新店區"
"231039","718-UY","2017/08/08 15:29:04","新北市新店區寶元路一段95-1號","121.543673333333","24.98489","6500600","新店區"
"231032","720-UM","2017/08/08 15:29:06","新北市新店區裕合街14號","121.489506666667","24.9499733333333","6500600","新店區"
"231005","897-TW","2017/08/08 15:28:44","新北市新店區建國路276號","121.537281666667","24.9836766666667","6500600","新店區"
"231004","899-TW","2017/08/08 15:29:02","新北市新店區民族路108號","121.538038333333","24.97707","6500600","新店區"
"231037","AKT-0513","2017/08/08 15:29:00","新北市新店區安興路112號","121.514595","24.977615","6500600","新店區"
"235014","4979-A6","2017/08/08 15:28:48","新北市中和區景新街160巷6號","121.505423333333","24.99718","6500300","中和區"
"235033","4980-A6","2017/08/08 15:29:05","新北市中和區員山路359巷1弄1號","121.481051666667","25.001595","6500300","中和區"
"235034","558-UM","2017/08/08 15:28:50","新北市中和區中正路428號","121.49145","24.994365","6500300","中和區"
"235012","896-TW","2017/08/08 15:29:03","新北市中和區華新街97號","121.508655","24.9829116666667","6500300","中和區"
"235035","911-UM","2017/08/08 15:29:07","新北市中和區中正路774號","121.485198333333","25.0001466666667","6500300","中和區"
"235001","AAC-213","2017/08/08 15:29:04","新北市新店區薏仁坑路自強巷6號","121.497246666667","24.9588516666667","6500300","中和區"
"235023","AAC-215","2017/08/08 15:28:55","新北市中和區圓通路332號","121.484323333333","24.9861216666667","6500300","中和區"
"253001","4710-YM","2017/08/08 10:58:27","新北市石門區中山路64-1號","121.567448333333","25.2904633333333","6502200","石門區"
"208004","AAC-292","2017/08/08 15:29:08","新北市金山區南勢27號","121.627555","25.2187116666667","6502700","金山區"
"252005","249-BX","2017/08/08 15:22:09","新北市三芝區埔坪里埔頭坑41號","121.504601666667","25.2644566666667","6502100","三芝區"
"236065","105-UM","2017/08/08 15:29:05","新北市土城區中正路78號","121.444661666667","24.9755783333333","6501300","土城區"
"236041","107-UM","2017/08/08 15:29:05","新北市土城區學府路一段148號","121.454761666667","24.9869916666667","6501300","土城區"
"236075","166-UM","2017/08/08 15:29:03","新北市土城區龍泉路10號","121.409516666667","24.9494583333333","6501300","土城區"
"236029","253-BX","2017/08/08 15:29:04","新北市土城區日新街8巷3號","121.445296666667","24.987265","6501300","土城區"
"236025","269-VK","2017/08/08 15:28:51","新北市土城區中央路二段16-2號","121.442881666667","24.9804666666667","6501300","土城區"
"236013","270-VK","2017/08/08 15:29:09","新北市土城區德興街115號","121.45449","24.992135","6501300","土城區"
"236034","271-VK","2017/08/08 15:28:53","新北市土城區明德路一段20巷2弄2號","121.464746666667","24.9849083333333","6501300","土城區"
"236017","401-BY","2017/08/08 15:28:59","新北市土城區金城路三段200-5號","121.468935","24.9874666666667","6501300","土城區"
"236061","752-BX","2017/08/08 15:28:58","新北市土城區延和路62巷8弄2號","121.466098333333","24.9884983333333","6501300","土城區"
"236057","912-UM","2017/08/08 15:28:59","新北市土城區中央路三段7號","121.439438333333","24.97063","6501300","土城區"
"236045","913-UM","2017/08/08 15:29:10","新北市土城區金城路二段386號","121.463466666667","24.9856516666667","6501300","土城區"
"236054","AAC-216","2017/08/08 15:29:06","新北市土城區立德路105號","121.463628333333","24.98756","6501300","土城區"
"221021","299-VK","2017/08/08 14:24:49","新北市汐止區八連路二段231號","121.632708333333","25.0956566666667","6501100","汐止區"
"221002","753-BX","2017/08/08 15:29:06","新北市汐止區汐萬路一段256巷1號","121.652015","25.0749","6501100","汐止區"
"220027","145-BY","2017/08/08 15:28:54","新北市板橋區溪城路90-2號","121.42873","24.9796333333333","6500100","板橋區"
"220052","257-TC","2017/08/08 15:29:02","新北市板橋區漢生東路63巷1號","121.46586","25.0163783333333","6500100","板橋區"
"220050","285-UM","2017/08/08 15:28:48","新北市板橋區漢生東路83巷1號","121.466503333333","25.015735","6500100","板橋區"
"220013","295-UM","2017/08/08 13:48:42","新北市板橋區民生路二段22號","121.472998333333","25.01675","6500100","板橋區"
"220034","461-BY","2017/08/08 15:23:19","新北市板橋區華東街1-10號","121.448698333333","24.995025","6500100","板橋區"
"220038","487-VK","2017/08/08 15:28:53","新北市板橋區四維路286號","121.462968333333","25.0290166666667","6500100","板橋區"
