"lineid","car","time","location","longitude","latitude","cityid","cityname"
"234010","9373-KE","2017/08/08 14:43:58","新北市永和區福和路1號","121.526343333333","25.0098083333333","6500400","永和區"
"249002","305-UY","2017/08/08 15:58:59","新北市八里區挖子尾街6號","121.415568333333","25.164435","6502300","八里區"
"231030","047-UY","2017/08/08 15:59:04","新北市新店區安和路三段50號","121.518188333333","24.9825166666667","6500600","新店區"
"231029","106-UY","2017/08/08 15:58:58","新北市新店區薏仁坑路自強巷6號","121.496726666667","24.9584116666667","6500600","新店區"
"231018","107-UY","2017/08/08 15:58:48","新北市新店區中正路663巷7弄15號","121.533026666667","24.99013","6500600","新店區"
"231012","108-UY","2017/08/08 15:59:03","新北市新店區中央二街68號","121.526203333333","24.9746616666667","6500600","新店區"
"231034","268-BY","2017/08/08 15:59:03","新北市新店區吉祥街5巷2號","121.497326666667","24.9476133333333","6500600","新店區"
"231046","278-BY","2017/08/08 14:06:01","新北市新店區安華路28-1號","121.519628333333","24.9611516666667","6500600","新店區"
"231015","AAD-862","2017/08/08 15:58:47","新北市新店區中正路284巷2號","121.538458333333","24.9746816666667","6500600","新店區"
"231038","4715-K9","2017/08/08 15:58:54","新北市新店區安康路二段228巷35弄5號","121.509391666667","24.9601466666667","6500600","新店區"
"231035","515-UM","2017/08/08 15:58:55","新北市新店區安民街300號","121.517753333333","24.9737366666667","6500600","新店區"
"231003","641-BX","2017/08/08 15:58:59","新北市新店區中興路二段186號","121.548143333333","24.9727033333333","6500600","新店區"
"231013","719-UM","2017/08/08 15:58:49","新北市新店區華城路18-1號","121.528988333333","24.9568666666667","6500600","新店區"
"231037","AKT-0513","2017/08/08 15:59:04","新北市新店區吉安街37-1號","121.515705","24.9660916666667","6500600","新店區"
"241011","013-R5","2017/08/08 15:58:48","新北市三重區雙園街1巷1號","121.497053333333","25.0681016666667","6500200","三重區"
"241028","022-UY","2017/08/08 15:59:05","新北市三重區大同南路117巷3-1號","121.495726666667","25.0582866666667","6500200","三重區"
"241008","059-VK","2017/08/08 15:59:01","新北市三重區朝陽街4巷23號","121.482401666667","25.056115","6500200","三重區"
"241015","062-VK","2017/08/08 15:58:54","新北市三重區重新路四段121號","121.485258333333","25.0519383333333","6500200","三重區"
"241017","063-VK","2017/08/08 15:58:53","新北市三重區大仁街48巷63號","121.490436666667","25.0643133333333","6500200","三重區"
"241024","065-VK","2017/08/08 15:58:51","新北市三重區力行路一段38巷27號","121.485481666667","25.0670216666667","6500200","三重區"
"241026","066-VK","2017/08/08 15:58:49","新北市三重區光興街22號","121.4976","25.0599","6500200","三重區"
"241005","262-UM","2017/08/08 15:58:59","新北市三重區五華街259號","121.488893333333","25.086935","6500200","三重區"
"241006","265-UM","2017/08/08 15:59:01","新北市三重區捷運路36號","121.483265","25.0543783333333","6500200","三重區"
"241016","266-UM","2017/08/08 15:58:59","新北市三重區重新路四段121號","121.485063333333","25.0519066666667","6500200","三重區"
"241022","267-UM","2017/08/08 15:58:57","新北市三重區忠孝路三段40巷56號","121.483171666667","25.0655766666667","6500200","三重區"
"241018","268-UM","2017/08/08 15:58:57","新北市三重區中正北路33號","121.491493333333","25.062815","6500200","三重區"
"241013","270-UM","2017/08/08 15:58:48","新北市三重區正義北路275-1號","121.495201666667","25.070085","6500200","三重區"
"241025","271-UM","2017/08/08 15:59:01","新北市三重區忠孝路三段52號","121.48068","25.0656916666667","6500200","三重區"
"241007","398-BY","2017/08/08 15:58:54","新北市三重區忠孝路三段2號","121.481953333333","25.0676666666667","6500200","三重區"
"241020","412-TH","2017/08/08 15:58:56","新北市三重區力行路一段239號","121.48273","25.0706483333333","6500200","三重區"
"241014","543-UM","2017/08/08 15:58:58","新北市三重區重新路四段121號","121.48519","25.05184","6500200","三重區"
"241023","545-UM","2017/08/08 15:58:57","新北市三重區中正北路174-2號","121.48369","25.0666933333333","6500200","三重區"
"241001","547-UM","2017/08/08 15:58:47","新北市三重區重新路四段121號","121.484406666667","25.0522283333333","6500200","三重區"
"241029","887-TS","2017/08/08 15:58:57","新北市三重區大同南路159號","121.496763333333","25.0559483333333","6500200","三重區"
"241012","941-UM","2017/08/08 15:58:56","新北市三重區正義北路140號","121.496808333333","25.0658533333333","6500200","三重區"
"241033","AAC-255","2017/08/08 15:58:55","新北市三重區光復路一段1號","121.472166666667","25.046855","6500200","三重區"
"235026","800-TS","2017/08/08 15:59:00","新北市中和區永和路179號","121.491866666667","25.0073516666667","6500300","中和區"
"224007","273-VK","2017/08/08 15:58:54","新北市瑞芳區楓子瀨路64號","121.767851666667","25.099855","6501200","瑞芳區"
"224005","271-BY","2017/08/08 15:58:54","新北市瑞芳區傑魚坑路183號","121.78854","25.1081483333333","6501200","瑞芳區"
"227003","642-TC","2017/08/08 15:58:50","新北市雙溪區平林里外平林62號","121.844108333333","25.0349633333333","6502500","雙溪區"
"227009","400-TW","2017/08/08 15:58:44","新北市雙溪區三港里雙澳路26號","121.869536666667","25.0482966666667","6502500","雙溪區"
"253001","4710-YM","2017/08/08 10:58:27","新北市石門區中山路64-1號","121.567448333333","25.2904633333333","6502200","石門區"
"236065","105-UM","2017/08/08 15:59:05","新北市土城區福安街100號","121.417583333333","24.96404","6501300","土城區"
"236017","401-BY","2017/08/08 15:58:59","新北市土城區延吉街23巷2弄1號","121.472816666667","24.988365","6501300","土城區"
"236057","912-UM","2017/08/08 15:58:59","新北市土城區中央路一段294號","121.443486666667","24.9822733333333","6501300","土城區"
"221021","299-VK","2017/08/08 14:24:49","新北市汐止區八連路二段231號","121.632708333333","25.0956566666667","6501100","汐止區"
"221002","753-BX","2017/08/08 15:58:46","新北市汐止區汐萬路一段256巷1號","121.652006666667","25.0747733333333","6501100","汐止區"
"220013","295-UM","2017/08/08 13:48:42","新北市板橋區民生路二段22號","121.472998333333","25.01675","6500100","板橋區"
"220034","461-BY","2017/08/08 15:23:19","新北市板橋區華東街1-10號","121.448698333333","24.995025","6500100","板橋區"
