"lineid","car","time","location","longitude","latitude","cityid","cityname"
"234010","9373-KE","2017/08/08 16:18:57","新北市永和區福和路1號","121.526438333333","25.00976","6500400","永和區"
"249002","305-UY","2017/08/08 16:18:59","新北市八里區挖子尾街10號","121.415593333333","25.1644916666667","6502300","八里區"
"231018","107-UY","2017/08/08 16:18:48","新北市新店區中正路700巷26號","121.535471666667","24.9911833333333","6500600","新店區"
"231034","268-BY","2017/08/08 16:18:43","新北市新店區薏仁坑路自強巷2號","121.497495","24.9588616666667","6500600","新店區"
"231046","278-BY","2017/08/08 16:18:51","新北市新店區灣潭路3-3號","121.538241666667","24.95081","6500600","新店區"
"231035","515-UM","2017/08/08 16:18:55","新北市新店區安康路二段318-1號","121.504808333333","24.9581833333333","6500600","新店區"
"241011","013-R5","2017/08/08 16:18:48","新北市三重區龍濱路285號","121.501156666667","25.0733583333333","6500200","三重區"
"241028","022-UY","2017/08/08 16:18:45","新北市三重區大同南路158巷5號","121.496955","25.057505","6500200","三重區"
"241008","059-VK","2017/08/08 16:18:41","新北市三重區力行路二段136巷45弄12號","121.479195","25.075385","6500200","三重區"
"241009","060-VK","2017/08/08 16:18:44","新北市三重區碧華街57號","121.484765","25.0812766666667","6500200","三重區"
"241031","061-VK","2017/08/08 16:19:00","新北市三重區捷運路36號","121.482785","25.05511","6500200","三重區"
"241015","062-VK","2017/08/08 16:18:54","新北市三重區福德北路75號","121.502038333333","25.0658033333333","6500200","三重區"
"241017","063-VK","2017/08/08 16:18:53","新北市三重區大同北路91號","121.494746666667","25.0636533333333","6500200","三重區"
"241024","065-VK","2017/08/08 16:18:51","新北市三重區中正北路117號","121.483543333333","25.0669316666667","6500200","三重區"
"241026","066-VK","2017/08/08 16:18:49","新北市三重區正義南路40號","121.498336666667","25.06093","6500200","三重區"
"241002","090-VK","2017/08/08 16:18:55","新北市三重區仁義街47號","121.499388333333","25.0787316666667","6500200","三重區"
"241003","091-VK","2017/08/08 16:18:55","新北市三重區仁義街220巷23號","121.494505","25.0836766666667","6500200","三重區"
"241005","262-UM","2017/08/08 16:18:59","新北市三重區溪尾街300-2號","121.48752","25.0836866666667","6500200","三重區"
"241006","265-UM","2017/08/08 16:18:41","新北市三重區永福街46巷41弄43號","121.481341666667","25.0771316666667","6500200","三重區"
"241016","266-UM","2017/08/08 16:18:59","新北市三重區大仁街86號","121.492886666667","25.0654766666667","6500200","三重區"
"241022","267-UM","2017/08/08 16:18:57","新北市三重區過圳街3號","121.489408333333","25.0585333333333","6500200","三重區"
"241018","268-UM","2017/08/08 16:18:57","新北市三重區重陽路三段7號","121.48909","25.06624","6500200","三重區"
"241013","270-UM","2017/08/08 16:18:48","新北市三重區三和路三段79號","121.494603333333","25.0720716666667","6500200","三重區"
"241025","271-UM","2017/08/08 16:18:41","新北市三重區中正北路560巷89號","121.471408333333","25.067915","6500200","三重區"
"241007","398-BY","2017/08/08 16:18:54","新北市三重區仁美街83號","121.486141666667","25.07947","6500200","三重區"
"241020","412-TH","2017/08/08 16:18:56","新北市三重區三張街272號","121.483833333333","25.071185","6500200","三重區"
"241004","475-VK","2017/08/08 16:18:47","新北市三重區五華街74號","121.49354","25.0819783333333","6500200","三重區"
"241019","478-VK","2017/08/08 16:19:00","新北市三重區重陽路三段97號","121.490321666667","25.06803","6500200","三重區"
"241030","480-VK","2017/08/08 16:19:03","新北市三重區重新路四段121號","121.484568333333","25.0522566666667","6500200","三重區"
"241014","543-UM","2017/08/08 16:18:58","新北市三重區河邊北街100巷21號","121.502993333333","25.0703366666667","6500200","三重區"
"241023","545-UM","2017/08/08 16:18:57","新北市三重區忠孝路二段138號","121.482561666667","25.0682616666667","6500200","三重區"
"241001","547-UM","2017/08/08 16:18:27","新北市三重區自強路四段77號","121.490673333333","25.0788533333333","6500200","三重區"
"241029","887-TS","2017/08/08 16:18:57","新北市三重區中正南路212號","121.493885","25.0554983333333","6500200","三重區"
"241012","941-UM","2017/08/08 16:18:53","新北市三重區龍門路298號","121.50237","25.074275","6500200","三重區"
"241033","AAC-255","2017/08/08 16:18:55","新北市三重區重新路五段438號","121.474951666667","25.04723","6500200","三重區"
"235026","800-TS","2017/08/08 16:19:00","新北市中和區建八路149號","121.490511666667","24.998645","6500300","中和區"
"224006","676-BX","2017/08/08 16:19:04","新北市瑞芳區中山路215號","121.801036666667","25.1067016666667","6501200","瑞芳區"
"224008","275-VK","2017/08/08 16:18:56","新北市瑞芳區中山路266號","121.799256666667","25.10795","6501200","瑞芳區"
"224007","273-VK","2017/08/08 16:18:54","新北市瑞芳區大埔路176號","121.762113333333","25.1022516666667","6501200","瑞芳區"
"224005","271-BY","2017/08/08 16:18:21","新北市瑞芳區逢甲路102-1號","121.809845","25.1093616666667","6501200","瑞芳區"
"227003","642-TC","2017/08/08 16:18:50","新北市雙溪區上林里內平林72號","121.829383333333","25.0291916666667","6502500","雙溪區"
"227009","400-TW","2017/08/08 16:18:44","新北市雙溪區三港里雙澳路80號","121.883816666667","25.0538583333333","6502500","雙溪區"
"253001","4710-YM","2017/08/08 10:58:27","新北市石門區中山路64-1號","121.567448333333","25.2904633333333","6502200","石門區"
"251016","442-VK","2017/08/08 16:18:46","新北市淡水區沙崙路1號","121.420346666667","25.1808383333333","6501000","淡水區"
"251001","559-UM","2017/08/08 16:19:02","新北市淡水區中正路二段31號","121.419445","25.1815066666667","6501000","淡水區"
"236057","912-UM","2017/08/08 16:18:59","新北市土城區中央路三段134號","121.433728333333","24.9656666666667","6501300","土城區"
"221021","299-VK","2017/08/08 14:24:49","新北市汐止區八連路二段231號","121.632708333333","25.0956566666667","6501100","汐止區"
"220013","295-UM","2017/08/08 13:48:42","新北市板橋區民生路二段22號","121.472998333333","25.01675","6500100","板橋區"
"220034","461-BY","2017/08/08 15:23:19","新北市板橋區華東街1-10號","121.448698333333","24.995025","6500100","板橋區"
