"lineid","car","time","location","longitude","latitude","cityid","cityname"
"234010","9373-KE","2017/08/08 16:27:18","新北市永和區福和路1號","121.526461666667","25.0097416666667","6500400","永和區"
"249005","172-UM","2017/08/08 16:48:52","新北市八里區大堀湖1-5號","121.422953333333","25.1549816666667","6502300","八里區"
"249001","173-UM","2017/08/08 16:48:41","新北市八里區挖子尾街6號","121.415505","25.1642616666667","6502300","八里區"
"249004","303-UY","2017/08/08 16:48:49","新北市八里區博物館路23號","121.414518333333","25.1631616666667","6502300","八里區"
"249002","305-UY","2017/08/08 16:47:39","新北市八里區牛寮埔33號","121.429743333333","25.1454816666667","6502300","八里區"
"249003","593-UM","2017/08/08 16:48:47","新北市八里區博物館路179號","121.406203333333","25.157165","6502300","八里區"
"231018","107-UY","2017/08/08 16:48:48","新北市新店區安忠路205巷8號","121.509251666667","24.9546633333333","6500600","新店區"
"231046","278-BY","2017/08/08 16:48:51","新北市新店區灣潭路15-8號","121.540956666667","24.9390483333333","6500600","新店區"
"241011","013-R5","2017/08/08 16:48:48","新北市三重區仁愛街53巷96號","121.498506666667","25.0724333333333","6500200","三重區"
"241028","022-UY","2017/08/08 16:48:45","新北市三重區光興街2號","121.498051666667","25.0599616666667","6500200","三重區"
"241008","059-VK","2017/08/08 16:48:41","新北市三重區永福街177巷17號","121.477968333333","25.0752433333333","6500200","三重區"
"241009","060-VK","2017/08/08 16:48:44","新北市三重區三和路四段203巷260號","121.487401666667","25.0811066666667","6500200","三重區"
"241031","061-VK","2017/08/08 16:48:40","新北市三重區新北大道一段15巷2弄2號","121.487853333333","25.06047","6500200","三重區"
"241015","062-VK","2017/08/08 16:48:54","新北市三重區長元西街1號","121.498745","25.06575","6500200","三重區"
"241017","063-VK","2017/08/08 16:48:53","新北市三重區國隆路8巷9號","121.493125","25.06364","6500200","三重區"
"241024","065-VK","2017/08/08 16:48:51","新北市三重區中正北路317巷30號","121.475828333333","25.073145","6500200","三重區"
"241026","066-VK","2017/08/08 16:48:49","新北市三重區和平街33號","121.500975","25.0623383333333","6500200","三重區"
"241002","090-VK","2017/08/08 16:48:55","新北市三重區仁義街207號","121.496821666667","25.081695","6500200","三重區"
"241003","091-VK","2017/08/08 16:48:55","新北市三重區五華街87巷36號","121.493088333333","25.0840516666667","6500200","三重區"
"241005","262-UM","2017/08/08 16:48:39","新北市三重區仁安街51號","121.484318333333","25.0839616666667","6500200","三重區"
"241006","265-UM","2017/08/08 16:48:41","新北市三重區力行路二段168號","121.483068333333","25.07683","6500200","三重區"
"241016","266-UM","2017/08/08 16:48:39","新北市三重區大同北路107號","121.49428","25.064225","6500200","三重區"
"241022","267-UM","2017/08/08 16:48:37","新北市三重區貴陽街47巷23號","121.484876666667","25.0624","6500200","三重區"
"241018","268-UM","2017/08/08 16:48:57","新北市三重區安樂街83號","121.49469","25.0693633333333","6500200","三重區"
"241032","269-UM","2017/08/08 16:48:40","新北市三重區重陽路一段120巷24號","121.485703333333","25.060105","6500200","三重區"
"241013","270-UM","2017/08/08 16:48:52","新北市三重區三和路三段101巷68號","121.496408333333","25.0731","6500200","三重區"
"241025","271-UM","2017/08/08 16:48:41","新北市三重區中正北路534號","121.471688333333","25.0718616666667","6500200","三重區"
"241007","398-BY","2017/08/08 16:48:54","新北市三重區三和路四段181巷56號","121.48381","25.0794483333333","6500200","三重區"
"241020","412-TH","2017/08/08 16:48:56","新北市三重區忠孝路二段6號","121.486045","25.07097","6500200","三重區"
"241004","475-VK","2017/08/08 16:48:47","新北市三重區仁愛街416號","121.490558333333","25.08135","6500200","三重區"
"241019","478-VK","2017/08/08 16:49:00","新北市三重區力行路一段179巷17弄2號","121.485315","25.07004","6500200","三重區"
"241030","480-VK","2017/08/08 16:48:43","新北市三重區中正南路271號","121.492688333333","25.05263","6500200","三重區"
"241014","543-UM","2017/08/08 16:48:58","新北市三重區長榮路75號","121.50254","25.0690766666667","6500200","三重區"
"241023","545-UM","2017/08/08 16:48:57","新北市三重區中華路76巷27號","121.48238","25.062665","6500200","三重區"
"241001","547-UM","2017/08/08 16:48:47","新北市三重區仁政街76巷7號","121.492191666667","25.0772833333333","6500200","三重區"
"241029","887-TS","2017/08/08 16:48:57","新北市三重區中正南路201巷12號","121.492398333333","25.0540483333333","6500200","三重區"
"241012","941-UM","2017/08/08 16:48:53","新北市三重區龍門路274巷17號","121.501591666667","25.0746833333333","6500200","三重區"
"241033","AAC-255","2017/08/08 16:48:55","新北市三重區新北大道二段139巷21號","121.466605","25.0604816666667","6500200","三重區"
"235067","255-BX","2017/08/08 16:20:04","新北市中和區員山路36巷13號","121.484423333333","24.991315","6500300","中和區"
"235062","800-TS","2017/08/08 16:48:40","新北市中和區員山路36巷16-3號","121.48504","24.9914366666667","6500300","中和區"
"247006","341-TH","2017/08/08 16:48:46","新北市五股區中興路二段78-5號","121.461755","25.07853","6501400","蘆洲區"
"247008","339-TH","2017/08/08 16:48:48","新北市蘆洲區中山二路45巷30號","121.474266666667","25.0812316666667","6501400","蘆洲區"
"247002","336-TH","2017/08/08 16:48:53","新北市五股區成泰路三段587號","121.452461666667","25.1028333333333","6501400","蘆洲區"
"247014","057-VK","2017/08/08 16:48:53","新北市蘆洲區三民路89號","121.474258333333","25.0846583333333","6501400","蘆洲區"
"247004","056-VK","2017/08/08 16:48:42","新北市蘆洲區長榮路106號","121.461858333333","25.0840016666667","6501400","蘆洲區"
"247016","001-UY","2017/08/08 16:48:55","新北市蘆洲區中正路60號","121.47049","25.0829183333333","6501400","蘆洲區"
"228001","212-TW","2017/08/08 16:48:46","新北市貢寮區貢寮里朝陽街1-2號","121.912198333333","25.021295","6502600","貢寮區"
"228002","663-BX","2017/08/08 16:48:55","新北市貢寮區貢寮里朝陽街142號","121.905911666667","25.023085","6502600","貢寮區"
"228003","828-UM","2017/08/08 16:48:55","新北市貢寮區貢寮里朝陽街1-2號","121.912358333333","25.0212366666667","6502600","貢寮區"
"224010","AGQ-8101","2017/08/08 09:27:18","新北市瑞芳區明燈路二段89號","121.809705","25.1081983333333","6501200","瑞芳區"
"224006","676-BX","2017/08/08 16:48:41","新北市瑞芳區大寮路356-1號","121.784845","25.1032766666667","6501200","瑞芳區"
"224009","285-BY","2017/08/08 16:48:51","新北市瑞芳區中山路251號","121.798361666667","25.1092333333333","6501200","瑞芳區"
"224008","275-VK","2017/08/08 16:48:56","新北市瑞芳區逢甲路15號","121.809686666667","25.1084033333333","6501200","瑞芳區"
"224007","273-VK","2017/08/08 16:48:54","新北市瑞芳區中央路48巷162號","121.75923","25.103465","6501200","瑞芳區"
"224005","271-BY","2017/08/08 16:48:41","新北市瑞芳區明里路122號","121.863903333333","25.1223883333333","6501200","瑞芳區"
"227003","642-TC","2017/08/08 16:48:50","新北市雙溪區外柑里外柑腳71號","121.807145","25.0175966666667","6502500","雙溪區"
"227009","400-TW","2017/08/08 16:48:44","新北市雙溪區牡丹里五分10號","121.86656","25.0471116666667","6502500","雙溪區"
"253001","4710-YM","2017/08/08 10:58:27","新北市石門區中山路64-1號","121.567448333333","25.2904633333333","6502200","石門區"
"251014","180-VK","2017/08/08 16:48:56","新北市淡水區淡金路三段446號","121.450908333333","25.2143633333333","6501000","淡水區"
"251008","181-VK","2017/08/08 16:48:59","新北市淡水區樹梅坑9號","121.472723333333","25.1427166666667","6501000","淡水區"
"251010","413-VK","2017/08/08 16:48:53","新北市淡水區中正路二段31號","121.419458333333","25.1816466666667","6501000","淡水區"
"251012","441-VK","2017/08/08 16:48:38","新北市淡水區中正路二段31號","121.419678333333","25.1815066666667","6501000","淡水區"
"251016","442-VK","2017/08/08 16:48:46","新北市淡水區水頭42號","121.478468333333","25.185055","6501000","淡水區"
"251001","559-UM","2017/08/08 16:48:46","新北市淡水區中正路382號","121.430188333333","25.1753183333333","6501000","淡水區"
"251011","650-BX","2017/08/08 16:48:44","新北市淡水區中正路二段31號","121.419406666667","25.1816466666667","6501000","淡水區"
"252002","178-VK","2017/08/08 16:48:41","新北市三芝區茂長里陳厝坑61-4號","121.513475","25.2550333333333","6502100","三芝區"
"252001","292-VK","2017/08/08 16:48:39","新北市三芝區埔坪里埔頭坑44號","121.50478","25.261755","6502100","三芝區"
"242048","751-BX","2017/08/08 16:48:42","新北市新莊區三和路18-25號","121.441691666667","25.03912","6500500","新莊區"
"242032","415-TV","2017/08/08 16:48:56","新北市新莊區新泰路357巷3弄57號","121.442191666667","25.03947","6500500","新莊區"
"242039","400-BY","2017/08/08 16:48:56","新北市新莊區新泰路357巷3弄57號","121.442258333333","25.0395616666667","6500500","新莊區"
"242061","362-BY","2017/08/08 16:48:40","新北市新莊區新泰路255巷83號","121.442078333333","25.0388733333333","6500500","新莊區"
"242011","346-TH","2017/08/08 16:48:43","新北市新莊區三和路12-13號","121.44181","25.037165","6500500","新莊區"
"242034","347-TH","2017/08/08 14:56:48","新北市新莊區三和路12-16號","121.442058333333","25.037475","6500500","新莊區"
"242017","348-TH","2017/08/08 16:48:45","新北市新莊區新泰路357巷3弄57號","121.442038333333","25.0395516666667","6500500","新莊區"
"242009","351-TH","2017/08/08 14:10:32","新北市新莊區新泰路357巷3弄57號","121.442201666667","25.03944","6500500","新莊區"
"238018","571-TV","2017/08/08 16:48:43","新北市樹林區育德街78-1號","121.387268333333","24.9681283333333","6500700","樹林區"
"239007","AAC-297","2017/08/08 16:48:45","新北市鶯歌區二甲路13-16號","121.345135","24.9351533333333","6500800","鶯歌區"
"239008","527-UM","2017/08/08 16:48:58","新北市鶯歌區環河路177-23號","121.345021666667","24.9355733333333","6500800","鶯歌區"
"239005","526-UM","2017/08/08 10:21:27","新北市鶯歌區二甲路13-16號","121.34512","24.9352316666667","6500800","鶯歌區"
"239003","360-BY","2017/08/08 16:48:43","新北市鶯歌區二甲路12-2號","121.345495","24.9351316666667","6500800","鶯歌區"
"239002","359-BY","2017/08/07 20:15:19","新北市鶯歌區環河路177-3號","121.346031666667","24.9351766666667","6500800","鶯歌區"
"221021","299-VK","2017/08/08 14:24:49","新北市汐止區八連路二段231號","121.632708333333","25.0956566666667","6501100","汐止區"
"220013","295-UM","2017/08/08 13:48:42","新北市板橋區民生路二段22號","121.472998333333","25.01675","6500100","板橋區"
"220034","461-BY","2017/08/08 15:23:19","新北市板橋區華東街1-10號","121.448698333333","24.995025","6500100","板橋區"
