"lineid","car","time","location","longitude","latitude","cityid","cityname"
"234010","9373-KE","2017/08/08 16:27:18","新北市永和區福和路1號","121.526461666667","25.0097416666667","6500400","永和區"
"249005","172-UM","2017/08/08 17:08:52","新北市八里區華富山6-1號","121.41927","25.1426033333333","6502300","八里區"
"249001","173-UM","2017/08/08 17:08:42","新北市八里區中華路二段310號","121.403945","25.1484116666667","6502300","八里區"
"249004","303-UY","2017/08/08 17:08:49","新北市八里區忠孝路209號","121.421841666667","25.1609283333333","6502300","八里區"
"249002","305-UY","2017/08/08 17:08:39","新北市八里區龍米路二段147巷7號","121.442285","25.1503166666667","6502300","八里區"
"249003","593-UM","2017/08/08 17:08:47","新北市八里區中山路二段496號","121.398301666667","25.1471666666667","6502300","八里區"
"244009","410-SL","2017/08/08 17:08:40","新北市林口區粉寮路23號","121.400361666667","25.08291","6501700","林口區"
"244023","483-VK","2017/08/08 17:08:41","新北市林口區粉寮路37-1號","121.401051666667","25.0848566666667","6501700","林口區"
"244021","838-TS","2017/08/08 17:08:42","新北市林口區粉寮路二段221號","121.404216666667","25.0905033333333","6501700","林口區"
"231046","278-BY","2017/08/08 17:08:51","新北市新店區直潭路92號","121.53092","24.9376783333333","6500600","新店區"
"241011","013-R5","2017/08/08 17:08:48","新北市三重區環河北路一段352號","121.503296666667","25.0726433333333","6500200","三重區"
"241028","022-UY","2017/08/08 17:08:45","新北市三重區重新路三段110號","121.492238333333","25.060345","6500200","三重區"
"241008","059-VK","2017/08/08 17:08:41","新北市三重區力行路二段136巷17弄2號","121.481633333333","25.0756583333333","6500200","三重區"
"241009","060-VK","2017/08/08 17:08:44","新北市三重區三和路四段215巷4號","121.481885","25.07992","6500200","三重區"
"241031","061-VK","2017/08/08 17:08:40","新北市三重區重陽路一段113巷1弄25號","121.487718333333","25.0591516666667","6500200","三重區"
"241015","062-VK","2017/08/08 17:08:54","新北市三重區長生街38號","121.4997","25.0665066666667","6500200","三重區"
"241017","063-VK","2017/08/08 17:08:53","新北市三重區大仁街52號","121.491953333333","25.064795","6500200","三重區"
"241024","065-VK","2017/08/08 17:08:51","新北市三重區中正北路165巷2號","121.478571666667","25.0696433333333","6500200","三重區"
"241026","066-VK","2017/08/08 17:08:49","新北市三重區正義南路3號","121.497946666667","25.0618933333333","6500200","三重區"
"241002","090-VK","2017/08/08 17:08:55","新北市三重區仁義街225巷25號","121.497396666667","25.08263","6500200","三重區"
"241003","091-VK","2017/08/08 17:08:35","新北市三重區五華街141巷58號","121.493568333333","25.0867566666667","6500200","三重區"
"241005","262-UM","2017/08/08 17:08:39","新北市三重區仁愛街697號","121.482931666667","25.0809733333333","6500200","三重區"
"241006","265-UM","2017/08/08 17:08:55","新北市三重區車路頭街143巷13號","121.484458333333","25.0767033333333","6500200","三重區"
"241016","266-UM","2017/08/08 17:08:39","新北市三重區大同北路132巷2號","121.492751666667","25.0648316666667","6500200","三重區"
"241022","267-UM","2017/08/08 17:08:27","新北市三重區三民街118號","121.484781666667","25.0637","6500200","三重區"
"241018","268-UM","2017/08/08 17:08:37","新北市三重區六張街115號","121.492005","25.0698216666667","6500200","三重區"
"241032","269-UM","2017/08/08 17:08:40","新北市三重區興華街67號","121.485053333333","25.0599016666667","6500200","三重區"
"241013","270-UM","2017/08/08 17:08:48","新北市三重區公園街32號","121.498195","25.0741583333333","6500200","三重區"
"241025","271-UM","2017/08/08 17:08:41","新北市三重區中正北路560巷53號","121.470918333333","25.0698716666667","6500200","三重區"
"241007","398-BY","2017/08/08 17:08:54","新北市三重區三和路四段163巷42號","121.485706666667","25.0793383333333","6500200","三重區"
"241020","412-TH","2017/08/08 17:08:56","新北市三重區自強路三段18號","121.486786666667","25.0722083333333","6500200","三重區"
"241004","475-VK","2017/08/08 17:08:47","新北市三重區五華街98巷6號","121.49221","25.0820966666667","6500200","三重區"
"241019","478-VK","2017/08/08 17:08:48","新北市三重區力行路一段153巷1號","121.485643333333","25.068885","6500200","三重區"
"241030","480-VK","2017/08/08 17:08:43","新北市三重區集成路12號","121.488591666667","25.0520833333333","6500200","三重區"
"241014","543-UM","2017/08/08 17:08:38","新北市三重區龍濱路195號","121.502165","25.0713866666667","6500200","三重區"
"241023","545-UM","2017/08/08 17:08:57","新北市三重區忠孝路三段84巷1號","121.480281666667","25.0644766666667","6500200","三重區"
"241001","547-UM","2017/08/08 17:08:47","新北市三重區仁愛街245巷27號","121.494395","25.0784733333333","6500200","三重區"
"241029","887-TS","2017/08/08 17:08:37","新北市三重區重安街55號","121.491903333333","25.0564266666667","6500200","三重區"
"241012","941-UM","2017/08/08 17:08:53","新北市三重區龍門路274巷25號","121.501325","25.07498","6500200","三重區"
"241033","AAC-255","2017/08/08 17:08:55","新北市三重區中興北街271號","121.469165","25.0607216666667","6500200","三重區"
"235067","255-BX","2017/08/08 16:20:04","新北市中和區員山路36巷13號","121.484423333333","24.991315","6500300","中和區"
"235062","800-TS","2017/08/08 16:59:06","新北市中和區員山路36巷16-3號","121.485053333333","24.99139","6500300","中和區"
"247020","893-R6","2017/08/08 17:08:48","新北市蘆洲區仁愛街70巷22號","121.471338333333","25.094435","6501400","蘆洲區"
"247010","546-UM","2017/08/08 17:08:50","新北市蘆洲區民族路34號","121.476478333333","25.0842716666667","6501400","蘆洲區"
"247018","500-BY","2017/08/08 17:08:45","新北市蘆洲區復興路132號","121.476656666667","25.0875116666667","6501400","蘆洲區"
"247006","341-TH","2017/08/08 17:08:46","新北市蘆洲區長安街102巷4號","121.462018333333","25.081475","6501400","蘆洲區"
"247008","339-TH","2017/08/08 17:08:49","新北市蘆洲區信義路30巷33號","121.474585","25.0784","6501400","蘆洲區"
"247024","337-TH","2017/08/08 17:08:37","新北市蘆洲區長興路15號","121.464243333333","25.08286","6501400","蘆洲區"
"247002","336-TH","2017/08/08 17:08:53","新北市蘆洲區永樂街38巷4號","121.458103333333","25.0886016666667","6501400","蘆洲區"
"247014","057-VK","2017/08/08 17:08:53","新北市蘆洲區中央路30號","121.47353","25.08303","6501400","蘆洲區"
"247004","056-VK","2017/08/08 17:08:42","新北市蘆洲區長安街207巷33號","121.459031666667","25.08151","6501400","蘆洲區"
"247012","007-UY","2017/08/08 17:08:49","新北市蘆洲區信義路345號","121.47788","25.0871233333333","6501400","蘆洲區"
"247022","002-UY","2017/08/08 17:08:51","新北市蘆洲區民族路526號","121.468928333333","25.08997","6501400","蘆洲區"
"247016","001-UY","2017/08/08 17:08:55","新北市蘆洲區正和街96巷52號","121.467468333333","25.0816783333333","6501400","蘆洲區"
"228001","212-TW","2017/08/08 17:08:46","新北市貢寮區仁理村尖山腳街20號","121.92497","25.047865","6502600","貢寮區"
"228002","663-BX","2017/08/08 17:08:36","新北市貢寮區龍崗里泮宮路51-1號","121.908423333333","25.0165","6502600","貢寮區"
"228003","828-UM","2017/08/08 17:08:55","新北市貢寮區福隆里東興街6-3號","121.951695","25.0202716666667","6502600","貢寮區"
"224010","AGQ-8101","2017/08/08 09:27:18","新北市瑞芳區明燈路二段89號","121.809705","25.1081983333333","6501200","瑞芳區"
"224006","676-BX","2017/08/08 17:08:41","新北市瑞芳區大寮路108號","121.7815","25.09788","6501200","瑞芳區"
"224009","285-BY","2017/08/08 17:08:51","新北市瑞芳區濱二路30號","121.841095","25.1148916666667","6501200","瑞芳區"
"224008","275-VK","2017/08/08 17:08:41","新北市瑞芳區柴寮路32號","121.824713333333","25.0833083333333","6501200","瑞芳區"
"224007","273-VK","2017/08/08 17:08:54","新北市瑞芳區粗坑口路100-7號","121.759896666667","25.0994","6501200","瑞芳區"
"224005","271-BY","2017/08/08 17:08:52","新北市瑞芳區鼻頭路127號","121.916415","25.12213","6501200","瑞芳區"
"227003","642-TC","2017/08/08 17:08:30","新北市雙溪區外柑里田寮9號","121.805871666667","25.0144633333333","6502500","雙溪區"
"227009","400-TW","2017/08/08 17:08:44","新北市雙溪區三貂里子崙坑1-6號","121.849928333333","25.05749","6502500","雙溪區"
"253001","4710-YM","2017/08/08 10:58:27","新北市石門區中山路64-1號","121.567448333333","25.2904633333333","6502200","石門區"
"251004","009-UM","2017/08/08 17:08:45","新北市淡水區中正路233-2號","121.43545","25.1734333333333","6501000","淡水區"
"251005","010-UM","2017/08/08 17:08:35","新北市淡水區水源街一段151號","121.447665","25.1717416666667","6501000","淡水區"
"251014","180-VK","2017/08/08 17:08:36","新北市淡水區八里堆9-6號","121.465393333333","25.22453","6501000","淡水區"
"251008","181-VK","2017/08/08 17:08:39","新北市淡水區樹梅坑7-1號","121.472653333333","25.1448116666667","6501000","淡水區"
"251010","413-VK","2017/08/08 17:08:53","新北市淡水區新市五路二段75號","121.43128","25.198225","6501000","淡水區"
"251012","441-VK","2017/08/08 17:08:38","新北市淡水區新民街一段80號","121.429153333333","25.185275","6501000","淡水區"
"251016","442-VK","2017/08/08 17:08:48","新北市淡水區社厝坑1號","121.47644","25.1888916666667","6501000","淡水區"
"251001","559-UM","2017/08/08 17:08:39","新北市淡水區中正東路二段177號","121.459576666667","25.144555","6501000","淡水區"
"251006","561-UM","2017/08/08 17:08:52","新北市淡水區中正路一段22巷100號","121.426705","25.185685","6501000","淡水區"
"251009","575-R6","2017/08/08 17:08:36","新北市淡水區三民街20號","121.438996666667","25.1717633333333","6501000","淡水區"
"251011","650-BX","2017/08/08 17:08:45","新北市淡水區坪頂路22號","121.45653","25.1616166666667","6501000","淡水區"
"252002","178-VK","2017/08/08 17:08:41","新北市三芝區忠孝街53號","121.506038333333","25.2561433333333","6502100","三芝區"
"252001","292-VK","2017/08/08 17:08:39","新北市三芝區埔頭里埔頭39-1號","121.498828333333","25.2605633333333","6502100","三芝區"
"242021","AAC-296","2017/08/08 17:08:40","新北市新莊區新泰路357巷3弄57號","121.44219","25.03939","6500500","新莊區"
"242048","751-BX","2017/08/08 17:08:42","新北市新莊區中正路539-1號","121.435451666667","25.032805","6500500","新莊區"
"242023","613-BX","2017/08/08 17:08:54","新北市新莊區新泰路255巷83號","121.442145","25.03906","6500500","新莊區"
"242027","612-BX","2017/08/08 17:08:52","新北市新莊區新泰路357巷3弄57號","121.442115","25.0392266666667","6500500","新莊區"
"242037","566-BX","2017/08/08 17:08:48","新北市新莊區新泰路255巷83號","121.442175","25.0390983333333","6500500","新莊區"
"242005","442-UM","2017/08/08 17:08:42","新北市新莊區新泰路255巷83號","121.44251","25.03879","6500500","新莊區"
"242046","441-UM","2017/08/08 17:08:44","新北市新莊區新泰路357巷3弄17號","121.441961666667","25.040845","6500500","新莊區"
"242051","440-UM","2017/08/08 17:08:54","新北市新莊區三和路12-21號","121.442336666667","25.038115","6500500","新莊區"
"242032","415-TV","2017/08/08 17:08:36","新北市新莊區新泰路357巷3弄57號","121.442061666667","25.0393883333333","6500500","新莊區"
"242039","400-BY","2017/08/08 17:08:37","新北市新莊區新泰路357巷3弄57號","121.44218","25.0395383333333","6500500","新莊區"
"242061","362-BY","2017/08/08 17:08:40","新北市新莊區三和路12-21號","121.442175","25.0385433333333","6500500","新莊區"
"242058","353-BY","2017/08/08 17:08:41","新北市新莊區新泰路255巷83號","121.442161666667","25.0388016666667","6500500","新莊區"
"242019","135-UY","2017/08/08 17:08:52","新北市新莊區三和路12-21號","121.441931666667","25.0388316666667","6500500","新莊區"
"242044","172-VK","2017/08/08 17:08:46","新北市新莊區新泰路357巷3弄31號","121.44195","25.0405233333333","6500500","新莊區"
"242007","173-VK","2017/08/08 14:11:59","新北市新莊區新泰路357巷2號","121.441938333333","25.0415033333333","6500500","新莊區"
"242013","175-VK","2017/08/08 17:08:48","新北市新莊區三和路12-21號","121.441965","25.03862","6500500","新莊區"
"242056","176-VK","2017/08/08 17:08:45","新北市新莊區三和路12-21號","121.442016666667","25.0386166666667","6500500","新莊區"
"242011","346-TH","2017/08/08 17:08:43","新北市新莊區三和路12-18號","121.442118333333","25.0376766666667","6500500","新莊區"
"242034","347-TH","2017/08/08 17:08:37","新北市新莊區新泰路357巷3弄43號","121.442165","25.0402533333333","6500500","新莊區"
"242017","348-TH","2017/08/08 17:08:46","新北市新莊區中正路336號","121.445753333333","25.0348116666667","6500500","新莊區"
"242054","349-TH","2017/08/08 16:39:04","新北市新莊區三和路12-20號","121.44197","25.0377933333333","6500500","新莊區"
"242015","350-TH","2017/08/08 17:08:57","新北市新莊區三和路12-21號","121.44196","25.0388716666667","6500500","新莊區"
"242009","351-TH","2017/08/08 17:01:37","新北市新莊區新泰路255巷83號","121.442091666667","25.0389416666667","6500500","新莊區"
"238015","755-BX","2017/08/08 17:08:39","新北市樹林區育德街113號","121.389831666667","24.9682266666667","6500700","樹林區"
"238023","601-UM","2017/08/08 17:08:54","新北市樹林區八德街1014號","121.391305","24.968545","6500700","樹林區"
"238019","599-UM","2017/08/08 17:08:49","新北市樹林區八德街1172號","121.390265","24.9683016666667","6500700","樹林區"
"238018","571-TV","2017/08/08 17:08:43","新北市樹林區八德街588號","121.398153333333","24.9692566666667","6500700","樹林區"
"238024","5061-A6","2017/08/08 17:08:40","新北市樹林區八德街67號","121.399203333333","24.96929","6500700","樹林區"
"238021","311-TH","2017/08/08 17:08:51","新北市樹林區佳園路二段13號","121.393213333333","24.9640233333333","6500700","樹林區"
"238017","283-BY","2017/08/08 17:08:41","新北市樹林區八德街1146號","121.390945","24.968485","6500700","樹林區"
"238014","282-BY","2017/08/08 17:08:46","新北市樹林區八德街1166號","121.39045","24.9683483333333","6500700","樹林區"
"238020","268-VK","2017/08/08 16:35:47","新北市樹林區中山路三段204號","121.38698","24.9684383333333","6500700","樹林區"
"238026","172-UY","2017/08/08 17:08:38","新北市樹林區八德街1016號","121.391283333333","24.9686816666667","6500700","樹林區"
"239007","AAC-297","2017/08/08 17:08:45","新北市鶯歌區中正一路43號","121.352448333333","24.9535983333333","6500800","鶯歌區"
"239006","891-R6","2017/08/08 17:08:51","新北市鶯歌區八德路2巷4號","121.337116666667","24.9475833333333","6500800","鶯歌區"
"239008","527-UM","2017/08/08 17:08:41","新北市鶯歌區尖山路61-1號","121.349733333333","24.9496133333333","6500800","鶯歌區"
"239005","526-UM","2017/08/08 17:08:51","新北市鶯歌區德昌二街95號","121.333258333333","24.9575016666667","6500800","鶯歌區"
"239001","417-VK","2017/08/08 17:08:54","新北市鶯歌區尖山路86巷26號","121.347033333333","24.9496266666667","6500800","鶯歌區"
"239003","360-BY","2017/08/08 17:08:43","新北市鶯歌區八德路16號","121.330915","24.955345","6500800","鶯歌區"
"239002","359-BY","2017/08/08 17:08:45","新北市鶯歌區建國路246號","121.347933333333","24.9534816666667","6500800","鶯歌區"
"239004","193-VK","2017/08/08 17:08:39","新北市鶯歌區文化路324巷1-2號","121.350941666667","24.9453516666667","6500800","鶯歌區"
"221021","299-VK","2017/08/08 14:24:49","新北市汐止區八連路二段231號","121.632708333333","25.0956566666667","6501100","汐止區"
"220013","295-UM","2017/08/08 13:48:42","新北市板橋區民生路二段22號","121.472998333333","25.01675","6500100","板橋區"
"220034","461-BY","2017/08/08 15:23:19","新北市板橋區華東街1-10號","121.448698333333","24.995025","6500100","板橋區"
