"lineid","car","time","location","longitude","latitude","cityid","cityname"
"234010","9373-KE","2017/08/08 16:27:18","新北市永和區福和路1號","121.526461666667","25.0097416666667","6500400","永和區"
"249005","172-UM","2017/08/08 17:19:52","新北市五股區民義路二段130號","121.408198333333","25.1218683333333","6502300","八里區"
"249001","173-UM","2017/08/08 17:19:41","新北市八里區中華路二段165巷3號","121.407671666667","25.15086","6502300","八里區"
"249004","303-UY","2017/08/08 17:19:49","新北市八里區賢三街19號","121.418996666667","25.1592066666667","6502300","八里區"
"249002","305-UY","2017/08/08 17:19:59","新北市八里區龍米路二段117巷16號","121.445645","25.1431216666667","6502300","八里區"
"249003","593-UM","2017/08/08 17:19:47","新北市八里區商港路82號","121.39548","25.1464183333333","6502300","八里區"
"244009","410-SL","2017/08/08 17:19:40","新北市林口區文化北路二段699號","121.378621666667","25.0937216666667","6501700","林口區"
"244023","483-VK","2017/08/08 17:19:41","新北市林口區仁愛路一段635號","121.38912","25.07651","6501700","林口區"
"244017","485-VK","2017/08/08 17:19:55","新北市林口區粉寮69號","121.405023333333","25.090865","6501700","林口區"
"244021","838-TS","2017/08/08 17:19:42","新北市林口區粉寮路二段457-21號","121.404143333333","25.098975","6501700","林口區"
"231046","278-BY","2017/08/08 17:19:51","新北市新店區直潭路92號","121.530936666667","24.937645","6500600","新店區"
"241011","013-R5","2017/08/08 17:19:48","新北市三重區秀江街26號","121.50259","25.0730366666667","6500200","三重區"
"241028","022-UY","2017/08/08 17:19:45","新北市三重區仁化街56號","121.49381","25.0591533333333","6500200","三重區"
"241008","059-VK","2017/08/08 17:20:01","新北市三重區下竹圍街7號","121.480983333333","25.075965","6500200","三重區"
"241009","060-VK","2017/08/08 17:19:49","新北市三重區碧華街59號","121.48481","25.0813633333333","6500200","三重區"
"241015","062-VK","2017/08/08 17:19:54","新北市三重區福德北路89號","121.501861666667","25.0662016666667","6500200","三重區"
"241017","063-VK","2017/08/08 17:19:53","新北市三重區大同北路97-1號","121.494516666667","25.063665","6500200","三重區"
"241024","065-VK","2017/08/08 17:19:51","新北市三重區中正北路193巷21弄8號","121.476785","25.0706066666667","6500200","三重區"
"241026","066-VK","2017/08/08 17:19:49","新北市三重區文化南路27號","121.500008333333","25.0618716666667","6500200","三重區"
"241002","090-VK","2017/08/08 17:19:55","新北市三重區仁愛街367號","121.491743333333","25.0800966666667","6500200","三重區"
"241003","091-VK","2017/08/08 17:19:55","新北市三重區富福街56號","121.491796666667","25.0844283333333","6500200","三重區"
"241005","262-UM","2017/08/08 17:19:59","新北市三重區永安北路二段43巷27號","121.4831","25.0827116666667","6500200","三重區"
"241006","265-UM","2017/08/08 17:19:40","新北市三重區車路頭街135-1號","121.484305","25.0760983333333","6500200","三重區"
"241016","266-UM","2017/08/08 17:19:59","新北市三重區重新路三段82號","121.493061666667","25.0609833333333","6500200","三重區"
"241022","267-UM","2017/08/08 17:20:00","新北市三重區重陽路二段36號","121.486866666667","25.0631166666667","6500200","三重區"
"241018","268-UM","2017/08/08 17:19:56","新北市三重區安慶街155號","121.494246666667","25.0688016666667","6500200","三重區"
"241032","269-UM","2017/08/08 17:19:59","新北市三重區中華路2巷7號","121.482835","25.0605116666667","6500200","三重區"
"241013","270-UM","2017/08/08 17:19:48","新北市三重區仁福街26號","121.496703333333","25.0746033333333","6500200","三重區"
"241025","271-UM","2017/08/08 17:19:41","新北市三重區中正北路253號","121.475415","25.07082","6500200","三重區"
"241007","398-BY","2017/08/08 17:19:54","新北市三重區三和路四段143-1號","121.484495","25.0783266666667","6500200","三重區"
"241020","412-TH","2017/08/08 17:19:56","新北市三重區永德街9號","121.489186666667","25.0725666666667","6500200","三重區"
"241004","475-VK","2017/08/08 17:19:47","新北市三重區仁愛街425巷64號","121.491675","25.0825233333333","6500200","三重區"
"241019","478-VK","2017/08/08 17:20:00","新北市三重區自強路二段100號","121.48744","25.071225","6500200","三重區"
"241030","480-VK","2017/08/08 17:19:44","新北市三重區成功路73巷40號","121.489803333333","25.05245","6500200","三重區"
"241014","543-UM","2017/08/08 17:19:58","新北市三重區三和路二段83號","121.500148333333","25.0684566666667","6500200","三重區"
"241023","545-UM","2017/08/08 17:19:57","新北市三重區三民街148號","121.4827","25.0654416666667","6500200","三重區"
"241001","547-UM","2017/08/08 17:19:47","新北市三重區仁愛街269巷8號","121.493415","25.079055","6500200","三重區"
"241029","887-TS","2017/08/08 17:19:57","新北市三重區重新路四段43號","121.487955","25.0576283333333","6500200","三重區"
"241012","941-UM","2017/08/08 17:19:53","新北市三重區仁昌街96號","121.49966","25.0751583333333","6500200","三重區"
"241033","AAC-255","2017/08/08 17:19:55","新北市新莊區化成路630巷19弄12號","121.467263333333","25.0558583333333","6500200","三重區"
"235067","255-BX","2017/08/08 16:20:04","新北市中和區員山路36巷13號","121.484423333333","24.991315","6500300","中和區"
"235062","800-TS","2017/08/08 17:19:54","新北市中和區員山路36巷16-3號","121.48508","24.9913666666667","6500300","中和區"
"247020","893-R6","2017/08/08 17:19:48","新北市蘆洲區民族路426號","121.473658333333","25.091865","6501400","蘆洲區"
"247010","546-UM","2017/08/08 17:19:50","新北市蘆洲區中山一路122巷54號","121.476536666667","25.08276","6501400","蘆洲區"
"247018","500-BY","2017/08/08 17:19:45","新北市蘆洲區民權路82巷5弄2號","121.475148333333","25.0881716666667","6501400","蘆洲區"
"247006","341-TH","2017/08/08 17:19:46","新北市蘆洲區長安街70號","121.462676666667","25.080115","6501400","蘆洲區"
"247008","339-TH","2017/08/08 17:19:48","新北市蘆洲區永安北路一段72巷22號","121.47664","25.0771116666667","6501400","蘆洲區"
"247024","337-TH","2017/08/08 17:19:57","新北市蘆洲區長榮路526號","121.45968","25.090335","6501400","蘆洲區"
"247002","336-TH","2017/08/08 17:19:53","新北市蘆洲區永樂街38巷45弄35號","121.457241666667","25.0901683333333","6501400","蘆洲區"
"247014","057-VK","2017/08/08 17:19:53","新北市蘆洲區忠孝路40號","121.47113","25.0845883333333","6501400","蘆洲區"
"247004","056-VK","2017/08/08 17:20:03","新北市蘆洲區長安街160號","121.459463333333","25.08287","6501400","蘆洲區"
"247012","007-UY","2017/08/08 17:19:49","新北市蘆洲區信義路293號","121.478605","25.085865","6501400","蘆洲區"
"247022","002-UY","2017/08/08 17:19:51","新北市蘆洲區三民路128巷94號","121.469613333333","25.0903366666667","6501400","蘆洲區"
"247016","001-UY","2017/08/08 17:19:55","新北市蘆洲區中正路185巷30號","121.467901666667","25.0851966666667","6501400","蘆洲區"
"228001","212-TW","2017/08/08 17:19:46","新北市貢寮區仁理村尖山腳街18-3號","121.925491666667","25.0483133333333","6502600","貢寮區"
"228002","663-BX","2017/08/08 17:19:55","新北市貢寮區雙玉里下雙溪街26號","121.924381666667","25.0106816666667","6502600","貢寮區"
"228003","828-UM","2017/08/08 17:19:55","新北市貢寮區福隆里興隆街24-1號","121.944385","25.016675","6502600","貢寮區"
"224010","AGQ-8101","2017/08/08 09:27:18","新北市瑞芳區明燈路二段89號","121.809705","25.1081983333333","6501200","瑞芳區"
"224006","676-BX","2017/08/08 17:19:42","新北市瑞芳區大寮路49號","121.782061666667","25.0983066666667","6501200","瑞芳區"
"224009","285-BY","2017/08/08 17:19:51","新北市瑞芳區汽車路123號","121.839376666667","25.1104116666667","6501200","瑞芳區"
"224008","275-VK","2017/08/08 17:20:02","新北市瑞芳區侯硐路214號","121.830525","25.0882483333333","6501200","瑞芳區"
"224005","271-BY","2017/08/08 17:20:01","新北市瑞芳區鼻頭路247號","121.910261666667","25.1222366666667","6501200","瑞芳區"
"227003","642-TC","2017/08/08 17:19:50","新北市雙溪區上林里內平林90號","121.827578333333","25.0274683333333","6502500","雙溪區"
"227009","400-TW","2017/08/08 17:18:44","新北市雙溪區三貂里定福路4號","121.851493333333","25.0652066666667","6502500","雙溪區"
"253001","4710-YM","2017/08/08 10:58:27","新北市石門區中山路64-1號","121.567448333333","25.2904633333333","6502200","石門區"
"251004","009-UM","2017/08/08 17:19:45","新北市淡水區中正東路二段48巷20號","121.45766","25.1582066666667","6501000","淡水區"
"251005","010-UM","2017/08/08 17:19:56","新北市淡水區鄧公路19號","121.451418333333","25.1700233333333","6501000","淡水區"
"251014","180-VK","2017/08/08 17:19:56","新北市淡水區番子田114號","121.463656666667","25.2298016666667","6501000","淡水區"
"251008","181-VK","2017/08/08 17:19:59","新北市淡水區大同路269號","121.467188333333","25.14226","6501000","淡水區"
"251010","413-VK","2017/08/08 17:19:53","新北市淡水區中正路二段208號","121.426268333333","25.1891433333333","6501000","淡水區"
"251012","441-VK","2017/08/08 17:19:58","新北市淡水區中山北路一段158號","121.444188333333","25.1778466666667","6501000","淡水區"
"251016","442-VK","2017/08/08 17:19:46","新北市淡水區鄒厝崙13號","121.462168333333","25.1905516666667","6501000","淡水區"
"251001","559-UM","2017/08/08 17:19:59","新北市淡水區自強路201巷35號","121.462301666667","25.1267616666667","6501000","淡水區"
"251006","561-UM","2017/08/08 17:19:52","新北市淡水區中山路190號","121.441475","25.174515","6501000","淡水區"
"251009","575-R6","2017/08/08 17:19:57","新北市淡水區三民街17號","121.43899","25.1718033333333","6501000","淡水區"
"251011","650-BX","2017/08/08 17:19:44","新北市淡水區坪頂路131號","121.464778333333","25.16155","6501000","淡水區"
"251003","766-UM","2017/08/08 17:19:44","新北市淡水區中正路二段31號","121.419341666667","25.1818016666667","6501000","淡水區"
"207003","550-UM","2017/08/08 17:19:50","新北市萬里區龜吼里美崙路31號","121.6871","25.1840666666667","6502800","萬里區"
"252002","178-VK","2017/08/08 17:19:41","新北市三芝區忠孝街1-14號","121.50556","25.25395","6502100","三芝區"
"252001","292-VK","2017/08/08 17:19:59","新北市三芝區長安街119號","121.498061666667","25.259655","6502100","三芝區"
"242021","AAC-296","2017/08/08 17:19:40","新北市新莊區中港路281號","121.453221666667","25.0437733333333","6500500","新莊區"
"242029","986-R7","2017/08/08 17:19:46","新北市新莊區化成路45號","121.465158333333","25.044675","6500500","新莊區"
"242048","751-BX","2017/08/08 17:19:42","新北市新莊區龍安路253號","121.419658333333","25.0200616666667","6500500","新莊區"
"242025","615-BX","2017/08/08 17:19:48","新北市新莊區復興路一段212號","121.45282","25.0436516666667","6500500","新莊區"
"242023","613-BX","2017/08/08 17:19:54","新北市新莊區中港一街140號","121.447893333333","25.0451483333333","6500500","新莊區"
"242027","612-BX","2017/08/08 17:19:52","新北市新莊區復興路一段133號","121.44995","25.0432716666667","6500500","新莊區"
"242037","566-BX","2017/08/08 17:19:49","新北市新莊區新樹路115號","121.43739","25.0266833333333","6500500","新莊區"
"242042","497-BY","2017/08/08 17:19:49","新北市新莊區中正路487號","121.441071666667","25.03357","6500500","新莊區"
"242005","442-UM","2017/08/08 17:19:41","新北市新莊區新泰路500號","121.442463333333","25.0460683333333","6500500","新莊區"
"242046","441-UM","2017/08/08 17:19:44","新北市新莊區新樹路67巷32號","121.440393333333","25.0303266666667","6500500","新莊區"
"242051","440-UM","2017/08/08 17:19:54","新北市新莊區瓊林路180號","121.440093333333","25.0216966666667","6500500","新莊區"
"242032","415-TV","2017/08/08 17:19:56","新北市新莊區新泰路464號","121.443201666667","25.0448766666667","6500500","新莊區"
"242002","413-TV","2017/08/08 17:19:59","新北市新莊區中環路一段299號","121.442131666667","25.032275","6500500","新莊區"
"242039","400-BY","2017/08/08 17:19:56","新北市新莊區新樹路13號","121.440796666667","25.03299","6500500","新莊區"
"242061","362-BY","2017/08/08 17:20:01","新北市新莊區中正路384-1號","121.44203","25.0353916666667","6500500","新莊區"
"242058","353-BY","2017/08/08 17:20:01","新北市新莊區三和路12-10號","121.441978333333","25.0367566666667","6500500","新莊區"
"242019","135-UY","2017/08/08 17:19:52","新北市新莊區中港一街138號","121.448065","25.04515","6500500","新莊區"
"242044","172-VK","2017/08/08 17:19:46","新北市新莊區民安路56號","121.423163333333","25.0274333333333","6500500","新莊區"
"242007","173-VK","2017/08/08 14:11:59","新北市新莊區新泰路357巷2號","121.441938333333","25.0415033333333","6500500","新莊區"
"242013","175-VK","2017/08/08 17:19:48","新北市泰山區磚雅厝6號","121.44236","25.0422683333333","6500500","新莊區"
"242056","176-VK","2017/08/08 17:19:45","新北市新莊區新莊路763巷2號","121.442395","25.03244","6500500","新莊區"
"242011","346-TH","2017/08/08 17:19:43","新北市新莊區中平路82巷29號","121.44628","25.045","6500500","新莊區"
"242034","347-TH","2017/08/08 17:19:57","新北市新莊區瓊林路46-7號","121.44718","25.0293083333333","6500500","新莊區"
"242017","348-TH","2017/08/08 17:19:48","新北市新莊區公園路36號","121.448818333333","25.039225","6500500","新莊區"
"242054","349-TH","2017/08/08 17:19:44","新北市新莊區瓊林路59-83號","121.442008333333","25.023475","6500500","新莊區"
"242015","350-TH","2017/08/08 17:19:57","新北市新莊區建中街152號","121.444783333333","25.036585","6500500","新莊區"
"242009","351-TH","2017/08/08 17:19:38","新北市新莊區中平路441號","121.444198333333","25.0558","6500500","新莊區"
"238015","755-BX","2017/08/08 17:19:59","新北市樹林區大安路530號","121.41385","24.9861883333333","6500700","樹林區"
"238023","601-UM","2017/08/08 17:19:54","新北市樹林區啟智街156巷9號","121.414925","24.9877883333333","6500700","樹林區"
"238019","599-UM","2017/08/08 17:19:49","新北市樹林區八德街251巷9號","121.422258333333","24.9786766666667","6500700","樹林區"
"238018","571-TV","2017/08/08 17:20:02","新北市樹林區中華路1-6號","121.4258","24.98452","6500700","樹林區"
"238024","5061-A6","2017/08/08 17:20:00","新北市樹林區鎮前街140號","121.424678333333","24.9905166666667","6500700","樹林區"
"238022","312-TH","2017/08/08 17:20:02","新北市樹林區和平街60號","121.423948333333","24.9822333333333","6500700","樹林區"
"238021","311-TH","2017/08/08 17:19:51","新北市樹林區西圳街一段165巷20弄11號","121.395631666667","24.9601683333333","6500700","樹林區"
"238017","283-BY","2017/08/08 17:19:40","新北市樹林區大安路537巷1號","121.412895","24.9847783333333","6500700","樹林區"
"238014","282-BY","2017/08/08 17:19:46","新北市樹林區中華路190-6號","121.410233333333","24.9805533333333","6500700","樹林區"
"238020","268-VK","2017/08/08 17:19:47","新北市樹林區保安街一段195號","121.420781666667","24.9959916666667","6500700","樹林區"
"238026","172-UY","2017/08/08 17:19:58","新北市樹林區東順街79巷1號","121.409703333333","24.976685","6500700","樹林區"
"238016","169-UY","2017/08/08 17:19:57","新北市樹林區中山路二段34號","121.417475","24.98496","6500700","樹林區"
"239007","AAC-297","2017/08/08 17:19:45","新北市鶯歌區光復街3號","121.351676666667","24.9548216666667","6500800","鶯歌區"
"239006","891-R6","2017/08/08 17:19:51","新北市鶯歌區德昌街11號","121.333556666667","24.9602433333333","6500800","鶯歌區"
"239008","527-UM","2017/08/08 17:19:58","新北市鶯歌區西湖街279巷23號","121.34099","24.9678","6500800","鶯歌區"
"239005","526-UM","2017/08/08 17:19:51","新北市鶯歌區鶯桃路561號","121.330135","24.96823","6500800","鶯歌區"
"239001","417-VK","2017/08/08 17:19:54","新北市鶯歌區黃厝街19號","121.343118333333","24.9456583333333","6500800","鶯歌區"
"239003","360-BY","2017/08/08 17:19:43","新北市鶯歌區德昌二街70巷29弄1號","121.33158","24.9574966666667","6500800","鶯歌區"
"239002","359-BY","2017/08/08 17:19:45","新北市鶯歌區南雅路20號","121.34926","24.9541016666667","6500800","鶯歌區"
"239004","193-VK","2017/08/08 17:19:59","新北市鶯歌區文化路553號","121.352978333333","24.94757","6500800","鶯歌區"
"221021","299-VK","2017/08/08 14:24:49","新北市汐止區八連路二段231號","121.632708333333","25.0956566666667","6501100","汐止區"
"220013","295-UM","2017/08/08 13:48:42","新北市板橋區民生路二段22號","121.472998333333","25.01675","6500100","板橋區"
"220034","461-BY","2017/08/08 15:23:19","新北市板橋區華東街1-10號","121.448698333333","24.995025","6500100","板橋區"
