"lineid","car","time","location","longitude","latitude","cityid","cityname"
"234026","9371-KE","2017/08/08 17:59:53","新北市永和區永和路一段41號","121.512751666667","25.0062233333333","6500400","永和區"
"234010","9373-KE","2017/08/08 17:59:43","新北市永和區福和路1號","121.525831666667","25.00927","6500400","永和區"
"249005","172-UM","2017/08/08 17:59:32","新北市八里區荖阡坑路20-9號","121.398503333333","25.1370766666667","6502300","八里區"
"249001","173-UM","2017/08/08 17:59:41","新北市八里區龍米路二段30號","121.448691666667","25.1401133333333","6502300","八里區"
"249004","303-UY","2017/08/08 17:59:49","新北市八里區龍米路二段193號","121.433568333333","25.1583866666667","6502300","八里區"
"249002","305-UY","2017/08/08 17:59:39","新北市八里區龍米路一段430號","121.451128333333","25.1338066666667","6502300","八里區"
"249003","593-UM","2017/08/08 17:59:47","新北市八里區中山路二段298號","121.404716666667","25.1503616666667","6502300","八里區"
"248014","025-BX","2017/08/08 17:59:54","新北市五股區更洲路47號","121.457011666667","25.078975","6501500","五股區"
"248006","077-UY","2017/08/08 17:59:41","新北市五股區中興路二段83巷26-6號","121.460056666667","25.074995","6501500","五股區"
"248008","095-VK","2017/08/08 17:59:36","新北市五股區更洲路10號","121.45831","25.0788466666667","6501500","五股區"
"248017","225-UY","2017/08/08 17:59:39","新北市五股區中興路二段83巷26-6號","121.460141666667","25.0752616666667","6501500","五股區"
"248004","677-BX","2017/08/08 17:59:38","新北市五股區中興路二段161號","121.457778333333","25.0773216666667","6501500","五股區"
"248002","678-BX","2017/08/08 17:59:47","新北市五股區中興路二段37巷28號","121.46017","25.07509","6501500","五股區"
"248010","682-TV","2017/08/08 17:59:55","新北市五股區中興路二段182巷1號","121.457178333333","25.078615","6501500","五股區"
"232011","375-UM","2017/08/08 17:59:52","新北市坪林區水柳腳39號","121.709656666667","24.9351416666667","6502000","坪林區"
"244013","069-UM","2017/08/08 17:59:40","新北市林口區中山路125號","121.388931666667","25.0788766666667","6501700","林口區"
"244007","080-UY","2017/08/08 17:59:52","新北市林口區竹林路77號","121.388256666667","25.0792066666667","6501700","林口區"
"244009","410-SL","2017/08/08 17:59:40","新北市林口區林口路247號","121.386431666667","25.0839116666667","6501700","林口區"
"244023","483-VK","2017/08/08 17:59:41","新北市林口區東湖一街71號","121.385375","25.07248","6501700","林口區"
"244017","485-VK","2017/08/08 17:59:35","新北市林口區公園路177號","121.370818333333","25.07211","6501700","林口區"
"244011","701-TV","2017/08/08 17:59:57","新北市林口區中正路136號","121.392945","25.0773283333333","6501700","林口區"
"244025","837-TS","2017/08/08 17:59:38","新北市林口區文化三路一段39巷118號","121.359538333333","25.0678766666667","6501700","林口區"
"244021","838-TS","2017/08/08 17:59:42","新北市林口區新寮27-5號","121.396453333333","25.066565","6501700","林口區"
"243013","AAD-798","2017/08/08 17:59:35","新北市泰山區大科路45-17號","121.404443333333","25.055175","6501600","泰山區"
"222002","659-BX","2017/08/08 17:59:53","新北市深坑區文化街102號","121.616685","25.001865","6501800","深坑區"
"222001","696-SL","2017/08/08 17:59:47","新北市深坑區北深路三段25巷15-2號","121.608711666667","24.9995783333333","6501800","深坑區"
"231046","278-BY","2017/08/08 17:59:51","新北市新店區康雅崙路14號","121.53706","24.9265983333333","6500600","新店區"
"241024","065-VK","2017/08/08 17:59:51","新北市三重區國道路一段39巷1號","121.484096666667","25.0730516666667","6500200","三重區"
"241016","266-UM","2017/08/08 17:59:39","新北市三重區新北大道一段90號","121.485773333333","25.0616433333333","6500200","三重區"
"241033","AAC-255","2017/08/08 17:59:35","新北市三重區重新路五段625號","121.467846666667","25.044105","6500200","三重區"
"235058","151-BY","2017/08/08 17:59:45","新北市中和區中正路637巷60弄61號","121.485456666667","24.9928416666667","6500300","中和區"
"235038","185-VK","2017/08/08 17:59:44","新北市中和區員山路36巷13號","121.484328333333","24.9910816666667","6500300","中和區"
"235067","255-BX","2017/08/08 17:59:50","新北市中和區和城路一段271巷1號","121.485586666667","24.99186","6500300","中和區"
"235061","378-QA","2017/08/08 17:59:45","新北市中和區和城路一段271巷1號","121.485538333333","24.9919866666667","6500300","中和區"
"235069","4980-A6","2017/08/08 17:59:42","新北市中和區錦和路216號","121.490445","24.99437","6500300","中和區"
"235062","800-TS","2017/08/08 17:59:40","新北市中和區中正路637巷52弄3號","121.485313333333","24.9937716666667","6500300","中和區"
"247020","893-R6","2017/08/08 17:59:53","新北市蘆洲區水湳街36-11號","121.471395","25.0894733333333","6501400","蘆洲區"
"247018","500-BY","2017/08/08 17:59:45","新北市蘆洲區復興路230號","121.479285","25.08941","6501400","蘆洲區"
"247024","337-TH","2017/08/08 17:59:57","新北市蘆洲區中原路31號","121.460146666667","25.0827133333333","6501400","蘆洲區"
"247012","007-UY","2017/08/08 17:59:49","新北市蘆洲區三民路206號","121.469046666667","25.0890583333333","6501400","蘆洲區"
"247022","002-UY","2017/08/08 17:59:51","新北市蘆洲區中正路516巷38-5號","121.461401666667","25.0984966666667","6501400","蘆洲區"
"228001","212-TW","2017/08/08 17:59:46","新北市貢寮區真理里新港街26巷55弄1號","121.927653333333","25.0530733333333","6502600","貢寮區"
"228002","663-BX","2017/08/08 17:59:35","新北市貢寮區福連里香蘭街2-1號","121.967568333333","25.02328","6502600","貢寮區"
"228003","828-UM","2017/08/08 17:59:35","新北市貢寮區真理里美艷山街6-2號","121.928911666667","25.0607316666667","6502600","貢寮區"
"224010","AGQ-8101","2017/08/08 17:59:14","新北市瑞芳區山尖路172-1號","121.848201666667","25.1119716666667","6501200","瑞芳區"
"224006","676-BX","2017/08/08 17:59:41","新北市瑞芳區傑魚坑路183號","121.788438333333","25.1082733333333","6501200","瑞芳區"
"224002","639-TC","2017/08/08 17:59:38","新北市瑞芳區三爪子坑路127號","121.810306666667","25.1069066666667","6501200","瑞芳區"
"224011","420-VK","2017/08/08 17:59:51","新北市瑞芳區明燈路二段2巷7號","121.814323333333","25.108475","6501200","瑞芳區"
"224009","285-BY","2017/08/08 17:59:51","新北市瑞芳區山尖路189號","121.85098","25.1126483333333","6501200","瑞芳區"
"224008","275-VK","2017/08/08 17:59:36","新北市瑞芳區明燈路一段45巷97號","121.822138333333","25.1042566666667","6501200","瑞芳區"
"224007","273-VK","2017/08/08 17:59:54","新北市瑞芳區大寮路356-1號","121.78555","25.1030216666667","6501200","瑞芳區"
"224005","271-BY","2017/08/08 17:59:40","新北市瑞芳區深澳路59號","121.817745","25.1292783333333","6501200","瑞芳區"
"253006","032-BX","2017/08/08 17:59:46","新北市石門區大丘田45-2號","121.549811666667","25.2748933333333","6502200","石門區"
"253005","295-VK","2017/08/08 17:59:44","新北市石門區中山路62-11號","121.567571666667","25.289655","6502200","石門區"
"253001","4710-YM","2017/08/08 17:59:45","新北市石門區中山路15號","121.566001666667","25.290345","6502200","石門區"
"208002","742-BX","2017/08/08 17:59:36","新北市金山區三界壇路61號","121.626873333333","25.2281366666667","6502700","金山區"
"208003","665-BX","2017/08/08 17:59:55","新北市金山區磺港里磺港路202-1號","121.645156666667","25.2275","6502700","金山區"
"208001","761-BX","2017/08/08 17:59:51","新北市金山區磺港里磺港路248號","121.643933333333","25.2250583333333","6502700","金山區"
"251004","009-UM","2017/08/08 17:59:45","新北市淡水區民權路187號","121.459593333333","25.133445","6501000","淡水區"
"251005","010-UM","2017/08/08 17:59:35","新北市淡水區英專路116號","121.445906666667","25.1722066666667","6501000","淡水區"
"251014","180-VK","2017/08/08 17:59:36","新北市淡水區公埔子16-6號","121.481033333333","25.22449","6501000","淡水區"
"251008","181-VK","2017/08/08 17:59:39","新北市淡水區八勢一街32巷1號","121.461848333333","25.155765","6501000","淡水區"
"251010","413-VK","2017/08/08 17:59:53","新北市淡水區淡海路46號","121.423173333333","25.1800833333333","6501000","淡水區"
"251012","441-VK","2017/08/08 17:59:38","新北市淡水區北新路三段38巷7號","121.484528333333","25.1870083333333","6501000","淡水區"
"251016","442-VK","2017/08/08 17:59:46","新北市淡水區埤島35-1號","121.449186666667","25.1974666666667","6501000","淡水區"
"251001","559-UM","2017/08/08 17:59:39","新北市淡水區民權路14號","121.463078333333","25.1245266666667","6501000","淡水區"
"251006","561-UM","2017/08/08 17:59:52","新北市淡水區新生街30巷1號","121.438956666667","25.1732516666667","6501000","淡水區"
"251009","575-R6","2017/08/08 17:59:36","新北市淡水區大仁街6巷1號","121.442446666667","25.174625","6501000","淡水區"
"251011","650-BX","2017/08/08 17:59:54","新北市淡水區三空泉6-3號","121.476991666667","25.16239","6501000","淡水區"
"251002","672-BX","2017/08/08 17:59:43","新北市淡水區鼻頭街18-5號","121.44687","25.1668083333333","6501000","淡水區"
"251003","766-UM","2017/08/08 17:59:44","新北市淡水區大忠街79-6號","121.44569","25.1771933333333","6501000","淡水區"
"207003","550-UM","2017/08/08 17:59:50","新北市萬里區野柳里港東路155號","121.689661666667","25.2051616666667","6502800","萬里區"
"207004","225-TW","2017/08/08 17:59:41","新北市萬里區中幅里中福路48號","121.683301666667","25.1739983333333","6502800","萬里區"
"252002","178-VK","2017/08/08 17:59:41","新北市三芝區中山路一段155號","121.502406666667","25.2559483333333","6502100","三芝區"
"252001","292-VK","2017/08/08 17:59:39","新北市三芝區中興街一段28號","121.497665","25.2578466666667","6502100","三芝區"
"237004","078-UY","2017/08/08 17:59:35","新北市三峽區中正路二段126號","121.366296666667","24.91678","6500900","三峽區"
"237007","153-BY","2017/08/08 17:59:54","新北市三峽區中正路二段66號","121.366611666667","24.91836","6500900","三峽區"
"237009","210-TH","2017/08/08 17:59:48","新北市三峽區中山路106巷35號","121.366031666667","24.9366733333333","6500900","三峽區"
"237013","252-BX","2017/08/08 17:59:55","新北市三峽區介壽路一段135號","121.376216666667","24.9317","6500900","三峽區"
"237012","275-BY","2017/08/08 17:59:49","新北市三峽區民生街27巷2號","121.375988333333","24.9362416666667","6500900","三峽區"
"237008","302-VK","2017/08/08 17:59:53","新北市三峽區白雞30-3號","121.369948333333","24.9122533333333","6500900","三峽區"
"237014","433-BY","2017/08/08 17:59:50","新北市三峽區復興路101巷1弄28號","121.37107","24.937725","6500900","三峽區"
"237006","5529-G3","2017/08/08 17:59:48","新北市三峽區介壽路二段138巷1弄42-3號","121.398008333333","24.93282","6500900","三峽區"
"237011","572-TV","2017/08/08 17:59:35","新北市三峽區大同路33號","121.376783333333","24.9282866666667","6500900","三峽區"
"237016","649-BX","2017/08/08 17:59:54","新北市三峽區白雞87號","121.402225","24.90845","6500900","三峽區"
"237010","706-TV","2017/08/08 17:59:49","新北市三峽區中山路60號","121.368238333333","24.9346066666667","6500900","三峽區"
"237005","AKY-6261","2017/08/08 17:59:42","新北市三峽區復興路183號","121.36879","24.9388716666667","6500900","三峽區"
"236070","105-UM","2017/08/08 17:59:54","新北市土城區青雲路665-2號","121.466573333333","24.9645033333333","6501300","土城區"
"236043","107-UM","2017/08/08 17:59:39","新北市土城區裕生路82巷2號","121.447573333333","24.985955","6501300","土城區"
"236079","166-UM","2017/08/08 17:59:39","新北市土城區中央路三段177號","121.431446666667","24.9653316666667","6501300","土城區"
"236031","253-BX","2017/08/08 17:59:56","新北市土城區城林路6巷80號","121.438551666667","24.9797816666667","6501300","土城區"
"236027","269-VK","2017/08/08 17:59:44","新北市土城區中華路二段109號","121.439075","24.977105","6501300","土城區"
"236015","270-VK","2017/08/08 17:59:39","新北市土城區員福街24號","121.441428333333","24.9786716666667","6501300","土城區"
"236038","271-VK","2017/08/08 17:59:50","新北市土城區中華路二段2號","121.438918333333","24.97983","6501300","土城區"
"236023","401-BY","2017/08/08 17:59:54","新北市土城區城林路6巷80號","121.438558333333","24.97978","6501300","土城區"
"236063","752-BX","2017/08/08 17:59:42","新北市土城區城林路6巷80號","121.43854","24.9796766666667","6501300","土城區"
"236059","912-UM","2017/08/08 17:59:48","新北市土城區中央路三段168號","121.43099","24.9651716666667","6501300","土城區"
"236049","913-UM","2017/08/08 17:59:52","新北市土城區城林路6巷80號","121.43846","24.97973","6501300","土城區"
"236055","AAC-216","2017/08/08 17:59:40","新北市土城區城林路6巷80號","121.438608333333","24.97958","6501300","土城區"
"242021","AAC-296","2017/08/08 17:59:40","新北市新莊區中華路一段6號","121.452005","25.03648","6500500","新莊區"
"242029","986-R7","2017/08/08 17:59:54","新北市新莊區中平路1號","121.444723333333","25.0429833333333","6500500","新莊區"
"242048","751-BX","2017/08/08 17:59:42","新北市新莊區萬安街47巷21號","121.422401666667","25.0243983333333","6500500","新莊區"
"242025","615-BX","2017/08/08 17:59:48","新北市新莊區五工路96號","121.456791666667","25.0644783333333","6500500","新莊區"
"242023","613-BX","2017/08/08 17:59:54","新北市新莊區福壽街58號","121.458251666667","25.0489366666667","6500500","新莊區"
"242027","612-BX","2017/08/08 17:59:52","新北市新莊區思源路451號","121.459843333333","25.0533483333333","6500500","新莊區"
"242037","566-BX","2017/08/08 17:59:48","新北市新莊區建福路46號","121.426603333333","25.0277166666667","6500500","新莊區"
"242042","497-BY","2017/08/08 17:59:49","新北市新莊區中正路618號","121.423716666667","25.0293533333333","6500500","新莊區"
"242005","442-UM","2017/08/08 17:59:42","新北市新莊區福樂街72巷16號","121.458815","25.046515","6500500","新莊區"
"242046","441-UM","2017/08/08 17:59:44","新北市新莊區建國一路52號","121.434165","25.0310266666667","6500500","新莊區"
"242051","440-UM","2017/08/08 17:59:42","新北市新莊區西盛街153巷2號","121.42837","25.0180516666667","6500500","新莊區"
"242032","415-TV","2017/08/08 17:59:37","新北市新莊區新泰路298號","121.445595","25.0409333333333","6500500","新莊區"
"242002","413-TV","2017/08/08 17:59:39","新北市新莊區中正路145-20號","121.458206666667","25.0375133333333","6500500","新莊區"
"242039","400-BY","2017/08/08 17:59:40","新北市新莊區民安西路22號","121.426661666667","25.0213183333333","6500500","新莊區"
"242061","362-BY","2017/08/08 17:59:40","新北市新莊區新樹路525號","121.432701666667","25.0101883333333","6500500","新莊區"
"242058","353-BY","2017/08/08 17:59:41","新北市新莊區雙鳳路134巷8號","121.412753333333","25.0281666666667","6500500","新莊區"
"242019","135-UY","2017/08/08 17:59:52","新北市新莊區明中街12-31號","121.457635","25.039285","6500500","新莊區"
"242044","172-VK","2017/08/08 17:59:46","新北市新莊區雙鳳路106號","121.413938333333","25.0282116666667","6500500","新莊區"
"242007","173-VK","2017/08/08 17:59:47","新北市新莊區自信街75巷14號","121.455865","25.0488133333333","6500500","新莊區"
"242013","175-VK","2017/08/08 17:59:48","新北市新莊區中和街125巷6號","121.447146666667","25.0486066666667","6500500","新莊區"
"242056","176-VK","2017/08/08 17:59:45","新北市新莊區瓊林路42巷26號","121.446593333333","25.0299333333333","6500500","新莊區"
"242011","346-TH","2017/08/08 17:59:48","新北市新莊區中港路中慶巷37號","121.449326666667","25.0537133333333","6500500","新莊區"
"242034","347-TH","2017/08/08 17:59:37","新北市新莊區景德路532號","121.443836666667","25.0332766666667","6500500","新莊區"
"242017","348-TH","2017/08/08 17:59:48","新北市新莊區中和街60巷47號","121.449951666667","25.0450283333333","6500500","新莊區"
"242054","349-TH","2017/08/08 17:59:44","新北市新莊區民安西路396號","121.4286","25.0102183333333","6500500","新莊區"
"242015","350-TH","2017/08/08 17:59:57","新北市新莊區中平路132巷5號","121.445616666667","25.04673","6500500","新莊區"
"242009","351-TH","2017/08/08 17:59:38","新北市新莊區中原路191號","121.452415","25.0540183333333","6500500","新莊區"
"238015","755-BX","2017/08/08 17:59:39","新北市樹林區文德街2巷17號","121.419725","24.9917833333333","6500700","樹林區"
"238023","601-UM","2017/08/08 17:59:54","新北市樹林區龍興街32巷30號","121.401841666667","25.015485","6500700","樹林區"
"238019","599-UM","2017/08/08 17:59:49","新北市樹林區中華路61號","121.423303333333","24.98325","6500700","樹林區"
"238018","571-TV","2017/08/08 17:59:43","新北市樹林區博愛街123號","121.426","24.9906716666667","6500700","樹林區"
"238022","312-TH","2017/08/08 17:59:42","新北市樹林區太順街86巷17號","121.416453333333","24.9784666666667","6500700","樹林區"
"238021","311-TH","2017/08/08 17:59:50","新北市樹林區柑園街一段49號","121.403171666667","24.9602316666667","6500700","樹林區"
"238025","303-VK","2017/08/08 17:59:42","新北市樹林區三俊街164號","121.417181666667","25.0154666666667","6500700","樹林區"
"238017","283-BY","2017/08/08 17:59:56","新北市樹林區三德街34-4號","121.415156666667","25.013175","6500700","樹林區"
"238014","282-BY","2017/08/08 17:59:46","新北市樹林區大安路123號","121.42265","24.9972966666667","6500700","樹林區"
"238020","268-VK","2017/08/08 17:59:47","新北市樹林區三俊街201號","121.420005","25.015585","6500700","樹林區"
"238026","172-UY","2017/08/08 17:59:37","新北市樹林區中洲街30巷13弄45號","121.398355","24.9727666666667","6500700","樹林區"
"238016","169-UY","2017/08/08 17:59:37","新北市樹林區復興路372巷20號","121.415081666667","24.9862583333333","6500700","樹林區"
"239007","AAC-297","2017/08/08 17:59:45","新北市鶯歌區尖山埔路181號","121.34565","24.9506533333333","6500800","鶯歌區"
"239006","891-R6","2017/08/08 17:59:50","新北市鶯歌區鶯桃路455巷2弄2號","121.331866666667","24.965435","6500800","鶯歌區"
"239008","527-UM","2017/08/08 17:59:38","新北市鶯歌區朝陽街46巷2號","121.33731","24.977605","6500800","鶯歌區"
"239005","526-UM","2017/08/08 17:59:51","新北市鶯歌區大湖路361巷81-1號","121.332863333333","24.9738783333333","6500800","鶯歌區"
"239001","417-VK","2017/08/08 17:59:34","新北市鶯歌區中正三路106-1號","121.338091666667","24.9409233333333","6500800","鶯歌區"
"239003","360-BY","2017/08/08 17:59:43","新北市鶯歌區鶯桃路367號","121.333771666667","24.9628166666667","6500800","鶯歌區"
"239002","359-BY","2017/08/08 17:59:45","新北市鶯歌區中山路329巷49號","121.345171666667","24.9564866666667","6500800","鶯歌區"
"239004","193-VK","2017/08/08 17:59:39","新北市鶯歌區尖山路103-6號","121.348143333333","24.948745","6500800","鶯歌區"
"221008","489-VK","2017/08/08 17:59:52","新北市汐止區明峰街17號","121.634716666667","25.07146","6501100","汐止區"
"221036","130-UY","2017/08/08 17:59:44","新北市汐止區大同路三段34號","121.667081666667","25.07658","6501100","汐止區"
"221015","131-UY","2017/08/08 17:59:56","新北市汐止區長江街341號","121.667033333333","25.08191","6501100","汐止區"
"221010","269-BY","2017/08/08 17:59:45","新北市汐止區汐萬路二段222號","121.646828333333","25.0877666666667","6501100","汐止區"
"221012","278-VK","2017/08/08 17:59:47","新北市汐止區長興街二段34號","121.67334","25.0815483333333","6501100","汐止區"
"221023","279-VK","2017/08/08 02:06:46","新北市汐止區汐萬路一段256巷1號","121.651875","25.0748716666667","6501100","汐止區"
"221032","280-BY","2017/08/08 17:59:47","新北市汐止區橫科路73巷22-2號","121.619358333333","25.0515533333333","6501100","汐止區"
"221027","281-BY","2017/08/08 17:59:41","新北市汐止區大同路二段374號","121.657831666667","25.067175","6501100","汐止區"
"221038","297-VK","2017/08/08 17:59:43","新北市汐止區連興街128巷7弄12號","121.653496666667","25.061215","6501100","汐止區"
"221029","298-VK","2017/08/08 17:59:41","新北市汐止區樟樹二路329號","121.641238333333","25.07043","6501100","汐止區"
"221021","299-VK","2017/08/08 17:34:28","新北市汐止區汐萬路一段256巷1號","121.652043333333","25.0747066666667","6501100","汐止區"
"221031","353-TW","2017/08/08 17:59:46","新北市汐止區中興路39號","121.634681666667","25.062205","6501100","汐止區"
"221025","623-UM","2017/08/08 17:59:49","新北市汐止區仁愛路47號","121.659751666667","25.0632283333333","6501100","汐止區"
"221033","647-BX","2017/08/08 17:59:39","新北市汐止區合順街33號","121.620508333333","25.0431583333333","6501100","汐止區"
"221002","707-TV","2017/08/08 17:59:49","新北市汐止區中興路62號","121.635421666667","25.0614433333333","6501100","汐止區"
"221018","753-BX","2017/08/08 17:59:48","新北市汐止區忠孝東路382巷1弄4號","121.665913333333","25.0700916666667","6501100","汐止區"
"220013","295-UM","2017/08/08 13:48:42","新北市板橋區民生路二段22號","121.472998333333","25.01675","6500100","板橋區"
"220034","461-BY","2017/08/08 15:23:19","新北市板橋區華東街1-10號","121.448698333333","24.995025","6500100","板橋區"
