"lineid","car","time","location","longitude","latitude","cityid","cityname"
"234007","207-UY","2017/08/08 18:19:36","新北市永和區保生路55-1號","121.504785","25.0113083333333","6500400","永和區"
"234026","9371-KE","2017/08/08 18:19:50","新北市永和區豫溪街42巷6號","121.515433333333","25.009455","6500400","永和區"
"234010","9373-KE","2017/08/08 18:19:42","新北市永和區保福路二段158巷1號","121.50914","25.0150733333333","6500400","永和區"
"249005","172-UM","2017/08/08 18:19:51","新北市八里區荖阡坑路15-4號","121.399783333333","25.1412416666667","6502300","八里區"
"249001","173-UM","2017/08/08 18:19:41","新北市八里區龍米路一段172號","121.45222","25.126805","6502300","八里區"
"249004","303-UY","2017/08/08 18:19:49","新北市八里區文心街37號","121.428661666667","25.160915","6502300","八里區"
"249002","305-UY","2017/08/08 18:19:39","新北市八里區龍形三街9巷2號","121.450635","25.1318383333333","6502300","八里區"
"249003","593-UM","2017/08/08 18:19:47","新北市八里區松子腳2號","121.403186666667","25.14473","6502300","八里區"
"248014","025-BX","2017/08/08 18:19:34","新北市五股區自強路19巷11號","121.434648333333","25.0737","6501500","五股區"
"248016","026-BX","2017/08/08 18:19:50","新北市五股區成泰路三段477巷18號","121.44984","25.0988916666667","6501500","五股區"
"248006","077-UY","2017/08/08 18:19:49","新北市五股區中興路一段152號","121.464541666667","25.0738066666667","6501500","五股區"
"248008","095-VK","2017/08/08 18:19:36","新北市五股區更洲路32巷8弄14號","121.459263333333","25.0796433333333","6501500","五股區"
"248020","225-UY","2017/08/08 18:19:51","新北市五股區孝義路47巷23號","121.449705","25.10971","6501500","五股區"
"248004","677-BX","2017/08/08 18:19:38","新北市五股區成泰路二段87號","121.43826","25.0841366666667","6501500","五股區"
"248002","678-BX","2017/08/08 18:19:47","新北市五股區西雲路50號","121.443518333333","25.0909716666667","6501500","五股區"
"248010","682-TV","2017/08/08 18:19:35","新北市五股區成泰路一段139巷2弄2號","121.435123333333","25.0729666666667","6501500","五股區"
"232011","375-UM","2017/08/08 18:16:27","新北市坪林區坪雙路一段43號","121.711746666667","24.942465","6502000","坪林區"
"244013","069-UM","2017/08/08 18:19:40","新北市林口區林口路50號","121.390653333333","25.0789733333333","6501700","林口區"
"244007","080-UY","2017/08/08 18:19:32","新北市林口區林口路150號","121.388016666667","25.08213","6501700","林口區"
"244009","410-SL","2017/08/08 18:19:40","新北市林口區文化二路二段126號","121.379995","25.0829","6501700","林口區"
"244023","483-VK","2017/08/08 18:19:44","新北市林口區仁愛路二段18號","121.385635","25.0761183333333","6501700","林口區"
"244017","485-VK","2017/08/08 18:19:35","新北市林口區八德路20巷5號","121.367796666667","25.0675916666667","6501700","林口區"
"244011","701-TV","2017/08/08 18:19:37","新北市林口區仁愛路一段272巷14號","121.393453333333","25.0762183333333","6501700","林口區"
"244025","837-TS","2017/08/08 18:19:41","新北市林口區文化北路一段192-100號","121.357166666667","25.07057","6501700","林口區"
"244021","838-TS","2017/08/08 18:19:42","新北市林口區自強二街1-5號","121.397385","25.078555","6501700","林口區"
"243013","AAD-798","2017/08/08 18:19:35","新北市泰山區南林路93號","121.415496666667","25.0511633333333","6501600","泰山區"
"222002","659-BX","2017/08/08 18:19:42","新北市深坑區雲鄉路3-1號","121.621086666667","25.0001916666667","6501800","深坑區"
"222001","696-SL","2017/08/08 18:19:47","新北市深坑區北深路二段66號","121.61895","25.0041016666667","6501800","深坑區"
"231056","0291-UT","2017/08/08 18:19:40","新北市新店區環河路29巷1號","121.536968333333","24.9613633333333","6500600","新店區"
"231059","046-UY","2017/08/08 18:19:42","新北市新店區安華路28-1號","121.519691666667","24.9608116666667","6500600","新店區"
"231061","047-UY","2017/08/08 18:19:32","新北市新店區安華路28-1號","121.519265","24.961015","6500600","新店區"
"231060","106-UY","2017/08/08 18:19:46","新北市新店區安華路28-1號","121.519613333333","24.9607116666667","6500600","新店區"
"231051","107-UY","2017/08/08 18:19:46","新北市新店區安康路一段355-3號","121.519465","24.9616333333333","6500600","新店區"
"231048","108-UY","2017/08/08 16:27:16","新北市新店區安華路28-1號","121.519391666667","24.9609833333333","6500600","新店區"
"231053","187-VK","2017/08/08 18:19:33","新北市新店區安康路一段92號","121.527965","24.9619733333333","6500600","新店區"
"231057","256-BX","2017/08/08 18:19:38","新北市新店區安華路28-1號","121.519745","24.961165","6500600","新店區"
"231046","278-BY","2017/08/08 18:19:50","新北市新店區直潭七街60號","121.532276666667","24.939895","6500600","新店區"
"231050","AAD-862","2017/08/08 18:19:34","新北市新店區安華路28-1號","121.520045","24.9611533333333","6500600","新店區"
"231058","3712-VJ","2017/08/08 18:19:44","新北市新店區秀山路14號","121.53281","24.9602283333333","6500600","新店區"
"231055","3713-VJ","2017/08/08 18:19:42","新北市新店區安康路一段35號","121.531685","24.9607483333333","6500600","新店區"
"231067","4772-VM","2017/08/08 18:19:51","新北市新店區安華路28-1號","121.519196666667","24.960625","6500600","新店區"
"231065","512-UM","2017/08/08 18:19:46","新北市新店區安華路28-1號","121.519175","24.961355","6500600","新店區"
"231054","513-UM","2017/08/08 18:19:50","新北市新店區安華路28-1號","121.519801666667","24.96113","6500600","新店區"
"231045","617-UM","2017/08/08 18:19:50","新北市新店區安華路28-1號","121.519523333333","24.9608633333333","6500600","新店區"
"231040","619-UM","2017/08/08 18:19:40","新北市新店區安華路28-1號","121.519688333333","24.9606666666667","6500600","新店區"
"231042","641-BX","2017/08/08 18:19:44","新北市新店區安華路1-1號","121.519495","24.9603916666667","6500600","新店區"
"231049","719-UM","2017/08/08 16:26:20","新北市新店區安華路28-1號","121.519468333333","24.9611683333333","6500600","新店區"
"231062","720-UM","2017/08/08 18:19:37","新北市新店區安華路28-1號","121.519248333333","24.96114","6500600","新店區"
"231044","897-TW","2017/08/08 18:19:51","新北市新店區安華路28-1號","121.519763333333","24.9607866666667","6500600","新店區"
"231043","899-TW","2017/08/08 18:19:40","新北市新店區安華路28-1號","121.519493333333","24.960825","6500600","新店區"
"231066","AKT-0513","2017/08/08 18:19:40","新北市新店區安華路1-1號","121.519596666667","24.9604033333333","6500600","新店區"
"241033","AAC-255","2017/08/08 18:19:35","新北市三重區光復路一段68巷10號","121.471511666667","25.0492666666667","6500200","三重區"
"235066","003-UY","2017/08/08 18:19:49","新北市中和區中山路二段120號","121.502703333333","25.0037016666667","6500300","中和區"
"235064","005-UY","2017/08/08 18:19:44","新北市中和區中正路166號","121.498456666667","24.99385","6500300","中和區"
"235056","096-UM","2017/08/08 18:19:42","新北市中和區新民街5號","121.482436666667","25.0059016666667","6500300","中和區"
"235039","097-UM","2017/08/08 18:19:36","新北市中和區中正路271號","121.495793333333","24.993745","6500300","中和區"
"235065","098-UM","2017/08/08 18:19:39","新北市中和區莊敬路49巷18號","121.501648333333","25.0061666666667","6500300","中和區"
"235040","150-BY","2017/08/08 18:19:42","新北市中和區景平路357號","121.504653333333","24.9933866666667","6500300","中和區"
"235058","151-BY","2017/08/08 18:19:45","新北市中和區圓通路367巷58號","121.492226666667","24.984755","6500300","中和區"
"235038","185-VK","2017/08/08 18:19:44","新北市中和區大智街57號","121.521195","24.9920883333333","6500300","中和區"
"235049","186-VK","2017/08/08 18:19:37","新北市中和區員山路36巷16-2號","121.485361666667","24.9917533333333","6500300","中和區"
"235067","255-BX","2017/08/08 18:19:50","新北市中和區和城路一段271巷1號","121.485551666667","24.991825","6500300","中和區"
"235072","301-VK","2017/08/08 18:19:47","新北市中和區中正路589巷9號","121.485908333333","24.9940316666667","6500300","中和區"
"235043","352-BY","2017/08/08 18:19:44","新北市中和區景平路369號","121.50434","24.9934916666667","6500300","中和區"
"235051","376-QA","2017/08/08 18:19:53","新北市中和區信義街2-8號","121.510786666667","24.98981","6500300","中和區"
"235068","377-QA","2017/08/08 18:19:44","新北市中和區員山路36巷16-3號","121.485141666667","24.9911616666667","6500300","中和區"
"235061","378-QA","2017/08/08 18:19:45","新北市中和區國光街215巷26號","121.467163333333","25.000275","6500300","中和區"
"235050","4979-A6","2017/08/08 18:12:54","新北市中和區中正路166號","121.49844","24.9941266666667","6500300","中和區"
"235069","4980-A6","2017/08/08 18:19:42","新北市中和區連城路127巷29號","121.497238333333","24.9975833333333","6500300","中和區"
"235070","558-UM","2017/08/08 15:34:11","新北市中和區員山路36巷16-5號","121.48486","24.9920583333333","6500300","中和區"
"235045","565-BX","2017/08/08 18:19:52","新北市中和區景安路200巷2弄2號","121.503931666667","24.991425","6500300","中和區"
"235054","640-BX","2017/08/08 18:19:36","新北市中和區莒光路222-1號","121.46939","24.9951566666667","6500300","中和區"
"235047","732-UM","2017/08/08 18:19:34","新北市中和區錦和路350-1號","121.490576666667","24.9935833333333","6500300","中和區"
"235062","800-TS","2017/08/08 18:19:40","新北市中和區景平路989巷11號","121.49552","25.005235","6500300","中和區"
"235057","801-TS","2017/08/08 18:19:44","新北市中和區員山路105號","121.48088","24.9945316666667","6500300","中和區"
"235052","805-TS","2017/08/08 18:19:46","新北市中和區中正路13號","121.503131666667","24.9933783333333","6500300","中和區"
"235048","896-TW","2017/08/08 18:19:36","新北市中和區和城路一段271巷1號","121.485371666667","24.9919483333333","6500300","中和區"
"235053","900-TW","2017/08/08 18:19:44","新北市中和區員山路36巷13號","121.48425","24.9910133333333","6500300","中和區"
"235037","AAC-213","2017/08/08 18:19:39","新北市中和區景平路276-1號","121.51405","24.9923833333333","6500300","中和區"
"235059","AAC-215","2017/08/08 18:19:50","新北市中和區員山路36巷16-3號","121.485088333333","24.99144","6500300","中和區"
"226004","205-ST","2017/08/08 18:19:48","新北市平溪區薯榔里雙菁路93號","121.714155","25.0212633333333","6502400","平溪區"
"228001","212-TW","2017/08/08 18:19:46","新北市貢寮區真理里新港街26巷55弄2-1號","121.927393333333","25.0528733333333","6502600","貢寮區"
"228002","663-BX","2017/08/08 18:19:35","新北市貢寮區福連里馬崗街1號","121.99636","25.0167433333333","6502600","貢寮區"
"228003","828-UM","2017/08/08 18:19:35","新北市貢寮區和美里和美街63號","121.921943333333","25.0714283333333","6502600","貢寮區"
"224010","AGQ-8101","2017/08/08 17:59:14","新北市瑞芳區山尖路172-1號","121.848201666667","25.1119716666667","6501200","瑞芳區"
"224006","676-BX","2017/08/08 18:19:41","新北市瑞芳區民權街3-2號","121.808228333333","25.1074933333333","6501200","瑞芳區"
"224002","639-TC","2017/08/08 18:19:38","新北市瑞芳區三爪子坑路91巷3號","121.811636666667","25.1072433333333","6501200","瑞芳區"
"224011","420-VK","2017/08/08 18:18:31","新北市瑞芳區崙頂路1-6號","121.847046666667","25.10473","6501200","瑞芳區"
"224009","285-BY","2017/08/08 18:19:51","新北市瑞芳區金光路95號","121.854538333333","25.1063383333333","6501200","瑞芳區"
"224008","275-VK","2017/08/08 18:19:39","新北市瑞芳區逢甲路84號","121.809565","25.10871","6501200","瑞芳區"
"224007","273-VK","2017/08/08 18:19:34","新北市瑞芳區大埔路67巷5-1號","121.764258333333","25.1015966666667","6501200","瑞芳區"
"224005","271-BY","2017/08/08 18:19:50","新北市瑞芳區建基路二段55號","121.806765","25.133555","6501200","瑞芳區"
"227003","642-TC","2017/08/08 18:19:40","新北市雙溪區共和里中山路2號","121.863801666667","25.0338066666667","6502500","雙溪區"
"227009","400-TW","2017/08/08 18:19:49","新北市雙溪區牡丹里牡丹73號","121.851721666667","25.0593433333333","6502500","雙溪區"
"253006","032-BX","2017/08/08 18:19:46","新北市石門區老梅路78號","121.547015","25.2892066666667","6502200","石門區"
"253005","295-VK","2017/08/08 18:19:44","新北市石門區中央路24號","121.56776","25.29212","6502200","石門區"
"253001","4710-YM","2017/08/08 18:19:45","新北市石門區中央路1-13號","121.561568333333","25.2910783333333","6502200","石門區"
"208002","742-BX","2017/08/08 18:19:36","新北市金山區清泉里清水路16巷12號","121.634523333333","25.2300083333333","6502700","金山區"
"208003","665-BX","2017/08/08 18:19:55","新北市金山區民生路51巷13號","121.642441666667","25.2212366666667","6502700","金山區"
"208001","761-BX","2017/08/08 18:19:51","新北市金山區中山路69號","121.641005","25.2177016666667","6502700","金山區"
"251004","009-UM","2017/08/08 18:19:45","新北市淡水區民族路31巷6號","121.46262","25.13645","6501000","淡水區"
"251005","010-UM","2017/08/08 18:19:35","新北市淡水區水源街一段122巷39號","121.447106666667","25.170325","6501000","淡水區"
"251014","180-VK","2017/08/08 18:19:46","新北市淡水區崙頂13號","121.491358333333","25.21981","6501000","淡水區"
"251008","181-VK","2017/08/08 18:19:39","新北市淡水區水源街二段206號","121.45897","25.17652","6501000","淡水區"
"251010","413-VK","2017/08/08 18:19:53","新北市淡水區淡海路180巷12-3號","121.420453333333","25.1847366666667","6501000","淡水區"
"251012","441-VK","2017/08/08 18:19:38","新北市淡水區北新路二段77-5號","121.48035","25.1855966666667","6501000","淡水區"
"251016","442-VK","2017/08/08 18:19:45","新北市淡水區淡金路三段198號","121.448881666667","25.2036283333333","6501000","淡水區"
"251001","559-UM","2017/08/08 18:19:39","新北市淡水區自強路116-9號","121.463266666667","25.132185","6501000","淡水區"
"251006","561-UM","2017/08/08 18:19:52","新北市淡水區新民街30號","121.439766666667","25.176065","6501000","淡水區"
"251011","650-BX","2017/08/08 18:19:44","新北市淡水區坪頂路51巷2號","121.458055","25.1625833333333","6501000","淡水區"
"251002","672-BX","2017/08/08 18:19:43","新北市淡水區中正東路一段79號","121.45283","25.162055","6501000","淡水區"
"251003","766-UM","2017/08/08 18:19:44","新北市淡水區北新路180號","121.449371666667","25.1787883333333","6501000","淡水區"
"207003","550-UM","2017/08/08 18:19:50","新北市萬里區野柳里港東路86號","121.688116666667","25.2039416666667","6502800","萬里區"
"207004","225-TW","2017/08/08 18:19:41","新北市萬里區中幅里中福路39-1號","121.67742","25.165995","6502800","萬里區"
"252002","178-VK","2017/08/08 18:19:41","新北市三芝區中山路二段39號","121.502958333333","25.2551016666667","6502100","三芝區"
"252003","249-BX","2017/08/08 18:19:50","新北市三芝區錫板里海尾14-32號","121.477685","25.2596533333333","6502100","三芝區"
"252001","292-VK","2017/08/08 18:19:39","新北市三芝區中興街二段2號","121.498388333333","25.256705","6502100","三芝區"
"237004","078-UY","2017/08/08 18:19:35","新北市三峽區五寮104號","121.36302","24.860995","6500900","三峽區"
"237007","153-BY","2017/08/08 18:19:40","新北市三峽區中正路二段472號","121.363541666667","24.9071016666667","6500900","三峽區"
"237009","210-TH","2017/08/08 18:19:48","新北市三峽區大勇路36巷31號","121.365108333333","24.9369266666667","6500900","三峽區"
"237013","252-BX","2017/08/08 18:19:35","新北市三峽區永安街45號","121.376171666667","24.9301516666667","6500900","三峽區"
"237012","275-BY","2017/08/08 18:19:49","新北市三峽區民生街1巷3-5號","121.377098333333","24.9364483333333","6500900","三峽區"
"237008","302-VK","2017/08/08 18:19:53","新北市三峽區白雞68-85號","121.392631666667","24.9086083333333","6500900","三峽區"
"237014","433-BY","2017/08/08 18:19:50","新北市三峽區復興路30-4號","121.374213333333","24.93625","6500900","三峽區"
"237006","5529-G3","2017/08/08 18:19:48","新北市三峽區溪東路240號","121.408356666667","24.9316533333333","6500900","三峽區"
"237011","572-TV","2017/08/08 18:09:47","新北市三峽區橫溪路3號","121.396075","24.9361266666667","6500900","三峽區"
"237016","649-BX","2017/08/08 18:19:34","新北市三峽區紫微路23號","121.422756666667","24.9199866666667","6500900","三峽區"
"237010","706-TV","2017/08/08 18:19:49","新北市三峽區民權街145號","121.368746666667","24.9317883333333","6500900","三峽區"
"237005","AKY-6261","2017/08/08 18:19:42","新北市三峽區長福街10號","121.370311666667","24.9337383333333","6500900","三峽區"
"236070","105-UM","2017/08/08 18:19:34","新北市土城區永豐路149-2號","121.467186666667","24.982605","6501300","土城區"
"236043","107-UM","2017/08/08 18:19:41","新北市土城區裕生路21巷6弄14號","121.44863","24.98678","6501300","土城區"
"236079","166-UM","2017/08/08 18:19:51","新北市土城區永安街115巷22號","121.429038333333","24.9633333333333","6501300","土城區"
"236031","253-BX","2017/08/08 18:19:36","新北市土城區順風路41號","121.440758333333","24.9767716666667","6501300","土城區"
"236027","269-VK","2017/08/08 18:19:44","新北市土城區承天路18號","121.439445","24.9634233333333","6501300","土城區"
"236015","270-VK","2017/08/08 18:19:39","新北市土城區立清街69號","121.46043","24.9872566666667","6501300","土城區"
"236038","271-VK","2017/08/08 18:19:50","新北市土城區青雲路483巷10弄20號","121.459313333333","24.9731366666667","6501300","土城區"
"236023","401-BY","2017/08/08 18:19:54","新北市土城區中央路二段280號","121.440728333333","24.9741483333333","6501300","土城區"
"236063","752-BX","2017/08/08 18:19:42","新北市土城區金城路三段198號","121.468438333333","24.9880883333333","6501300","土城區"
"236059","912-UM","2017/08/08 18:19:48","新北市土城區中央路四段207號","121.414058333333","24.9560666666667","6501300","土城區"
"236049","913-UM","2017/08/08 18:19:52","新北市土城區青雲路322巷2弄2號","121.45845","24.9771616666667","6501300","土城區"
"236055","AAC-216","2017/08/08 18:19:40","新北市土城區中華路二段92號","121.438228333333","24.974745","6501300","土城區"
"242021","AAC-296","2017/08/08 18:19:40","新北市新莊區新興街21巷2號","121.450625","25.0371766666667","6500500","新莊區"
"242029","986-R7","2017/08/08 18:19:45","新北市新莊區幸福路856號","121.443885","25.0490216666667","6500500","新莊區"
"242025","615-BX","2017/08/08 18:19:48","新北市新莊區五工路65號","121.458908333333","25.06251","6500500","新莊區"
"242023","613-BX","2017/08/08 18:19:34","新北市新莊區新泰路357巷3弄57號","121.442121666667","25.0396883333333","6500500","新莊區"
"242027","612-BX","2017/08/08 18:19:52","新北市新莊區幸福路767號","121.447046666667","25.0490833333333","6500500","新莊區"
"242037","566-BX","2017/08/08 18:19:48","新北市新莊區後港一路31巷3弄2號","121.425076666667","25.0267233333333","6500500","新莊區"
"242042","497-BY","2017/08/08 18:19:49","新北市新莊區雙鳳路116巷15弄1號","121.413518333333","25.029005","6500500","新莊區"
"242046","441-UM","2017/08/08 18:19:44","新北市新莊區福營路373號","121.423433333333","25.02755","6500500","新莊區"
"242032","415-TV","2017/08/08 18:19:48","新北市新莊區新泰路255巷75號","121.443158333333","25.0394133333333","6500500","新莊區"
"242002","413-TV","2017/08/08 18:19:39","新北市新莊區碧江街33號","121.452111666667","25.0330066666667","6500500","新莊區"
"242061","362-BY","2017/08/08 18:19:40","新北市新莊區新樹路18號","121.438551666667","25.029725","6500500","新莊區"
"242058","353-BY","2017/08/08 18:19:41","新北市新莊區新北大道七段850號","121.413831666667","25.02356","6500500","新莊區"
"242044","172-VK","2017/08/08 18:19:46","新北市新莊區鳳山街56巷35號","121.413668333333","25.0267133333333","6500500","新莊區"
"242007","173-VK","2017/08/08 18:19:26","新北市新莊區中華路二段58號","121.454271666667","25.0461033333333","6500500","新莊區"
"242056","176-VK","2017/08/08 18:19:27","新北市新莊區瓊林路47-1號","121.44581","25.0282683333333","6500500","新莊區"
"242011","346-TH","2017/08/08 18:19:43","新北市新莊區中榮街49巷1號","121.449511666667","25.0524666666667","6500500","新莊區"
"242034","347-TH","2017/08/08 18:19:37","新北市新莊區景德路245號","121.448565","25.0336233333333","6500500","新莊區"
"242054","349-TH","2017/08/08 18:19:44","新北市新莊區民安西路410巷8弄1號","121.428386666667","25.00944","6500500","新莊區"
"242015","350-TH","2017/08/08 18:19:37","新北市新莊區中平路78號","121.444821666667","25.04466","6500500","新莊區"
"242009","351-TH","2017/08/08 18:19:38","新北市新莊區幸福路600號","121.45301","25.0493416666667","6500500","新莊區"
"238015","755-BX","2017/08/08 18:19:39","新北市樹林區文化街112巷55號","121.417753333333","24.9911716666667","6500700","樹林區"
"238023","601-UM","2017/08/08 18:19:34","新北市樹林區龍興街31巷27號","121.403943333333","25.0161783333333","6500700","樹林區"
"238019","599-UM","2017/08/08 18:19:49","新北市樹林區八德街119號","121.42153","24.97993","6500700","樹林區"
"238018","571-TV","2017/08/08 18:19:43","新北市板橋區大觀路三段275號","121.428478333333","24.992345","6500700","樹林區"
"238024","5061-A6","2017/08/08 18:19:40","新北市樹林區中山路一段183-1號","121.421323333333","24.98794","6500700","樹林區"
"238022","312-TH","2017/08/08 18:19:42","新北市樹林區太順街111號","121.414553333333","24.9769683333333","6500700","樹林區"
"238021","311-TH","2017/08/08 18:19:50","新北市樹林區柑園街一段343號","121.39084","24.9564216666667","6500700","樹林區"
"238025","303-VK","2017/08/08 18:19:42","新北市樹林區保安街一段53號","121.42369","24.9947933333333","6500700","樹林區"
"238017","283-BY","2017/08/08 18:19:41","新北市樹林區保安街二段184號","121.412593333333","25.0102233333333","6500700","樹林區"
"238014","282-BY","2017/08/08 18:19:46","新北市樹林區潭興街101號","121.424678333333","24.9985133333333","6500700","樹林區"
"238020","268-VK","2017/08/08 18:19:46","新北市樹林區三俊街65巷40弄20號","121.41434","25.0175816666667","6500700","樹林區"
"238026","172-UY","2017/08/08 18:19:37","新北市樹林區佳園路一段103號","121.39379","24.9692","6500700","樹林區"
"238016","169-UY","2017/08/08 18:19:37","新北市樹林區文化街27號","121.4192","24.9876616666667","6500700","樹林區"
"239007","AAC-297","2017/08/08 18:19:45","新北市鶯歌區建國路278號","121.346961666667","24.953275","6500800","鶯歌區"
"239006","891-R6","2017/08/08 18:19:51","新北市鶯歌區鶯桃路294-1號","121.334795","24.9603333333333","6500800","鶯歌區"
"239008","527-UM","2017/08/08 18:19:38","新北市鶯歌區國際一路179號","121.336225","24.9765366666667","6500800","鶯歌區"
"239005","526-UM","2017/08/08 18:19:51","新北市鶯歌區鶯桃路668巷1-1號","121.32893","24.9697616666667","6500800","鶯歌區"
"239001","417-VK","2017/08/08 18:19:34","新北市鶯歌區國中街178號","121.338275","24.9392066666667","6500800","鶯歌區"
"239003","360-BY","2017/08/08 18:19:43","新北市鶯歌區福安街13巷1號","121.33551","24.965265","6500800","鶯歌區"
"239002","359-BY","2017/08/08 18:19:45","新北市鶯歌區建國路154號","121.350795","24.9538483333333","6500800","鶯歌區"
"239004","193-VK","2017/08/08 18:19:39","新北市鶯歌區尖山路242號","121.342905","24.9467366666667","6500800","鶯歌區"
"221008","489-VK","2017/08/08 18:19:52","新北市汐止區康寧街901號","121.651476666667","25.0750616666667","6501100","汐止區"
"221036","130-UY","2017/08/08 18:19:47","新北市汐止區長安路87號","121.669496666667","25.0783983333333","6501100","汐止區"
"221015","131-UY","2017/08/08 18:19:36","新北市汐止區鄉長路二段23巷16號","121.667691666667","25.0830183333333","6501100","汐止區"
"221010","269-BY","2017/08/08 18:19:36","新北市汐止區祥雲街18巷17號","121.647016666667","25.0894716666667","6501100","汐止區"
"221012","278-VK","2017/08/08 18:19:47","新北市汐止區保長路33號","121.672601666667","25.0795516666667","6501100","汐止區"
"221023","279-VK","2017/08/08 02:06:46","新北市汐止區汐萬路一段256巷1號","121.651875","25.0748716666667","6501100","汐止區"
"221032","280-BY","2017/08/08 18:19:47","新北市汐止區民權街二段109巷34號","121.619975","25.0462166666667","6501100","汐止區"
"221027","281-BY","2017/08/08 18:19:41","新北市汐止區和平街9號","121.663145","25.070725","6501100","汐止區"
"221038","297-VK","2017/08/08 18:19:42","新北市汐止區忠孝東路282號","121.663876666667","25.0681116666667","6501100","汐止區"
"221029","298-VK","2017/08/08 18:19:41","新北市汐止區樟樹二路330巷68號","121.642948333333","25.0698016666667","6501100","汐止區"
"221021","299-VK","2017/08/08 17:34:28","新北市汐止區汐萬路一段256巷1號","121.652043333333","25.0747066666667","6501100","汐止區"
"221031","353-TW","2017/08/08 18:19:46","新北市汐止區中興路152-2號","121.632466666667","25.0649116666667","6501100","汐止區"
"221035","622-UM","2017/08/08 18:19:44","新北市汐止區大同路二段181號","121.6521","25.06425","6501100","汐止區"
"221025","623-UM","2017/08/08 18:19:49","新北市汐止區勤進路16號","121.659561666667","25.0616316666667","6501100","汐止區"
"221033","647-BX","2017/08/08 18:19:39","新北市汐止區宜興街57號","121.622903333333","25.04271","6501100","汐止區"
"221002","707-TV","2017/08/08 18:19:40","新北市汐止區福德一路213巷35號","121.635766666667","25.0648133333333","6501100","汐止區"
"221018","753-BX","2017/08/08 18:19:48","新北市汐止區茄苳路72巷5號","121.666653333333","25.0703316666667","6501100","汐止區"
"220056","276-BY","2017/08/08 18:19:41","新北市板橋區民生路二段36-1號","121.472266666667","25.0167083333333","6500100","板橋區"
"220013","295-UM","2017/08/08 13:48:42","新北市板橋區民生路二段22號","121.472998333333","25.01675","6500100","板橋區"
"220062","303-R5","2017/08/08 18:19:46","新北市板橋區民生路二段36-1號","121.472648333333","25.0167666666667","6500100","板橋區"
"220034","461-BY","2017/08/08 15:23:19","新北市板橋區華東街1-10號","121.448698333333","24.995025","6500100","板橋區"
