"lineid","car","time","location","longitude","latitude","cityid","cityname"
"234007","207-UY","2017/08/08 18:29:36","新北市永和區環河西路二段229巷5號","121.501471666667","25.0099066666667","6500400","永和區"
"234081","298-R6","2017/08/08 18:29:40","新北市永和區豫溪街217巷3號","121.525203333333","25.0098416666667","6500400","永和區"
"234017","745-BX","2017/08/08 18:29:44","新北市永和區福和路1號","121.526573333333","25.009785","6500400","永和區"
"234030","746-BX","2017/08/08 18:29:45","新北市永和區福和路1號","121.52643","25.0096583333333","6500400","永和區"
"234026","9371-KE","2017/08/08 18:29:33","新北市永和區中山路一段98-2號","121.51146","25.0107583333333","6500400","永和區"
"234010","9373-KE","2017/08/08 18:29:43","新北市永和區文化路113巷19號","121.513225","25.01402","6500400","永和區"
"249005","172-UM","2017/08/08 18:29:32","新北市八里區中華路三段89-1號","121.393621666667","25.1397483333333","6502300","八里區"
"249001","173-UM","2017/08/08 18:29:42","新北市八里區龍米路一段140號","121.452898333333","25.1256066666667","6502300","八里區"
"249004","303-UY","2017/08/08 18:29:49","新北市八里區忠孝路53號","121.428168333333","25.1601766666667","6502300","八里區"
"249002","305-UY","2017/08/08 18:29:39","新北市八里區龍形三街17號","121.448868333333","25.1316583333333","6502300","八里區"
"248014","025-BX","2017/08/08 18:29:34","新北市五股區自強路130號","121.432286666667","25.0714933333333","6501500","五股區"
"248016","026-BX","2017/08/08 18:29:50","新北市五股區凌雲路一段83巷22弄1號","121.449881666667","25.1007516666667","6501500","五股區"
"248006","077-UY","2017/08/08 18:29:41","新北市五股區四維路38號","121.467255","25.07164","6501500","五股區"
"248008","095-VK","2017/08/08 18:29:36","新北市五股區中興路二段78-5號","121.46175","25.07845","6501500","五股區"
"248020","225-UY","2017/08/08 18:29:38","新北市五股區天乙路116號","121.447148333333","25.113885","6501500","五股區"
"248012","247-BX","2017/08/08 18:29:45","新北市五股區御成路140號","121.441028333333","25.0943166666667","6501500","五股區"
"248004","677-BX","2017/08/08 18:29:39","新北市五股區工商路130號","121.43603","25.086055","6501500","五股區"
"248002","678-BX","2017/08/08 18:29:47","新北市五股區西雲路116-6號","121.444698333333","25.0936116666667","6501500","五股區"
"248010","682-TV","2017/08/08 18:29:35","新北市五股區水碓路16巷3-1號","121.433795","25.0727516666667","6501500","五股區"
"232011","375-UM","2017/08/08 18:16:27","新北市坪林區坪雙路一段43號","121.711746666667","24.942465","6502000","坪林區"
"244013","069-UM","2017/08/08 18:29:40","新北市林口區佳林路101巷15號","121.386923333333","25.0800266666667","6501700","林口區"
"244007","080-UY","2017/08/08 18:29:52","新北市林口區後湖13-1號","121.388051666667","25.0981883333333","6501700","林口區"
"244009","410-SL","2017/08/08 18:29:40","新北市林口區文林一街115巷18號","121.378901666667","25.0876016666667","6501700","林口區"
"244023","483-VK","2017/08/08 18:29:41","新北市林口區四維路251號","121.381436666667","25.0747616666667","6501700","林口區"
"244017","485-VK","2017/08/08 18:29:35","新北市林口區八德路76號","121.365148333333","25.065535","6501700","林口區"
"244011","701-TV","2017/08/08 18:29:37","新北市林口區林口路31號","121.39082","25.0785916666667","6501700","林口區"
"244025","837-TS","2017/08/08 18:29:38","新北市林口區南勢六街81巷16號","121.354378333333","25.0720183333333","6501700","林口區"
"244021","838-TS","2017/08/08 18:29:42","新北市林口區自強三街25號","121.398091666667","25.0774883333333","6501700","林口區"
"243013","AAD-798","2017/08/08 18:29:35","新北市泰山區錢厝坑13號","121.416306666667","25.03634","6501600","泰山區"
"243012","646-TV","2017/08/08 18:29:49","新北市泰山區忠孝街14號","121.427543333333","25.06488","6501600","泰山區"
"222002","659-BX","2017/08/08 18:29:42","新北市深坑區雲鄉路150號","121.623246666667","24.9979616666667","6501800","深坑區"
"222001","696-SL","2017/08/08 18:29:47","新北市深坑區北深路一段199號","121.631063333333","25.00983","6501800","深坑區"
"231056","0291-UT","2017/08/08 18:29:40","新北市新店區二十張路139-1號","121.53541","24.978995","6500600","新店區"
"231059","046-UY","2017/08/08 18:29:42","新北市新店區安華路28-1號","121.519676666667","24.960885","6500600","新店區"
"231061","047-UY","2017/08/08 18:29:52","新北市新店區安華路28-1號","121.519236666667","24.960965","6500600","新店區"
"231060","106-UY","2017/08/08 18:29:46","新北市新店區安華路28-1號","121.519643333333","24.9607033333333","6500600","新店區"
"231051","107-UY","2017/08/08 18:29:46","新北市新店區安華路28-1號","121.519406666667","24.9613683333333","6500600","新店區"
"231048","108-UY","2017/08/08 16:27:16","新北市新店區安華路28-1號","121.519391666667","24.9609833333333","6500600","新店區"
"231053","187-VK","2017/08/08 18:29:42","新北市新店區新烏路一段24號","121.546531666667","24.951105","6500600","新店區"
"231057","256-BX","2017/08/08 18:29:38","新北市新店區光明街1-1號","121.538035","24.959115","6500600","新店區"
"231063","268-BY","2017/08/08 18:29:40","新北市新店區安華路1-1號","121.519446666667","24.9605216666667","6500600","新店區"
"231046","278-BY","2017/08/08 18:29:31","新北市新店區直潭七街60號","121.532268333333","24.9398966666667","6500600","新店區"
"231050","AAD-862","2017/08/08 18:29:34","新北市新店區安華路28-1號","121.520046666667","24.9612033333333","6500600","新店區"
"231058","3712-VJ","2017/08/08 18:29:44","新北市新店區國校路2巷2號","121.537955","24.9566583333333","6500600","新店區"
"231055","3713-VJ","2017/08/08 18:29:42","新北市新店區北新路二段29巷1弄20號","121.541993333333","24.97228","6500600","新店區"
"231067","4772-VM","2017/08/08 18:29:51","新北市新店區安華路28-1號","121.519216666667","24.9606083333333","6500600","新店區"
"231065","512-UM","2017/08/08 18:29:46","新北市新店區安華路28-1號","121.5192","24.9612833333333","6500600","新店區"
"231054","513-UM","2017/08/08 18:29:50","新北市新店區安華路28-1號","121.519615","24.961045","6500600","新店區"
"231045","617-UM","2017/08/08 18:29:50","新北市新店區安華路28-1號","121.519566666667","24.96093","6500600","新店區"
"231040","619-UM","2017/08/08 18:29:40","新北市新店區安華路28-1號","121.519605","24.9607816666667","6500600","新店區"
"231042","641-BX","2017/08/08 18:29:44","新北市新店區安華路1-1號","121.519535","24.96045","6500600","新店區"
"231049","719-UM","2017/08/08 18:29:52","新北市新店區安華路28-1號","121.519608333333","24.9613316666667","6500600","新店區"
"231062","720-UM","2017/08/08 18:29:37","新北市新店區安華路28-1號","121.519231666667","24.9611533333333","6500600","新店區"
"231044","897-TW","2017/08/08 18:29:31","新北市新店區安華路28-1號","121.519791666667","24.9607116666667","6500600","新店區"
"231043","899-TW","2017/08/08 18:29:40","新北市新店區安華路28-1號","121.519336666667","24.9608516666667","6500600","新店區"
"231066","AKT-0513","2017/08/08 18:29:40","新北市新店區安華路1-1號","121.51959","24.9604783333333","6500600","新店區"
"235066","003-UY","2017/08/08 18:29:49","新北市中和區中山路二段123號","121.502628333333","25.00349","6500300","中和區"
"235064","005-UY","2017/08/08 18:29:25","新北市中和區圓通路145巷9弄3號","121.49864","24.9946766666667","6500300","中和區"
"235063","006-UY","2017/08/08 18:29:51","新北市中和區錦和路216號","121.490385","24.9942866666667","6500300","中和區"
"235056","096-UM","2017/08/08 18:29:42","新北市中和區員山路611巷1號","121.477943333333","25.0112983333333","6500300","中和區"
"235039","097-UM","2017/08/08 18:29:36","新北市中和區宜安路60號","121.511603333333","24.996945","6500300","中和區"
"235065","098-UM","2017/08/08 18:29:39","新北市中和區莊敬路49巷18號","121.50165","25.0061333333333","6500300","中和區"
"235040","150-BY","2017/08/08 18:29:42","新北市中和區安平路38號","121.509873333333","24.9949866666667","6500300","中和區"
"235058","151-BY","2017/08/08 18:29:45","新北市中和區圓通路369巷36-1號","121.490821666667","24.9845316666667","6500300","中和區"
"235055","183-VK","2017/08/08 18:29:40","新北市中和區連城路526-1號","121.475951666667","24.9916333333333","6500300","中和區"
"235038","185-VK","2017/08/08 18:29:44","新北市中和區秀朗路三段128巷17弄5號","121.524238333333","24.9934816666667","6500300","中和區"
"235049","186-VK","2017/08/08 18:29:37","新北市中和區景安路130號","121.505098333333","24.9944566666667","6500300","中和區"
"235067","255-BX","2017/08/08 18:29:50","新北市中和區和城路一段271巷1號","121.485516666667","24.9919","6500300","中和區"
"235072","301-VK","2017/08/08 18:29:47","新北市中和區錦和路101號","121.490086666667","24.9953883333333","6500300","中和區"
"235043","352-BY","2017/08/08 18:29:44","新北市中和區景平路287號","121.507355","24.99305","6500300","中和區"
"235051","376-QA","2017/08/08 18:29:53","新北市中和區興南路二段140號","121.504083333333","24.983205","6500300","中和區"
"235068","377-QA","2017/08/08 18:29:44","新北市中和區錦和路350-1號","121.49057","24.99351","6500300","中和區"
"235061","378-QA","2017/08/08 18:29:45","新北市中和區民享街116巷27弄2號","121.473445","24.9990166666667","6500300","中和區"
"235050","4979-A6","2017/08/08 18:29:34","新北市中和區景新街410巷18弄16號","121.512001666667","24.9897316666667","6500300","中和區"
"235069","4980-A6","2017/08/08 18:29:42","新北市中和區連城路101號","121.496478333333","24.9997666666667","6500300","中和區"
"235070","558-UM","2017/08/08 15:34:11","新北市中和區員山路36巷16-5號","121.48486","24.9920583333333","6500300","中和區"
"235045","565-BX","2017/08/08 18:29:46","新北市中和區復興路13號","121.505798333333","24.9896633333333","6500300","中和區"
"235054","640-BX","2017/08/08 18:29:36","新北市中和區民享街119巷2號","121.474385","24.9987133333333","6500300","中和區"
"235060","647-TV","2017/08/08 18:29:32","新北市中和區員山路111號","121.480855","24.9948116666667","6500300","中和區"
"235047","732-UM","2017/08/08 18:29:34","新北市中和區南山路242巷1號","121.50741","24.9894283333333","6500300","中和區"
"235046","733-UM","2017/08/08 18:29:33","新北市中和區錦和路350-1號","121.490535","24.993565","6500300","中和區"
"235062","800-TS","2017/08/08 18:29:40","新北市中和區景平路675號","121.496636666667","25.0028616666667","6500300","中和區"
"235057","801-TS","2017/08/08 18:29:44","新北市中和區民享街97巷11號","121.475313333333","24.9995666666667","6500300","中和區"
"235041","802-TS","2017/08/08 18:29:47","新北市中和區中正路589巷15號","121.485798333333","24.9935166666667","6500300","中和區"
"235052","805-TS","2017/08/08 18:29:52","新北市中和區興南路二段96號","121.505165","24.9841666666667","6500300","中和區"
"235048","896-TW","2017/08/08 18:29:36","新北市中和區中正路173號","121.497655","24.9935466666667","6500300","中和區"
"235053","900-TW","2017/08/08 18:29:44","新北市中和區民享街467號","121.469845","24.9925066666667","6500300","中和區"
"235037","AAC-213","2017/08/08 18:29:50","新北市中和區景德街95號","121.515648333333","24.9914416666667","6500300","中和區"
"235059","AAC-215","2017/08/08 18:29:50","新北市中和區員山路36巷16-3號","121.484993333333","24.99125","6500300","中和區"
"220068","013-TV","2017/08/08 18:29:31","新北市板橋區民生路二段36-1號","121.472446666667","25.01661","6500100","板橋區"
"220065","072-UY","2017/08/08 18:29:51","新北市板橋區民生路二段15-1號","121.472728333333","25.0163533333333","6500100","板橋區"
"226004","205-ST","2017/08/08 18:29:48","新北市平溪區靜安路二段332號","121.736966666667","25.0242683333333","6502400","平溪區"
"228001","212-TW","2017/08/08 18:29:46","新北市貢寮區仁理村仁義街4號","121.923653333333","25.0520983333333","6502600","貢寮區"
"228002","663-BX","2017/08/08 18:29:36","新北市貢寮區福連里香蘭街26-2號","121.984135","25.02148","6502600","貢寮區"
"228003","828-UM","2017/08/08 18:29:35","新北市貢寮區和美里和美街39號","121.91236","25.089385","6502600","貢寮區"
"224010","AGQ-8101","2017/08/08 17:59:14","新北市瑞芳區山尖路172-1號","121.848201666667","25.1119716666667","6501200","瑞芳區"
"224006","676-BX","2017/08/08 18:29:41","新北市瑞芳區明燈路二段65號","121.810773333333","25.1082066666667","6501200","瑞芳區"
"224002","639-TC","2017/08/08 18:29:39","新北市瑞芳區三爪子坑路29巷5號","121.81359","25.10726","6501200","瑞芳區"
"224011","420-VK","2017/08/08 18:29:31","新北市瑞芳區崙頂路1-6號","121.847071666667","25.1047233333333","6501200","瑞芳區"
"224009","285-BY","2017/08/08 18:29:31","新北市瑞芳區祈堂路239號","121.856288333333","25.10908","6501200","瑞芳區"
"224008","275-VK","2017/08/08 18:29:36","新北市瑞芳區逢甲路169-1號","121.805388333333","25.1104483333333","6501200","瑞芳區"
"224007","273-VK","2017/08/08 18:29:34","新北市瑞芳區大埔路國宅新村54號","121.764725","25.100175","6501200","瑞芳區"
"224005","271-BY","2017/08/08 18:29:40","新北市瑞芳區台電新村115-1號","121.811758333333","25.1285883333333","6501200","瑞芳區"
"227003","642-TC","2017/08/08 18:29:40","新北市雙溪區魚行里坤溪21號","121.870365","25.0288383333333","6502500","雙溪區"
"227009","400-TW","2017/08/08 18:29:49","新北市雙溪區牡丹里牡丹105號","121.851228333333","25.0599983333333","6502500","雙溪區"
"253006","032-BX","2017/08/08 18:29:46","新北市石門區公地15號","121.545653333333","25.2902333333333","6502200","石門區"
"253005","295-VK","2017/08/08 18:29:44","新北市石門區老崩山10-4號","121.552733333333","25.29109","6502200","石門區"
"253001","4710-YM","2017/08/08 18:29:45","新北市石門區老梅路41號","121.545116666667","25.289455","6502200","石門區"
"208002","742-BX","2017/08/08 18:29:36","新北市金山區民生路212號","121.64097","25.220665","6502700","金山區"
"208003","665-BX","2017/08/08 18:29:35","新北市金山區中山路192號","121.637868333333","25.221475","6502700","金山區"
"208001","761-BX","2017/08/08 18:29:31","新北市金山區文化二路4號","121.636943333333","25.2244766666667","6502700","金山區"
"251004","009-UM","2017/08/08 18:29:45","新北市淡水區民族路29巷3弄2號","121.46328","25.13695","6501000","淡水區"
"251014","180-VK","2017/08/08 18:29:37","新北市淡水區南平20號","121.49403","25.2171483333333","6501000","淡水區"
"251008","181-VK","2017/08/08 18:29:39","新北市淡水區北投子85號","121.468585","25.178795","6501000","淡水區"
"251010","413-VK","2017/08/08 18:29:33","新北市淡水區沙崙路181巷1號","121.424141666667","25.184245","6501000","淡水區"
"251012","441-VK","2017/08/08 18:29:38","新北市淡水區北新路一段169-1號","121.459256666667","25.1822616666667","6501000","淡水區"
"251016","442-VK","2017/08/08 18:29:46","新北市淡水區下圭柔山114-2號","121.44607","25.208655","6501000","淡水區"
"251001","559-UM","2017/08/08 18:29:39","新北市淡水區自強路371號","121.464486666667","25.1333166666667","6501000","淡水區"
"251006","561-UM","2017/08/08 18:29:32","新北市淡水區中山北路一段382號","121.444571666667","25.1827966666667","6501000","淡水區"
"251011","650-BX","2017/08/08 18:29:44","新北市淡水區中正東路81巷1號","121.447751666667","25.1670166666667","6501000","淡水區"
"251002","672-BX","2017/08/08 18:29:43","新北市淡水區竿蓁二街19巷15號","121.452786666667","25.1641683333333","6501000","淡水區"
"251003","766-UM","2017/08/08 18:29:44","新北市淡水區北新路69巷26號","121.446775","25.18011","6501000","淡水區"
"207003","550-UM","2017/08/08 18:29:50","新北市萬里區野柳里港東路162-14號","121.690341666667","25.2042266666667","6502800","萬里區"
"207004","225-TW","2017/08/08 18:29:41","新北市萬里區萬里里瑪鋉路272-1號","121.688853333333","25.1808833333333","6502800","萬里區"
"252002","178-VK","2017/08/08 18:29:41","新北市三芝區中山路二段39號","121.502961666667","25.255125","6502100","三芝區"
"252003","249-BX","2017/08/08 18:29:50","新北市三芝區後厝里北勢子45-30號","121.469226666667","25.2507483333333","6502100","三芝區"
"252001","292-VK","2017/08/08 18:29:39","新北市三芝區中興街二段2號","121.498353333333","25.256725","6502100","三芝區"
"237004","078-UY","2017/08/08 18:29:35","新北市三峽區插角1-1號","121.397058333333","24.8737516666667","6500900","三峽區"
"237007","153-BY","2017/08/08 18:29:40","新北市三峽區中正路三段70巷21號","121.355753333333","24.90484","6500900","三峽區"
"237009","210-TH","2017/08/08 18:29:48","新北市三峽區大同路247號","121.366763333333","24.9261266666667","6500900","三峽區"
"237013","252-BX","2017/08/08 18:29:35","新北市三峽區光明路69巷25號","121.37667","24.9292816666667","6500900","三峽區"
"237012","275-BY","2017/08/08 18:29:49","新北市三峽區三樹路112號","121.378265","24.9392933333333","6500900","三峽區"
"237008","302-VK","2017/08/08 18:29:53","新北市三峽區白雞68-119號","121.39165","24.9082033333333","6500900","三峽區"
"237014","433-BY","2017/08/08 18:29:50","新北市三峽區文化路103號","121.370661666667","24.9360866666667","6500900","三峽區"
"237006","5529-G3","2017/08/08 18:29:48","新北市三峽區溪東路371巷2弄2號","121.411986666667","24.9296216666667","6500900","三峽區"
"237011","572-TV","2017/08/08 18:09:47","新北市三峽區橫溪路3號","121.396075","24.9361266666667","6500900","三峽區"
"237016","649-BX","2017/08/08 18:29:34","新北市三峽區紫微南路11號","121.42531","24.9212233333333","6500900","三峽區"
"237010","706-TV","2017/08/08 18:29:29","新北市三峽區中山路242號","121.362373333333","24.9374166666667","6500900","三峽區"
"237005","AKY-6261","2017/08/08 18:29:42","新北市三峽區秀川街82號","121.370696666667","24.9335733333333","6500900","三峽區"
"236070","105-UM","2017/08/08 18:29:34","新北市土城區永豐路255巷21弄1號","121.475048333333","24.9738416666667","6501300","土城區"
"236043","107-UM","2017/08/08 18:29:39","新北市土城區裕民路61巷14號","121.44967","24.9883216666667","6501300","土城區"
"236079","166-UM","2017/08/08 18:29:39","新北市土城區中央路四段27巷1號","121.42442","24.962355","6501300","土城區"
"236031","253-BX","2017/08/08 18:29:36","新北市土城區中華路二段169巷5號","121.439266666667","24.97558","6501300","土城區"
"236027","269-VK","2017/08/08 18:29:44","新北市土城區南天母路135巷24號","121.449178333333","24.9548433333333","6501300","土城區"
"236015","270-VK","2017/08/08 18:29:39","新北市土城區立清街69號","121.46039","24.9872933333333","6501300","土城區"
"236038","271-VK","2017/08/08 18:29:50","新北市土城區青雲路483巷1號","121.459356666667","24.9737133333333","6501300","土城區"
"236023","401-BY","2017/08/08 18:29:34","新北市土城區明德路一段94號","121.464503333333","24.9794966666667","6501300","土城區"
"236063","752-BX","2017/08/08 18:29:42","新北市土城區延壽路77巷6-3號","121.468543333333","24.992605","6501300","土城區"
"236059","912-UM","2017/08/08 18:29:48","新北市土城區中央路四段466號","121.410093333333","24.9504983333333","6501300","土城區"
"236049","913-UM","2017/08/08 18:29:52","新北市土城區青雲路469號","121.458658333333","24.97415","6501300","土城區"
"236055","AAC-216","2017/08/08 18:29:40","新北市土城區中華路二段6號","121.439468333333","24.97894","6501300","土城區"
"242025","615-BX","2017/08/08 18:29:48","新北市新莊區中環路二段392-1號","121.442066666667","25.0457733333333","6500500","新莊區"
"242042","497-BY","2017/08/08 18:29:49","新北市新莊區天祥街71巷16號","121.415353333333","25.0284433333333","6500500","新莊區"
"242046","441-UM","2017/08/08 18:29:44","新北市新莊區中正路829巷75號","121.421661666667","25.02719","6500500","新莊區"
"242002","413-TV","2017/08/08 18:29:39","新北市新莊區新泰路357巷3弄37號","121.44249","25.0404183333333","6500500","新莊區"
"242061","362-BY","2017/08/08 18:29:46","新北市新莊區四維路7號","121.424016666667","25.02457","6500500","新莊區"
"242058","353-BY","2017/08/08 18:29:41","新北市新莊區中正路897-10號","121.4116","25.0216316666667","6500500","新莊區"
"242044","172-VK","2017/08/08 18:29:46","新北市新莊區龍安路9-5號","121.415018333333","25.0227666666667","6500500","新莊區"
"242007","173-VK","2017/08/08 18:29:46","新北市新莊區中華路二段5號","121.453668333333","25.0454133333333","6500500","新莊區"
"242054","349-TH","2017/08/08 18:29:44","新北市新莊區大安路10巷1號","121.431465","25.0060433333333","6500500","新莊區"
"238015","755-BX","2017/08/08 18:29:39","新北市樹林區啟智街173巷2號","121.415688333333","24.98757","6500700","樹林區"
"238023","601-UM","2017/08/08 18:29:34","新北市樹林區忠信街15號","121.407848333333","25.015225","6500700","樹林區"
"238019","599-UM","2017/08/08 18:29:49","新北市樹林區中華路190號","121.411985","24.9806066666667","6500700","樹林區"
"238018","571-TV","2017/08/08 18:29:42","新北市樹林區保安街一段20巷28號","121.428281666667","24.99436","6500700","樹林區"
"238024","5061-A6","2017/08/08 18:29:40","新北市樹林區中山路一段35號","121.42463","24.992665","6500700","樹林區"
"238021","311-TH","2017/08/08 18:29:50","新北市樹林區柑園街二段149巷2-1號","121.382045","24.954055","6500700","樹林區"
"238025","303-VK","2017/08/08 18:29:42","新北市樹林區大安路493號","121.414385","24.9868883333333","6500700","樹林區"
"238017","283-BY","2017/08/08 18:29:40","新北市樹林區光榮街21號","121.412055","25.0037483333333","6500700","樹林區"
"238014","282-BY","2017/08/08 18:29:46","新北市樹林區大安路111巷11號","121.423176666667","24.9976483333333","6500700","樹林區"
"238020","268-VK","2017/08/08 18:29:07","新北市樹林區三龍街14巷2號","121.410276666667","25.0180333333333","6500700","樹林區"
"238026","172-UY","2017/08/08 18:29:50","新北市樹林區佳園路一段75巷202號","121.397195","24.9705433333333","6500700","樹林區"
"238016","169-UY","2017/08/08 18:29:37","新北市樹林區文化街23號","121.419276666667","24.9876116666667","6500700","樹林區"
"239007","AAC-297","2017/08/08 18:29:45","新北市鶯歌區中正一路478號","121.366523333333","24.9568116666667","6500800","鶯歌區"
"239006","891-R6","2017/08/08 18:29:50","新北市鶯歌區鶯桃路296巷53號","121.335863333333","24.9613366666667","6500800","鶯歌區"
"239008","527-UM","2017/08/08 18:29:38","新北市鶯歌區國際一路179號","121.336226666667","24.97653","6500800","鶯歌區"
"239005","526-UM","2017/08/08 18:29:51","新北市鶯歌區鳳吉二街108號","121.327573333333","24.9742833333333","6500800","鶯歌區"
"239001","417-VK","2017/08/08 18:29:34","新北市鶯歌區高職南街5號","121.337198333333","24.939595","6500800","鶯歌區"
"239003","360-BY","2017/08/08 18:29:43","新北市鶯歌區福安街13巷1號","121.335505","24.96526","6500800","鶯歌區"
"239002","359-BY","2017/08/08 18:29:45","新北市鶯歌區中正一路91號","121.352215","24.95496","6500800","鶯歌區"
"239004","193-VK","2017/08/08 18:29:39","新北市鶯歌區國中街183號","121.339141666667","24.9396466666667","6500800","鶯歌區"
"221008","489-VK","2017/08/08 18:29:52","新北市汐止區康寧街901號","121.651478333333","25.0750416666667","6501100","汐止區"
"221036","130-UY","2017/08/08 18:29:46","新北市汐止區大同路三段207號","121.671828333333","25.0770133333333","6501100","汐止區"
"221015","131-UY","2017/08/08 18:29:36","新北市汐止區鄉友街22號","121.668583333333","25.0810166666667","6501100","汐止區"
"221010","269-BY","2017/08/08 18:29:36","新北市汐止區汐萬路三段199巷1弄2號","121.642005","25.09792","6501100","汐止區"
"221012","278-VK","2017/08/08 18:29:47","新北市汐止區大同路三段275號","121.676125","25.0756616666667","6501100","汐止區"
"221023","279-VK","2017/08/08 02:06:46","新北市汐止區汐萬路一段256巷1號","121.651875","25.0748716666667","6501100","汐止區"
"221032","280-BY","2017/08/08 18:29:47","新北市汐止區福山街60巷13弄1號","121.618281666667","25.0462833333333","6501100","汐止區"
"221027","281-BY","2017/08/08 18:29:41","新北市汐止區和平街56號","121.662131666667","25.0709616666667","6501100","汐止區"
"221038","297-VK","2017/08/08 18:29:42","新北市汐止區大同路二段375號","121.657403333333","25.067265","6501100","汐止區"
"221029","298-VK","2017/08/08 18:29:41","新北市汐止區樟樹二路330巷68號","121.642961666667","25.0698216666667","6501100","汐止區"
"221021","299-VK","2017/08/08 17:34:28","新北市汐止區汐萬路一段256巷1號","121.652043333333","25.0747066666667","6501100","汐止區"
"221031","353-TW","2017/08/08 18:29:46","新北市汐止區光復街7巷23號","121.639876666667","25.059395","6501100","汐止區"
"221035","622-UM","2017/08/08 18:29:44","新北市汐止區新台五路一段79-7號","121.646128333333","25.0626183333333","6501100","汐止區"
"221025","623-UM","2017/08/08 18:29:49","新北市汐止區仁愛路122巷18號","121.663536666667","25.0632533333333","6501100","汐止區"
"221033","647-BX","2017/08/08 18:29:39","新北市汐止區宜興街7號","121.62118","25.0414416666667","6501100","汐止區"
"221002","707-TV","2017/08/08 18:29:40","新北市汐止區中興路132-1號","121.63318","25.0643233333333","6501100","汐止區"
"221018","753-BX","2017/08/08 18:29:48","新北市汐止區茄苳路88巷32號","121.667655","25.0698983333333","6501100","汐止區"
"220082","610-BX","2017/08/08 18:29:47","新北市板橋區華東街1-10號","121.448276666667","24.9949266666667","6500100","板橋區"
"220056","276-BY","2017/08/08 18:29:41","新北市板橋區中山路一段208號","121.469878333333","25.01386","6500100","板橋區"
"220071","283-VK","2017/08/08 18:29:40","新北市板橋區民生路二段36-1號","121.472565","25.0166483333333","6500100","板橋區"
"220053","285-VK","2017/08/08 18:29:52","新北市板橋區民生路二段36-1號","121.472636666667","25.0167116666667","6500100","板橋區"
"220061","293-UM","2017/08/08 18:29:48","新北市板橋區民生路二段17號","121.472563333333","25.0164533333333","6500100","板橋區"
"220013","295-UM","2017/08/08 13:48:42","新北市板橋區民生路二段22號","121.472998333333","25.01675","6500100","板橋區"
"220062","303-R5","2017/08/08 18:29:46","新北市板橋區民生路二段36-1號","121.472478333333","25.016525","6500100","板橋區"
"220034","461-BY","2017/08/08 15:23:19","新北市板橋區華東街1-10號","121.448698333333","24.995025","6500100","板橋區"
"220086","630-UY","2017/08/08 18:29:38","新北市板橋區華東街1-10號","121.448258333333","24.995045","6500100","板橋區"
