"lineid","car","time","location","longitude","latitude","cityid","cityname"
"234046","148-BY","2017/08/08 18:59:40","新北市永和區秀朗路二段186巷3號","121.526095","25.000765","6500400","永和區"
"234013","149-BY","2017/08/08 18:59:42","新北市永和區信義路17巷4號","121.514008333333","25.01186","6500400","永和區"
"234007","207-UY","2017/08/08 18:59:36","新北市永和區中山路一段93號","121.51145","25.01064","6500400","永和區"
"234081","298-R6","2017/08/08 18:59:45","新北市永和區永亨路67號","121.521261666667","25.0059866666667","6500400","永和區"
"234038","336-UY","2017/08/08 18:59:48","新北市永和區民樂街90巷1號","121.527336666667","24.9974266666667","6500400","永和區"
"234064","337-UY","2017/08/08 18:59:46","新北市永和區秀朗路一段140號","121.517966666667","25.0034083333333","6500400","永和區"
"234084","338-UY","2017/08/08 18:59:38","新北市永和區永利路18號","121.51803","25.0058516666667","6500400","永和區"
"234070","552-UM","2017/08/08 18:59:42","新北市永和區豫溪街95巷8號","121.518128333333","25.0107766666667","6500400","永和區"
"234054","553-UM","2017/08/08 18:59:44","新北市永和區竹林路66巷5號","121.518213333333","25.013275","6500400","永和區"
"234017","745-BX","2017/08/08 18:59:46","新北市永和區永和路二段297號","121.516048333333","25.0160483333333","6500400","永和區"
"234030","746-BX","2017/08/08 18:59:45","新北市永和區四維街44號","121.525253333333","24.9981216666667","6500400","永和區"
"234061","AAD-866","2017/08/08 18:59:48","新北市永和區福和路301號","121.51642","25.0071333333333","6500400","永和區"
"234042","862-TW","2017/08/08 18:59:51","新北市永和區永貞路320號","121.511625","25.0051283333333","6500400","永和區"
"234050","863-TW","2017/08/08 18:59:30","新北市永和區文化路190號","121.510881666667","25.01618","6500400","永和區"
"234026","9371-KE","2017/08/08 18:59:33","新北市永和區安樂路453號","121.514286666667","25.005","6500400","永和區"
"234010","9373-KE","2017/08/08 18:59:42","新北市永和區文化路176號","121.511525","25.015725","6500400","永和區"
"249005","172-UM","2017/08/08 18:59:32","新北市八里區長道坑8號","121.39565","25.1210133333333","6502300","八里區"
"249001","173-UM","2017/08/08 18:59:41","新北市八里區龍米路二段228-1號","121.432731666667","25.15839","6502300","八里區"
"248014","025-BX","2017/08/08 18:59:34","新北市五股區民義路一段103-3號","121.433915","25.086145","6501500","五股區"
"248016","026-BX","2017/08/08 18:59:50","新北市五股區成泰路三段543巷12弄10號","121.451271666667","25.10224","6501500","五股區"
"248006","077-UY","2017/08/08 18:59:42","新北市五股區中興路一段68號","121.467355","25.0729466666667","6501500","五股區"
"248008","095-VK","2017/08/08 18:59:36","新北市五股區中興路一段128巷38號","121.465743333333","25.0753816666667","6501500","五股區"
"248020","225-UY","2017/08/08 18:59:38","新北市五股區凌雲路三段57號","121.425313333333","25.1250166666667","6501500","五股區"
"248012","247-BX","2017/08/08 18:59:45","新北市五股區工商路36巷7號","121.439693333333","25.084175","6501500","五股區"
"248004","677-BX","2017/08/08 18:59:38","新北市五股區民義路二段50-3號","121.411636666667","25.1031833333333","6501500","五股區"
"248002","678-BX","2017/08/08 18:59:47","新北市五股區凌雲路一段111號","121.450081666667","25.101755","6501500","五股區"
"248010","682-TV","2017/08/08 18:59:35","新北市五股區水碓二路23號","121.42985","25.071985","6501500","五股區"
"234023","9380-KE","2017/08/08 18:59:35","新北市永和區竹林路75巷25弄4號","121.520361666667","25.0142583333333","6500400","永和區"
"234077","969-R7","2017/08/08 18:59:47","新北市永和區智光街32巷1號","121.517828333333","24.9988283333333","6500400","永和區"
"234074","AAC-211","2017/08/08 18:59:47","新北市永和區豫溪街217巷29號","121.524223333333","25.0101966666667","6500400","永和區"
"234067","AAC-212","2017/08/08 18:59:43","新北市永和區永和路一段22號","121.512988333333","25.004815","6500400","永和區"
"234003","AAC-295","2017/08/08 18:59:36","新北市永和區和平街54巷2號","121.512671666667","25.0099916666667","6500400","永和區"
"232011","375-UM","2017/08/08 18:59:37","新北市坪林區水聳淒坑19-1號","121.712466666667","24.934785","6502000","坪林區"
"244013","069-UM","2017/08/08 18:59:40","新北市林口區文化一路一段133號","121.373915","25.0716583333333","6501700","林口區"
"244009","410-SL","2017/08/08 18:59:40","新北市林口區竹林路350號","121.391368333333","25.0840416666667","6501700","林口區"
"244023","483-VK","2017/08/08 18:59:41","新北市林口區文林六街27巷36號","121.370725","25.081225","6501700","林口區"
"244017","485-VK","2017/08/08 18:59:35","新北市林口區文化二路一段120巷5號","121.367905","25.0699716666667","6501700","林口區"
"244011","701-TV","2017/08/08 18:59:36","新北市林口區中正路315號","121.388733333333","25.0776883333333","6501700","林口區"
"244025","837-TS","2017/08/08 18:59:38","新北市林口區文化北路一段370號","121.362503333333","25.07446","6501700","林口區"
"243013","AAD-798","2017/08/08 18:59:35","新北市泰山區明志路三段206巷17號","121.422898333333","25.03772","6501600","泰山區"
"243009","297-R6","2017/08/08 18:59:42","新北市泰山區泰林路二段353號","121.428313333333","25.0636666666667","6501600","泰山區"
"243015","380-SR","2017/08/08 18:59:35","新北市泰山區明志路一段195號","121.432723333333","25.0614566666667","6501600","泰山區"
"243014","421-VK","2017/08/08 18:59:43","新北市泰山區泰林路二段601號","121.421488333333","25.0634833333333","6501600","泰山區"
"243010","548-UM","2017/08/08 18:59:38","新北市泰山區辭修路24號","121.429063333333","25.0581316666667","6501600","泰山區"
"243011","549-UM","2017/08/08 18:59:38","新北市泰山區明志路二段320巷6弄5號","121.425668333333","25.046685","6501600","泰山區"
"243012","646-TV","2017/08/08 18:59:49","新北市泰山區仁德路112號","121.432813333333","25.0568866666667","6501600","泰山區"
"243016","680-BX","2017/08/08 18:59:45","新北市泰山區文程路1-1號","121.427561666667","25.0501433333333","6501600","泰山區"
"222002","659-BX","2017/08/08 18:59:42","新北市深坑區文山路一段31巷2號","121.6299","25.0033116666667","6501800","深坑區"
"222001","696-SL","2017/08/08 18:59:47","新北市深坑區北深路一段300號","121.624573333333","25.00591","6501800","深坑區"
"231041","001-UM","2017/08/08 18:59:30","新北市新店區環河路29巷1號","121.536978333333","24.9613816666667","6500600","新店區"
"231056","0291-UT","2017/08/08 18:59:40","新北市新店區二十張路26號","121.538421666667","24.9817233333333","6500600","新店區"
"231059","046-UY","2017/08/08 18:59:43","新北市新店區安康路一段266巷4號","121.51979","24.9640433333333","6500600","新店區"
"231061","047-UY","2017/08/08 18:59:32","新北市新店區安康路一段302-3號","121.517701666667","24.963985","6500600","新店區"
"231060","106-UY","2017/08/08 18:59:46","新北市新店區車子路10-4號","121.505013333333","24.9545616666667","6500600","新店區"
"231051","107-UY","2017/08/08 18:59:28","新北市新店區百忍街10巷2號","121.534971666667","24.9755683333333","6500600","新店區"
"231048","108-UY","2017/08/08 18:59:37","新北市新店區德正街27巷29弄61號","121.54576","24.97222","6500600","新店區"
"231053","187-VK","2017/08/08 18:59:39","新北市新店區湖子內路1-1號","121.54115","24.9296416666667","6500600","新店區"
"231063","268-BY","2017/08/08 18:59:40","新北市新店區車子路109號","121.505251666667","24.9521233333333","6500600","新店區"
"231046","278-BY","2017/08/08 18:59:31","新北市新店區直潭五街58號","121.532846666667","24.9411666666667","6500600","新店區"
"231050","AAD-862","2017/08/08 18:59:34","新北市新店區新烏路一段11巷9號","121.547486666667","24.9510966666667","6500600","新店區"
"231058","3712-VJ","2017/08/08 18:59:44","新北市新店區中興路一段183號","121.543005","24.9648616666667","6500600","新店區"
"231055","3713-VJ","2017/08/08 18:59:43","新北市新店區新生街13巷16號","121.539121666667","24.96591","6500600","新店區"
"231067","4772-VM","2017/08/08 18:59:31","新北市新店區安康路一段247巷4弄1號","121.524591666667","24.962725","6500600","新店區"
"231065","512-UM","2017/08/08 18:59:46","新北市新店區安祥路147巷56號","121.4763","24.95634","6500600","新店區"
"231054","513-UM","2017/08/08 18:59:30","新北市新店區新店路13號","121.540306666667","24.95289","6500600","新店區"
"231064","515-UM","2017/08/08 18:59:44","新北市新店區安康路一段266巷4號","121.51984","24.96401","6500600","新店區"
"231045","617-UM","2017/08/08 18:59:50","新北市新店區光明街53號","121.53855","24.960275","6500600","新店區"
"231040","619-UM","2017/08/08 18:59:40","新北市新店區中正路376號","121.534895","24.9767933333333","6500600","新店區"
"231042","641-BX","2017/08/08 18:59:44","新北市新店區中興路一段282號","121.545696666667","24.968575","6500600","新店區"
"231049","719-UM","2017/08/08 18:59:32","新北市新店區二十張路143-1號","121.535125","24.9787966666667","6500600","新店區"
"231062","720-UM","2017/08/08 18:59:37","新北市新店區吉安街41號","121.515416666667","24.9660816666667","6500600","新店區"
"231044","897-TW","2017/08/08 18:59:31","新北市新店區寶中路72號","121.547893333333","24.980615","6500600","新店區"
"231043","899-TW","2017/08/08 18:59:40","新北市新店區北新路二段7號","121.542695","24.9713183333333","6500600","新店區"
"231066","AKT-0513","2017/08/08 18:59:40","新北市新店區安祥路35-2號","121.49004","24.9574016666667","6500600","新店區"
"241029","887-TS","2017/08/08 18:59:33","新北市三重區重安街22號","121.49031","25.0580066666667","6500200","三重區"
"235066","003-UY","2017/08/08 18:59:49","新北市中和區中山路二段131巷5弄4號","121.5029","25.0028666666667","6500300","中和區"
"235064","005-UY","2017/08/08 18:59:44","新北市中和區泰和街45號","121.499021666667","24.9993383333333","6500300","中和區"
"235063","006-UY","2017/08/08 18:59:31","新北市中和區錦和路170號","121.489696666667","24.99564","6500300","中和區"
"235056","096-UM","2017/08/08 18:59:46","新北市中和區新民街92號","121.481231666667","25.0082416666667","6500300","中和區"
"235039","097-UM","2017/08/08 18:59:36","新北市中和區安樂路217巷56號","121.513046666667","24.99765","6500300","中和區"
"235065","098-UM","2017/08/08 18:59:39","新北市中和區中山路二段2巷17號","121.503768333333","25.006915","6500300","中和區"
"235040","150-BY","2017/08/08 18:59:43","新北市中和區宜安路23巷37號","121.51184","24.9945483333333","6500300","中和區"
"235058","151-BY","2017/08/08 18:59:45","新北市中和區連城路526-1號","121.476151666667","24.9915933333333","6500300","中和區"
"235055","183-VK","2017/08/08 18:59:40","新北市中和區民生街85巷5弄1號","121.469218333333","25.00418","6500300","中和區"
"235038","185-VK","2017/08/08 18:59:44","新北市中和區大勇街43巷8號","121.517451666667","24.9947333333333","6500300","中和區"
"235049","186-VK","2017/08/08 18:59:37","新北市中和區景新街210巷2弄8號","121.506916666667","24.994215","6500300","中和區"
"235067","255-BX","2017/08/08 18:59:50","新北市中和區中正路839巷10-1號","121.484146666667","25.002395","6500300","中和區"
"235044","293-VK","2017/08/08 18:59:36","新北市中和區中興街169號","121.499951666667","24.990475","6500300","中和區"
"235072","301-VK","2017/08/08 18:59:47","新北市中和區中山路二段65號","121.504115","25.004545","6500300","中和區"
"235043","352-BY","2017/08/08 18:59:44","新北市中和區成功路56號","121.526008333333","24.9923533333333","6500300","中和區"
"235051","376-QA","2017/08/08 18:59:33","新北市中和區忠孝街37巷4號","121.511281666667","24.9835783333333","6500300","中和區"
"235068","377-QA","2017/08/08 18:59:44","新北市中和區圓通路232巷14號","121.49519","24.9932466666667","6500300","中和區"
"235061","378-QA","2017/08/08 18:59:45","新北市中和區民享街54巷15號","121.473333333333","25.002345","6500300","中和區"
"235050","4979-A6","2017/08/08 18:59:34","新北市中和區華新街50巷7號","121.507635","24.98388","6500300","中和區"
"235069","4980-A6","2017/08/08 18:59:42","新北市中和區中和路217巷1弄9號","121.503596666667","25.00042","6500300","中和區"
"235070","558-UM","2017/08/08 15:34:11","新北市中和區員山路36巷16-5號","121.48486","24.9920583333333","6500300","中和區"
"235045","565-BX","2017/08/08 18:59:46","新北市中和區興南路一段6號","121.511505","24.991485","6500300","中和區"
"235054","640-BX","2017/08/08 18:59:35","新北市中和區民享街35巷13號","121.474891666667","25.00405","6500300","中和區"
"235060","647-TV","2017/08/08 18:59:32","新北市中和區中山路三段172號","121.472816666667","25.006455","6500300","中和區"
"235047","732-UM","2017/08/08 18:59:34","新北市中和區興南路二段54巷11弄2號","121.505725","24.9856566666667","6500300","中和區"
"235046","733-UM","2017/08/08 18:59:33","新北市中和區興南路二段5號","121.508113333333","24.986295","6500300","中和區"
"235062","800-TS","2017/08/08 18:59:40","新北市中和區中山路二段472號","121.48833","25.0045783333333","6500300","中和區"
"235057","801-TS","2017/08/08 18:59:49","新北市中和區民利街20號","121.480398333333","24.99918","6500300","中和區"
"235041","802-TS","2017/08/08 18:59:47","新北市中和區中安街178巷13弄3號","121.510283333333","24.99865","6500300","中和區"
"235052","805-TS","2017/08/08 18:59:46","新北市中和區興南路二段345號","121.501325","24.980735","6500300","中和區"
"235048","896-TW","2017/08/08 18:59:40","新北市中和區華新街93號","121.508656666667","24.9831433333333","6500300","中和區"
"235053","900-TW","2017/08/08 18:59:44","新北市中和區民德路298巷13號","121.466358333333","24.9955083333333","6500300","中和區"
"235071","911-UM","2017/08/08 18:59:34","新北市中和區員山路36巷16-2號","121.485296666667","24.9917283333333","6500300","中和區"
"235037","AAC-213","2017/08/08 18:59:39","新北市中和區秀朗路三段128巷25弄6號","121.524023333333","24.993935","6500300","中和區"
"235059","AAC-215","2017/08/08 18:59:30","新北市中和區圓通路367巷20弄7號","121.491956666667","24.9884283333333","6500300","中和區"
"220068","013-TV","2017/08/08 18:59:31","新北市板橋區中山路二段465巷5號","121.4817","25.0207833333333","6500100","板橋區"
"220065","072-UY","2017/08/08 18:59:30","新北市板橋區民族路247巷9弄2號","121.471331666667","25.0078533333333","6500100","板橋區"
"220069","AAD-861","2017/08/08 18:59:43","新北市板橋區館前西路5號","121.459138333333","25.0068883333333","6500100","板橋區"
"220096","120-SR","2017/08/08 18:59:38","新北市板橋區莊敬路208巷2弄7號","121.471451666667","25.02148","6500100","板橋區"
"247020","893-R6","2017/08/08 18:59:29","新北市五股區中興路三段163號","121.44921","25.080795","6501400","蘆洲區"
"226004","205-ST","2017/08/08 18:59:48","新北市平溪區靜安路二段551號","121.74928","25.023945","6502400","平溪區"
"228001","212-TW","2017/08/08 18:59:46","新北市貢寮區仁理村保健街73號","121.923743333333","25.051675","6502600","貢寮區"
"228002","663-BX","2017/08/08 18:59:35","新北市貢寮區福隆里東興街104號","121.945946666667","25.0172966666667","6502600","貢寮區"
"228003","828-UM","2017/08/08 18:59:35","新北市貢寮區和美里龍洞街46號","121.912473333333","25.1120516666667","6502600","貢寮區"
"224010","AGQ-8101","2017/08/08 18:59:34","新北市瑞芳區基山街49號","121.845366666667","25.108785","6501200","瑞芳區"
"224006","676-BX","2017/08/08 18:59:41","新北市瑞芳區中正路20號","121.808438333333","25.107055","6501200","瑞芳區"
"224011","420-VK","2017/08/08 18:59:31","新北市瑞芳區崙頂路1-6號","121.847165","25.1046533333333","6501200","瑞芳區"
"224009","285-BY","2017/08/08 18:59:31","新北市瑞芳區祈堂路53-1號","121.859606666667","25.110765","6501200","瑞芳區"
"224008","275-VK","2017/08/08 18:59:35","新北市瑞芳區瑞芳街118號","121.801521666667","25.1109016666667","6501200","瑞芳區"
"224007","273-VK","2017/08/08 18:59:34","新北市瑞芳區中央路48巷162號","121.759318333333","25.1034266666667","6501200","瑞芳區"
"224005","271-BY","2017/08/08 18:59:50","新北市瑞芳區海濱路157號","121.82913","25.121845","6501200","瑞芳區"
"227003","642-TC","2017/08/08 18:59:40","新北市雙溪區平林里康福家園10號","121.858808333333","25.0373116666667","6502500","雙溪區"
"227009","400-TW","2017/08/08 18:59:49","新北市雙溪區牡丹里中正路58巷23號","121.86646","25.0416733333333","6502500","雙溪區"
"253006","032-BX","2017/08/08 18:59:46","新北市石門區八甲11-2號","121.522198333333","25.2812766666667","6502200","石門區"
"253005","295-VK","2017/08/08 18:59:44","新北市石門區中央路42號","121.568053333333","25.292835","6502200","石門區"
"253001","4710-YM","2017/08/08 18:59:45","新北市石門區中央路30號","121.567898333333","25.2923383333333","6502200","石門區"
"208002","742-BX","2017/08/08 18:59:36","新北市金山區信義路32號","121.635266666667","25.2196883333333","6502700","金山區"
"208003","665-BX","2017/08/08 18:59:35","新北市金山區中正路26號","121.635801666667","25.2222333333333","6502700","金山區"
"208001","761-BX","2017/08/08 18:59:51","新北市金山區中山路79號","121.64029","25.2186666666667","6502700","金山區"
"251014","180-VK","2017/08/08 18:59:36","新北市淡水區小中寮32-1號","121.491791666667","25.22594","6501000","淡水區"
"251010","413-VK","2017/08/08 18:59:33","新北市淡水區淡海路111號","121.421758333333","25.182705","6501000","淡水區"
"251012","441-VK","2017/08/08 18:59:38","新北市淡水區新春街73號","121.438365","25.182045","6501000","淡水區"
"251016","442-VK","2017/08/08 18:59:46","新北市淡水區淡金路三段230號","121.448876666667","25.2051516666667","6501000","淡水區"
"251001","559-UM","2017/08/08 18:59:39","新北市淡水區自強路58號","121.4632","25.1275266666667","6501000","淡水區"
"251009","575-R6","2017/08/08 18:59:36","新北市淡水區重建街36號","121.43992","25.1712066666667","6501000","淡水區"
"251007","577-R6","2017/08/08 18:59:30","新北市淡水區民生路182號","121.465385","25.1387583333333","6501000","淡水區"
"251011","650-BX","2017/08/08 18:59:44","新北市淡水區中正東路二段143巷2弄1號","121.460731666667","25.147355","6501000","淡水區"
"251002","672-BX","2017/08/08 18:59:43","新北市淡水區學府路8號","121.447468333333","25.1678833333333","6501000","淡水區"
"251003","766-UM","2017/08/08 18:59:44","新北市淡水區中山北路一段149巷24號","121.442871666667","25.1780466666667","6501000","淡水區"
"207003","550-UM","2017/08/08 18:59:50","新北市萬里區大鵬里頂社8號","121.656338333333","25.2096016666667","6502800","萬里區"
"207004","225-TW","2017/08/08 18:59:40","新北市萬里區萬里里獅頭路23號","121.693176666667","25.1782416666667","6502800","萬里區"
"252002","178-VK","2017/08/08 18:59:41","新北市三芝區中正路一段112號","121.504798333333","25.256435","6502100","三芝區"
"252003","249-BX","2017/08/08 18:59:40","新北市三芝區後厝里北勢子12號","121.475083333333","25.2554216666667","6502100","三芝區"
"252001","292-VK","2017/08/08 18:59:39","新北市三芝區中興街二段260號","121.501741666667","25.2530033333333","6502100","三芝區"
"237004","078-UY","2017/08/08 18:59:35","新北市三峽區有木205-1號","121.439011666667","24.8516166666667","6500900","三峽區"
"237007","153-BY","2017/08/08 18:59:46","新北市三峽區大埔路167號","121.366605","24.90549","6500900","三峽區"
"237013","252-BX","2017/08/08 18:59:35","新北市三峽區光明路69巷25號","121.376663333333","24.9291783333333","6500900","三峽區"
"237012","275-BY","2017/08/08 18:59:49","新北市三峽區三樹路222巷61號","121.383846666667","24.9422383333333","6500900","三峽區"
"237008","302-VK","2017/08/08 18:59:33","新北市三峽區正義街57號","121.369206666667","24.9186766666667","6500900","三峽區"
"237014","433-BY","2017/08/08 18:59:50","新北市三峽區大勇路14號","121.367136666667","24.93811","6500900","三峽區"
"237006","5529-G3","2017/08/08 18:59:28","新北市三峽區溪東路213號","121.405456666667","24.9330416666667","6500900","三峽區"
"237011","572-TV","2017/08/08 18:09:47","新北市三峽區橫溪路3號","121.396075","24.9361266666667","6500900","三峽區"
"237016","649-BX","2017/08/08 18:59:34","新北市三峽區安坑33-5號","121.451413333333","24.9301416666667","6500900","三峽區"
"237010","706-TV","2017/08/08 18:59:30","新北市三峽區國光街153號","121.371895","24.9393266666667","6500900","三峽區"
"237005","AKY-6261","2017/08/08 18:59:42","新北市三峽區中山路459巷163-3號","121.348638333333","24.932905","6500900","三峽區"
"236070","105-UM","2017/08/08 18:59:34","新北市土城區清水路70號","121.456398333333","24.981675","6501300","土城區"
"236043","107-UM","2017/08/08 18:59:43","新北市土城區學府路一段223號","121.451326666667","24.9842616666667","6501300","土城區"
"236079","166-UM","2017/08/08 18:59:39","新北市土城區中央路四段133-1號","121.41599","24.95741","6501300","土城區"
"236031","253-BX","2017/08/08 18:59:36","新北市土城區興城路75號","121.440091666667","24.97075","6501300","土城區"
"236027","269-VK","2017/08/08 18:59:44","新北市土城區中正路49號","121.444108333333","24.97556","6501300","土城區"
"236015","270-VK","2017/08/08 18:59:39","新北市土城區永豐路21號","121.462841666667","24.9881383333333","6501300","土城區"
"236038","271-VK","2017/08/08 18:59:50","新北市土城區仁愛路54巷13號","121.462003333333","24.9783016666667","6501300","土城區"
"236023","401-BY","2017/08/08 18:59:34","新北市土城區明峰街50號","121.467736666667","24.986465","6501300","土城區"
"236063","752-BX","2017/08/08 18:59:42","新北市土城區延和路41巷2弄2號","121.466056666667","24.9896983333333","6501300","土城區"
"236059","912-UM","2017/08/08 18:59:48","新北市土城區清水路5號","121.453098333333","24.980395","6501300","土城區"
"236049","913-UM","2017/08/08 18:59:32","新北市土城區青雲路316號","121.458923333333","24.9779266666667","6501300","土城區"
"236055","AAC-216","2017/08/08 18:59:40","新北市土城區學成路143號","121.448928333333","24.9895133333333","6501300","土城區"
"242046","441-UM","2017/08/08 18:59:44","新北市樹林區太平路262號","121.418458333333","24.9725266666667","6500500","新莊區"
"242002","413-TV","2017/08/08 18:59:39","新北市新莊區新泰路357巷3弄57號","121.441903333333","25.0394383333333","6500500","新莊區"
"238023","601-UM","2017/08/08 18:59:43","新北市樹林區工興街14巷1號","121.398986666667","25.013755","6500700","樹林區"
"238019","599-UM","2017/08/08 18:59:49","新北市樹林區東榮街91巷1弄2號","121.416235","24.98233","6500700","樹林區"
"238018","571-TV","2017/08/08 18:59:42","新北市樹林區鎮前街347巷1弄39號","121.417766666667","24.9842833333333","6500700","樹林區"
"238022","312-TH","2017/08/08 18:59:42","新北市樹林區東興街2-2號","121.409273333333","24.9795866666667","6500700","樹林區"
"238021","311-TH","2017/08/08 18:59:34","新北市樹林區西圳街二段82-2號","121.385471666667","24.958395","6500700","樹林區"
"238025","303-VK","2017/08/08 18:59:42","新北市樹林區民和街83巷10號","121.378676666667","24.9730366666667","6500700","樹林區"
"238017","283-BY","2017/08/08 18:59:40","新北市樹林區光興街50號","121.409856666667","25.0027516666667","6500700","樹林區"
"238014","282-BY","2017/08/08 18:59:46","新北市樹林區潭興街143巷11號","121.425411666667","24.9999966666667","6500700","樹林區"
"238020","268-VK","2017/08/08 18:59:46","新北市樹林區俊英街83巷1號","121.42578","25.0080233333333","6500700","樹林區"
"238026","172-UY","2017/08/08 18:59:37","新北市樹林區吉祥街3巷2號","121.392453333333","24.9729066666667","6500700","樹林區"
"238016","169-UY","2017/08/08 18:59:37","新北市樹林區文化街28號","121.419295","24.9877016666667","6500700","樹林區"
"239007","AAC-297","2017/08/08 18:59:45","新北市鶯歌區中山路6號","121.352998333333","24.95729","6500800","鶯歌區"
"239006","891-R6","2017/08/08 18:59:50","新北市鶯歌區鶯桃路296巷46-1號","121.33569","24.96127","6500800","鶯歌區"
"239008","527-UM","2017/08/08 18:59:38","新北市鶯歌區國際二路16巷1號","121.337446666667","24.974715","6500800","鶯歌區"
"239005","526-UM","2017/08/08 18:59:31","新北市鶯歌區大湖路532號","121.337208333333","24.972425","6500800","鶯歌區"
"239001","417-VK","2017/08/08 18:59:34","新北市鶯歌區永安街19號","121.337895","24.95564","6500800","鶯歌區"
"239003","360-BY","2017/08/08 18:59:43","新北市鶯歌區鶯桃路599號","121.32923","24.9689683333333","6500800","鶯歌區"
"239002","359-BY","2017/08/08 18:59:45","新北市鶯歌區仁愛路1號","121.353695","24.956875","6500800","鶯歌區"
"239004","193-VK","2017/08/08 18:59:39","新北市鶯歌區中正三路408號","121.325521666667","24.9346233333333","6500800","鶯歌區"
"221008","489-VK","2017/08/08 18:59:32","新北市汐止區康寧街815巷11號","121.64074","25.07489","6501100","汐止區"
"221036","130-UY","2017/08/08 18:59:44","新北市汐止區忠孝東路314巷13號","121.664471666667","25.0687033333333","6501100","汐止區"
"221015","131-UY","2017/08/08 18:59:36","新北市汐止區大同路二段373號","121.65728","25.06727","6501100","汐止區"
"221010","269-BY","2017/08/08 18:59:36","新北市汐止區康寧街901號","121.651393333333","25.0750283333333","6501100","汐止區"
"221012","278-VK","2017/08/08 18:59:47","新北市汐止區康寧街901號","121.650763333333","25.075205","6501100","汐止區"
"221023","279-VK","2017/08/08 02:06:46","新北市汐止區汐萬路一段256巷1號","121.651875","25.0748716666667","6501100","汐止區"
"221032","280-BY","2017/08/08 18:59:47","新北市汐止區橫科路407巷30弄28號","121.627318333333","25.048285","6501100","汐止區"
"221027","281-BY","2017/08/08 18:58:06","新北市汐止區康寧街901號","121.650883333333","25.075225","6501100","汐止區"
"221038","297-VK","2017/08/08 18:59:42","新北市汐止區汐萬路一段312號","121.650691666667","25.0752883333333","6501100","汐止區"
"221029","298-VK","2017/08/08 18:59:41","新北市汐止區樟樹一路258號","121.64245","25.0673766666667","6501100","汐止區"
"221021","299-VK","2017/08/08 17:34:28","新北市汐止區汐萬路一段256巷1號","121.652043333333","25.0747066666667","6501100","汐止區"
"221031","353-TW","2017/08/08 18:59:46","新北市汐止區福德一路300巷23號","121.63066","25.064135","6501100","汐止區"
"221025","623-UM","2017/08/08 18:59:49","新北市汐止區汐萬路一段256巷3號","121.652543333333","25.0745633333333","6501100","汐止區"
"221033","647-BX","2017/08/08 18:59:39","新北市汐止區南勢街1巷1號","121.627046666667","25.0374366666667","6501100","汐止區"
"221002","707-TV","2017/08/08 18:59:40","新北市汐止區大同路一段2號","121.620956666667","25.05496","6501100","汐止區"
"221018","753-BX","2017/08/08 18:59:28","新北市汐止區大同路二段407號","121.658258333333","25.0672616666667","6501100","汐止區"
"220079","145-BY","2017/08/08 18:59:50","新北市板橋區民權路202巷9弄60號","121.459266666667","25.015735","6500100","板橋區"
"220080","200-UY","2017/08/08 18:59:45","新北市板橋區大觀路二段265巷60弄5號","121.442538333333","24.99798","6500100","板橋區"
"220082","610-BX","2017/08/08 18:59:47","新北市板橋區篤行路二段136號","121.42985","24.9884633333333","6500100","板橋區"
"220055","255-TC","2017/08/08 18:59:12","新北市板橋區中山路一段162號","121.46667","25.012585","6500100","板橋區"
"220075","256-TC","2017/08/08 18:59:42","新北市板橋區館前西路213巷6號","121.454465","25.00841","6500100","板橋區"
"220103","257-TC","2017/08/08 18:59:30","新北市板橋區民生路二段123號","121.470703333333","25.018545","6500100","板橋區"
"220056","276-BY","2017/08/08 18:59:41","新北市板橋區信義路78號","121.457613333333","24.9932783333333","6500100","板橋區"
"220072","277-BY","2017/08/08 18:59:46","新北市板橋區篤行路一段22號","121.431938333333","24.9943983333333","6500100","板橋區"
"220094","283-UM","2017/08/08 18:59:41","新北市板橋區民生路二段250號","121.468443333333","25.02328","6500100","板橋區"
"220071","283-VK","2017/08/08 18:59:40","新北市板橋區館前東路144號","121.464203333333","25.007815","6500100","板橋區"
"220101","285-UM","2017/08/08 18:59:42","新北市板橋區民生路二段232-12號","121.468675","25.0225016666667","6500100","板橋區"
"220053","285-VK","2017/08/08 18:59:47","新北市板橋區中山路二段89巷66號","121.473635","25.0175516666667","6500100","板橋區"
"220083","286-VK","2017/08/08 18:59:37","新北市板橋區僑中二街90巷1號","121.446426666667","25.0091066666667","6500100","板橋區"
"220081","287-VK","2017/08/08 18:59:46","新北市板橋區光華街15巷45號","121.452643333333","25.011465","6500100","板橋區"
"220090","288-VK","2017/08/08 18:59:51","新北市板橋區文化路一段435巷16號","121.467901666667","25.02358","6500100","板橋區"
"220061","293-UM","2017/08/08 18:59:48","新北市板橋區富山街109巷71號","121.475268333333","25.021195","6500100","板橋區"
"220013","295-UM","2017/08/08 13:48:42","新北市板橋區民生路二段22號","121.472998333333","25.01675","6500100","板橋區"
"220084","296-UM","2017/08/08 18:59:51","新北市板橋區大觀路二段156巷82號","121.441171666667","25.0010983333333","6500100","板橋區"
"220098","299-UM","2017/08/08 18:59:48","新北市板橋區民生路二段236號","121.468131666667","25.0231733333333","6500100","板橋區"
"220062","303-R5","2017/08/08 18:59:46","新北市板橋區民享街138號","121.477956666667","25.0164333333333","6500100","板橋區"
"220092","307-R5","2017/08/08 18:59:46","新北市板橋區民生路二段89-4號","121.471055","25.018495","6500100","板橋區"
"220034","461-BY","2017/08/08 15:23:19","新北市板橋區華東街1-10號","121.448698333333","24.995025","6500100","板橋區"
"220064","486-VK","2017/08/08 18:59:38","新北市板橋區漢生東路178號","121.467213333333","25.0145366666667","6500100","板橋區"
"220089","487-VK","2017/08/08 18:59:37","新北市板橋區民生路二段224號","121.469138333333","25.0218516666667","6500100","板橋區"
"220088","491-VK","2017/08/08 18:59:39","新北市板橋區民生路二段148號","121.471331666667","25.0198133333333","6500100","板橋區"
"220035","560-BX","2017/08/08 18:59:44","新北市板橋區中正路325巷3弄23號","121.453953333333","25.01854","6500100","板橋區"
"220063","609-BX","2017/08/08 18:59:46","新北市板橋區三民路二段17號","121.479275","25.0182966666667","6500100","板橋區"
"220086","630-UY","2017/08/08 18:59:38","新北市板橋區大智街10號","121.45612","25.01482","6500100","板橋區"
"220091","637-BX","2017/08/08 18:59:35","新北市板橋區莊敬路208巷2弄6號","121.47176","25.0216366666667","6500100","板橋區"
"220057","686-BX","2017/08/08 18:59:31","新北市板橋區中山路一段156-3號","121.46549","25.0114516666667","6500100","板橋區"
"220077","687-BX","2017/08/08 18:59:38","新北市板橋區龍興街65巷1號","121.443398333333","25.0013433333333","6500100","板橋區"
"220093","689-BX","2017/08/08 18:59:44","新北市板橋區民生路二段220號","121.469175","25.0217183333333","6500100","板橋區"
"220054","741-BX","2017/08/08 18:59:35","新北市板橋區中山路一段2號","121.459871666667","25.0076633333333","6500100","板橋區"
"220067","829-TW","2017/08/08 18:59:32","新北市板橋區三民路二段186巷34號","121.477568333333","25.01405","6500100","板橋區"
"220102","830-TW","2017/08/08 18:59:35","新北市板橋區莊敬路221號","121.47168","25.0218266666667","6500100","板橋區"
"220074","895-R6","2017/08/08 18:59:38","新北市板橋區林園街52號","121.453616666667","25.0106866666667","6500100","板橋區"
"220073","985-R7","2017/08/08 18:59:47","新北市板橋區中正路149號","121.456641666667","25.015735","6500100","板橋區"
"220097","AAC-210","2017/08/08 18:59:34","新北市板橋區民生路二段232-11號","121.468585","25.0225066666667","6500100","板橋區"
"220070","AAC-253","2017/08/08 18:59:50","新北市板橋區中山路一段156-3號","121.465423333333","25.011735","6500100","板橋區"
