"lineid","car","time","location","longitude","latitude","cityid","cityname"
"234046","148-BY","2017/08/08 19:59:31","新北市永和區永利路244號","121.52407","25.0025616666667","6500400","永和區"
"234013","149-BY","2017/08/08 19:59:22","新北市永和區保生路55號","121.504823333333","25.0106416666667","6500400","永和區"
"234007","207-UY","2017/08/08 19:59:36","新北市永和區保生路22巷19弄2號","121.507046666667","25.0083216666667","6500400","永和區"
"234081","298-R6","2017/08/08 19:59:40","新北市永和區國中路1號","121.523836666667","25.0044033333333","6500400","永和區"
"234038","336-UY","2017/08/08 19:59:27","新北市永和區成功路二段7號","121.52685","25.0012316666667","6500400","永和區"
"234064","337-UY","2017/08/08 19:59:25","新北市永和區中正路368巷1弄12號","121.518523333333","25.001025","6500400","永和區"
"234084","338-UY","2017/08/08 19:59:39","新北市永和區福和路159號","121.52033","25.0076733333333","6500400","永和區"
"234070","552-UM","2017/08/08 19:59:22","新北市永和區福和路183巷1號","121.519968333333","25.0073266666667","6500400","永和區"
"234054","553-UM","2017/08/08 19:59:24","新北市永和區竹林路39巷30號","121.5195","25.015","6500400","永和區"
"234017","745-BX","2017/08/08 19:59:24","新北市永和區文化路121巷3號","121.512513333333","25.0150116666667","6500400","永和區"
"234030","746-BX","2017/08/08 19:59:38","新北市永和區民權路49巷5弄25號","121.521168333333","24.9977933333333","6500400","永和區"
"234061","AAD-866","2017/08/08 19:59:28","新北市永和區中正路283巷4號","121.517203333333","25.0011216666667","6500400","永和區"
"234042","862-TW","2017/08/08 19:59:31","新北市永和區中和路305巷2弄28號","121.507473333333","25","6500400","永和區"
"234050","863-TW","2017/08/08 19:59:31","新北市永和區永平路247號","121.506675","25.012715","6500400","永和區"
"234026","9371-KE","2017/08/08 19:59:33","新北市永和區水源街21巷1號","121.51145","25.004545","6500400","永和區"
"234010","9373-KE","2017/08/08 19:59:23","新北市永和區仁愛路352巷94號","121.501166666667","25.0079716666667","6500400","永和區"
"249005","172-UM","2017/08/08 19:59:11","新北市八里區楓林路4號","121.382246666667","25.129695","6502300","八里區"
"249001","173-UM","2017/08/08 19:59:40","新北市八里區中華路二段312號","121.403638333333","25.1484833333333","6502300","八里區"
"249004","303-UY","2017/08/08 19:59:36","新北市八里區中華路一段333-1號","121.412493333333","25.1547866666667","6502300","八里區"
"249002","305-UY","2017/08/08 19:59:39","新北市八里區龍米路一段87巷1號","121.454283333333","25.1234933333333","6502300","八里區"
"249003","593-UM","2017/08/08 19:59:31","新北市八里區中華路二段568號","121.398595","25.144645","6502300","八里區"
"248014","025-BX","2017/08/08 19:59:26","新北市五股區五福路22巷5號","121.434506666667","25.0889966666667","6501500","五股區"
"248016","026-BX","2017/08/08 19:59:39","新北市五股區成泰路三段577巷80弄25號","121.449571666667","25.1045816666667","6501500","五股區"
"248008","095-VK","2017/08/08 19:59:36","新北市五股區四維路169號","121.467675","25.0750816666667","6501500","五股區"
"248020","225-UY","2017/08/08 19:59:38","新北市五股區凌雲路三段26-40號","121.434663333333","25.1043","6501500","五股區"
"248012","247-BX","2017/08/08 19:59:25","新北市五股區民義路一段71-1號","121.435511666667","25.0851466666667","6501500","五股區"
"248004","677-BX","2017/08/08 19:59:38","新北市五股區成泰路一段56號","121.435465","25.0695166666667","6501500","五股區"
"248002","678-BX","2017/08/08 19:59:27","新北市五股區成泰路三段436號","121.450825","25.0994933333333","6501500","五股區"
"248010","682-TV","2017/08/08 19:59:35","新北市五股區登林路79-4號","121.427676666667","25.0706","6501500","五股區"
"234023","9380-KE","2017/08/08 19:59:34","新北市永和區中正路702巷20弄1號","121.516546666667","25.010525","6500400","永和區"
"234077","969-R7","2017/08/08 19:59:27","新北市永和區中正路87號","121.515275","24.9971133333333","6500400","永和區"
"234074","AAC-211","2017/08/08 19:59:27","新北市永和區豫溪街185號","121.522516666667","25.0103633333333","6500400","永和區"
"234067","AAC-212","2017/08/08 19:59:23","新北市永和區中山路一段281巷3號","121.507306666667","25.0067583333333","6500400","永和區"
"234003","AAC-295","2017/08/08 19:59:29","新北市永和區永和路二段35號","121.514471666667","25.010285","6500400","永和區"
"243013","AAD-798","2017/08/08 19:59:35","新北市泰山區應化街7號","121.423885","25.0437133333333","6501600","泰山區"
"243009","297-R6","2017/08/08 19:59:30","新北市泰山區楓江路16巷32號","121.434011666667","25.061475","6501600","泰山區"
"243015","380-SR","2017/08/08 19:59:35","新北市泰山區文程路1號","121.427548333333","25.0496433333333","6501600","泰山區"
"243014","421-VK","2017/08/08 19:59:43","新北市泰山區泰林路二段175號","121.433685","25.0607966666667","6501600","泰山區"
"243010","548-UM","2017/08/08 19:59:38","新北市泰山區中華街10巷1號","121.427863333333","25.0525216666667","6501600","泰山區"
"243011","549-UM","2017/08/08 19:59:38","新北市泰山區明志路三段338號","121.422058333333","25.03546","6501600","泰山區"
"243012","646-TV","2017/08/08 19:59:29","新北市泰山區全興路184號","121.433271666667","25.0572733333333","6501600","泰山區"
"243016","680-BX","2017/08/08 19:59:25","新北市泰山區新北大道六段369號","121.422401666667","25.0328766666667","6501600","泰山區"
"222003","436-BY","2017/08/08 19:59:25","新北市深坑區埔新街14號","121.620701666667","25.0039483333333","6501800","深坑區"
"222002","659-BX","2017/08/08 19:59:42","新北市深坑區北深路二段81巷8弄6號","121.618221666667","25.0031466666667","6501800","深坑區"
"222001","696-SL","2017/08/08 19:59:26","新北市深坑區北深路三段166號","121.602266666667","25.003415","6501800","深坑區"
"231041","001-UM","2017/08/08 19:59:30","新北市新店區中正路347號","121.535428333333","24.9758466666667","6500600","新店區"
"231056","0291-UT","2017/08/08 19:59:20","新北市新店區民權路42巷6弄2號","121.5404","24.9833016666667","6500600","新店區"
"231059","046-UY","2017/08/08 19:59:23","新北市新店區安康路二段190號","121.511306666667","24.9600483333333","6500600","新店區"
"231061","047-UY","2017/08/08 19:59:32","新北市新店區安興路83-8號","121.515215","24.9757133333333","6500600","新店區"
"231060","106-UY","2017/08/08 19:59:25","新北市新店區安康路二段335號","121.498736666667","24.9563216666667","6500600","新店區"
"231051","107-UY","2017/08/08 19:59:28","新北市新店區中央二街12號","121.528965","24.9732133333333","6500600","新店區"
"231048","108-UY","2017/08/08 19:59:37","新北市新店區寶宏路6-3號","121.549165","24.9765983333333","6500600","新店區"
"231053","110-UY","2017/08/08 19:59:25","新北市新店區新烏路二段212-1號","121.547545","24.916055","6500600","新店區"
"231057","256-BX","2017/08/08 19:59:29","新北市新店區花園二路一段11號","121.555531666667","24.9324983333333","6500600","新店區"
"231063","268-BY","2017/08/08 19:59:39","新北市新店區黎明路52巷1號","121.502288333333","24.9486333333333","6500600","新店區"
"231050","AAD-862","2017/08/08 19:59:34","新北市新店區中生路61號","121.564723333333","24.952295","6500600","新店區"
"231055","3713-VJ","2017/08/08 19:59:23","新北市新店區中華路83巷67號","121.538326666667","24.9672333333333","6500600","新店區"
"231067","4772-VM","2017/08/08 19:59:31","新北市新店區秀山路11巷28號","121.531506666667","24.958645","6500600","新店區"
"231065","512-UM","2017/08/08 19:59:26","新北市新店區安祥路109巷2號","121.475235","24.9586683333333","6500600","新店區"
"231054","513-UM","2017/08/08 19:59:30","新北市新店區光明街22號","121.538045","24.95861","6500600","新店區"
"231064","515-UM","2017/08/08 19:59:37","新北市新店區光華街7巷2號","121.517581666667","24.9690266666667","6500600","新店區"
"231045","617-UM","2017/08/08 19:59:30","新北市新店區北宜路二段82-11號","121.554586666667","24.95344","6500600","新店區"
"231040","619-UM","2017/08/08 19:59:20","新北市新店區中正路62號","121.54432","24.9701666666667","6500600","新店區"
"231042","641-BX","2017/08/08 19:59:24","新北市新店區中興路二段89號","121.547056666667","24.9713966666667","6500600","新店區"
"231068","718-UY","2017/08/08 19:59:36","新北市新店區安康路一段299-3號","121.520918333333","24.9638066666667","6500600","新店區"
"231049","719-UM","2017/08/08 19:59:32","新北市新店區民族路9號","121.54175","24.97871","6500600","新店區"
"231062","720-UM","2017/08/08 19:59:37","新北市新店區華城路10巷2-2號","121.52921","24.9583866666667","6500600","新店區"
"231044","897-TW","2017/08/08 19:59:31","新北市新店區復興路44-1號","121.53861","24.986775","6500600","新店區"
"231043","899-TW","2017/08/08 19:59:40","新北市新店區中正路263-2號","121.538418333333","24.973735","6500600","新店區"
"231066","AKT-0513","2017/08/08 19:59:20","新北市新店區薏仁坑路23號","121.49788","24.9588766666667","6500600","新店區"
"241011","013-R5","2017/08/08 19:59:27","新北市三重區三和路二段210號","121.498055","25.06949","6500200","三重區"
"241028","022-UY","2017/08/08 19:59:24","新北市三重區重新路三段84號","121.49335","25.0607","6500200","三重區"
"241008","059-VK","2017/08/08 19:59:41","新北市三重區永福街179巷26號","121.478135","25.0748383333333","6500200","三重區"
"241009","060-VK","2017/08/08 19:59:24","新北市三重區三和路四段390巷25號","121.480791666667","25.07876","6500200","三重區"
"241031","061-VK","2017/08/08 19:59:20","新北市三重區重新路四段184巷16號","121.487101666667","25.0550316666667","6500200","三重區"
"241015","062-VK","2017/08/08 19:59:29","新北市三重區三和路二段8號","121.501131666667","25.0669516666667","6500200","三重區"
"241017","063-VK","2017/08/08 19:59:33","新北市三重區自強路一段282號","121.491845","25.068075","6500200","三重區"
"241024","065-VK","2017/08/08 19:59:31","新北市三重區力行路一段176號","121.482038333333","25.0714366666667","6500200","三重區"
"241026","066-VK","2017/08/08 19:59:36","新北市三重區仁慈街29號","121.502305","25.0631133333333","6500200","三重區"
"241003","091-VK","2017/08/08 19:59:33","新北市三重區五華街93巷2號","121.492021666667","25.083755","6500200","三重區"
"241005","262-UM","2017/08/08 19:59:39","新北市三重區溪尾街325巷11號","121.488561666667","25.0837383333333","6500200","三重區"
"241006","265-UM","2017/08/08 19:59:28","新北市三重區力行路二段33巷8號","121.482441666667","25.0736483333333","6500200","三重區"
"241016","266-UM","2017/08/08 19:59:27","新北市三重區正義北路36巷10號","121.496695","25.0633133333333","6500200","三重區"
"241022","267-UM","2017/08/08 19:59:24","新北市三重區新北大道一段7號","121.489756666667","25.061635","6500200","三重區"
"241018","268-UM","2017/08/08 19:59:38","新北市三重區雙園街74號","121.495581666667","25.0676733333333","6500200","三重區"
"241032","269-UM","2017/08/08 19:59:35","新北市三重區朝陽街25號","121.483598333333","25.0565533333333","6500200","三重區"
"241013","270-UM","2017/08/08 19:59:33","新北市三重區三和路三段125巷6號","121.493158333333","25.073535","6500200","三重區"
"241025","271-UM","2017/08/08 19:59:26","新北市三重區頂崁街210巷26號","121.476088333333","25.0678983333333","6500200","三重區"
"241007","398-BY","2017/08/08 19:59:34","新北市三重區慈愛街60號","121.48685","25.079375","6500200","三重區"
"241020","412-TH","2017/08/08 19:59:36","新北市三重區大智街163號","121.489836666667","25.0723666666667","6500200","三重區"
"241004","475-VK","2017/08/08 19:59:27","新北市三重區仁愛街425巷95號","121.492281666667","25.082705","6500200","三重區"
"241019","478-VK","2017/08/08 19:59:39","新北市三重區重陽路四段20號","121.490978333333","25.0692133333333","6500200","三重區"
"241030","480-VK","2017/08/08 19:59:23","新北市三重區重新路四段246號","121.485778333333","25.0534883333333","6500200","三重區"
"241014","543-UM","2017/08/08 19:59:37","新北市三重區三和路二段107號","121.499313333333","25.0686416666667","6500200","三重區"
"241023","545-UM","2017/08/08 19:59:37","新北市三重區頂崁街172號","121.477625","25.065965","6500200","三重區"
"241001","547-UM","2017/08/08 19:59:24","新北市三重區仁愛街283巷42號","121.4946","25.0800933333333","6500200","三重區"
"241035","743-BX","2017/08/08 19:59:21","新北市三重區大榮街11號","121.498226666667","25.06323","6500200","三重區"
"241029","887-TS","2017/08/08 19:59:33","新北市三重區重安街1號","121.489975","25.0583983333333","6500200","三重區"
"241012","941-UM","2017/08/08 19:59:32","新北市三重區仁厚街48號","121.500255","25.07653","6500200","三重區"
"241033","AAC-255","2017/08/08 19:59:22","新北市三重區中興北街34號","121.46971","25.04891","6500200","三重區"
"235066","003-UY","2017/08/08 19:59:29","新北市中和區中山路二段67號","121.504093333333","25.004505","6500300","中和區"
"235056","096-UM","2017/08/08 19:59:22","新北市中和區中山路三段170巷8弄19號","121.473066666667","25.0077083333333","6500300","中和區"
"235039","097-UM","2017/08/08 19:59:36","新北市中和區大勇街25巷38弄1號","121.515771666667","24.993715","6500300","中和區"
"235065","098-UM","2017/08/08 19:59:39","新北市中和區福祥路90巷7弄5號","121.499458333333","25.0061633333333","6500300","中和區"
"235040","150-BY","2017/08/08 19:59:22","新北市中和區保健路31號","121.508678333333","24.9977383333333","6500300","中和區"
"235058","151-BY","2017/08/08 19:59:25","新北市中和區員山路150-16號","121.481285","24.997775","6500300","中和區"
"235055","183-VK","2017/08/08 19:59:20","新北市中和區德光路15巷17號","121.471376666667","25.0035883333333","6500300","中和區"
"235038","185-VK","2017/08/08 19:59:24","新北市中和區立人街69巷11號","121.520176666667","24.9934716666667","6500300","中和區"
"235049","186-VK","2017/08/08 19:59:37","新北市中和區景平路385巷70號","121.500836666667","24.9945283333333","6500300","中和區"
"235067","255-BX","2017/08/08 19:59:29","新北市中和區中正路751巷3弄9號","121.484388333333","24.9993166666667","6500300","中和區"
"235044","293-VK","2017/08/08 19:59:36","新北市中和區南山路126號","121.5035","24.9929833333333","6500300","中和區"
"235043","352-BY","2017/08/08 19:59:24","新北市中和區興南路二段159巷12號","121.505161666667","24.9831766666667","6500300","中和區"
"235051","376-QA","2017/08/08 19:59:33","新北市中和區中興街233巷8弄8號","121.50116","24.9892833333333","6500300","中和區"
"235068","377-QA","2017/08/08 19:59:24","新北市中和區福美路301巷21號","121.497605","25.0040183333333","6500300","中和區"
"235061","378-QA","2017/08/08 19:59:25","新北市中和區民安街2巷35弄5號","121.47978","25.00155","6500300","中和區"
"235050","4979-A6","2017/08/08 19:59:34","新北市中和區景平路296號","121.512833333333","24.9925566666667","6500300","中和區"
"235069","4980-A6","2017/08/08 19:59:42","新北市中和區景新街50巷10號","121.503431666667","24.9985466666667","6500300","中和區"
"235070","558-UM","2017/08/08 19:59:21","新北市中和區連城路171巷38號","121.495991666667","24.9966566666667","6500300","中和區"
"235054","640-BX","2017/08/08 19:59:35","新北市中和區莒光路155號","121.47262","25.0009","6500300","中和區"
"235060","647-TV","2017/08/08 19:59:31","新北市中和區新生街16巷11號","121.482595","25.0042483333333","6500300","中和區"
"235047","732-UM","2017/08/08 19:59:34","新北市中和區和平街146號","121.506145","24.991885","6500300","中和區"
"235046","733-UM","2017/08/08 19:59:33","新北市中和區興南路一段93巷53號","121.51021","24.98735","6500300","中和區"
"235057","801-TS","2017/08/08 19:59:24","新北市中和區民樂路3號","121.481565","25.001155","6500300","中和區"
"235041","802-TS","2017/08/08 19:59:26","新北市中和區永貞路246號","121.514303333333","25.00368","6500300","中和區"
"235052","805-TS","2017/08/08 19:59:26","新北市中和區華新街192巷22弄12號","121.50705","24.9834883333333","6500300","中和區"
"235048","896-TW","2017/08/08 19:59:36","新北市中和區興南路一段50號","121.510973333333","24.9905133333333","6500300","中和區"
"235053","900-TW","2017/08/08 19:59:24","新北市中和區國光街189巷22號","121.467716666667","25.00089","6500300","中和區"
"235037","AAC-213","2017/08/08 19:59:38","新北市中和區自立路52號","121.523178333333","24.9921233333333","6500300","中和區"
"235059","AAC-215","2017/08/08 19:59:30","新北市中和區圓通路365號","121.491363333333","24.989925","6500300","中和區"
"220068","013-TV","2017/08/08 19:59:31","新北市板橋區中山路二段379號","121.480056666667","25.019255","6500100","板橋區"
"220065","072-UY","2017/08/08 19:59:30","新北市板橋區海山路39號","121.467278333333","25.0097133333333","6500100","板橋區"
"220106","075-UY","2017/08/08 19:59:23","新北市板橋區民治街57巷26號","121.480111666667","25.03387","6500100","板橋區"
"220069","AAD-861","2017/08/08 19:59:23","新北市板橋區南雅南路二段11-18號","121.45481","25.00168","6500100","板橋區"
"220096","120-SR","2017/08/08 19:59:38","新北市板橋區莒光路15巷34號","121.470613333333","25.0255366666667","6500100","板橋區"
"247020","893-R6","2017/08/08 19:59:26","新北市蘆洲區民義街75號","121.473268333333","25.0901133333333","6501400","蘆洲區"
"247017","500-BY","2017/08/08 19:59:22","新北市蘆洲區民族路225號","121.477615","25.0898283333333","6501400","蘆洲區"
"247006","341-TH","2017/08/08 19:59:36","新北市蘆洲區九芎街71巷25號","121.466316666667","25.0779066666667","6501400","蘆洲區"
"247008","339-TH","2017/08/08 19:59:26","新北市蘆洲區信義路73巷8號","121.47612","25.0803583333333","6501400","蘆洲區"
"247024","337-TH","2017/08/08 19:59:32","新北市蘆洲區光明路112巷29弄13號","121.46424","25.0877016666667","6501400","蘆洲區"
"247002","336-TH","2017/08/08 19:59:40","新北市蘆洲區長安街270號","121.457313333333","25.086875","6501400","蘆洲區"
"247014","057-VK","2017/08/08 19:59:25","新北市蘆洲區成功路121號","121.472448333333","25.08211","6501400","蘆洲區"
"247004","056-VK","2017/08/08 19:59:32","新北市蘆洲區中原路79號","121.458215","25.0818766666667","6501400","蘆洲區"
"247012","007-UY","2017/08/08 19:59:30","新北市蘆洲區民族路236巷29號","121.480185","25.0886016666667","6501400","蘆洲區"
"247022","002-UY","2017/08/08 19:59:25","新北市蘆洲區中正路186號","121.46692","25.0880216666667","6501400","蘆洲區"
"247016","001-UY","2017/08/08 19:59:19","新北市蘆洲區光華路96號","121.467548333333","25.0826383333333","6501400","蘆洲區"
"228003","828-UM","2017/08/08 19:59:35","新北市貢寮區仁理村仁和路186號","121.923385","25.0523666666667","6502600","貢寮區"
"224010","AGQ-8101","2017/08/08 19:59:34","新北市瑞芳區輕便路300號","121.843528333333","25.10894","6501200","瑞芳區"
"224011","420-VK","2017/08/08 19:59:31","新北市瑞芳區崙頂路1-6號","121.84705","25.104715","6501200","瑞芳區"
"227003","642-TC","2017/08/08 19:59:40","新北市雙溪區雙溪里長安街16號","121.864943333333","25.0347116666667","6502500","雙溪區"
"227009","400-TW","2017/08/08 19:59:29","新北市雙溪區新基里朝陽街3號","121.866226666667","25.0385916666667","6502500","雙溪區"
"208002","742-BX","2017/08/08 19:59:36","新北市金山區環金路23號","121.639918333333","25.2173916666667","6502700","金山區"
"208003","665-BX","2017/08/08 19:59:35","新北市金山區永興里濆水路7號","121.627088333333","25.2683116666667","6502700","金山區"
"251004","009-UM","2017/08/08 19:59:25","新北市淡水區民族路110巷38弄11號","121.461188333333","25.1357583333333","6501000","淡水區"
"251005","010-UM","2017/08/08 19:59:35","新北市淡水區學府路136巷1號","121.4508","25.1729916666667","6501000","淡水區"
"251014","180-VK","2017/08/08 19:59:41","新北市淡水區石頭厝14-18號","121.463945","25.2366616666667","6501000","淡水區"
"251008","181-VK","2017/08/08 19:59:39","新北市淡水區淡海路72巷24號","121.424256666667","25.1810416666667","6501000","淡水區"
"251010","413-VK","2017/08/08 19:59:33","新北市淡水區崁頂76-2號","121.431276666667","25.2039416666667","6501000","淡水區"
"251012","441-VK","2017/08/08 19:59:18","新北市淡水區下圭柔山109-5號","121.442161666667","25.2112666666667","6501000","淡水區"
"251016","442-VK","2017/08/08 19:59:25","新北市淡水區番子田16-13號","121.453765","25.2315883333333","6501000","淡水區"
"251001","559-UM","2017/08/08 19:59:39","新北市淡水區淡金路一段96號","121.458208333333","25.173965","6501000","淡水區"
"251006","561-UM","2017/08/08 19:59:32","新北市淡水區水碓街75號","121.444968333333","25.1774683333333","6501000","淡水區"
"251009","575-R6","2017/08/08 19:59:36","新北市淡水區英專路21巷9號","121.44509","25.1697033333333","6501000","淡水區"
"251007","577-R6","2017/08/08 19:59:30","新北市淡水區淡金路一段160號","121.454486666667","25.179445","6501000","淡水區"
"251011","650-BX","2017/08/08 19:59:24","新北市淡水區中山北路三段159號","121.445323333333","25.1965183333333","6501000","淡水區"
"207003","550-UM","2017/08/08 19:59:31","新北市萬里區磺潭里公館崙5號","121.641896666667","25.2142116666667","6502800","萬里區"
"207004","225-TW","2017/08/08 19:59:21","新北市萬里區北基里忠二街35號","121.685663333333","25.1757616666667","6502800","萬里區"
"252002","178-VK","2017/08/08 19:59:21","新北市三芝區忠孝街112-3號","121.50551","25.2576816666667","6502100","三芝區"
"252001","292-VK","2017/08/08 19:59:19","新北市三芝區公正街9號","121.49972","25.2574933333333","6502100","三芝區"
"237004","078-UY","2017/08/08 19:59:35","新北市三峽區嘉添187號","121.369313333333","24.91124","6500900","三峽區"
"237007","153-BY","2017/08/08 19:59:40","新北市三峽區二鬮路136巷20弄9號","121.356548333333","24.9098933333333","6500900","三峽區"
"237009","210-TH","2017/08/08 19:59:28","新北市三峽區民族街28巷2-1號","121.369216666667","24.93085","6500900","三峽區"
"237012","275-BY","2017/08/08 19:59:29","新北市三峽區中華路3巷6-1號","121.37497","24.931155","6500900","三峽區"
"237008","302-VK","2017/08/08 19:59:33","新北市三峽區安溪路345號","121.370063333333","24.92638","6500900","三峽區"
"237014","433-BY","2017/08/08 19:59:30","新北市三峽區介壽路一段1號","121.375298333333","24.9339866666667","6500900","三峽區"
"237006","5529-G3","2017/08/08 19:59:28","新北市三峽區中正路二段168號","121.366041666667","24.9156983333333","6500900","三峽區"
"237016","649-BX","2017/08/08 19:59:34","新北市三峽區橫溪路99巷5號","121.399648333333","24.9360266666667","6500900","三峽區"
"237005","AKY-6261","2017/08/08 19:59:22","新北市三峽區民生街1巷13-1號","121.380023333333","24.9355733333333","6500900","三峽區"
"236070","105-UM","2017/08/08 19:59:34","新北市土城區忠義路77-1號","121.44272","24.9653583333333","6501300","土城區"
"236043","107-UM","2017/08/08 19:59:19","新北市土城區學府路一段143巷35號","121.454421666667","24.98529","6501300","土城區"
"236079","166-UM","2017/08/08 19:59:39","新北市土城區福安街53號","121.41858","24.9643983333333","6501300","土城區"
"236031","253-BX","2017/08/08 19:59:36","新北市土城區中華路一段205號","121.44288","24.9848883333333","6501300","土城區"
"236027","269-VK","2017/08/08 19:59:24","新北市土城區中央路二段91號","121.442401666667","24.9779366666667","6501300","土城區"
"236015","270-VK","2017/08/08 19:59:30","新北市土城區廣福街123號","121.456301666667","24.992925","6501300","土城區"
"236038","271-VK","2017/08/08 19:59:30","新北市土城區國際路93號","121.46746","24.9757166666667","6501300","土城區"
"236023","401-BY","2017/08/08 19:59:34","新北市土城區延吉街137巷10號","121.47087","24.9855683333333","6501300","土城區"
"236063","752-BX","2017/08/08 19:59:22","新北市土城區延和路174號","121.468705","24.9903933333333","6501300","土城區"
"236059","912-UM","2017/08/08 19:59:28","新北市土城區中央路一段132號","121.44639","24.9877066666667","6501300","土城區"
"236049","913-UM","2017/08/08 19:59:32","新北市土城區金城路三段190號","121.468346666667","24.987985","6501300","土城區"
"236055","AAC-216","2017/08/08 19:59:40","新北市土城區延和路11號","121.463998333333","24.987995","6501300","土城區"
"242021","AAC-296","2017/08/08 19:59:35","新北市新莊區建中街16巷11號","121.449363333333","25.038165","6500500","新莊區"
"242029","986-R7","2017/08/08 19:59:39","新北市新莊區中榮街152巷35號","121.44536","25.053265","6500500","新莊區"
"242048","751-BX","2017/08/08 19:59:22","新北市新莊區後港二路2巷1號","121.42307","25.0245316666667","6500500","新莊區"
"242025","615-BX","2017/08/08 19:59:22","新北市新莊區五工一路88號","121.461308333333","25.0675716666667","6500500","新莊區"
"242023","613-BX","2017/08/08 19:59:25","新北市新莊區化成路354號","121.465838333333","25.0492266666667","6500500","新莊區"
"242027","612-BX","2017/08/08 19:59:37","新北市新莊區立信一街62號","121.443253333333","25.04973","6500500","新莊區"
"242037","566-BX","2017/08/08 19:59:28","新北市新莊區建安街41巷2號","121.428923333333","25.025475","6500500","新莊區"
"242042","497-BY","2017/08/08 19:59:31","新北市新莊區青山路一段63號","121.407175","25.02795","6500500","新莊區"
"242005","442-UM","2017/08/08 19:59:31","新北市新莊區化成路364巷20號","121.46665","25.0493366666667","6500500","新莊區"
"242051","440-UM","2017/08/08 19:59:37","新北市新莊區西盛街163號","121.428423333333","25.0177733333333","6500500","新莊區"
"242032","415-TV","2017/08/08 19:59:31","新北市新莊區公園一路63號","121.443063333333","25.036525","6500500","新莊區"
"242002","413-TV","2017/08/08 19:59:39","新北市新莊區中正路100號","121.454651666667","25.036565","6500500","新莊區"
"242039","400-BY","2017/08/08 19:59:23","新北市新莊區民安路286號","121.427906666667","25.0216333333333","6500500","新莊區"
"242061","362-BY","2017/08/08 19:59:26","新北市新莊區瓊泰路1號","121.445043333333","25.0286","6500500","新莊區"
"242058","353-BY","2017/08/08 19:59:25","新北市新莊區八德街97號","121.42433","25.0213416666667","6500500","新莊區"
"242019","135-UY","2017/08/08 19:59:35","新北市新莊區民生街24號","121.4561","25.0421333333333","6500500","新莊區"
"242044","172-VK","2017/08/08 19:59:06","新北市新莊區新北大道七段750號","121.412203333333","25.0253483333333","6500500","新莊區"
"242007","173-VK","2017/08/08 19:59:26","新北市新莊區思源路585號","121.459845","25.0594083333333","6500500","新莊區"
"242013","175-VK","2017/08/08 19:59:28","新北市新莊區中港路465號","121.452418333333","25.0489","6500500","新莊區"
"242056","176-VK","2017/08/08 19:59:25","新北市新莊區中正路347巷24號","121.447093333333","25.0342083333333","6500500","新莊區"
"242011","346-TH","2017/08/08 19:59:39","新北市新莊區中港路531巷35號","121.449926666667","25.0513966666667","6500500","新莊區"
"242034","347-TH","2017/08/08 19:59:41","新北市新莊區建中街100號","121.446501666667","25.0365533333333","6500500","新莊區"
"242017","348-TH","2017/08/08 19:59:27","新北市新莊區中安街21號","121.452891666667","25.046075","6500500","新莊區"
"238015","755-BX","2017/08/08 19:59:02","新北市樹林區中山路三段210-2號","121.380756666667","24.9668683333333","6500700","樹林區"
"238023","601-UM","2017/08/08 19:59:34","新北市樹林區中正路118號","121.424213333333","25.00209","6500700","樹林區"
"238021","311-TH","2017/08/08 19:59:34","新北市樹林區佳園路三段111號","121.387088333333","24.9507083333333","6500700","樹林區"
"238025","303-VK","2017/08/08 19:59:22","新北市樹林區中山路三段210-2號","121.380695","24.9669616666667","6500700","樹林區"
"238020","268-VK","2017/08/08 19:59:27","新北市樹林區八德街372號","121.407031666667","24.96955","6500700","樹林區"
"238016","169-UY","2017/08/08 19:59:36","新北市樹林區中山路三段204號","121.387208333333","24.9683766666667","6500700","樹林區"
"221008","489-VK","2017/08/08 19:59:32","新北市汐止區忠一街9巷7號","121.620496666667","25.0731883333333","6501100","汐止區"
"221036","130-UY","2017/08/08 19:59:40","新北市汐止區忠孝東路258巷11弄14號","121.663906666667","25.067295","6501100","汐止區"
"221015","131-UY","2017/08/08 19:59:36","新北市汐止區橋東街46號","121.665691666667","25.0751066666667","6501100","汐止區"
"221010","269-BY","2017/08/08 19:59:36","新北市汐止區連峰街270號","121.644378333333","25.0816333333333","6501100","汐止區"
"221012","278-VK","2017/08/08 19:59:26","新北市汐止區大同路三段324號","121.679066666667","25.07117","6501100","汐止區"
"221023","279-VK","2017/08/08 02:06:46","新北市汐止區汐萬路一段256巷1號","121.651875","25.0748716666667","6501100","汐止區"
"221032","280-BY","2017/08/08 19:59:27","新北市汐止區橫科路18巷33弄2號","121.61725","25.049545","6501100","汐止區"
"221027","281-BY","2017/08/08 19:59:33","新北市汐止區中正路49號","121.661835","25.06996","6501100","汐止區"
"221038","297-VK","2017/08/08 19:59:42","新北市汐止區忠孝東路430號","121.666076666667","25.072205","6501100","汐止區"
"221029","298-VK","2017/08/08 19:59:41","新北市汐止區樟樹一路137巷26號","121.64104","25.0659766666667","6501100","汐止區"
"221021","299-VK","2017/08/08 17:34:28","新北市汐止區汐萬路一段256巷1號","121.652043333333","25.0747066666667","6501100","汐止區"
"221031","353-TW","2017/08/08 19:59:26","新北市汐止區福德一路176巷1弄2號","121.63538","25.0664166666667","6501100","汐止區"
"221035","622-UM","2017/08/08 19:59:24","新北市汐止區長江街39巷5號","121.6555","25.0716266666667","6501100","汐止區"
"221025","623-UM","2017/08/08 19:59:29","新北市汐止區秀峰路104號","121.659968333333","25.0638383333333","6501100","汐止區"
"221033","647-BX","2017/08/08 19:59:39","新北市汐止區東勢街201巷27號","121.634555","25.0435666666667","6501100","汐止區"
"221002","707-TV","2017/08/08 19:59:40","新北市汐止區大同路一段219巷26號","121.633363333333","25.058465","6501100","汐止區"
"221018","753-BX","2017/08/08 19:59:27","新北市汐止區茄苳路6號","121.664683333333","25.07049","6501100","汐止區"
"220079","145-BY","2017/08/08 19:59:38","新北市板橋區南雅西路二段190號","121.451685","25.0145033333333","6500100","板橋區"
"220080","200-UY","2017/08/08 19:59:38","新北市板橋區大觀路二段69巷2號","121.446811666667","25.0022883333333","6500100","板橋區"
"220082","610-BX","2017/08/08 19:59:27","新北市板橋區金門街182號","121.432565","24.9909616666667","6500100","板橋區"
"220055","255-TC","2017/08/08 19:59:32","新北市板橋區仁愛路62巷15弄2號","121.459998333333","24.9984616666667","6500100","板橋區"
"220075","256-TC","2017/08/08 19:59:22","新北市板橋區金華街10巷48弄57-3號","121.458976666667","25.020195","6500100","板橋區"
"220103","257-TC","2017/08/08 19:59:30","新北市板橋區文化路一段435巷31弄16號","121.466651666667","25.0230083333333","6500100","板橋區"
"220072","277-BY","2017/08/08 19:59:26","新北市板橋區金門街127巷8號","121.433356666667","24.9912566666667","6500100","板橋區"
"220094","283-UM","2017/08/08 19:59:41","新北市板橋區陽明街88號","121.464318333333","25.0228616666667","6500100","板橋區"
"220071","283-VK","2017/08/08 19:59:40","新北市板橋區五權街32巷30號","121.463826666667","24.99269","6500100","板橋區"
"220101","285-UM","2017/08/08 19:59:42","新北市板橋區縣民大道三段101號","121.476226666667","25.02249","6500100","板橋區"
"220053","285-VK","2017/08/08 19:59:33","新北市板橋區永豐街66號","121.475041666667","25.0199816666667","6500100","板橋區"
"220083","286-VK","2017/08/08 19:59:37","新北市板橋區龍興街73巷2號","121.443958333333","25.0021866666667","6500100","板橋區"
"220081","287-VK","2017/08/08 19:59:31","新北市板橋區大觀路一段28巷88號","121.449916666667","25.0110283333333","6500100","板橋區"
"220090","288-VK","2017/08/08 19:59:31","新北市板橋區龍泉街72巷13號","121.456091666667","25.0262866666667","6500100","板橋區"
"220061","293-UM","2017/08/08 19:59:28","新北市板橋區觀光街3巷12號","121.471461666667","25.015605","6500100","板橋區"
"220013","295-UM","2017/08/08 13:48:42","新北市板橋區民生路二段22號","121.472998333333","25.01675","6500100","板橋區"
"220084","296-UM","2017/08/08 19:59:36","新北市板橋區滿平街2-1號","121.426245","24.990155","6500100","板橋區"
"220098","299-UM","2017/08/08 19:59:28","新北市板橋區新海路72巷58號","121.462048333333","25.0233983333333","6500100","板橋區"
"220062","303-R5","2017/08/08 19:59:26","新北市板橋區萬安街20巷4弄12-1號","121.485171666667","25.0228483333333","6500100","板橋區"
"220092","307-R5","2017/08/08 19:59:26","新北市板橋區四維路259巷13號","121.462621666667","25.0277583333333","6500100","板橋區"
"220034","461-BY","2017/08/08 15:23:19","新北市板橋區華東街1-10號","121.448698333333","24.995025","6500100","板橋區"
"220064","486-VK","2017/08/08 19:59:40","新北市板橋區海山路51號","121.466983333333","25.010225","6500100","板橋區"
"220089","487-VK","2017/08/08 19:59:36","新北市板橋區綠堤街47號","121.45531","25.0259033333333","6500100","板橋區"
"220088","491-VK","2017/08/08 19:59:39","新北市板橋區大同街69號","121.479348333333","25.028005","6500100","板橋區"
"220035","560-BX","2017/08/08 19:59:24","新北市板橋區金華街64號","121.457276666667","25.0205333333333","6500100","板橋區"
"220063","609-BX","2017/08/08 19:59:38","新北市板橋區縣民大道三段406號","121.481485","25.0257283333333","6500100","板橋區"
"220086","630-UY","2017/08/08 19:59:38","新北市板橋區僑中一街124巷70-5號","121.448938333333","25.0163316666667","6500100","板橋區"
"220091","637-BX","2017/08/08 19:59:35","新北市板橋區懷德街174巷18弄6號","121.47875","25.02987","6500100","板橋區"
"220057","686-BX","2017/08/08 19:59:31","新北市板橋區廣和街79號","121.462701666667","24.99215","6500100","板橋區"
"220093","689-BX","2017/08/08 19:59:24","新北市板橋區長江路三段143號","121.475933333333","25.0347183333333","6500100","板橋區"
"220054","741-BX","2017/08/08 19:59:35","新北市板橋區國泰街75巷28弄84-3號","121.46721","25.0041683333333","6500100","板橋區"
"220067","829-TW","2017/08/08 19:59:30","新北市板橋區中山路一段206巷101號","121.472435","25.0135133333333","6500100","板橋區"
"220102","830-TW","2017/08/08 19:59:35","新北市板橋區仁化街42巷36號","121.475671666667","25.03074","6500100","板橋區"
"220074","895-R6","2017/08/08 19:59:38","新北市板橋區府中路29-1號","121.458658333333","25.00821","6500100","板橋區"
"220073","985-R7","2017/08/08 19:59:27","新北市板橋區南雅西路二段184號","121.451578333333","25.0141933333333","6500100","板橋區"
"220097","AAC-210","2017/08/08 19:59:34","新北市板橋區國光路196號","121.461605","25.01849","6500100","板橋區"
"220070","AAC-253","2017/08/08 19:59:29","新北市板橋區民族路296號","121.470453333333","25.0068133333333","6500100","板橋區"
