"lineid","car","time","location","longitude","latitude","cityid","cityname"
"251013","179-VK","2017/10/22 19:49:54","新北市淡水區頂田寮2-1號","121.460963333333","25.2127666666667","6501000","淡水區"
"251014","180-VK","2017/10/22 19:49:54","新北市淡水區番社前1-4號","121.468446666667","25.2365916666667","6501000","淡水區"
"251015","182-VK","2017/10/22 19:49:48","新北市淡水區泉洲厝25-7號","121.484838333333","25.18899","6501000","淡水區"
"251016","442-VK","2017/10/22 19:49:51","新北市淡水區下圭柔山122號","121.455845","25.2089416666667","6501000","淡水區"
"221018","753-BX","2017/10/22 19:49:49","新北市汐止區忠孝東路9號","121.658168333333","25.0658933333333","6501100","汐止區"
