"lineid","car","time","location","longitude","latitude","cityid","cityname"
"234001","862-TW","2017/11/07 12:09:32","新北市永和區福和路1號","121.526593333333","25.0097666666667","6500400","永和區"
"231009","192-VK","2017/11/07 12:09:32","新北市新店區頂石厝路8號","121.53996","24.9195333333333","6500600","新店區"
"223001","205-TH","2017/11/07 10:13:13","新北市石碇區小粗坑(潭邊里)9-2號","121.678735","24.9858433333333","6501900","石碇區"
"228005","097-TW","2017/11/07 12:09:29","新北市貢寮區福隆里興隆街36號","121.942005","25.01682","6502600","貢寮區"
"228004","212-TW","2017/11/07 12:09:34","新北市貢寮區貢寮里長泰路3號","121.90709","25.0205816666667","6502600","貢寮區"
"221012","276-VK","2017/11/07 12:09:30","新北市汐止區康寧街901號","121.651156666667","25.0751483333333","6501100","汐止區"
