"lineid","car","time","location","longitude","latitude","cityid","cityname"
"234044","148-BY","2017/11/07 13:09:22","新北市永和區永元路18巷37號","121.524036666667","25.00029","6500400","永和區"
"234012","149-BY","2017/11/07 13:09:33","新北市永和區保福路二段69號","121.51073","25.0125616666667","6500400","永和區"
"234005","207-UY","2017/11/07 13:09:26","新北市永和區中山路一段238號","121.507523333333","25.0076816666667","6500400","永和區"
"234078","298-R6","2017/11/07 13:09:37","新北市永和區福和路57巷14弄2號","121.522846666667","25.0070583333333","6500400","永和區"
"234036","336-UY","2017/11/07 13:09:38","新北市永和區民樂街71巷1號","121.527398333333","24.99756","6500400","永和區"
"234062","337-UY","2017/11/07 13:09:34","新北市永和區秀朗路二段52號","121.52196","25.0019633333333","6500400","永和區"
"234068","552-UM","2017/11/07 13:09:19","新北市永和區豫溪街137巷1弄12號","121.519075","25.0104533333333","6500400","永和區"
"234052","553-UM","2017/11/07 13:09:36","新北市永和區中興街133巷8號","121.518575","25.012575","6500400","永和區"
"234015","745-BX","2017/11/07 13:09:38","新北市永和區文化路90巷19號","121.513673333333","25.01637","6500400","永和區"
"234028","746-BX","2017/11/07 13:09:40","新北市永和區四維街111號","121.523628333333","24.99829","6500400","永和區"
"234060","AAD-866","2017/11/07 13:09:25","新北市永和區安樂路461號","121.514345","25.0051316666667","6500400","永和區"
"234084","847-RS","2017/11/07 13:09:37","新北市永和區永貞路108號","121.518995","25.0045333333333","6500400","永和區"
"234040","862-TW","2017/11/07 13:09:32","新北市永和區保平路131號","121.510536666667","25.0062016666667","6500400","永和區"
"234048","863-TW","2017/11/07 13:09:35","新北市永和區仁愛路104巷7弄23號","121.511046666667","25.0140583333333","6500400","永和區"
"234025","9381-KE","2017/11/07 13:09:32","新北市永和區自強街8巷5弄1號","121.514743333333","25.007655","6500400","永和區"
"234010","9373-KE","2017/11/07 13:09:41","新北市永和區仁愛路31巷2弄2號","121.514156666667","25.0130433333333","6500400","永和區"
"248017","225-UY","2017/11/07 13:09:35","新北市五股區成泰路三段51-1號","121.442845","25.0894566666667","6501500","五股區"
"234022","9380-KE","2017/11/07 13:09:19","新北市永和區中興街10巷29號","121.516441666667","25.011045","6500400","永和區"
"234076","969-R7","2017/11/07 13:09:35","新北市永和區民光街1號","121.515218333333","24.996465","6500400","永和區"
"234072","AAC-211","2017/11/07 13:09:38","新北市永和區竹林路200-1號","121.520528333333","25.0090983333333","6500400","永和區"
"234066","AAC-212","2017/11/07 13:09:36","新北市永和區永和路一段95號","121.513573333333","25.007555","6500400","永和區"
"234001","AAC-295","2017/11/07 13:09:36","新北市永和區和平街2號","121.514253333333","25.0100416666667","6500400","永和區"
"244002","657-BX","2017/11/07 13:09:42","新北市林口區頭湖76-15號","121.373885","25.08701","6501700","林口區"
"231002","002-UM","2017/11/07 13:09:23","新北市新店區安華路28-1號","121.519723333333","24.96088","6500600","新店區"
"231028","046-UY","2017/11/07 13:09:32","新北市新店區安華路28-1號","121.519541666667","24.9609016666667","6500600","新店區"
"231030","047-UY","2017/11/07 13:09:35","新北市新店區安華路28-1號","121.519126666667","24.960875","6500600","新店區"
"231029","106-UY","2017/11/07 13:09:35","新北市新店區安華路28-1號","121.519725","24.96079","6500600","新店區"
"231012","108-UY","2017/11/07 13:09:34","新北市新店區安華路28-1號","121.51972","24.96105","6500600","新店區"
"231020","187-VK","2017/11/07 13:09:26","新北市新店區安華路28-1號","121.51957","24.9611516666667","6500600","新店區"
"231015","KEA-2219","2017/11/07 13:09:35","新北市新店區安華路28-1號","121.519978333333","24.9612183333333","6500600","新店區"
"231010","278-BY","2017/11/07 08:55:46","新北市新店區安華路28-1號","121.51979","24.961105","6500600","新店區"
"231023","AAD-862","2017/11/07 13:09:30","新北市新店區安華路28-1號","121.519985","24.961255","6500600","新店區"
"231027","3712-VJ","2017/11/07 13:09:28","新北市新店區安華路1-1號","121.519058333333","24.9605933333333","6500600","新店區"
"231025","3713-VJ","2017/11/07 13:09:26","新北市新店區安華路1-1號","121.519166666667","24.9605733333333","6500600","新店區"
"231024","4716-K9","2017/11/07 13:09:27","新北市新店區安華路28-1號","121.519705","24.9611","6500600","新店區"
"231038","4715-K9","2017/11/07 13:09:35","新北市新店區安華路1-1號","121.519331666667","24.9604066666667","6500600","新店區"
"231036","512-UM","2017/11/07 13:09:26","新北市新店區安華路28-1號","121.519445","24.9613266666667","6500600","新店區"
"231035","515-UM","2017/11/07 13:09:23","新北市新店區安華路28-1號","121.519373333333","24.9610883333333","6500600","新店區"
"231006","617-UM","2017/11/07 13:09:27","新北市新店區安華路28-1號","121.519453333333","24.96098","6500600","新店區"
"231001","619-UM","2017/11/07 13:09:20","新北市新店區安華路28-1號","121.519371666667","24.9606533333333","6500600","新店區"
"231003","641-BX","2017/11/07 13:09:34","新北市新店區安華路1-1號","121.519565","24.9604966666667","6500600","新店區"
"231013","719-UM","2017/11/07 13:09:35","新北市新店區安華路28-1號","121.51939","24.9610583333333","6500600","新店區"
"231018","719-UY","2017/11/07 13:09:31","新北市新店區安華路28-1號","121.519373333333","24.961165","6500600","新店區"
"231032","720-UM","2017/11/07 13:09:29","新北市新店區安華路28-1號","121.519083333333","24.9613716666667","6500600","新店區"
"231005","897-TW","2017/11/07 13:09:25","新北市新店區安華路28-1號","121.519691666667","24.9608633333333","6500600","新店區"
"231004","899-TW","2017/11/07 13:09:38","新北市新店區安華路28-1號","121.519201666667","24.9609183333333","6500600","新店區"
"231037","AKT-0513","2017/11/07 13:09:35","新北市新店區安華路1-1號","121.519451666667","24.9604716666667","6500600","新店區"
"235028","005-UY","2017/11/07 13:09:19","新北市中和區中正路545巷1號","121.487358333333","24.9935433333333","6500300","中和區"
"235027","006-UY","2017/11/07 13:09:31","新北市中和區員山路36巷16-3號","121.485055","24.9913916666667","6500300","中和區"
"235003","097-UM","2017/11/07 13:09:30","新北市中和區和城路一段271巷1號","121.485798333333","24.9917883333333","6500300","中和區"
"235029","098-UM","2017/11/07 13:09:38","新北市中和區橋和路271巷4號","121.495848333333","25.0067733333333","6500300","中和區"
"235022","151-BY","2017/11/07 13:09:25","新北市中和區圓通路367巷21-1號","121.492748333333","24.9857733333333","6500300","中和區"
"235002","185-VK","2017/11/07 13:09:20","新北市中和區大智街7-3號","121.519546666667","24.99186","6500300","中和區"
"235031","255-BX","2017/11/07 13:09:28","新北市中和區民樂路80巷4-3號","121.484343333333","25.00091","6500300","中和區"
"235008","293-VK","2017/11/07 13:09:37","新北市中和區員山路36巷16-3號","121.485005","24.9914883333333","6500300","中和區"
"235032","377-QA","2017/11/07 10:40:51","新北市中和區員山路36巷16-3號","121.485163333333","24.9912133333333","6500300","中和區"
"235025","378-QA","2017/11/07 13:09:36","新北市中和區員山路36巷16-2號","121.485238333333","24.9916433333333","6500300","中和區"
"235035","269-TV","2017/11/07 13:09:37","新北市中和區板南路520巷8號","121.483923333333","25.0088366666667","6500300","中和區"
"235033","4980-A6","2017/11/07 13:09:38","新北市中和區錦和路203巷13號","121.491333333333","24.9905983333333","6500300","中和區"
"235006","551-UM","2017/11/07 13:09:37","新北市中和區景平路361號","121.504563333333","24.99344","6500300","中和區"
"235054","640-BX","2017/11/07 13:09:26","新北市中和區連城路607號","121.47825","24.99307","6500300","中和區"
"235016","805-TS","2017/11/07 13:09:33","新北市中和區員山路36巷13號","121.484266666667","24.99147","6500300","中和區"
"235017","900-TW","2017/11/07 13:09:26","新北市中和區員山路36巷16-3號","121.48496","24.9917983333333","6500300","中和區"
"235024","911-UM","2017/11/07 02:06:45","新北市中和區員山路36巷16-3號","121.48474","24.991735","6500300","中和區"
"235001","157-BY","2017/11/07 13:09:22","新北市中和區南山路146巷15號","121.503306666667","24.9924216666667","6500300","中和區"
"235001","AAC-213","2017/11/07 13:09:38","新北市中和區景平路149號","121.513848333333","24.9921066666667","6500300","中和區"
"223001","205-TH","2017/11/07 10:13:13","新北市石碇區小粗坑(潭邊里)9-2號","121.678735","24.9858433333333","6501900","石碇區"
"228005","097-TW","2017/11/07 13:09:28","新北市貢寮區仁理村研海街42號","121.925835","25.04266","6502600","貢寮區"
"228004","212-TW","2017/11/07 13:09:34","新北市貢寮區吉林里內寮街75號","121.891268333333","24.9723933333333","6502600","貢寮區"
"208004","AAC-292","2017/11/07 13:09:32","新北市金山區中正路6號","121.636396666667","25.22245","6502700","金山區"
"207002","749-BX","2017/11/07 13:09:31","新北市萬里區崁腳里內崁路10-1號","121.641615","25.1595066666667","6502800","萬里區"
"207001","662-BX","2017/11/07 13:09:28","新北市萬里區萬里里獅頭路23號","121.693156666667","25.1781583333333","6502800","萬里區"
"252005","AAC-283","2017/11/07 13:09:34","新北市三芝區八賢里八連溪43-2號","121.514151666667","25.2356966666667","6502100","三芝區"
"236006","498-BY","2017/11/07 13:09:31","新北市土城區亞洲路58巷1號","121.434845","24.97376","6501300","土城區"
"238016","308-TH","2017/11/07 13:09:26","新北市樹林區東豐街49巷22弄15號","121.414535","24.9747416666667","6500700","樹林區"
"221012","276-VK","2017/11/07 13:09:30","新北市汐止區大同路二段364號","121.65749","25.0672066666667","6501100","汐止區"
"221023","279-VK","2017/11/07 13:09:23","新北市汐止區福德一路242號","121.63375","25.0650816666667","6501100","汐止區"
"221032","280-BY","2017/11/07 13:09:29","新北市汐止區建成路57巷20號","121.662381666667","25.0727983333333","6501100","汐止區"
"221018","753-BX","2017/11/07 13:09:34","新北市汐止區福德一路342巷1弄10號","121.629101666667","25.0633183333333","6501100","汐止區"
