"lineid","car","time","location","longitude","latitude","cityid","cityname"
"234044","148-BY","2017/11/07 13:19:42","新北市永和區永元路73號","121.522168333333","25.0011183333333","6500400","永和區"
"234012","149-BY","2017/11/07 13:19:33","新北市永和區信義路34號","121.513796666667","25.01235","6500400","永和區"
"234005","207-UY","2017/11/07 13:19:26","新北市永和區中山路一段326號","121.506341666667","25.0066433333333","6500400","永和區"
"234078","298-R6","2017/11/07 13:19:38","新北市永和區環河東路三段52巷8號","121.526258333333","25.0058883333333","6500400","永和區"
"234036","336-UY","2017/11/07 13:19:38","新北市永和區民樂街70號","121.527396666667","24.9984216666667","6500400","永和區"
"234062","337-UY","2017/11/07 13:19:40","新北市永和區永元路17巷29號","121.521571666667","25.0015766666667","6500400","永和區"
"234068","552-UM","2017/11/07 13:19:40","新北市永和區中正路666巷5號","121.51715","25.0091383333333","6500400","永和區"
"234052","553-UM","2017/11/07 13:19:31","新北市永和區中興街40號","121.516478333333","25.011685","6500400","永和區"
"234015","745-BX","2017/11/07 13:19:38","新北市永和區環河西路一段95巷2-2號","121.511908333333","25.0176366666667","6500400","永和區"
"234028","746-BX","2017/11/07 13:19:28","新北市永和區厚德街13號","121.525473333333","24.9985133333333","6500400","永和區"
"234060","AAD-866","2017/11/07 13:19:25","新北市永和區秀朗路一段120號","121.517021666667","25.00359","6500400","永和區"
"234084","847-RS","2017/11/07 13:19:37","新北市永和區永亨路6-1號","121.519236666667","25.0055316666667","6500400","永和區"
"234040","862-TW","2017/11/07 13:19:32","新北市永和區永貞路261號","121.51202","25.0047066666667","6500400","永和區"
"234048","863-TW","2017/11/07 13:19:35","新北市永和區保福路二段88巷29號","121.512018333333","25.0137216666667","6500400","永和區"
"234025","9381-KE","2017/11/07 13:19:32","新北市永和區豫溪街52巷20號","121.515713333333","25.0090766666667","6500400","永和區"
"234010","9373-KE","2017/11/07 13:19:41","新北市永和區忠孝街34巷18號","121.514526666667","25.0168183333333","6500400","永和區"
"248017","225-UY","2017/11/07 13:19:35","新北市五股區御史路166-1號","121.42777","25.10365","6501500","五股區"
"234022","9380-KE","2017/11/07 13:19:19","新北市永和區竹林路91巷15弄1號","121.520316666667","25.0123783333333","6500400","永和區"
"234076","969-R7","2017/11/07 13:19:35","新北市永和區民有街24巷1弄7號","121.51706","24.9961883333333","6500400","永和區"
"234072","AAC-211","2017/11/07 13:19:38","新北市永和區竹林路23號","121.517153333333","25.014715","6500400","永和區"
"234066","AAC-212","2017/11/07 13:19:36","新北市永和區保平路40號","121.511523333333","25.0070516666667","6500400","永和區"
"234001","AAC-295","2017/11/07 13:19:35","新北市永和區保福路一段57號","121.512605","25.0096583333333","6500400","永和區"
"244002","657-BX","2017/11/07 13:19:22","新北市林口區頂福里16-16號","121.3568","25.0911283333333","6501700","林口區"
"231002","002-UM","2017/11/07 13:19:23","新北市新店區安華路28-1號","121.519521666667","24.9605633333333","6500600","新店區"
"231028","046-UY","2017/11/07 13:19:32","新北市新店區安華路28-1號","121.519585","24.96083","6500600","新店區"
"231030","047-UY","2017/11/07 13:19:35","新北市新店區安華路28-1號","121.519086666667","24.960935","6500600","新店區"
"231029","106-UY","2017/11/07 13:19:35","新北市新店區安華路28-1號","121.519756666667","24.9607833333333","6500600","新店區"
"231012","108-UY","2017/11/07 13:19:34","新北市新店區力行路11巷57號","121.538556666667","24.9618266666667","6500600","新店區"
"231020","187-VK","2017/11/07 13:19:26","新北市新店區北新路一段43號","121.538116666667","24.959465","6500600","新店區"
"231015","KEA-2219","2017/11/07 13:19:34","新北市新店區安康路一段146號","121.526438333333","24.9628983333333","6500600","新店區"
"231026","256-BX","2017/11/07 13:19:35","新北市新店區安華路28-1號","121.519681666667","24.9611716666667","6500600","新店區"
"231010","278-BY","2017/11/07 13:19:42","新北市新店區秀山路14號","121.532885","24.9601933333333","6500600","新店區"
"231023","AAD-862","2017/11/07 13:19:30","新北市新店區安康路一段144號","121.526485","24.9628983333333","6500600","新店區"
"231027","3712-VJ","2017/11/07 13:19:28","新北市新店區環河路29巷1號","121.536518333333","24.9612266666667","6500600","新店區"
"231025","3713-VJ","2017/11/07 13:19:26","新北市新店區環河路116號","121.537106666667","24.9665633333333","6500600","新店區"
"231024","4716-K9","2017/11/07 13:19:27","新北市新店區環河路29巷1號","121.5368","24.9613033333333","6500600","新店區"
"231038","4715-K9","2017/11/07 13:19:35","新北市新店區安華路1-1號","121.519246666667","24.9604816666667","6500600","新店區"
"231036","512-UM","2017/11/07 13:19:06","新北市新店區安忠路57巷13號","121.513228333333","24.9574033333333","6500600","新店區"
"231035","515-UM","2017/11/07 13:19:22","新北市新店區安華路3號","121.518786666667","24.9608083333333","6500600","新店區"
"231006","617-UM","2017/11/07 13:19:27","新北市新店區安華路28-1號","121.519466666667","24.9610033333333","6500600","新店區"
"231001","619-UM","2017/11/07 13:19:40","新北市新店區安華路28-1號","121.519688333333","24.9607716666667","6500600","新店區"
"231003","641-BX","2017/11/07 13:19:34","新北市新店區安華路1-1號","121.519603333333","24.9604316666667","6500600","新店區"
"231034","645-TV","2017/11/07 13:19:34","新北市新店區安華路1-1號","121.519366666667","24.9603833333333","6500600","新店區"
"231013","719-UM","2017/11/07 13:19:35","新北市新店區安康路一段138號","121.52657","24.9628533333333","6500600","新店區"
"231018","719-UY","2017/11/07 13:19:31","新北市新店區安康路一段33-1號","121.532235","24.960555","6500600","新店區"
"231032","720-UM","2017/11/07 13:19:29","新北市新店區安康路一段359-27號","121.51886","24.9613933333333","6500600","新店區"
"231005","897-TW","2017/11/07 13:19:25","新北市新店區安康路一段44號","121.530698333333","24.9610333333333","6500600","新店區"
"231004","899-TW","2017/11/07 13:19:38","新北市新店區安華路28-1號","121.519198333333","24.9609166666667","6500600","新店區"
"231037","AKT-0513","2017/11/07 13:19:35","新北市新店區車子路10-4號","121.504975","24.9546283333333","6500600","新店區"
"235030","003-UY","2017/11/07 13:19:27","新北市中和區中山路二段120號","121.502725","25.0036216666667","6500300","中和區"
"235028","005-UY","2017/11/07 13:19:39","新北市中和區中正路166號","121.498438333333","24.9937683333333","6500300","中和區"
"235027","006-UY","2017/11/07 13:19:31","新北市中和區員山路36巷16-3號","121.484975","24.9913366666667","6500300","中和區"
"235020","096-UM","2017/11/07 13:19:38","新北市中和區員山路36巷16-3號","121.484523333333","24.9911383333333","6500300","中和區"
"235003","097-UM","2017/11/07 13:19:30","新北市中和區景安路100號","121.50555","24.995615","6500300","中和區"
"235029","098-UM","2017/11/07 13:19:38","新北市中和區莊敬路49巷20弄20號","121.50266","25.0058483333333","6500300","中和區"
"235022","151-BY","2017/11/07 13:19:25","新北市中和區圓通路367巷55弄4號","121.492108333333","24.983905","6500300","中和區"
"235019","183-VK","2017/11/07 13:19:37","新北市中和區員山路36巷16-3號","121.485026666667","24.9913833333333","6500300","中和區"
"235002","185-VK","2017/11/07 13:19:40","新北市中和區大智街125號","121.52406","24.992645","6500300","中和區"
"235031","255-BX","2017/11/07 13:19:28","新北市中和區員山路148巷44弄1號","121.482546666667","24.9968633333333","6500300","中和區"
"235008","293-VK","2017/11/07 13:19:37","新北市中和區員山路36巷16-3號","121.485138333333","24.9914466666667","6500300","中和區"
"235036","301-VK","2017/11/07 13:19:22","新北市中和區員山路36巷13號","121.484021666667","24.991155","6500300","中和區"
"235007","352-BY","2017/11/07 13:19:31","新北市中和區景平路510號","121.503636666667","24.9936816666667","6500300","中和區"
"235032","377-QA","2017/11/07 10:40:51","新北市中和區員山路36巷16-3號","121.485163333333","24.9912133333333","6500300","中和區"
"235025","378-QA","2017/11/07 13:19:36","新北市中和區民德路216號","121.468161666667","24.9980266666667","6500300","中和區"
"235035","269-TV","2017/11/07 13:19:37","新北市中和區永和路458巷1弄22號","121.4834","25.01257","6500300","中和區"
"235014","4979-A6","2017/11/07 13:19:30","新北市中和區捷運路61巷14號","121.508843333333","24.9893216666667","6500300","中和區"
"235033","4980-A6","2017/11/07 13:19:38","新北市中和區連城路125號","121.496258333333","24.9991","6500300","中和區"
"235006","551-UM","2017/11/07 13:19:37","新北市中和區大勇街23號","121.517016666667","24.9930366666667","6500300","中和區"
"235009","565-BX","2017/11/07 13:19:31","新北市中和區中正路271號","121.495985","24.99362","6500300","中和區"
"235018","640-BX","2017/11/07 13:19:25","新北市中和區國光街107巷4弄28號","121.469768333333","24.9988883333333","6500300","中和區"
"235011","732-UM","2017/11/07 13:19:32","新北市中和區復興路14號","121.505721666667","24.9898283333333","6500300","中和區"
"235010","733-UM","2017/11/07 13:19:36","新北市中和區員山路36巷13號","121.484195","24.9908933333333","6500300","中和區"
"235026","800-TS","2017/11/07 13:19:22","新北市中和區橋和路150號","121.493848333333","25.0062233333333","6500300","中和區"
"235005","802-TS","2017/11/07 13:19:41","新北市永和區中和路381號","121.508478333333","24.999925","6500300","中和區"
"235016","805-TS","2017/11/07 13:19:33","新北市中和區中正路21號","121.502746666667","24.9934283333333","6500300","中和區"
"235017","900-TW","2017/11/07 13:19:06","新北市中和區員山路36巷16-3號","121.484978333333","24.991645","6500300","中和區"
"235024","911-UM","2017/11/07 02:06:45","新北市中和區員山路36巷16-3號","121.48474","24.991735","6500300","中和區"
"235001","157-BY","2017/11/07 13:19:42","新北市中和區忠孝街39-1號","121.511403333333","24.9836533333333","6500300","中和區"
"235001","AAC-213","2017/11/07 13:19:38","新北市中和區景平路182號","121.516343333333","24.99222","6500300","中和區"
"235023","AAC-215","2017/11/07 13:12:03","新北市中和區員山路36巷16-3號","121.484925","24.9911116666667","6500300","中和區"
"223001","205-TH","2017/11/07 10:13:13","新北市石碇區小粗坑(潭邊里)9-2號","121.678735","24.9858433333333","6501900","石碇區"
"228005","097-TW","2017/11/07 13:19:28","新北市貢寮區美豐里丹裡街16號","121.914041666667","25.0570216666667","6502600","貢寮區"
"228004","212-TW","2017/11/07 13:19:34","新北市貢寮區吉林里內寮街23號","121.903741666667","24.98487","6502600","貢寮區"
"208004","AAC-292","2017/11/07 13:19:32","新北市金山區南勢湖75號","121.609133333333","25.2105583333333","6502700","金山區"
"207002","749-BX","2017/11/07 13:19:31","新北市萬里區崁腳里崁腳路166號","121.645005","25.1558483333333","6502800","萬里區"
"207001","662-BX","2017/11/07 13:19:35","新北市萬里區龜吼里玉田路43-6號","121.681468333333","25.1886","6502800","萬里區"
"252005","AAC-283","2017/11/07 13:19:34","新北市三芝區圓山里木屐寮38號","121.529735","25.2259866666667","6502100","三芝區"
"236006","498-BY","2017/11/07 13:19:36","新北市土城區大安路138巷39號","121.434496666667","24.9721133333333","6501300","土城區"
"238016","308-TH","2017/11/07 13:19:26","新北市樹林區八德街278號","121.410908333333","24.9701116666667","6500700","樹林區"
"221012","276-VK","2017/11/07 13:19:30","新北市汐止區汐萬路一段256巷3號","121.652793333333","25.074495","6501100","汐止區"
"221023","279-VK","2017/11/07 13:19:23","新北市汐止區福德一路159巷7號","121.636765","25.06627","6501100","汐止區"
"221032","280-BY","2017/11/07 13:19:29","新北市汐止區大同路二段184巷14號","121.653211666667","25.0632483333333","6501100","汐止區"
"221018","753-BX","2017/11/07 13:19:34","新北市汐止區福德一路392巷37弄16號","121.625911666667","25.0619683333333","6501100","汐止區"
"220010","303-R5","2017/11/07 13:19:27","新北市板橋區民生路二段120號","121.470536666667","25.0197633333333","6500100","板橋區"
