"lineid","car","time","location","longitude","latitude","cityid","cityname"
"234012","149-BY","2017/11/07 14:39:13","新北市五股區中直路13-7號","121.424325","25.110695","6500400","永和區"
"234028","746-BX","2017/11/07 14:39:24","新北市永和區豫溪街217巷5號","121.524716666667","25.0095683333333","6500400","永和區"
"234025","9381-KE","2017/11/07 14:39:31","新北市永和區雙和街7巷6號","121.509478333333","25.0015866666667","6500400","永和區"
"248017","225-UY","2017/11/07 14:32:15","新北市五股區外寮路13-1號","121.424055","25.0810133333333","6501500","五股區"
"234072","AAC-211","2017/11/07 14:39:18","新北市永和區環河東路二段36號","121.522755","25.0123933333333","6500400","永和區"
"244002","657-BX","2017/11/07 14:39:22","新北市林口區竹林路266號","121.389671666667","25.0807816666667","6501700","林口區"
"231002","002-UM","2017/11/07 14:39:23","新北市新店區中正路468號","121.534026666667","24.97942","6500600","新店區"
"231028","046-UY","2017/11/07 14:39:32","新北市新店區安德街62號","121.510661666667","24.9620283333333","6500600","新店區"
"231030","047-UY","2017/11/07 14:39:35","新北市新店區安民街237號","121.517165","24.9720316666667","6500600","新店區"
"231029","106-UY","2017/11/07 14:39:35","新北市新店區安康路三段351號","121.485075","24.9514033333333","6500600","新店區"
"231012","108-UY","2017/11/07 14:39:34","新北市新店區寶橋路160號","121.548956666667","24.9772716666667","6500600","新店區"
"231020","187-VK","2017/11/07 14:39:26","新北市新店區桂山路37號","121.561886666667","24.9043383333333","6500600","新店區"
"231015","KEA-2219","2017/11/07 14:35:15","新北市新店區北宜路三段168號","121.586578333333","24.9521683333333","6500600","新店區"
"231023","AAD-862","2017/11/07 14:39:30","新北市新店區檳榔路55號","121.543203333333","24.9628783333333","6500600","新店區"
"231027","3712-VJ","2017/11/07 14:39:27","新北市新店區中正路228號","121.540033333333","24.9727616666667","6500600","新店區"
"231025","3713-VJ","2017/11/07 14:39:26","新北市新店區民族路161號","121.53764","24.9767183333333","6500600","新店區"
"231024","4716-K9","2017/11/07 14:39:27","新北市新店區新生街13巷42號","121.538941666667","24.9665333333333","6500600","新店區"
"231038","4715-K9","2017/11/07 14:39:34","新北市新店區安康路一段355號","121.519653333333","24.9633966666667","6500600","新店區"
"231036","512-UM","2017/11/07 14:39:26","新北市新店區安祥路106巷206號","121.474266666667","24.9604666666667","6500600","新店區"
"231035","515-UM","2017/11/07 14:39:22","新北市新店區安民街3巷1號","121.51459","24.9641716666667","6500600","新店區"
"231006","617-UM","2017/11/07 14:39:35","新北市新店區北宜路二段129號","121.550931666667","24.9530816666667","6500600","新店區"
"231001","619-UM","2017/11/07 14:39:40","新北市新店區中正路96號","121.543443333333","24.97043","6500600","新店區"
"231003","641-BX","2017/11/07 14:39:34","新北市新店區中興路一段292號","121.545981666667","24.9692433333333","6500600","新店區"
"231034","645-TV","2017/11/07 14:39:34","新北市新店區黎明路51巷1號","121.502015","24.9493766666667","6500600","新店區"
"231013","719-UM","2017/11/07 14:39:35","新北市新店區北新路二段139巷12弄2號","121.542151666667","24.9759416666667","6500600","新店區"
"231018","719-UY","2017/11/07 14:39:31","新北市新店區中央五街22號","121.529326666667","24.9744816666667","6500600","新店區"
"231005","897-TW","2017/11/07 14:39:25","新北市新店區復興路102號","121.531971666667","24.9888566666667","6500600","新店區"
"231004","899-TW","2017/11/07 14:39:40","新北市新店區中正路283號","121.537431666667","24.9744433333333","6500600","新店區"
"231037","AKT-0513","2017/11/07 14:39:35","新北市新店區柴埕路60巷36號","121.505145","24.9699133333333","6500600","新店區"
"235030","003-UY","2017/11/07 14:39:27","新北市中和區南工路72號","121.506571666667","25.0021716666667","6500300","中和區"
"235028","005-UY","2017/11/07 14:39:39","新北市中和區圓通路19號","121.501478333333","24.9979083333333","6500300","中和區"
"235027","006-UY","2017/11/07 14:39:31","新北市中和區板南路399巷2號","121.493383333333","24.9990333333333","6500300","中和區"
"235020","096-UM","2017/11/07 14:39:18","新北市中和區員山路581巷31弄1號","121.477236666667","25.010255","6500300","中和區"
"235003","097-UM","2017/11/07 14:39:36","新北市中和區宜安路57號","121.51168","24.99688","6500300","中和區"
"235029","098-UM","2017/11/07 14:39:38","新北市中和區福美路261號","121.498446666667","25.005115","6500300","中和區"
"235004","150-BY","2017/11/07 14:39:34","新北市中和區安平路38號","121.509958333333","24.9950066666667","6500300","中和區"
"235022","151-BY","2017/11/07 14:39:25","新北市中和區員山路124巷3號","121.481545","24.9960483333333","6500300","中和區"
"235019","183-VK","2017/11/07 14:39:37","新北市中和區民生街15號","121.471343333333","25.0059083333333","6500300","中和區"
"235002","185-VK","2017/11/07 14:39:40","新北市中和區自立路141巷3號","121.522403333333","24.9935433333333","6500300","中和區"
"235013","186-VK","2017/11/07 14:39:40","新北市中和區安平路10-1號","121.509146666667","24.99395","6500300","中和區"
"235031","255-BX","2017/11/07 14:39:30","新北市中和區新生街186巷5弄7號","121.482891666667","24.9993916666667","6500300","中和區"
"235008","293-VK","2017/11/07 14:39:37","新北市中和區捷運路38號","121.508238333333","24.9903483333333","6500300","中和區"
"235036","301-VK","2017/11/07 14:39:22","新北市中和區保平路362巷13號","121.505741666667","25.0038183333333","6500300","中和區"
"235007","352-BY","2017/11/07 14:39:31","新北市中和區南華路19號","121.502938333333","24.9959133333333","6500300","中和區"
"235032","377-QA","2017/11/07 14:39:27","新北市中和區莊敬路16巷1-3號","121.499996666667","25.0043","6500300","中和區"
"235025","378-QA","2017/11/07 14:39:36","新北市中和區民樂路26號","121.482573333333","25.0012433333333","6500300","中和區"
"235035","269-TV","2017/11/07 14:39:38","新北市中和區建一路183-2號","121.488205","24.997955","6500300","中和區"
"235014","4979-A6","2017/11/07 14:39:30","新北市中和區中正路19號","121.502943333333","24.9935183333333","6500300","中和區"
"235006","551-UM","2017/11/07 14:39:37","新北市中和區保健路46巷22弄2號","121.508731666667","24.9959233333333","6500300","中和區"
"235034","558-UM","2017/11/07 14:37:09","新北市中和區南山路15號","121.50205","24.9992216666667","6500300","中和區"
"235009","565-BX","2017/11/07 14:39:31","新北市中和區景新街330號","121.511796666667","24.9909283333333","6500300","中和區"
"235018","640-BX","2017/11/07 14:39:25","新北市中和區國光街119號","121.469605","25.0007983333333","6500300","中和區"
"235011","732-UM","2017/11/07 14:39:32","新北市中和區捷運路18號","121.508725","24.9901066666667","6500300","中和區"
"235010","733-UM","2017/11/07 14:39:35","新北市中和區忠孝街108-4號","121.512198333333","24.9849716666667","6500300","中和區"
"235026","800-TS","2017/11/07 14:39:22","新北市中和區中山路二段411號","121.485896666667","25.0043466666667","6500300","中和區"
"235021","801-TS","2017/11/07 14:39:39","新北市中和區員山路178號","121.481286666667","25.0001516666667","6500300","中和區"
"235005","802-TS","2017/11/07 14:39:21","新北市永和區中和路373號","121.508355","24.999765","6500300","中和區"
"235016","805-TS","2017/11/07 14:39:33","新北市中和區華新街206巷20號","121.506255","24.9827533333333","6500300","中和區"
"235012","896-TW","2017/11/07 14:39:29","新北市中和區四維街17號","121.513083333333","24.987095","6500300","中和區"
"235017","900-TW","2017/11/07 14:39:26","新北市中和區國光街215巷44號","121.467436666667","24.9999766666667","6500300","中和區"
"235024","911-UM","2017/11/07 14:39:34","新北市中和區新生街45號","121.4834","25.00295","6500300","中和區"
"235001","157-BY","2017/11/07 14:39:42","新北市中和區中興街123號","121.500053333333","24.9917583333333","6500300","中和區"
"235001","AAC-213","2017/11/07 14:39:37","新北市中和區秀朗路三段10巷29弄5號","121.525126666667","24.9960533333333","6500300","中和區"
"235023","AAC-215","2017/11/07 14:39:24","新北市中和區圓通路305巷48號","121.495523333333","24.9890016666667","6500300","中和區"
"220016","013-TV","2017/11/07 14:39:36","新北市板橋區中山路二段412巷29弄30號","121.48482","25.01996","6500100","板橋區"
"220013","072-UY","2017/11/07 14:39:30","新北市板橋區民族路258號","121.469355","25.0069383333333","6500100","板橋區"
"220034","073-UY","2017/11/07 14:39:25","新北市板橋區漢生西路89巷4弄10號","121.46115","25.0187983333333","6500100","板橋區"
"220105","075-UY","2017/11/07 14:39:35","新北市板橋區民治街26巷16號","121.477331666667","25.03365","6500100","板橋區"
"220017","AAD-861","2017/11/07 14:39:41","新北市板橋區縣民大道一段64巷1號","121.455458333333","25.0038266666667","6500100","板橋區"
"247011","546-UM","2017/11/07 14:39:20","新北市蘆洲區復興路357號","121.487666666667","25.0925833333333","6501400","蘆洲區"
"247019","500-BY","2017/11/07 14:39:37","新北市蘆洲區民義街68巷6號","121.473116666667","25.089805","6501400","蘆洲區"
"247009","339-TH","2017/11/07 14:39:42","新北市蘆洲區中山一路40號","121.479743333333","25.0809816666667","6501400","蘆洲區"
"247001","337-TH","2017/11/07 14:39:31","新北市蘆洲區長安街274巷6弄2號","121.457868333333","25.0869916666667","6501400","蘆洲區"
"247003","336-TH","2017/11/07 14:39:32","新北市蘆洲區長安街307號","121.457853333333","25.0851566666667","6501400","蘆洲區"
"247023","335-TH","2017/11/07 14:39:38","新北市蘆洲區中山二路222巷20號","121.469338333333","25.0804283333333","6501400","蘆洲區"
"247015","057-VK","2017/11/07 14:39:32","新北市蘆洲區光華路73巷22號","121.46832","25.0821","6501400","蘆洲區"
"247005","056-VK","2017/11/07 14:39:26","新北市蘆洲區中華街3號","121.464005","25.0819033333333","6501400","蘆洲區"
"247007","053-VK","2017/11/07 14:39:24","新北市蘆洲區和平路16號","121.472376666667","25.0793883333333","6501400","蘆洲區"
"247013","007-UY","2017/11/07 14:39:36","新北市蘆洲區成功路156號","121.471646666667","25.0832483333333","6501400","蘆洲區"
"223001","205-TH","2017/11/07 14:18:34","新北市石碇區小粗坑(潭邊里)9-2號","121.678986666667","24.9862916666667","6501900","石碇區"
"228005","097-TW","2017/11/07 14:39:28","新北市貢寮區美豐里雞母嶺街6-6號","121.902033333333","25.064245","6502600","貢寮區"
"228004","212-TW","2017/11/07 14:39:34","新北市貢寮區福隆里虎子山街28號","121.94594","25.0149933333333","6502600","貢寮區"
"207002","749-BX","2017/11/07 14:39:31","新北市萬里區崁腳里崁腳路73號","121.647573333333","25.1595916666667","6502800","萬里區"
"207001","662-BX","2017/11/07 14:39:28","新北市萬里區雙興里豐稟路26號","121.64112","25.1876916666667","6502800","萬里區"
"252005","AAC-283","2017/11/07 14:39:34","新北市三芝區埔坪里埔頭坑147號","121.510346666667","25.24995","6502100","三芝區"
"208004","170-UY","2017/11/07 14:39:30","新北市金山區重和里六股林口65號","121.60139","25.2204166666667","6502700","金山區"
"236065","105-UM","2017/11/07 14:39:36","新北市土城區永豐路203-1號","121.473288333333","24.97752","6501300","土城區"
"236041","107-UM","2017/11/07 14:39:34","新北市土城區裕民路55巷17號","121.449255","24.9888166666667","6501300","土城區"
"236075","166-UM","2017/11/07 14:39:36","新北市土城區頂埔街34號","121.41719","24.95895","6501300","土城區"
"236029","253-BX","2017/11/07 14:39:37","新北市土城區慶樂街33號","121.438386666667","24.9731833333333","6501300","土城區"
"236025","269-VK","2017/11/07 14:39:38","新北市土城區千歲路13號","121.440881666667","24.9695233333333","6501300","土城區"
"236013","270-VK","2017/11/07 14:39:41","新北市土城區清水路211號","121.4606","24.982035","6501300","土城區"
"236034","271-VK","2017/11/07 14:39:33","新北市土城區明德路一段313巷3弄2號","121.459678333333","24.976365","6501300","土城區"
"236017","401-BY","2017/11/07 14:39:29","新北市土城區明德路一段51號","121.46526","24.9848816666667","6501300","土城區"
"236045","752-BX","2017/11/07 14:39:24","新北市土城區金城路三段1號","121.464148333333","24.98605","6501300","土城區"
"236057","912-UM","2017/11/07 14:39:31","新北市土城區中央路四段71號","121.417201666667","24.9582466666667","6501300","土城區"
"236061","915-UM","2017/11/07 14:39:20","新北市土城區延和路125巷39號","121.469143333333","24.9913133333333","6501300","土城區"
"236054","AAC-216","2017/11/07 14:39:27","新北市土城區中華路一段47號","121.44577","24.9883333333333","6501300","土城區"
"238016","308-TH","2017/11/07 13:28:04","","121.388835","24.96833","6500700","樹林區"
"221012","276-VK","2017/11/07 13:27:06","新北市汐止區汐萬路一段256巷3號","121.65349","25.0746116666667","6501100","汐止區"
"221023","279-VK","2017/11/07 14:39:23","新北市汐止區橫科路407巷25弄17-5號","121.628113333333","25.0503416666667","6501100","汐止區"
"220027","145-BY","2017/11/07 14:39:26","新北市板橋區大智街37號","121.454656666667","25.0152116666667","6500100","板橋區"
"220030","610-BX","2017/11/07 14:39:29","新北市板橋區沙崙街9號","121.432593333333","24.994015","6500100","板橋區"
"220004","276-BY","2017/11/07 14:39:38","新北市板橋區四川路二段47巷2弄1號","121.454093333333","24.9948933333333","6500100","板橋區"
"220020","277-BY","2017/11/07 14:39:28","新北市板橋區金門街215巷38號","121.434041666667","24.989205","6500100","板橋區"
"220050","280-UM","2017/11/07 14:39:36","新北市板橋區萬板路48號","121.47197","25.0226816666667","6500100","板橋區"
"220019","283-VK","2017/11/07 14:39:34","新北市土城區延和路41巷25號","121.465188333333","24.9904416666667","6500100","板橋區"
"220043","285-UM","2017/11/07 14:39:30","新北市板橋區宏國路75號","121.469025","25.0320883333333","6500100","板橋區"
"220001","285-VK","2017/11/07 14:39:34","新北市板橋區民享街93號","121.47707","25.0160083333333","6500100","板橋區"
"220031","286-VK","2017/11/07 14:39:25","新北市板橋區僑中二街124巷2號","121.44546","25.005295","6500100","板橋區"
"220029","287-VK","2017/11/07 14:39:35","新北市板橋區大觀路一段29巷33號","121.450243333333","25.0075733333333","6500100","板橋區"
"220039","288-VK","2017/11/07 14:39:36","新北市板橋區新海路431巷20號","121.457716666667","25.0268916666667","6500100","板橋區"
"220009","295-UM","2017/11/07 14:39:36","新北市板橋區中山路一段283巷2弄19號","121.470635","25.015125","6500100","板橋區"
"220032","296-UM","2017/11/07 14:39:22","新北市板橋區溪崑二街114號","121.4264","24.9884466666667","6500100","板橋區"
"220023","297-UM","2017/11/07 14:39:34","新北市板橋區大勇街79號","121.452746666667","25.0165633333333","6500100","板橋區"
"220045","299-UM","2017/11/07 14:39:24","新北市板橋區莊敬路148-2號","121.470486666667","25.022505","6500100","板橋區"
"220010","303-R5","2017/11/07 14:39:28","新北市板橋區三民路二段29巷31弄3號","121.481493333333","25.0177866666667","6500100","板橋區"
"220041","307-R5","2017/11/07 14:39:32","新北市板橋區文化路一段371號","121.467041666667","25.0215083333333","6500100","板橋區"
"220047","317-R6","2017/11/07 14:39:35","新北市板橋區四維路269巷62號","121.460768333333","25.0272416666667","6500100","板橋區"
"220012","486-VK","2017/11/07 14:39:22","新北市板橋區中山路一段139-5號","121.462326666667","25.0113533333333","6500100","板橋區"
"220038","487-VK","2017/11/07 14:39:35","新北市板橋區英士路153號","121.459313333333","25.02383","6500100","板橋區"
"220037","491-VK","2017/11/07 14:39:30","新北市板橋區仁化街180號","121.47845","25.0339566666667","6500100","板橋區"
"220104","560-BX","2017/11/07 14:39:23","新北市板橋區金華街83號","121.457955","25.0207933333333","6500100","板橋區"
"220052","561-BX","2017/11/07 14:39:36","新北市板橋區文化路一段288號","121.467396666667","25.0215","6500100","板橋區"
"220011","609-BX","2017/11/07 14:39:29","新北市板橋區三民路一段31巷51號","121.481086666667","25.023315","6500100","板橋區"
"220040","637-BX","2017/11/07 14:39:31","新北市板橋區懷德街139巷20弄6-2號","121.480075","25.0306283333333","6500100","板橋區"
"220005","686-BX","2017/11/07 14:39:37","新北市板橋區國慶路49巷3號","121.45969","24.9958716666667","6500100","板橋區"
"220025","687-BX","2017/11/07 14:39:34","新北市板橋區僑中二街116巷1號","121.445675","25.0062966666667","6500100","板橋區"
"220042","689-BX","2017/11/07 14:39:37","新北市板橋區新海路438號","121.457988333333","25.02774","6500100","板橋區"
"220002","741-BX","2017/11/07 14:39:33","新北市板橋區忠孝路201巷1號","121.46488","25.002775","6500100","板橋區"
"220003","827-TW","2017/11/07 14:39:30","新北市板橋區國慶路149巷3弄1號","121.461218333333","24.9968516666667","6500100","板橋區"
"220014","829-TW","2017/11/07 14:39:32","新北市板橋區長安街138巷1弄342號","121.475023333333","25.0113483333333","6500100","板橋區"
"220051","830-TW","2017/11/07 14:39:36","新北市板橋區松柏街31-4號","121.475181666667","25.0301233333333","6500100","板橋區"
"220022","895-R6","2017/11/07 14:39:37","新北市板橋區民權路69號","121.461571666667","25.0115883333333","6500100","板橋區"
"220021","985-R7","2017/11/07 14:39:42","新北市板橋區大仁街117號","121.452236666667","25.0155683333333","6500100","板橋區"
"220046","AAC-210","2017/11/07 14:39:29","新北市板橋區漢生西路89巷2弄19-2號","121.461705","25.0197616666667","6500100","板橋區"
"220018","AAC-253","2017/11/07 14:39:38","新北市板橋區民族路169號","121.468443333333","25.0076333333333","6500100","板橋區"
