"lineid","car","time","location","longitude","latitude","cityid","cityname"
"234012","149-BY","2017/11/07 15:37:49","新北市永和區福和路1號","121.526385","25.0095016666667","6500400","永和區"
"231002","002-UM","2017/11/07 15:37:03","新北市新店區安康路一段240-1號","121.521671666667","24.9638416666667","6500600","新店區"
"231028","046-UY","2017/11/07 15:23:32","新北市新店區僑信路128號","121.500638333333","24.94608","6500600","新店區"
"231030","047-UY","2017/11/07 15:31:55","新北市新店區新和街102號","121.520793333333","24.9862083333333","6500600","新店區"
"231029","106-UY","2017/11/07 15:36:16","新北市新店區安康路三段440-1號","121.484923333333","24.951445","6500600","新店區"
"231012","108-UY","2017/11/07 15:36:34","新北市新店區寶元路一段109號","121.54575","24.983155","6500600","新店區"
"231020","187-VK","2017/11/07 15:37:26","新北市新店區金興路24號","121.551935","24.9307083333333","6500600","新店區"
"231015","KEA-2219","2017/11/07 15:24:15","新北市新店區明山路45號","121.563813333333","24.955885","6500600","新店區"
"231026","256-BX","2017/11/07 15:28:05","新北市新店區三民路117巷7弄1號","121.534131666667","24.9710766666667","6500600","新店區"
"231046","278-BY","2017/11/07 15:38:06","新北市新店區安華路28-1號","121.51967","24.96115","6500600","新店區"
"231023","AAD-862","2017/11/07 15:37:30","新北市新店區北新路一段96巷23號","121.542895","24.9687316666667","6500600","新店區"
"231025","3713-VJ","2017/11/07 15:37:46","新北市新店區中央二街64號","121.526393333333","24.9744333333333","6500600","新店區"
"231038","4715-K9","2017/11/07 15:38:35","新北市新店區安康路一段258號","121.520501666667","24.9642366666667","6500600","新店區"
"231036","512-UM","2017/11/07 15:11:06","新北市新店區安祥路104巷6弄9號","121.481901666667","24.9628216666667","6500600","新店區"
"231035","515-UM","2017/11/07 15:26:23","新北市新店區安興路108號","121.515136666667","24.9769433333333","6500600","新店區"
"231001","619-UM","2017/11/07 15:17:20","新北市新店區北新路一段269號","121.54103","24.9665783333333","6500600","新店區"
"231003","641-BX","2017/11/07 15:28:54","新北市新店區寶高路120巷2號","121.554496666667","24.9758066666667","6500600","新店區"
"231034","645-TV","2017/11/07 15:23:54","新北市新店區如意街15號","121.494778333333","24.948125","6500600","新店區"
"231039","718-UY","2017/11/07 15:24:38","新北市新店區寶慶街35巷3弄1號","121.543151666667","24.9861966666667","6500600","新店區"
"231018","719-UY","2017/11/07 15:37:11","新北市新店區中央路7號","121.533413333333","24.9786183333333","6500600","新店區"
"231032","720-UM","2017/11/07 15:33:49","新北市新店區雙城路36號","121.492001666667","24.950165","6500600","新店區"
"231005","897-TW","2017/11/07 15:19:05","新北市新店區民族路61號","121.539831666667","24.9784016666667","6500600","新店區"
"231004","899-TW","2017/11/07 15:25:38","新北市新店區民族路108號","121.538126666667","24.9772416666667","6500600","新店區"
"231037","AKT-0513","2017/11/07 15:28:15","新北市新店區安興路105-1號","121.514656666667","24.9776883333333","6500600","新店區"
"241028","022-UY","2017/11/07 15:36:25","新北市三重區重新路四段121號","121.484803333333","25.052525","6500200","三重區"
"241015","062-VK","2017/11/07 15:36:48","新北市三重區重新路四段121號","121.485121666667","25.05204","6500200","三重區"
"241017","063-VK","2017/11/07 15:38:40","新北市三重區大仁街20-1號","121.491601666667","25.06339","6500200","三重區"
"241023","545-UM","2017/11/07 15:38:32","新北市三重區重新路四段121號","121.484801666667","25.0525333333333","6500200","三重區"
"241020","887-TS","2017/11/07 15:36:50","新北市三重區忠孝路三段84巷1號","121.480173333333","25.0644316666667","6500200","三重區"
"241033","AAC-255","2017/11/07 15:37:41","新北市三重區中興南街76號","121.47088","25.0434783333333","6500200","三重區"
"235035","269-TV","2017/11/07 15:37:57","新北市中和區連城路329號","121.488743333333","24.9962466666667","6500300","中和區"
"235014","4979-A6","2017/11/07 15:27:30","新北市中和區景平路385巷9弄20號","121.50188","24.9940716666667","6500300","中和區"
"235033","4980-A6","2017/11/07 15:31:38","新北市中和區連城路469巷70弄8號","121.48322","24.993655","6500300","中和區"
"235006","551-UM","2017/11/07 15:36:37","新北市中和區中正路633號","121.485373333333","24.995255","6500300","中和區"
"235026","800-TS","2017/11/07 15:36:42","新北市中和區中正路637巷60弄61號","121.485693333333","24.9932016666667","6500300","中和區"
"235001","AAC-213","2017/11/07 15:38:58","新北市八里區中山路三段386號","121.36852","25.13584","6500300","中和區"
"235023","AAC-215","2017/11/07 15:25:24","新北市中和區員山路28-8號","121.482555","24.9874166666667","6500300","中和區"
"220013","072-UY","2017/11/07 15:27:54","新北市板橋區觀光街12巷1弄2號","121.471913333333","25.0169133333333","6500100","板橋區"
"220017","AAD-861","2017/11/07 15:11:41","新北市板橋區大明街18-5號","121.45875","25.0030133333333","6500100","板橋區"
"247004","336-TH","2017/11/07 15:10:16","新北市五股區中興路三段163號","121.44929","25.08055","6501400","蘆洲區"
"223001","205-TH","2017/11/07 14:18:34","新北市石碇區小粗坑(潭邊里)9-2號","121.678986666667","24.9862916666667","6501900","石碇區"
"227003","400-TW","2017/11/07 15:38:09","新北市雙溪區牡丹里中正路76號","121.864031666667","25.0445733333333","6502500","雙溪區"
"208004","170-UY","2017/11/07 15:23:10","新北市金山區南勢湖17號","121.620811666667","25.217545","6502700","金山區"
"236065","105-UM","2017/11/07 15:31:10","新北市土城區中央路二段192巷7號","121.441208333333","24.9759833333333","6501300","土城區"
"236041","107-UM","2017/11/07 15:24:34","新北市土城區學府路一段98巷15號","121.455685","24.9885066666667","6501300","土城區"
"236075","166-UM","2017/11/07 15:20:56","新北市土城區溪頭路155號","121.409125","24.9506933333333","6501300","土城區"
"236029","253-BX","2017/11/07 15:23:36","新北市土城區中央路一段242巷8弄2號","121.443903333333","24.98536","6501300","土城區"
"236025","269-VK","2017/11/07 15:15:18","新北市土城區中央路二段151號","121.442081666667","24.976625","6501300","土城區"
"236013","270-VK","2017/11/07 15:20:41","新北市土城區廣福街32號","121.457425","24.9901033333333","6501300","土城區"
"236034","271-VK","2017/11/07 15:18:53","新北市土城區國際路139巷53號","121.468391666667","24.9775716666667","6501300","土城區"
"236017","401-BY","2017/11/07 15:23:49","新北市土城區峰廷街3號","121.469098333333","24.9874016666667","6501300","土城區"
"236045","752-BX","2017/11/07 15:16:24","新北市土城區明德路一段37號","121.465045","24.9853116666667","6501300","土城區"
"236057","912-UM","2017/11/07 15:25:31","新北市土城區中央路二段338號","121.44018","24.9721833333333","6501300","土城區"
"236061","915-UM","2017/11/07 15:16:00","新北市土城區延和路146巷2-1號","121.46786","24.9897283333333","6501300","土城區"
"236054","AAC-216","2017/11/07 15:20:46","新北市土城區學府路一段94號","121.456228333333","24.9880066666667","6501300","土城區"
"238016","308-TH","2017/11/07 13:28:04","","121.388835","24.96833","6500700","樹林區"
"221012","276-VK","2017/11/07 13:27:06","新北市汐止區汐萬路一段256巷3號","121.65349","25.0746116666667","6501100","汐止區"
"221023","279-VK","2017/11/07 14:56:20","新北市汐止區康寧街901號","121.65172","25.074915","6501100","汐止區"
"220050","280-UM","2017/11/07 15:31:49","新北市板橋區縣民大道三段32號","121.471533333333","25.0187683333333","6500100","板橋區"
"220043","285-UM","2017/11/07 15:19:07","新北市板橋區民生路二段161巷1號","121.470206666667","25.0199016666667","6500100","板橋區"
"220001","285-VK","2017/11/07 15:37:13","新北市八里區中山路三段409號","121.368718333333","25.1356066666667","6500100","板橋區"
"220031","286-VK","2017/11/07 15:17:05","新北市板橋區僑中二街106巷30號","121.444736666667","25.0077733333333","6500100","板橋區"
"220041","307-R5","2017/11/07 15:17:13","新北市板橋區民權路97-1號","121.459801666667","25.0128683333333","6500100","板橋區"
"220047","317-R6","2017/11/07 15:15:33","新北市板橋區新海路72巷7號","121.462188333333","25.0220566666667","6500100","板橋區"
"220012","486-VK","2017/11/07 15:13:02","新北市板橋區長安街331巷47號","121.473406666667","25.0130383333333","6500100","板橋區"
"220038","487-VK","2017/11/07 15:16:55","新北市板橋區四維路249號","121.463663333333","25.0277183333333","6500100","板橋區"
"220052","561-BX","2017/11/07 15:23:36","新北市板橋區漢生東路23巷41號","121.465823333333","25.01794","6500100","板橋區"
"220011","609-BX","2017/11/07 15:06:19","新北市板橋區中山路二段268號","121.478983333333","25.0184066666667","6500100","板橋區"
"220025","687-BX","2017/11/07 15:04:34","新北市板橋區大觀路一段28巷112-1號","121.45038","25.0125783333333","6500100","板橋區"
"220042","689-BX","2017/11/07 15:36:02","新北市板橋區民生路二段188號","121.47033","25.0203133333333","6500100","板橋區"
"220018","AAC-253","2017/11/07 15:33:22","新北市板橋區華東街1-9號","121.448251666667","24.9948866666667","6500100","板橋區"
