"lineid","car","time","location","longitude","latitude","cityid","cityname"
"231028","046-UY","2017/11/07 15:58:31","新北市新店區安華路28-1號","121.519593333333","24.9608216666667","6500600","新店區"
"231046","278-BY","2017/11/07 16:19:26","新北市新店區灣潭路3-3號","121.538235","24.9508133333333","6500600","新店區"
"231001","619-UM","2017/11/07 15:17:20","新北市新店區北新路一段269號","121.54103","24.9665783333333","6500600","新店區"
"231039","718-UY","2017/11/07 15:35:37","新北市新店區寶元路二段22號","121.546306666667","24.9820566666667","6500600","新店區"
"231018","719-UY","2017/11/07 16:19:31","新北市新店區中正路694巷15號","121.535366666667","24.9909","6500600","新店區"
"241011","013-R5","2017/11/07 16:19:33","新北市三重區龍濱路285號","121.50103","25.073495","6500200","三重區"
"241028","022-UY","2017/11/07 16:19:25","新北市三重區正義南路181巷1號","121.498973333333","25.0571383333333","6500200","三重區"
"241008","059-VK","2017/11/07 16:19:27","新北市三重區永福街112號","121.478988333333","25.075395","6500200","三重區"
"241009","060-VK","2017/11/07 16:19:28","新北市三重區仁愛街510號","121.487505","25.0821566666667","6500200","三重區"
"241031","061-VK","2017/11/07 16:19:30","新北市三重區重陽路一段51號","121.486745","25.058215","6500200","三重區"
"241015","062-VK","2017/11/07 16:19:28","新北市三重區福德北路79號","121.501941666667","25.065875","6500200","三重區"
"241017","063-VK","2017/11/07 16:19:20","新北市三重區大同北路85號","121.494836666667","25.06362","6500200","三重區"
"241024","065-VK","2017/11/07 16:19:26","新北市三重區中正北路174-7號","121.483446666667","25.066805","6500200","三重區"
"241026","066-VK","2017/11/07 16:19:38","新北市三重區正義南路38號","121.498178333333","25.0609216666667","6500200","三重區"
"241002","090-VK","2017/11/07 16:19:26","新北市三重區仁義街101巷20號","121.49885","25.0798716666667","6500200","三重區"
"241003","091-VK","2017/11/07 16:19:37","新北市三重區五華街63巷16號","121.493741666667","25.0832566666667","6500200","三重區"
"241005","262-UM","2017/11/07 16:19:24","新北市三重區溪尾街300-2號","121.487433333333","25.0837233333333","6500200","三重區"
"241029","265-UM","2017/11/07 16:19:31","新北市三重區中正南路250巷5號","121.493451666667","25.05355","6500200","三重區"
"241016","266-UM","2017/11/07 16:19:23","新北市三重區大仁街86號","121.492868333333","25.0654816666667","6500200","三重區"
"241022","267-UM","2017/11/07 16:19:26","新北市三重區新北大道一段7號","121.489668333333","25.0617383333333","6500200","三重區"
"241018","268-UM","2017/11/07 16:19:39","新北市三重區重陽路三段142-1號","121.48951","25.06722","6500200","三重區"
"241013","270-UM","2017/11/07 16:19:24","新北市三重區龍門路60號","121.496583333333","25.0727383333333","6500200","三重區"
"241025","271-UM","2017/11/07 16:19:32","新北市三重區中正北路560巷100弄2號","121.472406666667","25.0682216666667","6500200","三重區"
"241007","398-BY","2017/11/07 16:19:38","新北市三重區三和路四段163巷60號","121.48644","25.079595","6500200","三重區"
"241004","475-VK","2017/11/07 16:19:31","新北市三重區五華街74號","121.4935","25.0819966666667","6500200","三重區"
"241030","480-VK","2017/11/07 16:19:26","新北市三重區重新路四段121號","121.48441","25.05222","6500200","三重區"
"241014","543-UM","2017/11/07 16:19:30","新北市三重區長樂街130號","121.502373333333","25.0698","6500200","三重區"
"241023","545-UM","2017/11/07 16:19:32","新北市三重區中正北路145巷4弄17號","121.482915","25.067965","6500200","三重區"
"241001","547-UM","2017/11/07 16:19:39","新北市三重區自強路四段79號","121.490871666667","25.07911","6500200","三重區"
"241006","AAD-863","2017/11/07 16:19:39","新北市三重區永福街46巷41弄3號","121.482061666667","25.0771616666667","6500200","三重區"
"241020","887-TS","2017/11/07 16:19:30","新北市三重區後竹圍街235號","121.48429","25.0713666666667","6500200","三重區"
"241012","941-UM","2017/11/07 16:19:23","新北市三重區龍門路217號","121.500278333333","25.0735266666667","6500200","三重區"
"241033","AAC-255","2017/11/07 16:19:41","新北市三重區重新路五段416號","121.475656666667","25.0476166666667","6500200","三重區"
"235035","269-TV","2017/11/07 15:42:17","新北市中和區員山路36巷16-2號","121.485405","24.9913683333333","6500300","中和區"
"235033","4980-A6","2017/11/07 15:42:38","新北市中和區員山路36巷12號","121.483921666667","24.99061","6500300","中和區"
"235026","800-TS","2017/11/07 16:19:22","新北市中和區建八路162號","121.490155","24.9985733333333","6500300","中和區"
"220013","072-UY","2017/11/07 16:12:00","新北市板橋區華東街1-9號","121.44812","24.99491","6500100","板橋區"
"220017","AAD-861","2017/11/07 15:11:41","新北市板橋區大明街18-5號","121.45875","25.0030133333333","6500100","板橋區"
"247004","336-TH","2017/11/07 15:50:32","新北市五股區中興路三段163號","121.449246666667","25.08066","6501400","蘆洲區"
"223001","205-TH","2017/11/07 14:18:34","新北市石碇區小粗坑(潭邊里)9-2號","121.678986666667","24.9862916666667","6501900","石碇區"
"224006","676-BX","2017/11/07 16:19:35","新北市瑞芳區中山路251號","121.798701666667","25.1088516666667","6501200","瑞芳區"
"224008","275-VK","2017/11/07 16:19:32","新北市瑞芳區大寮路356-1號","121.785331666667","25.1032683333333","6501200","瑞芳區"
"224007","273-VK","2017/11/07 16:19:30","新北市瑞芳區大埔路260號","121.760321666667","25.1024966666667","6501200","瑞芳區"
"224005","271-BY","2017/11/07 16:19:20","新北市瑞芳區阿美家園5號","121.821636666667","25.1160683333333","6501200","瑞芳區"
"227003","400-TW","2017/11/07 16:19:29","新北市雙溪區上林里內平林80號","121.828313333333","25.02796","6502500","雙溪區"
"227009","030-BX","2017/11/07 16:19:21","新北市雙溪區三港里雙澳路80號","121.883836666667","25.0538283333333","6502500","雙溪區"
"238016","308-TH","2017/11/07 13:28:04","","121.388835","24.96833","6500700","樹林區"
"221012","276-VK","2017/11/07 13:27:06","新北市汐止區汐萬路一段256巷3號","121.65349","25.0746116666667","6501100","汐止區"
"221023","279-VK","2017/11/07 14:56:20","新北市汐止區康寧街901號","121.65172","25.074915","6501100","汐止區"
"220043","285-UM","2017/11/07 15:19:07","新北市板橋區民生路二段161巷1號","121.470206666667","25.0199016666667","6500100","板橋區"
"220041","307-R5","2017/11/07 15:17:13","新北市板橋區民權路97-1號","121.459801666667","25.0128683333333","6500100","板橋區"
"220012","486-VK","2017/11/07 15:13:02","新北市板橋區長安街331巷47號","121.473406666667","25.0130383333333","6500100","板橋區"
"220038","487-VK","2017/11/07 15:41:57","新北市板橋區民生路二段188號","121.47029","25.02022","6500100","板橋區"
"220052","561-BX","2017/11/07 15:56:11","新北市板橋區民生路二段161巷9號","121.470261666667","25.0195733333333","6500100","板橋區"
"220011","609-BX","2017/11/07 15:06:19","新北市板橋區中山路二段268號","121.478983333333","25.0184066666667","6500100","板橋區"
"220025","687-BX","2017/11/07 15:04:34","新北市板橋區大觀路一段28巷112-1號","121.45038","25.0125783333333","6500100","板橋區"
"220042","689-BX","2017/11/07 15:36:02","新北市板橋區民生路二段188號","121.47033","25.0203133333333","6500100","板橋區"
"220018","AAC-253","2017/11/07 15:33:22","新北市板橋區華東街1-9號","121.448251666667","24.9948866666667","6500100","板橋區"
