"lineid","car","time","location","longitude","latitude","cityid","cityname"
"234026","9381-KE","2017/11/07 17:59:37","新北市永和區永和路一段45號","121.51291","25.0062716666667","6500400","永和區"
"249005","172-UM","2017/11/07 17:59:13","新北市八里區荖阡坑路20-8號","121.39687","25.1367933333333","6502300","八里區"
"249001","173-UM","2017/11/07 17:59:32","新北市八里區龍米路二段35號","121.448413333333","25.1400433333333","6502300","八里區"
"249004","303-UY","2017/11/07 17:59:29","新北市八里區中山路一段12號","121.423163333333","25.15902","6502300","八里區"
"249002","305-UY","2017/11/07 17:59:29","新北市八里區龍米路一段259號","121.450646666667","25.1336783333333","6502300","八里區"
"249003","593-UM","2017/11/07 17:59:24","新北市八里區中山路二段76號","121.408488333333","25.1559483333333","6502300","八里區"
"248006","077-UY","2017/11/07 17:59:35","新北市五股區中興路二段37巷28號","121.460135","25.0750666666667","6501500","五股區"
"248008","095-VK","2017/11/07 17:59:27","新北市五股區更洲路10號","121.458348333333","25.0788066666667","6501500","五股區"
"248020","225-UY","2017/11/07 17:59:40","新北市五股區中興路二段83巷26-6號","121.460005","25.0751666666667","6501500","五股區"
"248002","678-BX","2017/11/07 17:59:37","新北市五股區中興路二段37巷28號","121.460145","25.0748683333333","6501500","五股區"
"232011","375-UM","2017/11/07 17:59:23","新北市坪林區北宜路八段298號","121.710306666667","24.9352933333333","6502000","坪林區"
"244013","069-UM","2017/11/07 17:59:26","新北市林口區中山路164號","121.390273333333","25.0788066666667","6501700","林口區"
"244007","080-UY","2017/11/07 17:59:24","新北市林口區竹林路77-8號","121.388578333333","25.079745","6501700","林口區"
"244019","403-UM","2017/11/07 17:59:23","新北市林口區忠孝路542巷5弄9號","121.3738","25.0675833333333","6501700","林口區"
"244025","742-UY","2017/11/07 17:59:38","新北市林口區文化三路一段39巷189號","121.359423333333","25.0682133333333","6501700","林口區"
"244009","410-SL","2017/11/07 17:59:34","新北市林口區竹林路564號","121.386708333333","25.083685","6501700","林口區"
"244023","483-VK","2017/11/07 17:59:36","新北市林口區東湖路93巷87-1號","121.385553333333","25.0708133333333","6501700","林口區"
"244017","485-VK","2017/11/07 17:59:24","新北市林口區公園路177號","121.370891666667","25.072145","6501700","林口區"
"244011","701-TV","2017/11/07 17:59:37","新北市林口區中正路266號","121.389345","25.0777333333333","6501700","林口區"
"244021","838-TS","2017/11/07 17:59:37","新北市林口區新寮45號","121.404235","25.0642866666667","6501700","林口區"
"222003","436-BY","2017/11/07 17:59:28","新北市深坑區炮子崙23號","121.607166666667","24.9909233333333","6501800","深坑區"
"222002","659-BX","2017/11/07 17:59:33","新北市深坑區文化街96號","121.617146666667","25.0019966666667","6501800","深坑區"
"231028","046-UY","2017/11/07 15:58:31","新北市新店區安華路28-1號","121.519593333333","24.9608216666667","6500600","新店區"
"231046","278-BY","2017/11/07 17:59:26","新北市新店區康雅崙路6號","121.536531666667","24.92617","6500600","新店區"
"231001","619-UM","2017/11/07 15:17:20","新北市新店區北新路一段269號","121.54103","24.9665783333333","6500600","新店區"
"231039","718-UY","2017/11/07 15:35:37","新北市新店區寶元路二段22號","121.546306666667","24.9820566666667","6500600","新店區"
"241024","065-VK","2017/11/07 17:59:26","新北市三重區中正北路193巷35弄16號","121.476483333333","25.070935","6500200","三重區"
"241016","266-UM","2017/11/07 17:59:23","新北市五股區五工一路109號","121.456915","25.0706183333333","6500200","三重區"
"241033","AAC-255","2017/11/07 17:59:21","新北市三重區重新路五段561號","121.470418333333","25.0460233333333","6500200","三重區"
"235064","005-UY","2017/11/07 17:59:31","新北市中和區員山路36巷16-3號","121.48504","24.9913366666667","6500300","中和區"
"235063","006-UY","2017/11/07 17:59:25","新北市中和區員山路36巷16-3號","121.485006666667","24.991315","6500300","中和區"
"235058","151-BY","2017/11/07 17:59:26","新北市中和區錦和路350-1號","121.49043","24.9935333333333","6500300","中和區"
"235038","185-VK","2017/11/07 17:59:23","新北市中和區景安路72號","121.50578","24.9965383333333","6500300","中和區"
"235061","378-QA","2017/11/07 15:50:39","新北市中和區員山路36巷13號","121.484428333333","24.9910516666667","6500300","中和區"
"235035","269-TV","2017/11/07 15:42:17","新北市中和區員山路36巷16-2號","121.485405","24.9913683333333","6500300","中和區"
"235046","733-UM","2017/11/07 17:59:22","新北市中和區員山路36巷13號","121.484128333333","24.990845","6500300","中和區"
"235062","800-TS","2017/11/07 17:59:25","新北市中和區連城路469巷4號","121.483541666667","24.995565","6500300","中和區"
"235037","157-BY","2017/11/07 17:59:26","新北市中和區員山路36巷13號","121.48449","24.9911483333333","6500300","中和區"
"235037","AAC-213","2017/11/07 17:59:35","新北市中和區中正路250號","121.495718333333","24.9939466666667","6500300","中和區"
"220013","072-UY","2017/11/07 17:59:37","新北市板橋區華東街1-9號","121.448125","24.9949316666667","6500100","板橋區"
"220017","AAD-861","2017/11/07 15:11:41","新北市板橋區大明街18-5號","121.45875","25.0030133333333","6500100","板橋區"
"247022","893-R6","2017/11/07 17:59:32","新北市蘆洲區中正路516巷12號","121.462688333333","25.0981883333333","6501400","蘆洲區"
"247012","546-UM","2017/11/07 17:59:28","新北市蘆洲區民族路167巷14號","121.478358333333","25.0884083333333","6501400","蘆洲區"
"247020","500-BY","2017/11/07 17:59:26","新北市蘆洲區民權路131巷10號","121.471428333333","25.089945","6501400","蘆洲區"
"247010","339-TH","2017/11/07 17:59:38","新北市蘆洲區中山一路165號","121.47538","25.0815966666667","6501400","蘆洲區"
"247002","337-TH","2017/11/07 17:59:29","新北市蘆洲區永平街32巷57弄19號","121.45906","25.0930983333333","6501400","蘆洲區"
"247024","335-TH","2017/11/07 17:59:25","新北市蘆洲區光復路30巷20號","121.463793333333","25.0841133333333","6501400","蘆洲區"
"247016","057-VK","2017/11/07 17:59:28","新北市蘆洲區中正路185巷92號","121.465386666667","25.0838683333333","6501400","蘆洲區"
"247008","053-VK","2017/11/07 17:59:35","新北市五股區中興路二段182巷15弄13號","121.45726","25.0814533333333","6501400","蘆洲區"
"247014","007-UY","2017/11/07 17:59:41","新北市蘆洲區中正路168號","121.468773333333","25.0859883333333","6501400","蘆洲區"
"247018","001-UY","2017/11/07 17:59:24","新北市蘆洲區復興路302號","121.481303333333","25.0900166666667","6501400","蘆洲區"
"223001","205-TH","2017/11/07 14:18:34","新北市石碇區小粗坑(潭邊里)9-2號","121.678986666667","24.9862916666667","6501900","石碇區"
"228003","097-TW","2017/11/07 17:59:27","新北市貢寮區真理里美艷山街6-2號","121.928923333333","25.0607266666667","6502600","貢寮區"
"228001","212-TW","2017/11/07 17:59:20","新北市貢寮區真理里新港街26巷53號","121.928525","25.0536233333333","6502600","貢寮區"
"228002","663-BX","2017/11/07 17:59:41","新北市貢寮區福連里香蘭街3-3號","121.97215","25.0245383333333","6502600","貢寮區"
"224010","AGQ-8101","2017/11/07 17:59:35","新北市瑞芳區汽車路29號","121.844503333333","25.1098916666667","6501200","瑞芳區"
"224006","676-BX","2017/11/07 17:59:29","新北市瑞芳區瑞興新村12巷1號","121.788438333333","25.1083216666667","6501200","瑞芳區"
"224002","639-TC","2017/11/07 17:59:33","新北市瑞芳區三爪子坑路24號","121.810483333333","25.10638","6501200","瑞芳區"
"224009","285-BY","2017/11/07 17:59:22","新北市瑞芳區山尖路187號","121.851651666667","25.1115033333333","6501200","瑞芳區"
"224008","275-VK","2017/11/07 17:59:31","新北市瑞芳區明燈路一段45巷61-4號","121.821833333333","25.105145","6501200","瑞芳區"
"224007","273-VK","2017/11/07 17:59:37","新北市瑞芳區大寮路62-1號","121.781673333333","25.0986583333333","6501200","瑞芳區"
"224005","271-BY","2017/11/07 17:59:35","新北市瑞芳區深澳路203號","121.819455","25.1333333333333","6501200","瑞芳區"
"227009","642-TC","2017/11/07 17:59:37","新北市雙溪區三貂里定福路1-2號","121.850688333333","25.06345","6502500","雙溪區"
"253005","032-BX","2017/11/07 17:59:36","新北市石門區中山路62-11號","121.567533333333","25.289685","6502200","石門區"
"253006","295-VK","2017/11/07 17:59:40","新北市石門區大丘田45-2號","121.549788333333","25.2748466666667","6502200","石門區"
"208002","742-BX","2017/11/07 17:59:34","新北市金山區三界壇路37號","121.62746","25.228","6502700","金山區"
"208003","665-BX","2017/11/07 17:59:25","新北市金山區磺港里磺港路311號","121.644161666667","25.2277416666667","6502700","金山區"
"208001","761-BX","2017/11/07 17:59:38","新北市金山區磺港里磺港路247號","121.643718333333","25.2250116666667","6502700","金山區"
"251004","009-UM","2017/11/07 17:59:29","新北市淡水區民權路187巷11號","121.460036666667","25.1336983333333","6501000","淡水區"
"251005","010-UM","2017/11/07 17:59:25","新北市淡水區英專路135號","121.446565","25.1727516666667","6501000","淡水區"
"251014","180-VK","2017/11/07 17:59:28","新北市淡水區公埔子16-6號","121.481006666667","25.224575","6501000","淡水區"
"251008","181-VK","2017/11/07 17:59:28","新北市淡水區中正東路二段83號","121.460533333333","25.1538366666667","6501000","淡水區"
"251010","413-VK","2017/11/07 17:59:37","新北市淡水區淡海路55號","121.423075","25.1806216666667","6501000","淡水區"
"251012","441-VK","2017/11/07 17:59:30","新北市淡水區北新路三段38巷7號","121.484561666667","25.186995","6501000","淡水區"
"251016","442-VK","2017/11/07 17:59:33","新北市淡水區埤島30-15號","121.448248333333","25.1979933333333","6501000","淡水區"
"251001","559-UM","2017/11/07 17:59:32","新北市淡水區民權路94巷1號","121.463083333333","25.1247933333333","6501000","淡水區"
"251006","561-UM","2017/11/07 17:59:38","新北市淡水區新生街17號","121.438906666667","25.1733483333333","6501000","淡水區"
"251009","575-R6","2017/11/07 17:59:30","新北市淡水區大仁街6巷1號","121.44247","25.1746666666667","6501000","淡水區"
"251011","650-BX","2017/11/07 17:59:21","新北市淡水區三空泉5號","121.47677","25.1614116666667","6501000","淡水區"
"251002","672-BX","2017/11/07 17:59:21","新北市淡水區鼻頭街18-1號","121.446885","25.1667133333333","6501000","淡水區"
"251003","673-BX","2017/11/07 17:59:34","新北市淡水區大忠街113巷10號","121.446938333333","25.1776183333333","6501000","淡水區"
"207003","550-UM","2017/11/07 17:59:25","新北市萬里區港東路野柳風景區攤販80號","121.691193333333","25.20578","6502800","萬里區"
"207004","225-TW","2017/11/07 17:59:29","新北市萬里區中幅里中福路48號","121.683326666667","25.17406","6502800","萬里區"
"252002","178-VK","2017/11/07 17:59:28","新北市三芝區中山路二段45號","121.502798333333","25.254855","6502100","三芝區"
"252001","292-VK","2017/11/07 17:59:36","新北市三芝區中興街一段47號","121.497976666667","25.2573666666667","6502100","三芝區"
"237004","078-UY","2017/11/07 17:59:30","新北市三峽區中正路二段154號","121.366075","24.9160283333333","6500900","三峽區"
"237007","153-BY","2017/11/07 17:59:34","新北市三峽區中園街149-2號","121.367253333333","24.922935","6500900","三峽區"
"237009","210-TH","2017/11/07 17:59:27","新北市三峽區中山路106巷35號","121.365958333333","24.936645","6500900","三峽區"
"237013","252-BX","2017/11/07 17:59:40","新北市三峽區介壽路一段111號","121.375861666667","24.93202","6500900","三峽區"
"237012","275-BY","2017/11/07 17:59:38","新北市三峽區民生街27巷30號","121.376066666667","24.93616","6500900","三峽區"
"237008","302-VK","2017/11/07 17:59:23","新北市三峽區白雞32-3號","121.3722","24.9122266666667","6500900","三峽區"
"237006","5529-G3","2017/11/07 17:59:35","新北市三峽區介壽路二段136巷102號","121.392201666667","24.933175","6500900","三峽區"
"237011","572-TV","2017/11/07 17:59:23","新北市三峽區大同路2-1號","121.378401666667","24.9300516666667","6500900","三峽區"
"237016","649-BX","2017/11/07 17:59:34","新北市三峽區紫微路109號","121.408176666667","24.91145","6500900","三峽區"
"237010","706-TV","2017/11/07 17:58:58","新北市三峽區民權街200號","121.367703333333","24.9292116666667","6500900","三峽區"
"237005","AKY-6261","2017/11/07 17:59:31","新北市三峽區復興路235號","121.368476666667","24.9388933333333","6500900","三峽區"
"236070","105-UM","2017/11/07 17:59:30","新北市土城區青雲路474-2號","121.464081666667","24.966075","6501300","土城區"
"236043","107-UM","2017/11/07 17:59:33","新北市土城區中央路一段254號","121.444388333333","24.9844233333333","6501300","土城區"
"236079","166-UM","2017/11/07 17:59:28","新北市土城區永寧路32巷10弄5號","121.428738333333","24.9609533333333","6501300","土城區"
"236031","253-BX","2017/11/07 17:59:38","新北市土城區城林路6巷80號","121.438415","24.9797583333333","6501300","土城區"
"236027","269-VK","2017/11/07 17:59:31","新北市土城區承天路18號","121.439498333333","24.963445","6501300","土城區"
"236015","270-VK","2017/11/07 17:59:21","新北市土城區城林路6巷80號","121.438515","24.9796366666667","6501300","土城區"
"236038","271-VK","2017/11/07 17:59:30","新北市土城區城林路6巷80號","121.438555","24.97961","6501300","土城區"
"236023","401-BY","2017/11/07 17:59:29","新北市土城區城林路6巷80號","121.438601666667","24.9796916666667","6501300","土城區"
"236049","752-BX","2017/11/07 17:58:27","新北市土城區中央路二段280號","121.44074","24.97409","6501300","土城區"
"236059","912-UM","2017/11/07 17:59:28","新北市土城區中央路三段198號","121.43034","24.9648533333333","6501300","土城區"
"236063","915-UM","2017/11/07 17:59:20","新北市土城區城林路6巷80號","121.438411666667","24.97977","6501300","土城區"
"236055","AAC-216","2017/11/07 17:59:35","新北市土城區城林路6巷80號","121.438515","24.979615","6501300","土城區"
"242032","AAC-296","2017/11/07 17:59:24","新北市新莊區新泰路305巷8號","121.444771666667","25.0409883333333","6500500","新莊區"
"242029","986-R7","2017/11/07 17:59:33","新北市新莊區中平路73號","121.444653333333","25.0449183333333","6500500","新莊區"
"242051","751-BX","2017/11/07 17:59:23","新北市新莊區西盛街167號","121.428226666667","25.0175866666667","6500500","新莊區"
"242025","615-BX","2017/11/07 17:59:27","新北市新莊區五工路58號","121.458635","25.06301","6500500","新莊區"
"242023","613-BX","2017/11/07 17:59:26","新北市新莊區福壽街72號","121.458271666667","25.049295","6500500","新莊區"
"242027","612-BX","2017/11/07 17:59:28","新北市新莊區中原路1號","121.459533333333","25.0544133333333","6500500","新莊區"
"242039","566-BX","2017/11/07 17:59:22","新北市新莊區民安西路22號","121.426788333333","25.0213933333333","6500500","新莊區"
"242044","497-BY","2017/11/07 17:59:38","新北市新莊區新北大道七段365號","121.412645","25.0267316666667","6500500","新莊區"
"242002","442-UM","2017/11/07 17:59:38","新北市新莊區中正路159-2號","121.455525","25.0367066666667","6500500","新莊區"
"242048","441-UM","2017/11/07 17:59:38","新北市新莊區萬安街47巷28號","121.422715","25.02412","6500500","新莊區"
"242054","440-UM","2017/11/07 17:59:27","新北市新莊區光華街6號","121.428673333333","25.0107183333333","6500500","新莊區"
"242005","413-TV","2017/11/07 17:59:36","新北市新莊區福樂街71巷11號","121.456783333333","25.04745","6500500","新莊區"
"242042","400-BY","2017/11/07 17:59:28","新北市新莊區中正路857號","121.419648333333","25.028145","6500500","新莊區"
"242061","362-BY","2017/11/07 17:59:37","新北市新莊區新樹路465號","121.432631666667","25.013075","6500500","新莊區"
"242058","353-BY","2017/11/07 17:59:19","新北市新莊區新北大道七段239號","121.41302","25.0296733333333","6500500","新莊區"
"242007","132-UY","2017/11/07 17:59:35","新北市新莊區自信街65巷16號","121.455573333333","25.048845","6500500","新莊區"
"242037","133-UY","2017/11/07 17:59:24","新北市新莊區建福路35號","121.426485","25.0283316666667","6500500","新莊區"
"242021","135-UY","2017/11/07 17:59:38","新北市新莊區中正路164號","121.451346666667","25.0359566666667","6500500","新莊區"
"242046","172-VK","2017/11/07 17:59:40","新北市新莊區福營路184號","121.431318333333","25.0308133333333","6500500","新莊區"
"242009","173-VK","2017/11/07 17:59:33","新北市新莊區中華路二段294號","121.452408333333","25.0538383333333","6500500","新莊區"
"242015","175-VK","2017/11/07 17:59:28","新北市新莊區中平路127號","121.444693333333","25.047005","6500500","新莊區"
"242013","346-TH","2017/11/07 17:59:36","新北市新莊區中和街113號","121.446928333333","25.0483916666667","6500500","新莊區"
"242034","348-TH","2017/11/07 17:59:38","新北市新莊區福海街31巷2號","121.445201666667","25.03396","6500500","新莊區"
"242056","349-TH","2017/11/07 17:59:30","新北市新莊區豐年街55-8號","121.446488333333","25.0308316666667","6500500","新莊區"
"242017","350-TH","2017/11/07 17:59:38","新北市新莊區中和街60巷7號","121.44831","25.0448233333333","6500500","新莊區"
"242011","351-TH","2017/11/07 17:59:35","新北市新莊區中港路中慶巷31號","121.449711666667","25.05376","6500500","新莊區"
"238015","755-BX","2017/11/07 17:59:18","新北市樹林區啟智街84號","121.419671666667","24.99115","6500700","樹林區"
"238023","601-UM","2017/11/07 17:59:27","新北市樹林區龍興街29號","121.40303","25.0159483333333","6500700","樹林區"
"238019","599-UM","2017/11/07 17:59:35","新北市樹林區中華路73號","121.423083333333","24.983065","6500700","樹林區"
"238018","571-TV","2017/11/07 17:59:29","新北市樹林區樹新路98號","121.429488333333","24.9975666666667","6500700","樹林區"
"238021","KEA-2217","2017/11/07 17:59:31","新北市樹林區柑園街一段21巷2號","121.404793333333","24.960565","6500700","樹林區"
"238022","KEA-2213","2017/11/07 17:59:32","新北市樹林區福順街59號","121.41608","24.9782733333333","6500700","樹林區"
"238025","303-VK","2017/11/07 17:59:33","新北市樹林區三俊街121號","121.417608333333","25.0156366666667","6500700","樹林區"
"238017","283-BY","2017/11/07 17:59:31","新北市樹林區俊德街49號","121.415518333333","25.0133983333333","6500700","樹林區"
"238014","282-BY","2017/11/07 17:59:19","新北市樹林區大安路43號","121.423865","24.9992466666667","6500700","樹林區"
"238020","268-VK","2017/11/07 17:59:31","新北市樹林區三俊街199巷37號","121.420696666667","25.0184216666667","6500700","樹林區"
"238026","172-UY","2017/11/07 17:59:35","新北市樹林區中洲街6號","121.397338333333","24.9727833333333","6500700","樹林區"
"238016","169-UY","2017/11/07 17:59:22","新北市樹林區復興路373巷6號","121.416888333333","24.986775","6500700","樹林區"
"239007","AAC-297","2017/11/07 17:59:31","新北市鶯歌區鶯桃路16號","121.34216","24.9517216666667","6500800","鶯歌區"
"239008","527-UM","2017/11/07 17:59:23","新北市鶯歌區朝陽街52巷1號","121.337863333333","24.9781766666667","6500800","鶯歌區"
"239005","526-UM","2017/11/07 17:59:30","新北市鶯歌區大湖路361巷81-1號","121.332741666667","24.9737833333333","6500800","鶯歌區"
"239001","417-VK","2017/11/07 17:59:27","新北市鶯歌區中正三路123-2號","121.337563333333","24.9406283333333","6500800","鶯歌區"
"239003","360-BY","2017/11/07 17:59:38","新北市鶯歌區福安街30號","121.334523333333","24.9641183333333","6500800","鶯歌區"
"239002","359-BY","2017/11/07 17:59:25","新北市鶯歌區中山路249巷2弄1號","121.345681666667","24.95649","6500800","鶯歌區"
"239006","292-BY","2017/11/07 17:59:30","新北市鶯歌區鶯桃路413巷34弄26號","121.330818333333","24.964085","6500800","鶯歌區"
"239004","193-VK","2017/11/07 17:59:24","新北市鶯歌區尖山路103-3號","121.347898333333","24.9489783333333","6500800","鶯歌區"
"221008","489-VK","2017/11/07 17:59:29","新北市汐止區明峰街15號","121.634821666667","25.0714216666667","6501100","汐止區"
"221036","130-UY","2017/11/07 17:59:34","新北市汐止區大同路三段40號","121.66711","25.0766183333333","6501100","汐止區"
"221015","131-UY","2017/11/07 17:59:35","新北市汐止區長江街349號","121.667418333333","25.0821266666667","6501100","汐止區"
"221010","269-BY","2017/11/07 17:59:39","新北市汐止區汐萬路二段122巷34號","121.648435","25.08642","6501100","汐止區"
"221012","276-VK","2017/11/07 13:27:06","新北市汐止區汐萬路一段256巷3號","121.65349","25.0746116666667","6501100","汐止區"
"221012","278-VK","2017/11/07 17:59:26","新北市汐止區長興街二段30號","121.673258333333","25.08144","6501100","汐止區"
"221023","279-VK","2017/11/07 17:59:26","新北市汐止區明峰街135號","121.629915","25.0706483333333","6501100","汐止區"
"221032","280-BY","2017/11/07 17:59:39","新北市汐止區橫科路73巷2-2號","121.619403333333","25.0506533333333","6501100","汐止區"
"221027","281-BY","2017/11/07 17:59:36","新北市汐止區大同路二段389號","121.65777","25.0672316666667","6501100","汐止區"
"221029","298-VK","2017/11/07 17:59:21","新北市汐止區樟樹二路332號","121.64153","25.0703233333333","6501100","汐止區"
"221021","299-VK","2017/11/07 17:59:26","新北市汐止區新興路16號","121.656316666667","25.0646366666667","6501100","汐止區"
"221031","353-TW","2017/11/07 17:59:24","新北市汐止區中興路39號","121.634591666667","25.0622233333333","6501100","汐止區"
"221002","358-BY","2017/11/07 17:59:20","新北市汐止區工建路205號","121.635826666667","25.061785","6501100","汐止區"
"221035","622-UM","2017/11/07 17:59:33","新北市汐止區汐萬路一段115巷2號","121.65422","25.07092","6501100","汐止區"
"221025","623-UM","2017/11/07 17:59:34","新北市汐止區仁愛路49號","121.659731666667","25.06315","6501100","汐止區"
"221038","646-BX","2017/11/07 17:59:30","新北市汐止區連興街128巷7弄10號","121.653448333333","25.0612683333333","6501100","汐止區"
"221033","647-BX","2017/11/07 17:59:25","新北市汐止區合順街19號","121.620088333333","25.043195","6501100","汐止區"
"221018","753-BX","2017/11/07 17:59:25","新北市汐止區忠孝東路382巷1弄2號","121.665738333333","25.0698116666667","6501100","汐止區"
"220043","285-UM","2017/11/07 15:19:07","新北市板橋區民生路二段161巷1號","121.470206666667","25.0199016666667","6500100","板橋區"
"220041","307-R5","2017/11/07 15:17:13","新北市板橋區民權路97-1號","121.459801666667","25.0128683333333","6500100","板橋區"
"220038","487-VK","2017/11/07 15:41:57","新北市板橋區民生路二段188號","121.47029","25.02022","6500100","板橋區"
"242019","280-VK","2017/11/07 17:59:25","新北市新莊區明中街18號","121.45746","25.0393583333333","6500500","新莊區"
"220052","561-BX","2017/11/07 15:56:11","新北市板橋區民生路二段161巷9號","121.470261666667","25.0195733333333","6500100","板橋區"
"220011","609-BX","2017/11/07 15:06:19","新北市板橋區中山路二段268號","121.478983333333","25.0184066666667","6500100","板橋區"
"220025","687-BX","2017/11/07 15:04:34","新北市板橋區大觀路一段28巷112-1號","121.45038","25.0125783333333","6500100","板橋區"
"220042","689-BX","2017/11/07 15:36:02","新北市板橋區民生路二段188號","121.47033","25.0203133333333","6500100","板橋區"
"220018","AAC-253","2017/11/07 15:33:22","新北市板橋區華東街1-9號","121.448251666667","24.9948866666667","6500100","板橋區"
