"lineid","car","time","location","longitude","latitude","cityid","cityname"
"234046","148-BY","2017/11/07 18:49:19","新北市永和區秀朗路二段124-3號","121.52482","25.0014616666667","6500400","永和區"
"234013","149-BY","2017/11/07 18:49:26","新北市永和區仁愛路202巷26號","121.50888","25.01297","6500400","永和區"
"234007","207-UY","2017/11/07 18:49:38","新北市永和區文化路8號","121.515495","25.0150216666667","6500400","永和區"
"234081","298-R6","2017/11/07 18:49:34","新北市永和區永亨路105巷6號","121.523605","25.0050966666667","6500400","永和區"
"234038","336-UY","2017/11/07 18:49:25","新北市永和區福和路8巷3號","121.525026666667","25.0090966666667","6500400","永和區"
"234070","552-UM","2017/11/07 18:49:18","新北市永和區豫溪街207巷22號","121.523373333333","25.0103433333333","6500400","永和區"
"234017","745-BX","2017/11/07 18:49:21","新北市永和區忠孝街26巷17號","121.51528","25.0167183333333","6500400","永和區"
"234030","746-BX","2017/11/07 18:49:26","新北市永和區得和路328號","121.523398333333","24.9995066666667","6500400","永和區"
"234061","AAD-866","2017/11/07 18:49:26","新北市永和區中正路497巷8號","121.516501666667","25.0067516666667","6500400","永和區"
"234086","847-RS","2017/11/07 18:49:36","新北市永和區中正路39-1號","121.514386666667","24.9959716666667","6500400","永和區"
"234042","862-TW","2017/11/07 18:49:34","新北市永和區永貞路306號","121.51191","25.0048383333333","6500400","永和區"
"234050","863-TW","2017/11/07 18:49:23","新北市永和區保安路2號","121.510866666667","25.01753","6500400","永和區"
"234011","9373-KE","2017/11/07 18:49:37","新北市永和區文化路124號","121.513061666667","25.015365","6500400","永和區"
"249005","172-UM","2017/11/07 18:49:33","新北市八里區長道坑16-7號","121.395386666667","25.1153483333333","6502300","八里區"
"249001","173-UM","2017/11/07 18:49:32","新北市八里區龍米路二段91-1號","121.447628333333","25.1422983333333","6502300","八里區"
"249004","303-UY","2017/11/07 18:49:29","新北市八里區挖子尾街16號","121.415241666667","25.1643783333333","6502300","八里區"
"248016","026-BX","2017/11/07 18:49:38","新北市五股區凌雲路一段131號","121.449545","25.1019783333333","6501500","五股區"
"248006","077-UY","2017/11/07 18:49:35","新北市五股區四維路1巷1號","121.467115","25.07004","6501500","五股區"
"248008","095-VK","2017/11/07 18:49:27","新北市五股區中興路一段151巷1弄1號","121.465055","25.0732966666667","6501500","五股區"
"248020","225-UY","2017/11/07 18:44:20","新北市五股區孝義路118號","121.44106","25.120945","6501500","五股區"
"248012","247-BX","2017/11/07 18:49:31","新北市五股區成泰路二段147巷34-1號","121.437066666667","25.0884116666667","6501500","五股區"
"248014","261-SL","2017/11/07 18:49:33","新北市五股區中興路四段67-2號","121.43696","25.0833833333333","6501500","五股區"
"248010","272-BY","2017/11/07 18:49:32","新北市五股區水碓七路168號","121.43076","25.0739483333333","6501500","五股區"
"248004","677-BX","2017/11/07 18:49:31","新北市五股區民義路二段26號","121.419686666667","25.0971983333333","6501500","五股區"
"248002","678-BX","2017/11/07 18:49:37","新北市五股區成泰路三段437號","121.449748333333","25.0978833333333","6501500","五股區"
"234023","9380-KE","2017/11/07 18:49:20","新北市永和區竹林路119巷22弄20號","121.522248333333","25.0111583333333","6500400","永和區"
"234077","969-R7","2017/11/07 18:49:39","新北市永和區中正路52號","121.513215","24.9945266666667","6500400","永和區"
"234074","AAC-211","2017/11/07 18:49:35","新北市永和區福和路1號","121.52664","25.0098783333333","6500400","永和區"
"234067","AAC-212","2017/11/07 18:49:26","新北市永和區永和路一段22號","121.513043333333","25.0047566666667","6500400","永和區"
"234003","AAC-295","2017/11/07 18:49:20","新北市永和區中正路605號","121.516388333333","25.0097316666667","6500400","永和區"
"232011","375-UM","2017/11/07 18:49:34","新北市坪林區坪碇路10號","121.711543333333","24.9410783333333","6502000","坪林區"
"244013","069-UM","2017/11/07 18:49:30","新北市林口區中正路514巷33弄6號","121.382113333333","25.0785166666667","6501700","林口區"
"244007","080-UY","2017/11/07 18:49:24","新北市林口區太平里3-3號","121.37911","25.1141033333333","6501700","林口區"
"244019","403-UM","2017/11/07 18:49:23","新北市林口區麗園二街12巷4-2號","121.378373333333","25.068455","6501700","林口區"
"244025","742-UY","2017/11/07 18:49:37","新北市林口區南勢街163號","121.359456666667","25.0750416666667","6501700","林口區"
"244009","410-SL","2017/11/07 18:49:34","新北市林口區竹林路330巷12號","121.391868333333","25.0829866666667","6501700","林口區"
"244023","483-VK","2017/11/07 18:49:36","新北市林口區文化三路二段211巷85號","121.37507","25.084105","6501700","林口區"
"244017","485-VK","2017/11/07 18:49:24","新北市林口區文化二路一段20巷21號","121.365828333333","25.0675316666667","6501700","林口區"
"244011","701-TV","2017/11/07 18:49:37","新北市林口區中正路6號","121.396443333333","25.0774666666667","6501700","林口區"
"244021","838-TS","2017/11/07 18:49:40","新北市林口區自強一街117號","121.401105","25.0763766666667","6501700","林口區"
"243012","AAD-798","2017/11/07 18:49:29","新北市泰山區泰林路二段73巷29號","121.434423333333","25.0578483333333","6501600","泰山區"
"243015","380-SR","2017/11/07 18:49:29","新北市泰山區美寧街57巷37弄2號","121.429478333333","25.065045","6501600","泰山區"
"243013","646-TV","2017/11/07 18:34:52","新北市泰山區明志路三段206巷3號","121.423281666667","25.0379866666667","6501600","泰山區"
"243016","680-BX","2017/11/07 18:49:26","新北市泰山區明志路一段489號","121.430666666667","25.0552666666667","6501600","泰山區"
"222003","436-BY","2017/11/07 18:49:28","新北市深坑區深南路50號","121.62023","25.0088666666667","6501800","深坑區"
"222002","659-BX","2017/11/07 18:49:33","新北市深坑區文山路一段69號","121.626978333333","25.0018766666667","6501800","深坑區"
"231041","002-UM","2017/11/07 18:49:29","新北市新店區安華路28-1號","121.51962","24.9608433333333","6500600","新店區"
"231059","046-UY","2017/11/07 18:49:20","新北市新店區安華路28-1號","121.519578333333","24.9607933333333","6500600","新店區"
"231061","047-UY","2017/11/07 18:49:30","新北市新店區安華路28-1號","121.519171666667","24.9609633333333","6500600","新店區"
"231060","106-UY","2017/11/07 18:49:21","新北市新店區安華路28-1號","121.519676666667","24.9605733333333","6500600","新店區"
"231048","108-UY","2017/11/07 18:49:23","新北市新店區德正街24號","121.543901666667","24.9721183333333","6500600","新店區"
"231053","187-VK","2017/11/07 18:49:22","新北市新店區長興路28-2號","121.546923333333","24.9396133333333","6500600","新店區"
"231050","KEA-2219","2017/11/07 18:49:27","新北市新店區安康路一段355-3號","121.519818333333","24.9626366666667","6500600","新店區"
"231046","278-BY","2017/11/07 18:49:26","新北市新店區直潭路71號","121.532491666667","24.9422283333333","6500600","新店區"
"231054","AAD-862","2017/11/07 18:49:21","新北市新店區安康路一段89號","121.529195","24.961495","6500600","新店區"
"231058","3712-VJ","2017/11/07 18:49:26","新北市新店區北宜路一段98號","121.538993333333","24.955465","6500600","新店區"
"231056","3713-VJ","2017/11/07 18:49:27","新北市新店區大豐路68巷5號","121.538925","24.9799316666667","6500600","新店區"
"231055","4716-K9","2017/11/07 18:49:32","新北市新店區力行路88號","121.538765","24.96697","6500600","新店區"
"231067","4772-VM","2017/11/07 18:49:27","新北市新店區安康路一段106巷14號","121.527785","24.9629516666667","6500600","新店區"
"231065","512-UM","2017/11/07 18:49:33","新北市新店區車子路18-1號","121.506096666667","24.9545966666667","6500600","新店區"
"231064","515-UM","2017/11/07 16:30:23","新北市新店區安華路28-1號","121.519496666667","24.9611633333333","6500600","新店區"
"231045","617-UM","2017/11/07 18:49:29","新北市新店區安康路一段116號","121.527138333333","24.9625516666667","6500600","新店區"
"231040","619-UM","2017/11/07 18:49:29","新北市新店區環河路116號","121.537045","24.96705","6500600","新店區"
"231042","641-BX","2017/11/07 18:49:20","新北市新店區安康路一段105號","121.529063333333","24.96151","6500600","新店區"
"231063","645-TV","2017/11/07 18:49:29","新北市新店區安華路28-1號","121.519211666667","24.960655","6500600","新店區"
"231049","719-UM","2017/11/07 18:49:21","新北市新店區中正路454-5號","121.534435","24.9790683333333","6500600","新店區"
"231051","719-UY","2017/11/07 18:49:28","新北市新店區中央路63號","121.532436666667","24.9770666666667","6500600","新店區"
"231062","720-UM","2017/11/07 18:49:21","新北市新店區安忠路205巷8號","121.508698333333","24.9547333333333","6500600","新店區"
"231044","897-TW","2017/11/07 18:49:23","新北市新店區寶中路72號","121.547828333333","24.9805983333333","6500600","新店區"
"231043","899-TW","2017/11/07 18:49:25","新北市新店區安康路一段100號","121.527451666667","24.9623133333333","6500600","新店區"
"231066","AKT-0513","2017/11/07 18:49:30","新北市新店區安豐路22巷15號","121.502911666667","24.9549433333333","6500600","新店區"
"241035","462-BY","2017/11/07 18:49:23","新北市三重區重新路四段121號","121.484888333333","25.0520266666667","6500200","三重區"
"235066","003-UY","2017/11/07 18:49:28","新北市中和區光華街33號","121.505018333333","25.0038933333333","6500300","中和區"
"235064","005-UY","2017/11/07 18:49:31","新北市中和區連城路87號","121.496723333333","25.00028","6500300","中和區"
"235063","006-UY","2017/11/07 18:49:25","新北市中和區連城路246-1號","121.4885","24.9962166666667","6500300","中和區"
"235056","096-UM","2017/11/07 18:49:27","新北市中和區員山路534號","121.478813333333","25.0098333333333","6500300","中和區"
"235039","097-UM","2017/11/07 18:49:29","新北市中和區宜安路18巷14號","121.513831666667","24.9963","6500300","中和區"
"235040","150-BY","2017/11/07 18:49:39","新北市中和區宜安路35號","121.512223333333","24.996055","6500300","中和區"
"235058","151-BY","2017/11/07 18:49:26","新北市中和區連城路603號","121.478275","24.993615","6500300","中和區"
"235055","183-VK","2017/11/07 18:49:25","新北市中和區民生街43號","121.469988333333","25.0053316666667","6500300","中和區"
"235038","185-VK","2017/11/07 18:49:23","新北市中和區立人街40號","121.518086666667","24.99411","6500300","中和區"
"235049","186-VK","2017/11/07 18:49:26","新北市中和區景安路132巷8號","121.504595","24.994395","6500300","中和區"
"235067","255-BX","2017/11/07 18:49:34","新北市中和區中山路二段479號","121.483075","25.00494","6500300","中和區"
"235044","293-VK","2017/11/07 18:49:32","新北市中和區復興路280巷38號","121.501328333333","24.991855","6500300","中和區"
"235072","301-VK","2017/11/07 18:49:24","新北市中和區中山路二段7號","121.505286666667","25.0057","6500300","中和區"
"235043","352-BY","2017/11/07 18:49:27","新北市中和區成功路90號","121.525846666667","24.9911616666667","6500300","中和區"
"235068","377-QA","2017/11/07 18:49:25","新北市中和區中正路167巷18號","121.498143333333","24.9926516666667","6500300","中和區"
"235061","378-QA","2017/11/07 18:49:29","新北市中和區民享街30巷9號","121.473486666667","25.00347","6500300","中和區"
"235035","269-TV","2017/11/07 15:42:17","新北市中和區員山路36巷16-2號","121.485405","24.9913683333333","6500300","中和區"
"235050","4979-A6","2017/11/07 18:49:22","新北市中和區忠孝街62巷46號","121.513156666667","24.9839166666667","6500300","中和區"
"235042","551-UM","2017/11/07 18:49:24","新北市中和區秀朗路三段135巷8號","121.525366666667","24.9923266666667","6500300","中和區"
"235070","558-UM","2017/11/07 18:49:18","新北市中和區景平路425號","121.501583333333","24.9950716666667","6500300","中和區"
"235045","565-BX","2017/11/07 18:49:33","新北市中和區復興路51號","121.50458","24.9900566666667","6500300","中和區"
"235054","640-BX","2017/11/07 18:49:33","新北市中和區莒光路129巷1弄8號","121.473105","25.0023","6500300","中和區"
"235047","732-UM","2017/11/07 18:49:28","新北市中和區興南路二段34巷38號","121.504778333333","24.9861266666667","6500300","中和區"
"235046","733-UM","2017/11/07 18:49:22","新北市中和區仁愛街36巷45號","121.511298333333","24.9866683333333","6500300","中和區"
"235062","800-TS","2017/11/07 18:49:28","新北市中和區中山路二段356號","121.492758333333","25.002945","6500300","中和區"
"235057","801-TS","2017/11/07 18:49:33","新北市中和區民安街22巷14號","121.479778333333","25.00133","6500300","中和區"
"235041","802-TS","2017/11/07 18:49:36","新北市中和區宜安路92巷13號","121.51121","24.9979766666667","6500300","中和區"
"235052","805-TS","2017/11/07 18:49:30","新北市中和區興南路二段399巷98弄48號","121.498671666667","24.9768266666667","6500300","中和區"
"235048","896-TW","2017/11/07 18:49:27","新北市中和區南山路300號","121.507936666667","24.987055","6500300","中和區"
"235053","900-TW","2017/11/07 18:49:24","新北市中和區華福街44號","121.466488333333","24.9965483333333","6500300","中和區"
"235060","911-UM","2017/11/07 18:49:38","新北市中和區中山路三段98號","121.477315","25.005695","6500300","中和區"
"235037","157-BY","2017/11/07 18:49:26","新北市中和區華新街109巷16號","121.508771666667","24.981055","6500300","中和區"
"235037","AAC-213","2017/11/07 18:49:35","新北市中和區秀朗路三段173-2號","121.524531666667","24.99144","6500300","中和區"
"235059","AAC-215","2017/11/07 18:49:22","新北市中和區圓通路393巷1號","121.489783333333","24.9889216666667","6500300","中和區"
"220068","013-TV","2017/11/07 18:49:26","新北市板橋區富山街109巷2號","121.47606","25.02186","6500100","板橋區"
"220065","072-UY","2017/11/07 18:49:37","新北市板橋區漢生東路282號","121.471261666667","25.0090116666667","6500100","板橋區"
"220086","073-UY","2017/11/07 18:49:28","新北市板橋區大智街71巷28弄2號","121.453093333333","25.014655","6500100","板橋區"
"220106","075-UY","2017/11/07 18:49:36","新北市板橋區民生路二段161巷5號","121.470241666667","25.0197216666667","6500100","板橋區"
"220069","AAD-861","2017/11/07 18:49:24","新北市板橋區南雅南路二段4巷2號","121.454453333333","25.0038","6500100","板橋區"
"247008","053-VK","2017/11/07 18:49:35","新北市五股區中興路三段163號","121.449118333333","25.08069","6501400","蘆洲區"
"226004","205-ST","2017/11/07 18:49:23","新北市平溪區平溪里三坑路38號","121.734458333333","25.0328933333333","6502400","平溪區"
"223001","205-TH","2017/11/07 14:18:34","新北市石碇區小粗坑(潭邊里)9-2號","121.678986666667","24.9862916666667","6501900","石碇區"
"228003","097-TW","2017/11/07 18:49:36","新北市貢寮區和美里龍洞街53號","121.912205","25.1137583333333","6502600","貢寮區"
"228001","212-TW","2017/11/07 18:49:20","新北市貢寮區仁理村研海街12-1號","121.92378","25.0516616666667","6502600","貢寮區"
"228002","663-BX","2017/11/07 18:49:40","新北市貢寮區福隆里東興街6-11號","121.950788333333","25.02107","6502600","貢寮區"
"224006","676-BX","2017/11/07 18:49:32","新北市瑞芳區明燈路三段180號","121.803341666667","25.1096683333333","6501200","瑞芳區"
"224009","285-BY","2017/11/07 18:49:22","新北市瑞芳區祈堂路2號","121.859793333333","25.1116666666667","6501200","瑞芳區"
"224008","275-VK","2017/11/07 18:49:31","新北市瑞芳區逢甲路274號","121.804803333333","25.1108966666667","6501200","瑞芳區"
"224007","273-VK","2017/11/07 18:49:17","新北市瑞芳區大埔路東泰新村2號","121.761455","25.1012183333333","6501200","瑞芳區"
"224005","271-BY","2017/11/07 18:49:35","新北市瑞芳區瑞濱路7號","121.82703","25.1216333333333","6501200","瑞芳區"
"227009","642-TC","2017/11/07 18:49:36","新北市雙溪區牡丹里聖南26號","121.856335","25.0534983333333","6502500","雙溪區"
"227003","400-TW","2017/11/07 18:49:28","新北市雙溪區平林里梅竹蹊28號","121.861643333333","25.0360366666667","6502500","雙溪區"
"253005","032-BX","2017/11/07 18:49:36","新北市石門區石門街2巷30號","121.565855","25.2903666666667","6502200","石門區"
"253006","295-VK","2017/11/07 18:49:21","新北市石門區下員坑15-13號","121.511828333333","25.284725","6502200","石門區"
"222001","KEA-2212","2017/11/07 18:49:19","新北市深坑區松柏街30巷2號","121.638618333333","25.0112066666667","6501800","深坑區"
"208002","742-BX","2017/11/07 18:49:34","新北市金山區信義路26號","121.635536666667","25.219895","6502700","金山區"
"208003","665-BX","2017/11/07 18:49:25","新北市金山區中山路346號","121.633396666667","25.2253383333333","6502700","金山區"
"208001","761-BX","2017/11/07 18:49:38","新北市金山區文化三路66巷2弄3號","121.63436","25.225735","6502700","金山區"
"251014","180-VK","2017/11/07 18:49:28","新北市淡水區崙頂16-1號","121.488595","25.2235016666667","6501000","淡水區"
"251008","181-VK","2017/11/07 18:49:28","新北市淡水區北投子14-2號","121.448645","25.183745","6501000","淡水區"
"251010","413-VK","2017/11/07 18:49:37","新北市淡水區沙崙路24號","121.421233333333","25.1812633333333","6501000","淡水區"
"251012","441-VK","2017/11/07 18:49:30","新北市淡水區新興街1號","121.444003333333","25.18022","6501000","淡水區"
"251016","442-VK","2017/11/07 18:49:33","新北市淡水區下圭柔山76-8號","121.442148333333","25.2053766666667","6501000","淡水區"
"251001","559-UM","2017/11/07 18:49:36","新北市淡水區自強路88號","121.462636666667","25.1283716666667","6501000","淡水區"
"251009","575-R6","2017/11/07 18:49:30","新北市淡水區重建街140號","121.440603333333","25.17346","6501000","淡水區"
"251011","650-BX","2017/11/07 18:49:33","新北市淡水區學府路19號","121.447753333333","25.16852","6501000","淡水區"
"251002","672-BX","2017/11/07 18:49:21","新北市淡水區學府路60號","121.44864","25.17019","6501000","淡水區"
"251003","673-BX","2017/11/07 18:49:30","新北市淡水區中山北路一段149巷27號","121.442983333333","25.1778916666667","6501000","淡水區"
"207003","550-UM","2017/11/07 18:49:25","新北市萬里區大鵬里頂社1-2號","121.657386666667","25.2096933333333","6502800","萬里區"
"207004","225-TW","2017/11/07 18:49:29","新北市萬里區萬里里獅頭路22-1號","121.693105","25.178255","6502800","萬里區"
"252002","178-VK","2017/11/07 18:49:28","新北市三芝區中正路一段101-1號","121.504786666667","25.2563966666667","6502100","三芝區"
"252003","249-BX","2017/11/07 18:49:29","新北市三芝區後厝里大片頭76號","121.459278333333","25.245755","6502100","三芝區"
"252001","292-VK","2017/11/07 18:49:36","新北市三芝區中正路三段7號","121.502806666667","25.2540583333333","6502100","三芝區"
"237004","078-UY","2017/11/07 18:49:36","新北市三峽區有木155號","121.450396666667","24.845335","6500900","三峽區"
"237007","153-BY","2017/11/07 18:49:34","新北市三峽區柑樹路2巷11號","121.362053333333","24.9050466666667","6500900","三峽區"
"237013","252-BX","2017/11/07 18:49:40","新北市三峽區光明路69巷25號","121.376666666667","24.92922","6500900","三峽區"
"237012","275-BY","2017/11/07 18:49:18","新北市三峽區三樹路340號","121.383966666667","24.9433","6500900","三峽區"
"237008","302-VK","2017/11/07 18:49:22","新北市三峽區白雞33-60號","121.370915","24.9131633333333","6500900","三峽區"
"237006","5529-G3","2017/11/07 18:49:35","新北市三峽區溪東路211巷31弄3號","121.405498333333","24.9341766666667","6500900","三峽區"
"237011","572-TV","2017/11/07 18:03:18","新北市三峽區橫溪路1號","121.396071666667","24.9362033333333","6500900","三峽區"
"237016","649-BX","2017/11/07 18:49:33","新北市三峽區竹崙路53號","121.431008333333","24.9219783333333","6500900","三峽區"
"237010","706-TV","2017/11/07 18:49:37","新北市三峽區國光街46號","121.374653333333","24.9379033333333","6500900","三峽區"
"237005","AKY-6261","2017/11/07 18:49:30","新北市三峽區中山路107巷83-1號","121.350575","24.9342433333333","6500900","三峽區"
"236070","105-UM","2017/11/07 18:49:30","新北市土城區延和路21巷19號","121.463901666667","24.9888433333333","6501300","土城區"
"236043","107-UM","2017/11/07 18:49:33","新北市土城區裕民路92巷25弄3號","121.44971","24.98596","6501300","土城區"
"236079","166-UM","2017/11/07 18:49:28","新北市土城區中央路四段185巷44號","121.416151666667","24.9558516666667","6501300","土城區"
"236031","253-BX","2017/11/07 18:49:18","新北市土城區忠義路36巷24號","121.439663333333","24.96952","6501300","土城區"
"236027","269-VK","2017/11/07 18:49:31","新北市土城區慶安街45巷11號","121.441493333333","24.9727666666667","6501300","土城區"
"236015","270-VK","2017/11/07 18:49:42","新北市土城區金城路二段354巷4號","121.460988333333","24.9849316666667","6501300","土城區"
"236038","271-VK","2017/11/07 18:49:40","新北市土城區明德路一段247巷22號","121.46289","24.9775716666667","6501300","土城區"
"236023","401-BY","2017/11/07 18:49:29","新北市土城區延吉街253巷13號","121.467888333333","24.9844","6501300","土城區"
"236049","752-BX","2017/11/07 18:49:35","新北市板橋區信義路208號","121.4601","24.9907616666667","6501300","土城區"
"236059","912-UM","2017/11/07 18:49:28","新北市土城區中央路三段205號","121.429946666667","24.96469","6501300","土城區"
"236063","915-UM","2017/11/07 18:49:19","新北市土城區延壽路13巷18號","121.47058","24.9908483333333","6501300","土城區"
"236055","AAC-216","2017/11/07 18:49:35","新北市土城區裕民路202號","121.453221666667","24.9846833333333","6501300","土城區"
"238023","601-UM","2017/11/07 18:49:27","新北市樹林區三福街114號","121.406455","25.016285","6500700","樹林區"
"238019","599-UM","2017/11/07 18:49:35","新北市樹林區鎮前街425巷7號","121.413976666667","24.9825666666667","6500700","樹林區"
"238018","571-TV","2017/11/07 18:49:28","新北市樹林區鎮前街165號","121.422271666667","24.9872266666667","6500700","樹林區"
"238024","5061-A6","2017/11/07 18:49:28","新北市樹林區太平路270號","121.418115","24.973435","6500700","樹林區"
"238022","KEA-2213","2017/11/07 18:49:32","新北市樹林區東大街1-6號","121.413603333333","24.97653","6500700","樹林區"
"238025","303-VK","2017/11/07 18:49:27","新北市樹林區中山路三段22號","121.395653333333","24.97294","6500700","樹林區"
"238017","283-BY","2017/11/07 18:49:31","新北市樹林區光興街50號","121.409823333333","25.0027466666667","6500700","樹林區"
"238014","282-BY","2017/11/07 18:49:39","新北市樹林區大安路111巷43號","121.423258333333","24.9974716666667","6500700","樹林區"
"238020","268-VK","2017/11/07 18:49:31","新北市樹林區俊英街83巷1號","121.425783333333","25.0080383333333","6500700","樹林區"
"238026","172-UY","2017/11/07 18:49:35","新北市樹林區吉祥街19號","121.394831666667","24.9737483333333","6500700","樹林區"
"238016","169-UY","2017/11/07 18:49:22","新北市樹林區文化街28號","121.419351666667","24.98769","6500700","樹林區"
"239007","AAC-297","2017/11/07 18:49:31","新北市鶯歌區中正一路461-2號","121.363658333333","24.9564833333333","6500800","鶯歌區"
"239008","527-UM","2017/11/07 18:49:23","新北市鶯歌區國際二路46號","121.33557","24.9756416666667","6500800","鶯歌區"
"239005","526-UM","2017/11/07 18:49:30","新北市鶯歌區大湖路361巷24弄14號","121.330113333333","24.977885","6500800","鶯歌區"
"239001","417-VK","2017/11/07 18:49:27","新北市鶯歌區永明街13號","121.338363333333","24.9551816666667","6500800","鶯歌區"
"239003","360-BY","2017/11/07 18:49:38","新北市鶯歌區鶯桃路658巷97號","121.331998333333","24.9709233333333","6500800","鶯歌區"
"239002","359-BY","2017/11/07 18:48:06","","121.35283","24.9570516666667","6500800","鶯歌區"
"239006","292-BY","2017/11/07 18:49:24","新北市鶯歌區鶯桃路184號","121.336793333333","24.9554866666667","6500800","鶯歌區"
"239004","193-VK","2017/11/07 18:49:24","新北市鶯歌區中正三路282巷12弄1號","121.32826","24.9373483333333","6500800","鶯歌區"
"221008","489-VK","2017/11/07 18:49:28","新北市汐止區康寧街901號","121.6513","25.0749333333333","6501100","汐止區"
"221036","130-UY","2017/11/07 18:49:34","新北市汐止區忠孝東路330號","121.665095","25.069285","6501100","汐止區"
"221015","131-UY","2017/11/07 18:49:35","新北市汐止區橋東街61號","121.665525","25.0749266666667","6501100","汐止區"
"221010","269-BY","2017/11/07 18:49:39","新北市汐止區汐萬路二段108號","121.648135","25.0845383333333","6501100","汐止區"
"221012","276-VK","2017/11/07 13:27:06","新北市汐止區汐萬路一段256巷3號","121.65349","25.0746116666667","6501100","汐止區"
"221012","278-VK","2017/11/07 18:49:26","新北市汐止區康寧街901號","121.65083","25.0752533333333","6501100","汐止區"
"221023","279-VK","2017/11/07 18:49:26","新北市汐止區汐萬路一段256巷3號","121.653345","25.0747","6501100","汐止區"
"221032","280-BY","2017/11/07 18:49:19","新北市汐止區橫科路121巷52弄3號","121.622675","25.0508233333333","6501100","汐止區"
"221027","281-BY","2017/11/07 18:49:19","新北市汐止區康寧街901號","121.65142","25.0749516666667","6501100","汐止區"
"221029","298-VK","2017/11/07 18:49:21","新北市汐止區工建路66號","121.640531666667","25.0630516666667","6501100","汐止區"
"221021","299-VK","2017/11/07 18:49:26","新北市汐止區大同路二段132-2號","121.651686666667","25.063925","6501100","汐止區"
"221031","353-TW","2017/11/07 18:49:24","新北市汐止區福德一路300巷2弄1號","121.631105","25.063645","6501100","汐止區"
"221002","358-BY","2017/11/07 18:49:20","新北市汐止區大同路一段150號","121.631696666667","25.055725","6501100","汐止區"
"221035","622-UM","2017/11/07 18:49:33","新北市汐止區汐萬路一段256巷3號","121.652815","25.07448","6501100","汐止區"
"221025","623-UM","2017/11/07 18:49:34","新北市汐止區汐萬路一段300號","121.650561666667","25.07452","6501100","汐止區"
"221038","646-BX","2017/11/07 18:49:30","新北市汐止區汐萬路一段312號","121.65069","25.0752866666667","6501100","汐止區"
"221033","647-BX","2017/11/07 18:49:25","新北市汐止區南勢街1巷1號","121.627005","25.0373533333333","6501100","汐止區"
"221018","753-BX","2017/11/07 18:49:25","新北市汐止區茄苳路3號","121.664598333333","25.07077","6501100","汐止區"
"220079","145-BY","2017/11/07 18:49:32","新北市板橋區民權路202巷6弄2號","121.460026666667","25.014535","6500100","板橋區"
"220080","200-UY","2017/11/07 18:49:38","新北市板橋區大觀路二段265巷66弄24號","121.441655","24.99701","6500100","板橋區"
"220082","610-BX","2017/11/07 18:49:28","新北市板橋區篤行路三段玉平巷45號","121.428695","24.98694","6500100","板橋區"
"220056","276-BY","2017/11/07 18:49:35","新北市板橋區四川路二段37號","121.454208333333","24.9954733333333","6500100","板橋區"
"220072","277-BY","2017/11/07 18:49:30","新北市板橋區大觀路三段63-2號","121.43353","24.9951283333333","6500100","板橋區"
"220101","280-UM","2017/11/07 18:49:32","新北市板橋區民生路二段161巷1號","121.470105","25.01999","6500100","板橋區"
"220071","283-VK","2017/11/07 18:49:34","新北市板橋區四川路一段353號","121.458316666667","24.9997766666667","6500100","板橋區"
"220094","285-UM","2017/11/07 18:49:35","新北市板橋區民生路二段161巷3號","121.470141666667","25.01981","6500100","板橋區"
"220053","285-VK","2017/11/07 18:49:35","新北市板橋區民生路二段89-4號","121.471008333333","25.0183083333333","6500100","板橋區"
"220083","286-VK","2017/11/07 18:49:29","新北市板橋區大觀路二段22巷31號","121.445036666667","25.0036033333333","6500100","板橋區"
"220081","287-VK","2017/11/07 18:49:35","新北市板橋區南雅西路二段177號","121.451855","25.01254","6500100","板橋區"
"220090","288-VK","2017/11/07 18:49:35","新北市板橋區民生路二段120號","121.470395","25.01971","6500100","板橋區"
"220061","295-UM","2017/11/07 18:49:29","新北市板橋區民生路二段89-4號","121.470946666667","25.018235","6500100","板橋區"
"220084","296-UM","2017/11/07 18:49:33","新北市板橋區大觀路二段150巷61號","121.441548333333","25.000335","6500100","板橋區"
"220075","297-UM","2017/11/07 18:49:37","新北市板橋區館前西路257號","121.4542","25.0086716666667","6500100","板橋區"
"220096","299-UM","2017/11/07 16:01:05","新北市板橋區民生路二段120號","121.470626666667","25.0197616666667","6500100","板橋區"
"220062","303-R5","2017/11/07 18:49:35","新北市板橋區中山路二段23號","121.472441666667","25.015215","6500100","板橋區"
"220092","307-R5","2017/11/07 18:49:38","新北市板橋區民生路二段120號","121.470381666667","25.0199533333333","6500100","板橋區"
"220098","317-R6","2017/11/07 18:49:39","新北市板橋區民生路二段120號","121.470395","25.01972","6500100","板橋區"
"220064","486-VK","2017/11/07 18:49:41","新北市板橋區中山路二段37號","121.473045","25.0155116666667","6500100","板橋區"
"220089","487-VK","2017/11/07 18:49:32","新北市板橋區民生路二段188號","121.470196666667","25.0202216666667","6500100","板橋區"
"220088","491-VK","2017/11/07 18:49:28","新北市板橋區民生路二段177號","121.469695","25.0202266666667","6500100","板橋區"
"220035","560-BX","2017/11/07 18:49:31","新北市板橋區中正路275巷59-4號","121.453021666667","25.017965","6500100","板橋區"
"220103","561-BX","2017/11/07 18:49:21","新北市板橋區民生路二段120號","121.470296666667","25.0197666666667","6500100","板橋區"
"220063","609-BX","2017/11/07 18:49:31","新北市板橋區民生路二段89-4號","121.471138333333","25.0184366666667","6500100","板橋區"
"220091","637-BX","2017/11/07 18:49:27","新北市板橋區民生路二段175號","121.469953333333","25.0202716666667","6500100","板橋區"
"220057","686-BX","2017/11/07 18:49:31","新北市板橋區華東街1-9號","121.448201666667","24.994865","6500100","板橋區"
"220077","687-BX","2017/11/07 18:49:33","新北市板橋區僑中二街152-2號","121.444245","25.0043733333333","6500100","板橋區"
"220093","689-BX","2017/11/07 18:49:32","新北市板橋區民生路二段177號","121.46988","25.0203083333333","6500100","板橋區"
"220054","741-BX","2017/11/07 18:49:21","新北市板橋區南雅南路二段4巷18號","121.45357","25.0036983333333","6500100","板橋區"
"220055","827-TW","2017/11/07 18:49:33","新北市板橋區南雅南路二段4巷2號","121.454255","25.0037666666667","6500100","板橋區"
"220067","829-TW","2017/11/07 18:49:22","新北市板橋區三民路二段正隆巷45號","121.476816666667","25.0133683333333","6500100","板橋區"
"220102","830-TW","2017/11/07 15:31:16","新北市板橋區民生路二段179號","121.469738333333","25.0204433333333","6500100","板橋區"
"220074","895-R6","2017/11/07 18:49:31","新北市板橋區南門街44號","121.456951666667","25.0082283333333","6500100","板橋區"
"220073","985-R7","2017/11/07 18:49:29","新北市板橋區館前西路66號","121.457788333333","25.007055","6500100","板橋區"
"220097","AAC-210","2017/11/07 16:37:10","新北市板橋區民生路二段120號","121.470335","25.0198066666667","6500100","板橋區"
"220070","AAC-253","2017/11/07 18:49:26","新北市板橋區館前西路11號","121.458993333333","25.0069416666667","6500100","板橋區"
