"lineid","car","time","location","longitude","latitude","cityid","cityname"
"234054","553-UM","2017/11/07 20:39:33","新北市永和區環河東路一段108號","121.52029","25.0159633333333","6500400","永和區"
"234030","746-BX","2017/11/07 20:39:26","新北市新店區安民街303巷22號","121.516261666667","24.9737166666667","6500400","永和區"
"234061","AAD-866","2017/11/07 20:39:26","新北市永和區中正路381號","121.517136666667","25.0036966666667","6500400","永和區"
"249001","173-UM","2017/11/07 20:39:37","新北市八里區中山路三段386號","121.368465","25.1359166666667","6502300","八里區"
"249004","303-UY","2017/11/07 20:39:21","新北市八里區中山路一段121號","121.413621666667","25.1595133333333","6502300","八里區"
"249002","305-UY","2017/11/07 20:39:21","新北市八里區中山路一段1號","121.423183333333","25.1587283333333","6502300","八里區"
"234023","9380-KE","2017/11/07 20:39:20","新北市永和區竹林路23號","121.517266666667","25.0146083333333","6500400","永和區"
"234074","AAC-211","2017/11/07 20:39:35","新北市永和區竹林路119巷22弄9號","121.522016666667","25.0115216666667","6500400","永和區"
"243014","421-VK","2017/11/07 20:39:33","新北市泰山區泰林路三段745巷145號","121.40554","25.06767","6501600","泰山區"
"243010","KEA-2215","2017/11/07 20:39:37","新北市泰山區黎明路37-6號","121.421685","25.059445","6501600","泰山區"
"243011","KEA-2216","2017/11/07 20:39:39","新北市泰山區犁頭窠6號","121.421728333333","25.0590033333333","6501600","泰山區"
"243013","646-TV","2017/11/07 20:39:24","新北市泰山區明志路二段8號","121.42997","25.0536033333333","6501600","泰山區"
"243016","680-BX","2017/11/07 20:39:27","新北市泰山區明志路二段246號","121.427018333333","25.0479333333333","6501600","泰山區"
"222003","436-BY","2017/11/07 20:39:35","新北市深坑區阿柔洋3-1號","121.612868333333","25.0000583333333","6501800","深坑區"
"222002","659-BX","2017/11/07 20:39:33","新北市深坑區萬福路33號","121.598913333333","25.0066583333333","6501800","深坑區"
"231041","002-UM","2017/11/07 20:39:29","新北市新店區中正路543-4號","121.533673333333","24.9874866666667","6500600","新店區"
"231059","046-UY","2017/11/07 20:39:28","新北市新店區僑愛一路1號","121.49989","24.9449233333333","6500600","新店區"
"231061","047-UY","2017/11/07 20:39:30","新北市新店區新和街38號","121.51932","24.9849316666667","6500600","新店區"
"231060","106-UY","2017/11/07 20:39:21","新北市新店區安康路三段738號","121.473806666667","24.94202","6500600","新店區"
"231048","108-UY","2017/11/07 20:39:23","新北市新店區寶慶街5號","121.544098333333","24.98665","6500600","新店區"
"231053","187-VK","2017/11/07 20:39:22","新北市新店區松林路47號","121.544465","24.9114516666667","6500600","新店區"
"231050","KEA-2219","2017/11/07 20:39:27","新北市新店區建國路43號","121.540498333333","24.9752116666667","6500600","新店區"
"231057","256-BX","2017/11/07 20:39:36","新北市新店區花園六路二段16號","121.55504","24.9333583333333","6500600","新店區"
"231054","AAD-862","2017/11/07 20:39:21","新北市新店區行政街26號","121.542941666667","24.9655366666667","6500600","新店區"
"231058","3712-VJ","2017/11/07 20:39:26","新北市新店區中正路307巷2號","121.536443333333","24.9745066666667","6500600","新店區"
"231056","3713-VJ","2017/11/07 20:39:35","新北市新店區中正路461號","121.533296666667","24.9807166666667","6500600","新店區"
"231065","512-UM","2017/11/07 20:39:33","新北市新店區安祥路102巷140號","121.486665","24.9646416666667","6500600","新店區"
"231064","515-UM","2017/11/07 20:39:34","新北市新店區安和路三段120巷20號","121.517891666667","24.9858883333333","6500600","新店區"
"231045","617-UM","2017/11/07 20:39:29","新北市新店區長春路557-1號","121.554071666667","24.9611133333333","6500600","新店區"
"231040","619-UM","2017/11/07 20:39:29","新北市新店區中正路247巷4弄10號","121.538471666667","24.9734183333333","6500600","新店區"
"231042","641-BX","2017/11/07 20:39:20","新北市新店區寶高路120巷1-1號","121.554628333333","24.975885","6500600","新店區"
"231063","645-TV","2017/11/07 20:39:28","新北市新店區玫瑰路4-1號","121.493645","24.9513666666667","6500600","新店區"
"231068","718-UY","2017/11/07 20:39:22","新北市新店區寶慶街35巷3弄2號","121.543208333333","24.9860416666667","6500600","新店區"
"231049","719-UM","2017/11/07 20:39:21","新北市新店區永業路81巷3弄34號","121.530863333333","24.9500933333333","6500600","新店區"
"231051","719-UY","2017/11/07 20:39:28","新北市新店區中央六街26號","121.529385","24.9749083333333","6500600","新店區"
"231062","720-UM","2017/11/07 20:39:40","新北市新店區雙城路4巷1號","121.491341666667","24.9508316666667","6500600","新店區"
"231044","897-TW","2017/11/07 20:39:23","新北市新店區建國路293巷1號","121.536696666667","24.986185","6500600","新店區"
"231043","899-TW","2017/11/07 20:39:25","新北市新店區建國路35巷2號","121.540423333333","24.9745233333333","6500600","新店區"
"231066","AKT-0513","2017/11/07 20:39:30","新北市新店區安興路112號","121.51466","24.9776716666667","6500600","新店區"
"241011","013-R5","2017/11/07 20:39:34","新北市三重區龍濱路285號","121.501111666667","25.0733733333333","6500200","三重區"
"241028","022-UY","2017/11/07 20:39:31","新北市三重區光興街91號","121.497375","25.0599583333333","6500200","三重區"
"241008","059-VK","2017/11/07 20:39:27","新北市三重區下竹圍街42號","121.481061666667","25.07486","6500200","三重區"
"241009","060-VK","2017/11/07 20:39:28","新北市三重區碧華街57號","121.484751666667","25.0812616666667","6500200","三重區"
"241031","061-VK","2017/11/07 20:39:30","新北市三重區重陽路一段113巷1弄51號","121.48815","25.0585483333333","6500200","三重區"
"241015","062-VK","2017/11/07 20:39:19","新北市三重區雙園街1號","121.497795","25.068405","6500200","三重區"
"241017","063-VK","2017/11/07 20:39:20","新北市三重區大同北路269號","121.490845","25.0672983333333","6500200","三重區"
"241024","065-VK","2017/11/07 20:39:26","新北市三重區中正北路171號","121.478195","25.0694666666667","6500200","三重區"
"241026","066-VK","2017/11/07 20:39:30","新北市三重區文化南路3號","121.500061666667","25.0624733333333","6500200","三重區"
"241002","090-VK","2017/11/07 20:39:26","新北市三重區仁義街163號","121.497145","25.081545","6500200","三重區"
"241005","262-UM","2017/11/07 20:39:24","新北市三重區五華街141巷58號","121.493516666667","25.0867566666667","6500200","三重區"
"241029","265-UM","2017/11/07 20:39:26","新北市三重區集美街126巷27號","121.490068333333","25.053805","6500200","三重區"
"241016","266-UM","2017/11/07 20:39:23","新北市三重區長壽西街130號","121.495055","25.066875","6500200","三重區"
"241022","267-UM","2017/11/07 20:39:28","新北市三重區新北大道一段46巷18弄5號","121.488238333333","25.0620133333333","6500200","三重區"
"241018","268-UM","2017/11/07 20:39:34","新北市三重區重陽路三段115號","121.4909","25.0687266666667","6500200","三重區"
"241032","269-UM","2017/11/07 20:39:31","新北市三重區重陽路一段120巷48號","121.485078333333","25.0601583333333","6500200","三重區"
"241013","270-UM","2017/11/07 20:39:25","新北市三重區仁賢街12-1號","121.495646666667","25.074855","6500200","三重區"
"241025","271-UM","2017/11/07 20:39:38","新北市三重區頂崁街192巷23號","121.47591","25.0658","6500200","三重區"
"241007","398-BY","2017/11/07 20:39:17","新北市三重區自強路四段4號","121.488373333333","25.07616","6500200","三重區"
"241035","462-BY","2017/11/07 20:39:23","新北市三重區正義北路317號","121.494116666667","25.0711933333333","6500200","三重區"
"241004","475-VK","2017/11/07 20:39:20","新北市三重區仁愛街416號","121.490543333333","25.081325","6500200","三重區"
"241019","478-VK","2017/11/07 20:39:29","新北市三重區大智街129-1號","121.491231666667","25.0703933333333","6500200","三重區"
"241030","480-VK","2017/11/07 20:39:25","新北市三重區成功路73巷11號","121.489463333333","25.0519233333333","6500200","三重區"
"241014","543-UM","2017/11/07 20:39:29","新北市三重區萬壽街16號","121.49952","25.0694283333333","6500200","三重區"
"241023","545-UM","2017/11/07 20:39:32","新北市三重區自由街35巷2號","121.47896","25.0669033333333","6500200","三重區"
"241001","547-UM","2017/11/07 20:39:38","新北市三重區車路頭街109巷12號","121.485536666667","25.074465","6500200","三重區"
"241020","887-TS","2017/11/07 20:39:30","新北市三重區忠孝路一段101號","121.489386666667","25.0721683333333","6500200","三重區"
"241012","941-UM","2017/11/07 20:39:22","新北市三重區秀江街26號","121.502538333333","25.0729933333333","6500200","三重區"
"241033","AAC-255","2017/11/07 20:39:36","新北市三重區光復路二段1號","121.472373333333","25.053295","6500200","三重區"
"235069","4980-A6","2017/11/07 20:39:37","新北市中和區中正路637巷17號","121.484855","24.994635","6500300","中和區"
"235026","800-TS","2017/11/07 19:57:28","新北市中和區員山路36巷16-3號","121.484965","24.9915666666667","6500300","中和區"
"247022","893-R6","2017/11/07 20:39:38","新北市蘆洲區中正路243巷18弄7號","121.466896666667","25.0867033333333","6501400","蘆洲區"
"247012","546-UM","2017/11/07 20:39:23","新北市蘆洲區集賢路224巷46弄38-1號","121.481333333333","25.0876883333333","6501400","蘆洲區"
"247020","500-BY","2017/11/07 20:39:39","新北市蘆洲區民族路424號","121.473868333333","25.09175","6501400","蘆洲區"
"247010","339-TH","2017/11/07 20:39:34","新北市蘆洲區中山一路121號","121.476166666667","25.0816316666667","6501400","蘆洲區"
"247002","337-TH","2017/11/07 20:39:29","新北市蘆洲區永樂街81號","121.4556","25.088475","6501400","蘆洲區"
"247004","336-TH","2017/11/07 20:39:22","新北市蘆洲區長安街297號","121.458113333333","25.08487","6501400","蘆洲區"
"247024","335-TH","2017/11/07 20:39:19","新北市蘆洲區光復路59號","121.463615","25.0851566666667","6501400","蘆洲區"
"247016","057-VK","2017/11/07 19:11:16","新北市五股區中興路三段163號","121.449325","25.080695","6501400","蘆洲區"
"247006","056-VK","2017/11/07 20:39:23","新北市蘆洲區和平路124號","121.467478333333","25.0801533333333","6501400","蘆洲區"
"247008","053-VK","2017/11/07 20:39:29","新北市蘆洲區重陽一街23號","121.480671666667","25.0816766666667","6501400","蘆洲區"
"247014","007-UY","2017/11/07 20:39:25","新北市蘆洲區中山二路99號","121.472743333333","25.0816283333333","6501400","蘆洲區"
"223001","205-TH","2017/11/07 14:18:34","新北市石碇區小粗坑(潭邊里)9-2號","121.678986666667","24.9862916666667","6501900","石碇區"
"222001","KEA-2212","2017/11/07 20:39:39","新北市深坑區北深路三段234號","121.600545","25.0040533333333","6501800","深坑區"
"251014","180-VK","2017/11/07 20:39:28","新北市淡水區桂竹圍10-1號","121.470645","25.23144","6501000","淡水區"
"251010","413-VK","2017/11/07 20:39:17","新北市淡水區沙崙路181巷15號","121.423956666667","25.1843316666667","6501000","淡水區"
"251012","441-VK","2017/11/07 20:39:20","新北市淡水區興仁路107號","121.45161","25.2181533333333","6501000","淡水區"
"251016","442-VK","2017/11/07 20:39:32","新北市淡水區後洲子8-2號","121.449686666667","25.2240283333333","6501000","淡水區"
"251001","559-UM","2017/11/07 20:39:32","新北市淡水區淡金路63號","121.455961666667","25.1614266666667","6501000","淡水區"
"251006","561-UM","2017/11/07 20:39:26","新北市淡水區商工路196巷4號","121.451093333333","25.18698","6501000","淡水區"
"251011","650-BX","2017/11/07 20:39:22","新北市淡水區新市一路一段361號","121.436261666667","25.1862066666667","6501000","淡水區"
"251002","672-BX","2017/11/07 20:39:21","新北市淡水區中正路38-1號","121.443741666667","25.1693033333333","6501000","淡水區"
"251003","673-BX","2017/11/07 20:39:30","新北市淡水區新民街120巷54號","121.438753333333","25.17844","6501000","淡水區"
"252002","178-VK","2017/11/07 20:39:27","新北市三芝區淡金路二段47-2號","121.503693333333","25.260595","6502100","三芝區"
"252001","292-VK","2017/11/07 20:39:36","新北市三芝區長安街55號","121.501141666667","25.2565766666667","6502100","三芝區"
"242032","AAC-296","2017/11/07 20:39:22","新北市新莊區中正路508巷5弄19號","121.435376666667","25.0336033333333","6500500","新莊區"
"242029","986-R7","2017/11/07 20:39:35","新北市新莊區昌平街19號","121.454295","25.0513783333333","6500500","新莊區"
"242051","751-BX","2017/11/07 20:39:23","新北市新莊區西盛街256號","121.427993333333","25.015885","6500500","新莊區"
"242025","615-BX","2017/11/07 20:39:34","新北市三重區光復路二段198-1號","121.46976","25.0631816666667","6500500","新莊區"
"242023","613-BX","2017/11/07 20:39:25","新北市新莊區復興路三段20號","121.460903333333","25.044405","6500500","新莊區"
"242027","612-BX","2017/11/07 20:39:24","新北市新莊區思源路33號","121.460056666667","25.0395766666667","6500500","新莊區"
"242039","566-BX","2017/11/07 20:39:40","新北市新莊區民安路318號","121.42869","25.0220816666667","6500500","新莊區"
"242044","497-BY","2017/11/07 20:39:40","新北市新莊區龍安路92號","121.417673333333","25.0207683333333","6500500","新莊區"
"242002","442-UM","2017/11/07 20:39:29","新北市新莊區中港路五守新村37巷2號","121.45462","25.0389316666667","6500500","新莊區"
"242048","441-UM","2017/11/07 20:39:38","新北市新莊區中正路863-1號","121.418826666667","25.0276566666667","6500500","新莊區"
"242054","440-UM","2017/11/07 20:39:37","新北市新莊區西盛街324巷6號","121.427651666667","25.0147883333333","6500500","新莊區"
"242005","413-TV","2017/11/07 20:39:16","新北市新莊區化成路371巷28弄1號","121.463468333333","25.0570283333333","6500500","新莊區"
"242042","400-BY","2017/11/07 20:39:33","新北市新莊區天祥街19巷6號","121.416898333333","25.0280266666667","6500500","新莊區"
"242061","362-BY","2017/11/07 20:39:34","新北市新莊區新樹路447號","121.432606666667","25.0135333333333","6500500","新莊區"
"242058","353-BY","2017/11/07 20:39:23","新北市新莊區民安路138號","121.424141666667","25.0253466666667","6500500","新莊區"
"242007","132-UY","2017/11/07 20:39:40","新北市新莊區思源路135號","121.459808333333","25.0436116666667","6500500","新莊區"
"242037","133-UY","2017/11/07 20:39:23","新北市新莊區建安街16巷1號","121.4285","25.0264183333333","6500500","新莊區"
"242021","135-UY","2017/11/07 20:39:22","新北市新莊區中華路一段8號","121.451986666667","25.0368016666667","6500500","新莊區"
"242046","172-VK","2017/11/07 20:39:39","新北市新莊區龍安路90號","121.417615","25.0208916666667","6500500","新莊區"
"242009","173-VK","2017/11/07 20:39:32","新北市新莊區福壽街99巷11弄1號","121.45749","25.0503583333333","6500500","新莊區"
"242015","175-VK","2017/11/07 20:39:34","新北市新莊區中和街44號","121.448116666667","25.044215","6500500","新莊區"
"242013","346-TH","2017/11/07 20:39:35","新北市新莊區幸福路765號","121.447225","25.0490633333333","6500500","新莊區"
"242034","348-TH","2017/11/07 20:39:38","新北市新莊區中正路387號","121.445925","25.034645","6500500","新莊區"
"242056","349-TH","2017/11/07 20:39:30","新北市新莊區瓊泰路94巷34號","121.444393333333","25.0294116666667","6500500","新莊區"
"242017","350-TH","2017/11/07 20:39:21","新北市新莊區中和街48號","121.448078333333","25.044465","6500500","新莊區"
"242011","351-TH","2017/11/07 20:39:31","新北市新莊區中信街99巷9號","121.44722","25.0534466666667","6500500","新莊區"
"221008","489-VK","2017/11/07 20:39:28","新北市汐止區康寧街861巷5號","121.645315","25.0761633333333","6501100","汐止區"
"221036","130-UY","2017/11/07 20:39:34","新北市汐止區新昌路20號","121.661951666667","25.0674483333333","6501100","汐止區"
"221015","131-UY","2017/11/07 20:39:35","新北市汐止區建成路33號","121.663943333333","25.0727633333333","6501100","汐止區"
"221010","269-BY","2017/11/07 20:39:19","新北市汐止區八連路二段376-1號","121.629656666667","25.101435","6501100","汐止區"
"221012","276-VK","2017/11/07 13:27:06","新北市汐止區汐萬路一段256巷3號","121.65349","25.0746116666667","6501100","汐止區"
"221012","278-VK","2017/11/07 20:39:26","新北市汐止區大同路三段211號","121.672326666667","25.076835","6501100","汐止區"
"221023","279-VK","2017/11/07 20:39:25","新北市汐止區康寧街607號","121.635811666667","25.0709883333333","6501100","汐止區"
"221032","280-BY","2017/11/07 20:39:39","新北市汐止區民權街二段35-1號","121.620095","25.050245","6501100","汐止區"
"221027","281-BY","2017/11/07 20:39:19","新北市汐止區大同路二段509號","121.66126","25.0687666666667","6501100","汐止區"
"221029","298-VK","2017/11/07 20:39:21","新北市汐止區大同路一段515巷2號","121.645651666667","25.062365","6501100","汐止區"
"221021","299-VK","2017/11/07 20:39:26","新北市汐止區水源路一段293號","121.6543","25.0582733333333","6501100","汐止區"
"221031","353-TW","2017/11/07 20:39:29","新北市汐止區中興路72號","121.635163333333","25.0615816666667","6501100","汐止區"
"221002","358-BY","2017/11/07 20:39:20","新北市汐止區福德二路171號","121.63076","25.06515","6501100","汐止區"
"221035","622-UM","2017/11/07 20:39:33","新北市汐止區長江街101-5號","121.65867","25.0732583333333","6501100","汐止區"
"221025","623-UM","2017/11/07 20:39:33","新北市汐止區水源路二段144-1號","121.657198333333","25.0550016666667","6501100","汐止區"
"221038","646-BX","2017/11/07 20:39:30","新北市汐止區大同路二段184巷5號","121.653535","25.06406","6501100","汐止區"
"221033","647-BX","2017/11/07 20:39:25","台北市南港區合順街8巷7弄38號","121.620171666667","25.0419366666667","6501100","汐止區"
"221018","753-BX","2017/11/07 20:39:25","新北市汐止區中華街69號","121.668113333333","25.07111","6501100","汐止區"
"220080","200-UY","2017/11/07 20:38:57","新北市五股區中直路45號","121.417798333333","25.115685","6500100","板橋區"
"220083","286-VK","2017/11/07 20:39:28","新北市板橋區僑中二街108巷14號","121.4452","25.0074683333333","6500100","板橋區"
"220062","303-R5","2017/11/07 20:39:35","新北市五股區成泰路一段98巷77號","121.450681666667","25.0772466666667","6500100","板橋區"
"220064","486-VK","2017/11/07 20:39:22","新北市八里區中山路三段372號","121.368825","25.13629","6500100","板橋區"
"242019","280-VK","2017/11/07 20:39:22","新北市新莊區銘德街127號","121.45507","25.0431016666667","6500500","新莊區"
"220103","561-BX","2017/11/07 20:39:21","新北市板橋區漢生東路83巷25號","121.467381666667","25.0167883333333","6500100","板橋區"
"220070","AAC-253","2017/11/07 20:38:06","新北市五股區中直路15-2號","121.423226666667","25.1111683333333","6500100","板橋區"
