"lineid","car","time","location","longitude","latitude","cityid","cityname"
"234005","207-UY","2017/11/06 14:39:43","新北市永和區安樂路208-1號","121.515046666667","25.0021","6500400","永和區"
"234052","553-UM","2017/11/06 14:39:36","新北市永和區環河東路一段80號","121.519618333333","25.0164766666667","6500400","永和區"
"234028","746-BX","2017/11/06 14:39:30","新北市中和區中正路809號","121.484955","25.0016783333333","6500400","永和區"
"234040","862-TW","2017/11/06 14:39:40","新北市永和區光復街33巷7號","121.51584","25.01814","6500400","永和區"
"234025","9381-KE","2017/11/06 14:39:48","新北市永和區中和路483-3號","121.510521666667","25.0021516666667","6500400","永和區"
"248015","026-BX","2017/11/06 14:39:37","新北市五股區成泰路四段24-5號","121.453706666667","25.1067916666667","6501500","五股區"
"248007","095-VK","2017/11/06 14:39:30","新北市五股區中興路一段88巷18號","121.466733333333","25.073835","6501500","五股區"
"248017","225-UY","2017/11/06 14:39:34","新北市五股區凌雲路三段33-16號","121.431706666667","25.1162216666667","6501500","五股區"
"248011","247-BX","2017/11/06 14:39:37","新北市五股區民義路一段112-10號","121.435368333333","25.0852316666667","6501500","五股區"
"248013","261-SL","2017/11/06 14:39:47","新北市五股區五福路32巷23號","121.434881666667","25.0899816666667","6501500","五股區"
"248009","272-BY","2017/11/06 14:39:39","新北市五股區自強路154號","121.432181666667","25.07021","6501500","五股區"
"248003","677-BX","2017/11/06 14:39:42","新北市五股區工商路116號","121.436863333333","25.0856183333333","6501500","五股區"
"248001","678-BX","2017/11/06 14:39:42","新北市五股區成泰路三段289號","121.44731","25.09436","6501500","五股區"
"234072","AAC-211","2017/11/06 14:39:29","新北市永和區環河東路二段8號","121.522131666667","25.0133683333333","6500400","永和區"
"234001","AAC-295","2017/11/06 14:39:41","新北市永和區中正路620號","121.517011666667","25.007825","6500400","永和區"
"244025","742-UY","2017/11/06 10:16:27","新北市林口區粉寮路二段160巷28號","121.40525","25.0907233333333","6501700","林口區"
"244001","657-BX","2017/11/06 14:24:37","新北市林口區林口路76號","121.389751666667","25.0806333333333","6501700","林口區"
"243004","AAD-798","2017/11/06 14:39:42","新北市泰山區全興路1號","121.432075","25.0595433333333","6501600","泰山區"
"243001","297-R6","2017/11/06 14:39:30","新北市泰山區楓江路16巷13號","121.433978333333","25.06177","6501600","泰山區"
"243007","380-SR","2017/11/06 14:39:36","新北市泰山區明志路二段214巷11號","121.426671666667","25.04878","6501600","泰山區"
"243006","421-VK","2017/11/06 14:39:38","新北市泰山區仁愛路18號","121.43138","25.054255","6501600","泰山區"
"243002","KEA-2215","2017/11/06 14:39:44","新北市泰山區明志路二段136巷1號","121.42695","25.0512666666667","6501600","泰山區"
"243003","KEA-2216","2017/11/06 14:39:38","新北市泰山區中山路二段678號","121.426946666667","25.0370133333333","6501600","泰山區"
"243005","646-TV","2017/11/06 14:39:43","新北市泰山區應化街7號","121.423948333333","25.0436683333333","6501600","泰山區"
"243008","680-BX","2017/11/06 14:39:29","新北市泰山區明志路三段488號","121.421095","25.0314516666667","6501600","泰山區"
"231002","002-UM","2017/11/06 14:39:37","新北市新店區中正路468號","121.534011666667","24.97946","6500600","新店區"
"231028","046-UY","2017/11/06 14:39:31","新北市新店區安德街60巷35號","121.511198333333","24.9635883333333","6500600","新店區"
"231030","047-UY","2017/11/06 14:39:38","新北市新店區安民街189號","121.516828333333","24.9708566666667","6500600","新店區"
"231029","106-UY","2017/11/06 14:39:42","新北市新店區安康路三段237號","121.487281666667","24.95183","6500600","新店區"
"231011","108-UY","2017/11/06 14:39:42","新北市新店區寶宏路15號","121.54946","24.9753983333333","6500600","新店區"
"231019","187-VK","2017/11/06 14:39:37","新北市新店區桂山路81巷1號","121.567478333333","24.8992583333333","6500600","新店區"
"231014","KEA-2219","2017/11/06 14:39:32","新北市新店區北宜路三段264號","121.601993333333","24.955095","6500600","新店區"
"231027","3712-VJ","2017/11/06 14:39:41","新北市新店區中正路102巷8弄6號","121.543661666667","24.9711816666667","6500600","新店區"
"231025","3713-VJ","2017/11/06 14:39:34","新北市新店區民族路161號","121.537786666667","24.976755","6500600","新店區"
"231024","4716-K9","2017/11/06 14:39:30","新北市新店區環河路103-5號","121.531658333333","24.97089","6500600","新店區"
"231038","4715-K9","2017/11/06 14:39:28","新北市新店區溪洲路143號","121.528795","24.9638466666667","6500600","新店區"
"231036","512-UM","2017/11/06 14:39:44","新北市新店區安祥路109巷2號","121.475251666667","24.958715","6500600","新店區"
"231023","513-UM","2017/11/06 14:39:32","新北市新店區檳榔路50號","121.541815","24.9636283333333","6500600","新店區"
"231035","515-UM","2017/11/06 14:39:45","新北市新店區安民街3巷6弄2號","121.514735","24.964365","6500600","新店區"
"231001","619-UM","2017/11/06 14:39:49","新北市新店區中正路28號","121.545288333333","24.9698233333333","6500600","新店區"
"231003","641-BX","2017/11/06 14:39:40","新北市新店區中興路一段302號","121.54618","24.96962","6500600","新店區"
"231034","645-TV","2017/11/06 14:39:33","新北市新店區黎明路52巷9號","121.501998333333","24.9487283333333","6500600","新店區"
"231013","719-UM","2017/11/06 14:39:47","新北市新店區明德路11號","121.54225","24.9767866666667","6500600","新店區"
"231018","719-UY","2017/11/06 14:39:41","新北市新店區中央二街22號","121.528548333333","24.9735016666667","6500600","新店區"
"231005","897-TW","2017/11/06 14:39:43","新北市新店區順安街17號","121.540936666667","24.9854416666667","6500600","新店區"
"231006","898-TW","2017/11/06 14:39:30","新北市新店區北宜路二段80巷2弄14號","121.552055","24.95316","6500600","新店區"
"231004","899-TW","2017/11/06 14:39:45","新北市新店區中正路263-4號","121.538298333333","24.973785","6500600","新店區"
"231037","AKT-0513","2017/11/06 14:39:45","新北市新店區柴埕路52巷3號","121.51188","24.964495","6500600","新店區"
"235030","003-UY","2017/11/06 14:39:41","新北市中和區景新街73巷20號","121.505646666667","24.9987583333333","6500300","中和區"
"235028","005-UY","2017/11/06 14:39:42","新北市中和區南山路127巷2號","121.502376666667","24.99704","6500300","中和區"
"235027","006-UY","2017/11/06 14:39:31","新北市中和區連城路174巷38號","121.494258333333","25.0002116666667","6500300","中和區"
"235020","096-UM","2017/11/06 14:39:36","新北市中和區中山路三段114巷71號","121.476085","25.0079516666667","6500300","中和區"
"235003","097-UM","2017/11/06 14:39:39","新北市中和區宜安路61號","121.511503333333","24.99696","6500300","中和區"
"235029","098-UM","2017/11/06 14:39:30","新北市中和區莊敬路1-6號","121.499428333333","25.0042983333333","6500300","中和區"
"235004","150-BY","2017/11/06 14:39:44","新北市中和區安平路38號","121.509923333333","24.9950466666667","6500300","中和區"
"235022","151-BY","2017/11/06 14:39:32","新北市中和區連城路503號","121.482555","24.995505","6500300","中和區"
"235019","183-VK","2017/11/06 14:39:30","新北市中和區民生街15號","121.471328333333","25.005865","6500300","中和區"
"235002","185-VK","2017/11/06 14:39:29","新北市中和區大智街55巷30弄56號","121.521956666667","24.993365","6500300","中和區"
"235013","186-VK","2017/11/06 14:39:35","新北市中和區安平路17號","121.509138333333","24.9941666666667","6500300","中和區"
"235031","255-BX","2017/11/06 14:39:32","新北市中和區新生街220巷15弄7號","121.482951666667","24.9980833333333","6500300","中和區"
"235008","293-VK","2017/11/06 14:39:49","新北市中和區捷運路8號","121.509876666667","24.9895583333333","6500300","中和區"
"235036","301-VK","2017/11/06 14:39:29","新北市中和區中和路119號","121.50162","25.000235","6500300","中和區"
"235007","352-BY","2017/11/06 14:39:46","新北市中和區南山路94號","121.502851666667","24.994655","6500300","中和區"
"235032","377-QA","2017/11/06 14:39:43","新北市中和區莊敬路16巷1號","121.499985","25.004215","6500300","中和區"
"235025","378-QA","2017/11/06 14:39:29","新北市中和區員山路226巷13弄1號","121.482178333333","25.0000416666667","6500300","中和區"
"235035","269-TV","2017/11/06 14:39:40","新北市中和區連城路469巷7號","121.48367","24.99564","6500300","中和區"
"235014","4979-A6","2017/11/06 14:39:29","新北市中和區景平路323號","121.50603","24.993035","6500300","中和區"
"235006","551-UM","2017/11/06 13:40:38","新北市中和區成功路101巷7號","121.526486666667","24.9916816666667","6500300","中和區"
"235034","558-UM","2017/11/06 14:38:10","新北市中和區中山路二段220號","121.49943","25.0028333333333","6500300","中和區"
"235009","565-BX","2017/11/06 14:39:45","新北市中和區景新街320號","121.511701666667","24.99134","6500300","中和區"
"235018","640-BX","2017/11/06 14:39:30","新北市中和區國光街102巷15號","121.470761666667","25.0007533333333","6500300","中和區"
"235011","732-UM","2017/11/06 14:39:37","新北市中和區南山路150號","121.504216666667","24.9921583333333","6500300","中和區"
"235010","733-UM","2017/11/06 14:39:30","新北市中和區四維街37巷1號","121.512465","24.9868866666667","6500300","中和區"
"235026","800-TS","2017/11/06 14:39:31","新北市中和區中山路二段419號","121.485846666667","25.0047633333333","6500300","中和區"
"235021","801-TS","2017/11/06 14:39:45","新北市中和區員山路296號","121.48136","25.002595","6500300","中和區"
"235005","802-TS","2017/11/06 14:39:41","新北市中和區中和路232號","121.506686666667","24.99934","6500300","中和區"
"235016","805-TS","2017/11/06 14:39:33","新北市中和區華新街192巷11號","121.506578333333","24.9825766666667","6500300","中和區"
"235012","896-TW","2017/11/06 14:39:44","新北市中和區四維街17號","121.513073333333","24.98711","6500300","中和區"
"235017","900-TW","2017/11/06 14:39:44","新北市中和區民德路146巷7弄1號","121.467706666667","25.0004816666667","6500300","中和區"
"235024","911-UM","2017/11/06 14:39:13","新北市中和區中山路二段523巷41號","121.482276666667","25.0031666666667","6500300","中和區"
"235001","157-BY","2017/11/06 14:39:33","新北市中和區板南路178號","121.500858333333","24.99279","6500300","中和區"
"235001","AAC-213","2017/11/06 14:39:39","新北市中和區秀朗路三段107號","121.526495","24.9945883333333","6500300","中和區"
"235023","AAC-215","2017/11/06 14:39:44","新北市中和區圓通路335巷71號","121.494228333333","24.989425","6500300","中和區"
"220016","013-TV","2017/11/06 14:39:47","新北市板橋區中山路二段416巷50弄2號","121.483108333333","25.0197716666667","6500100","板橋區"
"220013","072-UY","2017/11/06 14:39:36","新北市板橋區國泰街111巷3號","121.465806666667","25.0062316666667","6500100","板橋區"
"220105","075-UY","2017/11/06 14:39:37","新北市板橋區雙十路三段22-1號","121.471271666667","25.0306433333333","6500100","板橋區"
"220017","AAD-861","2017/11/06 14:39:38","新北市板橋區縣民大道一段66號","121.455268333333","25.00401","6500100","板橋區"
"247021","893-R6","2017/11/06 14:39:28","新北市蘆洲區三民路226號","121.468605","25.0894216666667","6501400","蘆洲區"
"247011","546-UM","2017/11/06 14:39:33","新北市蘆洲區集賢路224巷37弄10-1號","121.480676666667","25.08808","6501400","蘆洲區"
"247019","500-BY","2017/11/06 14:38:38","新北市蘆洲區民義街68巷70號","121.473993333333","25.0898166666667","6501400","蘆洲區"
"247009","339-TH","2017/11/06 14:39:34","新北市蘆洲區信義路222巷13號","121.479485","25.0853583333333","6501400","蘆洲區"
"247001","337-TH","2017/11/06 14:39:32","新北市蘆洲區永樂街38巷57弄35號","121.457175","25.09045","6501400","蘆洲區"
"247003","336-TH","2017/11/06 14:39:28","新北市蘆洲區長安街196號","121.458708333333","25.0840466666667","6501400","蘆洲區"
"247015","057-VK","2017/11/06 14:39:39","新北市蘆洲區正和街56號","121.468978333333","25.081495","6501400","蘆洲區"
"247005","056-VK","2017/11/06 14:39:36","新北市蘆洲區中華街21號","121.463631666667","25.08165","6501400","蘆洲區"
"247007","053-VK","2017/11/06 14:39:40","新北市蘆洲區民生街127號","121.472681666667","25.079015","6501400","蘆洲區"
"247013","007-UY","2017/11/06 14:39:49","新北市蘆洲區忠孝路22號","121.470958333333","25.0841333333333","6501400","蘆洲區"
"247023","002-UY","2017/11/06 14:39:43","新北市蘆洲區正和街65號","121.4688","25.08108","6501400","蘆洲區"
"247017","001-UY","2017/11/06 14:39:31","新北市蘆洲區民族路306號","121.477431666667","25.08999","6501400","蘆洲區"
"223003","205-TH","2017/11/06 10:05:33","新北市石碇區小粗坑(潭邊里)9-2號","121.678843333333","24.9857866666667","6501900","石碇區"
"227001","400-TW","2017/11/06 13:38:55","新北市雙溪區三貂里政光路3-1號","121.85086","25.0630233333333","6502500","雙溪區"
"208004","AAC-292","2017/11/06 14:39:42","新北市金山區兩湖里葵扇湖5號","121.596111666667","25.2285916666667","6502700","金山區"
"207002","749-BX","2017/11/06 14:39:40","新北市萬里區溪底里香員林路17-1號","121.635966666667","25.1598433333333","6502800","萬里區"
"207001","662-BX","2017/11/06 14:36:48","新北市萬里區雙興里豐稟路22號","121.640631666667","25.1863","6502800","萬里區"
"252005","AAC-283","2017/11/06 14:39:40","新北市三芝區埔坪里埔頭坑157號","121.508671666667","25.2489966666667","6502100","三芝區"
"236064","105-UM","2017/11/06 14:39:39","新北市土城區永豐路306號","121.472133333333","24.9776133333333","6501300","土城區"
"236040","107-UM","2017/11/06 14:39:37","新北市土城區裕民路55巷17號","121.449336666667","24.9888183333333","6501300","土城區"
"236074","166-UM","2017/11/06 14:39:44","新北市土城區中央路四段52巷12號","121.42007","24.961165","6501300","土城區"
"236028","253-BX","2017/11/06 14:39:43","新北市土城區中華路二段126號","121.437788333333","24.9735716666667","6501300","土城區"
"236024","269-VK","2017/11/06 14:39:46","新北市土城區忠義路47-1號","121.44088","24.9694866666667","6501300","土城區"
"236012","270-VK","2017/11/06 14:39:44","新北市土城區清水路232號","121.461048333333","24.9824066666667","6501300","土城區"
"236032","271-VK","2017/11/06 14:39:31","新北市土城區明德路一段313巷11弄10號","121.460403333333","24.97595","6501300","土城區"
"236005","339-SR","2017/11/06 14:39:37","新北市土城區中華路一段56巷25號","121.444483333333","24.9895283333333","6501300","土城區"
"236016","401-BY","2017/11/06 14:39:39","新北市土城區延吉街253巷3號","121.467606666667","24.9846383333333","6501300","土城區"
"236044","752-BX","2017/11/06 14:39:41","新北市土城區金城路二段360-2號","121.461791666667","24.9853133333333","6501300","土城區"
"236056","912-UM","2017/11/06 14:39:45","新北市土城區中央路四段47號","121.42214","24.9616016666667","6501300","土城區"
"236060","915-UM","2017/11/06 14:39:40","新北市土城區金城路三段207巷8弄23號","121.470495","24.9907783333333","6501300","土城區"
"236052","AAC-216","2017/11/06 14:39:36","新北市土城區中華路一段133號","121.444235","24.9866366666667","6501300","土城區"
"242001","233-RS","2017/11/06 09:13:40","新北市新莊區環河路48-7號","121.436935","25.0098066666667","6500500","新莊區"
"238018","571-TV","2017/11/06 14:39:41","新北市樹林區育德街78-1號","121.387938333333","24.9682116666667","6500700","樹林區"
"221023","279-VK","2017/11/06 14:39:29","新北市汐止區大同路二段132號","121.65174","25.063655","6501100","汐止區"
"221032","280-BY","2017/11/06 14:39:28","新北市汐止區茄福街35巷23號","121.673193333333","25.0665416666667","6501100","汐止區"
"221018","753-BX","2017/11/06 14:39:34","新北市新店區安華路3號","121.519461666667","24.95996","6501100","汐止區"
"220027","145-BY","2017/11/06 14:39:38","新北市板橋區建國街109號","121.460275","25.017565","6500100","板橋區"
"220028","200-UY","2017/11/06 14:39:37","新北市板橋區大觀路二段37巷160號","121.449315","25.0014016666667","6500100","板橋區"
"220030","610-BX","2017/11/06 14:39:33","新北市板橋區金門街301號","121.430006666667","24.986495","6500100","板橋區"
"220004","276-BY","2017/11/06 14:39:41","新北市板橋區信義路1巷26弄35號","121.458876666667","24.996655","6500100","板橋區"
"220020","277-BY","2017/11/06 14:39:36","新北市板橋區金門街253巷13號","121.432783333333","24.9885016666667","6500100","板橋區"
"220050","280-UM","2017/11/06 14:39:46","新北市板橋區莊敬路220巷38號","121.472076666667","25.0204333333333","6500100","板橋區"
"220019","283-VK","2017/11/06 14:39:34","新北市板橋區信義路279巷11號","121.461961666667","24.9894233333333","6500100","板橋區"
"220043","285-UM","2017/11/06 14:39:44","新北市板橋區宏國路96號","121.470131666667","25.031975","6500100","板橋區"
"220001","285-VK","2017/11/06 14:39:44","新北市板橋區中山路二段148巷3號","121.476815","25.0167933333333","6500100","板橋區"
"220031","286-VK","2017/11/06 14:39:37","新北市板橋區龍興街65巷2號","121.443651666667","25.0015283333333","6500100","板橋區"
"220029","287-VK","2017/11/06 14:39:37","新北市板橋區大觀路一段29巷131弄29號","121.450608333333","25.0046333333333","6500100","板橋區"
"220039","288-VK","2017/11/06 14:39:42","新北市板橋區裕民街110號","121.459651666667","25.0278983333333","6500100","板橋區"
"220009","295-UM","2017/11/06 14:39:30","新北市板橋區板新路204號","121.468881666667","25.0162766666667","6500100","板橋區"
"220032","296-UM","2017/11/06 14:39:43","新北市板橋區滿平街84巷100弄15號","121.425983333333","24.98618","6500100","板橋區"
"220023","297-UM","2017/11/06 14:39:36","新北市板橋區中正路253巷54號","121.453758333333","25.0175783333333","6500100","板橋區"
"220010","303-R5","2017/11/06 14:39:44","新北市板橋區三民路二段81巷25號","121.480506666667","25.0167833333333","6500100","板橋區"
"220041","307-R5","2017/11/06 14:39:48","新北市板橋區陽明街33號","121.465253333333","25.021985","6500100","板橋區"
"220047","317-R6","2017/11/06 14:39:33","新北市板橋區四維路269巷45號","121.461331666667","25.0274316666667","6500100","板橋區"
"220012","486-VK","2017/11/06 14:39:35","新北市板橋區民權路12號","121.463238333333","25.0097816666667","6500100","板橋區"
"220038","487-VK","2017/11/06 14:39:36","新北市板橋區英士路199號","121.459063333333","25.0236933333333","6500100","板橋區"
"220037","491-VK","2017/11/06 14:39:42","新北市板橋區莊敬路2-1號","121.474106666667","25.0285716666667","6500100","板橋區"
"220104","560-BX","2017/11/06 14:39:40","新北市板橋區金華街85巷42號","121.459203333333","25.0213516666667","6500100","板橋區"
"220052","561-BX","2017/11/06 14:39:46","新北市板橋區文化路一段288號","121.467345","25.0214733333333","6500100","板橋區"
"220011","609-BX","2017/11/06 14:39:47","新北市板橋區三民路二段161號","121.479205","25.01471","6500100","板橋區"
"220034","630-UY","2017/11/06 14:39:46","新北市板橋區國光路10號","121.456818333333","25.0173633333333","6500100","板橋區"
"220040","637-BX","2017/11/06 14:39:50","新北市板橋區文聖街149巷40號","121.47999","25.02886","6500100","板橋區"
"220005","686-BX","2017/11/06 14:39:41","新北市板橋區和平路98號","121.461946666667","24.9947133333333","6500100","板橋區"
"220025","687-BX","2017/11/06 14:39:45","新北市板橋區僑中二街2號","121.447331666667","25.0114016666667","6500100","板橋區"
"220042","689-BX","2017/11/06 14:39:34","新北市板橋區新海路364號","121.459713333333","25.0253416666667","6500100","板橋區"
"220002","741-BX","2017/11/06 14:39:46","新北市板橋區忠孝路239巷35號","121.467136666667","25.0035633333333","6500100","板橋區"
"220003","827-TW","2017/11/06 14:39:33","新北市板橋區國慶路149巷2弄4號","121.461415","24.9965466666667","6500100","板橋區"
"220014","829-TW","2017/11/06 14:39:43","新北市板橋區長安街251巷10號","121.472393333333","25.010495","6500100","板橋區"
"220051","830-TW","2017/11/06 14:39:39","新北市板橋區雙十路二段46巷33號","121.476081666667","25.028905","6500100","板橋區"
"220045","831-TW","2017/11/06 14:39:39","新北市板橋區民生路二段240巷23號","121.469095","25.023135","6500100","板橋區"
"220022","895-R6","2017/11/06 14:39:43","新北市板橋區府中路29-2號","121.45844","25.0080533333333","6500100","板橋區"
"220021","985-R7","2017/11/06 14:39:43","新北市板橋區中正路268號","121.455348333333","25.01964","6500100","板橋區"
"220046","AAC-210","2017/11/06 14:39:38","新北市板橋區幸福路30號","121.461683333333","25.0202683333333","6500100","板橋區"
"220018","AAC-253","2017/11/06 14:39:41","新北市板橋區館前東路112號","121.463383333333","25.0076633333333","6500100","板橋區"
