"lineid","car","time","location","longitude","latitude","cityid","cityname"
"234028","746-BX","2017/11/06 14:59:30","新北市八里區商港路88-1號","121.393228333333","25.1495916666667","6500400","永和區"
"248015","026-BX","2017/11/06 14:59:37","新北市五股區成泰路三段577巷150號","121.447848333333","25.10434","6501500","五股區"
"248007","095-VK","2017/11/06 14:59:30","新北市五股區四維路155巷36弄16號","121.466875","25.0751483333333","6501500","五股區"
"248017","225-UY","2017/11/06 14:59:34","新北市五股區凌雲路三段24-5號","121.435386666667","25.104165","6501500","五股區"
"248011","247-BX","2017/11/06 14:59:38","新北市五股區六合街70號","121.43184","25.0901233333333","6501500","五股區"
"248013","261-SL","2017/11/06 14:59:47","新北市五股區成泰路二段252號","121.440678333333","25.0873866666667","6501500","五股區"
"248009","272-BY","2017/11/06 14:59:38","新北市五股區成泰路一段7巷19號","121.432373333333","25.0671483333333","6501500","五股區"
"248003","677-BX","2017/11/06 14:59:42","新北市五股區成泰路一段8巷2-3號","121.434925","25.0668933333333","6501500","五股區"
"244025","742-UY","2017/11/06 10:16:27","新北市林口區粉寮路二段160巷28號","121.40525","25.0907233333333","6501700","林口區"
"244001","657-BX","2017/11/06 14:24:37","新北市林口區林口路76號","121.389751666667","25.0806333333333","6501700","林口區"
"243004","AAD-798","2017/11/06 14:59:42","新北市泰山區文化街29號","121.434988333333","25.063535","6501600","泰山區"
"243001","297-R6","2017/11/06 14:59:30","新北市泰山區憲訓路4號","121.428843333333","25.063985","6501600","泰山區"
"243007","380-SR","2017/11/06 14:59:36","新北市泰山區仁德路121號","121.432815","25.0561833333333","6501600","泰山區"
"243006","421-VK","2017/11/06 14:59:38","新北市泰山區泰林路二段273號","121.430773333333","25.0627516666667","6501600","泰山區"
"243002","KEA-2215","2017/11/06 14:59:44","新北市泰山區公園路19號","121.429421666667","25.0541183333333","6501600","泰山區"
"243003","KEA-2216","2017/11/06 14:59:38","新北市新莊區壽山路33-6號","121.418396666667","25.03015","6501600","泰山區"
"243005","646-TV","2017/11/06 14:59:43","新北市泰山區新民路12號","121.426445","25.0447666666667","6501600","泰山區"
"243008","680-BX","2017/11/06 14:59:46","新北市泰山區明志路三段277號","121.422918333333","25.03663","6501600","泰山區"
"231002","002-UM","2017/11/06 14:59:37","新北市新店區民權路72號","121.538195","24.9829583333333","6500600","新店區"
"231028","046-UY","2017/11/06 14:59:31","新北市新店區安豐路46號","121.500038333333","24.9549333333333","6500600","新店區"
"231030","047-UY","2017/11/06 14:59:38","新北市新店區安民街339號","121.516946666667","24.9748533333333","6500600","新店區"
"231029","106-UY","2017/11/06 14:59:42","新北市新店區錦秀路45號","121.47916","24.9436916666667","6500600","新店區"
"231011","108-UY","2017/11/06 14:59:42","新北市新店區中興路三段205巷9號","121.543183333333","24.9814783333333","6500600","新店區"
"231019","187-VK","2017/11/06 14:59:37","新北市新店區永福路38-1號","121.553048333333","24.9293566666667","6500600","新店區"
"231014","KEA-2219","2017/11/06 14:59:27","新北市新店區銀河路68-1號","121.580336666667","24.958485","6500600","新店區"
"231026","256-BX","2017/11/06 14:59:34","新北市新店區中正路133號","121.541855","24.9714366666667","6500600","新店區"
"231025","3713-VJ","2017/11/06 14:59:34","新北市新店區大同街42號","121.538705","24.9807783333333","6500600","新店區"
"231024","4716-K9","2017/11/06 14:59:30","新北市新店區中華路83巷67號","121.538351666667","24.9673083333333","6500600","新店區"
"231036","512-UM","2017/11/06 14:59:44","新北市新店區安祥路102巷42弄41號","121.485465","24.9633733333333","6500600","新店區"
"231023","513-UM","2017/11/06 14:59:32","新北市新店區檳榔路109號","121.544363333333","24.961555","6500600","新店區"
"231035","515-UM","2017/11/06 14:59:45","新北市新店區安業街17號","121.516785","24.97785","6500600","新店區"
"231001","619-UM","2017/11/06 14:59:29","新北市新店區中正路276號","121.538811666667","24.97366","6500600","新店區"
"231003","641-BX","2017/11/06 14:59:41","新北市新店區中興路二段202-2號","121.54838","24.9743833333333","6500600","新店區"
"231034","645-TV","2017/11/06 14:59:33","新北市新店區玫瑰路4-1號","121.493598333333","24.9514","6500600","新店區"
"231039","718-UY","2017/11/06 14:59:40","新北市新店區寶安街18號","121.542081666667","24.9818916666667","6500600","新店區"
"231018","719-UY","2017/11/06 14:59:34","新北市新店區中央五街5號","121.530141666667","24.9743","6500600","新店區"
"231031","720-UM","2017/11/06 14:59:44","新北市新店區安泰路60巷114號","121.48405","24.944785","6500600","新店區"
"231005","897-TW","2017/11/06 14:59:43","新北市新店區復興路66號","121.537741666667","24.9867733333333","6500600","新店區"
"231006","898-TW","2017/11/06 14:59:44","新北市新店區北宜路一段20號","121.538115","24.9571333333333","6500600","新店區"
"231004","899-TW","2017/11/06 14:59:45","新北市新店區民族路46號","121.540275","24.97879","6500600","新店區"
"231037","AKT-0513","2017/11/06 14:59:44","新北市新店區安民街121巷12號","121.515425","24.9691683333333","6500600","新店區"
"235030","003-UY","2017/11/06 14:59:41","新北市中和區中山路二段3巷36號","121.507323333333","25.0048616666667","6500300","中和區"
"235028","005-UY","2017/11/06 14:59:31","新北市中和區連城路222巷6弄2號","121.490843333333","24.997645","6500300","中和區"
"235020","096-UM","2017/11/06 14:59:36","新北市中和區漢民路421號","121.472386666667","25.0067916666667","6500300","中和區"
"235003","097-UM","2017/11/06 14:59:39","新北市中和區宜安路18巷8號","121.513586666667","24.9962016666667","6500300","中和區"
"235029","098-UM","2017/11/06 14:59:30","新北市中和區永和路90巷4弄4號","121.49762","25.0059666666667","6500300","中和區"
"235004","150-BY","2017/11/06 14:59:44","新北市中和區保健路10巷1弄2號","121.50791","24.9978516666667","6500300","中和區"
"235022","151-BY","2017/11/06 14:59:31","新北市中和區員山路150-26號","121.481285","24.9981216666667","6500300","中和區"
"235002","185-VK","2017/11/06 14:59:29","新北市中和區自強路52號","121.520235","24.9947316666667","6500300","中和區"
"235013","186-VK","2017/11/06 14:59:35","新北市中和區中興街25號","121.501151666667","24.994855","6500300","中和區"
"235031","255-BX","2017/11/06 14:59:32","新北市中和區新生街205號","121.483806666667","24.9998916666667","6500300","中和區"
"235008","293-VK","2017/11/06 14:59:38","新北市中和區中正路59號","121.501588333333","24.9933933333333","6500300","中和區"
"235036","301-VK","2017/11/06 14:59:29","新北市中和區圓通路158巷1弄9號","121.497293333333","24.9959516666667","6500300","中和區"
"235007","352-BY","2017/11/06 14:59:46","新北市中和區華新街230號","121.506008333333","24.9816366666667","6500300","中和區"
"235032","377-QA","2017/11/06 14:59:42","新北市中和區勝利路35巷1弄6號","121.499186666667","25.0074533333333","6500300","中和區"
"235035","269-TV","2017/11/06 14:59:47","新北市中和區建八路116號","121.488091666667","24.9985483333333","6500300","中和區"
"235014","4979-A6","2017/11/06 14:59:29","新北市中和區安樂路62號","121.512246666667","24.99318","6500300","中和區"
"235033","4980-A6","2017/11/06 14:59:32","新北市中和區廣福路72號","121.503206666667","25.0016216666667","6500300","中和區"
"235006","551-UM","2017/11/06 13:40:38","新北市中和區成功路101巷7號","121.526486666667","24.9916816666667","6500300","中和區"
"235034","558-UM","2017/11/06 14:59:30","新北市中和區連勝街63號","121.497578333333","24.9968916666667","6500300","中和區"
"235018","640-BX","2017/11/06 14:59:30","新北市中和區莒光路205-1號","121.471173333333","24.997235","6500300","中和區"
"235010","733-UM","2017/11/06 14:59:30","新北市中和區興南路一段105巷20弄9號","121.510308333333","24.985455","6500300","中和區"
"235026","800-TS","2017/11/06 14:59:31","新北市新店區安華路30巷12-1號","121.51752","24.9578866666667","6500300","中和區"
"235012","896-TW","2017/11/06 14:59:44","新北市中和區忠孝街1巷2-1號","121.509193333333","24.9831616666667","6500300","中和區"
"235017","900-TW","2017/11/06 14:59:44","新北市中和區民德路216號","121.46823","24.9981066666667","6500300","中和區"
"235024","911-UM","2017/11/06 14:59:33","新北市中和區中正路803號","121.484721666667","25.0011233333333","6500300","中和區"
"235001","157-BY","2017/11/06 14:59:33","新北市中和區景安路247巷12號","121.504258333333","24.990425","6500300","中和區"
"235001","AAC-213","2017/11/06 14:59:39","新北市中和區自立路99巷22弄27號","121.52324","24.9938933333333","6500300","中和區"
"235023","AAC-215","2017/11/06 14:59:44","新北市中和區圓通路335巷4弄1號","121.492001666667","24.9903966666667","6500300","中和區"
"220016","013-TV","2017/11/06 14:59:47","新北市板橋區中山路二段290號","121.479628333333","25.01884","6500100","板橋區"
"220013","072-UY","2017/11/06 14:59:36","新北市板橋區海山路39號","121.467265","25.00971","6500100","板橋區"
"220105","075-UY","2017/11/06 14:59:37","新北市板橋區民治街52巷3號","121.479331666667","25.03312","6500100","板橋區"
"220017","AAD-861","2017/11/06 14:59:47","新北市板橋區大明街20巷19弄11號","121.458031666667","25.0032183333333","6500100","板橋區"
"247009","339-TH","2017/11/06 14:59:29","新北市五股區中興路二段182巷18-1號","121.456425","25.08186","6501400","蘆洲區"
"247007","053-VK","2017/11/06 14:59:35","新北市蘆洲區永安南路二段292號","121.457285","25.08162","6501400","蘆洲區"
"223003","205-TH","2017/11/06 10:05:33","新北市石碇區小粗坑(潭邊里)9-2號","121.678843333333","24.9857866666667","6501900","石碇區"
"227001","400-TW","2017/11/06 14:53:40","新北市雙溪區三貂里政光路3-1號","121.85089","25.063025","6502500","雙溪區"
"208004","AAC-292","2017/11/06 14:59:42","新北市金山區兩湖里倒照湖24號","121.598228333333","25.2358033333333","6502700","金山區"
"207002","749-BX","2017/11/06 14:59:40","新北市萬里區崁腳里崁腳路73號","121.647585","25.1595566666667","6502800","萬里區"
"207001","662-BX","2017/11/06 14:59:28","新北市萬里區雙興里麗水路3-2號","121.652953333333","25.1822683333333","6502800","萬里區"
"236064","105-UM","2017/11/06 14:59:39","新北市土城區中央路一段291巷14號","121.445036666667","24.9837016666667","6501300","土城區"
"236040","107-UM","2017/11/06 14:59:37","新北市土城區學府路一段238號","121.45178","24.9847733333333","6501300","土城區"
"236074","166-UM","2017/11/06 14:59:44","新北市土城區中央路四段232號","121.415458333333","24.9571","6501300","土城區"
"236028","253-BX","2017/11/06 14:59:43","新北市土城區福仁街5號","121.441363333333","24.9768266666667","6501300","土城區"
"236024","269-VK","2017/11/06 14:59:44","新北市土城區中正路56巷7號","121.444075","24.974995","6501300","土城區"
"236012","270-VK","2017/11/06 14:59:44","新北市土城區立德路103號","121.463443333333","24.98757","6501300","土城區"
"236032","271-VK","2017/11/06 14:59:31","新北市土城區仁愛路38號","121.461526666667","24.97941","6501300","土城區"
"236005","339-SR","2017/11/06 14:59:37","新北市土城區城林路6巷80號","121.43859","24.9800383333333","6501300","土城區"
"236016","401-BY","2017/11/06 14:59:39","新北市土城區延安街33巷24號","121.468623333333","24.9848983333333","6501300","土城區"
"236044","752-BX","2017/11/06 14:59:41","新北市土城區明德路一段398-1號","121.453765","24.9790316666667","6501300","土城區"
"236056","912-UM","2017/11/06 14:59:45","新北市土城區金城路二段8-1號","121.44903","24.9771683333333","6501300","土城區"
"236060","915-UM","2017/11/06 14:59:40","新北市土城區延和路41巷6弄6號","121.466213333333","24.990095","6501300","土城區"
"236052","AAC-216","2017/11/06 14:59:36","新北市土城區裕民路28號","121.44782","24.9885483333333","6501300","土城區"
"242001","233-RS","2017/11/06 09:13:40","新北市新莊區環河路48-7號","121.436935","25.0098066666667","6500500","新莊區"
"238018","571-TV","2017/11/06 14:59:41","新北市樹林區育德街78-1號","121.38792","24.9683","6500700","樹林區"
"238008","KEA-2217","2017/11/06 14:59:30","新北市樹林區中山路三段204號","121.38726","24.96824","6500700","樹林區"
"238009","KEA-2213","2017/11/06 14:59:38","新北市樹林區育德街78-1號","121.387498333333","24.9682266666667","6500700","樹林區"
"238012","303-VK","2017/11/06 14:59:43","新北市樹林區育德街78-1號","121.38773","24.9682933333333","6500700","樹林區"
"238007","268-VK","2017/11/06 14:59:43","新北市樹林區育德街78-1號","121.387378333333","24.9682883333333","6500700","樹林區"
"221023","279-VK","2017/11/06 14:59:29","新北市汐止區汐萬路一段256巷3號","121.652868333333","25.0743733333333","6501100","汐止區"
"221032","280-BY","2017/11/06 14:59:28","新北市汐止區仁愛路6號","121.65902","25.0640416666667","6501100","汐止區"
"221002","358-BY","2017/11/06 14:59:44","新北市汐止區莊敬街21號","121.657323333333","25.0615083333333","6501100","汐止區"
"221018","753-BX","2017/11/06 14:59:34","新北市汐止區光復街8巷10號","121.640278333333","25.0565483333333","6501100","汐止區"
"220027","145-BY","2017/11/06 14:59:38","新北市板橋區南雅西路二段287巷18號","121.45031","25.0157933333333","6500100","板橋區"
"220028","200-UY","2017/11/06 14:59:47","新北市板橋區大觀路二段59巷5號","121.447145","25.0025316666667","6500100","板橋區"
"220030","610-BX","2017/11/06 14:59:33","新北市板橋區沙崙街2-5號","121.431085","24.99434","6500100","板橋區"
"220004","276-BY","2017/11/06 14:59:41","新北市板橋區四川路二段97號","121.45263","24.9947816666667","6500100","板橋區"
"220020","277-BY","2017/11/06 14:59:31","新北市板橋區篤行路二段77巷9弄1號","121.432313333333","24.9918183333333","6500100","板橋區"
"220050","280-UM","2017/11/06 14:59:46","新北市板橋區縣民大道三段79巷14號","121.47518","25.022055","6500100","板橋區"
"220019","283-VK","2017/11/06 14:59:34","新北市板橋區和平路174巷28號","121.464665","24.9944416666667","6500100","板橋區"
"220043","285-UM","2017/11/06 14:59:44","新北市板橋區文德路19號","121.462268333333","25.02414","6500100","板橋區"
"220001","285-VK","2017/11/06 14:59:44","新北市板橋區永豐街67號","121.473746666667","25.0185866666667","6500100","板橋區"
"220031","286-VK","2017/11/06 14:59:38","新北市板橋區僑中二街12巷36號","121.445285","25.010845","6500100","板橋區"
"220029","287-VK","2017/11/06 14:59:37","新北市板橋區僑中一街80巷6弄1號","121.447723333333","25.012125","6500100","板橋區"
"220039","288-VK","2017/11/06 14:59:35","新北市板橋區龍泉街128號","121.456883333333","25.0239466666667","6500100","板橋區"
"220009","295-UM","2017/11/06 14:59:30","新北市板橋區中山路二段18號","121.47244","25.01504","6500100","板橋區"
"220032","296-UM","2017/11/06 14:59:43","新北市板橋區滿平街2巷10號","121.425218333333","24.9894016666667","6500100","板橋區"
"220023","297-UM","2017/11/06 14:59:36","新北市板橋區金華街10巷48弄44-3號","121.458508333333","25.0200416666667","6500100","板橋區"
"220010","303-R5","2017/11/06 14:59:44","新北市板橋區光復街116號","121.484035","25.0183066666667","6500100","板橋區"
"220041","307-R5","2017/11/06 14:59:30","新北市板橋區裕民街128巷1號","121.458785","25.0275366666667","6500100","板橋區"
"220047","317-R6","2017/11/06 14:59:29","新北市板橋區新海路72巷64號","121.461815","25.02354","6500100","板橋區"
"220012","486-VK","2017/11/06 14:59:37","新北市板橋區光明街97號","121.464483333333","25.00287","6500100","板橋區"
"220038","487-VK","2017/11/06 14:59:36","新北市板橋區龍泉街93-4號","121.456881666667","25.0246683333333","6500100","板橋區"
"220037","491-VK","2017/11/06 14:59:28","新北市板橋區文聖街113號","121.477886666667","25.02912","6500100","板橋區"
"220104","560-BX","2017/11/06 14:59:40","新北市板橋區新生街53巷20號","121.45766","25.0217583333333","6500100","板橋區"
"220052","561-BX","2017/11/06 14:59:46","新北市板橋區自由路28號","121.4656","25.0228433333333","6500100","板橋區"
"220011","609-BX","2017/11/06 14:59:47","新北市板橋區萬安街53巷19號","121.483425","25.0236216666667","6500100","板橋區"
"220040","637-BX","2017/11/06 14:59:37","新北市板橋區懷德街127巷58號","121.480583333333","25.03188","6500100","板橋區"
"220005","686-BX","2017/11/06 14:59:42","新北市板橋區信義路76號","121.457556666667","24.9933583333333","6500100","板橋區"
"220025","687-BX","2017/11/06 14:59:40","新北市板橋區僑中一街90號","121.447135","25.0116783333333","6500100","板橋區"
"220042","689-BX","2017/11/06 14:59:34","新北市板橋區吳鳳路91號","121.466876666667","25.0318283333333","6500100","板橋區"
"220002","741-BX","2017/11/06 14:59:46","新北市板橋區實踐路93巷23號","121.465138333333","25.0052866666667","6500100","板橋區"
"220003","827-TW","2017/11/06 14:59:33","新北市板橋區仁愛路94號","121.461326666667","24.9997016666667","6500100","板橋區"
"220014","829-TW","2017/11/06 14:59:43","新北市板橋區中山路一段206巷2弄14號","121.469536666667","25.0127416666667","6500100","板橋區"
"220051","830-TW","2017/11/06 14:59:39","新北市板橋區懷德街66巷17號","121.477063333333","25.0319866666667","6500100","板橋區"
"220045","831-TW","2017/11/06 14:59:46","新北市板橋區莒光路40巷18號","121.470156666667","25.023495","6500100","板橋區"
"220022","895-R6","2017/11/06 14:59:43","新北市板橋區館前西路101號","121.457025","25.007395","6500100","板橋區"
"220021","985-R7","2017/11/06 14:59:43","新北市板橋區南雅西路二段5號","121.453018333333","25.00906","6500100","板橋區"
"220046","AAC-210","2017/11/06 14:59:38","新北市板橋區光正街11號","121.462823333333","25.0171116666667","6500100","板橋區"
"220018","AAC-253","2017/11/06 14:59:41","新北市板橋區民族路83號","121.465733333333","25.0086016666667","6500100","板橋區"
