"lineid","car","time","location","longitude","latitude","cityid","cityname"
"248007","095-VK","2017/11/06 15:19:30","新北市五股區中興路一段1巷12弄21號","121.469328333333","25.0707166666667","6501500","五股區"
"248003","677-BX","2017/11/06 15:19:42","新北市五股區中興路四段23號","121.43885","25.0826516666667","6501500","五股區"
"244025","742-UY","2017/11/06 10:16:27","新北市林口區粉寮路二段160巷28號","121.40525","25.0907233333333","6501700","林口區"
"243002","KEA-2215","2017/11/06 15:19:44","新北市泰山區泰林路三段745巷145號","121.405596666667","25.0678466666667","6501600","泰山區"
"243003","KEA-2216","2017/11/06 15:19:38","新北市泰山區仁德路10號","121.4346","25.05705","6501600","泰山區"
"243008","680-BX","2017/11/06 15:19:28","新北市泰山區文程路111號","121.430633333333","25.0480966666667","6501600","泰山區"
"231002","002-UM","2017/11/06 15:19:37","台北市文山區景文街146巷26號","121.533376666667","24.9917516666667","6500600","新店區"
"231028","046-UY","2017/11/06 15:19:31","新北市新店區僑信路108巷42號","121.498986666667","24.9465616666667","6500600","新店區"
"231030","047-UY","2017/11/06 15:19:38","新北市新店區安和路二段207號","121.517635","24.9752","6500600","新店區"
"231029","106-UY","2017/11/06 15:19:42","新北市新店區安康路三段738號","121.47387","24.9419816666667","6500600","新店區"
"231011","108-UY","2017/11/06 15:19:42","新北市新店區復興路27號","121.539056666667","24.9866766666667","6500600","新店區"
"231019","187-VK","2017/11/06 15:19:37","新北市新店區湖興路128-7號","121.559873333333","24.93096","6500600","新店區"
"231026","256-BX","2017/11/06 15:19:34","新北市新店區中正路265巷32號","121.53766","24.97308","6500600","新店區"
"231025","3713-VJ","2017/11/06 15:19:34","新北市新店區中正路504號","121.533815","24.9826716666667","6500600","新店區"
"231024","4716-K9","2017/11/06 15:19:30","新北市新店區北新路一段309號","121.541313333333","24.9679183333333","6500600","新店區"
"231036","512-UM","2017/11/06 15:19:44","新北市新店區安祥路69巷17號","121.481913333333","24.961385","6500600","新店區"
"231023","513-UM","2017/11/06 15:19:32","新北市新店區行政街20號","121.543215","24.9658116666667","6500600","新店區"
"231035","515-UM","2017/11/06 15:19:45","新北市新店區安和路三段142號","121.516045","24.9861416666667","6500600","新店區"
"231001","619-UM","2017/11/06 15:19:39","新北市新店區北新路一段263號","121.541005","24.9663883333333","6500600","新店區"
"231003","641-BX","2017/11/06 15:19:40","新北市新店區寶高路120巷1-1號","121.554748333333","24.97599","6500600","新店區"
"231034","645-TV","2017/11/06 15:19:34","新北市新店區如意街3巷1號","121.49566","24.9493166666667","6500600","新店區"
"231039","718-UY","2017/11/06 15:19:40","新北市新店區寶元路一段65號","121.542206666667","24.985815","6500600","新店區"
"231018","719-UY","2017/11/06 15:19:34","新北市新店區中央七街38號","121.529001666667","24.9756683333333","6500600","新店區"
"231031","720-UM","2017/11/06 15:19:44","新北市新店區和成街12巷1號","121.488508333333","24.9478066666667","6500600","新店區"
"231005","897-TW","2017/11/06 15:19:43","新北市新店區民族路25號","121.541063333333","24.978655","6500600","新店區"
"231006","898-TW","2017/11/06 15:19:29","新北市新店區新坡一街16號","121.54844","24.96193","6500600","新店區"
"231004","899-TW","2017/11/06 15:19:45","新北市新店區建國路31號","121.540245","24.9741316666667","6500600","新店區"
"231037","AKT-0513","2017/11/06 15:19:44","新北市新店區安興路91巷16號","121.512916666667","24.9753366666667","6500600","新店區"
"241013","270-UM","2017/11/06 15:19:39","新北市三重區重新路四段121號","121.484818333333","25.0525566666667","6500200","三重區"
"235030","003-UY","2017/11/06 15:19:41","新北市中和區保平路362巷11號","121.505841666667","25.0040383333333","6500300","中和區"
"235028","005-UY","2017/11/06 15:19:31","新北市新店區安豐路30-1號","121.500648333333","24.956995","6500300","中和區"
"235014","4979-A6","2017/11/06 15:19:29","新北市中和區景安路82巷6弄1號","121.505146666667","24.9962633333333","6500300","中和區"
"235033","4980-A6","2017/11/06 15:19:32","新北市中和區南山路127巷27弄14號","121.503341666667","24.9979583333333","6500300","中和區"
"235006","551-UM","2017/11/06 13:40:38","新北市中和區成功路101巷7號","121.526486666667","24.9916816666667","6500300","中和區"
"235034","558-UM","2017/11/06 15:19:30","新北市中和區圓通路145巷4號","121.498401666667","24.9953833333333","6500300","中和區"
"235026","800-TS","2017/11/06 15:19:31","新北市新店區薏仁坑路2-1號","121.500406666667","24.9577666666667","6500300","中和區"
"235012","896-TW","2017/11/06 15:19:44","新北市中和區興南路一段14號","121.511425","24.9912166666667","6500300","中和區"
"235023","AAC-215","2017/11/06 15:19:44","新北市中和區圓通路316號","121.486153333333","24.9880583333333","6500300","中和區"
"220013","072-UY","2017/11/06 15:19:36","新北市三重區五谷王北街141巷1號","121.47868","25.0523433333333","6500100","板橋區"
"220017","AAD-861","2017/11/06 15:19:38","新北市板橋區貴興路111號","121.455838333333","25.0025116666667","6500100","板橋區"
"247009","339-TH","2017/11/06 15:19:29","新北市林口區太平里180號","121.368141666667","25.1347633333333","6501400","蘆洲區"
"247007","053-VK","2017/11/06 15:19:35","新北市八里區中山路三段409號","121.368361666667","25.134895","6501400","蘆洲區"
"223003","205-TH","2017/11/06 10:05:33","新北市石碇區小粗坑(潭邊里)9-2號","121.678843333333","24.9857866666667","6501900","石碇區"
"227001","400-TW","2017/11/06 14:53:40","新北市雙溪區三貂里政光路3-1號","121.85089","25.063025","6502500","雙溪區"
"208004","AAC-292","2017/11/06 15:19:42","新北市金山區法鼓路555號","121.614401666667","25.239615","6502700","金山區"
"207002","749-BX","2017/11/06 15:19:20","新北市萬里區崁腳里內中福路38-1號","121.659201666667","25.16395","6502800","萬里區"
"207001","662-BX","2017/11/06 15:19:28","新北市萬里區龜吼里美崙路95號","121.684578333333","25.1848766666667","6502800","萬里區"
"236064","105-UM","2017/11/06 15:19:39","新北市土城區裕民路185巷36弄10號","121.45439","24.9845416666667","6501300","土城區"
"236040","107-UM","2017/11/06 15:19:37","新北市土城區裕民路185巷7號","121.453926666667","24.9848316666667","6501300","土城區"
"236074","166-UM","2017/11/06 15:19:44","新北市土城區中央路四段294號","121.414203333333","24.9562383333333","6501300","土城區"
"236028","253-BX","2017/11/06 15:19:43","新北市土城區中央路一段294號","121.443331666667","24.9823783333333","6501300","土城區"
"236024","269-VK","2017/11/06 15:19:26","新北市土城區中央路二段149巷35號","121.443206666667","24.9768566666667","6501300","土城區"
"236012","270-VK","2017/11/06 15:19:44","新北市土城區廣福街68巷20號","121.458401666667","24.9904016666667","6501300","土城區"
"236032","271-VK","2017/11/06 15:19:31","新北市土城區國際路158巷54號","121.467966666667","24.974805","6501300","土城區"
"236016","401-BY","2017/11/06 15:19:39","新北市土城區峰廷街3號","121.469161666667","24.9873983333333","6501300","土城區"
"236044","752-BX","2017/11/06 15:19:41","新北市土城區明德路一段36號","121.465103333333","24.98451","6501300","土城區"
"236056","912-UM","2017/11/06 15:19:45","新北市土城區金城路一段5號","121.439266666667","24.9689383333333","6501300","土城區"
"236060","915-UM","2017/11/06 15:19:40","新北市土城區延平街33巷3號","121.467701666667","24.99171","6501300","土城區"
"236052","AAC-216","2017/11/06 15:19:36","新北市土城區學府路一段170號","121.453908333333","24.9865583333333","6501300","土城區"
"242001","233-RS","2017/11/06 09:13:40","新北市新莊區環河路48-7號","121.436935","25.0098066666667","6500500","新莊區"
"238002","755-BX","2017/11/06 15:19:48","新北市樹林區啟智街127巷27號","121.419296666667","24.98992","6500700","樹林區"
"238010","601-UM","2017/11/06 15:19:32","新北市樹林區大安路325號","121.417255","24.9916466666667","6500700","樹林區"
"238006","599-UM","2017/11/06 15:19:36","新北市樹林區八德街251巷9號","121.422251666667","24.9786383333333","6500700","樹林區"
"238005","571-TV","2017/11/06 15:19:41","新北市樹林區樹新路122號","121.43021","24.9984933333333","6500700","樹林區"
"238011","5061-A6","2017/11/06 15:19:48","新北市樹林區鎮前街72號","121.425605","24.9922083333333","6500700","樹林區"
"238008","KEA-2217","2017/11/06 15:19:30","新北市樹林區西圳街165巷20弄26號","121.395576666667","24.960045","6500700","樹林區"
"238009","KEA-2213","2017/11/06 15:19:38","新北市樹林區忠孝街31號","121.423688333333","24.982165","6500700","樹林區"
"238012","303-VK","2017/11/06 15:19:43","新北市樹林區中山路一段296號","121.42032","24.986415","6500700","樹林區"
"238004","283-BY","2017/11/06 15:19:43","新北市樹林區八德街222號","121.415825","24.97208","6500700","樹林區"
"238001","282-BY","2017/11/06 15:19:33","新北市樹林區大安路179號","121.421191666667","24.9963","6500700","樹林區"
"238007","268-VK","2017/11/06 15:19:23","新北市樹林區八德街170號","121.42168","24.9780183333333","6500700","樹林區"
"238013","172-UY","2017/11/06 15:19:44","新北市樹林區味王街36號","121.404445","24.9741866666667","6500700","樹林區"
"238003","169-UY","2017/11/06 15:19:44","新北市樹林區中山路二段34號","121.417396666667","24.984925","6500700","樹林區"
"221023","279-VK","2017/11/06 15:01:57","新北市汐止區汐萬路一段256巷1號","121.651705","25.0748766666667","6501100","汐止區"
"221032","280-BY","2017/11/06 15:19:28","新北市汐止區連興街143號","121.654115","25.06153","6501100","汐止區"
"221018","753-BX","2017/11/06 15:19:34","新北市汐止區汐萬路一段256巷3號","121.653383333333","25.0748066666667","6501100","汐止區"
"220027","145-BY","2017/11/06 15:19:38","新北市八里區商港路2號","121.397511666667","25.1441133333333","6500100","板橋區"
"220030","610-BX","2017/11/06 15:19:33","新北市板橋區大觀路三段95號","121.432871666667","24.99475","6500100","板橋區"
"220050","280-UM","2017/11/06 15:19:46","新北市板橋區雙十路二段47巷2弄16號","121.47572","25.0265966666667","6500100","板橋區"
"220031","286-VK","2017/11/06 15:19:37","新北市板橋區僑中二街102巷16號","121.445443333333","25.0084433333333","6500100","板橋區"
"220029","287-VK","2017/11/06 15:19:37","新北市板橋區僑中一街80巷1弄17號","121.446758333333","25.0119783333333","6500100","板橋區"
"220010","303-R5","2017/11/06 15:19:44","新北市五股區凌雲路三段24巷9號","121.43624","25.1069533333333","6500100","板橋區"
"220012","486-VK","2017/11/06 15:19:35","新北市板橋區長安街331巷1號","121.4743","25.0121133333333","6500100","板橋區"
"220038","487-VK","2017/11/06 15:19:38","新北市板橋區互助街13號","121.463071666667","25.0276266666667","6500100","板橋區"
"220037","491-VK","2017/11/06 15:19:28","新北市板橋區民治街92號","121.479195","25.031745","6500100","板橋區"
"220052","561-BX","2017/11/06 15:19:26","新北市板橋區新海路123號","121.460941666667","25.0229466666667","6500100","板橋區"
"220011","609-BX","2017/11/06 15:19:47","新北市板橋區三民路一段139號","121.47924","25.0199533333333","6500100","板橋區"
"220042","689-BX","2017/11/06 15:19:34","新北市板橋區長江路二段110號","121.465308333333","25.03151","6500100","板橋區"
"220051","830-TW","2017/11/06 15:19:39","新北市板橋區漢生東路7號","121.46449","25.0173483333333","6500100","板橋區"
"220018","AAC-253","2017/11/06 15:19:41","新北市板橋區德興街36號","121.453446666667","24.9937116666667","6500100","板橋區"
