"lineid","car","time","location","longitude","latitude","cityid","cityname"
"244025","742-UY","2017/11/06 10:16:27","新北市林口區粉寮路二段160巷28號","121.40525","25.0907233333333","6501700","林口區"
"231028","046-UY","2017/11/06 15:39:31","新北市新店區僑信路2巷2號","121.499785","24.95358","6500600","新店區"
"231030","047-UY","2017/11/06 15:39:39","新北市新店區永安街109巷11號","121.521415","24.985905","6500600","新店區"
"231029","106-UY","2017/11/06 15:39:42","新北市新店區安康路三段165巷2-1號","121.489528333333","24.9517783333333","6500600","新店區"
"231011","108-UY","2017/11/06 15:39:42","新北市新店區文化路79號","121.544935","24.9826416666667","6500600","新店區"
"231019","187-VK","2017/11/06 15:39:37","新北市新店區新烏路一段87巷3號","121.546201666667","24.9418733333333","6500600","新店區"
"231014","KEA-2219","2017/11/06 15:39:47","新北市新店區北宜路二段85號","121.550151666667","24.9521066666667","6500600","新店區"
"231026","256-BX","2017/11/06 15:39:34","新北市新店區三民路75巷3弄2號","121.535628333333","24.97092","6500600","新店區"
"231046","278-BY","2017/11/06 15:39:31","新北市新店區安華路28-1號","121.519805","24.961125","6500600","新店區"
"231038","4715-K9","2017/11/06 15:39:28","新北市新店區安康路一段258號","121.520655","24.9639916666667","6500600","新店區"
"231036","512-UM","2017/11/06 15:39:25","新北市新店區安祥路67巷43號","121.486116666667","24.95998","6500600","新店區"
"231023","513-UM","2017/11/06 15:39:32","新北市新店區五峰路48巷1號","121.544855","24.96866","6500600","新店區"
"231035","515-UM","2017/11/06 15:39:45","新北市新店區安興路96-1號","121.51514","24.97648","6500600","新店區"
"231003","641-BX","2017/11/06 15:39:40","新北市新店區中興路二段196號","121.548406666667","24.97397","6500600","新店區"
"231034","645-TV","2017/11/06 15:39:33","新北市新店區玫瑰路58巷15號","121.494738333333","24.9466","6500600","新店區"
"231039","718-UY","2017/11/06 15:39:40","新北市新店區寶元路二段36號","121.546548333333","24.9817333333333","6500600","新店區"
"231013","719-UM","2017/11/06 15:39:28","新北市新店區永業路81巷34號","121.530138333333","24.9483616666667","6500600","新店區"
"231018","719-UY","2017/11/06 15:39:34","新北市新店區民生路132號","121.529111666667","24.9814583333333","6500600","新店區"
"231031","720-UM","2017/11/06 15:39:44","新北市新店區雙城路113號","121.492675","24.94764","6500600","新店區"
"231005","897-TW","2017/11/06 15:39:43","新北市新店區民族路190號","121.536368333333","24.97556","6500600","新店區"
"231004","899-TW","2017/11/06 15:39:45","新北市新店區民族路108號","121.538186666667","24.977345","6500600","新店區"
"231037","AKT-0513","2017/11/06 15:39:44","新北市新店區安興路112號","121.514811666667","24.9776183333333","6500600","新店區"
"241011","013-R5","2017/11/06 15:39:47","新北市三重區河邊北街174巷1號","121.503161666667","25.0738216666667","6500200","三重區"
"241028","022-UY","2017/11/06 15:39:32","新北市三重區重新路四段121號","121.484801666667","25.0524866666667","6500200","三重區"
"241015","062-VK","2017/11/06 15:39:39","新北市三重區重新路四段121號","121.485135","25.0520816666667","6500200","三重區"
"241017","063-VK","2017/11/06 15:39:28","新北市三重區中正北路9號","121.492765","25.0614116666667","6500200","三重區"
"241003","091-VK","2017/11/06 15:39:36","新北市三重區重新路四段121號","121.484955","25.051765","6500200","三重區"
"241005","262-UM","2017/11/06 15:39:28","新北市三重區重新路四段121號","121.484655","25.0519016666667","6500200","三重區"
"241029","265-UM","2017/11/06 15:39:33","新北市三重區大同南路202號","121.496751666667","25.0567016666667","6500200","三重區"
"241018","268-UM","2017/11/06 15:39:41","新北市三重區重新路四段121號","121.484966666667","25.0524316666667","6500200","三重區"
"241013","270-UM","2017/11/06 15:39:39","新北市三重區忠孝路二段126號","121.482876666667","25.0686983333333","6500200","三重區"
"241007","398-BY","2017/11/06 15:39:35","新北市三重區重新路四段121號","121.485275","25.05201","6500200","三重區"
"241014","543-UM","2017/11/06 15:39:34","新北市三重區重新路四段121號","121.4851","25.0520733333333","6500200","三重區"
"241023","545-UM","2017/11/06 15:39:45","新北市三重區重新路四段121號","121.48482","25.0525233333333","6500200","三重區"
"241006","AAD-863","2017/11/06 15:39:39","新北市三重區重新路四段121號","121.484701666667","25.05214","6500200","三重區"
"241020","887-TS","2017/11/06 15:39:46","新北市三重區忠孝路二段134號","121.482691666667","25.06849","6500200","三重區"
"241033","AAC-255","2017/11/06 15:39:38","新北市三重區重新路五段283號","121.47933","25.0492716666667","6500200","三重區"
"235028","005-UY","2017/11/06 15:39:31","新北市中和區中正路501號","121.489065","24.994045","6500300","中和區"
"235033","4980-A6","2017/11/06 15:39:32","新北市中和區員山路226巷3弄5號","121.481673333333","25.0010983333333","6500300","中和區"
"235006","551-UM","2017/11/06 13:40:38","新北市中和區成功路101巷7號","121.526486666667","24.9916816666667","6500300","中和區"
"235026","800-TS","2017/11/06 15:39:30","新北市中和區橋和路117-1號","121.491555","25.0057283333333","6500300","中和區"
"235023","AAC-215","2017/11/06 15:39:44","新北市中和區員山路31-4號","121.480501666667","24.987585","6500300","中和區"
"247007","053-VK","2017/11/06 15:39:35","新北市五股區成泰路三段320號","121.450448333333","25.0969616666667","6501400","蘆洲區"
"223003","205-TH","2017/11/06 10:05:33","新北市石碇區小粗坑(潭邊里)9-2號","121.678843333333","24.9857866666667","6501900","石碇區"
"227001","400-TW","2017/11/06 15:39:44","新北市雙溪區牡丹里頂坪5-1號","121.862986666667","25.0387783333333","6502500","雙溪區"
"208004","AAC-292","2017/11/06 15:39:46","新北市金山區月眉26-6號","121.630611666667","25.21627","6502700","金山區"
"236064","105-UM","2017/11/06 15:39:39","新北市土城區中央路三段119-1號","121.434196666667","24.96576","6501300","土城區"
"236040","107-UM","2017/11/06 15:39:37","新北市土城區學享街11號","121.45083","24.9872966666667","6501300","土城區"
"236074","166-UM","2017/11/06 15:39:44","新北市土城區民權街8號","121.415948333333","24.9628516666667","6501300","土城區"
"236028","253-BX","2017/11/06 15:39:23","新北市土城區中央路一段116號","121.446541666667","24.9880633333333","6501300","土城區"
"236024","269-VK","2017/11/06 15:39:46","新北市土城區明德路二段293號","121.444633333333","24.98416","6501300","土城區"
"236012","270-VK","2017/11/06 15:39:46","新北市土城區四川路2號","121.45572","24.996295","6501300","土城區"
"236032","271-VK","2017/11/06 15:39:32","新北市土城區延吉街312號","121.463886666667","24.9839733333333","6501300","土城區"
"236016","401-BY","2017/11/06 15:39:39","新北市土城區延吉街90號","121.470638333333","24.9864416666667","6501300","土城區"
"236044","752-BX","2017/11/06 15:39:41","新北市土城區金城路三段309號","121.474493333333","24.9909566666667","6501300","土城區"
"236056","912-UM","2017/11/06 15:39:45","新北市土城區中央路一段218號","121.444906666667","24.98538","6501300","土城區"
"236060","915-UM","2017/11/06 15:39:39","新北市土城區立德路135巷10號","121.46487","24.986915","6501300","土城區"
"236052","AAC-216","2017/11/06 15:39:36","新北市土城區學府路一段12號","121.4593","24.9884866666667","6501300","土城區"
"242001","233-RS","2017/11/06 09:13:40","新北市新莊區環河路48-7號","121.436935","25.0098066666667","6500500","新莊區"
"238002","755-BX","2017/11/06 15:39:28","新北市樹林區日新街81號","121.42172","24.99048","6500700","樹林區"
"238010","601-UM","2017/11/06 15:39:46","新北市樹林區三福街44號","121.407828333333","25.0164216666667","6500700","樹林區"
"238006","599-UM","2017/11/06 15:39:36","新北市樹林區太平路106號","121.41852","24.978865","6500700","樹林區"
"238005","571-TV","2017/11/06 15:39:41","新北市樹林區鎮前街273號","121.419626666667","24.9858083333333","6500700","樹林區"
"238011","5061-A6","2017/11/06 15:39:28","新北市樹林區東豐街10-1號","121.417305","24.9752016666667","6500700","樹林區"
"238008","KEA-2217","2017/11/06 15:39:30","新北市樹林區柑園街一段67號","121.402378333333","24.9602633333333","6500700","樹林區"
"238009","KEA-2213","2017/11/06 15:39:38","新北市樹林區和平街2巷4號","121.420886666667","24.98143","6500700","樹林區"
"238012","303-VK","2017/11/06 15:39:42","新北市樹林區中山路二段72-1號","121.415468333333","24.9840233333333","6500700","樹林區"
"238004","283-BY","2017/11/06 15:39:43","新北市樹林區保安街二段337巷8弄2號","121.411235","25.008265","6500700","樹林區"
"238001","282-BY","2017/11/06 15:39:41","新北市樹林區潭興街107巷21弄16號","121.4239","24.998865","6500700","樹林區"
"238007","268-VK","2017/11/06 15:39:43","新北市樹林區俊英街160巷12號","121.427871666667","25.0070066666667","6500700","樹林區"
"238013","172-UY","2017/11/06 15:39:42","新北市樹林區新興街36號","121.39972","24.9706066666667","6500700","樹林區"
"238003","169-UY","2017/11/06 15:39:44","新北市樹林區育英街25號","121.421618333333","24.9891333333333","6500700","樹林區"
"221023","279-VK","2017/11/06 15:01:57","新北市汐止區汐萬路一段256巷1號","121.651705","25.0748766666667","6501100","汐止區"
"221018","753-BX","2017/11/06 15:39:34","新北市汐止區汐萬路一段256巷3號","121.653191666667","25.0745033333333","6501100","汐止區"
"220027","145-BY","2017/11/06 15:39:38","新北市八里區下罟子1-13號","121.38955","25.1421883333333","6500100","板橋區"
"220050","280-UM","2017/11/06 15:39:46","新北市板橋區漢生東路83巷1號","121.46643","25.0158266666667","6500100","板橋區"
"220031","286-VK","2017/11/06 15:39:37","新北市板橋區僑中二街116巷39號","121.444005","25.0066333333333","6500100","板橋區"
"220010","303-R5","2017/11/06 15:39:44","新北市八里區中山路三段250號","121.381273333333","25.140175","6500100","板橋區"
"220038","487-VK","2017/11/06 15:39:46","新北市板橋區四維路307號","121.463095","25.0286433333333","6500100","板橋區"
"220052","561-BX","2017/11/06 15:39:26","新北市板橋區漢生東路53巷10號","121.466256666667","25.0169566666667","6500100","板橋區"
