"lineid","car","time","location","longitude","latitude","cityid","cityname"
"249005","172-UM","2017/11/06 16:39:41","新北市八里區龍米路三段47-1號","121.424858333333","25.1580866666667","6502300","八里區"
"249002","305-UY","2017/11/06 16:39:23","新北市八里區大堀湖22-9號","121.429648333333","25.1482166666667","6502300","八里區"
"249003","593-UM","2017/11/06 16:39:38","新北市八里區博物館路10-1號","121.415205","25.16405","6502300","八里區"
"244025","742-UY","2017/11/06 10:16:27","新北市林口區粉寮路二段160巷28號","121.40525","25.0907233333333","6501700","林口區"
"243016","680-BX","2017/11/06 16:00:44","新北市泰山區犁頭窠3-1號","121.421946666667","25.0603783333333","6501600","泰山區"
"231046","278-BY","2017/11/06 16:39:31","新北市新店區灣潭路55號","121.540655","24.942645","6500600","新店區"
"231018","719-UY","2017/11/06 16:39:34","新北市新店區薏仁坑路6-3號","121.499735","24.9586016666667","6500600","新店區"
"241011","013-R5","2017/11/06 16:39:26","新北市三重區秀江街209號","121.497543333333","25.0718116666667","6500200","三重區"
"241028","022-UY","2017/11/06 16:39:32","新北市三重區重新路三段82號","121.493241666667","25.0607566666667","6500200","三重區"
"241008","059-VK","2017/11/06 16:39:30","新北市三重區永安北路一段27巷23號","121.477253333333","25.0755133333333","6500200","三重區"
"241009","060-VK","2017/11/06 16:39:44","新北市三重區三和路四段203巷6號","121.482306666667","25.0795783333333","6500200","三重區"
"241031","061-VK","2017/11/06 16:39:35","新北市三重區重新路四段41巷24號","121.487411666667","25.0582766666667","6500200","三重區"
"241015","062-VK","2017/11/06 16:39:38","新北市三重區文化北路37號","121.499003333333","25.0650433333333","6500200","三重區"
"241017","063-VK","2017/11/06 16:39:28","新北市三重區中正北路25巷2號","121.493253333333","25.0627266666667","6500200","三重區"
"241024","065-VK","2017/11/06 16:39:46","新北市三重區中正北路315巷6弄80號","121.477206666667","25.0725583333333","6500200","三重區"
"241026","066-VK","2017/11/06 16:39:32","新北市三重區福和街1號","121.503091666667","25.0618566666667","6500200","三重區"
"241002","090-VK","2017/11/06 16:39:40","新北市三重區仁義街241巷10號","121.49656","25.0828333333333","6500200","三重區"
"241003","091-VK","2017/11/06 16:39:36","新北市三重區五華街71巷76號","121.493821666667","25.0837383333333","6500200","三重區"
"241005","262-UM","2017/11/06 16:39:28","新北市三重區仁華街122號","121.486296666667","25.0832066666667","6500200","三重區"
"241029","265-UM","2017/11/06 16:39:32","新北市三重區集美街112巷17號","121.489568333333","25.0542733333333","6500200","三重區"
"241016","266-UM","2017/11/06 16:39:33","新北市三重區大智街1-1號","121.494791666667","25.0648983333333","6500200","三重區"
"241022","267-UM","2017/11/06 16:39:42","新北市三重區三民街86號","121.485393333333","25.0627816666667","6500200","三重區"
"241018","268-UM","2017/11/06 16:39:41","新北市三重區正義北路338巷50號","121.493096666667","25.070255","6500200","三重區"
"241032","269-UM","2017/11/06 16:39:36","新北市三重區新北大道一段29號","121.486211666667","25.0613283333333","6500200","三重區"
"241013","270-UM","2017/11/06 16:39:39","新北市三重區三和路三段101巷64號","121.496261666667","25.0730416666667","6500200","三重區"
"241025","271-UM","2017/11/06 16:39:30","新北市三重區中正北路428巷17號","121.474533333333","25.069995","6500200","三重區"
"241007","398-BY","2017/11/06 16:39:35","新北市三重區三和路四段167巷94號","121.485548333333","25.079575","6500200","三重區"
"241004","475-VK","2017/11/06 16:39:39","新北市三重區五福街13號","121.492695","25.0816566666667","6500200","三重區"
"241019","478-VK","2017/11/06 16:39:37","新北市三重區重陽路三段142-1號","121.489448333333","25.0672083333333","6500200","三重區"
"241030","480-VK","2017/11/06 16:39:41","新北市三重區環河南路286號","121.489085","25.0488366666667","6500200","三重區"
"241014","543-UM","2017/11/06 16:39:34","新北市三重區龍濱路26號","121.502921666667","25.0680083333333","6500200","三重區"
"241023","545-UM","2017/11/06 16:39:25","新北市三重區忠孝路三段50巷84號","121.483053333333","25.0644866666667","6500200","三重區"
"241001","547-UM","2017/11/06 16:39:36","新北市三重區仁愛街202號","121.493801666667","25.07741","6500200","三重區"
"241006","AAD-863","2017/11/06 16:39:39","新北市三重區車路頭街138-2號","121.483631666667","25.075405","6500200","三重區"
"241020","887-TS","2017/11/06 16:39:26","新北市三重區後竹圍街177號","121.485866666667","25.07182","6500200","三重區"
"241012","941-UM","2017/11/06 16:39:35","新北市三重區仁興街3巷31號","121.500815","25.0740916666667","6500200","三重區"
"241033","AAC-255","2017/11/06 16:39:38","新北市三重區光復路二段5號","121.472058333333","25.0538866666667","6500200","三重區"
"235006","551-UM","2017/11/06 13:40:38","新北市中和區成功路101巷7號","121.526486666667","24.9916816666667","6500300","中和區"
"235026","800-TS","2017/11/06 16:39:30","新北市中和區連城路222巷6弄2號","121.490805","24.997855","6500300","中和區"
"247002","337-TH","2017/11/06 16:39:31","新北市五股區成泰路三段544-1號","121.453576666667","25.1025783333333","6501400","蘆洲區"
"247004","336-TH","2017/11/06 16:39:29","新北市五股區凌雲路一段25號","121.452263333333","25.0997116666667","6501400","蘆洲區"
"247016","057-VK","2017/11/06 16:39:42","新北市蘆洲區中正路516巷38-5號","121.461333333333","25.0983533333333","6501400","蘆洲區"
"247006","056-VK","2017/11/06 16:39:28","新北市蘆洲區永安南路二段252號","121.459896666667","25.080135","6501400","蘆洲區"
"223003","205-TH","2017/11/06 10:05:33","新北市石碇區小粗坑(潭邊里)9-2號","121.678843333333","24.9857866666667","6501900","石碇區"
"224010","AGQ-8101","2017/11/06 09:26:49","新北市瑞芳區明燈路二段44-1號","121.809573333333","25.1082966666667","6501200","瑞芳區"
"224006","676-BX","2017/11/06 16:39:32","新北市瑞芳區大寮路356-1號","121.784813333333","25.1032616666667","6501200","瑞芳區"
"224008","275-VK","2017/11/06 16:39:34","新北市瑞芳區逢甲路17號","121.809411666667","25.1084533333333","6501200","瑞芳區"
"224007","273-VK","2017/11/06 16:39:31","新北市瑞芳區月眉路41號","121.760433333333","25.10966","6501200","瑞芳區"
"224005","271-BY","2017/11/06 16:39:33","新北市瑞芳區洞頂路132-1號","121.862043333333","25.1235316666667","6501200","瑞芳區"
"227008","642-TC","2017/11/06 16:39:29","新北市雙溪區牡丹里中正路58巷34號","121.866171666667","25.0419733333333","6502500","雙溪區"
"227001","400-TW","2017/11/06 16:39:44","新北市雙溪區外柑里外柑腳36號","121.80894","25.0201616666667","6502500","雙溪區"
"251008","181-VK","2017/11/06 16:39:27","台北市北投區中央北路四段30巷160號","121.474161666667","25.1404633333333","6501000","淡水區"
"251013","182-VK","2017/11/06 16:39:42","新北市淡水區楓樹湖12-2號","121.498876666667","25.1868266666667","6501000","淡水區"
"251015","442-VK","2017/11/06 16:39:37","新北市淡水區忠愛街4號","121.4595","25.1713433333333","6501000","淡水區"
"252002","178-VK","2017/11/06 16:39:41","新北市三芝區芝柏五街1號","121.511018333333","25.2568316666667","6502100","三芝區"
"242001","233-RS","2017/11/06 09:13:40","新北市新莊區環河路48-7號","121.436935","25.0098066666667","6500500","新莊區"
"242013","346-TH","2017/11/06 10:58:56","新北市新莊區三和路12-16號","121.441853333333","25.03741","6500500","新莊區"
"238025","303-VK","2017/11/06 16:39:27","新北市樹林區中正路22-1號","121.427918333333","24.9993916666667","6500700","樹林區"
"238004","283-BY","2017/11/06 16:39:43","新北市樹林區光武街28號","121.415851666667","25.0054966666667","6500700","樹林區"
"238001","282-BY","2017/11/06 16:39:32","新北市樹林區大慶街99-1號","121.427653333333","24.9997833333333","6500700","樹林區"
"238007","268-VK","2017/11/06 16:39:23","新北市樹林區啟智街156巷1號","121.41471","24.9875933333333","6500700","樹林區"
"239007","AAC-297","2017/11/06 04:49:51","新北市鶯歌區二甲路13-16號","121.345043333333","24.9352216666667","6500800","鶯歌區"
"239005","526-UM","2017/11/06 03:14:43","新北市鶯歌區二甲路13-16號","121.345048333333","24.9350266666667","6500800","鶯歌區"
"239003","360-BY","2017/11/06 16:39:41","新北市鶯歌區二甲路12-2號","121.34553","24.935145","6500800","鶯歌區"
"221023","279-VK","2017/11/06 15:01:57","新北市汐止區汐萬路一段256巷1號","121.651705","25.0748766666667","6501100","汐止區"
