"lineid","car","time","location","longitude","latitude","cityid","cityname"
"249005","172-UM","2017/11/06 16:49:41","新北市八里區大堀湖2-3號","121.422413333333","25.1536716666667","6502300","八里區"
"249004","303-UY","2017/11/06 16:49:20","新北市八里區博物館路29號","121.413875","25.16268","6502300","八里區"
"249002","305-UY","2017/11/06 16:49:43","新北市八里區牛寮埔31號","121.429796666667","25.1456633333333","6502300","八里區"
"249003","593-UM","2017/11/06 16:49:38","新北市八里區中山路二段277號","121.401918333333","25.1487266666667","6502300","八里區"
"244007","080-UY","2017/11/06 16:49:41","新北市林口區林口路108號","121.388728333333","25.081285","6501700","林口區"
"244025","742-UY","2017/11/06 10:16:27","新北市林口區粉寮路二段160巷28號","121.40525","25.0907233333333","6501700","林口區"
"243016","680-BX","2017/11/06 16:00:44","新北市泰山區犁頭窠3-1號","121.421946666667","25.0603783333333","6501600","泰山區"
"231046","278-BY","2017/11/06 16:49:31","新北市新店區灣潭路15-8號","121.541208333333","24.9393283333333","6500600","新店區"
"231018","719-UY","2017/11/06 16:49:34","新北市新店區安豐路22巷7號","121.50097","24.9541266666667","6500600","新店區"
"241011","013-R5","2017/11/06 16:49:46","新北市三重區仁愛街53巷134號","121.499195","25.0726616666667","6500200","三重區"
"241028","022-UY","2017/11/06 16:49:32","新北市三重區光興街89號","121.497438333333","25.05995","6500200","三重區"
"241008","059-VK","2017/11/06 16:49:30","新北市三重區永福街179巷25號","121.478025","25.074935","6500200","三重區"
"241009","060-VK","2017/11/06 16:49:44","新北市三重區三和路四段203巷222號","121.486675","25.080825","6500200","三重區"
"241031","061-VK","2017/11/06 16:49:35","新北市三重區重陽路一段113巷8號","121.488106666667","25.0599333333333","6500200","三重區"
"241015","062-VK","2017/11/06 16:49:38","新北市三重區文化北路43巷17號","121.499435","25.06552","6500200","三重區"
"241017","063-VK","2017/11/06 16:49:43","新北市三重區國隆路6號","121.493426666667","25.06361","6500200","三重區"
"241024","065-VK","2017/11/06 16:49:25","新北市三重區中正北路317巷36號","121.476161666667","25.0731433333333","6500200","三重區"
"241026","066-VK","2017/11/06 16:49:32","新北市三重區文化南路8-4號","121.500351666667","25.0621","6500200","三重區"
"241002","090-VK","2017/11/06 16:49:40","新北市三重區仁義街209號","121.49689","25.0818316666667","6500200","三重區"
"241003","091-VK","2017/11/06 16:49:36","新北市三重區五華街87巷20號","121.492678333333","25.0837666666667","6500200","三重區"
"241005","262-UM","2017/11/06 16:49:28","新北市三重區仁華街80巷13號","121.484631666667","25.0834716666667","6500200","三重區"
"241029","265-UM","2017/11/06 16:49:32","新北市三重區新興路31巷8號","121.49232","25.0538016666667","6500200","三重區"
"241016","266-UM","2017/11/06 16:49:33","新北市三重區大同北路135巷38號","121.493698333333","25.0648616666667","6500200","三重區"
"241022","267-UM","2017/11/06 16:49:42","新北市三重區中華路109號","121.483635","25.0635183333333","6500200","三重區"
"241018","268-UM","2017/11/06 16:49:41","新北市三重區安樂街92號","121.494653333333","25.0692883333333","6500200","三重區"
"241032","269-UM","2017/11/06 16:49:36","新北市三重區三光街30巷7號","121.484405","25.06033","6500200","三重區"
"241013","270-UM","2017/11/06 16:49:39","新北市三重區仁壽街21號","121.496676666667","25.0733383333333","6500200","三重區"
"241025","271-UM","2017/11/06 16:49:30","新北市三重區中正北路530巷11號","121.471983333333","25.0706116666667","6500200","三重區"
"241007","398-BY","2017/11/06 16:49:35","新北市三重區三和路四段181巷140號","121.48557","25.0798883333333","6500200","三重區"
"241004","475-VK","2017/11/06 16:49:39","新北市三重區仁愛街397巷12號","121.491406666667","25.0811483333333","6500200","三重區"
"241019","478-VK","2017/11/06 16:49:37","新北市三重區力行路一段179巷17弄1號","121.48516","25.0699866666667","6500200","三重區"
"241030","480-VK","2017/11/06 16:49:41","新北市三重區新興路4號","121.492703333333","25.0527766666667","6500200","三重區"
"241014","543-UM","2017/11/06 16:49:34","新北市三重區長榮路75號","121.50263","25.0691","6500200","三重區"
"241023","545-UM","2017/11/06 16:49:45","新北市三重區新北大道一段206巷42號","121.482541666667","25.06258","6500200","三重區"
"241001","547-UM","2017/11/06 16:49:36","新北市三重區仁政街56號","121.492825","25.0769466666667","6500200","三重區"
"241006","AAD-863","2017/11/06 16:49:39","新北市三重區力行路二段184號","121.483358333333","25.077365","6500200","三重區"
"241020","887-TS","2017/11/06 16:49:46","新北市三重區忠孝路二段34號","121.485741666667","25.0709633333333","6500200","三重區"
"241012","941-UM","2017/11/06 16:49:35","新北市三重區仁興街11巷32號","121.500548333333","25.0743516666667","6500200","三重區"
"241033","AAC-255","2017/11/06 16:49:38","新北市三重區新北大道二段139巷9號","121.466333333333","25.0607833333333","6500200","三重區"
"235006","551-UM","2017/11/06 13:40:38","新北市中和區成功路101巷7號","121.526486666667","24.9916816666667","6500300","中和區"
"235062","800-TS","2017/11/06 16:48:28","新北市中和區員山路36巷16-3號","121.484873333333","24.9915766666667","6500300","中和區"
"247002","337-TH","2017/11/06 16:49:31","新北市蘆洲區永平街16號","121.459208333333","25.0907233333333","6501400","蘆洲區"
"247004","336-TH","2017/11/06 16:49:29","新北市蘆洲區長榮路155號","121.461683333333","25.0841383333333","6501400","蘆洲區"
"247016","057-VK","2017/11/06 16:49:42","新北市蘆洲區中正路100號","121.469913333333","25.0841166666667","6501400","蘆洲區"
"247006","056-VK","2017/11/06 16:49:28","新北市蘆洲區永安南路二段132-1號","121.462615","25.0785716666667","6501400","蘆洲區"
"247018","001-UY","2017/11/06 16:49:25","新北市蘆洲區中正路520巷9號","121.462328333333","25.09955","6501400","蘆洲區"
"223003","205-TH","2017/11/06 10:05:33","新北市石碇區小粗坑(潭邊里)9-2號","121.678843333333","24.9857866666667","6501900","石碇區"
"228003","097-TW","2017/11/06 16:49:34","新北市貢寮區貢寮里朝陽街1-2號","121.91235","25.0212466666667","6502600","貢寮區"
"228002","585-TW","2017/11/06 16:49:33","新北市貢寮區貢寮里朝陽街140巷5號","121.907261666667","25.0225716666667","6502600","貢寮區"
"228001","670-TC","2017/11/06 16:49:33","新北市貢寮區貢寮里朝陽街1-2號","121.912278333333","25.0212383333333","6502600","貢寮區"
"224010","AGQ-8101","2017/11/06 09:26:49","新北市瑞芳區明燈路二段44-1號","121.809573333333","25.1082966666667","6501200","瑞芳區"
"224006","676-BX","2017/11/06 16:49:32","新北市瑞芳區大寮路356-1號","121.784803333333","25.1032533333333","6501200","瑞芳區"
"224008","275-VK","2017/11/06 16:49:34","新北市瑞芳區逢甲路17號","121.809381666667","25.1084083333333","6501200","瑞芳區"
"224007","273-VK","2017/11/06 16:49:31","新北市瑞芳區中央路23號","121.762013333333","25.103415","6501200","瑞芳區"
"224005","271-BY","2017/11/06 16:49:33","新北市瑞芳區洞頂路157號","121.861356666667","25.122885","6501200","瑞芳區"
"227008","642-TC","2017/11/06 16:49:29","新北市雙溪區牡丹里石1號","121.864108333333","25.0520233333333","6502500","雙溪區"
"227001","400-TW","2017/11/06 16:49:44","新北市雙溪區外柑里外柑腳79號","121.806343333333","25.0176583333333","6502500","雙溪區"
"251007","179-VK","2017/11/06 16:49:29","新北市淡水區中正路二段31號","121.419458333333","25.1816183333333","6501000","淡水區"
"251008","181-VK","2017/11/06 16:49:27","新北市淡水區樹梅坑35號","121.474593333333","25.143855","6501000","淡水區"
"251013","182-VK","2017/11/06 16:49:42","新北市淡水區北新路三段171號","121.490968333333","25.1923666666667","6501000","淡水區"
"251015","442-VK","2017/11/06 16:49:37","新北市淡水區忠愛街5-2號","121.460605","25.171665","6501000","淡水區"
"251011","650-BX","2017/11/06 16:49:37","新北市淡水區中正路二段31號","121.419091666667","25.182085","6501000","淡水區"
"252002","178-VK","2017/11/06 16:49:41","新北市三芝區忠孝街85號","121.505898333333","25.2567383333333","6502100","三芝區"
"252001","292-VK","2017/11/06 16:49:31","新北市三芝區淡金路二段76-1號","121.503878333333","25.2608583333333","6502100","三芝區"
"242001","233-RS","2017/11/06 09:13:40","新北市新莊區環河路48-7號","121.436935","25.0098066666667","6500500","新莊區"
"242013","346-TH","2017/11/06 10:58:56","新北市新莊區三和路12-16號","121.441853333333","25.03741","6500500","新莊區"
"242017","350-TH","2017/11/06 10:10:08","新北市新莊區三和路12-21號","121.441776666667","25.038755","6500500","新莊區"
"242011","351-TH","2017/11/06 16:49:44","新北市新莊區新泰路357巷3弄57號","121.442056666667","25.0395833333333","6500500","新莊區"
"238025","303-VK","2017/11/06 16:49:47","新北市樹林區中正路22-1號","121.427915","24.99937","6500700","樹林區"
"238004","283-BY","2017/11/06 16:49:43","新北市樹林區光武街28號","121.415861666667","25.0055016666667","6500700","樹林區"
"238001","282-BY","2017/11/06 16:49:32","新北市樹林區中正路22-1號","121.427773333333","24.9996366666667","6500700","樹林區"
"239007","AAC-297","2017/11/06 04:49:51","新北市鶯歌區二甲路13-16號","121.345043333333","24.9352216666667","6500800","鶯歌區"
"239008","527-UM","2017/11/06 02:07:57","新北市鶯歌區二甲路13-16號","121.345008333333","24.93516","6500800","鶯歌區"
"239005","526-UM","2017/11/06 03:14:43","新北市鶯歌區二甲路13-16號","121.345048333333","24.9350266666667","6500800","鶯歌區"
"239001","417-VK","2017/11/06 11:06:18","新北市鶯歌區二甲路13號","121.344051666667","24.9353933333333","6500800","鶯歌區"
"239003","360-BY","2017/11/06 16:49:41","新北市鶯歌區二甲路13-16號","121.345443333333","24.935105","6500800","鶯歌區"
"239002","359-BY","2017/11/04 20:30:46","新北市鶯歌區二甲路13號","121.343755","24.93552","6500800","鶯歌區"
"239004","193-VK","2017/11/05 03:18:35","新北市鶯歌區二甲路13號","121.343771666667","24.9353816666667","6500800","鶯歌區"
"221023","279-VK","2017/11/06 15:01:57","新北市汐止區汐萬路一段256巷1號","121.651705","25.0748766666667","6501100","汐止區"
