"lineid","car","time","location","longitude","latitude","cityid","cityname"
"234007","207-UY","2017/11/06 18:09:34","新北市永和區環河東路二段10號","121.52231","25.0133633333333","6500400","永和區"
"234026","9381-KE","2017/11/06 18:09:37","新北市永和區秀朗路一段10巷21號","121.513293333333","25.00621","6500400","永和區"
"249005","172-UM","2017/11/06 18:09:41","新北市八里區荖阡坑路15號","121.401365","25.13949","6502300","八里區"
"249001","173-UM","2017/11/06 18:09:27","新北市八里區龍米路二段36號","121.448556666667","25.1400833333333","6502300","八里區"
"249004","303-UY","2017/11/06 18:09:40","新北市八里區龍米路二段200巷5號","121.433728333333","25.1588083333333","6502300","八里區"
"249002","305-UY","2017/11/06 18:09:43","新北市八里區龍米路一段386巷1號","121.45177","25.1319066666667","6502300","八里區"
"249003","593-UM","2017/11/06 18:09:38","新北市八里區中華路二段352號","121.402548333333","25.1473","6502300","八里區"
"248016","026-BX","2017/11/06 18:09:31","新北市五股區成泰路三段115-1號","121.44428","25.09056","6501500","五股區"
"248006","077-UY","2017/11/06 18:09:44","新北市五股區中興路二段95號","121.460378333333","25.0774633333333","6501500","五股區"
"248008","095-VK","2017/11/06 18:09:40","新北市五股區更洲路32巷8弄35-9號","121.459993333333","25.0795533333333","6501500","五股區"
"248018","225-UY","2017/11/06 18:09:30","新北市五股區中興路三段196號","121.44196","25.0819216666667","6501500","五股區"
"248012","247-BX","2017/11/06 18:09:32","新北市五股區中興路三段198號","121.441795","25.081975","6501500","五股區"
"248014","261-SL","2017/11/06 18:09:35","新北市五股區中興路四段54號","121.438006666667","25.08298","6501500","五股區"
"248010","272-BY","2017/11/06 18:09:28","新北市五股區新五路二段258號","121.441018333333","25.0821366666667","6501500","五股區"
"248004","677-BX","2017/11/06 18:09:28","新北市五股區工商路42號","121.439228333333","25.0838133333333","6501500","五股區"
"232011","375-UM","2017/11/06 18:09:32","新北市坪林區水柳腳2號","121.711543333333","24.93535","6502000","坪林區"
"244013","069-UM","2017/11/06 18:09:31","新北市林口區中山路48號","121.39532","25.0785333333333","6501700","林口區"
"244007","080-UY","2017/11/06 18:09:40","新北市林口區林口路222號","121.386938333333","25.0836816666667","6501700","林口區"
"244019","403-UM","2017/11/06 18:09:35","新北市林口區文化一路一段126號","121.375361666667","25.072585","6501700","林口區"
"244025","742-UY","2017/11/06 18:09:45","新北市林口區文化北路一段299巷71號","121.359021666667","25.07264","6501700","林口區"
"244009","410-SL","2017/11/06 18:09:27","新北市林口區竹林路606巷22號","121.385471666667","25.0829466666667","6501700","林口區"
"244023","483-VK","2017/11/06 18:09:28","新北市林口區隆林街217號","121.383256666667","25.0740816666667","6501700","林口區"
"244017","485-VK","2017/11/06 18:09:30","新北市林口區忠孝路508號","121.370846666667","25.069935","6501700","林口區"
"244011","701-TV","2017/11/06 18:09:34","新北市林口區中正路100號","121.39402","25.07732","6501700","林口區"
"244021","838-TS","2017/11/06 18:09:40","新北市林口區中正路11號","121.397431666667","25.07739","6501700","林口區"
"243013","646-TV","2017/11/06 18:09:27","新北市泰山區南林路99巷23號","121.418491666667","25.0501866666667","6501600","泰山區"
"222003","436-BY","2017/11/06 18:09:34","新北市深坑區腳坑6號","121.610193333333","24.9946633333333","6501800","深坑區"
"222002","659-BX","2017/11/06 18:09:41","新北市深坑區文化街23號","121.61972","25.00146","6501800","深坑區"
"231041","002-UM","2017/11/06 18:09:29","新北市新店區安華路28-1號","121.519585","24.9609016666667","6500600","新店區"
"231059","046-UY","2017/11/06 18:09:40","新北市新店區安華路28-1號","121.519718333333","24.9609183333333","6500600","新店區"
"231052","187-VK","2017/11/06 18:09:38","新北市新店區安華路28-1號","121.519703333333","24.9613566666667","6500600","新店區"
"231046","278-BY","2017/11/06 18:09:31","新北市新店區下石厝路31號","121.5328","24.932985","6500600","新店區"
"231056","3713-VJ","2017/11/06 18:09:35","新北市新店區安華路28-1號","121.51929","24.9606516666667","6500600","新店區"
"231045","898-TW","2017/11/06 18:09:40","新北市新店區安華路28-1號","121.519413333333","24.9610033333333","6500600","新店區"
"241017","063-VK","2017/11/06 18:09:28","新北市八里區中山路三段415號","121.371026666667","25.1373466666667","6500200","三重區"
"241005","262-UM","2017/11/06 18:09:28","新北市五股區中直路13-7號","121.424373333333","25.1106433333333","6500200","三重區"
"241030","480-VK","2017/11/06 18:09:21","新北市林口區太平里180號","121.368266666667","25.1339083333333","6500200","三重區"
"241024","743-BX","2017/11/06 18:09:41","新北市三重區中正北路193巷35弄35號","121.477498333333","25.0710716666667","6500200","三重區"
"241033","AAC-255","2017/11/06 18:09:37","新北市三重區中興北街56-1號","121.46895","25.0514516666667","6500200","三重區"
"235063","006-UY","2017/11/06 18:09:45","新北市中和區員山路36巷16-3號","121.48503","24.9913466666667","6500300","中和區"
"235040","150-BY","2017/11/06 15:57:39","新北市中和區和城路一段271巷1號","121.48548","24.9917733333333","6500300","中和區"
"235058","151-BY","2017/11/06 18:09:45","新北市中和區圓通路367巷33弄15號","121.495228333333","24.9850666666667","6500300","中和區"
"235038","185-VK","2017/11/06 18:09:39","新北市中和區景平路99號","121.517241666667","24.9917483333333","6500300","中和區"
"235044","293-VK","2017/11/06 18:09:29","新北市中和區員山路36巷16-3號","121.485083333333","24.9915283333333","6500300","中和區"
"235036","301-VK","2017/11/06 18:09:36","新北市中和區員山路36巷13號","121.484091666667","24.9907533333333","6500300","中和區"
"235050","4979-A6","2017/11/06 18:09:45","新北市中和區錦和路350-1號","121.490466666667","24.9935633333333","6500300","中和區"
"235069","4980-A6","2017/11/06 18:09:37","新北市中和區錦和路350-1號","121.490456666667","24.9935966666667","6500300","中和區"
"235042","551-UM","2017/11/06 18:09:44","新北市中和區景平路261號","121.508515","24.992985","6500300","中和區"
"235045","565-BX","2017/11/06 18:09:36","新北市中和區中正路637巷52弄1號","121.485458333333","24.99347","6500300","中和區"
"235046","733-UM","2017/11/06 18:09:46","新北市中和區中正路589巷15號","121.485761666667","24.993605","6500300","中和區"
"235062","800-TS","2017/11/06 18:09:28","新北市中和區中山路二段518號","121.48619","25.0049716666667","6500300","中和區"
"235041","802-TS","2017/11/06 18:09:26","新北市中和區景安路172巷6號","121.504471666667","24.9930433333333","6500300","中和區"
"235052","805-TS","2017/11/06 18:09:35","新北市中和區中正路273號","121.495703333333","24.99377","6500300","中和區"
"235053","900-TW","2017/11/06 15:13:00","新北市中和區員山路36巷16-2號","121.485256666667","24.991425","6500300","中和區"
"235037","157-BY","2017/11/06 18:09:28","新北市中和區板南路187號","121.500041666667","24.9928366666667","6500300","中和區"
"235037","AAC-213","2017/11/06 18:09:41","新北市中和區景平路149號","121.513813333333","24.9921466666667","6500300","中和區"
"247012","546-UM","2017/11/06 18:09:30","新北市蘆洲區信義路285號","121.478675","25.0854766666667","6501400","蘆洲區"
"247020","500-BY","2017/11/06 18:09:33","新北市蘆洲區水湳街89號","121.470336666667","25.0898916666667","6501400","蘆洲區"
"247002","337-TH","2017/11/06 18:09:31","新北市蘆洲區永平街32巷57弄26號","121.458825","25.09333","6501400","蘆洲區"
"247008","053-VK","2017/11/06 18:09:37","新北市五股區成泰路三段362號","121.451476666667","25.09856","6501400","蘆洲區"
"247024","002-UY","2017/11/06 18:09:32","新北市蘆洲區長安街267巷31號","121.457086666667","25.0830516666667","6501400","蘆洲區"
"226004","312-R5","2017/11/06 18:09:33","新北市平溪區菁桐里菁桐街165號","121.722963333333","25.0233716666667","6502400","平溪區"
"223003","205-TH","2017/11/06 10:05:33","新北市石碇區小粗坑(潭邊里)9-2號","121.678843333333","24.9857866666667","6501900","石碇區"
"228003","097-TW","2017/11/06 18:09:34","新北市貢寮區真理里美艷山街6-2號","121.928905","25.06072","6502600","貢寮區"
"228002","585-TW","2017/11/06 18:09:33","新北市貢寮區福連里馬崗街4-1號","122.000383333333","25.01231","6502600","貢寮區"
"228001","670-TC","2017/11/06 18:09:33","新北市貢寮區真理里新港街26巷55弄2-1號","121.927391666667","25.0528816666667","6502600","貢寮區"
"224006","676-BX","2017/11/06 18:09:32","新北市瑞芳區中山路251號","121.797815","25.1094666666667","6501200","瑞芳區"
"224002","639-TC","2017/11/06 18:09:39","新北市瑞芳區三爪子坑路64-1號","121.81","25.1055566666667","6501200","瑞芳區"
"224009","285-BY","2017/11/06 18:09:35","新北市瑞芳區金光路334號","121.84968","25.1092933333333","6501200","瑞芳區"
"224008","275-VK","2017/11/06 18:09:33","新北市瑞芳區三爪子坑路1號","121.814898333333","25.1080716666667","6501200","瑞芳區"
"224007","273-VK","2017/11/06 18:09:31","新北市瑞芳區四腳亭坑路2-3號","121.776228333333","25.1091533333333","6501200","瑞芳區"
"224005","271-BY","2017/11/06 18:09:33","新北市瑞芳區深澳路55號","121.817635","25.12936","6501200","瑞芳區"
"253005","032-BX","2017/11/06 18:09:44","新北市石門區福安街41號","121.568521666667","25.2919866666667","6502200","石門區"
"253006","295-VK","2017/11/06 18:09:36","新北市石門區老梅路52巷21號","121.546408333333","25.2885933333333","6502200","石門區"
"222001","KEA-2212","2017/11/06 18:09:29","新北市深坑區北深路二段142號","121.615495","25.0027683333333","6501800","深坑區"
"208002","742-BX","2017/11/06 18:09:44","新北市金山區三界壇路56號","121.622473333333","25.2291583333333","6502700","金山區"
"208003","665-BX","2017/11/06 18:09:29","新北市金山區磺港里磺港路11號","121.649696666667","25.2306316666667","6502700","金山區"
"208001","761-BX","2017/11/06 18:09:37","新北市金山區磺港里磺港路114號","121.646151666667","25.2265833333333","6502700","金山區"
"251009","008-UM","2017/11/06 18:09:42","新北市淡水區大忠街34巷7號","121.44358","25.1754733333333","6501000","淡水區"
"251004","009-UM","2017/11/06 18:09:32","新北市淡水區民族路134號","121.462905","25.1347166666667","6501000","淡水區"
"251005","010-UM","2017/11/06 18:09:44","新北市淡水區水源街一段147號","121.447516666667","25.1718333333333","6501000","淡水區"
"251008","181-VK","2017/11/06 18:09:30","新北市淡水區八勢一街16號","121.460371666667","25.155935","6501000","淡水區"
"251013","182-VK","2017/11/06 18:09:42","新北市淡水區桂花樹4-3號","121.476346666667","25.1956866666667","6501000","淡水區"
"251010","413-VK","2017/11/06 18:09:34","新北市淡水區淡海路111號","121.421773333333","25.18272","6501000","淡水區"
"251012","441-VK","2017/11/06 18:09:42","新北市淡水區北新路三段169-8號","121.491071666667","25.1910833333333","6501000","淡水區"
"251015","442-VK","2017/11/06 18:09:37","新北市淡水區興福寮88巷1號","121.485936666667","25.1649833333333","6501000","淡水區"
"251001","559-UM","2017/11/06 18:09:44","新北市淡水區自立路8-6號","121.46328","25.1295016666667","6501000","淡水區"
"251006","561-UM","2017/11/06 18:09:33","新北市淡水區真理街3巷15-1號","121.437296666667","25.1755666666667","6501000","淡水區"
"251011","650-BX","2017/11/06 18:09:36","新北市淡水區三空泉9號","121.4754","25.1628333333333","6501000","淡水區"
"251002","672-BX","2017/11/06 18:09:39","新北市淡水區中正東路一段64號","121.452766666667","25.1619666666667","6501000","淡水區"
"251003","766-UM","2017/11/06 18:09:32","新北市淡水區北新路184巷3-1號","121.449341666667","25.1784033333333","6501000","淡水區"
"207003","550-UM","2017/11/06 18:09:40","新北市萬里區野柳里港西路70-3號","121.685453333333","25.20478","6502800","萬里區"
"207004","225-TW","2017/11/06 18:09:24","新北市萬里區中幅里中福路94號","121.675493333333","25.1702466666667","6502800","萬里區"
"252002","178-VK","2017/11/06 18:09:41","新北市三芝區中山路二段39號","121.502916666667","25.2551316666667","6502100","三芝區"
"252003","249-BX","2017/11/06 18:09:32","新北市三芝區埔頭里埔頭37號","121.498375","25.26026","6502100","三芝區"
"252001","292-VK","2017/11/06 18:09:31","新北市三芝區中興街二段2號","121.498355","25.2566366666667","6502100","三芝區"
"237004","078-UY","2017/11/06 18:09:43","新北市三峽區大埔路150-2號","121.36508","24.8975533333333","6500900","三峽區"
"237007","153-BY","2017/11/06 18:09:42","新北市三峽區中正路二段332號","121.365915","24.910575","6500900","三峽區"
"237009","210-TH","2017/11/06 18:09:39","新北市三峽區大仁路50巷21號","121.365181666667","24.9383283333333","6500900","三峽區"
"237013","252-BX","2017/11/06 18:09:35","新北市三峽區介壽路一段59號","121.375681666667","24.9326916666667","6500900","三峽區"
"237012","275-BY","2017/11/06 18:09:40","新北市三峽區民生街19巷7弄37號","121.377373333333","24.935535","6500900","三峽區"
"237008","302-VK","2017/11/06 18:09:30","新北市三峽區白雞42-3號","121.378785","24.9113916666667","6500900","三峽區"
"237006","5529-G3","2017/11/06 18:09:34","新北市三峽區溪東路178巷13弄12號","121.406231666667","24.932195","6500900","三峽區"
"237011","572-TV","2017/11/06 18:09:32","新北市三峽區橫溪路1號","121.396063333333","24.9361783333333","6500900","三峽區"
"237015","649-BX","2017/11/06 18:09:39","新北市三峽區紫新路48號","121.422053333333","24.9220766666667","6500900","三峽區"
"237010","706-TV","2017/11/06 18:06:14","新北市三峽區民權街193號","121.367673333333","24.9291166666667","6500900","三峽區"
"237005","AKY-6261","2017/11/06 18:09:34","新北市三峽區文化路65巷10號","121.371968333333","24.9356583333333","6500900","三峽區"
"236069","105-UM","2017/11/06 18:09:29","新北市土城區明德路二段145號","121.44852","24.9828966666667","6501300","土城區"
"236042","107-UM","2017/11/06 18:09:27","新北市土城區裕生路61號","121.447588333333","24.98601","6501300","土城區"
"236078","166-UM","2017/11/06 18:09:42","新北市土城區永寧路32巷6號","121.429081666667","24.9606983333333","6501300","土城區"
"236030","253-BX","2017/11/06 18:09:38","新北市土城區城林路6巷80號","121.438473333333","24.979815","6501300","土城區"
"236026","269-VK","2017/11/06 18:09:29","新北市土城區承天路18號","121.439401666667","24.96359","6501300","土城區"
"236014","270-VK","2017/11/06 18:09:36","新北市土城區學府路一段233號","121.451031666667","24.9840333333333","6501300","土城區"
"236036","271-VK","2017/11/06 18:09:29","新北市土城區金城路二段39巷2-1號","121.450023333333","24.9778816666667","6501300","土城區"
"236020","401-BY","2017/11/06 18:09:36","新北市土城區中華路二段2號","121.439425","24.979595","6501300","土城區"
"236048","752-BX","2017/11/06 18:09:39","新北市土城區金城路二段26號","121.450296666667","24.9780766666667","6501300","土城區"
"236058","912-UM","2017/11/06 18:09:38","新北市土城區中央路三段282號","121.426551666667","24.963525","6501300","土城區"
"236062","915-UM","2017/11/06 18:09:39","新北市土城區學士路123號","121.446628333333","24.9758716666667","6501300","土城區"
"236053","AAC-216","2017/11/06 18:09:28","新北市土城區中華路二段62號","121.438921666667","24.97661","6501300","土城區"
"242031","AAC-296","2017/11/06 18:09:32","新北市新莊區新泰路277巷69號","121.443093333333","25.03998","6500500","新莊區"
"242029","986-R7","2017/11/06 18:09:27","新北市新莊區中平路82巷25號","121.446163333333","25.0454966666667","6500500","新莊區"
"242050","751-BX","2017/11/06 18:09:26","新北市新莊區民本街11巷2弄29號","121.429146666667","25.0201366666667","6500500","新莊區"
"242025","615-BX","2017/11/06 18:09:44","新北市新莊區五權一路120號","121.460353333333","25.06822","6500500","新莊區"
"242023","613-BX","2017/11/06 18:09:33","新北市新莊區幸福路763-1號","121.447836666667","25.04917","6500500","新莊區"
"242027","612-BX","2017/11/06 18:09:39","新北市新莊區幸福路564巷2弄2號","121.454555","25.0494933333333","6500500","新莊區"
"242044","497-BY","2017/11/06 18:09:46","新北市新莊區天泉二街24巷1號","121.414686666667","25.0255116666667","6500500","新莊區"
"242002","442-UM","2017/11/06 18:09:38","新北市新莊區新莊路90號","121.456726666667","25.036295","6500500","新莊區"
"242048","441-UM","2017/11/06 18:09:37","新北市新莊區民安路98巷5號","121.423568333333","25.0256633333333","6500500","新莊區"
"242053","440-UM","2017/11/06 18:09:26","新北市新莊區西盛街429巷25號","121.428003333333","25.0116","6500500","新莊區"
"242004","413-TV","2017/11/06 18:09:44","新北市新莊區自立街81號","121.454505","25.0453866666667","6500500","新莊區"
"242042","400-BY","2017/11/06 18:09:29","新北市新莊區雙鳳路116巷18號","121.413448333333","25.0288083333333","6500500","新莊區"
"242060","362-BY","2017/11/06 18:09:29","新北市新莊區新樹路69-33號","121.43841","25.029195","6500500","新莊區"
"242058","353-BY","2017/11/06 18:09:35","新北市新莊區新北大道七段720號","121.412508333333","25.0260333333333","6500500","新莊區"
"242007","132-UY","2017/11/06 18:09:29","新北市新莊區中華路二段60號","121.454086666667","25.0461816666667","6500500","新莊區"
"242036","133-UY","2017/11/06 18:09:41","新北市新莊區建福路48巷13號","121.42568","25.027285","6500500","新莊區"
"242021","135-UY","2017/11/06 18:09:35","新北市新莊區新興街39號","121.450696666667","25.0384216666667","6500500","新莊區"
"242046","172-VK","2017/11/06 18:09:45","新北市新莊區建福路27號","121.426503333333","25.0289766666667","6500500","新莊區"
"242009","173-VK","2017/11/06 18:09:37","新北市新莊區中華路二段216號","121.452778333333","25.0527583333333","6500500","新莊區"
"242015","175-VK","2017/11/06 18:09:41","新北市新莊區中和街59巷16號","121.446655","25.0468733333333","6500500","新莊區"
"242039","176-VK","2017/11/06 18:09:44","新北市新莊區民安西路38巷30號","121.426443333333","25.0203766666667","6500500","新莊區"
"242001","233-RS","2017/11/06 09:13:40","新北市新莊區環河路48-7號","121.436935","25.0098066666667","6500500","新莊區"
"242034","348-TH","2017/11/06 18:09:29","新北市新莊區景德路302號","121.447655","25.033675","6500500","新莊區"
"242056","349-TH","2017/11/06 18:09:29","新北市新莊區豐年街豐2巷7號","121.44698","25.03079","6500500","新莊區"
"242017","350-TH","2017/11/06 18:09:41","新北市新莊區中華路一段226號","121.452615","25.0427433333333","6500500","新莊區"
"242011","351-TH","2017/11/06 18:09:24","新北市新莊區中信街88號","121.447893333333","25.0533466666667","6500500","新莊區"
"238015","755-BX","2017/11/06 18:09:26","新北市樹林區大安路349號","121.416483333333","24.9905333333333","6500700","樹林區"
"238023","601-UM","2017/11/06 18:09:32","新北市樹林區龍興街31巷21號","121.403738333333","25.0161416666667","6500700","樹林區"
"238019","599-UM","2017/11/06 18:09:36","新北市樹林區國凱街136巷30弄12號","121.423425","24.9792683333333","6500700","樹林區"
"238018","571-TV","2017/11/06 18:09:40","新北市樹林區樹新路106巷7號","121.429921666667","24.9983016666667","6500700","樹林區"
"238021","KEA-2217","2017/11/06 18:09:40","新北市樹林區柑園街一段35號","121.40366","24.96017","6500700","樹林區"
"238022","KEA-2213","2017/11/06 18:09:37","新北市樹林區太平路225巷2號","121.418441666667","24.9769616666667","6500700","樹林區"
"238025","303-VK","2017/11/06 18:09:27","新北市樹林區保安街二段269號","121.412951666667","25.0053166666667","6500700","樹林區"
"238017","283-BY","2017/11/06 18:09:43","新北市樹林區中正路716號","121.409083333333","25.0178733333333","6500700","樹林區"
"238014","282-BY","2017/11/06 18:09:32","新北市樹林區千歲街61巷40弄11號","121.426015","24.99906","6500700","樹林區"
"238020","268-VK","2017/11/06 18:09:43","新北市樹林區三俊街65巷40弄22號","121.414371666667","25.0175433333333","6500700","樹林區"
"238026","172-UY","2017/11/06 18:09:43","新北市樹林區佳園路一段50號","121.392976666667","24.9706233333333","6500700","樹林區"
"238016","169-UY","2017/11/06 18:09:44","新北市樹林區文化街18號","121.41964","24.9874883333333","6500700","樹林區"
"239007","AAC-297","2017/11/06 18:09:36","新北市鶯歌區尖山埔路171號","121.345888333333","24.950795","6500800","鶯歌區"
"239008","527-UM","2017/11/06 18:09:34","新北市鶯歌區國際一路179號","121.33623","24.97652","6500800","鶯歌區"
"239005","526-UM","2017/11/06 18:09:34","新北市鶯歌區鶯桃路668巷73號","121.329888333333","24.97176","6500800","鶯歌區"
"239001","417-VK","2017/11/06 18:09:39","新北市鶯歌區國中街60巷10號","121.341268333333","24.9427116666667","6500800","鶯歌區"
"239003","360-BY","2017/11/06 18:09:40","新北市鶯歌區福安街9巷1號","121.335158333333","24.9649316666667","6500800","鶯歌區"
"239002","359-BY","2017/11/06 18:09:29","新北市鶯歌區國慶街20號","121.34954","24.9562933333333","6500800","鶯歌區"
"221008","489-VK","2017/11/06 18:09:42","新北市汐止區康寧街315號","121.627033333333","25.0678816666667","6501100","汐止區"
"221036","130-UY","2017/11/06 18:09:44","新北市汐止區大同路三段153號","121.669711666667","25.0777416666667","6501100","汐止區"
"221015","131-UY","2017/11/06 18:09:27","新北市汐止區鄉長路二段29-1號","121.668235","25.0830633333333","6501100","汐止區"
"221010","269-BY","2017/11/06 18:09:45","新北市汐止區汐萬路二段273號","121.6458","25.0890483333333","6501100","汐止區"
"221012","278-VK","2017/11/06 18:09:39","新北市汐止區保長路37巷42號","121.674216666667","25.079805","6501100","汐止區"
"221023","279-VK","2017/11/06 18:09:26","新北市汐止區中興路291巷1號","121.628095","25.0699383333333","6501100","汐止區"
"221032","280-BY","2017/11/06 18:09:32","新北市汐止區橫科路17號","121.617768333333","25.0513766666667","6501100","汐止區"
"221027","281-BY","2017/11/06 18:09:43","新北市汐止區信義路7號","121.662083333333","25.06933","6501100","汐止區"
"221029","298-VK","2017/11/06 18:09:34","新北市汐止區樟樹二路134號","121.63996","25.0656766666667","6501100","汐止區"
"221021","299-VK","2017/11/06 18:09:47","新北市汐止區連興街114號","121.653803333333","25.0628733333333","6501100","汐止區"
"221031","353-TW","2017/11/06 18:09:33","新北市汐止區中興路159號","121.631088333333","25.0660733333333","6501100","汐止區"
"221002","358-BY","2017/11/06 18:09:46","新北市汐止區福德一路208號","121.634596666667","25.0652816666667","6501100","汐止區"
"221035","622-UM","2017/11/06 18:09:31","新北市汐止區汐萬路一段37號","121.655628333333","25.0681416666667","6501100","汐止區"
"221025","623-UM","2017/11/06 18:09:30","新北市汐止區勤進路3巷27號","121.66103","25.0618016666667","6501100","汐止區"
"221038","646-BX","2017/11/06 18:09:41","新北市汐止區南興路82巷3號","121.652793333333","25.0589016666667","6501100","汐止區"
"221033","647-BX","2017/11/06 18:09:29","新北市汐止區林森街9號","121.621383333333","25.04081","6501100","汐止區"
"221018","753-BX","2017/11/06 18:09:36","新北市汐止區忠孝東路346號","121.665436666667","25.0698833333333","6501100","汐止區"
"242019","280-VK","2017/11/06 18:09:37","新北市新莊區長青街37巷22弄2號","121.456225","25.04137","6500500","新莊區"
