"lineid","car","time","location","longitude","latitude","cityid","cityname"
"234007","207-UY","2017/11/06 18:19:34","新北市永和區保生路22巷8號","121.507273333333","25.0080383333333","6500400","永和區"
"234026","9381-KE","2017/11/06 18:19:37","新北市永和區豫溪街36號","121.51539","25.0098133333333","6500400","永和區"
"249005","172-UM","2017/11/06 18:19:41","新北市八里區荖阡坑路15-15號","121.399971666667","25.1402566666667","6502300","八里區"
"249001","173-UM","2017/11/06 18:19:27","新北市八里區龍米路一段131號","121.452186666667","25.1267616666667","6502300","八里區"
"249004","303-UY","2017/11/06 18:19:40","新北市八里區觀海大道36號","121.430131666667","25.16052","6502300","八里區"
"249002","305-UY","2017/11/06 18:19:43","新北市八里區龍形二街41號","121.450065","25.132835","6502300","八里區"
"248016","026-BX","2017/11/06 18:19:31","新北市五股區成泰路三段477巷18號","121.449893333333","25.098905","6501500","五股區"
"248006","077-UY","2017/11/06 18:19:24","新北市五股區中興路一段164-1號","121.464228333333","25.0739916666667","6501500","五股區"
"248008","095-VK","2017/11/06 18:19:40","新北市五股區更洲路32巷8弄14號","121.459236666667","25.0796583333333","6501500","五股區"
"248018","225-UY","2017/11/06 18:19:30","新北市五股區御史路120號","121.437518333333","25.0962733333333","6501500","五股區"
"248012","247-BX","2017/11/06 18:19:32","新北市五股區御史路1巷75號","121.441181666667","25.0904783333333","6501500","五股區"
"248014","261-SL","2017/11/06 18:19:35","新北市五股區成泰路一段171巷13號","121.43438","25.0743966666667","6501500","五股區"
"248010","272-BY","2017/11/06 18:19:28","新北市五股區成泰路一段189巷2號","121.434633333333","25.076565","6501500","五股區"
"248004","677-BX","2017/11/06 18:19:39","新北市五股區成泰路二段101號","121.438191666667","25.08425","6501500","五股區"
"248002","678-BX","2017/11/06 18:19:32","新北市五股區西雲路42號","121.443585","25.0908783333333","6501500","五股區"
"232011","375-UM","2017/11/06 18:19:32","新北市坪林區坪雙路一段43號","121.711753333333","24.9424866666667","6502000","坪林區"
"244013","069-UM","2017/11/06 18:19:32","新北市林口區中山路202-1號","121.387781666667","25.07914","6501700","林口區"
"244007","080-UY","2017/11/06 18:19:40","新北市林口區竹林路77號","121.388335","25.0793233333333","6501700","林口區"
"244019","403-UM","2017/11/06 18:19:35","新北市林口區忠孝路551號","121.372505","25.06867","6501700","林口區"
"244025","742-UY","2017/11/06 18:19:45","新北市林口區南勢六街81巷16號","121.354371666667","25.072015","6501700","林口區"
"244009","410-SL","2017/11/06 18:19:27","新北市林口區民生路166號","121.379796666667","25.08773","6501700","林口區"
"244023","483-VK","2017/11/06 18:19:28","新北市林口區仁愛路二段127號","121.383355","25.0747816666667","6501700","林口區"
"244017","485-VK","2017/11/06 18:19:30","新北市林口區八德路20巷17號","121.367361666667","25.0677383333333","6501700","林口區"
"244011","701-TV","2017/11/06 18:19:34","新北市林口區中正路74巷5弄2號","121.394641666667","25.0780033333333","6501700","林口區"
"244021","838-TS","2017/11/06 18:19:40","新北市林口區自強一街53號","121.399348333333","25.0774966666667","6501700","林口區"
"243013","646-TV","2017/11/06 18:19:27","新北市泰山區南林路99巷1-1號","121.415306666667","25.051175","6501600","泰山區"
"222003","436-BY","2017/11/06 18:19:34","新北市深坑區旺耽路67號","121.626245","25.0030133333333","6501800","深坑區"
"222002","659-BX","2017/11/06 18:19:41","新北市深坑區雲鄉路130號","121.623108333333","24.9983016666667","6501800","深坑區"
"231041","002-UM","2017/11/06 18:19:30","新北市新店區安華路28-1號","121.519591666667","24.9608833333333","6500600","新店區"
"231059","046-UY","2017/11/06 18:19:40","新北市新店區安華路28-1號","121.519538333333","24.9609033333333","6500600","新店區"
"231061","047-UY","2017/11/06 18:19:41","新北市新店區安華路28-1號","121.519311666667","24.9609216666667","6500600","新店區"
"231060","106-UY","2017/11/06 18:19:39","新北市新店區安華路28-1號","121.519651666667","24.960835","6500600","新店區"
"231047","108-UY","2017/11/06 18:19:31","新北市新店區安華路28-1號","121.519436666667","24.9611933333333","6500600","新店區"
"231052","187-VK","2017/11/06 18:19:38","新北市新店區安康路一段323-3號","121.521178333333","24.9638266666667","6500600","新店區"
"231050","KEA-2219","2017/11/06 18:19:40","新北市新店區安華路28-1號","121.519681666667","24.9612966666667","6500600","新店區"
"231057","256-BX","2017/11/06 18:19:26","新北市新店區安華路28-1號","121.519748333333","24.9611583333333","6500600","新店區"
"231046","278-BY","2017/11/06 18:19:31","新北市新店區直潭七街60號","121.532205","24.9398316666667","6500600","新店區"
"231058","3712-VJ","2017/11/06 18:19:38","新北市新店區安康路一段3-1號","121.53422","24.96065","6500600","新店區"
"231056","3713-VJ","2017/11/06 18:19:35","新北市新店區環河路121號","121.529745","24.9717816666667","6500600","新店區"
"231055","4716-K9","2017/11/06 18:19:36","新北市新店區安康路一段77號","121.530013333333","24.9611983333333","6500600","新店區"
"231067","4772-VM","2017/11/06 18:19:39","新北市新店區安華路28-1號","121.519276666667","24.9607033333333","6500600","新店區"
"231065","512-UM","2017/11/06 18:19:39","新北市新店區安華路28-1號","121.519271666667","24.9612133333333","6500600","新店區"
"231054","513-UM","2017/11/06 18:19:31","新北市新店區安華路28-1號","121.519668333333","24.9611316666667","6500600","新店區"
"231040","619-UM","2017/11/06 18:19:25","新北市新店區安華路28-1號","121.51946","24.9609616666667","6500600","新店區"
"231042","641-BX","2017/11/06 18:19:43","新北市新店區安華路28-1號","121.519756666667","24.9608983333333","6500600","新店區"
"231063","645-TV","2017/11/06 18:19:28","新北市新店區安華路28-1號","121.519286666667","24.9605833333333","6500600","新店區"
"231049","719-UM","2017/11/06 16:27:56","新北市新店區安華路28-1號","121.519566666667","24.9612266666667","6500600","新店區"
"231051","719-UY","2017/11/06 18:19:36","新北市新店區安華路28-1號","121.519356666667","24.9613716666667","6500600","新店區"
"231044","897-TW","2017/11/06 18:19:30","新北市新店區安華路28-1號","121.519423333333","24.960865","6500600","新店區"
"231045","898-TW","2017/11/06 18:19:40","新北市新店區安華路28-1號","121.519398333333","24.9609766666667","6500600","新店區"
"231066","AKT-0513","2017/11/06 18:19:23","新北市新店區安華路1-1號","121.519383333333","24.9605183333333","6500600","新店區"
"241030","480-VK","2017/11/06 18:19:41","新北市八里區荖阡坑路34-1號","121.401023333333","25.1304283333333","6500200","三重區"
"235066","003-UY","2017/11/06 18:19:44","新北市中和區中山路二段110號","121.502913333333","25.0039483333333","6500300","中和區"
"235064","005-UY","2017/11/06 18:19:30","新北市中和區中正路133號","121.499536666667","24.9935233333333","6500300","中和區"
"235063","006-UY","2017/11/06 18:19:45","新北市中和區中正路589巷15號","121.48596","24.9937116666667","6500300","中和區"
"235056","096-UM","2017/11/06 18:19:44","新北市板橋區民生路一段26-1號","121.47756","25.0117716666667","6500300","中和區"
"235039","097-UM","2017/11/06 18:19:33","新北市中和區中正路277號","121.495328333333","24.9936516666667","6500300","中和區"
"235065","098-UM","2017/11/06 18:19:43","新北市中和區莊敬路49巷18號","121.501635","25.0061883333333","6500300","中和區"
"235040","150-BY","2017/11/06 18:19:33","新北市中和區中正路256號","121.495461666667","24.9940916666667","6500300","中和區"
"235058","151-BY","2017/11/06 18:19:24","新北市中和區圓通路367巷29號","121.492193333333","24.9853133333333","6500300","中和區"
"235055","183-VK","2017/11/06 18:19:34","新北市中和區員山路36巷16-3號","121.48502","24.9913783333333","6500300","中和區"
"235038","185-VK","2017/11/06 18:19:39","新北市中和區大智街42巷13號","121.522696666667","24.9921283333333","6500300","中和區"
"235044","293-VK","2017/11/06 18:19:29","新北市中和區錦和路350-1號","121.490518333333","24.9935816666667","6500300","中和區"
"235036","301-VK","2017/11/06 18:19:36","新北市中和區中正路506號","121.488645","24.9943616666667","6500300","中和區"
"235043","352-BY","2017/11/06 18:19:41","新北市中和區中正路277-3號","121.495298333333","24.9935566666667","6500300","中和區"
"235061","378-QA","2017/11/06 18:19:34","新北市土城區延壽路119號","121.469008333333","24.9944466666667","6500300","中和區"
"235050","4979-A6","2017/11/06 18:19:45","新北市中和區捷運路61巷9號","121.509005","24.9893933333333","6500300","中和區"
"235069","4980-A6","2017/11/06 18:19:37","新北市中和區連城路127巷4弄1號","121.49636","24.998785","6500300","中和區"
"235042","551-UM","2017/11/06 18:19:24","新北市中和區大仁街20巷25弄19號","121.518621666667","24.9936033333333","6500300","中和區"
"235045","565-BX","2017/11/06 18:19:37","新北市中和區景安路200巷2弄2號","121.50399","24.9914066666667","6500300","中和區"
"235054","640-BX","2017/11/06 18:19:42","新北市中和區莒光路203號","121.472561666667","24.9989683333333","6500300","中和區"
"235047","732-UM","2017/11/06 18:19:33","新北市中和區中正路277-7號","121.495136666667","24.993555","6500300","中和區"
"235046","733-UM","2017/11/06 18:19:26","新北市中和區建康路11號","121.485963333333","25.0003316666667","6500300","中和區"
"235062","800-TS","2017/11/06 18:19:28","新北市中和區景平路999巷2號","121.495385","25.005975","6500300","中和區"
"235041","802-TS","2017/11/06 18:19:46","新北市中和區景安路36號","121.507021666667","24.9984033333333","6500300","中和區"
"235052","805-TS","2017/11/06 18:19:35","新北市中和區興南路一段86號","121.50986","24.9893616666667","6500300","中和區"
"235048","896-TW","2017/11/06 18:19:42","新北市中和區中正路637巷52弄1號","121.485393333333","24.9935516666667","6500300","中和區"
"235053","900-TW","2017/11/06 18:19:25","新北市中和區員山路36巷16-2號","121.485205","24.9915266666667","6500300","中和區"
"235060","911-UM","2017/11/06 18:19:32","新北市中和區中正路637巷52弄1號","121.485365","24.993425","6500300","中和區"
"235037","157-BY","2017/11/06 18:19:28","新北市中和區信義街59號","121.511446666667","24.9884283333333","6500300","中和區"
"235037","AAC-213","2017/11/06 18:19:42","新北市中和區景德街33號","121.518468333333","24.9912316666667","6500300","中和區"
"247002","337-TH","2017/11/06 18:19:31","新北市蘆洲區永平街32巷69弄17號","121.459315","25.0934916666667","6501400","蘆洲區"
"226004","312-R5","2017/11/06 18:18:52","新北市平溪區靜安路二段10號","121.707053333333","25.0185266666667","6502400","平溪區"
"223003","205-TH","2017/11/06 10:05:33","新北市石碇區小粗坑(潭邊里)9-2號","121.678843333333","24.9857866666667","6501900","石碇區"
"228003","097-TW","2017/11/06 18:19:34","新北市貢寮區真理里美艷山街31號","121.923365","25.068995","6502600","貢寮區"
"228002","585-TW","2017/11/06 18:19:13","新北市貢寮區福連里馬崗街1號","121.995311666667","25.0154433333333","6502600","貢寮區"
"228001","670-TC","2017/11/06 18:19:33","新北市貢寮區真理里新港街26巷55弄2-1號","121.92738","25.0528983333333","6502600","貢寮區"
"224006","676-BX","2017/11/06 18:19:32","新北市瑞芳區民權街3-2號","121.808181666667","25.1074833333333","6501200","瑞芳區"
"224002","639-TC","2017/11/06 18:19:39","新北市瑞芳區三爪子坑路91巷2號","121.811385","25.1073483333333","6501200","瑞芳區"
"224009","285-BY","2017/11/06 18:19:35","新北市瑞芳區金光路217號","121.852336666667","25.1071533333333","6501200","瑞芳區"
"224008","275-VK","2017/11/06 18:19:33","新北市瑞芳區逢甲路140-1號","121.808483333333","25.10912","6501200","瑞芳區"
"224007","273-VK","2017/11/06 18:19:31","新北市瑞芳區大埔路63號","121.764306666667","25.101885","6501200","瑞芳區"
"224005","271-BY","2017/11/06 18:19:42","新北市瑞芳區建基路二段9號","121.807393333333","25.1328366666667","6501200","瑞芳區"
"227008","642-TC","2017/11/06 18:19:29","新北市雙溪區牡丹里牡丹73號","121.851723333333","25.0593816666667","6502500","雙溪區"
"227001","400-TW","2017/11/06 18:19:36","新北市雙溪區共和里中山路2號","121.863798333333","25.0337716666667","6502500","雙溪區"
"253005","032-BX","2017/11/06 18:19:24","新北市石門區中央路25-2號","121.567965","25.2934433333333","6502200","石門區"
"253006","295-VK","2017/11/06 18:19:36","新北市石門區老梅路52巷1號","121.546161666667","25.28915","6502200","石門區"
"222001","KEA-2212","2017/11/06 18:19:29","新北市深坑區北深路二段66號","121.618908333333","25.0042266666667","6501800","深坑區"
"208002","742-BX","2017/11/06 18:19:44","新北市金山區磺港里社寮28號","121.635815","25.2296033333333","6502700","金山區"
"208003","665-BX","2017/11/06 18:19:45","新北市金山區民生路42號","121.64917","25.2241983333333","6502700","金山區"
"208001","761-BX","2017/11/06 18:19:36","新北市金山區環金路19號","121.641048333333","25.2176683333333","6502700","金山區"
"251004","009-UM","2017/11/06 18:19:32","新北市淡水區民族路31巷11號","121.462196666667","25.1362666666667","6501000","淡水區"
"251005","010-UM","2017/11/06 18:19:32","新北市淡水區學府路51巷6弄7號","121.447403333333","25.1702133333333","6501000","淡水區"
"251008","181-VK","2017/11/06 18:19:27","新北市淡水區淡金路16巷62弄5號","121.460045","25.16079","6501000","淡水區"
"251013","182-VK","2017/11/06 18:19:42","新北市淡水區行忠路899號","121.480418333333","25.2003766666667","6501000","淡水區"
"251010","413-VK","2017/11/06 18:19:34","新北市淡水區淡海路196號","121.420253333333","25.1854316666667","6501000","淡水區"
"251012","441-VK","2017/11/06 18:19:42","新北市淡水區北新路二段77-5號","121.480488333333","25.1855883333333","6501000","淡水區"
"251015","442-VK","2017/11/06 18:19:37","新北市淡水區興福寮66巷541號","121.48457","25.1652216666667","6501000","淡水區"
"251001","559-UM","2017/11/06 18:19:44","新北市淡水區自強路106號","121.462023333333","25.1299033333333","6501000","淡水區"
"251006","561-UM","2017/11/06 18:19:33","新北市淡水區新民街76巷34弄1號","121.439305","25.17773","6501000","淡水區"
"251011","650-BX","2017/11/06 18:19:36","新北市淡水區坪頂路52巷2號","121.45806","25.1625433333333","6501000","淡水區"
"251002","672-BX","2017/11/06 18:19:39","新北市淡水區中正東路一段64號","121.452815","25.1619483333333","6501000","淡水區"
"251003","766-UM","2017/11/06 18:19:32","新北市淡水區北新路180號","121.44935","25.1787783333333","6501000","淡水區"
"207003","550-UM","2017/11/06 18:19:40","新北市萬里區野柳里港東路6號","121.686471666667","25.2031","6502800","萬里區"
"207004","225-TW","2017/11/06 18:19:23","新北市萬里區中幅里中福路200號","121.67327","25.165205","6502800","萬里區"
"252002","178-VK","2017/11/06 18:19:41","新北市三芝區中山路二段39號","121.502846666667","25.2550883333333","6502100","三芝區"
"252003","249-BX","2017/11/06 18:19:32","新北市三芝區錫板里海尾14-17號","121.477115","25.258695","6502100","三芝區"
"252001","292-VK","2017/11/06 18:19:31","新北市三芝區中興街二段2號","121.498468333333","25.2567033333333","6502100","三芝區"
"237004","078-UY","2017/11/06 18:19:43","新北市三峽區圳頭94號","121.380046666667","24.8774266666667","6500900","三峽區"
"237007","153-BY","2017/11/06 18:19:42","新北市三峽區中正路二段461-1號","121.363936666667","24.907245","6500900","三峽區"
"237009","210-TH","2017/11/06 18:19:39","新北市三峽區中山路152巷5號","121.36512","24.93671","6500900","三峽區"
"237013","252-BX","2017/11/06 18:19:35","新北市三峽區長泰街16號","121.378783333333","24.931085","6500900","三峽區"
"237012","275-BY","2017/11/06 18:19:40","新北市三峽區民生街19巷7弄15號","121.376833333333","24.9357883333333","6500900","三峽區"
"237008","302-VK","2017/11/06 18:19:28","新北市三峽區白雞68-101號","121.39247","24.9085866666667","6500900","三峽區"
"237006","5529-G3","2017/11/06 18:19:35","新北市三峽區溪東路238巷5號","121.408213333333","24.9314366666667","6500900","三峽區"
"237011","572-TV","2017/11/06 18:09:32","新北市三峽區橫溪路1號","121.396063333333","24.9361783333333","6500900","三峽區"
"237015","649-BX","2017/11/06 18:19:39","新北市三峽區紫微路42-1號","121.422386666667","24.9198566666667","6500900","三峽區"
"237010","706-TV","2017/11/06 18:17:34","新北市三峽區民族街68號","121.369656666667","24.930195","6500900","三峽區"
"237005","AKY-6261","2017/11/06 18:19:34","新北市三峽區忠孝街35號","121.370966666667","24.933905","6500900","三峽區"
"236069","105-UM","2017/11/06 18:19:29","新北市土城區明德路一段109號","121.4655","24.9815666666667","6501300","土城區"
"236042","107-UM","2017/11/06 18:19:30","新北市土城區裕生路21巷6弄25號","121.448711666667","24.9867783333333","6501300","土城區"
"236078","166-UM","2017/11/06 18:19:42","新北市土城區永安街115巷38弄2號","121.428701666667","24.9627666666667","6501300","土城區"
"236030","253-BX","2017/11/06 18:19:38","新北市土城區順風路24號","121.440695","24.976735","6501300","土城區"
"236026","269-VK","2017/11/06 18:19:29","新北市土城區承天路67號","121.4396","24.9635716666667","6501300","土城區"
"236014","270-VK","2017/11/06 18:19:36","新北市土城區青雲路39巷7號","121.460305","24.987345","6501300","土城區"
"236036","271-VK","2017/11/06 18:19:29","新北市土城區青雲路451巷8弄9號","121.459603333333","24.9743966666667","6501300","土城區"
"236020","401-BY","2017/11/06 18:19:36","新北市土城區明德路一段136號","121.463591666667","24.9788383333333","6501300","土城區"
"236048","752-BX","2017/11/06 18:19:39","新北市土城區明德路一段369號","121.455225","24.978015","6501300","土城區"
"236058","912-UM","2017/11/06 18:19:38","新北市土城區中央路四段240號","121.415311666667","24.9570316666667","6501300","土城區"
"236062","915-UM","2017/11/06 18:19:39","新北市土城區金城路三段193-1號","121.469995","24.9889433333333","6501300","土城區"
"236053","AAC-216","2017/11/06 18:19:28","新北市土城區中華路二段92號","121.438235","24.974775","6501300","土城區"
"242031","AAC-296","2017/11/06 18:19:33","新北市新莊區新泰路255巷32號","121.444795","25.0397033333333","6500500","新莊區"
"242029","986-R7","2017/11/06 18:19:27","新北市泰山區泰林路一段2-1號","121.44202","25.0479916666667","6500500","新莊區"
"242050","751-BX","2017/11/06 18:19:26","新北市新莊區民安東路23號","121.428205","25.0209983333333","6500500","新莊區"
"242025","615-BX","2017/11/06 18:19:44","新北市新莊區五權一路12巷10號","121.45724","25.06461","6500500","新莊區"
"242023","613-BX","2017/11/06 18:19:33","新北市新莊區新泰路357巷3弄57號","121.442088333333","25.0391766666667","6500500","新莊區"
"242027","612-BX","2017/11/06 18:19:39","新北市泰山區泰林路一段2號","121.442015","25.047895","6500500","新莊區"
"242044","497-BY","2017/11/06 18:19:26","新北市新莊區新北大道七段852號","121.413908333333","25.0234266666667","6500500","新莊區"
"242002","442-UM","2017/11/06 18:19:45","新北市新莊區碧江街37號","121.451868333333","25.0329683333333","6500500","新莊區"
"242053","440-UM","2017/11/06 18:19:45","新北市新莊區民安西路410巷12弄2號","121.42807","25.0090833333333","6500500","新莊區"
"242004","413-TV","2017/11/06 18:19:44","新北市新莊區新泰路502巷2號","121.442633333333","25.0463283333333","6500500","新莊區"
"242042","400-BY","2017/11/06 18:19:29","新北市新莊區天祥街71巷16號","121.415456666667","25.0284816666667","6500500","新莊區"
"242060","362-BY","2017/11/06 18:19:29","新北市新莊區民安路93號","121.424285","25.0255316666667","6500500","新莊區"
"242058","353-BY","2017/11/06 18:19:35","桃園市龜山區萬壽路一段38號","121.409255","25.0196616666667","6500500","新莊區"
"242007","132-UY","2017/11/06 18:19:29","新北市新莊區自治街35號","121.454121666667","25.0479516666667","6500500","新莊區"
"242021","135-UY","2017/11/06 18:19:35","新北市新莊區中正路243號","121.45033","25.0355916666667","6500500","新莊區"
"242046","172-VK","2017/11/06 18:19:25","新北市新莊區中正路829巷22弄2號","121.421476666667","25.0271933333333","6500500","新莊區"
"242009","173-VK","2017/11/06 18:19:30","新北市新莊區中華路二段26-1號","121.453505","25.0451733333333","6500500","新莊區"
"242015","175-VK","2017/11/06 18:19:38","新北市新莊區中平路198巷29號","121.446463333333","25.04847","6500500","新莊區"
"242039","176-VK","2017/11/06 18:19:24","新北市新莊區新樹路206巷3號","121.433531666667","25.0204333333333","6500500","新莊區"
"242001","233-RS","2017/11/06 09:13:40","新北市新莊區環河路48-7號","121.436935","25.0098066666667","6500500","新莊區"
"242034","348-TH","2017/11/06 18:19:29","新北市新莊區環河路462號","121.440161666667","25.0196283333333","6500500","新莊區"
"242056","349-TH","2017/11/06 18:19:29","新北市新莊區中環路一段16號","121.442671666667","25.026345","6500500","新莊區"
"242017","350-TH","2017/11/06 18:19:27","新北市新莊區新泰路289巷14號","121.444778333333","25.04058","6500500","新莊區"
"242011","351-TH","2017/11/06 18:19:27","新北市新莊區中港路591巷14號","121.450696666667","25.05244","6500500","新莊區"
"238015","755-BX","2017/11/06 18:19:26","新北市樹林區文化街112巷15號","121.416851666667","24.9901583333333","6500700","樹林區"
"238023","601-UM","2017/11/06 18:19:40","新北市樹林區龍興街32巷37號","121.40181","25.0153416666667","6500700","樹林區"
"238019","599-UM","2017/11/06 18:19:36","新北市樹林區中華路190號","121.41204","24.9806233333333","6500700","樹林區"
"238018","571-TV","2017/11/06 18:19:40","新北市樹林區鎮前街53號","121.425138333333","24.9914816666667","6500700","樹林區"
"238024","5061-A6","2017/11/06 18:19:28","新北市樹林區中山路一段276號","121.420881666667","24.9871083333333","6500700","樹林區"
"238021","KEA-2217","2017/11/06 18:19:40","新北市樹林區柑園街二段9號","121.388098333333","24.9558133333333","6500700","樹林區"
"238025","303-VK","2017/11/06 18:19:42","新北市樹林區保安街一段258號","121.419843333333","24.9968066666667","6500700","樹林區"
"238017","283-BY","2017/11/06 18:19:43","新北市樹林區保安街二段335號","121.412473333333","25.0079966666667","6500700","樹林區"
"238020","268-VK","2017/11/06 18:19:43","新北市樹林區三俊街21號","121.411805","25.015555","6500700","樹林區"
"238026","172-UY","2017/11/06 18:19:24","新北市樹林區佳園路一段75巷14弄12號","121.395221666667","24.9700283333333","6500700","樹林區"
"238016","169-UY","2017/11/06 18:19:44","新北市樹林區文化街23號","121.419398333333","24.9875766666667","6500700","樹林區"
"239007","AAC-297","2017/11/06 18:19:36","新北市鶯歌區尖山埔路105號","121.347391666667","24.95103","6500800","鶯歌區"
"239008","527-UM","2017/11/06 18:19:34","新北市鶯歌區國際一路179號","121.33622","24.9765066666667","6500800","鶯歌區"
"239005","526-UM","2017/11/06 18:19:34","新北市鶯歌區鶯桃路668巷36號","121.329083333333","24.9702466666667","6500800","鶯歌區"
"239001","417-VK","2017/11/06 18:19:39","新北市鶯歌區國中街197號","121.338218333333","24.9391633333333","6500800","鶯歌區"
"239003","360-BY","2017/11/06 18:19:40","新北市鶯歌區福安街13巷1號","121.335631666667","24.9653283333333","6500800","鶯歌區"
"239002","359-BY","2017/11/06 18:19:29","新北市鶯歌區中正一路121號","121.352065","24.95574","6500800","鶯歌區"
"239004","193-VK","2017/11/06 18:19:26","新北市鶯歌區尖山路137巷20號","121.347098333333","24.9481033333333","6500800","鶯歌區"
"221008","489-VK","2017/11/06 18:19:42","新北市汐止區明峰街5號","121.635513333333","25.0711416666667","6501100","汐止區"
"221036","130-UY","2017/11/06 18:19:44","新北市汐止區長安路83號","121.669325","25.0784733333333","6501100","汐止區"
"221015","131-UY","2017/11/06 18:19:27","新北市汐止區鄉長路二段23巷17號","121.667833333333","25.082815","6501100","汐止區"
"221010","269-BY","2017/11/06 18:19:33","新北市汐止區祥雲街18巷12號","121.646806666667","25.0895133333333","6501100","汐止區"
"221012","278-VK","2017/11/06 18:19:39","新北市汐止區保長路35巷20號","121.67326","25.080035","6501100","汐止區"
"221023","279-VK","2017/11/06 18:19:46","新北市汐止區中興路195-1號","121.629433333333","25.0681633333333","6501100","汐止區"
"221032","280-BY","2017/11/06 18:19:32","新北市汐止區橫科路2巷3號","121.616855","25.0512633333333","6501100","汐止區"
"221027","281-BY","2017/11/06 18:19:42","新北市汐止區和平街6巷8-1號","121.663626666667","25.0716733333333","6501100","汐止區"
"221029","298-VK","2017/11/06 18:19:34","新北市汐止區康寧街901號","121.651346666667","25.0750766666667","6501100","汐止區"
"221021","299-VK","2017/11/06 18:19:27","新北市汐止區連興街120號","121.653698333333","25.06254","6501100","汐止區"
"221031","353-TW","2017/11/06 18:19:35","新北市汐止區中興路210號","121.631208333333","25.0660983333333","6501100","汐止區"
"221002","358-BY","2017/11/06 18:19:46","新北市汐止區福德一路201巷27號","121.635911666667","25.0647333333333","6501100","汐止區"
"221035","622-UM","2017/11/06 18:19:32","新北市汐止區大同路二段187巷2弄2號","121.652145","25.0647933333333","6501100","汐止區"
"221025","623-UM","2017/11/06 18:19:30","新北市汐止區勤進路12巷49號","121.65901","25.0628133333333","6501100","汐止區"
"221038","646-BX","2017/11/06 18:19:41","新北市汐止區仁愛路199號","121.66468","25.0657733333333","6501100","汐止區"
"221033","647-BX","2017/11/06 18:19:29","新北市汐止區宜興街40巷7弄2號","121.622538333333","25.04152","6501100","汐止區"
"221018","753-BX","2017/11/06 18:19:36","新北市汐止區茄苳路72巷9號","121.666708333333","25.0700616666667","6501100","汐止區"
"220082","610-BX","2017/11/06 18:19:29","新北市板橋區華東街1-10號","121.448275","24.994935","6500100","板橋區"
"242019","280-VK","2017/11/06 18:19:37","新北市新莊區新泰路225號","121.44652","25.0391083333333","6500500","新莊區"
