"lineid","car","time","location","longitude","latitude","cityid","cityname"
"234046","148-BY","2017/11/06 18:29:32","新北市永和區福和路1號","121.526098333333","25.0096466666667","6500400","永和區"
"234007","207-UY","2017/11/06 18:29:34","新北市永和區仁愛路296號","121.503628333333","25.008075","6500400","永和區"
"234081","298-R6","2017/11/06 18:29:36","新北市永和區林森路44巷6弄10號","121.525631666667","25.005115","6500400","永和區"
"234086","338-UY","2017/11/06 18:29:43","新北市永和區福和路22號","121.524101666667","25.0083883333333","6500400","永和區"
"234017","745-BX","2017/11/06 18:29:39","新北市永和區福和路1號","121.526455","25.0098166666667","6500400","永和區"
"234042","862-TW","2017/11/06 18:29:32","新北市永和區福和路8巷1號","121.524933333333","25.0089166666667","6500400","永和區"
"234026","9381-KE","2017/11/06 18:29:37","新北市永和區中山路一段98-2號","121.511508333333","25.010785","6500400","永和區"
"234011","9373-KE","2017/11/06 18:29:25","新北市永和區保福路二段158巷1號","121.509165","25.0150466666667","6500400","永和區"
"249005","172-UM","2017/11/06 18:29:41","新北市八里區中華路三段90號","121.393201666667","25.1393683333333","6502300","八里區"
"249001","173-UM","2017/11/06 18:29:27","新北市八里區龍米路一段116-1號","121.453238333333","25.125115","6502300","八里區"
"249004","303-UY","2017/11/06 18:29:40","新北市八里區忠孝路70號","121.426355","25.1603566666667","6502300","八里區"
"249002","305-UY","2017/11/06 18:29:43","新北市八里區龍形三街6巷1號","121.450081666667","25.1317433333333","6502300","八里區"
"248016","026-BX","2017/11/06 18:29:31","新北市五股區凌雲路一段83巷22弄1號","121.449905","25.1007733333333","6501500","五股區"
"248006","077-UY","2017/11/06 18:29:44","新北市五股區四維路25號","121.467143333333","25.0706983333333","6501500","五股區"
"248008","095-VK","2017/11/06 18:29:40","新北市五股區四維路185巷42弄1號","121.463496666667","25.0768516666667","6501500","五股區"
"248018","225-UY","2017/11/06 18:29:30","新北市五股區御史路174號","121.425875","25.10333","6501500","五股區"
"248012","247-BX","2017/11/06 18:29:32","新北市五股區御成路148號","121.440858333333","25.0944466666667","6501500","五股區"
"248014","261-SL","2017/11/06 18:29:35","新北市五股區自強路90巷19號","121.432208333333","25.07208","6501500","五股區"
"248010","272-BY","2017/11/06 18:29:28","新北市五股區水碓路5巷2號","121.433601666667","25.0722366666667","6501500","五股區"
"248004","677-BX","2017/11/06 18:29:29","新北市五股區工商路126號","121.436208333333","25.0859183333333","6501500","五股區"
"248002","678-BX","2017/11/06 18:29:32","新北市五股區西雲路116-6號","121.444711666667","25.0936916666667","6501500","五股區"
"234077","969-R7","2017/11/06 18:29:32","新北市永和區環河東路二段100號","121.52452","25.0105366666667","6500400","永和區"
"232011","375-UM","2017/11/06 18:21:20","新北市坪林區坪雙路一段43號","121.711778333333","24.942495","6502000","坪林區"
"244013","069-UM","2017/11/06 18:29:31","新北市林口區文化一路二段100巷17弄16號","121.38289","25.079125","6501700","林口區"
"244007","080-UY","2017/11/06 18:29:40","新北市林口區中華路225號","121.385411666667","25.0899766666667","6501700","林口區"
"244019","403-UM","2017/11/06 18:29:35","新北市林口區忠孝路581巷8號","121.375018333333","25.0689166666667","6501700","林口區"
"244025","742-UY","2017/11/06 18:29:25","新北市林口區南勢三街47號","121.357678333333","25.0775583333333","6501700","林口區"
"244009","410-SL","2017/11/06 18:29:27","新北市林口區文林一街11巷43號","121.376685","25.0865616666667","6501700","林口區"
"244023","483-VK","2017/11/06 18:29:28","新北市林口區四維路245巷41號","121.382485","25.075345","6501700","林口區"
"244017","485-VK","2017/11/06 18:29:30","新北市林口區八德路78號","121.365603333333","25.0656866666667","6501700","林口區"
"244011","701-TV","2017/11/06 18:29:34","新北市林口區仁愛路一段278號","121.393278333333","25.0760583333333","6501700","林口區"
"244021","838-TS","2017/11/06 18:29:40","新北市林口區自強四街24號","121.399573333333","25.0764333333333","6501700","林口區"
"243012","AAD-798","2017/11/06 18:29:27","新北市泰山區忠孝街1號","121.427625","25.0645066666667","6501600","泰山區"
"243013","646-TV","2017/11/06 18:29:27","新北市泰山區工專路22號","121.423638333333","25.0398333333333","6501600","泰山區"
"222003","436-BY","2017/11/06 18:29:34","新北市深坑區文山路一段28-1號","121.630896666667","25.005385","6501800","深坑區"
"222002","659-BX","2017/11/06 18:29:41","新北市深坑區雲鄉路150號","121.623295","24.997925","6501800","深坑區"
"231041","002-UM","2017/11/06 18:29:30","新北市新店區安華路28-1號","121.519698333333","24.96083","6500600","新店區"
"231059","046-UY","2017/11/06 18:29:40","新北市新店區安華路28-1號","121.519548333333","24.9608766666667","6500600","新店區"
"231061","047-UY","2017/11/06 18:29:41","新北市新店區安華路28-1號","121.5193","24.9609183333333","6500600","新店區"
"231060","106-UY","2017/11/06 18:29:38","新北市新店區安華路28-1號","121.519645","24.9608583333333","6500600","新店區"
"231047","108-UY","2017/11/06 18:29:31","新北市新店區安華路28-1號","121.519448333333","24.9611933333333","6500600","新店區"
"231052","187-VK","2017/11/06 18:29:45","新北市新店區新烏路一段12號","121.54693","24.951515","6500600","新店區"
"231050","KEA-2219","2017/11/06 18:29:40","新北市新店區安華路28-1號","121.519816666667","24.9613","6500600","新店區"
"231057","256-BX","2017/11/06 18:29:45","新北市新店區光明街79號","121.538693333333","24.9608016666667","6500600","新店區"
"231046","278-BY","2017/11/06 18:29:31","新北市新店區直潭七街60號","121.532203333333","24.9398016666667","6500600","新店區"
"231058","3712-VJ","2017/11/06 18:29:38","新北市新店區新店後街83號","121.537598333333","24.95544","6500600","新店區"
"231056","3713-VJ","2017/11/06 18:29:35","新北市新店區中央路7號","121.533425","24.978615","6500600","新店區"
"231055","4716-K9","2017/11/06 18:29:36","新北市新店區中正路128巷11號","121.542533333333","24.9719816666667","6500600","新店區"
"231067","4772-VM","2017/11/06 18:29:39","新北市新店區安華路28-1號","121.519266666667","24.9607166666667","6500600","新店區"
"231065","512-UM","2017/11/06 18:29:39","新北市新店區安華路28-1號","121.519305","24.9612883333333","6500600","新店區"
"231054","513-UM","2017/11/06 18:29:31","新北市新店區安華路28-1號","121.519688333333","24.9610616666667","6500600","新店區"
"231064","515-UM","2017/11/06 16:34:54","新北市新店區安華路28-1號","121.519406666667","24.9610083333333","6500600","新店區"
"231040","619-UM","2017/11/06 18:29:45","新北市新店區安華路28-1號","121.5194","24.9609766666667","6500600","新店區"
"231042","641-BX","2017/11/06 18:29:43","新北市新店區安華路28-1號","121.519548333333","24.9606866666667","6500600","新店區"
"231063","645-TV","2017/11/06 18:29:28","新北市新店區安華路28-1號","121.519261666667","24.9606066666667","6500600","新店區"
"231049","719-UM","2017/11/06 18:29:35","新北市新店區安華路28-1號","121.519521666667","24.9613466666667","6500600","新店區"
"231051","719-UY","2017/11/06 18:29:36","新北市新店區安華路28-1號","121.519458333333","24.9614533333333","6500600","新店區"
"231062","720-UM","2017/11/06 18:29:44","新北市新店區安華路28-1號","121.519353333333","24.9613866666667","6500600","新店區"
"231044","897-TW","2017/11/06 18:29:30","新北市新店區安華路28-1號","121.519528333333","24.9608316666667","6500600","新店區"
"231045","898-TW","2017/11/06 18:29:40","新北市新店區安華路28-1號","121.519383333333","24.9609333333333","6500600","新店區"
"231043","899-TW","2017/11/06 18:29:24","新北市新店區安華路28-1號","121.519241666667","24.9608416666667","6500600","新店區"
"231066","AKT-0513","2017/11/06 18:29:43","新北市新店區安華路1-1號","121.519385","24.9604683333333","6500600","新店區"
"241030","480-VK","2017/11/06 18:29:41","新北市三重區重化街7號","121.467668333333","25.064395","6500200","三重區"
"235066","003-UY","2017/11/06 18:29:44","新北市中和區中山路二段110號","121.5028","25.0039666666667","6500300","中和區"
"235064","005-UY","2017/11/06 18:29:42","新北市中和區圓通路171號","121.497558333333","24.9952266666667","6500300","中和區"
"235063","006-UY","2017/11/06 18:29:24","新北市中和區連城路347巷16弄19號","121.487813333333","24.9950533333333","6500300","中和區"
"235056","096-UM","2017/11/06 18:29:24","新北市中和區員山路611巷1號","121.477921666667","25.0113416666667","6500300","中和區"
"235039","097-UM","2017/11/06 18:29:33","新北市中和區安平路31號","121.509346666667","24.9946733333333","6500300","中和區"
"235065","098-UM","2017/11/06 18:29:43","新北市中和區莊敬路49巷18號","121.501608333333","25.0061","6500300","中和區"
"235040","150-BY","2017/11/06 18:29:33","新北市中和區安平路30號","121.509533333333","24.9946416666667","6500300","中和區"
"235058","151-BY","2017/11/06 18:29:24","新北市中和區圓通路369巷39-23號","121.490063333333","24.9853016666667","6500300","中和區"
"235055","183-VK","2017/11/06 18:29:34","新北市中和區中山路二段678號","121.480013333333","25.0060133333333","6500300","中和區"
"235038","185-VK","2017/11/06 18:29:39","新北市中和區自立路141巷18號","121.523115","24.9935116666667","6500300","中和區"
"235049","186-VK","2017/11/06 18:29:34","新北市中和區景安路172巷8號","121.504543333333","24.9931066666667","6500300","中和區"
"235067","255-BX","2017/11/06 18:29:42","新北市中和區新生街113號","121.483551666667","25.00197","6500300","中和區"
"235044","293-VK","2017/11/06 18:29:29","新北市中和區復興路304號","121.501333333333","24.9903366666667","6500300","中和區"
"235036","301-VK","2017/11/06 18:29:36","新北市中和區連城路231號","121.493896666667","24.9974283333333","6500300","中和區"
"235043","352-BY","2017/11/06 18:29:41","新北市中和區景平路295號","121.506976666667","24.9930666666667","6500300","中和區"
"235068","377-QA","2017/11/06 18:29:27","新北市中和區圓通路284號","121.49147","24.9906083333333","6500300","中和區"
"235061","378-QA","2017/11/06 18:29:34","新北市中和區國光街54號","121.470736666667","25.0003416666667","6500300","中和區"
"235050","4979-A6","2017/11/06 18:29:45","新北市中和區景新街410巷18弄17號","121.511876666667","24.9896983333333","6500300","中和區"
"235069","4980-A6","2017/11/06 18:29:37","新北市中和區連城路99巷24號","121.496846666667","24.9991683333333","6500300","中和區"
"235042","551-UM","2017/11/06 18:29:24","新北市中和區自立路56巷21號","121.522511666667","24.9916433333333","6500300","中和區"
"235070","558-UM","2017/11/06 18:28:33","新北市中和區圓通路110巷6號","121.499056666667","24.9968316666667","6500300","中和區"
"235045","565-BX","2017/11/06 18:29:36","新北市中和區南山路236巷22弄8號","121.505518333333","24.989185","6500300","中和區"
"235054","640-BX","2017/11/06 18:29:42","新北市中和區民享街90巷1號","121.474788333333","25.0002233333333","6500300","中和區"
"235047","732-UM","2017/11/06 18:29:33","新北市中和區南山路300號","121.50793","24.9871433333333","6500300","中和區"
"235046","733-UM","2017/11/06 18:29:46","新北市中和區板南路218號","121.49809","24.994015","6500300","中和區"
"235062","800-TS","2017/11/06 18:29:28","新北市中和區景平路754號","121.496385","25.0045683333333","6500300","中和區"
"235057","801-TS","2017/11/06 18:29:36","新北市中和區民安街178號","121.476853333333","25.000065","6500300","中和區"
"235041","802-TS","2017/11/06 18:29:26","新北市中和區景安路30-5號","121.507156666667","24.9984916666667","6500300","中和區"
"235052","805-TS","2017/11/06 18:29:35","新北市中和區興南路二段133號","121.505288333333","24.9841983333333","6500300","中和區"
"235048","896-TW","2017/11/06 18:29:42","新北市中和區中正路87號","121.500543333333","24.9934816666667","6500300","中和區"
"235053","900-TW","2017/11/06 18:29:45","新北市中和區連城路518巷1號","121.476738333333","24.9919466666667","6500300","中和區"
"235060","911-UM","2017/11/06 18:29:32","新北市中和區員山路349號","121.481246666667","25.00183","6500300","中和區"
"235037","157-BY","2017/11/06 18:29:28","新北市中和區興南路二段242巷21號","121.50243","24.9829933333333","6500300","中和區"
"235037","AAC-213","2017/11/06 18:29:41","新北市中和區景德街141號","121.5145","24.9909416666667","6500300","中和區"
"235059","AAC-215","2017/11/06 18:29:27","新北市中和區員山路36巷16-3號","121.485008333333","24.9914266666667","6500300","中和區"
"226004","312-R5","2017/11/06 18:29:33","新北市平溪區薯榔里雙菁路69-1號","121.719595","25.0225333333333","6502400","平溪區"
"223003","205-TH","2017/11/06 10:05:33","新北市石碇區小粗坑(潭邊里)9-2號","121.678843333333","24.9857866666667","6501900","石碇區"
"228003","097-TW","2017/11/06 18:29:34","新北市貢寮區和美里和美街37號","121.912281666667","25.0863166666667","6502600","貢寮區"
"228002","585-TW","2017/11/06 18:29:33","新北市貢寮區福連里福連街1號","121.988328333333","25.0169416666667","6502600","貢寮區"
"228001","670-TC","2017/11/06 18:29:33","新北市貢寮區仁理村仁和路166號","121.923361666667","25.0522283333333","6502600","貢寮區"
"224006","676-BX","2017/11/06 18:29:42","新北市瑞芳區明燈路二段55號","121.811051666667","25.1081033333333","6501200","瑞芳區"
"224002","639-TC","2017/11/06 18:29:39","新北市瑞芳區三爪子坑路29巷40號","121.813708333333","25.1067283333333","6501200","瑞芳區"
"224009","285-BY","2017/11/06 18:29:35","新北市瑞芳區五號路4號","121.854766666667","25.1103616666667","6501200","瑞芳區"
"224008","275-VK","2017/11/06 18:29:33","新北市瑞芳區瑞芳街4號","121.806811666667","25.10997","6501200","瑞芳區"
"224007","273-VK","2017/11/06 18:29:32","新北市瑞芳區大埔路吉慶公園城18號","121.764916666667","25.1000933333333","6501200","瑞芳區"
"224005","271-BY","2017/11/06 18:29:33","新北市瑞芳區台電新村151號","121.811611666667","25.128325","6501200","瑞芳區"
"227008","642-TC","2017/11/06 18:29:29","新北市雙溪區牡丹里牡丹143號","121.851315","25.05895","6502500","雙溪區"
"227001","400-TW","2017/11/06 18:29:36","新北市雙溪區魚行里坤溪21號","121.870345","25.0288266666667","6502500","雙溪區"
"253005","032-BX","2017/11/06 18:29:44","新北市石門區老崩山11-13號","121.551758333333","25.2907216666667","6502200","石門區"
"253006","295-VK","2017/11/06 18:29:36","新北市石門區公地16號","121.545736666667","25.2902","6502200","石門區"
"222001","KEA-2212","2017/11/06 18:29:29","新北市深坑區北深路一段210號","121.632938333333","25.01087","6501800","深坑區"
"208002","742-BX","2017/11/06 18:29:25","新北市金山區忠孝一路5號","121.63935","25.2190633333333","6502700","金山區"
"208003","665-BX","2017/11/06 18:29:31","新北市金山區中山路118-1號","121.6393","25.2199666666667","6502700","金山區"
"208001","761-BX","2017/11/06 18:29:36","新北市金山區溫泉路21巷1號","121.63777","25.2228233333333","6502700","金山區"
"251004","009-UM","2017/11/06 18:29:32","新北市淡水區民生路52巷22弄12號","121.462435","25.13698","6501000","淡水區"
"251008","181-VK","2017/11/06 18:29:27","新北市淡水區水源街二段201號","121.457436666667","25.1762083333333","6501000","淡水區"
"251013","182-VK","2017/11/06 18:29:42","新北市淡水區椿子林29號","121.48207","25.204765","6501000","淡水區"
"251010","413-VK","2017/11/06 18:29:34","新北市淡水區沙崙路181巷1號","121.424166666667","25.1842366666667","6501000","淡水區"
"251012","441-VK","2017/11/06 18:29:42","新北市淡水區北新路一段134號","121.458643333333","25.18229","6501000","淡水區"
"251015","442-VK","2017/11/06 18:29:37","新北市淡水區興福寮88巷218號","121.485981666667","25.1664583333333","6501000","淡水區"
"251001","559-UM","2017/11/06 18:29:44","新北市淡水區自強路122巷1號","121.464438333333","25.133165","6501000","淡水區"
"251006","561-UM","2017/11/06 18:29:33","新北市淡水區新生街49號","121.440498333333","25.1749183333333","6501000","淡水區"
"251011","650-BX","2017/11/06 18:29:36","新北市淡水區中正東路27號","121.448241666667","25.1662216666667","6501000","淡水區"
"251002","672-BX","2017/11/06 18:29:39","新北市淡水區竿蓁二街19巷20弄1號","121.453161666667","25.1635916666667","6501000","淡水區"
"251003","766-UM","2017/11/06 18:29:32","新北市淡水區北新路69巷26號","121.446743333333","25.1800916666667","6501000","淡水區"
"207003","550-UM","2017/11/06 18:29:40","新北市萬里區野柳里港東路162-15號","121.690555","25.2041433333333","6502800","萬里區"
"207004","225-TW","2017/11/06 18:29:41","新北市萬里區萬里里瑪鋉路12-4號","121.687773333333","25.1756416666667","6502800","萬里區"
"252002","178-VK","2017/11/06 18:29:41","新北市三芝區中山路二段39號","121.502888333333","25.2551333333333","6502100","三芝區"
"252003","249-BX","2017/11/06 18:29:32","新北市三芝區後厝里北勢子45-32號","121.469381666667","25.25091","6502100","三芝區"
"252001","292-VK","2017/11/06 18:29:31","新北市三芝區中興街二段2號","121.49847","25.2566816666667","6502100","三芝區"
"237004","078-UY","2017/11/06 18:29:43","新北市三峽區五寮61號","121.360721666667","24.8600816666667","6500900","三峽區"
"237007","153-BY","2017/11/06 18:29:42","新北市三峽區中正路三段70巷43號","121.355075","24.9049416666667","6500900","三峽區"
"237009","210-TH","2017/11/06 18:29:39","新北市三峽區大同路253號","121.366611666667","24.9260083333333","6500900","三峽區"
"237013","252-BX","2017/11/06 18:29:35","新北市三峽區中正路一段19巷9號","121.376438333333","24.9304183333333","6500900","三峽區"
"237012","275-BY","2017/11/06 18:29:40","新北市三峽區三樹路112號","121.3784","24.9393283333333","6500900","三峽區"
"237008","302-VK","2017/11/06 18:29:28","新北市三峽區白雞68-117號","121.391533333333","24.9083216666667","6500900","三峽區"
"237006","5529-G3","2017/11/06 18:29:34","新北市三峽區溪東路371巷4弄5號","121.412413333333","24.92985","6500900","三峽區"
"237011","572-TV","2017/11/06 18:09:32","新北市三峽區橫溪路1號","121.396063333333","24.9361783333333","6500900","三峽區"
"237015","649-BX","2017/11/06 18:29:39","新北市三峽區竹崙路152號","121.43452","24.9083216666667","6500900","三峽區"
"237010","706-TV","2017/11/06 18:17:34","新北市三峽區民族街68號","121.369656666667","24.930195","6500900","三峽區"
"237005","AKY-6261","2017/11/06 18:29:34","新北市三峽區民族街5巷60號","121.369675","24.9322216666667","6500900","三峽區"
"236069","105-UM","2017/11/06 18:29:29","新北市土城區永豐路255巷27弄45號","121.477078333333","24.9737016666667","6501300","土城區"
"236042","107-UM","2017/11/06 18:29:27","新北市土城區學成路99巷11號","121.449993333333","24.98842","6501300","土城區"
"236078","166-UM","2017/11/06 18:29:42","新北市土城區中央路四段27-1號","121.424626666667","24.9618016666667","6501300","土城區"
"236030","253-BX","2017/11/06 18:29:38","新北市土城區福仁街30巷10號","121.439421666667","24.975925","6501300","土城區"
"236026","269-VK","2017/11/06 18:29:36","新北市土城區南天母路135巷34號","121.448816666667","24.954385","6501300","土城區"
"236014","270-VK","2017/11/06 18:29:36","新北市土城區青雲路39巷7號","121.460328333333","24.9873633333333","6501300","土城區"
"236036","271-VK","2017/11/06 18:29:29","新北市土城區青雲路451巷13號","121.459558333333","24.9747733333333","6501300","土城區"
"236020","401-BY","2017/11/06 18:29:36","新北市土城區永豐路202巷7號","121.466306666667","24.9833116666667","6501300","土城區"
"236048","752-BX","2017/11/06 18:29:39","新北市土城區青雲路453號","121.458641666667","24.974655","6501300","土城區"
"236058","912-UM","2017/11/06 18:29:38","新北市土城區中央路四段464號","121.409903333333","24.950615","6501300","土城區"
"236062","915-UM","2017/11/06 18:29:39","新北市土城區延壽路77巷6弄9號","121.468476666667","24.9927266666667","6501300","土城區"
"236053","AAC-216","2017/11/06 18:29:28","新北市土城區中華路二段141號","121.438995","24.9762466666667","6501300","土城區"
"242031","AAC-296","2017/11/06 18:29:32","新北市新莊區新泰路277巷8號","121.445231666667","25.0403566666667","6500500","新莊區"
"242050","751-BX","2017/11/06 18:29:46","新北市新莊區新崑路176號","121.434555","25.00019","6500500","新莊區"
"242053","440-UM","2017/11/06 18:29:25","新北市新莊區樹新路120巷38號","121.430073333333","24.9960266666667","6500500","新莊區"
"242042","400-BY","2017/11/06 18:29:29","新北市新莊區天祥街92巷14號","121.415626666667","25.0299716666667","6500500","新莊區"
"242060","362-BY","2017/11/06 18:29:29","新北市新莊區民安路153號","121.425553333333","25.0236316666667","6500500","新莊區"
"242058","353-BY","2017/11/06 18:29:40","新北市新莊區中正路891-14號","121.413075","25.02242","6500500","新莊區"
"242007","132-UY","2017/11/06 18:29:29","新北市新莊區中港路105號","121.455406666667","25.0395816666667","6500500","新莊區"
"242046","172-VK","2017/11/06 18:29:45","新北市新莊區中正路803巷47號","121.422216666667","25.02787","6500500","新莊區"
"242001","233-RS","2017/11/06 09:13:40","新北市新莊區環河路48-7號","121.436935","25.0098066666667","6500500","新莊區"
"242011","351-TH","2017/11/06 18:29:28","新北市新莊區中榮街72-1號","121.448265","25.0527466666667","6500500","新莊區"
"238015","755-BX","2017/11/06 18:29:26","新北市樹林區啟智街187巷2號","121.415143333333","24.98723","6500700","樹林區"
"238023","601-UM","2017/11/06 18:29:32","新北市樹林區三福街47巷16號","121.407798333333","25.0154283333333","6500700","樹林區"
"238019","599-UM","2017/11/06 18:29:36","新北市樹林區中華路190號","121.411918333333","24.98052","6500700","樹林區"
"238018","571-TV","2017/11/06 18:29:40","新北市樹林區樹新路28巷11號","121.427628333333","24.9942383333333","6500700","樹林區"
"238024","5061-A6","2017/11/06 18:29:44","新北市樹林區後站街6巷5號","121.423971666667","24.991385","6500700","樹林區"
"238025","303-VK","2017/11/06 18:29:27","新北市樹林區保安街一段195號","121.421031666667","24.9959133333333","6500700","樹林區"
"238017","283-BY","2017/11/06 18:29:43","新北市樹林區光榮街21號","121.412018333333","25.00375","6500700","樹林區"
"238020","268-VK","2017/11/06 18:29:43","新北市樹林區三龍街13號","121.412826666667","25.019235","6500700","樹林區"
"238026","172-UY","2017/11/06 18:29:44","新北市樹林區佳園路一段80巷46號","121.391856666667","24.9694266666667","6500700","樹林區"
"238016","169-UY","2017/11/06 18:29:44","新北市樹林區文化街28號","121.419288333333","24.9876966666667","6500700","樹林區"
"239007","AAC-297","2017/11/06 18:29:36","新北市鶯歌區重慶街100號","121.348115","24.95235","6500800","鶯歌區"
"239008","527-UM","2017/11/06 18:29:34","新北市鶯歌區國際一路179號","121.3362","24.9765033333333","6500800","鶯歌區"
"239005","526-UM","2017/11/06 18:29:34","新北市鶯歌區鳳吉三街2-3號","121.325943333333","24.97296","6500800","鶯歌區"
"239001","417-VK","2017/11/06 18:29:39","新北市鶯歌區國中街197號","121.338221666667","24.939155","6500800","鶯歌區"
"239003","360-BY","2017/11/06 18:29:40","新北市鶯歌區鶯桃路466號","121.33237","24.965555","6500800","鶯歌區"
"239004","193-VK","2017/11/06 18:29:43","新北市鶯歌區尖山路173巷31號","121.34536","24.946885","6500800","鶯歌區"
"221008","489-VK","2017/11/06 18:28:19","新北市汐止區康寧街901號","121.651335","25.0749766666667","6501100","汐止區"
"221036","130-UY","2017/11/06 18:29:44","新北市汐止區長安路149號","121.671051666667","25.0778633333333","6501100","汐止區"
"221015","131-UY","2017/11/06 18:29:27","新北市汐止區鄉友街46號","121.669043333333","25.081665","6501100","汐止區"
"221010","269-BY","2017/11/06 18:29:33","新北市汐止區汐萬路三段56號","121.643835","25.0930216666667","6501100","汐止區"
"221012","278-VK","2017/11/06 18:29:39","新北市汐止區保長路51巷15號","121.673951666667","25.0790616666667","6501100","汐止區"
"221023","279-VK","2017/11/06 18:29:46","新北市汐止區康寧街476號","121.63211","25.0683733333333","6501100","汐止區"
"221032","280-BY","2017/11/06 18:29:32","新北市汐止區福山街62巷11號","121.618595","25.04647","6501100","汐止區"
"221027","281-BY","2017/11/06 18:29:42","新北市汐止區建成路57巷1號","121.66257","25.0723616666667","6501100","汐止區"
"221029","298-VK","2017/11/06 18:29:34","新北市汐止區樟樹一路272-4號","121.642681666667","25.06873","6501100","汐止區"
"221021","299-VK","2017/11/06 18:29:27","新北市汐止區連興街122號","121.653576666667","25.0621316666667","6501100","汐止區"
"221031","353-TW","2017/11/06 18:29:26","新北市汐止區大同路一段160號","121.633445","25.0568616666667","6501100","汐止區"
"221002","358-BY","2017/11/06 18:29:46","新北市汐止區福德一路174號","121.63583","25.066165","6501100","汐止區"
"221035","622-UM","2017/11/06 18:29:45","新北市汐止區大同路二段105號","121.649726666667","25.063475","6501100","汐止區"
"221025","623-UM","2017/11/06 18:29:30","新北市汐止區仁愛路130-2號","121.663178333333","25.0640233333333","6501100","汐止區"
"221038","646-BX","2017/11/06 18:29:41","新北市汐止區忠孝東路303號","121.664238333333","25.0689183333333","6501100","汐止區"
"221033","647-BX","2017/11/06 18:29:29","新北市汐止區宜興街59巷5號","121.622223333333","25.0428333333333","6501100","汐止區"
"221018","753-BX","2017/11/06 18:29:36","新北市汐止區茄苳路202號","121.670438333333","25.0690516666667","6501100","汐止區"
"220082","610-BX","2017/11/06 18:29:29","新北市板橋區華東街1-10號","121.448263333333","24.99494","6500100","板橋區"
"220056","276-BY","2017/11/06 18:29:40","新北市板橋區華東街1-9號","121.448133333333","24.9949833333333","6500100","板橋區"
"220094","285-UM","2017/11/06 18:29:34","新北市板橋區民生路二段161巷1號","121.470108333333","25.0198383333333","6500100","板橋區"
"220064","486-VK","2017/11/06 18:29:47","新北市板橋區縣民大道一段295號","121.461056666667","25.0104733333333","6500100","板橋區"
"220035","560-BX","2017/11/06 18:29:46","新北市板橋區華東街328號","121.452796666667","25.00346","6500100","板橋區"
"220063","609-BX","2017/11/06 16:41:05","新北市板橋區民生路二段161巷1號","121.469793333333","25.0199683333333","6500100","板橋區"
"220086","630-UY","2017/11/06 18:29:27","新北市板橋區南雅南路二段118號","121.45245","25.0002316666667","6500100","板橋區"
"220073","985-R7","2017/11/06 18:29:30","新北市板橋區華東街1-10號","121.448353333333","24.9949716666667","6500100","板橋區"
