"lineid","car","time","location","longitude","latitude","cityid","cityname"
"234046","148-BY","2017/11/06 18:39:31","新北市永和區永元路68號","121.522541666667","25.0015466666667","6500400","永和區"
"234013","149-BY","2017/11/06 18:39:44","新北市永和區保安路76號","121.509938333333","25.0163516666667","6500400","永和區"
"234007","207-UY","2017/11/06 18:39:34","新北市永和區環河西路二段219號","121.501156666667","25.0102966666667","6500400","永和區"
"234081","298-R6","2017/11/06 18:39:35","新北市永和區林森路77號","121.523971666667","25.0039483333333","6500400","永和區"
"234038","336-UY","2017/11/06 18:39:43","新北市永和區福和路1號","121.526601666667","25.010165","6500400","永和區"
"234064","337-UY","2017/11/06 18:39:33","新北市永和區福和路1號","121.526581666667","25.0101466666667","6500400","永和區"
"234086","338-UY","2017/11/06 18:39:23","新北市中和區安平路104號","121.511638333333","24.9973183333333","6500400","永和區"
"234017","745-BX","2017/11/06 18:39:39","新北市永和區福和路1號","121.52558","25.0094566666667","6500400","永和區"
"234030","746-BX","2017/11/06 18:39:27","新北市永和區成功路一段89號","121.526845","25.0029616666667","6500400","永和區"
"234061","AAD-866","2017/11/06 18:39:32","新北市永和區環河東路二段92號","121.524411666667","25.0106","6500400","永和區"
"234042","862-TW","2017/11/06 18:39:32","新北市永和區永貞路304號","121.511961666667","25.0048266666667","6500400","永和區"
"234026","9381-KE","2017/11/06 18:39:37","新北市永和區仁愛路283號","121.505615","25.0096016666667","6500400","永和區"
"234011","9373-KE","2017/11/06 18:39:26","新北市永和區文化路9巷22弄30號","121.514558333333","25.014655","6500400","永和區"
"249005","172-UM","2017/11/06 18:39:41","新北市八里區中華路三段34-2號","121.388681666667","25.1254983333333","6502300","八里區"
"249001","173-UM","2017/11/06 18:39:27","新北市八里區龍米路一段360號","121.451568333333","25.1313766666667","6502300","八里區"
"249004","303-UY","2017/11/06 18:39:40","新北市八里區龍米路三段60號","121.423653333333","25.1589466666667","6502300","八里區"
"249002","305-UY","2017/11/06 18:39:30","新北市八里區頂寮二街138號","121.449311666667","25.1294383333333","6502300","八里區"
"248016","026-BX","2017/11/06 18:39:39","新北市五股區凌雲路一段149巷9號","121.448815","25.101505","6501500","五股區"
"248008","095-VK","2017/11/06 18:39:40","新北市五股區中興路一段148號","121.464633333333","25.0741033333333","6501500","五股區"
"248018","225-UY","2017/11/06 18:39:30","新北市五股區民義路二段52巷9-2號","121.411045","25.109595","6501500","五股區"
"248012","247-BX","2017/11/06 18:39:32","新北市五股區御史路54巷2號","121.441813333333","25.093775","6501500","五股區"
"248014","261-SL","2017/11/06 18:39:35","新北市五股區成泰路一段235號","121.436261666667","25.0793916666667","6501500","五股區"
"248010","272-BY","2017/11/06 18:39:28","新北市五股區明德路23號","121.434623333333","25.0713066666667","6501500","五股區"
"248004","677-BX","2017/11/06 18:39:28","新北市五股區民義路一段206號","121.430366666667","25.0891","6501500","五股區"
"248002","678-BX","2017/11/06 18:39:32","新北市五股區西雲路218號","121.448098333333","25.0960616666667","6501500","五股區"
"234023","9380-KE","2017/11/06 18:39:38","新北市永和區福和路38號","121.523765","25.0082466666667","6500400","永和區"
"234077","969-R7","2017/11/06 18:39:32","新北市永和區中正路182號","121.515228333333","24.9968616666667","6500400","永和區"
"234067","AAC-212","2017/11/06 18:39:45","新北市永和區永貞路191號","121.51479","25.0038733333333","6500400","永和區"
"234003","AAC-295","2017/11/06 18:39:38","新北市永和區福和路1號","121.526548333333","25.0100433333333","6500400","永和區"
"232011","375-UM","2017/11/06 18:21:20","新北市坪林區坪雙路一段43號","121.711778333333","24.942495","6502000","坪林區"
"244013","069-UM","2017/11/06 18:39:31","新北市林口區中正路514巷31號","121.382196666667","25.0781116666667","6501700","林口區"
"244007","080-UY","2017/11/06 18:39:40","新北市林口區後湖17-9號","121.387236666667","25.0970533333333","6501700","林口區"
"244019","403-UM","2017/11/06 18:39:35","新北市林口區忠孝路614號","121.377148333333","25.06837","6501700","林口區"
"244025","742-UY","2017/11/06 18:39:25","新北市林口區南勢街221巷28號","121.357723333333","25.0753516666667","6501700","林口區"
"244009","410-SL","2017/11/06 18:39:27","新北市林口區寶林路40號","121.385475","25.0842766666667","6501700","林口區"
"244023","483-VK","2017/11/06 18:39:28","新北市林口區民享路36號","121.380835","25.080645","6501700","林口區"
"244017","485-VK","2017/11/06 18:39:30","新北市林口區文化二路一段156號","121.368413333333","25.0714433333333","6501700","林口區"
"244011","701-TV","2017/11/06 18:39:34","新北市林口區興林路15號","121.389746666667","25.0770833333333","6501700","林口區"
"244021","838-TS","2017/11/06 18:39:40","新北市林口區工六路10號","121.39795","25.0790866666667","6501700","林口區"
"243012","AAD-798","2017/11/06 18:39:27","新北市泰山區福興三街13號","121.434426666667","25.0578033333333","6501600","泰山區"
"243013","646-TV","2017/11/06 18:39:27","新北市泰山區明志路三段206巷10號","121.423241666667","25.0380216666667","6501600","泰山區"
"222003","436-BY","2017/11/06 18:39:34","新北市深坑區翠谷街29號","121.626616666667","25.0090866666667","6501800","深坑區"
"222002","659-BX","2017/11/06 18:39:41","新北市深坑區文山路一段62巷33號","121.621208333333","25.0002183333333","6501800","深坑區"
"231041","002-UM","2017/11/06 18:39:30","新北市新店區安華路28-1號","121.519553333333","24.9607983333333","6500600","新店區"
"231059","046-UY","2017/11/06 18:39:40","新北市新店區安華路28-1號","121.519555","24.9608416666667","6500600","新店區"
"231061","047-UY","2017/11/06 18:39:41","新北市新店區安華路28-1號","121.519328333333","24.9610366666667","6500600","新店區"
"231060","106-UY","2017/11/06 18:39:38","新北市新店區安華路28-1號","121.519856666667","24.9611133333333","6500600","新店區"
"231047","108-UY","2017/11/06 18:39:31","新北市新店區光明街131號","121.539218333333","24.96198","6500600","新店區"
"231052","187-VK","2017/11/06 18:39:38","新北市新店區新烏路一段70號","121.545843333333","24.9413416666667","6500600","新店區"
"231050","KEA-2219","2017/11/06 18:39:40","新北市新店區安華路28-1號","121.519725","24.9612616666667","6500600","新店區"
"231057","256-BX","2017/11/06 18:39:26","新北市新店區新烏路一段201號","121.548496666667","24.9317516666667","6500600","新店區"
"231046","278-BY","2017/11/06 18:39:31","新北市新店區直潭二街1號","121.535553333333","24.9431816666667","6500600","新店區"
"231058","3712-VJ","2017/11/06 18:39:38","新北市新店區新店路13號","121.540346666667","24.9529","6500600","新店區"
"231056","3713-VJ","2017/11/06 18:39:35","新北市新店區二十張路123號","121.535983333333","24.9794733333333","6500600","新店區"
"231055","4716-K9","2017/11/06 18:39:37","新北市新店區華興街9號","121.537943333333","24.9696433333333","6500600","新店區"
"231067","4772-VM","2017/11/06 18:39:39","新北市新店區安華路28-1號","121.519746666667","24.9608166666667","6500600","新店區"
"231065","512-UM","2017/11/06 18:39:39","新北市新店區安華路28-1號","121.519351666667","24.961215","6500600","新店區"
"231054","513-UM","2017/11/06 18:39:31","新北市新店區安華路28-1號","121.519675","24.9611633333333","6500600","新店區"
"231064","515-UM","2017/11/06 16:34:54","新北市新店區安華路28-1號","121.519406666667","24.9610083333333","6500600","新店區"
"231040","619-UM","2017/11/06 18:39:25","新北市新店區安華路28-1號","121.519356666667","24.9608366666667","6500600","新店區"
"231042","641-BX","2017/11/06 18:39:43","新北市新店區安華路28-1號","121.519673333333","24.9606516666667","6500600","新店區"
"231063","645-TV","2017/11/06 18:39:28","新北市新店區安華路28-1號","121.519276666667","24.9606216666667","6500600","新店區"
"231049","719-UM","2017/11/06 18:39:35","新北市新店區安康路一段123號","121.528295","24.9617866666667","6500600","新店區"
"231051","719-UY","2017/11/06 18:39:36","新北市新店區安康路一段9-2號","121.533728333333","24.96057","6500600","新店區"
"231062","720-UM","2017/11/06 18:39:44","新北市新店區安華路28-1號","121.519348333333","24.9612016666667","6500600","新店區"
"231044","897-TW","2017/11/06 18:39:30","新北市新店區光明街125號","121.539103333333","24.961895","6500600","新店區"
"231045","898-TW","2017/11/06 18:39:40","新北市新店區安華路28-1號","121.519283333333","24.96088","6500600","新店區"
"231043","899-TW","2017/11/06 18:39:44","新北市新店區安華路28-1號","121.519286666667","24.9608533333333","6500600","新店區"
"231066","AKT-0513","2017/11/06 18:39:43","新北市新店區安華路1-1號","121.519438333333","24.960095","6500600","新店區"
"241030","480-VK","2017/11/06 18:39:41","新北市三重區竹圍(仔)街17-5號","121.486351666667","25.0478316666667","6500200","三重區"
"235066","003-UY","2017/11/06 18:39:44","新北市中和區水源路34巷2號","121.504685","25.00354","6500300","中和區"
"235064","005-UY","2017/11/06 18:39:30","新北市中和區連城路139巷66號","121.496808333333","24.9968183333333","6500300","中和區"
"235063","006-UY","2017/11/06 18:39:24","新北市中和區連城路369號","121.487241666667","24.9962483333333","6500300","中和區"
"235056","096-UM","2017/11/06 18:39:44","新北市中和區員山路611巷1號","121.477941666667","25.011325","6500300","中和區"
"235039","097-UM","2017/11/06 18:39:33","新北市中和區安平路192-1號","121.513186666667","24.999395","6500300","中和區"
"235065","098-UM","2017/11/06 18:39:43","新北市中和區莊敬路49巷27號","121.50154","25.006065","6500300","中和區"
"235040","150-BY","2017/11/06 18:39:33","新北市中和區安平路38號","121.509875","24.99516","6500300","中和區"
"235058","151-BY","2017/11/06 18:39:44","新北市中和區圓通路356-10號","121.48523","24.9868533333333","6500300","中和區"
"235055","183-VK","2017/11/06 18:39:34","新北市中和區中山路三段229巷59號","121.468958333333","25.0052133333333","6500300","中和區"
"235038","185-VK","2017/11/06 18:39:39","新北市中和區立人街14巷23號","121.519458333333","24.9951433333333","6500300","中和區"
"235049","186-VK","2017/11/06 18:39:41","新北市中和區景安路175-1號","121.50526","24.9942366666667","6500300","中和區"
"235067","255-BX","2017/11/06 18:39:42","新北市中和區中正路879號","121.484386666667","25.0040983333333","6500300","中和區"
"235044","293-VK","2017/11/06 18:39:29","新北市中和區復興路263巷12號","121.502766666667","24.9896533333333","6500300","中和區"
"235036","301-VK","2017/11/06 18:39:36","新北市中和區連城路87號","121.496788333333","25.000285","6500300","中和區"
"235043","352-BY","2017/11/06 18:39:41","新北市中和區景平路149號","121.51383","24.9920383333333","6500300","中和區"
"235068","377-QA","2017/11/06 18:39:47","新北市中和區中正路132號","121.499388333333","24.9939416666667","6500300","中和區"
"235061","378-QA","2017/11/06 18:39:34","新北市中和區民享街88巷19號","121.47359","25.0003483333333","6500300","中和區"
"235050","4979-A6","2017/11/06 18:39:25","新北市中和區景新街496巷28弄10號","121.513085","24.9859216666667","6500300","中和區"
"235069","4980-A6","2017/11/06 18:39:37","新北市中和區泰和街38巷28號","121.498561666667","25.0011766666667","6500300","中和區"
"235042","551-UM","2017/11/06 18:39:24","新北市中和區成功路97巷5弄27號","121.526528333333","24.9926866666667","6500300","中和區"
"235070","558-UM","2017/11/06 18:39:33","新北市中和區南華路56巷12號","121.504621666667","24.996715","6500300","中和區"
"235045","565-BX","2017/11/06 18:39:42","新北市中和區南山路236巷9號","121.505771666667","24.988855","6500300","中和區"
"235054","640-BX","2017/11/06 18:39:42","新北市中和區民享街86巷13號","121.473841666667","25.0007616666667","6500300","中和區"
"235047","732-UM","2017/11/06 18:39:33","新北市中和區南山路322號","121.507801666667","24.9865866666667","6500300","中和區"
"235046","733-UM","2017/11/06 18:39:26","新北市中和區興南路一段86號","121.509903333333","24.9893966666667","6500300","中和區"
"235062","800-TS","2017/11/06 18:39:28","新北市中和區中山路二段312巷11號","121.495518333333","25.0032066666667","6500300","中和區"
"235057","801-TS","2017/11/06 18:39:36","新北市中和區民安街42巷14號","121.479753333333","25.0008083333333","6500300","中和區"
"235041","802-TS","2017/11/06 18:39:26","新北市中和區中安街178巷13弄1號","121.510305","24.998795","6500300","中和區"
"235052","805-TS","2017/11/06 18:39:35","新北市中和區興南路三段60號","121.493385","24.9752316666667","6500300","中和區"
"235048","896-TW","2017/11/06 18:39:42","新北市中和區南山路311號","121.504856666667","24.9915083333333","6500300","中和區"
"235053","900-TW","2017/11/06 18:39:25","新北市中和區民享街468-1號","121.46945","24.9924283333333","6500300","中和區"
"235060","911-UM","2017/11/06 18:39:32","新北市中和區中山路二段479號","121.483088333333","25.0049866666667","6500300","中和區"
"235037","157-BY","2017/11/06 18:39:28","新北市中和區興南路二段112巷2弄2號","121.504476666667","24.98415","6500300","中和區"
"235037","AAC-213","2017/11/06 18:39:41","新北市中和區景平路111巷69號","121.515086666667","24.990275","6500300","中和區"
"235059","AAC-215","2017/11/06 18:39:27","新北市中和區錦和路350-1號","121.490453333333","24.9935766666667","6500300","中和區"
"220068","013-TV","2017/11/06 18:39:40","新北市板橋區民生路二段120號","121.470841666667","25.0196883333333","6500100","板橋區"
"220065","072-UY","2017/11/06 18:39:47","新北市板橋區中山路一段3-1號","121.459258333333","25.00813","6500100","板橋區"
"220069","AAD-861","2017/11/06 18:39:24","新北市板橋區華東街1-10號","121.448286666667","24.9951233333333","6500100","板橋區"
"226004","312-R5","2017/11/06 18:35:33","新北市平溪區靜安路二段291號","121.733996666667","25.0233316666667","6502400","平溪區"
"223003","205-TH","2017/11/06 10:05:33","新北市石碇區小粗坑(潭邊里)9-2號","121.678843333333","24.9857866666667","6501900","石碇區"
"228003","097-TW","2017/11/06 18:39:34","新北市貢寮區和美里龍洞街41號","121.912638333333","25.1132316666667","6502600","貢寮區"
"228002","585-TW","2017/11/06 18:39:33","新北市貢寮區福隆里東興街6-11號","121.950741666667","25.0210733333333","6502600","貢寮區"
"228001","670-TC","2017/11/06 18:39:33","新北市貢寮區仁理村研海街12-1號","121.923756666667","25.0516716666667","6502600","貢寮區"
"224010","AGQ-8101","2017/11/06 18:35:01","新北市瑞芳區崙頂路105號","121.844536666667","25.1071533333333","6501200","瑞芳區"
"224006","676-BX","2017/11/06 18:39:40","新北市瑞芳區明燈路三段97號","121.804353333333","25.1085233333333","6501200","瑞芳區"
"224002","639-TC","2017/11/06 18:39:39","新北市瑞芳區靜安路四段67號","121.794093333333","25.10573","6501200","瑞芳區"
"224009","285-BY","2017/11/06 18:39:35","新北市瑞芳區五號路308號","121.856815","25.1114366666667","6501200","瑞芳區"
"224008","275-VK","2017/11/06 18:39:36","新北市瑞芳區瑞芳街139號","121.805021666667","25.1098733333333","6501200","瑞芳區"
"224007","273-VK","2017/11/06 18:39:11","新北市瑞芳區大埔路153號","121.763665","25.1014133333333","6501200","瑞芳區"
"224005","271-BY","2017/11/06 18:39:33","新北市瑞芳區瑞濱路151號","121.818826666667","25.1182616666667","6501200","瑞芳區"
"227008","642-TC","2017/11/06 18:39:29","新北市雙溪區牡丹里下坑11號","121.85102","25.0561683333333","6502500","雙溪區"
"227001","400-TW","2017/11/06 18:39:36","新北市雙溪區魚行里坤溪3-5號","121.87619","25.020755","6502500","雙溪區"
"253005","032-BX","2017/11/06 18:39:24","新北市石門區石門街22號","121.566056666667","25.2906116666667","6502200","石門區"
"253006","295-VK","2017/11/06 18:39:36","新北市石門區楓林37-6號","121.541353333333","25.2895066666667","6502200","石門區"
"222001","KEA-2212","2017/11/06 18:39:29","新北市深坑區北深路一段84號","121.636278333333","25.0106483333333","6501800","深坑區"
"208002","742-BX","2017/11/06 18:39:44","新北市金山區忠孝一路22號","121.63842","25.219535","6502700","金山區"
"208003","665-BX","2017/11/06 18:39:09","新北市金山區中山路256號","121.635646666667","25.2239866666667","6502700","金山區"
"208001","761-BX","2017/11/06 18:39:36","新北市金山區文化三路9號","121.635445","25.2247083333333","6502700","金山區"
"251004","009-UM","2017/11/06 18:39:32","新北市淡水區中正東路二段143巷8弄1號","121.461595","25.1476383333333","6501000","淡水區"
"251008","181-VK","2017/11/06 18:39:27","新北市淡水區北投子68-2號","121.454386666667","25.1814383333333","6501000","淡水區"
"251013","182-VK","2017/11/06 18:39:42","新北市淡水區雲廣坑5號","121.47325","25.2129916666667","6501000","淡水區"
"251010","413-VK","2017/11/06 18:39:34","新北市淡水區沙崙路126號","121.423393333333","25.1829066666667","6501000","淡水區"
"251012","441-VK","2017/11/06 18:39:42","新北市淡水區北新路121號","121.448966666667","25.1787466666667","6501000","淡水區"
"251015","442-VK","2017/11/06 18:39:37","新北市淡水區興福寮66巷28號","121.486133333333","25.1623533333333","6501000","淡水區"
"251001","559-UM","2017/11/06 18:39:44","新北市淡水區自強路166號","121.465563333333","25.134065","6501000","淡水區"
"251006","561-UM","2017/11/06 18:39:33","新北市淡水區崁頂36-1號","121.438925","25.1946633333333","6501000","淡水區"
"251011","650-BX","2017/11/06 18:39:36","新北市淡水區鄧公路34號","121.457735","25.16887","6501000","淡水區"
"251002","672-BX","2017/11/06 18:39:39","新北市淡水區中正東路8-8號","121.44789","25.1666033333333","6501000","淡水區"
"251003","766-UM","2017/11/06 18:39:32","新北市淡水區中山北路一段214-2號","121.446148333333","25.1793916666667","6501000","淡水區"
"207003","550-UM","2017/11/06 18:39:42","新北市萬里區野柳里港東路61號","121.687585","25.2037966666667","6502800","萬里區"
"207004","225-TW","2017/11/06 18:39:47","新北市萬里區萬里里獅頭路12-4號","121.692746666667","25.1793566666667","6502800","萬里區"
"252002","178-VK","2017/11/06 18:39:41","新北市三芝區中正路二段33號","121.504036666667","25.254905","6502100","三芝區"
"252003","249-BX","2017/11/06 18:39:32","新北市三芝區後厝里土地公坑54-17號","121.4658","25.2495333333333","6502100","三芝區"
"252001","292-VK","2017/11/06 18:39:31","新北市三芝區中興街二段54號","121.499618333333","25.254965","6502100","三芝區"
"237004","078-UY","2017/11/06 18:39:43","新北市三峽區插角1號","121.39839","24.87348","6500900","三峽區"
"237007","153-BY","2017/11/06 18:39:42","新北市三峽區中正路三段192號","121.35094","24.903335","6500900","三峽區"
"237009","210-TH","2017/11/06 18:39:39","新北市三峽區大同路286巷3號","121.364423333333","24.9252966666667","6500900","三峽區"
"237013","252-BX","2017/11/06 18:39:35","新北市三峽區大同路1-2號","121.378408333333","24.9299233333333","6500900","三峽區"
"237012","275-BY","2017/11/06 18:39:40","新北市三峽區三樹路328號","121.381655","24.9440133333333","6500900","三峽區"
"237008","302-VK","2017/11/06 18:39:28","新北市三峽區白雞77號","121.402455","24.910155","6500900","三峽區"
"237006","5529-G3","2017/11/06 18:39:34","新北市三峽區溪東路315巷6號","121.410586666667","24.9306566666667","6500900","三峽區"
"237011","572-TV","2017/11/06 18:09:32","新北市三峽區橫溪路1號","121.396063333333","24.9361783333333","6500900","三峽區"
"237015","649-BX","2017/11/06 18:39:39","新北市三峽區竹崙路19巷1-1號","121.428528333333","24.9229616666667","6500900","三峽區"
"237010","706-TV","2017/11/06 18:39:34","新北市三峽區復興路341號","121.3642","24.9386766666667","6500900","三峽區"
"237005","AKY-6261","2017/11/06 18:39:34","新北市三峽區民生街102號","121.373726666667","24.9356666666667","6500900","三峽區"
"236069","105-UM","2017/11/06 18:39:29","新北市土城區永豐路185號","121.47005","24.9783583333333","6501300","土城區"
"236042","107-UM","2017/11/06 18:39:47","新北市土城區學成路110號","121.449808333333","24.9892316666667","6501300","土城區"
"236078","166-UM","2017/11/06 18:39:42","新北市土城區中央路四段46巷28號","121.421885","24.9616216666667","6501300","土城區"
"236030","253-BX","2017/11/06 18:39:38","新北市土城區福仁街72號","121.439105","24.97428","6501300","土城區"
"236026","269-VK","2017/11/06 18:39:29","新北市土城區忠義路49號","121.440521666667","24.96919","6501300","土城區"
"236014","270-VK","2017/11/06 18:39:44","新北市土城區清水路207巷11號","121.459976666667","24.9822466666667","6501300","土城區"
"236036","271-VK","2017/11/06 18:39:29","新北市土城區明德路一段313巷3弄11號","121.460003333333","24.97652","6501300","土城區"
"236020","401-BY","2017/11/06 18:39:36","新北市土城區延吉街252號","121.466486666667","24.9846033333333","6501300","土城區"
"236048","752-BX","2017/11/06 18:39:39","新北市土城區金城路三段10號","121.464766666667","24.986","6501300","土城區"
"236058","912-UM","2017/11/06 18:39:38","新北市土城區中央路四段141號","121.41564","24.9572066666667","6501300","土城區"
"236062","915-UM","2017/11/06 18:39:39","新北市土城區延壽路13巷38號","121.469998333333","24.991415","6501300","土城區"
"236053","AAC-216","2017/11/06 18:39:32","新北市土城區中華路一段181號","121.443496666667","24.9857266666667","6501300","土城區"
"242050","751-BX","2017/11/06 18:39:26","新北市樹林區八德街584號","121.398623333333","24.9692833333333","6500500","新莊區"
"242001","233-RS","2017/11/06 09:13:40","新北市新莊區環河路48-7號","121.436935","25.0098066666667","6500500","新莊區"
"242011","351-TH","2017/11/06 18:39:44","新北市新莊區三和路10號","121.441925","25.035455","6500500","新莊區"
"238015","755-BX","2017/11/06 18:39:26","新北市樹林區備內街121號","121.405905","24.9893433333333","6500700","樹林區"
"238023","601-UM","2017/11/06 18:39:31","新北市樹林區三福街81號","121.407183333333","25.01628","6500700","樹林區"
"238019","599-UM","2017/11/06 18:39:36","新北市樹林區中華路190號","121.411865","24.9804733333333","6500700","樹林區"
"238018","571-TV","2017/11/06 18:39:41","新北市樹林區樹新路82號","121.429286666667","24.9973616666667","6500700","樹林區"
"238024","5061-A6","2017/11/06 18:39:28","新北市樹林區中華路190-3號","121.410958333333","24.9805516666667","6500700","樹林區"
"238025","303-VK","2017/11/06 18:39:47","新北市樹林區中山路三段206-3號","121.38283","24.9663616666667","6500700","樹林區"
"238020","268-VK","2017/11/06 18:39:43","新北市樹林區俊安街32號","121.419748333333","25.0137433333333","6500700","樹林區"
"238026","172-UY","2017/11/06 18:39:24","新北市樹林區中山路三段182號","121.388168333333","24.9695466666667","6500700","樹林區"
"238016","169-UY","2017/11/06 18:39:44","新北市樹林區文化街28號","121.419278333333","24.9876816666667","6500700","樹林區"
"239007","AAC-297","2017/11/06 18:39:36","新北市鶯歌區中正一路432號","121.36155","24.9570133333333","6500800","鶯歌區"
"239008","527-UM","2017/11/06 18:39:34","新北市鶯歌區國際一路179號","121.336211666667","24.9764783333333","6500800","鶯歌區"
"239005","526-UM","2017/11/06 18:39:34","新北市鶯歌區鳳吉一街158號","121.328678333333","24.9754116666667","6500800","鶯歌區"
"239001","417-VK","2017/11/06 18:39:39","新北市鶯歌區中正三路193巷11號","121.336101666667","24.93904","6500800","鶯歌區"
"239003","360-BY","2017/11/06 18:39:40","新北市鶯歌區永和街165號","121.335393333333","24.9699066666667","6500800","鶯歌區"
"239004","193-VK","2017/11/06 18:39:26","新北市鶯歌區尖山路261號","121.340933333333","24.9435533333333","6500800","鶯歌區"
"221008","489-VK","2017/11/06 18:28:19","新北市汐止區康寧街901號","121.651335","25.0749766666667","6501100","汐止區"
"221036","130-UY","2017/11/06 18:39:44","新北市汐止區南昌街13號","121.66352","25.0694766666667","6501100","汐止區"
"221015","131-UY","2017/11/06 18:39:27","新北市汐止區吉祥街27巷2號","121.667675","25.0815366666667","6501100","汐止區"
"221010","269-BY","2017/11/06 18:39:33","新北市汐止區汐萬路三段235號","121.64376","25.1049283333333","6501100","汐止區"
"221012","278-VK","2017/11/06 18:39:39","新北市汐止區長江街194號","121.660388333333","25.0769266666667","6501100","汐止區"
"221023","279-VK","2017/11/06 18:39:26","新北市汐止區明峰街26號","121.6343","25.0714516666667","6501100","汐止區"
"221032","280-BY","2017/11/06 18:39:32","新北市汐止區民權街二段93號","121.619003333333","25.0474783333333","6501100","汐止區"
"221027","281-BY","2017/11/06 18:39:42","新北市汐止區汐萬路一段161號","121.653021666667","25.0709733333333","6501100","汐止區"
"221029","298-VK","2017/11/06 18:39:34","新北市汐止區樟樹一路142號","121.64228","25.0650283333333","6501100","汐止區"
"221021","299-VK","2017/11/06 18:39:27","新北市汐止區復興路71號","121.657266666667","25.0619916666667","6501100","汐止區"
"221031","353-TW","2017/11/06 18:39:26","新北市汐止區大同路一段276-1號","121.634405","25.0567","6501100","汐止區"
"221002","358-BY","2017/11/06 18:39:46","新北市汐止區中興路108號","121.633271666667","25.0637016666667","6501100","汐止區"
"221035","622-UM","2017/11/06 18:39:31","新北市汐止區大同路二段276號","121.654756666667","25.0662066666667","6501100","汐止區"
"221025","623-UM","2017/11/06 18:39:30","新北市汐止區仁愛路119巷27號","121.661943333333","25.0645283333333","6501100","汐止區"
"221038","646-BX","2017/11/06 18:39:41","新北市汐止區大同路二段407號","121.658385","25.067295","6501100","汐止區"
"221033","647-BX","2017/11/06 18:39:29","新北市汐止區宜興街1號","121.620798333333","25.0411516666667","6501100","汐止區"
"221018","753-BX","2017/11/06 18:39:36","新北市汐止區茄苳路250巷20號","121.671585","25.0677616666667","6501100","汐止區"
"220080","200-UY","2017/11/06 18:39:34","新北市板橋區大觀路二段435-10號","121.444801666667","24.9945033333333","6500100","板橋區"
"220082","610-BX","2017/11/06 18:39:29","新北市板橋區四川路二段橋頭1巷1號","121.44692","24.99406","6500100","板橋區"
"220056","276-BY","2017/11/06 18:39:40","新北市板橋區四川路二段橋頭6號","121.448298333333","24.9940383333333","6500100","板橋區"
"220072","277-BY","2017/11/06 18:39:28","新北市板橋區四川路二段橋頭1巷1號","121.446638333333","24.9941466666667","6500100","板橋區"
"220071","283-VK","2017/11/06 18:39:27","新北市板橋區華東街1-10號","121.448651666667","24.9950116666667","6500100","板橋區"
"220094","285-UM","2017/11/06 18:39:34","新北市板橋區民生路二段161巷3號","121.470133333333","25.019785","6500100","板橋區"
"220083","286-VK","2017/11/06 18:39:39","新北市板橋區板城路407號","121.447448333333","24.99509","6500100","板橋區"
"220081","287-VK","2017/11/06 18:39:32","新北市板橋區板城路421號","121.447951666667","24.9955516666667","6500100","板橋區"
"220061","295-UM","2017/11/06 18:39:42","新北市板橋區民生路二段120號","121.470483333333","25.01976","6500100","板橋區"
"220075","297-UM","2017/11/06 18:39:33","新北市板橋區板城路421號","121.448096666667","24.9956783333333","6500100","板橋區"
"220098","317-R6","2017/11/06 18:39:33","新北市板橋區民生路二段161巷9號","121.470163333333","25.0196083333333","6500100","板橋區"
"220064","486-VK","2017/11/06 18:39:27","新北市板橋區民生路二段36-1號","121.472165","25.0167633333333","6500100","板橋區"
"220035","560-BX","2017/11/06 18:39:25","新北市板橋區南雅西路二段145巷10號","121.451583333333","25.0119483333333","6500100","板橋區"
"220063","609-BX","2017/11/06 16:41:05","新北市板橋區民生路二段161巷1號","121.469793333333","25.0199683333333","6500100","板橋區"
"220086","630-UY","2017/11/06 18:39:27","新北市板橋區南雅西路二段192巷3號","121.452051666667","25.014425","6500100","板橋區"
"220057","686-BX","2017/11/06 18:39:32","新北市板橋區華東街1-9號","121.448156666667","24.9948483333333","6500100","板橋區"
"220077","687-BX","2017/11/06 18:39:35","新北市板橋區四川路二段橋頭1巷1號","121.446828333333","24.9941133333333","6500100","板橋區"
"220054","741-BX","2017/11/06 18:39:29","新北市板橋區華東街1-9號","121.448103333333","24.9949566666667","6500100","板橋區"
"220055","827-TW","2017/11/06 18:39:31","新北市板橋區華東街1-9號","121.448181666667","24.9949233333333","6500100","板橋區"
"220067","829-TW","2017/11/06 18:39:29","新北市板橋區民生路二段120號","121.47031","25.019925","6500100","板橋區"
"220074","895-R6","2017/11/06 18:39:33","新北市板橋區南雅南路二段146號","121.451568333333","24.99614","6500100","板橋區"
"220073","985-R7","2017/11/06 18:39:30","新北市板橋區南雅南路二段140號","121.451698333333","24.9962766666667","6500100","板橋區"
"220070","AAC-253","2017/11/06 18:39:29","新北市板橋區華東街1-9號","121.448203333333","24.9949583333333","6500100","板橋區"
