"lineid","car","time","location","longitude","latitude","cityid","cityname"
"234046","148-BY","2017/11/06 18:59:32","新北市永和區得和路373巷16弄14號","121.525546666667","25.0000316666667","6500400","永和區"
"234013","149-BY","2017/11/06 18:59:44","新北市永和區信義路17巷22號","121.513203333333","25.011225","6500400","永和區"
"234007","207-UY","2017/11/06 18:59:34","新北市永和區中山路一段73號","121.512528333333","25.010585","6500400","永和區"
"234081","298-R6","2017/11/06 18:59:36","新北市永和區永貞路30號","121.520925","25.0067583333333","6500400","永和區"
"234038","336-UY","2017/11/06 18:59:43","新北市永和區成功路二段207號","121.526561666667","24.9959483333333","6500400","永和區"
"234064","337-UY","2017/11/06 18:59:33","新北市永和區秀朗路一段172號","121.518835","25.0032933333333","6500400","永和區"
"234086","338-UY","2017/11/06 18:59:43","新北市永和區永寧街121號","121.517993333333","25.0056816666667","6500400","永和區"
"234070","552-UM","2017/11/06 18:59:28","新北市永和區竹林路124巷38號","121.517915","25.011545","6500400","永和區"
"234054","553-UM","2017/11/06 18:59:33","新北市永和區竹林路66巷2號","121.518303333333","25.0133383333333","6500400","永和區"
"234017","745-BX","2017/11/06 18:59:39","新北市永和區永和路二段285號","121.515885","25.015805","6500400","永和區"
"234030","746-BX","2017/11/06 18:59:27","新北市永和區秀朗路二段276號","121.525986666667","24.997895","6500400","永和區"
"234061","AAD-866","2017/11/06 18:59:32","新北市永和區中正路507-1號","121.516516666667","25.0069633333333","6500400","永和區"
"234042","862-TW","2017/11/06 18:59:32","新北市永和區永貞路304號","121.511953333333","25.0048033333333","6500400","永和區"
"234050","863-TW","2017/11/06 18:59:34","新北市永和區文化路147號","121.510728333333","25.0161933333333","6500400","永和區"
"234011","9373-KE","2017/11/06 18:59:25","新北市永和區仁愛路111號","121.512308333333","25.013125","6500400","永和區"
"249005","172-UM","2017/11/06 18:59:41","新北市八里區長道坑7-3號","121.393306666667","25.1235433333333","6502300","八里區"
"249001","173-UM","2017/11/06 18:59:27","新北市八里區龍米路二段228-1號","121.432763333333","25.1584","6502300","八里區"
"248016","026-BX","2017/11/06 18:59:31","新北市五股區成泰路三段543巷18號","121.450895","25.1022633333333","6501500","五股區"
"248006","077-UY","2017/11/06 18:59:24","新北市五股區中興路一段63號","121.467811666667","25.072505","6501500","五股區"
"248008","095-VK","2017/11/06 18:59:40","新北市五股區中興路一段120號","121.465905","25.0735983333333","6501500","五股區"
"248018","225-UY","2017/11/06 18:59:30","新北市五股區民義路二段37號","121.413223333333","25.1003266666667","6501500","五股區"
"248012","247-BX","2017/11/06 18:59:32","新北市五股區工商路18巷23弄8號","121.440261666667","25.0841483333333","6501500","五股區"
"248010","272-BY","2017/11/06 18:59:28","新北市五股區水碓七路1號","121.428071666667","25.07135","6501500","五股區"
"248004","677-BX","2017/11/06 18:59:28","新北市五股區民義路二段56號","121.406126666667","25.1073383333333","6501500","五股區"
"248002","678-BX","2017/11/06 18:59:32","新北市五股區凌雲路一段85號","121.450696666667","25.1013366666667","6501500","五股區"
"234023","9380-KE","2017/11/06 18:59:38","新北市永和區竹林路91巷60弄70號","121.52295","25.0123716666667","6500400","永和區"
"234077","969-R7","2017/11/06 18:59:34","新北市永和區智光街22號","121.517866666667","24.999285","6500400","永和區"
"234074","AAC-211","2017/11/06 18:59:40","新北市永和區環河東路二段100號","121.524101666667","25.0103233333333","6500400","永和區"
"234067","AAC-212","2017/11/06 18:59:45","新北市永和區永和路一段22號","121.512948333333","25.004695","6500400","永和區"
"234003","AAC-295","2017/11/06 18:59:46","新北市永和區保福路一段68-1號","121.512723333333","25.0099166666667","6500400","永和區"
"232011","375-UM","2017/11/06 18:59:36","新北市坪林區水聳淒坑20-2號","121.711333333333","24.9339683333333","6502000","坪林區"
"244013","069-UM","2017/11/06 18:59:31","新北市林口區麗園一街11巷3號","121.377455","25.0704633333333","6501700","林口區"
"244007","080-UY","2017/11/06 18:59:40","新北市林口區太平里23-3號","121.376213333333","25.1155366666667","6501700","林口區"
"244019","403-UM","2017/11/06 18:59:35","新北市林口區麗園二街43號","121.380995","25.06878","6501700","林口區"
"244025","742-UY","2017/11/06 18:59:25","新北市林口區民族路86-1號","121.36626","25.0752666666667","6501700","林口區"
"244009","410-SL","2017/11/06 18:59:27","新北市林口區竹林路430巷1弄12號","121.388513333333","25.0857783333333","6501700","林口區"
"244023","483-VK","2017/11/06 18:59:28","新北市林口區文林六街30號","121.371515","25.0810916666667","6501700","林口區"
"244017","485-VK","2017/11/06 18:59:30","新北市林口區文化二路一段120巷1-1號","121.368093333333","25.0706033333333","6501700","林口區"
"244011","701-TV","2017/11/06 18:59:34","新北市林口區仁愛路一段285巷56號","121.395451666667","25.074505","6501700","林口區"
"243012","AAD-798","2017/11/06 18:59:42","新北市泰山區仁德路108號","121.432623333333","25.056935","6501600","泰山區"
"243009","297-R6","2017/11/06 18:59:18","新北市泰山區泰林路二段236號","121.432298333333","25.0620133333333","6501600","泰山區"
"243015","380-SR","2017/11/06 18:59:44","新北市泰山區明志路一段205號","121.432623333333","25.0613","6501600","泰山區"
"243014","421-VK","2017/11/06 18:59:36","新北市泰山區黎明路2-5號","121.420856666667","25.0625916666667","6501600","泰山區"
"243010","KEA-2215","2017/11/06 18:59:27","新北市泰山區辭修路30號","121.428953333333","25.0582216666667","6501600","泰山區"
"243011","KEA-2216","2017/11/06 18:59:42","新北市泰山區明志路二段246號","121.42701","25.0478483333333","6501600","泰山區"
"243013","646-TV","2017/11/06 18:59:27","新北市泰山區明志路三段241號","121.423556666667","25.03769","6501600","泰山區"
"243016","680-BX","2017/11/06 18:59:28","新北市泰山區明志路二段135號","121.427733333333","25.0508016666667","6501600","泰山區"
"222003","436-BY","2017/11/06 18:59:34","新北市深坑區深南路51-1號","121.621381666667","25.0101733333333","6501800","深坑區"
"222002","659-BX","2017/11/06 18:59:41","新北市深坑區文山路一段33號","121.629545","25.0040166666667","6501800","深坑區"
"231041","002-UM","2017/11/06 18:59:30","新北市新店區環河路62號","121.53713","24.9626566666667","6500600","新店區"
"231059","046-UY","2017/11/06 18:59:40","新北市新店區安康路一段266巷4號","121.519808333333","24.9640383333333","6500600","新店區"
"231061","047-UY","2017/11/06 18:59:41","新北市新店區安康路二段1-5號","121.517245","24.9637966666667","6500600","新店區"
"231060","106-UY","2017/11/06 18:59:38","新北市新店區車子路10-4號","121.504835","24.9545366666667","6500600","新店區"
"231047","108-UY","2017/11/06 18:59:31","新北市新店區德正街27巷29弄97號","121.545738333333","24.9726283333333","6500600","新店區"
"231052","187-VK","2017/11/06 18:59:38","新北市新店區新烏路二段7號","121.543568333333","24.9296416666667","6500600","新店區"
"231050","KEA-2219","2017/11/06 18:59:40","新北市新店區新烏路一段11巷13號","121.547681666667","24.9510783333333","6500600","新店區"
"231046","278-BY","2017/11/06 18:59:31","新北市新店區直潭五街28號","121.534111666667","24.9415966666667","6500600","新店區"
"231058","3712-VJ","2017/11/06 18:59:38","新北市新店區中興路一段121號","121.541648333333","24.9630366666667","6500600","新店區"
"231056","3713-VJ","2017/11/06 18:59:35","新北市新店區大同街30號","121.538976666667","24.9804433333333","6500600","新店區"
"231055","4716-K9","2017/11/06 18:59:46","新北市新店區新生街20巷2號","121.539786666667","24.9664816666667","6500600","新店區"
"231067","4772-VM","2017/11/06 18:59:39","新北市新店區安康路一段247巷4弄2號","121.52444","24.9626616666667","6500600","新店區"
"231065","512-UM","2017/11/06 18:59:39","新北市新店區安祥路147巷86號","121.475541666667","24.95539","6500600","新店區"
"231054","513-UM","2017/11/06 18:59:36","新北市新店區新店路27-1號","121.539991666667","24.9527066666667","6500600","新店區"
"231064","515-UM","2017/11/06 18:59:29","新北市新店區安忠路4號","121.514636666667","24.9632733333333","6500600","新店區"
"231040","619-UM","2017/11/06 18:59:25","新北市新店區中正路397號","121.53451","24.9773083333333","6500600","新店區"
"231042","641-BX","2017/11/06 18:59:43","新北市新店區中興路一段282號","121.545808333333","24.9685816666667","6500600","新店區"
"231063","645-TV","2017/11/06 18:59:28","新北市新店區車子路109號","121.505211666667","24.952105","6500600","新店區"
"231049","719-UM","2017/11/06 18:59:35","新北市新店區中正路454-5號","121.534508333333","24.9791466666667","6500600","新店區"
"231051","719-UY","2017/11/06 18:59:36","新北市新店區百忍街1號","121.534966666667","24.9754866666667","6500600","新店區"
"231062","720-UM","2017/11/06 18:59:44","新北市新店區柴埕路59號","121.513621666667","24.964835","6500600","新店區"
"231044","897-TW","2017/11/06 18:59:30","新北市新店區寶中路72號","121.54779","24.98056","6500600","新店區"
"231045","898-TW","2017/11/06 18:59:40","新北市新店區光明街9號","121.53821","24.959345","6500600","新店區"
"231043","899-TW","2017/11/06 18:59:44","新北市新店區北新路二段1號","121.54258","24.9711866666667","6500600","新店區"
"231066","AKT-0513","2017/11/06 18:59:43","新北市新店區安祥路35-2號","121.490398333333","24.9570616666667","6500600","新店區"
"241029","265-UM","2017/11/06 18:59:29","新北市三重區重安街13巷6號","121.490436666667","25.0571533333333","6500200","三重區"
"241035","462-BY","2017/11/06 18:59:35","新北市三重區重新路四段121號","121.484775","25.0519683333333","6500200","三重區"
"241030","480-VK","2017/11/06 18:59:41","新北市三重區環河南路220-8號","121.493256666667","25.0523633333333","6500200","三重區"
"235066","003-UY","2017/11/06 18:59:24","新北市中和區中山路二段131巷10弄4號","121.5028","25.0022833333333","6500300","中和區"
"235064","005-UY","2017/11/06 18:59:30","新北市中和區連城路75巷2-24號","121.497948333333","24.999085","6500300","中和區"
"235063","006-UY","2017/11/06 18:59:45","新北市中和區連城路319巷3弄8-2號","121.489496666667","24.9956483333333","6500300","中和區"
"235056","096-UM","2017/11/06 18:59:44","新北市中和區中山路二段596巷40號","121.481851666667","25.0062816666667","6500300","中和區"
"235039","097-UM","2017/11/06 18:59:33","新北市中和區宜安路52巷22號","121.512565","24.997375","6500300","中和區"
"235065","098-UM","2017/11/06 18:59:42","新北市中和區勝利路35巷11弄1號","121.499593333333","25.00679","6500300","中和區"
"235040","150-BY","2017/11/06 18:59:33","新北市中和區安樂路85號","121.512808333333","24.9945716666667","6500300","中和區"
"235058","151-BY","2017/11/06 18:59:44","新北市中和區連城路382號","121.480695","24.995085","6500300","中和區"
"235055","183-VK","2017/11/06 18:59:34","新北市中和區民德路12號","121.468778333333","25.0027116666667","6500300","中和區"
"235038","185-VK","2017/11/06 18:59:39","新北市中和區立人街24-5號","121.518818333333","24.994165","6500300","中和區"
"235049","186-VK","2017/11/06 18:59:34","新北市中和區景新街210巷27號","121.507066666667","24.99418","6500300","中和區"
"235067","255-BX","2017/11/06 18:59:42","新北市中和區新生街189號","121.483705","25.0003483333333","6500300","中和區"
"235044","293-VK","2017/11/06 18:59:29","新北市中和區中興街169號","121.499918333333","24.99044","6500300","中和區"
"235036","301-VK","2017/11/06 18:59:36","新北市中和區中山路二段187號","121.500396666667","25.00281","6500300","中和區"
"235043","352-BY","2017/11/06 18:59:42","新北市中和區成功路50號","121.52612","24.992675","6500300","中和區"
"235068","377-QA","2017/11/06 18:59:27","新北市中和區圓通路263號","121.495931666667","24.993245","6500300","中和區"
"235061","378-QA","2017/11/06 18:59:34","新北市中和區民享街79巷2號","121.474418333333","25.00188","6500300","中和區"
"235050","4979-A6","2017/11/06 18:59:45","新北市中和區華新街50巷10號","121.50762","24.9839683333333","6500300","中和區"
"235069","4980-A6","2017/11/06 18:59:37","新北市中和區中和路217巷6號","121.504118333333","25.00029","6500300","中和區"
"235042","551-UM","2017/11/06 18:59:44","新北市中和區秀朗路三段50巷4弄4號","121.52568","24.9957983333333","6500300","中和區"
"235070","558-UM","2017/11/06 18:59:33","新北市中和區南山路27號","121.502056666667","24.99894","6500300","中和區"
"235045","565-BX","2017/11/06 18:59:36","新北市中和區景新街467巷4號","121.513648333333","24.9881216666667","6500300","中和區"
"235054","640-BX","2017/11/06 18:59:42","新北市中和區民享街10-2號","121.473946666667","25.00407","6500300","中和區"
"235047","732-UM","2017/11/06 18:59:33","新北市中和區興南路二段54巷11弄10號","121.505501666667","24.9853483333333","6500300","中和區"
"235046","733-UM","2017/11/06 18:59:26","新北市中和區興南路一段135巷22弄14號","121.50896","24.9866433333333","6500300","中和區"
"235062","800-TS","2017/11/06 18:59:28","新北市中和區中山路二段346號","121.49326","25.0024916666667","6500300","中和區"
"235057","801-TS","2017/11/06 18:59:36","新北市中和區民利街13號","121.480546666667","24.9990883333333","6500300","中和區"
"235041","802-TS","2017/11/06 18:59:42","新北市中和區中和路262號","121.508391666667","24.9993516666667","6500300","中和區"
"235052","805-TS","2017/11/06 18:59:35","新北市中和區興南路二段108號","121.504701666667","24.9840066666667","6500300","中和區"
"235048","896-TW","2017/11/06 18:59:42","新北市中和區華新街111號","121.508465","24.9814583333333","6500300","中和區"
"235053","900-TW","2017/11/06 18:59:45","新北市中和區和平路200巷13號","121.46478","24.9956133333333","6500300","中和區"
"235060","911-UM","2017/11/06 18:59:37","新北市中和區民治街8巷2號","121.474916666667","25.0051683333333","6500300","中和區"
"235037","157-BY","2017/11/06 18:59:28","新北市中和區忠孝街4號","121.509995","24.9826583333333","6500300","中和區"
"235037","AAC-213","2017/11/06 18:59:41","新北市中和區自立路37號","121.522073333333","24.9953816666667","6500300","中和區"
"235059","AAC-215","2017/11/06 18:59:27","新北市中和區圓通路367巷20弄23號","121.491475","24.98838","6500300","中和區"
"220068","013-TV","2017/11/06 18:59:40","新北市板橋區中山路二段465巷5號","121.481648333333","25.0208166666667","6500100","板橋區"
"220065","072-UY","2017/11/06 18:59:27","新北市板橋區民族路287巷10號","121.47116","25.0071233333333","6500100","板橋區"
"220106","075-UY","2017/11/06 18:59:36","新北市板橋區文化路二段124巷26號","121.471171666667","25.0256316666667","6500100","板橋區"
"220069","AAD-861","2017/11/06 18:59:44","新北市板橋區華興街68號","121.457421666667","25.0049","6500100","板橋區"
"226004","312-R5","2017/11/06 18:59:33","新北市平溪區靜安路二段378號","121.738145","25.0246283333333","6502400","平溪區"
"223003","205-TH","2017/11/06 10:05:33","新北市石碇區小粗坑(潭邊里)9-2號","121.678843333333","24.9857866666667","6501900","石碇區"
"228003","097-TW","2017/11/06 18:59:35","新北市貢寮區和美里龍洞街55號","121.911995","25.11375","6502600","貢寮區"
"228002","585-TW","2017/11/06 18:59:33","新北市貢寮區福隆里東興街106巷21弄2號","121.946155","25.0179166666667","6502600","貢寮區"
"228001","670-TC","2017/11/06 18:59:33","新北市貢寮區仁理村研海街12-1號","121.923806666667","25.0517183333333","6502600","貢寮區"
"224010","AGQ-8101","2017/11/06 18:59:40","新北市瑞芳區基山街79號","121.844935","25.1083216666667","6501200","瑞芳區"
"224006","676-BX","2017/11/06 18:59:36","新北市瑞芳區中正路8號","121.808761666667","25.10707","6501200","瑞芳區"
"224009","285-BY","2017/11/06 18:59:35","新北市瑞芳區五號路253-1號","121.856576666667","25.112145","6501200","瑞芳區"
"224008","275-VK","2017/11/06 18:59:33","新北市瑞芳區瑞芳街86號","121.802328333333","25.1101616666667","6501200","瑞芳區"
"224007","273-VK","2017/11/06 18:59:31","新北市瑞芳區中央路48巷162號","121.759378333333","25.10351","6501200","瑞芳區"
"224005","271-BY","2017/11/06 18:59:33","新北市瑞芳區濱二路73號","121.828915","25.12073","6501200","瑞芳區"
"227008","642-TC","2017/11/06 18:59:29","新北市雙溪區牡丹里中正路58巷23號","121.866456666667","25.0415583333333","6502500","雙溪區"
"227001","400-TW","2017/11/06 18:59:36","新北市雙溪區平林里康福家園10號","121.858796666667","25.0373266666667","6502500","雙溪區"
"253005","032-BX","2017/11/06 18:59:24","新北市石門區中央路37-5號","121.56951","25.2963333333333","6502200","石門區"
"253006","295-VK","2017/11/06 18:59:36","新北市石門區八甲6號","121.52153","25.2821","6502200","石門區"
"222001","KEA-2212","2017/11/06 18:59:29","新北市深坑區北深路一段258號","121.629515","25.008745","6501800","深坑區"
"208002","742-BX","2017/11/06 18:59:13","新北市金山區仁愛路67巷2號","121.634643333333","25.2208866666667","6502700","金山區"
"208003","665-BX","2017/11/06 18:59:29","新北市金山區中正路20號","121.635913333333","25.222235","6502700","金山區"
"208001","761-BX","2017/11/06 18:59:36","新北市金山區中山路93號","121.640098333333","25.2188816666667","6502700","金山區"
"251009","008-UM","2017/11/06 18:59:42","新北市淡水區重建街36號","121.4399","25.1712133333333","6501000","淡水區"
"251007","179-VK","2017/11/06 18:59:36","新北市淡水區民生路113巷1弄39號","121.462958333333","25.1386233333333","6501000","淡水區"
"251013","182-VK","2017/11/06 18:59:42","新北市淡水區安子內12號","121.481516666667","25.219105","6501000","淡水區"
"251010","413-VK","2017/11/06 18:59:34","新北市淡水區沙崙路97號","121.422206666667","25.1824533333333","6501000","淡水區"
"251015","442-VK","2017/11/06 18:59:37","新北市淡水區糞箕湖50號","121.485188333333","25.1714133333333","6501000","淡水區"
"251001","559-UM","2017/11/06 18:59:44","新北市淡水區自強路60號","121.463088333333","25.1275333333333","6501000","淡水區"
"251006","561-UM","2017/11/06 18:59:33","新北市淡水區崁頂78-5號","121.429778333333","25.20641","6501000","淡水區"
"251002","672-BX","2017/11/06 18:59:39","新北市淡水區學府路16號","121.447496666667","25.1680316666667","6501000","淡水區"
"251003","766-UM","2017/11/06 18:59:32","新北市淡水區中山北路一段149巷24號","121.44299","25.1779483333333","6501000","淡水區"
"207003","550-UM","2017/11/06 18:59:40","新北市萬里區大鵬里頂社29號","121.656541666667","25.2108366666667","6502800","萬里區"
"207004","225-TW","2017/11/06 18:59:44","新北市萬里區萬里里獅頭路23號","121.693145","25.1782633333333","6502800","萬里區"
"252002","178-VK","2017/11/06 18:59:41","新北市三芝區中正路一段82號","121.504263333333","25.257305","6502100","三芝區"
"252003","249-BX","2017/11/06 18:59:32","新北市三芝區後厝里北勢子42-11號","121.471621666667","25.2520566666667","6502100","三芝區"
"252001","292-VK","2017/11/06 18:59:30","新北市三芝區中興街二段260號","121.501716666667","25.2530183333333","6502100","三芝區"
"237004","078-UY","2017/11/06 18:59:43","新北市三峽區有木206號","121.439138333333","24.8514683333333","6500900","三峽區"
"237007","153-BY","2017/11/06 18:59:42","新北市三峽區中正路126號","121.366541666667","24.905895","6500900","三峽區"
"237012","275-BY","2017/11/06 18:59:40","新北市三峽區三樹路222巷62號","121.382433333333","24.9423233333333","6500900","三峽區"
"237008","302-VK","2017/11/06 18:59:28","新北市三峽區中正路一段357號","121.37092","24.9230216666667","6500900","三峽區"
"237006","5529-G3","2017/11/06 18:59:34","新北市三峽區溪東路43號","121.400568333333","24.9350483333333","6500900","三峽區"
"237011","572-TV","2017/11/06 18:09:32","新北市三峽區橫溪路1號","121.396063333333","24.9361783333333","6500900","三峽區"
"237015","649-BX","2017/11/06 18:59:39","新北市三峽區建安166-1號","121.467378333333","24.9114216666667","6500900","三峽區"
"237010","706-TV","2017/11/06 18:57:34","新北市三峽區國光街364巷1號","121.370908333333","24.9399","6500900","三峽區"
"237005","AKY-6261","2017/11/06 18:59:34","新北市三峽區中山路459巷163-3號","121.34911","24.9333616666667","6500900","三峽區"
"236069","105-UM","2017/11/06 18:59:29","新北市土城區清水路99巷13號","121.456818333333","24.9824","6501300","土城區"
"236042","107-UM","2017/11/06 18:59:40","新北市土城區學府路一段221號","121.451368333333","24.9842816666667","6501300","土城區"
"236078","166-UM","2017/11/06 18:59:42","新北市土城區中央路四段125巷2弄1號","121.416626666667","24.9571783333333","6501300","土城區"
"236030","253-BX","2017/11/06 18:59:38","新北市土城區慶利街11號","121.439496666667","24.9735983333333","6501300","土城區"
"236026","269-VK","2017/11/06 18:59:45","新北市土城區光明街4號","121.442013333333","24.9744683333333","6501300","土城區"
"236014","270-VK","2017/11/06 18:59:36","新北市土城區立德路105號","121.463583333333","24.9875166666667","6501300","土城區"
"236036","271-VK","2017/11/06 18:59:29","新北市土城區明德路一段240巷26弄1號","121.460191666667","24.9780083333333","6501300","土城區"
"236020","401-BY","2017/11/06 18:59:36","新北市土城區延吉街168巷2弄2號","121.4683","24.9855683333333","6501300","土城區"
"236048","752-BX","2017/11/06 18:59:39","新北市土城區青雲路322巷2弄2號","121.45849","24.9771566666667","6501300","土城區"
"236058","912-UM","2017/11/06 18:59:38","新北市土城區金城路一段86號","121.444986666667","24.9735266666667","6501300","土城區"
"236062","915-UM","2017/11/06 18:59:39","新北市土城區延和路41巷6弄20號","121.466625","24.9904016666667","6501300","土城區"
"236053","AAC-216","2017/11/06 18:59:33","新北市土城區裕民路84號","121.450055","24.987205","6501300","土城區"
"242050","751-BX","2017/11/06 18:59:26","新北市板橋區金門街215巷121-1號","121.433936666667","24.986155","6500500","新莊區"
"242001","233-RS","2017/11/06 09:13:40","新北市新莊區環河路48-7號","121.436935","25.0098066666667","6500500","新莊區"
"238023","601-UM","2017/11/06 18:59:31","新北市樹林區工興街15號","121.39822","25.0137216666667","6500700","樹林區"
"238019","599-UM","2017/11/06 18:59:36","新北市樹林區東華街39號","121.415195","24.9814833333333","6500700","樹林區"
"238018","571-TV","2017/11/06 18:59:40","新北市樹林區太元街2巷7號","121.417125","24.980935","6500700","樹林區"
"238021","KEA-2217","2017/11/06 18:59:40","新北市樹林區西圳街二段78號","121.38606","24.95888","6500700","樹林區"
"238025","303-VK","2017/11/06 18:59:27","新北市樹林區民和街16號","121.385375","24.9685816666667","6500700","樹林區"
"238017","283-BY","2017/11/06 18:59:42","新北市樹林區中山路三段325號","121.39089","24.9714683333333","6500700","樹林區"
"238014","282-BY","2017/11/06 18:59:41","新北市樹林區千歲街73號","121.42741","24.9990083333333","6500700","樹林區"
"238020","268-VK","2017/11/06 18:59:43","新北市樹林區俊英街79號","121.426043333333","25.007625","6500700","樹林區"
"238026","172-UY","2017/11/06 18:59:24","新北市樹林區中山路三段128號","121.392153333333","24.97218","6500700","樹林區"
"238016","169-UY","2017/11/06 18:59:44","新北市樹林區文化街28號","121.419275","24.9876716666667","6500700","樹林區"
"239007","AAC-297","2017/11/06 18:59:15","新北市鶯歌區成功街20巷5號","121.358695","24.95774","6500800","鶯歌區"
"239008","527-UM","2017/11/06 18:59:34","新北市鶯歌區國際二路18巷15號","121.337628333333","24.975345","6500800","鶯歌區"
"239005","526-UM","2017/11/06 18:59:34","新北市鶯歌區大湖路361巷24弄14號","121.33013","24.97787","6500800","鶯歌區"
"239001","417-VK","2017/11/06 18:59:39","新北市鶯歌區國光街16號","121.340186666667","24.9567516666667","6500800","鶯歌區"
"239003","360-BY","2017/11/06 18:59:40","新北市鶯歌區鶯桃路419號","121.332683333333","24.9647783333333","6500800","鶯歌區"
"239002","359-BY","2017/11/06 18:59:29","新北市鶯歌區中正一路230號","121.353993333333","24.957","6500800","鶯歌區"
"239004","193-VK","2017/11/06 18:59:46","新北市鶯歌區中正三路282巷10弄12號","121.328808333333","24.9365733333333","6500800","鶯歌區"
"221008","489-VK","2017/11/06 18:59:45","新北市汐止區康寧街753巷2弄8號","121.639303333333","25.0738933333333","6501100","汐止區"
"221036","130-UY","2017/11/06 18:59:44","新北市汐止區忠孝東路274號","121.663471666667","25.068065","6501100","汐止區"
"221015","131-UY","2017/11/06 18:59:27","新北市汐止區橋東街61號","121.665593333333","25.0748816666667","6501100","汐止區"
"221010","269-BY","2017/11/06 18:59:33","新北市汐止區康寧街901號","121.651328333333","25.07499","6501100","汐止區"
"221012","278-VK","2017/11/06 18:59:39","新北市汐止區康寧街901號","121.650816666667","25.0752366666667","6501100","汐止區"
"221023","279-VK","2017/11/06 18:59:26","新北市汐止區康寧街901號","121.650975","25.0751883333333","6501100","汐止區"
"221032","280-BY","2017/11/06 18:59:32","新北市汐止區橫科路407巷30弄28號","121.62727","25.0482583333333","6501100","汐止區"
"221027","281-BY","2017/11/06 18:59:42","新北市汐止區康寧街901號","121.651421666667","25.0749683333333","6501100","汐止區"
"221029","298-VK","2017/11/06 18:59:34","新北市汐止區樟樹一路256號","121.642428333333","25.0673533333333","6501100","汐止區"
"221021","299-VK","2017/11/06 18:59:27","新北市汐止區康寧街901號","121.651543333333","25.0749733333333","6501100","汐止區"
"221031","353-TW","2017/11/06 18:59:46","新北市汐止區福德一路300巷35號","121.630423333333","25.0643866666667","6501100","汐止區"
"221002","358-BY","2017/11/06 18:59:46","新北市汐止區大同路一段2號","121.621061666667","25.05502","6501100","汐止區"
"221035","622-UM","2017/11/06 18:59:31","新北市汐止區汐萬路一段256巷3號","121.653021666667","25.0743833333333","6501100","汐止區"
"221025","623-UM","2017/11/06 18:59:30","新北市汐止區汐萬路一段256巷3號","121.652541666667","25.0745333333333","6501100","汐止區"
"221038","646-BX","2017/11/06 18:59:41","新北市汐止區汐萬路一段312號","121.650646666667","25.07525","6501100","汐止區"
"221033","647-BX","2017/11/06 18:59:29","新北市汐止區南勢街3號","121.627046666667","25.03736","6501100","汐止區"
"221018","753-BX","2017/11/06 18:59:36","新北市汐止區茄苳路2巷1號","121.664501666667","25.0706816666667","6501100","汐止區"
"220079","145-BY","2017/11/06 18:59:45","新北市板橋區民權路202巷12弄1號","121.460545","25.0156066666667","6500100","板橋區"
"220080","200-UY","2017/11/06 18:59:34","新北市板橋區大觀路二段265巷1弄50號","121.445021666667","24.9979683333333","6500100","板橋區"
"220082","610-BX","2017/11/06 18:59:29","新北市板橋區篤行路二段139號","121.429826666667","24.988295","6500100","板橋區"
"220056","276-BY","2017/11/06 18:59:40","新北市板橋區信義路122號","121.458438333333","24.9924433333333","6500100","板橋區"
"220072","277-BY","2017/11/06 18:59:28","新北市板橋區篤行路一段29號","121.432091666667","24.9948883333333","6500100","板橋區"
"220101","280-UM","2017/11/06 18:59:39","新北市板橋區文化路二段177號","121.470836666667","25.0277066666667","6500100","板橋區"
"220071","283-VK","2017/11/06 18:59:27","新北市板橋區重慶路245巷26號","121.464453333333","25.0008266666667","6500100","板橋區"
"220094","285-UM","2017/11/06 18:59:34","新北市板橋區文化路二段76號","121.469493333333","25.0249166666667","6500100","板橋區"
"220053","285-VK","2017/11/06 18:59:41","新北市板橋區中山路二段89巷45號","121.47365","25.0173033333333","6500100","板橋區"
"220083","286-VK","2017/11/06 18:59:39","新北市板橋區大觀路一段38巷156弄70號","121.442928333333","25.00656","6500100","板橋區"
"220081","287-VK","2017/11/06 18:59:32","新北市板橋區光華街15巷17號","121.453381666667","25.0116683333333","6500100","板橋區"
"220090","288-VK","2017/11/06 18:59:37","新北市板橋區四維路130號","121.465338333333","25.0251833333333","6500100","板橋區"
"220061","295-UM","2017/11/06 18:59:42","新北市板橋區富山街85巷4弄2號","121.476628333333","25.0214","6500100","板橋區"
"220084","296-UM","2017/11/06 18:59:25","新北市板橋區大觀路二段156巷28號","121.441311666667","24.999855","6500100","板橋區"
"220075","297-UM","2017/11/06 18:59:43","新北市板橋區茶館街27號","121.456378333333","25.0104983333333","6500100","板橋區"
"220062","303-R5","2017/11/06 18:59:36","新北市板橋區中山路二段178號","121.477491666667","25.017135","6500100","板橋區"
"220092","307-R5","2017/11/06 18:59:36","新北市板橋區文化路一段88號","121.464441666667","25.0175783333333","6500100","板橋區"
"220098","317-R6","2017/11/06 18:59:34","新北市板橋區民有街17號","121.46615","25.0249383333333","6500100","板橋區"
"220064","486-VK","2017/11/06 18:59:27","新北市板橋區縣民大道二段106號","121.466963333333","25.015205","6500100","板橋區"
"220089","487-VK","2017/11/06 18:59:38","新北市板橋區民生路二段232-14號","121.468876666667","25.02223","6500100","板橋區"
"220088","491-VK","2017/11/06 18:59:37","新北市板橋區民生路二段148號","121.471205","25.019715","6500100","板橋區"
"220035","560-BX","2017/11/06 18:59:46","新北市板橋區中正路341巷18號","121.454295","25.0201866666667","6500100","板橋區"
"220103","561-BX","2017/11/06 18:59:42","新北市板橋區民生路二段123號","121.470581666667","25.01852","6500100","板橋區"
"220063","609-BX","2017/11/06 18:59:31","新北市板橋區中山路二段132號","121.476305","25.0168783333333","6500100","板橋區"
"220086","630-UY","2017/11/06 18:59:42","新北市板橋區中正路80巷15號","121.45738","25.0146416666667","6500100","板橋區"
"220091","637-BX","2017/11/06 18:59:46","新北市板橋區莒光路165巷46號","121.474565","25.025175","6500100","板橋區"
"220057","686-BX","2017/11/06 18:59:41","新北市板橋區館前東路80號","121.46169","25.0074316666667","6500100","板橋區"
"220077","687-BX","2017/11/06 18:59:35","新北市板橋區龍興街2號","121.442656666667","24.9993266666667","6500100","板橋區"
"220093","689-BX","2017/11/06 18:59:26","新北市板橋區民生路二段232-13號","121.468668333333","25.0223883333333","6500100","板橋區"
"220054","741-BX","2017/11/06 18:59:35","新北市板橋區後埔街32號","121.46044","25.006155","6500100","板橋區"
"220055","827-TW","2017/11/06 18:59:31","新北市板橋區新站路1號","121.467123333333","25.0112","6500100","板橋區"
"220067","829-TW","2017/11/06 18:59:30","新北市板橋區三民路二段正隆巷12弄17-3號","121.477581666667","25.0135616666667","6500100","板橋區"
"220102","830-TW","2017/11/06 18:59:41","新北市板橋區縣民大道三段133巷35號","121.476956666667","25.0246783333333","6500100","板橋區"
"220096","831-TW","2017/11/06 18:59:39","新北市板橋區莒光路74號","121.47142","25.0241133333333","6500100","板橋區"
"220074","895-R6","2017/11/06 18:59:33","新北市板橋區西門街59號","121.454418333333","25.0091916666667","6500100","板橋區"
"220073","985-R7","2017/11/06 18:59:33","新北市板橋區民權路252號","121.458298333333","25.0146633333333","6500100","板橋區"
"220097","AAC-210","2017/11/06 18:59:37","新北市板橋區四維路137巷5號","121.464426666667","25.0249866666667","6500100","板橋區"
"220070","AAC-253","2017/11/06 18:59:42","新北市板橋區四川路一段276號","121.458836666667","25.000995","6500100","板橋區"
