"lineid","car","time","location","longitude","latitude","cityid","cityname"
"234046","148-BY","2017/11/06 20:09:31","新北市永和區秀朗路二段259號","121.526406666667","24.9990733333333","6500400","永和區"
"234013","149-BY","2017/11/06 20:09:43","新北市永和區仁愛路273號","121.506031666667","25.009805","6500400","永和區"
"234007","207-UY","2017/11/06 20:09:34","新北市永和區保順路51巷5號","121.502681666667","25.010565","6500400","永和區"
"234081","298-R6","2017/11/06 20:09:42","新北市永和區國中路101號","121.524155","25.0060616666667","6500400","永和區"
"234038","336-UY","2017/11/06 20:09:43","新北市永和區成功路一段112號","121.526801666667","25.0025416666667","6500400","永和區"
"234064","337-UY","2017/11/06 20:09:33","新北市永和區永利路140號","121.522111666667","25.00283","6500400","永和區"
"234086","338-UY","2017/11/06 20:09:44","新北市永和區福和路139號","121.52093","25.0076433333333","6500400","永和區"
"234070","552-UM","2017/11/06 20:09:42","新北市永和區福和路185號","121.519926666667","25.0074233333333","6500400","永和區"
"234054","553-UM","2017/11/06 20:09:33","新北市永和區博愛街15號","121.517171666667","25.0158266666667","6500400","永和區"
"234017","745-BX","2017/11/06 20:09:39","新北市永和區文化路146號","121.512483333333","25.015265","6500400","永和區"
"234030","746-BX","2017/11/06 20:09:27","新北市永和區民權路49巷5弄37號","121.521885","24.9979016666667","6500400","永和區"
"234061","AAD-866","2017/11/06 20:09:33","新北市永和區中正路151巷14號","121.515576666667","24.9988366666667","6500400","永和區"
"234042","862-TW","2017/11/06 20:09:44","新北市永和區雙和街31號","121.508996666667","25.002205","6500400","永和區"
"234050","863-TW","2017/11/06 20:09:34","新北市永和區環河西路二段175號","121.50517","25.013525","6500400","永和區"
"234011","9373-KE","2017/11/06 20:09:25","新北市永和區仁愛路352巷140號","121.49958","25.0089066666667","6500400","永和區"
"249005","172-UM","2017/11/06 20:09:41","新北市八里區福德新村1號","121.38566","25.1365283333333","6502300","八里區"
"249001","173-UM","2017/11/06 20:09:34","新北市八里區中華路二段318號","121.403541666667","25.1481533333333","6502300","八里區"
"249004","303-UY","2017/11/06 20:09:39","新北市八里區中山路一段157巷67號","121.412241666667","25.1578033333333","6502300","八里區"
"249002","305-UY","2017/11/06 20:07:44","新北市五股區成泰路四段44號","121.45597","25.11068","6502300","八里區"
"249003","593-UM","2017/11/06 20:09:40","新北市八里區中山路二段540巷9弄10號","121.396658333333","25.147005","6502300","八里區"
"248016","026-BX","2017/11/06 20:09:40","新北市五股區成泰路三段577巷80弄77號","121.448646666667","25.10469","6501500","五股區"
"248018","225-UY","2017/11/06 20:09:30","新北市五股區登林路126號","121.409631666667","25.0783133333333","6501500","五股區"
"248012","247-BX","2017/11/06 20:09:32","新北市五股區民義路一段212號","121.430488333333","25.0895016666667","6501500","五股區"
"248014","261-SL","2017/11/06 20:09:40","新北市五股區五福路14巷27號","121.435331666667","25.0889266666667","6501500","五股區"
"248010","272-BY","2017/11/06 20:09:28","新北市五股區成泰路一段7巷7號","121.433165","25.06671","6501500","五股區"
"248004","677-BX","2017/11/06 20:09:28","新北市五股區成泰路一段70-1號","121.435521666667","25.069955","6501500","五股區"
"248002","678-BX","2017/11/06 20:09:31","新北市五股區成泰路三段369-2號","121.44881","25.09607","6501500","五股區"
"234023","9380-KE","2017/11/06 20:09:37","新北市永和區中正路660-1號","121.516965","25.008725","6500400","永和區"
"234077","969-R7","2017/11/06 20:09:32","新北市永和區民光街11號","121.515523333333","24.9961533333333","6500400","永和區"
"234074","AAC-211","2017/11/06 20:09:40","新北市永和區豫溪街169巷2-1號","121.521868333333","25.0104466666667","6500400","永和區"
"234067","AAC-212","2017/11/06 20:09:24","新北市永和區保平路236巷12弄5號","121.508681666667","25.0065483333333","6500400","永和區"
"234003","AAC-295","2017/11/06 20:09:38","新北市永和區中正路612號","121.51716","25.00751","6500400","永和區"
"243012","AAD-798","2017/11/06 20:09:27","新北市泰山區楓江路48號","121.435255","25.062485","6501600","泰山區"
"243009","297-R6","2017/11/06 20:09:38","新北市泰山區泰林路二段116巷3弄2號","121.435215","25.0596166666667","6501600","泰山區"
"243015","380-SR","2017/11/06 20:09:44","新北市泰山區明志路一段432號","121.430651666667","25.05634","6501600","泰山區"
"243014","421-VK","2017/11/06 20:09:36","新北市泰山區明志路一段85號","121.433566666667","25.064375","6501600","泰山區"
"243010","KEA-2215","2017/11/06 20:09:27","新北市泰山區明志路二段136巷16號","121.426708333333","25.0514533333333","6501600","泰山區"
"243011","KEA-2216","2017/11/06 20:09:42","新北市泰山區中山路三段6號","121.420965","25.0323933333333","6501600","泰山區"
"243013","646-TV","2017/11/06 20:09:40","新北市泰山區明志路三段76號","121.424828333333","25.041725","6501600","泰山區"
"243016","680-BX","2017/11/06 20:09:39","新北市泰山區貴陽街4-1號","121.421746666667","25.0331633333333","6501600","泰山區"
"222003","436-BY","2017/11/06 20:09:29","新北市深坑區埔新街60號","121.620228333333","25.0024483333333","6501800","深坑區"
"222002","659-BX","2017/11/06 20:09:41","新北市深坑區北深路三段206巷1弄18號","121.601573333333","25.0044666666667","6501800","深坑區"
"231041","002-UM","2017/11/06 20:09:30","新北市新店區中正路468號","121.534055","24.97942","6500600","新店區"
"231059","046-UY","2017/11/06 20:09:40","新北市新店區安德街33-1號","121.51135","24.9624916666667","6500600","新店區"
"231061","047-UY","2017/11/06 20:09:41","新北市新店區安興路32號","121.515751666667","24.970355","6500600","新店區"
"231060","106-UY","2017/11/06 20:09:38","新北市新店區安康路三段177號","121.488445","24.9517916666667","6500600","新店區"
"231047","108-UY","2017/11/06 20:09:31","新北市新店區永華街44號","121.54503","24.9750933333333","6500600","新店區"
"231052","187-VK","2017/11/06 20:09:38","新北市新店區新烏路三段185號","121.550431666667","24.9010066666667","6500600","新店區"
"231050","KEA-2219","2017/11/06 20:09:40","新北市新店區北新路一段96巷23號","121.542778333333","24.9687733333333","6500600","新店區"
"231057","256-BX","2017/11/06 20:09:42","新北市新店區花園一路一段2號","121.553143333333","24.93242","6500600","新店區"
"231058","3712-VJ","2017/11/06 20:09:38","新北市新店區薏仁坑路自強巷1號","121.496651666667","24.95781","6500600","新店區"
"231056","3713-VJ","2017/11/06 20:09:35","新北市新店區建國路129號","121.539561666667","24.9780433333333","6500600","新店區"
"231055","4716-K9","2017/11/06 20:09:37","新北市新店區中華路42巷34號","121.541143333333","24.9691133333333","6500600","新店區"
"231067","4772-VM","2017/11/06 20:09:39","新北市新店區溪洲路52號","121.532798333333","24.9612983333333","6500600","新店區"
"231065","512-UM","2017/11/06 20:09:39","新北市新店區安祥路106巷224號","121.473733333333","24.959985","6500600","新店區"
"231054","513-UM","2017/11/06 20:09:31","新北市新店區檳榔路22巷1號","121.541238333333","24.96414","6500600","新店區"
"231064","515-UM","2017/11/06 20:09:29","新北市新店區安民街5號","121.515226666667","24.9642216666667","6500600","新店區"
"231040","619-UM","2017/11/06 20:09:45","新北市新店區中正路100號","121.543345","24.9704383333333","6500600","新店區"
"231042","641-BX","2017/11/06 20:09:43","新北市新店區中興路二段202-1號","121.548308333333","24.974455","6500600","新店區"
"231063","645-TV","2017/11/06 20:09:28","新北市新店區黎明路52巷3號","121.502223333333","24.9487233333333","6500600","新店區"
"231068","718-UY","2017/11/06 20:09:27","新北市新店區北新路二段2號","121.542558333333","24.970535","6500600","新店區"
"231049","719-UM","2017/11/06 20:09:40","新北市新店區北新路二段97巷12號","121.542148333333","24.9744716666667","6500600","新店區"
"231051","719-UY","2017/11/06 20:09:36","新北市新店區中央路125號","121.530623333333","24.97423","6500600","新店區"
"231062","720-UM","2017/11/06 20:09:44","新北市新店區安豐路22巷7號","121.501386666667","24.95439","6500600","新店區"
"231044","897-TW","2017/11/06 20:09:30","新北市新店區寶元路一段15巷20號","121.542028333333","24.9869966666667","6500600","新店區"
"231045","898-TW","2017/11/06 20:09:40","新北市新店區北宜路一段152號","121.540205","24.9538283333333","6500600","新店區"
"231043","899-TW","2017/11/06 20:09:44","新北市新店區民族路186號","121.536875","24.9760816666667","6500600","新店區"
"231066","AKT-0513","2017/11/06 20:09:43","新北市新店區安德街60巷35號","121.510696666667","24.9634466666667","6500600","新店區"
"241011","013-R5","2017/11/06 20:09:26","新北市三重區三和路三段45-1號","121.495458333333","25.0714683333333","6500200","三重區"
"241028","022-UY","2017/11/06 20:09:24","新北市三重區仁化街174號","121.494801666667","25.0570233333333","6500200","三重區"
"241008","059-VK","2017/11/06 20:09:33","新北市三重區永福街197巷33號","121.478343333333","25.074365","6500200","三重區"
"241009","060-VK","2017/11/06 20:09:24","新北市三重區三和路四段163巷1號","121.483501666667","25.0784266666667","6500200","三重區"
"241031","061-VK","2017/11/06 20:09:35","新北市三重區過圳街9-1號","121.488716666667","25.0601216666667","6500200","三重區"
"241015","062-VK","2017/11/06 20:09:27","新北市三重區福德北路45號","121.502268333333","25.0649716666667","6500200","三重區"
"241017","063-VK","2017/11/06 20:09:28","新北市三重區大智街108-1號","121.493088333333","25.06669","6500200","三重區"
"241024","065-VK","2017/11/06 20:09:34","新北市三重區中正北路294號","121.480163333333","25.0687716666667","6500200","三重區"
"241026","066-VK","2017/11/06 20:09:32","新北市三重區福德南路65巷2號","121.502406666667","25.06048","6500200","三重區"
"241002","090-VK","2017/11/06 20:09:40","新北市三重區仁忠街39號","121.495493333333","25.08176","6500200","三重區"
"241003","091-VK","2017/11/06 20:09:23","新北市三重區仁愛街425巷2-1號","121.490443333333","25.0818","6500200","三重區"
"241005","262-UM","2017/11/06 20:09:28","新北市三重區碧華街294巷14號","121.489076666667","25.0842816666667","6500200","三重區"
"241029","265-UM","2017/11/06 20:09:29","新北市三重區光明路32巷1弄1號","121.49173","25.0586266666667","6500200","三重區"
"241016","266-UM","2017/11/06 20:09:33","新北市三重區中正北路25巷6號","121.493365","25.0627816666667","6500200","三重區"
"241022","267-UM","2017/11/06 20:09:35","新北市三重區新北大道一段48號","121.487835","25.0614633333333","6500200","三重區"
"241018","268-UM","2017/11/06 20:09:40","新北市三重區正義北路250號","121.496023333333","25.06839","6500200","三重區"
"241032","269-UM","2017/11/06 20:09:32","新北市三重區捷運路65號","121.483403333333","25.0556033333333","6500200","三重區"
"241013","270-UM","2017/11/06 20:09:43","新北市三重區三和路三段139巷21號","121.493495","25.0739283333333","6500200","三重區"
"241025","271-UM","2017/11/06 20:09:45","新北市三重區中正北路255號","121.475315","25.070725","6500200","三重區"
"241007","398-BY","2017/11/06 20:09:35","新北市三重區三和路四段111-14號","121.486918333333","25.077655","6500200","三重區"
"241035","462-BY","2017/11/06 20:09:35","新北市三重區文化北路22-2號","121.499246666667","25.064275","6500200","三重區"
"241004","475-VK","2017/11/06 20:09:24","新北市三重區仁愛街416號","121.49056","25.0814133333333","6500200","三重區"
"241019","478-VK","2017/11/06 20:09:33","新北市三重區自強路二段33巷11號","121.490051666667","25.0696116666667","6500200","三重區"
"241030","480-VK","2017/11/06 20:09:41","新北市三重區成功路145巷12-1號","121.48725","25.052765","6500200","三重區"
"241014","543-UM","2017/11/06 20:09:34","新北市三重區安和路41號","121.500953333333","25.0693533333333","6500200","三重區"
"241023","545-UM","2017/11/06 20:09:25","新北市三重區頂崁街220巷2號","121.476918333333","25.0680766666667","6500200","三重區"
"241001","547-UM","2017/11/06 20:09:40","新北市三重區三和路四段89巷24號","121.490126666667","25.0760166666667","6500200","三重區"
"241006","AAD-863","2017/11/06 20:09:41","新北市三重區力行路二段93號","121.48261","25.0759616666667","6500200","三重區"
"241020","887-TS","2017/11/06 20:09:25","新北市三重區三和路三段121號","121.492781666667","25.07318","6500200","三重區"
"241012","941-UM","2017/11/06 20:09:35","新北市三重區仁福街64巷23號","121.497806666667","25.0754783333333","6500200","三重區"
"241033","AAC-255","2017/11/06 20:09:28","新北市三重區光復路一段61巷27號","121.473586666667","25.0491716666667","6500200","三重區"
"235066","003-UY","2017/11/06 20:09:24","新北市中和區南工路105號","121.507303333333","25.00387","6500300","中和區"
"235039","097-UM","2017/11/06 20:09:33","新北市中和區大勇街25巷37號","121.514981666667","24.9942783333333","6500300","中和區"
"235065","098-UM","2017/11/06 20:09:23","新北市中和區永和路78號","121.497666666667","25.005155","6500300","中和區"
"235040","150-BY","2017/11/06 20:09:33","新北市中和區保健路39巷7號","121.509216666667","24.9978683333333","6500300","中和區"
"235058","151-BY","2017/11/06 20:09:24","新北市中和區連城路358號","121.4821","24.9954033333333","6500300","中和區"
"235044","293-VK","2017/11/06 20:09:40","新北市中和區中正路65巷2弄2號","121.501273333333","24.9931516666667","6500300","中和區"
"235036","301-VK","2017/11/06 20:09:36","新北市新店區薏仁坑路自強巷1號","121.496771666667","24.9581083333333","6500300","中和區"
"235068","377-QA","2017/11/06 20:09:26","新北市中和區福美路256巷2弄10號","121.498888333333","25.0055166666667","6500300","中和區"
"235050","4979-A6","2017/11/06 20:09:35","新北市中和區景新街313號","121.511113333333","24.9922933333333","6500300","中和區"
"235069","4980-A6","2017/11/06 20:09:33","新北市中和區南山路127巷27弄9號","121.503256666667","24.9978466666667","6500300","中和區"
"235070","558-UM","2017/11/06 20:09:33","新北市中和區圓通路120-4號","121.498951666667","24.9959716666667","6500300","中和區"
"235026","800-TS","2017/11/06 20:09:27","新北市中和區員山路36巷16-3號","121.485015","24.99161","6500300","中和區"
"235048","896-TW","2017/11/06 20:09:42","新北市中和區景新街440號","121.513191666667","24.9882316666667","6500300","中和區"
"235037","157-BY","2017/11/06 20:09:28","新北市中和區景安路221號","121.504306666667","24.9913916666667","6500300","中和區"
"235037","AAC-213","2017/11/06 20:09:41","新北市中和區自強路48號","121.520061666667","24.9950116666667","6500300","中和區"
"235059","AAC-215","2017/11/06 20:09:27","新北市中和區圓通路335巷33弄17號","121.492965","24.988855","6500300","中和區"
"220068","013-TV","2017/11/06 20:09:40","新北市板橋區中山路二段290號","121.479666666667","25.01882","6500100","板橋區"
"220065","072-UY","2017/11/06 20:09:27","新北市板橋區縣民大道二段86號","121.466255","25.0149383333333","6500100","板橋區"
"220106","075-UY","2017/11/06 20:09:36","新北市板橋區懷德街2號","121.476661666667","25.033035","6500100","板橋區"
"220069","AAD-861","2017/11/06 20:09:24","新北市板橋區大明街25巷2弄26號","121.457425","25.0026966666667","6500100","板橋區"
"247022","893-R6","2017/11/06 20:09:33","新北市蘆洲區三民路193號","121.47051","25.0877266666667","6501400","蘆洲區"
"247012","546-UM","2017/11/06 20:09:38","新北市蘆洲區民族路266號","121.478745","25.0889533333333","6501400","蘆洲區"
"247020","500-BY","2017/11/06 20:09:34","新北市蘆洲區民權路106巷5弄7號","121.474221666667","25.0890966666667","6501400","蘆洲區"
"247010","339-TH","2017/11/06 20:09:28","新北市蘆洲區信義路187號","121.479491666667","25.0828083333333","6501400","蘆洲區"
"247002","337-TH","2017/11/06 20:09:31","新北市蘆洲區永康街52號","121.459071666667","25.086205","6501400","蘆洲區"
"247004","336-TH","2017/11/06 20:09:29","新北市蘆洲區永安南路二段328巷17弄4號","121.456478333333","25.0840216666667","6501400","蘆洲區"
"247024","335-TH","2017/11/06 20:09:34","新北市蘆洲區光明路92號","121.463065","25.0878666666667","6501400","蘆洲區"
"247016","057-VK","2017/11/06 20:09:37","新北市蘆洲區長興路1號","121.464725","25.0823333333333","6501400","蘆洲區"
"247006","056-VK","2017/11/06 20:09:34","新北市蘆洲區中山二路320號","121.468438333333","25.076585","6501400","蘆洲區"
"247008","053-VK","2017/11/06 20:09:26","新北市蘆洲區中山一路195號","121.474396666667","25.0810416666667","6501400","蘆洲區"
"247014","007-UY","2017/11/06 20:09:38","新北市蘆洲區中山二路245號","121.470418333333","25.0795216666667","6501400","蘆洲區"
"247018","001-UY","2017/11/06 20:09:35","新北市蘆洲區民族路312號","121.477458333333","25.0902583333333","6501400","蘆洲區"
"226004","312-R5","2017/11/06 20:09:33","新北市平溪區望古里灰3-1號","121.756038333333","25.02917","6502400","平溪區"
"223003","205-TH","2017/11/06 10:05:33","新北市石碇區小粗坑(潭邊里)9-2號","121.678843333333","24.9857866666667","6501900","石碇區"
"222001","KEA-2212","2017/11/06 20:09:28","新北市深坑區北深路三段187號","121.601253333333","25.003605","6501800","深坑區"
"208003","665-BX","2017/11/06 20:09:39","新北市金山區香園6號","121.634283333333","25.2474733333333","6502700","金山區"
"251009","008-UM","2017/11/06 20:09:42","新北市淡水區清水街1號","121.445223333333","25.1704016666667","6501000","淡水區"
"251004","009-UM","2017/11/06 20:07:09","新北市淡水區民族路31巷41號","121.462043333333","25.1367083333333","6501000","淡水區"
"251005","010-UM","2017/11/06 20:09:32","新北市淡水區學府路136巷48號","121.45225","25.1726","6501000","淡水區"
"251008","181-VK","2017/11/06 20:09:40","新北市淡水區淡海路72巷30弄21號","121.425163333333","25.182805","6501000","淡水區"
"251013","182-VK","2017/11/06 20:09:42","新北市淡水區奎柔山路576號","121.467991666667","25.205075","6501000","淡水區"
"251010","413-VK","2017/11/06 20:09:34","新北市淡水區新市五路一段152號","121.426598333333","25.1985033333333","6501000","淡水區"
"251012","441-VK","2017/11/06 20:09:44","新北市淡水區淡金路三段216號","121.448925","25.2046933333333","6501000","淡水區"
"251015","442-VK","2017/11/06 20:09:37","新北市淡水區埤島3-20號","121.44702","25.1914466666667","6501000","淡水區"
"251006","561-UM","2017/11/06 20:09:33","新北市淡水區北新路141巷29號","121.448171666667","25.1796033333333","6501000","淡水區"
"251002","672-BX","2017/11/06 20:09:39","新北市淡水區中正路223號","121.437138333333","25.1723733333333","6501000","淡水區"
"251003","766-UM","2017/11/06 20:09:32","新北市淡水區中山北路二段189巷15弄29號","121.443428333333","25.1842216666667","6501000","淡水區"
"207003","550-UM","2017/11/06 20:09:40","新北市萬里區大鵬里萬里加投180號","121.64298","25.21575","6502800","萬里區"
"207004","225-TW","2017/11/06 20:09:44","新北市萬里區北基里大勇路15號","121.682066666667","25.1766516666667","6502800","萬里區"
"252002","178-VK","2017/11/06 20:09:41","新北市三芝區三民街37號","121.504878333333","25.258625","6502100","三芝區"
"252001","292-VK","2017/11/06 20:09:30","新北市三芝區公正街9號","121.499723333333","25.2574766666667","6502100","三芝區"
"237007","153-BY","2017/11/06 20:09:42","新北市三峽區二鬮路136巷22弄41號","121.357403333333","24.91037","6500900","三峽區"
"237013","252-BX","2017/11/06 20:09:35","新北市三峽區溪北街9號","121.396188333333","24.936435","6500900","三峽區"
"237012","275-BY","2017/11/06 20:09:40","新北市三峽區中華路48巷16號","121.371056666667","24.9300983333333","6500900","三峽區"
"237008","302-VK","2017/11/06 20:09:39","新北市三峽區中正路一段174巷16號","121.371698333333","24.9289783333333","6500900","三峽區"
"237006","5529-G3","2017/11/06 20:09:34","新北市三峽區嘉添109-11號","121.369726666667","24.9095966666667","6500900","三峽區"
"237015","649-BX","2017/11/06 20:09:39","新北市三峽區介壽路二段138巷1弄6號","121.396153333333","24.9339416666667","6500900","三峽區"
"237005","AKY-6261","2017/11/06 20:09:34","新北市三峽區三樹路52號","121.377816666667","24.9380016666667","6500900","三峽區"
"236069","105-UM","2017/11/06 20:09:29","新北市土城區大安路2號","121.43277","24.9654483333333","6501300","土城區"
"236042","107-UM","2017/11/06 20:09:27","新北市土城區學成路22巷3號","121.453445","24.9873733333333","6501300","土城區"
"236078","166-UM","2017/11/06 20:09:43","新北市土城區中山路47號","121.420656666667","24.9630433333333","6501300","土城區"
"236030","253-BX","2017/11/06 20:09:38","新北市土城區中央路一段116號","121.446543333333","24.9881","6501300","土城區"
"236026","269-VK","2017/11/06 20:09:42","新北市土城區明德路二段237號","121.445528333333","24.9839833333333","6501300","土城區"
"236014","270-VK","2017/11/06 20:09:36","新北市土城區廣興街53號","121.454868333333","24.9916116666667","6501300","土城區"
"236036","271-VK","2017/11/06 20:09:29","新北市土城區明德路一段78號","121.465015","24.9800733333333","6501300","土城區"
"236020","401-BY","2017/11/06 20:09:36","新北市土城區延吉街63巷8號","121.472473333333","24.9871183333333","6501300","土城區"
"236048","752-BX","2017/11/06 20:09:39","新北市土城區金城路三段151號","121.46864","24.9883233333333","6501300","土城區"
"236058","912-UM","2017/11/06 20:09:38","新北市土城區中央路二段23號","121.44287","24.980275","6501300","土城區"
"236062","915-UM","2017/11/06 20:09:39","新北市土城區立德路107號","121.464005","24.987645","6501300","土城區"
"236053","AAC-216","2017/11/06 20:09:27","新北市土城區中央路一段45巷21號","121.449216666667","24.98997","6501300","土城區"
"242031","AAC-296","2017/11/06 20:09:26","新北市新莊區忠孝街29巷3號","121.44359","25.0355383333333","6500500","新莊區"
"242029","986-R7","2017/11/06 20:09:40","新北市新莊區中榮街152巷40號","121.445523333333","25.05376","6500500","新莊區"
"242050","751-BX","2017/11/06 20:09:46","新北市新莊區民安西路170號","121.425885","25.0160016666667","6500500","新莊區"
"242025","615-BX","2017/11/06 20:09:47","新北市新莊區五工三路78巷6號","121.459153333333","25.0652616666667","6500500","新莊區"
"242023","613-BX","2017/11/06 20:09:39","新北市新莊區化成路558號","121.46621","25.0539883333333","6500500","新莊區"
"242027","612-BX","2017/11/06 20:09:42","新北市新莊區幸福路811號","121.445723333333","25.0489783333333","6500500","新莊區"
"242044","497-BY","2017/11/06 20:09:39","桃園市龜山區萬壽路一段21巷14號","121.410663333333","25.0200516666667","6500500","新莊區"
"242002","442-UM","2017/11/06 20:09:38","新北市新莊區思源路23號","121.460163333333","25.0387633333333","6500500","新莊區"
"242048","441-UM","2017/11/06 20:09:37","新北市新莊區四維路150巷12號","121.42258","25.0235","6500500","新莊區"
"242053","440-UM","2017/11/06 20:09:29","新北市新莊區西盛街387巷34弄5號","121.428516666667","25.012875","6500500","新莊區"
"242004","413-TV","2017/11/06 20:09:44","新北市新莊區頭興街7巷1號","121.462761666667","25.0536316666667","6500500","新莊區"
"242060","362-BY","2017/11/06 20:09:44","新北市新莊區瓊林路瓊英巷1弄1號","121.443873333333","25.0272133333333","6500500","新莊區"
"242058","353-BY","2017/11/06 20:09:35","新北市新莊區龍安路266巷34號","121.42149","25.01854","6500500","新莊區"
"242007","132-UY","2017/11/06 20:09:28","新北市新莊區福壽街164巷20號","121.459341666667","25.0527233333333","6500500","新莊區"
"242036","133-UY","2017/11/06 20:09:41","新北市新莊區後港一路130巷46號","121.430073333333","25.0255466666667","6500500","新莊區"
"242021","135-UY","2017/11/06 20:09:27","新北市新莊區中興街43號","121.449193333333","25.0369316666667","6500500","新莊區"
"242046","172-VK","2017/11/06 20:09:24","新北市新莊區裕民街85巷22弄1號","121.419483333333","25.0229483333333","6500500","新莊區"
"242009","173-VK","2017/11/06 20:09:30","新北市新莊區昌盛街35巷1弄2號","121.45406","25.050295","6500500","新莊區"
"242015","175-VK","2017/11/06 20:09:26","新北市新莊區中平路26巷41號","121.446735","25.0433033333333","6500500","新莊區"
"242039","176-VK","2017/11/06 20:09:43","新北市新莊區民安西路73號","121.427198333333","25.0196466666667","6500500","新莊區"
"242001","233-RS","2017/11/06 09:13:40","新北市新莊區環河路48-7號","121.436935","25.0098066666667","6500500","新莊區"
"242013","346-TH","2017/11/06 20:09:33","新北市新莊區幸福路694號","121.450155","25.0495566666667","6500500","新莊區"
"242034","348-TH","2017/11/06 20:09:35","新北市新莊區華興街5號","121.446041666667","25.035195","6500500","新莊區"
"242056","349-TH","2017/11/06 20:09:39","新北市新莊區豐年街28巷1弄11號","121.44615","25.031845","6500500","新莊區"
"242017","350-TH","2017/11/06 20:09:38","新北市新莊區中港路340號","121.452068333333","25.0460433333333","6500500","新莊區"
"242011","351-TH","2017/11/06 20:09:24","新北市新莊區中信街67巷9號","121.448573333333","25.0507133333333","6500500","新莊區"
"238021","KEA-2217","2017/11/06 20:09:40","新北市樹林區田尾街176號","121.400823333333","24.9503916666667","6500700","樹林區"
"238025","303-VK","2017/11/06 20:09:27","新北市樹林區育德街78-1號","121.387346666667","24.9682633333333","6500700","樹林區"
"238020","268-VK","2017/11/06 20:09:43","新北市樹林區育德街78-1號","121.3876","24.9683033333333","6500700","樹林區"
"221008","489-VK","2017/11/06 20:09:25","新北市汐止區忠三街9巷34號","121.623961666667","25.0803483333333","6501100","汐止區"
"221036","130-UY","2017/11/06 20:09:44","新北市汐止區新台五路二段37號","121.663071666667","25.066355","6501100","汐止區"
"221015","131-UY","2017/11/06 20:09:27","新北市汐止區建成路17號","121.664448333333","25.0726133333333","6501100","汐止區"
"221010","269-BY","2017/11/06 20:09:33","新北市汐止區八連路一段198巷2號","121.64284","25.08254","6501100","汐止區"
"221012","278-VK","2017/11/06 20:09:38","新北市汐止區汐平路二段15號","121.695788333333","25.06434","6501100","汐止區"
"221023","279-VK","2017/11/06 20:09:26","新北市汐止區明峰街298巷5弄2號","121.624985","25.068575","6501100","汐止區"
"221032","280-BY","2017/11/06 20:09:32","新北市汐止區弘道街8巷5弄1號","121.617088333333","25.0479683333333","6501100","汐止區"
"221027","281-BY","2017/11/06 20:09:42","新北市汐止區和平街106巷3號","121.660821666667","25.0701483333333","6501100","汐止區"
"221029","298-VK","2017/11/06 20:09:34","新北市汐止區樟樹一路119巷8-6號","121.641268333333","25.0644833333333","6501100","汐止區"
"221021","299-VK","2017/11/06 20:09:27","新北市汐止區水源路一段185號","121.654766666667","25.061465","6501100","汐止區"
"221031","353-TW","2017/11/06 20:09:26","新北市汐止區中興路214巷12號","121.63148","25.0665916666667","6501100","汐止區"
"221035","622-UM","2017/11/06 20:09:31","新北市汐止區長江街67巷2弄1號","121.656708333333","25.0722683333333","6501100","汐止區"
"221025","623-UM","2017/11/06 20:09:30","新北市汐止區秀峰路66號","121.659765","25.0645016666667","6501100","汐止區"
"221038","646-BX","2017/11/06 20:09:41","新北市汐止區大同路三段66-3號","121.668103333333","25.0771316666667","6501100","汐止區"
"221033","647-BX","2017/11/06 20:09:29","新北市汐止區東勢街201巷104號","121.633501666667","25.0429683333333","6501100","汐止區"
"221018","753-BX","2017/11/06 20:09:36","新北市汐止區茄福街35巷27號","121.673226666667","25.066355","6501100","汐止區"
"220079","145-BY","2017/11/06 20:09:35","新北市五股區新五路二段137號","121.439495","25.0805366666667","6500100","板橋區"
"220080","200-UY","2017/11/06 20:09:34","新北市板橋區大觀路二段179巷32號","121.446148333333","24.9995716666667","6500100","板橋區"
"220072","277-BY","2017/11/06 20:09:34","新北市板橋區金門街109巷25號","121.43391","24.99165","6500100","板橋區"
"220101","280-UM","2017/11/06 20:09:39","新北市板橋區莒光路171巷1弄18-4號","121.474525","25.0246733333333","6500100","板橋區"
"220071","283-VK","2017/11/06 20:09:46","新北市板橋區和平路190巷12號","121.46453","24.9950916666667","6500100","板橋區"
"220053","285-VK","2017/11/06 20:09:41","新北市板橋區中山路2段267-1號","121.477578333333","25.01806","6500100","板橋區"
"220083","286-VK","2017/11/06 20:09:39","新北市板橋區僑中二街88巷2號","121.44648","25.0094016666667","6500100","板橋區"
"220081","287-VK","2017/11/06 20:09:32","新北市板橋區僑中一街124巷20弄46號","121.448035","25.0138483333333","6500100","板橋區"
"220090","288-VK","2017/11/06 20:09:42","新北市板橋區幸福路32巷35號","121.46074","25.021465","6500100","板橋區"
"220061","295-UM","2017/11/06 20:09:24","新北市板橋區觀光街1巷2號","121.472065","25.0155833333333","6500100","板橋區"
"220084","296-UM","2017/11/06 20:09:25","新北市板橋區溪崑二街122號","121.426056666667","24.9881183333333","6500100","板橋區"
"220075","297-UM","2017/11/06 20:09:34","新北市板橋區金華街10巷31號","121.457041666667","25.020235","6500100","板橋區"
"220062","303-R5","2017/11/06 20:09:36","新北市新莊區五權一路13-3號","121.4597","25.068685","6500100","板橋區"
"220092","307-R5","2017/11/06 20:09:36","新北市板橋區民權路178號","121.45945","25.0133216666667","6500100","板橋區"
"220098","317-R6","2017/11/06 20:09:42","新北市板橋區新海路72巷9號","121.46231","25.022035","6500100","板橋區"
"220089","487-VK","2017/11/06 20:09:38","新北市板橋區新海路386號","121.459018333333","25.0262516666667","6500100","板橋區"
"242019","280-VK","2017/11/06 20:09:30","新北市新莊區思源路137號","121.459795","25.0437766666667","6500500","新莊區"
"220088","491-VK","2017/11/06 20:09:34","新北市板橋區民治街84號","121.479438333333","25.03206","6500100","板橋區"
"220103","561-BX","2017/11/06 20:09:42","新北市板橋區自由路24號","121.46578","25.0227183333333","6500100","板橋區"
"220093","689-BX","2017/11/06 20:09:26","新北市板橋區長江路二段85號","121.4653","25.0316266666667","6500100","板橋區"
"220054","741-BX","2017/11/06 20:09:29","新北市板橋區實踐路93巷19號","121.464901666667","25.005535","6500100","板橋區"
"220055","827-TW","2017/11/06 20:09:30","新北市板橋區仁愛路86巷9號","121.46104","24.999215","6500100","板橋區"
"220067","829-TW","2017/11/06 20:09:29","新北市板橋區中山路一段214號","121.47024","25.0139433333333","6500100","板橋區"
"220102","830-TW","2017/11/06 20:09:41","新北市板橋區民治街133巷7號","121.477945","25.03054","6500100","板橋區"
"220096","831-TW","2017/11/06 20:09:46","新北市板橋區莒光路129號","121.47287","25.0240033333333","6500100","板橋區"
"220074","895-R6","2017/11/06 20:09:33","新北市板橋區館前西路86號","121.457581666667","25.007215","6500100","板橋區"
"220097","AAC-210","2017/11/06 20:09:37","新北市板橋區文化路一段221巷22號","121.462883333333","25.017865","6500100","板橋區"
"220070","AAC-253","2017/11/06 20:09:29","新北市板橋區德興街33號","121.453478333333","24.99391","6500100","板橋區"
