"lineid","car","time","location","longitude","latitude","cityid","cityname"
"248005","653-BX","2017/11/07 06:43:33","新北市五股區中興路二段83巷26-6號","121.459963333333","25.07515","6501500","五股區"
"232002","290-BY","2017/11/07 06:43:32","新北市坪林區鶯子瀨12-1號","121.714976666667","24.9119916666667","6502000","坪林區"
"232013","291-BY","2017/11/07 06:43:40","新北市坪林區鶯子瀨11-2號","121.710708333333","24.915395","6502000","坪林區"
"232006","758-BX","2017/11/07 06:43:33","新北市坪林區北宜路八段602號","121.720108333333","24.9088283333333","6502000","坪林區"
"244002","657-BX","2017/11/07 06:43:27","新北市林口區粉寮路二段160巷28號","121.405155","25.0907116666667","6501700","林口區"
"223006","022-BY","2017/11/07 06:43:24","新北市石碇區靜安路一段102號","121.648045","25.0089166666667","6501900","石碇區"
"223002","198-BX","2017/11/07 06:43:26","新北市石碇區摸乳巷8-2號","121.660408333333","24.98119","6501900","石碇區"
"223004","437-BY","2017/11/07 06:43:37","新北市石碇區小粗坑(潭邊里)9號","121.675955","24.983975","6501900","石碇區"
"223001","592-UM","2017/11/07 06:42:47","新北市石碇區湳窟31-5號","121.663666666667","24.99353","6501900","石碇區"
"223007","661-BX","2017/11/07 06:43:36","新北市石碇區雙溪33-5號","121.649618333333","25.0090033333333","6501900","石碇區"
"227006","282-VK","2017/11/07 06:43:33","新北市雙溪區新基里朝陽街12號","121.866065","25.0386416666667","6502500","雙溪區"
"236008","165-UM","2017/11/07 06:43:20","新北市土城區永平街51號","121.427916666667","24.9591416666667","6501300","土城區"
