"lineid","car","time","location","longitude","latitude","cityid","cityname"
"222005","289-BY","2017/10/13 08:38:10","台北市南港區舊莊街一段290巷49號","121.623593333333","25.0186616666667","6501800","深坑區"
"231007","189-VK","2017/10/13 08:39:34","新北市新店區小坑二路17號","121.528638333333","24.9154066666667","6500600","新店區"
"231009","192-VK","2017/10/13 08:39:50","新北市新店區新烏路三段99巷2號","121.552653333333","24.9029466666667","6500600","新店區"
"220034","015-TV","2017/10/13 08:39:33","新北市八里區中山路三段390號","121.368331666667","25.1351633333333","6500100","板橋區"
"226005","5620-A6","2017/10/13 08:39:46","新北市平溪區十分里十分街238號","121.778238333333","25.0441866666667","6502400","平溪區"
"226001","7418-A5","2017/10/13 08:36:09","新北市平溪區東勢里番仔坑16號","121.756255","24.9918316666667","6502400","平溪區"
"226003","AGD-0702","2017/10/13 08:39:34","新北市平溪區十分里十分街12-3號","121.773581666667","25.039295","6502400","平溪區"
"223002","198-BX","2017/10/13 08:29:39","新北市石碇區小粗坑(潭邊里)9-2號","121.678581666667","24.98581","6501900","石碇區"
"223003","205-TH","2017/10/13 08:39:48","新北市石碇區北宜路六段柑腳巷1-1號","121.659828333333","24.9395833333333","6501900","石碇區"
"223008","406-TH","2017/10/13 08:39:39","新北市石碇區十八重溪29號","121.675833333333","25.0122933333333","6501900","石碇區"
"223001","592-UM","2017/10/13 08:39:38","新北市石碇區北宜路六段塗潭巷56號","121.653993333333","24.9353783333333","6501900","石碇區"
"223004","660-BX","2017/10/13 08:39:45","新北市石碇區崩山23-3號","121.67567","24.9684216666667","6501900","石碇區"
"223007","661-BX","2017/10/13 08:39:38","新北市石碇區十八重溪69號","121.673423333333","25.0147233333333","6501900","石碇區"
"223005","677-TV","2017/10/13 08:39:33","新北市石碇區崩山24-2號","121.678606666667","24.96782","6501900","石碇區"
"227005","282-VK","2017/10/13 08:39:43","新北市雙溪區外柑里四分子4號","121.845136666667","24.9984383333333","6502500","雙溪區"
"251001","155-BY","2017/10/13 08:39:34","新北市淡水區學府路155號","121.445788333333","25.174225","6501000","淡水區"
"237001","159-UY","2017/10/13 08:39:48","新北市三峽區三樹路199號","121.378051666667","24.94217","6500900","三峽區"
"236010","165-UM","2017/10/13 08:39:40","新北市土城區石門路100-3號","121.458443333333","24.9513533333333","6501300","土城區"
"236004","339-SR","2017/10/13 08:39:48","新北市土城區中央路三段281巷9-2號","121.426593333333","24.96292","6501300","土城區"
"236006","498-BY","2017/10/13 08:39:28","新北市土城區永和街42巷9號","121.434515","24.9601266666667","6501300","土城區"
