"lineid","car","time","location","longitude","latitude","cityid","cityname"
"222005","289-BY","2017/10/13 08:59:50","新北市深坑區土庫尖路75-1號","121.631163333333","25.0182216666667","6501800","深坑區"
"231007","189-VK","2017/10/13 08:59:34","新北市新店區新潭路三段131號","121.511236666667","24.910695","6500600","新店區"
"231009","192-VK","2017/10/13 08:59:52","新北市新店區松林路75號","121.549441666667","24.9079366666667","6500600","新店區"
"220034","015-TV","2017/10/13 08:59:53","新北市五股區新五路二段89號","121.436858333333","25.0744366666667","6500100","板橋區"
"226001","7418-A5","2017/10/13 08:59:49","新北市平溪區東勢里東勢格1-1號","121.74867","25.0025733333333","6502400","平溪區"
"226003","AGD-0702","2017/10/13 08:59:53","新北市平溪區靜安路二段530巷7號","121.745026666667","25.0273916666667","6502400","平溪區"
"223002","198-BX","2017/10/13 08:59:44","新北市石碇區八分寮43號","121.642255","25.011895","6501900","石碇區"
"223003","205-TH","2017/10/13 08:59:48","新北市石碇區北宜路五段81號","121.645501666667","24.9518983333333","6501900","石碇區"
"223008","406-TH","2017/10/13 08:59:39","新北市石碇區光明路28號","121.695243333333","25.0238433333333","6501900","石碇區"
"223001","592-UM","2017/10/13 08:59:38","新北市石碇區北宜路六段十三股巷1號","121.648986666667","24.9494283333333","6501900","石碇區"
"223004","660-BX","2017/10/13 08:59:45","新北市石碇區磨石坑36-9號","121.69082","24.9650233333333","6501900","石碇區"
"223007","661-BX","2017/10/13 08:55:38","新北市石碇區光明路17號","121.684105","25.032295","6501900","石碇區"
"223005","677-TV","2017/10/13 08:59:52","新北市石碇區磨石坑39-3號","121.688213333333","24.9656083333333","6501900","石碇區"
"227005","282-VK","2017/10/13 08:58:03","新北市雙溪區泰平里溪尾寮3號","121.818486666667","24.970315","6502500","雙溪區"
"251001","155-BY","2017/10/13 08:58:54","新北市淡水區下圭柔山91-3號","121.430915","25.2096633333333","6501000","淡水區"
"237001","159-UY","2017/10/13 08:59:48","新北市三峽區學勤路117號","121.375591666667","24.9466216666667","6500900","三峽區"
"236010","165-UM","2017/10/13 08:59:40","新北市土城區清水路32巷3號","121.455755","24.9809416666667","6501300","土城區"
"236004","339-SR","2017/10/13 08:59:46","新北市土城區慶安街29巷13號","121.441711666667","24.972855","6501300","土城區"
"236006","498-BY","2017/10/13 08:59:48","新北市土城區承天路23號","121.436375","24.96573","6501300","土城區"
