"lineid","car","time","location","longitude","latitude","cityid","cityname"
"222005","289-BY","2017/10/13 09:39:39","新北市深坑區文山路一段64號","121.624045","25.0008166666667","6501800","深坑區"
"231007","189-VK","2017/10/13 09:39:34","新北市新店區新潭路三段215巷25號","121.508166666667","24.9040716666667","6500600","新店區"
"231009","192-VK","2017/10/13 09:39:51","新北市新店區平廣路一段201巷1號","121.514741666667","24.889275","6500600","新店區"
"223002","198-BX","2017/10/13 09:39:47","新北市石碇區下橫坪15號","121.669021666667","24.9832616666667","6501900","石碇區"
"227005","282-VK","2017/10/13 09:34:03","新北市雙溪區泰平里溪尾寮6號","121.819531666667","24.9633683333333","6502500","雙溪區"
"237001","159-UY","2017/10/13 09:39:47","新北市三峽區國際二街73號","121.370686666667","24.9423","6500900","三峽區"
"236006","498-BY","2017/10/13 09:39:48","新北市土城區中央路三段1號","121.439698333333","24.9706783333333","6501300","土城區"
