"lineid","car","time","location","longitude","latitude","cityid","cityname"
"234044","148-BY","2017/10/13 14:09:47","新北市永和區成功路一段2號","121.526951666667","25.005595","6500400","永和區"
"234012","149-BY","2017/10/13 14:09:50","新北市永和區保生路5巷1號","121.506233333333","25.0071283333333","6500400","永和區"
"234005","207-UY","2017/10/13 14:09:41","新北市中和區保平路336號","121.506715","25.00419","6500400","永和區"
"234078","298-R6","2017/10/13 14:09:49","新北市永和區永亨路107號","121.5234","25.0048983333333","6500400","永和區"
"234036","336-UY","2017/10/13 14:09:50","新北市永和區成功路一段47巷9號","121.527558333333","25.0040683333333","6500400","永和區"
"234062","337-UY","2017/10/13 14:09:36","新北市永和區永利路152號","121.522471666667","25.0027533333333","6500400","永和區"
"234084","338-UY","2017/10/13 14:09:43","新北市永和區中正路638號","121.517003333333","25.0082383333333","6500400","永和區"
"234068","552-UM","2017/10/13 14:09:42","新北市永和區永貞路10巷6號","121.520468333333","25.0074466666667","6500400","永和區"
"234052","553-UM","2017/10/13 14:09:49","新北市永和區博愛街45巷2號","121.51922","25.0159","6500400","永和區"
"234015","745-BX","2017/10/13 14:09:44","新北市永和區仁愛路91號","121.512976666667","25.01318","6500400","永和區"
"234028","746-BX","2017/10/13 14:09:48","新北市永和區民權路51號","121.520116666667","24.9971133333333","6500400","永和區"
"234060","AAD-866","2017/10/13 14:09:49","新北市中和區安平路222號","121.514021666667","25.0002333333333","6500400","永和區"
"234040","862-TW","2017/10/13 14:09:51","新北市永和區雙和街50號","121.508913333333","25.0030933333333","6500400","永和區"
"234048","863-TW","2017/10/13 14:09:39","新北市永和區永平路289號","121.505826666667","25.0136266666667","6500400","永和區"
"234025","9371-KE","2017/10/13 14:09:49","新北市永和區安樂路270號","121.514513333333","25.004075","6500400","永和區"
"234010","9373-KE","2017/10/13 14:09:37","新北市永和區仁愛路352巷122弄13號","121.500771666667","25.0088366666667","6500400","永和區"
"248019","225-UY","2017/10/13 14:02:21","新北市五股區凌雲路三段57號","121.425213333333","25.12507","6501500","五股區"
"234022","9380-KE","2017/10/13 14:09:49","新北市永和區竹林路30-1號","121.517105","25.01469","6500400","永和區"
"234076","969-R7","2017/10/13 14:09:47","新北市永和區民族街81巷62號","121.520201666667","24.99647","6500400","永和區"
"234072","AAC-211","2017/10/13 14:09:52","新北市永和區竹林路201巷22弄10號","121.522558333333","25.0093333333333","6500400","永和區"
"234066","AAC-212","2017/10/13 14:09:45","新北市永和區保平路236巷6號","121.508755","25.006075","6500400","永和區"
"234001","AAC-295","2017/10/13 14:09:49","新北市永和區中正路613號","121.516233333333","25.0098316666667","6500400","永和區"
"244004","657-BX","2017/10/13 14:09:39","新北市林口區竹林路265號","121.389643333333","25.0806983333333","6501700","林口區"
"231002","002-UM","2017/10/13 14:09:49","新北市新店區中正路506號","121.533756666667","24.982885","6500600","新店區"
"231028","046-UY","2017/10/13 14:09:49","新北市新店區安和路二段227號","121.517236666667","24.976075","6500600","新店區"
"231030","047-UY","2017/10/13 14:09:40","新北市新店區安民街65巷21-2號","121.51523","24.96752","6500600","新店區"
"231029","106-UY","2017/10/13 14:09:56","新北市新店區安康路二段145號","121.511601666667","24.9600366666667","6500600","新店區"
"231012","108-UY","2017/10/13 14:09:41","新北市新店區中興路一段222號","121.544431666667","24.965545","6500600","新店區"
"231018","110-UY","2017/10/13 14:09:40","新北市新店區中央五街45號","121.528151666667","24.975235","6500600","新店區"
"231022","187-VK","2017/10/13 14:09:41","新北市新店區屈尺路78號","121.546591666667","24.922605","6500600","新店區"
"231016","KEA-2219","2017/10/13 14:09:50","新北市新店區北宜路二段491號","121.562675","24.953865","6500600","新店區"
"231023","AAD-862","2017/10/13 14:09:43","新北市新店區文中路40號","121.539641666667","24.95661","6500600","新店區"
"231027","3712-VJ","2017/10/13 14:09:54","新北市新店區北宜路一段7號","121.538091666667","24.9582716666667","6500600","新店區"
"231024","3713-VJ","2017/10/13 14:09:54","新北市新店區新生街13巷42號","121.53888","24.9665716666667","6500600","新店區"
"231025","4716-K9","2017/10/13 14:09:34","新北市新店區中正路328巷42弄8號","121.538458333333","24.9760983333333","6500600","新店區"
"231038","4715-K9","2017/10/13 14:09:41","新北市新店區溪洲路121號","121.531345","24.962695","6500600","新店區"
"231036","513-UM","2017/10/13 14:09:47","新北市新店區安祥路109巷1弄39號","121.476955","24.9603083333333","6500600","新店區"
"231035","515-UM","2017/10/13 14:09:43","新北市新店區安和路一段53號","121.517528333333","24.9660516666667","6500600","新店區"
"231006","617-UM","2017/10/13 14:09:51","新北市新店區北宜路二段419-2號","121.560348333333","24.9544716666667","6500600","新店區"
"231001","619-UM","2017/10/13 14:09:35","新北市新店區中華路52號","121.539631666667","24.96854","6500600","新店區"
"231003","641-BX","2017/10/13 14:09:37","新北市新店區中興路一段108號","121.540946666667","24.9618916666667","6500600","新店區"
"231034","645-TV","2017/10/13 14:09:48","新北市新店區黎明路3號","121.503518333333","24.9524616666667","6500600","新店區"
"231013","719-UM","2017/10/13 14:09:42","新北市新店區北新路三段67號","121.541698333333","24.9811383333333","6500600","新店區"
"231032","720-UM","2017/10/13 14:09:39","新北市新店區碧潭路52號","121.534311666667","24.9566533333333","6500600","新店區"
"231005","897-TW","2017/10/13 14:09:44","新北市新店區中興路三段258號","121.542695","24.984295","6500600","新店區"
"231004","899-TW","2017/10/13 14:09:40","新北市新店區北新路二段128號","121.543085","24.9748466666667","6500600","新店區"
"231037","AKT-0513","2017/10/13 14:09:54","新北市新店區安康路二段341巷5號","121.49697","24.9548833333333","6500600","新店區"
"235030","003-UY","2017/10/13 14:09:53","新北市中和區廣福路112號","121.502253333333","25.0011583333333","6500300","中和區"
"235028","005-UY","2017/10/13 14:09:48","新北市中和區中和路40巷14號","121.499493333333","25.001215","6500300","中和區"
"235027","006-UY","2017/10/13 14:09:46","新北市中和區中正路406號","121.492565","24.9941783333333","6500300","中和區"
"235020","096-UM","2017/10/13 14:09:56","新北市中和區中正路1171號","121.481306666667","25.00946","6500300","中和區"
"235003","097-UM","2017/10/13 14:09:52","新北市中和區景平路3號","121.523656666667","24.9902883333333","6500300","中和區"
"235029","098-UM","2017/10/13 14:09:51","新北市中和區中山路二段64巷7弄23號","121.502796666667","25.0046233333333","6500300","中和區"
"235004","150-BY","2017/10/13 14:09:43","新北市中和區宜安路121號","121.509955","24.9978883333333","6500300","中和區"
"235022","151-BY","2017/10/13 14:09:39","新北市中和區員山路127-1號","121.481033333333","24.9956383333333","6500300","中和區"
"235019","183-VK","2017/10/13 14:09:45","新北市中和區德光路70號","121.469408333333","25.003755","6500300","中和區"
"235002","185-VK","2017/10/13 14:09:36","新北市中和區自強路48號","121.52019","24.994945","6500300","中和區"
"235013","186-VK","2017/10/13 14:09:48","新北市中和區景新街174號","121.506156666667","24.9965","6500300","中和區"
"235031","255-BX","2017/10/13 14:09:43","新北市中和區新生街189號","121.483756666667","25.0003016666667","6500300","中和區"
"235036","301-VK","2017/10/13 14:09:51","新北市中和區永和路76號","121.49772","25.005065","6500300","中和區"
"235007","352-BY","2017/10/13 14:09:46","新北市中和區景平路22號","121.523635","24.990695","6500300","中和區"
"235015","376-QA","2017/10/13 14:09:37","新北市中和區景新街345-3號","121.511926666667","24.9912166666667","6500300","中和區"
"235032","377-QA","2017/10/13 14:09:34","新北市中和區連勝街38巷7號","121.497675","24.9978233333333","6500300","中和區"
"235025","378-QA","2017/10/13 14:09:45","新北市中和區員山路394巷8號","121.481083333333","25.0046016666667","6500300","中和區"
"235035","269-TV","2017/10/13 14:09:35","新北市中和區立德街98巷83號","121.488275","25.008685","6500300","中和區"
"235014","4979-A6","2017/10/13 14:09:55","新北市中和區復興路280巷18弄20號","121.501771666667","24.992345","6500300","中和區"
"235033","4980-A6","2017/10/13 14:09:47","新北市中和區福美路266號","121.498123333333","25.0051066666667","6500300","中和區"
"235006","551-UM","2017/10/13 14:09:45","新北市中和區自立路99巷12號","121.522528333333","24.9945883333333","6500300","中和區"
"235034","558-UM","2017/10/13 14:09:40","新北市中和區安和路217號","121.505885","24.9993533333333","6500300","中和區"
"235009","565-BX","2017/10/13 14:09:37","新北市中和區景新街467巷38弄2號","121.514518333333","24.9885483333333","6500300","中和區"
"235018","640-BX","2017/10/13 14:09:45","新北市中和區國光街107巷4弄14-4號","121.47013","24.9994033333333","6500300","中和區"
"235024","647-TV","2017/10/13 14:09:50","新北市中和區民治街27巷1號","121.47554","25.0015316666667","6500300","中和區"
"235011","732-UM","2017/10/13 14:09:51","新北市中和區興南路一段56巷36號","121.510446666667","24.9912566666667","6500300","中和區"
"235010","733-UM","2017/10/13 14:09:42","新北市中和區忠孝街1巷8號","121.508808333333","24.9834916666667","6500300","中和區"
"235026","800-TS","2017/10/13 14:09:52","新北市中和區中山路二段362-6號","121.49222","25.00285","6500300","中和區"
"235021","801-TS","2017/10/13 14:09:39","新北市中和區民利街50號","121.479301666667","24.9988383333333","6500300","中和區"
"235005","802-TS","2017/10/13 14:09:43","新北市中和區宜安路139號","121.509385","24.9984633333333","6500300","中和區"
"235016","805-TS","2017/10/13 14:09:46","新北市中和區興南路二段128巷7弄2號","121.503281666667","24.9840816666667","6500300","中和區"
"235012","896-TW","2017/10/13 14:09:45","新北市中和區工專路147號","121.508391666667","24.9787883333333","6500300","中和區"
"235017","900-TW","2017/10/13 14:09:52","新北市中和區華福街11號","121.465553333333","24.9968583333333","6500300","中和區"
"235001","AAC-213","2017/10/13 14:09:53","新北市中和區秀朗路三段60巷26號","121.525421666667","24.9950533333333","6500300","中和區"
"235023","AAC-215","2017/10/13 14:09:47","新北市中和區圓通路294巷13號","121.48876","24.99007","6500300","中和區"
"220013","072-UY","2017/10/13 14:09:39","新北市板橋區民族路219巷7號","121.469351666667","25.0080316666667","6500100","板橋區"
"220034","073-UY","2017/10/13 14:09:40","新北市板橋區中正路236巷65號","121.45855","25.01952","6500100","板橋區"
"220017","AAD-861","2017/10/13 14:09:39","新北市板橋區華興街89號","121.456708333333","25.0052066666667","6500100","板橋區"
"220016","120-SR","2017/10/13 14:09:44","新北市板橋區三民路一段1巷56號","121.480776666667","25.0247316666667","6500100","板橋區"
"247021","893-R6","2017/10/13 14:09:35","新北市蘆洲區三民路165號","121.471431666667","25.0870216666667","6501400","蘆洲區"
"247011","546-UM","2017/10/13 14:09:46","新北市蘆洲區信義路345號","121.477765","25.0872283333333","6501400","蘆洲區"
"247019","500-BY","2017/10/13 14:09:40","新北市蘆洲區民族路426巷42號","121.472995","25.0933216666667","6501400","蘆洲區"
"247009","339-TH","2017/10/13 14:09:41","新北市蘆洲區信義路176號","121.47926","25.0840216666667","6501400","蘆洲區"
"247001","337-TH","2017/10/13 14:09:47","新北市蘆洲區永平街65號","121.457221666667","25.0916533333333","6501400","蘆洲區"
"247003","336-TH","2017/10/13 14:09:45","新北市蘆洲區長安街172巷11號","121.459591666667","25.0835733333333","6501400","蘆洲區"
"247015","057-VK","2017/10/13 14:09:43","新北市蘆洲區光華路46巷46號","121.467633333333","25.0845966666667","6501400","蘆洲區"
"247005","056-VK","2017/10/13 14:09:53","新北市蘆洲區永安南路二段16巷17弄24號","121.467318333333","25.0781116666667","6501400","蘆洲區"
"247013","007-UY","2017/10/13 14:09:34","新北市蘆洲區忠孝路74號","121.471521666667","25.0854983333333","6501400","蘆洲區"
"247023","002-UY","2017/10/13 14:09:43","新北市蘆洲區光榮路118號","121.464715","25.0888216666667","6501400","蘆洲區"
"247017","001-UY","2017/10/13 14:09:44","新北市蘆洲區復興路111-9號","121.476973333333","25.08859","6501400","蘆洲區"
"208004","AAC-292","2017/10/13 14:09:44","新北市金山區重和里六股林口81號","121.599768333333","25.2154716666667","6502700","金山區"
"207002","749-BX","2017/10/13 14:06:06","新北市萬里區溪底里瑞泉路21號","121.605021666667","25.1484233333333","6502800","萬里區"
"207001","662-BX","2017/10/13 14:09:50","新北市萬里區磺潭里清水18號","121.637855","25.1977166666667","6502800","萬里區"
"236067","105-UM","2017/10/13 14:09:52","新北市土城區和平路79號","121.444963333333","24.9711433333333","6501300","土城區"
"236041","107-UM","2017/10/13 14:09:42","新北市土城區裕生路64號","121.447533333333","24.986145","6501300","土城區"
"236077","166-UM","2017/10/13 14:09:50","新北市土城區永和街5號","121.434583333333","24.9650966666667","6501300","土城區"
"236029","253-BX","2017/10/13 14:09:37","新北市土城區中央路二段263號","121.439831666667","24.9708016666667","6501300","土城區"
"236025","269-VK","2017/10/13 14:09:56","新北市土城區承天路20號","121.439535","24.9633816666667","6501300","土城區"
"236013","270-VK","2017/10/13 14:09:55","新北市土城區學府路一段150號","121.454628333333","24.9869166666667","6501300","土城區"
"236035","271-VK","2017/10/13 14:09:37","新北市土城區金城路二段63號","121.451158333333","24.9787816666667","6501300","土城區"
"236019","401-BY","2017/10/13 14:09:35","新北市土城區中華路一段249號","121.440688333333","24.981285","6501300","土城區"
"236006","498-BY","2017/10/13 14:09:50","新北市土城區中華路一段10-1號","121.448028333333","24.9906833333333","6501300","土城區"
"236057","912-UM","2017/10/13 14:09:34","新北市土城區中央路四段96號","121.418393333333","24.9592116666667","6501300","土城區"
"236046","913-UM","2017/10/13 14:09:51","新北市土城區明德路一段365-1號","121.453533333333","24.9790916666667","6501300","土城區"
"236061","915-UM","2017/10/13 14:09:49","新北市土城區青雲路145號","121.458561666667","24.9842133333333","6501300","土城區"
"236054","AAC-216","2017/10/13 14:09:38","新北市土城區中華路二段80號","121.438663333333","24.9756183333333","6501300","土城區"
"242044","497-BY","2017/10/13 14:09:41","新北市新莊區民安西路285號","121.426461666667","25.0120616666667","6500500","新莊區"
"221012","276-VK","2017/10/13 13:25:25","新北市汐止區汐萬路一段256巷3號","121.653438333333","25.074685","6501100","汐止區"
"221018","753-BX","2017/10/13 14:09:35","新北市汐止區中興路143號","121.631431666667","25.0656883333333","6501100","汐止區"
"220027","145-BY","2017/10/13 14:09:46","新北市板橋區民權路260巷71號","121.460615","25.01493","6500100","板橋區"
"220028","200-UY","2017/10/13 14:09:42","新北市樹林區中華路2-1號","121.425473333333","24.9843983333333","6500100","板橋區"
"220030","610-BX","2017/10/13 14:09:56","新北市板橋區溪崑二街62號","121.427973333333","24.9904383333333","6500100","板橋區"
"220050","245-BX","2017/10/13 14:09:40","新北市板橋區莊敬路208巷2弄7號","121.47154","25.02144","6500100","板橋區"
"220040","267-BY","2017/10/13 14:09:49","新北市板橋區縣民大道247巷33號","121.482033333333","25.0267116666667","6500100","板橋區"
"220004","276-BY","2017/10/13 14:09:53","新北市板橋區信義路150巷12號","121.45831","24.9918716666667","6500100","板橋區"
"220020","277-BY","2017/10/13 14:09:48","新北市板橋區金門街369巷58號","121.428118333333","24.981655","6500100","板橋區"
"220043","280-UM","2017/10/13 14:09:45","新北市板橋區光武街138號","121.465428333333","25.0300316666667","6500100","板橋區"
"220019","283-VK","2017/10/13 14:09:48","新北市板橋區重慶路269巷61號","121.465125","24.9988283333333","6500100","板橋區"
"220001","285-VK","2017/10/13 14:09:46","新北市板橋區懷仁街34巷20號","121.475873333333","25.0191166666667","6500100","板橋區"
"220031","286-VK","2017/10/13 14:09:45","新北市板橋區大觀路二段174巷176弄13號","121.442786666667","25.0032266666667","6500100","板橋區"
"220029","287-VK","2017/10/13 13:52:42","新北市板橋區光華街13巷26號","121.453388333333","25.011485","6500100","板橋區"
"220039","288-VK","2017/10/13 14:09:52","新北市板橋區裕民街48號","121.461671666667","25.0287766666667","6500100","板橋區"
"220009","293-UM","2017/10/13 14:09:47","新北市板橋區三民路二段29巷9弄42號","121.480643333333","25.01822","6500100","板橋區"
"220045","295-UM","2017/10/13 14:09:45","新北市板橋區大同街8巷11號","121.477293333333","25.0264916666667","6500100","板橋區"
"220032","296-UM","2017/10/13 14:09:53","新北市板橋區溪崑一街21巷7號","121.43113","24.9918066666667","6500100","板橋區"
"220023","297-UM","2017/10/13 14:09:39","新北市板橋區中正路107號","121.456303333333","25.0148216666667","6500100","板橋區"
"220105","299-UM","2017/10/13 14:09:39","新北市板橋區雙十路三段14號","121.47167","25.0303483333333","6500100","板橋區"
"220010","305-R5","2017/10/13 14:09:46","新北市板橋區三民路二段居仁巷1-2號","121.479361666667","25.0132833333333","6500100","板橋區"
"220041","307-R5","2017/10/13 14:09:50","新北市板橋區文化路二段121號","121.469826666667","25.0265166666667","6500100","板橋區"
"220047","317-R6","2017/10/13 14:09:49","新北市板橋區自由路51巷1-2號","121.46533","25.0235283333333","6500100","板橋區"
"220028","461-BY","2017/10/13 14:09:53","新北市板橋區大觀路二段7巷29號","121.447965","25.0034066666667","6500100","板橋區"
"220012","486-VK","2017/10/13 14:09:37","新北市板橋區板新路1號","121.47573","25.012315","6500100","板橋區"
"220038","487-VK","2017/10/13 14:09:53","新北市板橋區文化路二段498號","121.475526666667","25.0333366666667","6500100","板橋區"
"220037","491-VK","2017/10/13 14:09:51","新北市板橋區文化路二段182巷3弄27號","121.471976666667","25.0281133333333","6500100","板橋區"
"220104","560-BX","2017/10/13 14:09:55","新北市板橋區中正路360巷51號","121.456175","25.02293","6500100","板橋區"
"220052","561-BX","2017/10/13 14:09:38","新北市板橋區文化路一段188巷9弄39號","121.469261666667","25.0190633333333","6500100","板橋區"
"220002","568-UM","2017/10/13 14:09:39","新北市板橋區實踐路76-2號","121.463888333333","25.00538","6500100","板橋區"
"220011","609-BX","2017/10/13 14:09:33","新北市板橋區中山路二段311號","121.478971666667","25.0185233333333","6500100","板橋區"
"220005","686-BX","2017/10/13 14:09:54","新北市板橋區重慶路276-1號","121.463156666667","25.0002766666667","6500100","板橋區"
"220025","687-BX","2017/10/13 14:09:44","新北市板橋區龍興街17號","121.44275","24.9997566666667","6500100","板橋區"
"220042","689-BX","2017/10/13 14:09:52","新北市板橋區民生路三段237號","121.464843333333","25.028805","6500100","板橋區"
"220003","827-TW","2017/10/13 14:09:36","新北市板橋區中山路一段156號","121.4648","25.0116383333333","6500100","板橋區"
"220014","829-TW","2017/10/13 14:09:50","新北市板橋區長安街224巷2號","121.475016666667","25.0122333333333","6500100","板橋區"
"220051","830-TW","2017/10/13 14:09:51","新北市板橋區民治街71巷60弄4號","121.484201666667","25.0332433333333","6500100","板橋區"
"220022","895-R6","2017/10/13 14:09:52","新北市板橋區林園街32號","121.453763333333","25.0101","6500100","板橋區"
"220021","985-R7","2017/10/13 14:09:49","新北市板橋區民權路308號","121.45706","25.016165","6500100","板橋區"
"220046","AAC-210","2017/10/13 14:09:38","新北市板橋區新海路135巷4號","121.459846666667","25.0229466666667","6500100","板橋區"
"220018","AAC-253","2017/10/13 14:09:38","新北市板橋區四川路一段467號","121.457216666667","24.9976566666667","6500100","板橋區"
