"lineid","car","time","location","longitude","latitude","cityid","cityname"
"234028","746-BX","2017/10/13 15:09:13","新北市新店區安康路二段269號","121.504283333333","24.957695","6500400","永和區"
"248019","225-UY","2017/10/13 15:09:11","新北市五股區凌雲路二段42號","121.439621666667","25.1027933333333","6501500","五股區"
"244004","657-BX","2017/10/13 15:09:19","新北市林口區竹林路266號","121.38967","25.0807583333333","6501700","林口區"
"231002","002-UM","2017/10/13 15:09:13","新北市新店區中正路566號","121.53378","24.9875016666667","6500600","新店區"
"231028","046-UY","2017/10/13 15:09:29","新北市新店區僑信路130號","121.500735","24.94583","6500600","新店區"
"231030","047-UY","2017/10/13 15:09:21","新北市新店區安民街341-1號","121.516868333333","24.9749016666667","6500600","新店區"
"231029","106-UY","2017/10/13 15:09:16","新北市新店區安康路三段738號","121.473865","24.9420983333333","6500600","新店區"
"231012","108-UY","2017/10/13 15:09:21","新北市新店區寶元路一段61號","121.542151666667","24.9859","6500600","新店區"
"231018","110-UY","2017/10/13 15:09:20","新北市新店區中央六街95號","121.526186666667","24.9769366666667","6500600","新店區"
"231022","187-VK","2017/10/13 15:09:21","新北市新店區永福路30-1號","121.548878333333","24.929155","6500600","新店區"
"231016","KEA-2219","2017/10/13 15:09:10","新北市新店區明山路45號","121.563798333333","24.9558983333333","6500600","新店區"
"231026","256-BX","2017/10/13 15:09:21","新北市新店區建興街9巷2號","121.539803333333","24.97641","6500600","新店區"
"231023","AAD-862","2017/10/13 15:09:23","新北市新店區檳榔路45號","121.54313","24.9628716666667","6500600","新店區"
"231024","3713-VJ","2017/10/13 15:09:14","新北市新店區北新路一段297巷24號","121.540728333333","24.9680383333333","6500600","新店區"
"231025","4716-K9","2017/10/13 15:09:14","新北市新店區民權路115號","121.536373333333","24.982725","6500600","新店區"
"231036","513-UM","2017/10/13 15:09:22","新北市新店區安祥路104巷10號","121.48128","24.9631483333333","6500600","新店區"
"231035","515-UM","2017/10/13 15:09:23","新北市新店區永安街34巷13號","121.518296666667","24.9862616666667","6500600","新店區"
"231006","617-UM","2017/10/13 15:09:30","新北市新店區新坡一街52-2號","121.550943333333","24.9621633333333","6500600","新店區"
"231001","619-UM","2017/10/13 15:09:15","新北市新店區中正路234號","121.539821666667","24.9729483333333","6500600","新店區"
"231003","641-BX","2017/10/13 15:09:21","新北市新店區寶橋路178號","121.549318333333","24.9774433333333","6500600","新店區"
"231034","645-TV","2017/10/13 15:09:28","新北市新店區玫瑰路4-1號","121.493495","24.95147","6500600","新店區"
"231039","718-UY","2017/10/13 15:09:18","新北市新店區中興路三段223號","121.543198333333","24.982995","6500600","新店區"
"231032","720-UM","2017/10/13 15:08:39","新北市新店區安泰路177號","121.490888333333","24.9321133333333","6500600","新店區"
"231005","897-TW","2017/10/13 15:09:24","新北市新店區寶慶街78號","121.541508333333","24.9867116666667","6500600","新店區"
"231004","899-TW","2017/10/13 15:09:20","新北市新店區建國路29號","121.54022","24.9740666666667","6500600","新店區"
"231037","AKT-0513","2017/10/13 15:09:15","新北市新店區安民街365巷7弄2號","121.515841666667","24.97536","6500600","新店區"
"235030","003-UY","2017/10/13 15:09:12","新北市中和區保平路330號","121.506908333333","25.004335","6500300","中和區"
"235020","096-UM","2017/10/13 15:09:16","新北市中和區中山路三段146-1號","121.473445","25.0069566666667","6500300","中和區"
"235003","097-UM","2017/10/13 15:09:11","新北市中和區安樂路217巷40弄1號","121.51335","24.9979383333333","6500300","中和區"
"235004","150-BY","2017/10/13 15:09:22","新北市中和區保健路27-2號","121.508458333333","24.9978916666667","6500300","中和區"
"235022","151-BY","2017/10/13 15:09:19","新北市中和區建八路1號","121.485391666667","24.9985516666667","6500300","中和區"
"235036","301-VK","2017/10/13 15:09:11","新北市中和區建一路170號","121.488023333333","24.9975266666667","6500300","中和區"
"235007","352-BY","2017/10/13 15:09:21","新北市中和區興南路二段159巷4號","121.505093333333","24.9833466666667","6500300","中和區"
"235032","377-QA","2017/10/13 15:09:14","新北市中和區中山路二段332巷7號","121.494241666667","25.00263","6500300","中和區"
"235035","269-TV","2017/10/13 15:09:28","新北市中和區中正路755-1號","121.485033333333","25.0001433333333","6500300","中和區"
"235014","4979-A6","2017/10/13 15:09:15","新北市中和區景新街274巷8號","121.510566666667","24.9922866666667","6500300","中和區"
"235033","4980-A6","2017/10/13 15:09:28","新北市中和區中正路446號","121.490996666667","24.99438","6500300","中和區"
"235034","558-UM","2017/10/13 15:09:19","新北市中和區圓通路108號","121.499438333333","24.9966383333333","6500300","中和區"
"235018","640-BX","2017/10/13 15:09:24","新北市中和區中山路三段188號","121.472228333333","25.0065716666667","6500300","中和區"
"235026","800-TS","2017/10/13 15:09:12","新北市中和區員山路36巷16-3號","121.485031666667","24.9915183333333","6500300","中和區"
"235021","801-TS","2017/10/13 15:06:15","新北市中和區員山路36巷16-3號","121.485091666667","24.99151","6500300","中和區"
"235012","896-TW","2017/10/13 15:09:25","新北市中和區華新街2-6號","121.507446666667","24.9851966666667","6500300","中和區"
"235001","AAC-213","2017/10/13 15:09:13","新北市中和區自強路50號","121.520126666667","24.99487","6500300","中和區"
"235023","AAC-215","2017/10/13 15:09:27","新北市中和區圓通路367巷13弄31號","121.493416666667","24.98805","6500300","中和區"
"220013","072-UY","2017/10/13 15:09:19","新北市板橋區中山路一段3號","121.459746666667","25.0078866666667","6500100","板橋區"
"220017","AAD-861","2017/10/13 15:09:19","新北市板橋區貴興路60號","121.456643333333","25.003155","6500100","板橋區"
"220016","120-SR","2017/10/13 15:09:24","新北市板橋區光復街234-1號","121.484626666667","25.0214283333333","6500100","板橋區"
"247009","339-TH","2017/10/13 15:09:12","新北市五股區中興路三段163號","121.449056666667","25.0807883333333","6501400","蘆洲區"
"227011","400-TW","2017/10/13 15:06:05","新北市雙溪區三貂里政光路3-1號","121.850865","25.0630966666667","6502500","雙溪區"
"208004","AAC-292","2017/10/13 15:09:24","新北市金山區三界壇路15號","121.617253333333","25.2375133333333","6502700","金山區"
"207002","749-BX","2017/10/13 15:09:26","新北市萬里區崁腳里內中福路88號","121.655193333333","25.1663183333333","6502800","萬里區"
"207001","662-BX","2017/10/13 15:09:30","新北市萬里區大鵬里萬里加投27-5號","121.648206666667","25.205285","6502800","萬里區"
"236067","105-UM","2017/10/13 15:09:12","新北市土城區學成路146號","121.448848333333","24.98959","6501300","土城區"
"236041","107-UM","2017/10/13 15:09:22","新北市土城區清水路85巷7號","121.45612","24.982375","6501300","土城區"
"236077","166-UM","2017/10/13 15:09:10","新北市土城區中州路27巷1號","121.413746666667","24.9577433333333","6501300","土城區"
"236029","253-BX","2017/10/13 15:09:17","新北市土城區中央路二段50巷4號","121.442285","24.979685","6501300","土城區"
"236025","269-VK","2017/10/13 15:09:25","新北市土城區中正路67巷23號","121.444358333333","24.9764066666667","6501300","土城區"
"236013","270-VK","2017/10/13 15:09:15","新北市土城區學府路一段100號","121.456075","24.9879633333333","6501300","土城區"
"236035","271-VK","2017/10/13 15:09:17","新北市土城區國際路68號","121.466681666667","24.97726","6501300","土城區"
"236019","401-BY","2017/10/13 15:09:19","新北市土城區延峰街5號","121.468606666667","24.9865716666667","6501300","土城區"
"236057","912-UM","2017/10/13 15:09:13","新北市土城區金城路二段8-1號","121.448815","24.977135","6501300","土城區"
"236046","913-UM","2017/10/13 15:09:11","新北市土城區清水路153號","121.458625","24.98156","6501300","土城區"
"236061","915-UM","2017/10/13 15:09:28","新北市土城區延和路109號","121.467788333333","24.9902883333333","6501300","土城區"
"236054","AAC-216","2017/10/13 15:09:18","新北市土城區學府路一段276號","121.449985","24.983095","6501300","土城區"
"221012","276-VK","2017/10/13 13:25:25","新北市汐止區汐萬路一段256巷3號","121.653438333333","25.074685","6501100","汐止區"
"220028","200-UY","2017/10/13 15:09:22","新北市板橋區中正路135巷22號","121.455246666667","25.0153616666667","6500100","板橋區"
"220050","245-BX","2017/10/13 15:09:21","新北市板橋區莒光路165巷36號","121.474305","25.0249483333333","6500100","板橋區"
"220001","285-VK","2017/10/13 15:09:25","新北市板橋區中山路二段275號","121.477808333333","25.0178316666667","6500100","板橋區"
"220031","286-VK","2017/10/13 15:09:25","新北市板橋區大觀路一段38巷156弄166號","121.444026666667","25.009265","6500100","板橋區"
"220029","287-VK","2017/10/13 14:25:59","新北市板橋區大觀路一段75巷45號","121.449373333333","25.0041533333333","6500100","板橋區"
"220009","293-UM","2017/10/13 15:09:27","新北市板橋區四川路一段172號","121.459893333333","25.0029233333333","6500100","板橋區"
"220041","307-R5","2017/10/13 15:09:30","新北市板橋區文化路一段109號","121.461765","25.0145366666667","6500100","板橋區"
"220012","486-VK","2017/10/13 15:09:17","新北市板橋區漢生東路217號","121.470703333333","25.0101166666667","6500100","板橋區"
"220038","487-VK","2017/10/13 15:09:14","新北市板橋區互助街82號","121.460486666667","25.02645","6500100","板橋區"
"220037","491-VK","2017/10/13 15:09:11","新北市板橋區民治街88號","121.479323333333","25.0318733333333","6500100","板橋區"
"220052","561-BX","2017/10/13 15:09:18","新北市板橋區英士路58巷16號","121.460756666667","25.025505","6500100","板橋區"
"220002","568-UM","2017/10/13 15:09:20","新北市板橋區忠孝路忠義巷3弄1號","121.46526","25.00361","6500100","板橋區"
"220011","609-BX","2017/10/13 15:09:13","新北市板橋區三民路一段136號","121.479176666667","25.0206283333333","6500100","板橋區"
"220025","687-BX","2017/10/13 15:09:24","新北市板橋區板城路399號","121.450933333333","24.9996466666667","6500100","板橋區"
"220042","689-BX","2017/10/13 15:09:11","新北市板橋區長江路二段266號","121.469488333333","25.03276","6500100","板橋區"
"220003","827-TW","2017/10/13 15:09:16","新北市板橋區國慶路149巷37弄4號","121.46073","24.998015","6500100","板橋區"
"220014","829-TW","2017/10/13 15:09:10","新北市板橋區萬板路820號","121.483651666667","25.0275133333333","6500100","板橋區"
"220051","830-TW","2017/10/13 15:09:11","新北市板橋區文聖街207-2號","121.479508333333","25.0268083333333","6500100","板橋區"
"220046","AAC-210","2017/10/13 15:09:18","新北市板橋區光正街42號","121.461758333333","25.0175183333333","6500100","板橋區"
"220018","AAC-253","2017/10/13 15:09:18","新北市板橋區四川路一段473號","121.457121666667","24.9974866666667","6500100","板橋區"
