"lineid","car","time","location","longitude","latitude","cityid","cityname"
"234028","746-BX","2017/10/13 15:19:13","新北市新店區安康路二段269號","121.504261666667","24.95772","6500400","永和區"
"231002","002-UM","2017/10/13 15:19:13","新北市新店區中正路700巷3號","121.533866666667","24.9913433333333","6500600","新店區"
"231028","046-UY","2017/10/13 15:19:09","新北市新店區僑信路84巷43號","121.498475","24.9475183333333","6500600","新店區"
"231030","047-UY","2017/10/13 15:19:20","新北市新店區安和路三段46號","121.517953333333","24.9820566666667","6500600","新店區"
"231029","106-UY","2017/10/13 15:19:16","新北市新店區安康路三段716號","121.473945","24.9420333333333","6500600","新店區"
"231012","108-UY","2017/10/13 15:19:22","新北市新店區中興路三段327號","121.54198","24.986415","6500600","新店區"
"231018","110-UY","2017/10/13 15:19:20","新北市新店區中央七街5號","121.530533333333","24.9748333333333","6500600","新店區"
"231022","187-VK","2017/10/13 15:19:21","新北市新店區永福路54-2號","121.558101666667","24.928755","6500600","新店區"
"231026","256-BX","2017/10/13 15:19:21","新北市新店區中正路265巷21號","121.5377","24.9731783333333","6500600","新店區"
"231023","AAD-862","2017/10/13 15:19:23","新北市新店區行政街26號","121.542896666667","24.9655683333333","6500600","新店區"
"231024","3713-VJ","2017/10/13 15:19:13","新北市新店區北新路一段311號","121.541326666667","24.9679566666667","6500600","新店區"
"231025","4716-K9","2017/10/13 15:19:14","新北市新店區中央路22-1號","121.533183333333","24.9783083333333","6500600","新店區"
"231036","513-UM","2017/10/13 15:19:27","新北市新店區安祥路69巷15號","121.481903333333","24.9614266666667","6500600","新店區"
"231035","515-UM","2017/10/13 15:19:23","新北市新店區永平街12號","121.517086666667","24.983475","6500600","新店區"
"231001","619-UM","2017/10/13 15:19:19","新北市新店區北新路一段275號","121.541121666667","24.9668116666667","6500600","新店區"
"231003","641-BX","2017/10/13 15:19:17","新北市新店區寶高路23號","121.553123333333","24.9774383333333","6500600","新店區"
"231034","645-TV","2017/10/13 15:19:28","新北市新店區玫瑰路38號","121.49586","24.949945","6500600","新店區"
"231039","718-UY","2017/10/13 15:19:18","新北市新店區寶元路一段65號","121.542241666667","24.9858683333333","6500600","新店區"
"231032","720-UM","2017/10/13 15:19:18","新北市新店區和成街16巷2號","121.487666666667","24.94692","6500600","新店區"
"231005","897-TW","2017/10/13 15:19:26","新北市新店區民族路39號","121.540661666667","24.9786866666667","6500600","新店區"
"231004","899-TW","2017/10/13 15:19:20","新北市新店區博愛街13巷24號","121.540258333333","24.97408","6500600","新店區"
"231037","AKT-0513","2017/10/13 15:19:14","新北市新店區安興路85-9號","121.514841666667","24.974925","6500600","新店區"
"235003","097-UM","2017/10/13 15:19:11","新北市中和區安平路38號","121.509956666667","24.9949733333333","6500300","中和區"
"235022","151-BY","2017/10/13 15:19:19","新北市中和區員山路36巷16-3號","121.485146666667","24.9914316666667","6500300","中和區"
"235032","377-QA","2017/10/13 15:19:16","新北市中和區錦和路140號","121.489255","24.9975833333333","6500300","中和區"
"235035","269-TV","2017/10/13 15:19:15","新北市中和區永和路363巷17號","121.48206","25.0113366666667","6500300","中和區"
"235014","4979-A6","2017/10/13 15:19:28","新北市中和區景安路82巷5號","121.505148333333","24.9962083333333","6500300","中和區"
"235033","4980-A6","2017/10/13 15:19:08","新北市中和區新生街132號","121.483603333333","25.0010766666667","6500300","中和區"
"235034","558-UM","2017/10/13 15:17:40","新北市中和區中正路256號","121.495456666667","24.9940116666667","6500300","中和區"
"235026","800-TS","2017/10/13 15:19:12","新北市中和區員山路36巷16-3號","121.484831666667","24.99153","6500300","中和區"
"235021","801-TS","2017/10/13 15:06:15","新北市中和區員山路36巷16-3號","121.485091666667","24.99151","6500300","中和區"
"235012","896-TW","2017/10/13 15:19:26","新北市中和區興南路一段50號","121.51095","24.99055","6500300","中和區"
"235001","AAC-213","2017/10/13 15:19:13","新北市中和區中正路809號","121.484913333333","25.00188","6500300","中和區"
"235023","AAC-215","2017/10/13 15:19:26","新北市中和區圓通路320-1號","121.485303333333","24.9877983333333","6500300","中和區"
"220017","AAD-861","2017/10/13 15:19:19","新北市板橋區大明街25巷4弄14號","121.457556666667","25.0021916666667","6500100","板橋區"
"247009","339-TH","2017/10/13 15:18:20","新北市五股區中興路三段163號","121.449068333333","25.080815","6501400","蘆洲區"
"227003","642-TC","2017/10/13 15:19:22","新北市雙溪區三貂里政光路3-1號","121.850813333333","25.06319","6502500","雙溪區"
"227011","400-TW","2017/10/13 15:06:05","新北市雙溪區三貂里政光路3-1號","121.850865","25.0630966666667","6502500","雙溪區"
"208004","AAC-292","2017/10/13 15:19:24","新北市金山區六股里下六股29-1號","121.6216","25.2215683333333","6502700","金山區"
"207002","749-BX","2017/10/13 15:19:26","新北市萬里區崁腳里內中福路7號","121.66631","25.1640783333333","6502800","萬里區"
"207001","662-BX","2017/10/13 15:19:10","新北市萬里區大鵬里萬里加投9號","121.652115","25.2080433333333","6502800","萬里區"
"236067","105-UM","2017/10/13 15:19:12","新北市土城區裕民路185巷36弄10號","121.454331666667","24.984575","6501300","土城區"
"236041","107-UM","2017/10/13 15:19:22","新北市土城區學府路一段143巷5號","121.453853333333","24.9859633333333","6501300","土城區"
"236077","166-UM","2017/10/13 15:19:30","新北市土城區中央路四段464號","121.409721666667","24.95043","6501300","土城區"
"236029","253-BX","2017/10/13 15:19:17","新北市土城區中央路一段278號","121.443655","24.982855","6501300","土城區"
"236025","269-VK","2017/10/13 15:19:22","新北市土城區員林街59號","121.443895","24.9775283333333","6501300","土城區"
"236013","270-VK","2017/10/13 15:18:55","新北市土城區廣福街69號","121.456793333333","24.9895783333333","6501300","土城區"
"236035","271-VK","2017/10/13 15:19:23","新北市土城區國際路72號","121.46686","24.9762383333333","6501300","土城區"
"236019","401-BY","2017/10/13 15:19:15","新北市土城區金城路三段200-5號","121.468733333333","24.9877483333333","6501300","土城區"
"236057","912-UM","2017/10/13 15:19:13","新北市土城區中央路三段38號","121.438383333333","24.9687716666667","6501300","土城區"
"236046","913-UM","2017/10/13 15:19:11","新北市土城區明德路一段53號","121.465253333333","24.9846883333333","6501300","土城區"
"236061","915-UM","2017/10/13 15:19:09","新北市土城區延和路105巷3弄2號","121.467313333333","24.9908683333333","6501300","土城區"
"236054","AAC-216","2017/10/13 15:19:18","新北市土城區學府路一段144巷1號","121.454741666667","24.9871233333333","6501300","土城區"
"221012","276-VK","2017/10/13 13:25:25","新北市汐止區汐萬路一段256巷3號","121.653438333333","25.074685","6501100","汐止區"
"220028","200-UY","2017/10/13 15:19:22","新北市板橋區南雅西路一段116號","121.452535","25.0064733333333","6500100","板橋區"
"220050","245-BX","2017/10/13 15:19:21","新北市板橋區莊敬路168號","121.471775","25.022525","6500100","板橋區"
"220031","286-VK","2017/10/13 15:19:25","新北市板橋區僑中二街104巷1號","121.445983333333","25.0078566666667","6500100","板橋區"
"220029","287-VK","2017/10/13 15:16:58","新北市板橋區龍興街99巷2號","121.444261666667","25.0029333333333","6500100","板橋區"
"220041","307-R5","2017/10/13 15:19:10","新北市板橋區民生路二段89-6號","121.470735","25.0191883333333","6500100","板橋區"
"220038","487-VK","2017/10/13 15:19:14","新北市板橋區四維路133號","121.465045","25.025215","6500100","板橋區"
"220052","561-BX","2017/10/13 15:19:18","新北市板橋區漢生西路40號","121.463253333333","25.0183566666667","6500100","板橋區"
"220042","689-BX","2017/10/13 15:19:22","新北市板橋區長江路一段1號","121.45766","25.028615","6500100","板橋區"
"220051","830-TW","2017/10/13 15:19:26","新北市板橋區文化路一段196號","121.466183333333","25.0199966666667","6500100","板橋區"
"220018","AAC-253","2017/10/13 15:19:18","新北市板橋區四川路二段245巷51號","121.452065","24.99242","6500100","板橋區"
