"lineid","car","time","location","longitude","latitude","cityid","cityname"
"249005","172-UM","2017/10/13 16:59:52","新北市八里區渡船頭3-19號","121.43395","25.1517583333333","6502300","八里區"
"249001","173-UM","2017/10/13 16:59:43","新北市八里區中山路三段106號","121.393153333333","25.1437216666667","6502300","八里區"
"249004","303-UY","2017/10/13 16:59:40","新北市八里區挖子尾街58號","121.415455","25.1662433333333","6502300","八里區"
"249002","305-UY","2017/10/13 16:58:58","新北市八里區牛寮埔2號","121.433851666667","25.1421533333333","6502300","八里區"
"249003","593-UM","2017/10/13 16:59:39","新北市八里區中山路二段275號","121.401881666667","25.1488133333333","6502300","八里區"
"244013","069-UM","2017/10/13 16:59:41","新北市林口區粉寮69號","121.40507","25.0908666666667","6501700","林口區"
"244019","403-UM","2017/10/13 16:59:42","新北市林口區工四路42號","121.400526666667","25.08398","6501700","林口區"
"244023","483-VK","2017/10/13 16:59:52","新北市林口區粉寮69號","121.405111666667","25.0908283333333","6501700","林口區"
"244017","485-VK","2017/10/13 16:59:50","新北市林口區粉寮69號","121.40501","25.0909116666667","6501700","林口區"
"231046","278-BY","2017/10/13 16:59:50","新北市新店區新潭路一段39巷8號","121.524618333333","24.94184","6500600","新店區"
"241028","022-UY","2017/10/13 16:59:46","新北市三重區中正南路32-1號","121.493843333333","25.0602566666667","6500200","三重區"
"241008","059-VK","2017/10/13 16:59:52","新北市三重區永福街179巷3號","121.478678333333","25.074945","6500200","三重區"
"241031","061-VK","2017/10/13 16:59:41","新北市三重區三寧街10號","121.488993333333","25.0596166666667","6500200","三重區"
"241015","062-VK","2017/10/13 16:59:40","新北市三重區三和路二段1-4號","121.501656666667","25.0665483333333","6500200","三重區"
"241017","063-VK","2017/10/13 16:59:47","新北市三重區大仁街3巷27號","121.492458333333","25.0638083333333","6500200","三重區"
"241024","065-VK","2017/10/13 16:59:51","新北市三重區國道路一段58巷20號","121.48117","25.07204","6500200","三重區"
"241026","066-VK","2017/10/13 16:59:48","新北市三重區文化南路42號","121.50035","25.060245","6500200","三重區"
"241002","090-VK","2017/10/13 16:59:51","新北市三重區仁義街101巷14號","121.498473333333","25.080135","6500200","三重區"
"241003","091-VK","2017/10/13 16:59:46","新北市三重區五華街141巷58號","121.493585","25.08684","6500200","三重區"
"241009","156-TC","2017/10/13 16:59:51","新北市三重區仁美街108巷22號","121.484851666667","25.0805266666667","6500200","三重區"
"241005","262-UM","2017/10/13 16:59:50","新北市三重區仁華街66號","121.484203333333","25.08279","6500200","三重區"
"241016","266-UM","2017/10/13 16:59:37","新北市三重區大同北路71號","121.495185","25.0637533333333","6500200","三重區"
"241022","267-UM","2017/10/13 16:59:55","新北市三重區貴陽街25號","121.484325","25.0619733333333","6500200","三重區"
"241018","268-UM","2017/10/13 16:59:44","新北市三重區六張街90巷8號","121.492988333333","25.0696316666667","6500200","三重區"
"241032","269-UM","2017/10/13 16:59:36","新北市三重區三民街7號","121.48573","25.0606783333333","6500200","三重區"
"241013","270-UM","2017/10/13 16:59:51","新北市三重區仁興街28巷42號","121.498413333333","25.0750016666667","6500200","三重區"
"241025","271-UM","2017/10/13 16:59:43","新北市三重區中正北路510號","121.472645","25.071665","6500200","三重區"
"241007","398-BY","2017/10/13 16:59:53","新北市三重區溪尾街126巷15號","121.48888","25.0793783333333","6500200","三重區"
"241020","413-TH","2017/10/13 16:59:58","新北市三重區自強路三段55號","121.48693","25.07317","6500200","三重區"
"241011","475-VK","2017/10/13 16:59:47","新北市三重區仁愛街43巷18號","121.497471666667","25.0718566666667","6500200","三重區"
"241019","478-VK","2017/10/13 16:59:36","新北市三重區自強路二段74巷19號","121.488003333333","25.0699566666667","6500200","三重區"
"241030","480-VK","2017/10/13 16:59:27","新北市三重區昌隆街56號","121.491338333333","25.0514233333333","6500200","三重區"
"241014","543-UM","2017/10/13 16:59:53","新北市三重區介壽路189號","121.501341666667","25.07078","6500200","三重區"
"241023","545-UM","2017/10/13 16:59:38","新北市三重區忠孝路三段126號","121.479833333333","25.0619433333333","6500200","三重區"
"241001","547-UM","2017/10/13 16:59:41","新北市三重區仁愛街174號","121.493981666667","25.0765733333333","6500200","三重區"
"241006","AAD-863","2017/10/13 16:59:47","新北市三重區車路頭街117巷63號","121.485661666667","25.0757666666667","6500200","三重區"
"241004","887-TS","2017/10/13 16:59:54","新北市三重區五華街104巷2號","121.492318333333","25.0824366666667","6500200","三重區"
"241012","941-UM","2017/10/13 16:59:54","新北市三重區仁和街96號","121.49956","25.07465","6500200","三重區"
"241029","942-UM","2017/10/13 16:59:35","新北市三重區環河南路220-8號","121.49336","25.0526983333333","6500200","三重區"
"241033","AAC-255","2017/10/13 16:59:41","新北市三重區中興北街275號","121.469231666667","25.0607833333333","6500200","三重區"
"235021","801-TS","2017/10/13 15:06:15","新北市中和區員山路36巷16-3號","121.485091666667","24.99151","6500300","中和區"
"247012","546-UM","2017/10/13 16:59:23","新北市蘆洲區信義路300號","121.477513333333","25.0875766666667","6501400","蘆洲區"
"247020","500-BY","2017/10/13 16:59:48","新北市蘆洲區民族路422巷84號","121.47379","25.09397","6501400","蘆洲區"
"247010","339-TH","2017/10/13 16:59:39","新北市蘆洲區信義路176號","121.479225","25.08395","6501400","蘆洲區"
"247002","337-TH","2017/10/13 16:59:43","新北市蘆洲區永平街24號","121.459023333333","25.0907233333333","6501400","蘆洲區"
"247004","336-TH","2017/10/13 16:59:46","新北市蘆洲區永安南路二段254號","121.459791666667","25.0803483333333","6501400","蘆洲區"
"247016","057-VK","2017/10/13 16:59:45","新北市蘆洲區正和街10號","121.470283333333","25.0826833333333","6501400","蘆洲區"
"247006","056-VK","2017/10/13 16:59:41","新北市蘆洲區永安南路二段234號","121.460565","25.0796116666667","6501400","蘆洲區"
"247008","053-VK","2017/10/13 16:59:45","新北市蘆洲區民生街6號","121.4758","25.0791966666667","6501400","蘆洲區"
"247014","007-UY","2017/10/13 16:59:46","新北市蘆洲區中央路32巷18號","121.473976666667","25.08305","6501400","蘆洲區"
"247024","002-UY","2017/10/13 16:59:50","新北市蘆洲區長興路255號","121.460428333333","25.0874716666667","6501400","蘆洲區"
"247018","001-UY","2017/10/13 16:59:49","新北市蘆洲區民族路306號","121.47753","25.0899883333333","6501400","蘆洲區"
"228001","212-TW","2017/10/13 16:59:40","新北市貢寮區貢寮里朝陽街1-2號","121.912326666667","25.02129","6502600","貢寮區"
"228002","663-BX","2017/10/13 16:59:59","新北市貢寮區貢寮里朝陽街1-2號","121.912051666667","25.0213766666667","6502600","貢寮區"
"228003","828-UM","2017/10/13 16:59:57","新北市貢寮區福隆里興隆街22號","121.944751666667","25.0166666666667","6502600","貢寮區"
"224010","AGQ-8101","2017/10/13 08:44:31","新北市瑞芳區民權街3-1號","121.80945","25.108315","6501200","瑞芳區"
"224006","676-BX","2017/10/13 16:59:37","新北市瑞芳區大寮路356-1號","121.78458","25.103575","6501200","瑞芳區"
"224008","275-VK","2017/10/13 16:59:45","新北市瑞芳區明燈路一段21號","121.823021666667","25.1073633333333","6501200","瑞芳區"
"224007","273-VK","2017/10/13 16:59:53","新北市瑞芳區瑞竹路5-1號","121.765118333333","25.1032516666667","6501200","瑞芳區"
"224005","271-BY","2017/10/13 16:59:54","新北市瑞芳區南雅路41-1號","121.888048333333","25.12044","6501200","瑞芳區"
"227003","642-TC","2017/10/13 16:59:43","新北市雙溪區長源里柑腳37號","121.803753333333","25.0135133333333","6502500","雙溪區"
"227011","400-TW","2017/10/13 16:59:37","新北市雙溪區牡丹里聖南8號","121.8594","25.0521016666667","6502500","雙溪區"
"251004","009-UM","2017/10/13 16:59:42","新北市淡水區中正路261號","121.431478333333","25.1749316666667","6501000","淡水區"
"251013","179-VK","2017/10/13 16:59:41","新北市淡水區泉洲厝32號","121.489321666667","25.1926083333333","6501000","淡水區"
"251008","181-VK","2017/10/13 16:59:43","新北市淡水區樹梅坑9號","121.472755","25.1427","6501000","淡水區"
"251015","182-VK","2017/10/13 16:59:52","新北市淡水區忠愛街2-3號","121.45622","25.1717166666667","6501000","淡水區"
"251010","413-VK","2017/10/13 16:59:46","新北市淡水區新市二路三段16號","121.43218","25.1945133333333","6501000","淡水區"
"251012","441-VK","2017/10/13 16:59:55","新北市淡水區中正路二段31號","121.419305","25.1817533333333","6501000","淡水區"
"251005","443-VK","2017/10/13 16:59:58","新北市淡水區水源街一段2號","121.442421666667","25.17234","6501000","淡水區"
"251006","561-UM","2017/10/13 16:59:42","新北市淡水區中正路二段31號","121.419551666667","25.1815583333333","6501000","淡水區"
"251009","575-R6","2017/10/13 16:59:50","新北市淡水區中正路二段31號","121.41947","25.181755","6501000","淡水區"
"251007","577-R6","2017/10/13 16:59:55","新北市淡水區中正東路一段34號","121.452583333333","25.162395","6501000","淡水區"
"251011","650-BX","2017/10/13 16:59:47","新北市淡水區中山路29號","121.444063333333","25.1701833333333","6501000","淡水區"
"252002","178-VK","2017/10/13 16:59:54","新北市三芝區忠孝街173號","121.505428333333","25.2613683333333","6502100","三芝區"
"252001","292-VK","2017/10/13 16:59:53","新北市三芝區淡金路二段26-1號","121.502705","25.2596416666667","6502100","三芝區"
"242032","AAC-296","2017/10/13 04:43:01","新北市新莊區新泰路357巷3弄57號","121.44211","25.03942","6500500","新莊區"
"242050","751-BX","2017/10/13 16:59:53","新北市新莊區新泰路357巷3弄57號","121.442123333333","25.03932","6500500","新莊區"
"242023","613-BX","2017/10/13 14:13:03","新北市新莊區新泰路357巷3弄57號","121.442221666667","25.03935","6500500","新莊區"
"242027","612-BX","2017/10/13 16:59:54","新北市新莊區新泰路357巷3弄57號","121.442053333333","25.03944","6500500","新莊區"
"242039","566-BX","2017/10/13 16:59:56","新北市新莊區新泰路357巷3弄57號","121.442241666667","25.0392533333333","6500500","新莊區"
"242044","497-BY","2017/10/13 16:59:51","新北市新莊區新泰路357巷3弄57號","121.442133333333","25.0394266666667","6500500","新莊區"
"242048","441-UM","2017/10/13 16:59:41","新北市新莊區三和路12-21號","121.441825","25.0384766666667","6500500","新莊區"
"242041","400-BY","2017/10/13 16:59:46","新北市新莊區新泰路357巷3弄57號","121.442258333333","25.0396","6500500","新莊區"
"242060","362-BY","2017/10/13 16:59:47","新北市新莊區新泰路255巷83號","121.442248333333","25.0386783333333","6500500","新莊區"
"242046","172-VK","2017/10/13 14:37:57","新北市新莊區新泰路357巷3弄57號","121.442025","25.0391466666667","6500500","新莊區"
"242009","173-VK","2017/10/13 13:54:42","新北市新莊區新泰路255巷83號","121.44237","25.0386716666667","6500500","新莊區"
"242015","175-VK","2017/10/13 16:59:38","新北市新莊區三和路12-21號","121.441863333333","25.0387383333333","6500500","新莊區"
"242013","346-TH","2017/10/13 14:34:47","新北市新莊區三和路12-17號","121.442246666667","25.0375416666667","6500500","新莊區"
"242019","348-TH","2017/10/13 16:59:56","新北市新莊區新泰路357巷3弄57號","121.442206666667","25.0396633333333","6500500","新莊區"
"242011","351-TH","2017/10/13 16:59:37","新北市新莊區新泰路357巷3弄57號","121.442065","25.0395833333333","6500500","新莊區"
"238019","599-UM","2017/10/13 16:59:54","新北市樹林區育德街78-1號","121.387781666667","24.9681733333333","6500700","樹林區"
"238018","571-TV","2017/10/13 16:59:45","新北市樹林區育德街78-1號","121.38788","24.9682366666667","6500700","樹林區"
"238021","KEA-2217","2017/10/13 16:59:56","新北市樹林區育德街78-1號","121.387958333333","24.9681866666667","6500700","樹林區"
"238025","303-VK","2017/10/13 16:59:49","新北市樹林區中山路三段204號","121.387226666667","24.968145","6500700","樹林區"
"238017","283-BY","2017/10/13 16:59:39","新北市樹林區育德街78-1號","121.387776666667","24.96815","6500700","樹林區"
"238020","268-VK","2017/10/13 16:59:38","新北市樹林區中山路三段204號","121.387218333333","24.9683266666667","6500700","樹林區"
"239007","AAC-297","2017/10/13 16:59:46","新北市鶯歌區環河路81-2號","121.349316666667","24.9421033333333","6500800","鶯歌區"
"239006","891-R6","2017/10/13 16:59:52","新北市鶯歌區二甲路35號","121.340426666667","24.9372283333333","6500800","鶯歌區"
"239008","527-UM","2017/10/13 16:59:55","新北市鶯歌區尖山路101巷12號","121.347013333333","24.9426266666667","6500800","鶯歌區"
"239005","526-UM","2017/10/13 16:59:42","新北市鶯歌區文化路553號","121.35296","24.9475833333333","6500800","鶯歌區"
"239001","417-VK","2017/10/13 16:59:46","新北市鶯歌區環河路85號","121.347298333333","24.9396066666667","6500800","鶯歌區"
"239002","359-BY","2017/10/13 16:59:45","新北市鶯歌區文化路555號","121.352955","24.947515","6500800","鶯歌區"
"239004","193-VK","2017/10/13 16:59:45","新北市鶯歌區環河路159號","121.345883333333","24.9379866666667","6500800","鶯歌區"
"221012","276-VK","2017/10/13 13:25:25","新北市汐止區汐萬路一段256巷3號","121.653438333333","25.074685","6501100","汐止區"
"242034","280-VK","2017/10/13 16:59:53","新北市新莊區三和路12-21號","121.441828333333","25.038495","6500500","新莊區"
