"lineid","car","time","location","longitude","latitude","cityid","cityname"
"249005","172-UM","2017/10/13 17:19:42","新北市八里區荖阡坑路50-1號","121.41161","25.1219766666667","6502300","八里區"
"249001","173-UM","2017/10/13 17:19:43","新北市八里區中華路二段165巷2-1號","121.407628333333","25.1508366666667","6502300","八里區"
"249004","303-UY","2017/10/13 17:19:40","新北市八里區文化街78號","121.421658333333","25.1600883333333","6502300","八里區"
"249002","305-UY","2017/10/13 17:19:38","新北市八里區龍米路二段117巷40號","121.443781666667","25.142005","6502300","八里區"
"249003","593-UM","2017/10/13 17:19:39","新北市八里區商港路80號","121.395503333333","25.1463933333333","6502300","八里區"
"244013","069-UM","2017/10/13 17:19:41","新北市林口區粉寮69號","121.405076666667","25.0908716666667","6501700","林口區"
"244007","080-UY","2017/10/13 17:19:52","新北市林口區湖子15-5號","121.386286666667","25.0906016666667","6501700","林口區"
"244019","403-UM","2017/10/13 17:19:42","新北市林口區文化一路一段190巷7弄3號","121.380243333333","25.07495","6501700","林口區"
"244025","742-UY","2017/10/13 17:19:34","新北市林口區中山路262-1號","121.384555","25.0801","6501700","林口區"
"244023","483-VK","2017/10/13 17:19:52","新北市林口區仁愛路一段669號","121.387728333333","25.076545","6501700","林口區"
"244017","485-VK","2017/10/13 17:19:50","新北市林口區粉寮69號","121.40496","25.0909083333333","6501700","林口區"
"244021","838-TS","2017/10/13 17:19:50","新北市林口區粉寮路二段272-3號","121.404993333333","25.0950983333333","6501700","林口區"
"231046","278-BY","2017/10/13 17:19:50","新北市新店區直潭路92號","121.530965","24.9377316666667","6500600","新店區"
"241028","022-UY","2017/10/13 17:19:46","新北市三重區仁化街63號","121.493815","25.0589783333333","6500200","三重區"
"241008","059-VK","2017/10/13 17:19:33","新北市三重區永福街72巷37號","121.480411666667","25.0763266666667","6500200","三重區"
"241015","062-VK","2017/10/13 17:19:40","新北市三重區長元街82-1號","121.50186","25.0663366666667","6500200","三重區"
"241017","063-VK","2017/10/13 17:19:47","新北市三重區大同北路52號","121.495031666667","25.06308","6500200","三重區"
"241024","065-VK","2017/10/13 17:19:51","新北市三重區中正北路193巷21弄38號","121.478355","25.0710166666667","6500200","三重區"
"241026","066-VK","2017/10/13 17:19:48","新北市三重區福裕街51號","121.49875","25.0616433333333","6500200","三重區"
"241002","090-VK","2017/10/13 17:19:51","新北市三重區自強路五段28號","121.492776666667","25.0807433333333","6500200","三重區"
"241003","091-VK","2017/10/13 17:19:46","新北市三重區富福街52號","121.491681666667","25.0844183333333","6500200","三重區"
"241009","156-TC","2017/10/13 17:19:51","新北市三重區仁美街106號","121.485646666667","25.0807066666667","6500200","三重區"
"241005","262-UM","2017/10/13 17:19:50","新北市三重區永安北路二段25巷8號","121.482271666667","25.081925","6500200","三重區"
"241016","266-UM","2017/10/13 17:19:37","新北市三重區大同北路54巷3號","121.49408","25.0635583333333","6500200","三重區"
"241022","267-UM","2017/10/13 17:19:34","新北市三重區中正北路111-1號","121.485781666667","25.065345","6500200","三重區"
"241018","268-UM","2017/10/13 17:19:44","新北市三重區安慶街159巷2號","121.493983333333","25.068765","6500200","三重區"
"241032","269-UM","2017/10/13 17:19:36","新北市三重區三民街9號","121.485816666667","25.0607216666667","6500200","三重區"
"241013","270-UM","2017/10/13 17:19:50","新北市三重區三和路三段107巷19號","121.494985","25.073065","6500200","三重區"
"241025","271-UM","2017/10/13 17:19:43","新北市三重區中正北路413號","121.470903333333","25.07211","6500200","三重區"
"241007","398-BY","2017/10/13 17:19:33","新北市三重區慈愛街8號","121.484463333333","25.0784416666667","6500200","三重區"
"241020","413-TH","2017/10/13 17:19:38","新北市三重區忠孝路一段133號","121.488505","25.0719883333333","6500200","三重區"
"241011","475-VK","2017/10/13 17:19:47","新北市三重區仁愛街55巷91號","121.500058333333","25.0731066666667","6500200","三重區"
"241019","478-VK","2017/10/13 17:19:35","新北市三重區三張街171號","121.485653333333","25.069355","6500200","三重區"
"241030","480-VK","2017/10/13 17:19:47","新北市三重區集成路36號","121.488845","25.052595","6500200","三重區"
"241014","543-UM","2017/10/13 17:19:33","新北市三重區三和路二段81號","121.500023333333","25.0683616666667","6500200","三重區"
"241023","545-UM","2017/10/13 17:19:38","新北市三重區三民街170號","121.4821","25.0655783333333","6500200","三重區"
"241004","887-TS","2017/10/13 17:19:34","新北市三重區五華街110-2號","121.492193333333","25.08289","6500200","三重區"
"241012","941-UM","2017/10/13 17:19:34","新北市三重區仁昌街105號","121.50005","25.0751666666667","6500200","三重區"
"241033","AAC-255","2017/10/13 17:19:41","新北市三重區中興北街150巷11號","121.46828","25.056685","6500200","三重區"
"235021","801-TS","2017/10/13 15:06:15","新北市中和區員山路36巷16-3號","121.485091666667","24.99151","6500300","中和區"
"247022","893-R6","2017/10/13 17:19:41","新北市蘆洲區三民路128巷11號","121.470621666667","25.0884083333333","6501400","蘆洲區"
"247012","546-UM","2017/10/13 17:19:43","新北市蘆洲區信義路319巷10弄1號","121.477638333333","25.086345","6501400","蘆洲區"
"247020","500-BY","2017/10/13 17:19:46","新北市蘆洲區仁愛街23號","121.472368333333","25.0925083333333","6501400","蘆洲區"
"247010","339-TH","2017/10/13 17:19:39","新北市蘆洲區鷺江街28號","121.478085","25.0825133333333","6501400","蘆洲區"
"247002","337-TH","2017/10/13 17:19:43","新北市蘆洲區永樂街38巷33弄17號","121.457326666667","25.08952","6501400","蘆洲區"
"247004","336-TH","2017/10/13 17:19:46","新北市蘆洲區中原路22號","121.460501666667","25.082995","6501400","蘆洲區"
"247016","057-VK","2017/10/13 17:19:45","新北市蘆洲區正和街112號","121.467751666667","25.0805216666667","6501400","蘆洲區"
"247006","056-VK","2017/10/13 17:19:41","新北市蘆洲區長安街73巷21號","121.46222","25.0792783333333","6501400","蘆洲區"
"247008","053-VK","2017/10/13 17:18:45","新北市蘆洲區信義路34巷152號","121.475928333333","25.07619","6501400","蘆洲區"
"247014","007-UY","2017/10/13 17:19:46","新北市蘆洲區中正路83號","121.470035","25.08357","6501400","蘆洲區"
"247024","002-UY","2017/10/13 17:19:50","新北市蘆洲區光榮路2號","121.460326666667","25.0861266666667","6501400","蘆洲區"
"247018","001-UY","2017/10/13 17:19:49","新北市蘆洲區民權路96巷1弄2號","121.47435","25.088245","6501400","蘆洲區"
"228001","212-TW","2017/10/13 17:19:40","新北市貢寮區仁理村尖山腳街18-3號","121.92551","25.0483166666667","6502600","貢寮區"
"228002","663-BX","2017/10/13 17:19:39","新北市貢寮區雙玉里下雙溪街26號","121.924238333333","25.0105483333333","6502600","貢寮區"
"228003","828-UM","2017/10/13 17:19:37","新北市貢寮區福隆里興隆街38號","121.93976","25.0183633333333","6502600","貢寮區"
"224010","AGQ-8101","2017/10/13 08:44:31","新北市瑞芳區民權街3-1號","121.80945","25.108315","6501200","瑞芳區"
"224006","676-BX","2017/10/13 17:19:37","新北市瑞芳區大寮路63巷1-1號","121.781996666667","25.0971833333333","6501200","瑞芳區"
"224009","285-BY","2017/10/13 17:19:43","新北市瑞芳區汽車路123號","121.839521666667","25.11039","6501200","瑞芳區"
"224008","275-VK","2017/10/13 17:19:54","新北市瑞芳區侯硐路308號","121.831606666667","25.0901533333333","6501200","瑞芳區"
"224005","271-BY","2017/10/13 17:19:34","新北市瑞芳區南雅路1號","121.895598333333","25.1198716666667","6501200","瑞芳區"
"227003","642-TC","2017/10/13 17:19:43","新北市雙溪區上林里內平林90號","121.827563333333","25.0275166666667","6502500","雙溪區"
"227011","400-TW","2017/10/13 17:19:38","新北市雙溪區三貂里定福路1-2號","121.850701666667","25.0635316666667","6502500","雙溪區"
"251004","009-UM","2017/10/13 17:19:42","新北市淡水區中正東路二段88巷15號","121.458978333333","25.1503816666667","6501000","淡水區"
"251002","012-UM","2017/10/13 17:19:44","新北市淡水區中正路二段31號","121.419266666667","25.1816766666667","6501000","淡水區"
"251013","179-VK","2017/10/13 17:19:41","新北市淡水區大竹圍1-3號","121.471326666667","25.19673","6501000","淡水區"
"251008","181-VK","2017/10/13 17:19:43","新北市淡水區大同路293號","121.467718333333","25.142425","6501000","淡水區"
"251015","182-VK","2017/10/13 17:19:52","新北市淡水區樹林口168號","121.475173333333","25.1668233333333","6501000","淡水區"
"251010","413-VK","2017/10/13 17:19:46","新北市淡水區中正路二段211號","121.426155","25.1891366666667","6501000","淡水區"
"251012","441-VK","2017/10/13 17:19:35","新北市淡水區中山北路一段158號","121.444228333333","25.1778183333333","6501000","淡水區"
"251005","443-VK","2017/10/13 17:19:38","新北市淡水區鄧公路19-1號","121.450271666667","25.1699483333333","6501000","淡水區"
"251006","561-UM","2017/10/13 17:19:42","新北市淡水區新生街124號","121.441005","25.1745516666667","6501000","淡水區"
"251009","575-R6","2017/10/13 17:19:50","新北市淡水區三民街26號","121.439151666667","25.1718066666667","6501000","淡水區"
"251007","577-R6","2017/10/13 17:19:35","新北市淡水區民生路47-4號","121.462066666667","25.1379866666667","6501000","淡水區"
"251011","650-BX","2017/10/13 17:18:27","","121.465123333333","25.161075","6501000","淡水區"
"251003","673-BX","2017/10/13 17:19:52","新北市淡水區中山路151號","121.44059","25.172475","6501000","淡水區"
"252002","178-VK","2017/10/13 17:19:54","新北市三芝區忠孝街1-14號","121.50552","25.25398","6502100","三芝區"
"252001","292-VK","2017/10/13 17:19:33","新北市三芝區長安街119號","121.498021666667","25.2596633333333","6502100","三芝區"
"237004","078-UY","2017/10/13 17:19:33","新北市三峽區中山路459巷163-3號","121.348858333333","24.9331183333333","6500900","三峽區"
"242032","AAC-296","2017/10/13 04:43:01","新北市新莊區新泰路357巷3弄57號","121.44211","25.03942","6500500","新莊區"
"242029","986-R7","2017/10/13 17:19:39","新北市新莊區新泰路500號","121.442303333333","25.04622","6500500","新莊區"
"242050","751-BX","2017/10/13 17:19:53","新北市新莊區瓊林南路1號","121.438653333333","25.0207616666667","6500500","新莊區"
"242025","615-BX","2017/10/13 17:19:42","新北市新莊區中港一街142號","121.446951666667","25.0449683333333","6500500","新莊區"
"242023","613-BX","2017/10/13 17:19:47","新北市新莊區中平路82巷36-2號","121.446611666667","25.044865","6500500","新莊區"
"242027","612-BX","2017/10/13 17:19:54","新北市新莊區復興路一段113號","121.449373333333","25.0429766666667","6500500","新莊區"
"242039","566-BX","2017/10/13 17:19:39","新北市新莊區新樹路39號","121.440245","25.032205","6500500","新莊區"
"242044","497-BY","2017/10/13 17:19:51","新北市新莊區福營路250號","121.426015","25.0293183333333","6500500","新莊區"
"242002","442-UM","2017/10/13 17:19:45","新北市新莊區中正路473-1號","121.441941666667","25.0330833333333","6500500","新莊區"
"242048","441-UM","2017/10/13 17:19:41","新北市新莊區龍安路253號","121.419706666667","25.0200683333333","6500500","新莊區"
"242054","440-UM","2017/10/13 17:19:54","新北市新莊區環河路462號","121.440165","25.0197933333333","6500500","新莊區"
"242005","413-TV","2017/10/13 17:19:53","新北市新莊區中港一街161號","121.447363333333","25.04501","6500500","新莊區"
"242041","400-BY","2017/10/13 17:19:46","新北市新莊區新樹路113巷29號","121.439536666667","25.0264633333333","6500500","新莊區"
"242060","362-BY","2017/10/13 17:19:47","新北市新莊區三和路12-7號","121.44191","25.0363083333333","6500500","新莊區"
"242058","353-BY","2017/10/13 17:19:39","新北市新莊區三和路12-7號","121.44188","25.03639","6500500","新莊區"
"242007","132-UY","2017/10/13 17:19:51","新北市新莊區新泰路502巷16號","121.44285","25.0464466666667","6500500","新莊區"
"242037","133-UY","2017/10/13 17:19:49","新北市新莊區新樹路65-8號","121.439043333333","25.030325","6500500","新莊區"
"242021","135-UY","2017/10/13 17:19:45","新北市新莊區中港路303號","121.452891666667","25.044525","6500500","新莊區"
"242046","172-VK","2017/10/13 17:19:39","新北市新莊區新樹路16-1號","121.439281666667","25.0307433333333","6500500","新莊區"
"242009","173-VK","2017/10/13 13:54:42","新北市新莊區新泰路255巷83號","121.44237","25.0386716666667","6500500","新莊區"
"242015","175-VK","2017/10/13 17:19:38","新北市新莊區新泰路335號","121.444883333333","25.0418083333333","6500500","新莊區"
"242013","346-TH","2017/10/13 14:34:47","新北市新莊區三和路12-17號","121.442246666667","25.0375416666667","6500500","新莊區"
"242019","348-TH","2017/10/13 17:19:56","新北市新莊區中港路264號","121.453466666667","25.043675","6500500","新莊區"
"242056","349-TH","2017/10/13 17:19:43","新北市新莊區新泰路401巷28-1號","121.442345","25.04404","6500500","新莊區"
"242017","350-TH","2017/10/13 17:19:50","新北市新莊區中港一街140號","121.447868333333","25.0451366666667","6500500","新莊區"
"242011","351-TH","2017/10/13 17:19:37","新北市新莊區中平路82巷29號","121.445886666667","25.0449466666667","6500500","新莊區"
"238015","755-BX","2017/10/13 17:19:54","新北市樹林區中山路三段125-6號","121.398176666667","24.973965","6500700","樹林區"
"238023","601-UM","2017/10/13 17:19:37","新北市樹林區大安路316號","121.41731","24.9917283333333","6500700","樹林區"
"238019","599-UM","2017/10/13 17:19:54","新北市樹林區八德街251巷2號","121.42193","24.9787","6500700","樹林區"
"238018","571-TV","2017/10/13 17:19:47","新北市樹林區中華路1-6號","121.425678333333","24.9845066666667","6500700","樹林區"
"238024","5061-A6","2017/10/13 17:19:40","新北市樹林區博愛一街29巷64號","121.425933333333","24.991715","6500700","樹林區"
"238021","KEA-2217","2017/10/13 17:19:35","新北市樹林區西圳街165巷20弄26號","121.395508333333","24.9601","6500700","樹林區"
"238022","KEA-2213","2017/10/13 17:19:35","新北市樹林區忠孝街31號","121.423661666667","24.9821716666667","6500700","樹林區"
"238025","303-VK","2017/10/13 17:19:49","新北市樹林區中華路190-6號","121.410068333333","24.9805633333333","6500700","樹林區"
"238017","283-BY","2017/10/13 17:19:39","新北市樹林區八德街224號","121.415376666667","24.9718966666667","6500700","樹林區"
"238014","282-BY","2017/10/13 17:19:48","新北市樹林區中山路二段121號","121.408565","24.98006","6500700","樹林區"
"238020","268-VK","2017/10/13 17:19:38","新北市樹林區大安路267號","121.41902","24.9937633333333","6500700","樹林區"
"238026","172-UY","2017/10/13 17:19:47","新北市樹林區東順街100號","121.405735","24.97478","6500700","樹林區"
"238016","169-UY","2017/10/13 17:19:50","新北市樹林區中華路190-6號","121.410146666667","24.9805183333333","6500700","樹林區"
"239007","AAC-297","2017/10/13 17:19:46","新北市鶯歌區光復街15號","121.351548333333","24.9553716666667","6500800","鶯歌區"
"239006","891-R6","2017/10/13 17:19:52","新北市鶯歌區福昌街32號","121.332673333333","24.9610533333333","6500800","鶯歌區"
"239008","527-UM","2017/10/13 17:19:35","新北市鶯歌區西湖街曾厝巷4號","121.339221666667","24.9604016666667","6500800","鶯歌區"
"239005","526-UM","2017/10/13 17:19:42","新北市鶯歌區福德三街15號","121.329686666667","24.9674866666667","6500800","鶯歌區"
"239001","417-VK","2017/10/13 17:19:46","新北市鶯歌區黃厝街19號","121.34306","24.9456333333333","6500800","鶯歌區"
"239003","360-BY","2017/10/13 17:19:43","新北市鶯歌區德昌街88號","121.332518333333","24.9601616666667","6500800","鶯歌區"
"239002","359-BY","2017/10/13 17:19:44","新北市鶯歌區南雅路394號","121.34815","24.954025","6500800","鶯歌區"
"239004","193-VK","2017/10/13 17:19:45","新北市鶯歌區文化路224號","121.352786666667","24.9487783333333","6500800","鶯歌區"
"221012","276-VK","2017/10/13 13:25:25","新北市汐止區汐萬路一段256巷3號","121.653438333333","25.074685","6501100","汐止區"
"242034","280-VK","2017/10/13 17:19:33","新北市新莊區瓊林路62號","121.445391666667","25.0286966666667","6500500","新莊區"
