"lineid","car","time","location","longitude","latitude","cityid","cityname"
"234013","149-BY","2017/10/13 17:59:50","新北市永和區福和路1號","121.52643","25.0099966666667","6500400","永和區"
"234042","862-TW","2017/10/13 17:59:52","新北市永和區福和路1號","121.526105","25.0098183333333","6500400","永和區"
"234026","9371-KE","2017/10/13 17:59:45","新北市永和區永和路一段35號","121.512951666667","25.00599","6500400","永和區"
"234011","9373-KE","2017/10/13 17:54:21","新北市永和區福和路1號","121.525638333333","25.009515","6500400","永和區"
"249005","172-UM","2017/10/13 17:59:22","新北市八里區荖阡坑路20-3號","121.397976666667","25.13659","6502300","八里區"
"249001","173-UM","2017/10/13 17:59:43","新北市八里區龍米路二段39號","121.448375","25.1400716666667","6502300","八里區"
"249004","303-UY","2017/10/13 17:59:40","新北市八里區龍米路三段15號","121.42797","25.15926","6502300","八里區"
"249002","305-UY","2017/10/13 17:59:38","新北市八里區龍米路一段440巷8號","121.45122","25.1339333333333","6502300","八里區"
"249003","593-UM","2017/10/13 17:59:39","新北市八里區中山路二段76號","121.408483333333","25.1559566666667","6502300","八里區"
"248006","077-UY","2017/10/13 17:59:56","新北市五股區中興路二段83巷26-6號","121.459996666667","25.0751416666667","6501500","五股區"
"248008","095-VK","2017/10/13 17:59:44","新北市五股區更洲路10-1號","121.458321666667","25.078895","6501500","五股區"
"248018","225-UY","2017/10/13 17:59:50","新北市五股區中興路二段83巷26-6號","121.459976666667","25.0753266666667","6501500","五股區"
"248010","272-BY","2017/10/13 17:59:43","新北市五股區中興路三段5號","121.449955","25.08004","6501500","五股區"
"248004","677-BX","2017/10/13 17:59:56","新北市五股區中興路二段103巷16號","121.458841666667","25.0761366666667","6501500","五股區"
"248002","678-BX","2017/10/13 17:56:33","新北市五股區中興路二段37巷28號","121.460116666667","25.0749716666667","6501500","五股區"
"232011","375-UM","2017/10/13 17:59:39","新北市坪林區北宜路八段231號","121.709068333333","24.9351033333333","6502000","坪林區"
"244013","069-UM","2017/10/13 17:59:41","新北市林口區中山路57號","121.394123333333","25.0784766666667","6501700","林口區"
"244007","080-UY","2017/10/13 17:59:52","新北市林口區林口路222號","121.387005","25.0835783333333","6501700","林口區"
"244019","403-UM","2017/10/13 17:59:42","新北市林口區文化一路一段89-5號","121.371885","25.0704116666667","6501700","林口區"
"244025","742-UY","2017/10/13 17:59:54","新北市林口區三民路77-3號","121.358873333333","25.0684133333333","6501700","林口區"
"244009","410-SL","2017/10/13 17:59:39","新北市林口區竹林路582巷19號","121.385961666667","25.0833683333333","6501700","林口區"
"244023","483-VK","2017/10/13 17:59:52","新北市林口區東湖路75巷15號","121.38503","25.0730483333333","6501700","林口區"
"244017","485-VK","2017/10/13 17:59:50","新北市林口區文化二路一段230巷5號","121.370578333333","25.0719866666667","6501700","林口區"
"244011","656-BX","2017/10/13 17:59:48","新北市林口區中正路30巷16號","121.396028333333","25.0779333333333","6501700","林口區"
"244021","838-TS","2017/10/13 17:59:50","新北市林口區新寮27-5號","121.396548333333","25.0667533333333","6501700","林口區"
"222003","436-BY","2017/10/13 17:59:37","新北市深坑區炮子崙23號","121.607156666667","24.99093","6501800","深坑區"
"222001","628-TS","2017/10/13 17:59:37","新北市深坑區北深路三段26號","121.609265","25.0011683333333","6501800","深坑區"
"222002","659-BX","2017/10/13 17:59:41","新北市深坑區文化街98號","121.617031666667","25.0018683333333","6501800","深坑區"
"231046","278-BY","2017/10/13 17:59:50","新北市新店區康雅崙路12號","121.536266666667","24.9266566666667","6500600","新店區"
"241008","059-VK","2017/10/13 17:59:52","新北市三重區車路頭街79號","121.484415","25.0740616666667","6500200","三重區"
"241024","065-VK","2017/10/13 17:59:51","新北市三重區大勇街43號","121.482281666667","25.0717266666667","6500200","三重區"
"241005","262-UM","2017/10/13 17:59:50","新北市三重區碧華街392號","121.4915","25.0846666666667","6500200","三重區"
"241016","266-UM","2017/10/13 17:59:58","新北市三重區新北大道一段7號","121.489881666667","25.0617116666667","6500200","三重區"
"241032","743-BX","2017/10/13 17:59:48","新北市三重區興華街44號","121.48516","25.0597816666667","6500200","三重區"
"241033","AAC-255","2017/10/13 17:59:41","新北市三重區重新路五段567號","121.470288333333","25.046065","6500200","三重區"
"235063","006-UY","2017/10/13 17:59:49","新北市中和區員山路36巷16-3號","121.485013333333","24.9913183333333","6500300","中和區"
"235065","098-UM","2017/10/13 17:59:31","新北市中和區中正路637巷60弄61號","121.485416666667","24.9932983333333","6500300","中和區"
"235058","151-BY","2017/10/13 17:59:54","新北市中和區錦和路350-1號","121.490258333333","24.9935733333333","6500300","中和區"
"235038","185-VK","2017/10/13 17:59:44","新北市中和區中正路395號","121.489185","24.99402","6500300","中和區"
"235067","255-BX","2017/10/13 17:59:43","新北市中和區和城路一段271巷1號","121.485368333333","24.9917416666667","6500300","中和區"
"235061","378-QA","2017/10/13 14:55:51","新北市中和區員山路36巷13號","121.484201666667","24.9913166666667","6500300","中和區"
"235069","4980-A6","2017/10/13 17:59:56","新北市中和區中正路291號","121.493248333333","24.993935","6500300","中和區"
"235042","551-UM","2017/10/13 17:59:37","新北市中和區員山路36巷16-8號","121.485421666667","24.9923833333333","6500300","中和區"
"235062","800-TS","2017/10/13 17:59:41","新北市中和區中正路637巷52弄3號","121.485266666667","24.993725","6500300","中和區"
"235021","801-TS","2017/10/13 17:59:42","新北市中和區員山路36巷16-3號","121.485061666667","24.9914816666667","6500300","中和區"
"235037","AAC-213","2017/10/13 17:59:53","新北市中和區中正路589巷15號","121.485631666667","24.9935616666667","6500300","中和區"
"235059","AAC-215","2017/10/13 16:52:59","新北市中和區員山路36巷16-3號","121.485098333333","24.9914216666667","6500300","中和區"
"247022","893-R6","2017/10/13 17:59:41","新北市蘆洲區中正路516巷12號","121.462536666667","25.0981466666667","6501400","蘆洲區"
"247012","546-UM","2017/10/13 17:59:43","新北市蘆洲區復興路201號","121.479733333333","25.089745","6501400","蘆洲區"
"247010","339-TH","2017/10/13 17:59:39","新北市蘆洲區信義路269號","121.478945","25.084975","6501400","蘆洲區"
"247002","337-TH","2017/10/13 17:59:43","新北市蘆洲區永平街32巷57弄35號","121.458458333333","25.09343","6501400","蘆洲區"
"247016","057-VK","2017/10/13 17:59:45","新北市蘆洲區中正路185巷80弄2號","121.466015","25.0842033333333","6501400","蘆洲區"
"247014","007-UY","2017/10/13 17:59:46","新北市蘆洲區中正路201號","121.468498333333","25.0859633333333","6501400","蘆洲區"
"247024","002-UY","2017/10/13 17:59:50","新北市蘆洲區長興路50巷3號","121.46395","25.08402","6501400","蘆洲區"
"247018","001-UY","2017/10/13 17:59:49","新北市蘆洲區復興路298號","121.481088333333","25.09001","6501400","蘆洲區"
"226004","312-R5","2017/10/13 17:59:56","新北市平溪區菁桐里菁桐街11號","121.727891666667","25.0240033333333","6502400","平溪區"
"228001","212-TW","2017/10/13 17:59:42","新北市貢寮區真理里新港街26巷47號","121.927658333333","25.0531766666667","6502600","貢寮區"
"228002","663-BX","2017/10/13 17:59:59","新北市貢寮區福連里香蘭街7號","121.977356666667","25.0237966666667","6502600","貢寮區"
"228003","828-UM","2017/10/13 17:59:57","新北市貢寮區真理里美艷山街6-2號","121.92888","25.06072","6502600","貢寮區"
"224006","676-BX","2017/10/13 17:59:57","新北市瑞芳區傑魚坑路195-4號","121.78773","25.1070766666667","6501200","瑞芳區"
"224002","639-TC","2017/10/13 17:59:46","新北市瑞芳區三爪子坑路32巷76號","121.810051666667","25.1059866666667","6501200","瑞芳區"
"224009","285-BY","2017/10/13 17:59:43","新北市瑞芳區山尖路86號","121.853346666667","25.1157766666667","6501200","瑞芳區"
"224008","275-VK","2017/10/13 17:59:45","新北市瑞芳區明燈路一段201巷105號","121.818935","25.10623","6501200","瑞芳區"
"224007","273-VK","2017/10/13 17:59:45","新北市瑞芳區大寮路84號","121.78045","25.1013216666667","6501200","瑞芳區"
"224005","271-BY","2017/10/13 17:59:54","新北市瑞芳區深澳路18-1號","121.820383333333","25.1330133333333","6501200","瑞芳區"
"227011","030-BX","2017/10/13 17:37:40","新北市雙溪區三貂里定福路1-2號","121.850745","25.0634566666667","6502500","雙溪區"
"253005","032-BX","2017/10/13 17:59:41","新北市石門區中山路62-11號","121.567525","25.2896083333333","6502200","石門區"
"253006","295-VK","2017/10/13 17:59:51","新北市石門區大丘田45-2號","121.549815","25.274855","6502200","石門區"
"208002","742-BX","2017/10/13 17:59:51","新北市金山區三界壇路91-1號","121.624736666667","25.2287066666667","6502700","金山區"
"208003","665-BX","2017/10/13 17:59:52","新北市金山區磺港里磺港路192-1號","121.64608","25.2276166666667","6502700","金山區"
"208001","761-BX","2017/10/13 17:59:45","新北市金山區磺港里磺港路251號","121.644436666667","25.2255683333333","6502700","金山區"
"251004","009-UM","2017/10/13 17:59:43","新北市淡水區民權路187巷3號","121.4597","25.1336316666667","6501000","淡水區"
"251002","012-UM","2017/10/13 17:59:44","新北市淡水區中正東路8-8號","121.447943333333","25.166695","6501000","淡水區"
"251013","179-VK","2017/10/13 17:59:41","新北市淡水區泉洲厝31號","121.479501666667","25.1910833333333","6501000","淡水區"
"251008","181-VK","2017/10/13 17:59:52","新北市淡水區八勢一街43-1號","121.46207","25.1561383333333","6501000","淡水區"
"251015","182-VK","2017/10/13 17:46:12","新北市淡水區興福寮25-1號","121.492218333333","25.16455","6501000","淡水區"
"251010","413-VK","2017/10/13 17:59:46","新北市淡水區淡海路53號","121.423186666667","25.180405","6501000","淡水區"
"251012","441-VK","2017/10/13 17:59:35","新北市淡水區北新路三段38巷7號","121.484558333333","25.1870233333333","6501000","淡水區"
"251005","443-VK","2017/10/13 17:59:38","新北市淡水區英專路125-6號","121.446205","25.1726983333333","6501000","淡水區"
"251001","559-UM","2017/10/13 17:59:53","新北市淡水區民權路16號","121.463326666667","25.1243366666667","6501000","淡水區"
"251006","561-UM","2017/10/13 17:59:42","新北市淡水區新生街15-1號","121.438783333333","25.1731566666667","6501000","淡水區"
"251009","575-R6","2017/10/13 17:59:50","新北市淡水區大仁街10號","121.442355","25.1747366666667","6501000","淡水區"
"251011","650-BX","2017/10/13 17:59:51","新北市淡水區三空泉5號","121.477445","25.1620766666667","6501000","淡水區"
"251003","673-BX","2017/10/13 17:59:52","新北市淡水區大忠街79-1號","121.445886666667","25.1773533333333","6501000","淡水區"
"207003","291-VK","2017/10/13 17:59:49","新北市萬里區野柳里港東路167-1號","121.690263333333","25.2053033333333","6502800","萬里區"
"207004","225-TW","2017/10/13 17:59:53","新北市萬里區中幅里中福路48號","121.683246666667","25.1741316666667","6502800","萬里區"
"252002","178-VK","2017/10/13 17:59:53","新北市三芝區中山路二段20號","121.502743333333","25.25556","6502100","三芝區"
"252001","292-VK","2017/10/13 17:59:53","新北市三芝區中興街一段32號","121.497841666667","25.2575716666667","6502100","三芝區"
"237004","078-UY","2017/10/13 17:59:53","新北市三峽區中正路二段136號","121.36619","24.91655","6500900","三峽區"
"237007","153-BY","2017/10/13 17:59:53","新北市三峽區中園街104-1號","121.367063333333","24.9233866666667","6500900","三峽區"
"237009","210-TH","2017/10/13 17:59:46","新北市三峽區中山路106巷39號","121.366015","24.936735","6500900","三峽區"
"237013","252-BX","2017/10/13 17:59:36","新北市三峽區介壽路一段176號","121.377251666667","24.931045","6500900","三峽區"
"237012","275-BY","2017/10/13 17:59:50","新北市三峽區民生街27巷1號","121.376061666667","24.9362066666667","6500900","三峽區"
"237008","302-VK","2017/10/13 17:59:42","新北市三峽區正義街138號","121.368435","24.916605","6500900","三峽區"
"237014","433-BY","2017/10/13 17:59:44","新北市三峽區復興路101巷1弄28號","121.371021666667","24.9377083333333","6500900","三峽區"
"237006","5529-G3","2017/10/13 17:59:36","新北市三峽區介壽路二段138巷1弄42-3號","121.398083333333","24.932795","6500900","三峽區"
"237011","572-TV","2017/10/13 12:52:53","新北市三峽區中山路459巷163-3號","121.348781666667","24.933","6500900","三峽區"
"237015","649-BX","2017/10/13 17:59:39","新北市三峽區紫微路79-1號","121.410231666667","24.9132083333333","6500900","三峽區"
"237010","706-TV","2017/10/13 17:37:17","新北市三峽區中山路229號","121.362993333333","24.937125","6500900","三峽區"
"237005","AKY-6261","2017/10/13 17:59:44","新北市三峽區復興路237巷36號","121.368768333333","24.93776","6500900","三峽區"
"236072","105-UM","2017/10/13 17:59:50","新北市土城區城林路6巷80號","121.438721666667","24.9797233333333","6501300","土城區"
"236043","107-UM","2017/10/13 17:59:54","新北市土城區裕生路61號","121.447606666667","24.986085","6501300","土城區"
"236079","166-UM","2017/10/13 17:59:51","新北市土城區永寧路32巷10弄3號","121.428798333333","24.960975","6501300","土城區"
"236031","253-BX","2017/10/13 17:59:50","新北市土城區城林路6巷80號","121.438545","24.97963","6501300","土城區"
"236027","269-VK","2017/10/13 17:59:36","新北市土城區承天路18號","121.439461666667","24.96342","6501300","土城區"
"236015","270-VK","2017/10/13 17:59:38","新北市土城區城林路6巷80號","121.438426666667","24.97966","6501300","土城區"
"236039","271-VK","2017/10/13 17:59:55","新北市土城區城林路6巷80號","121.438538333333","24.9797516666667","6501300","土城區"
"236022","401-BY","2017/10/13 17:59:51","新北市土城區城林路6巷80號","121.438646666667","24.9798283333333","6501300","土城區"
"236059","912-UM","2017/10/13 17:59:52","新北市土城區永寧路1號","121.430448333333","24.9648216666667","6501300","土城區"
"236050","913-UM","2017/10/13 17:59:45","新北市土城區中華路一段301號","121.43983","24.9794616666667","6501300","土城區"
"236063","915-UM","2017/10/13 17:59:49","新北市土城區員福街2號","121.442063333333","24.9783166666667","6501300","土城區"
"236055","AAC-216","2017/10/13 17:59:34","新北市土城區中央路二段276-1號","121.44087","24.9743216666667","6501300","土城區"
"242032","AAC-296","2017/10/13 17:59:40","新北市新莊區新泰路324號","121.444981666667","25.0418016666667","6500500","新莊區"
"242029","986-R7","2017/10/13 17:59:51","新北市新莊區復興路一段27號","121.446198333333","25.041865","6500500","新莊區"
"242050","751-BX","2017/10/13 17:59:53","新北市新莊區龍安路496號","121.42631","25.0172133333333","6500500","新莊區"
"242025","615-BX","2017/10/13 17:59:50","新北市新莊區五工路70-1號","121.457743333333","25.063675","6500500","新莊區"
"242023","613-BX","2017/10/13 17:59:47","新北市新莊區福壽街47號","121.458186666667","25.0487866666667","6500500","新莊區"
"242027","612-BX","2017/10/13 17:59:54","新北市新莊區思源路379號","121.459758333333","25.0512083333333","6500500","新莊區"
"242039","566-BX","2017/10/13 17:59:39","新北市新莊區四維路1號","121.423818333333","25.0247066666667","6500500","新莊區"
"242044","497-BY","2017/10/13 17:59:51","新北市新莊區雙鳳路121號","121.413376666667","25.028","6500500","新莊區"
"242002","442-UM","2017/10/13 17:59:45","新北市新莊區中正路153-1號","121.455986666667","25.0367216666667","6500500","新莊區"
"242048","441-UM","2017/10/13 17:59:41","新北市新莊區萬安街47巷16號","121.422226666667","25.0244","6500500","新莊區"
"242054","440-UM","2017/10/13 17:59:54","新北市新莊區民安西路403巷19號","121.430131666667","25.01087","6500500","新莊區"
"242005","413-TV","2017/10/13 17:59:53","新北市新莊區福樂街70號","121.457946666667","25.0465","6500500","新莊區"
"242041","400-BY","2017/10/13 17:59:46","新北市新莊區丹鳳街40號","121.421616666667","25.0296483333333","6500500","新莊區"
"242060","362-BY","2017/10/13 17:59:47","新北市新莊區新樹路295-5號","121.43367","25.0199216666667","6500500","新莊區"
"242058","353-BY","2017/10/13 17:59:39","新北市新莊區雙鳳路134巷8號","121.412878333333","25.0283283333333","6500500","新莊區"
"242007","132-UY","2017/10/13 17:59:51","新北市新莊區自信街65巷7號","121.455458333333","25.0487483333333","6500500","新莊區"
"242037","133-UY","2017/10/13 17:59:57","新北市新莊區建福路59巷25號","121.42782","25.0276383333333","6500500","新莊區"
"242021","135-UY","2017/10/13 17:59:45","新北市新莊區中正路178號","121.450098333333","25.0358133333333","6500500","新莊區"
"242046","172-VK","2017/10/13 17:59:39","新北市新莊區福營路184號","121.43129","25.0308383333333","6500500","新莊區"
"242009","173-VK","2017/10/13 17:59:45","新北市新莊區中原路191號","121.452341666667","25.0539516666667","6500500","新莊區"
"242015","175-VK","2017/10/13 17:59:38","新北市新莊區中平路119巷8號","121.44432","25.0466833333333","6500500","新莊區"
"242013","346-TH","2017/10/13 17:59:40","新北市新莊區中和街83號","121.447408333333","25.0477533333333","6500500","新莊區"
"242019","348-TH","2017/10/13 17:59:36","新北市新莊區明中街47巷15號","121.456936666667","25.0386933333333","6500500","新莊區"
"242056","349-TH","2017/10/13 17:59:43","新北市新莊區豐年街124巷2號","121.446246666667","25.02983","6500500","新莊區"
"242017","350-TH","2017/10/13 17:59:50","新北市新莊區中和街57巷2號","121.447888333333","25.0447383333333","6500500","新莊區"
"242011","351-TH","2017/10/13 17:59:37","新北市新莊區中榮街56巷11號","121.449175","25.0533783333333","6500500","新莊區"
"238015","755-BX","2017/10/13 17:59:54","新北市樹林區復興路182號","121.420211666667","24.9913683333333","6500700","樹林區"
"238023","601-UM","2017/10/13 17:59:44","新北市樹林區龍興街34號","121.402921666667","25.0158433333333","6500700","樹林區"
"238019","599-UM","2017/10/13 17:59:54","新北市樹林區八德街225號","121.421396666667","24.9794116666667","6500700","樹林區"
"238018","571-TV","2017/10/13 17:59:45","新北市樹林區鎮前街158號","121.424461666667","24.9901766666667","6500700","樹林區"
"238021","KEA-2217","2017/10/13 17:59:55","新北市樹林區柑園街一段49號","121.403218333333","24.9603083333333","6500700","樹林區"
"238022","KEA-2213","2017/10/13 17:59:55","新北市樹林區太順街86巷28號","121.41659","24.97862","6500700","樹林區"
"238025","303-VK","2017/10/13 17:59:49","新北市樹林區俊興街211巷6號","121.417268333333","25.0146816666667","6500700","樹林區"
"238017","283-BY","2017/10/13 17:59:39","新北市樹林區三德街21號","121.413455","25.0130216666667","6500700","樹林區"
"238014","282-BY","2017/10/13 17:59:48","新北市樹林區大安路179號","121.421258333333","24.9962716666667","6500700","樹林區"
"238020","268-VK","2017/10/13 17:59:38","新北市樹林區三俊街197號","121.420095","25.01587","6500700","樹林區"
"238026","172-UY","2017/10/13 17:59:46","新北市樹林區中山路三段127-1號","121.396658333333","24.9733333333333","6500700","樹林區"
"238016","169-UY","2017/10/13 17:59:50","新北市樹林區啟智街151巷2號","121.416726666667","24.9879766666667","6500700","樹林區"
"239007","AAC-297","2017/10/13 17:59:46","新北市鶯歌區鶯桃路35-1號","121.343126666667","24.9507","6500800","鶯歌區"
"239006","891-R6","2017/10/13 17:59:52","新北市鶯歌區鶯桃路455巷6弄5號","121.331631666667","24.9645133333333","6500800","鶯歌區"
"239008","527-UM","2017/10/13 17:59:45","新北市鶯歌區香賓街9巷18號","121.336075","24.9796316666667","6500800","鶯歌區"
"239005","526-UM","2017/10/13 17:59:42","新北市鶯歌區大湖路361巷81-1號","121.33306","24.9739933333333","6500800","鶯歌區"
"239001","417-VK","2017/10/13 17:59:46","新北市鶯歌區尖山路卓厝巷7號","121.34187","24.945275","6500800","鶯歌區"
"239003","360-BY","2017/10/13 17:59:43","新北市鶯歌區福安街24號","121.3343","24.96412","6500800","鶯歌區"
"239002","359-BY","2017/10/13 17:59:44","新北市鶯歌區光明街100號","121.346045","24.9557583333333","6500800","鶯歌區"
"239004","193-VK","2017/10/13 17:59:45","新北市鶯歌區尖山路101巷4弄1號","121.347751666667","24.9483566666667","6500800","鶯歌區"
"221008","489-VK","2017/10/13 17:59:53","新北市汐止區明峰街4號","121.635491666667","25.071245","6501100","汐止區"
"221036","130-UY","2017/10/13 17:59:41","新北市汐止區忠孝東路473巷24-1號","121.665121666667","25.0736416666667","6501100","汐止區"
"221015","131-UY","2017/10/13 17:59:47","新北市汐止區長江街347號","121.667358333333","25.0820283333333","6501100","汐止區"
"221010","269-BY","2017/10/13 17:59:50","新北市汐止區汐萬路二段231號","121.646751666667","25.087745","6501100","汐止區"
"221012","276-VK","2017/10/13 13:25:25","新北市汐止區汐萬路一段256巷3號","121.653438333333","25.074685","6501100","汐止區"
"221012","278-VK","2017/10/13 17:59:51","新北市汐止區長興街二段28號","121.67309","25.0814283333333","6501100","汐止區"
"221023","279-VK","2017/10/13 17:59:57","新北市汐止區民族六街1巷2號","121.629205","25.07069","6501100","汐止區"
"221032","280-BY","2017/10/13 17:59:55","新北市汐止區橫科路73巷2-2號","121.619528333333","25.050725","6501100","汐止區"
"221027","281-BY","2017/10/13 17:59:47","新北市汐止區大同路二段374號","121.6578","25.0671966666667","6501100","汐止區"
"221029","298-VK","2017/10/13 17:59:56","新北市汐止區樟樹二路295號","121.641155","25.0697983333333","6501100","汐止區"
"221021","299-VK","2017/10/13 17:59:46","新北市汐止區新興路12號","121.656346666667","25.0647733333333","6501100","汐止區"
"221031","353-TW","2017/10/13 17:59:41","新北市汐止區中興路96巷1-3號","121.635193333333","25.06253","6501100","汐止區"
"221035","622-UM","2017/10/13 17:59:53","新北市汐止區汐萬路一段81號","121.65452","25.0703016666667","6501100","汐止區"
"221025","623-UM","2017/10/13 17:59:50","新北市汐止區仁愛路47號","121.659701666667","25.063235","6501100","汐止區"
"221038","646-BX","2017/10/13 17:59:39","新北市汐止區連興街56號","121.653848333333","25.06314","6501100","汐止區"
"221033","647-BX","2017/10/13 17:59:46","新北市汐止區合順街32號","121.620005","25.0431083333333","6501100","汐止區"
"221002","707-TV","2017/10/13 17:59:47","新北市汐止區工建路202號","121.636855","25.0627333333333","6501100","汐止區"
"221018","753-BX","2017/10/13 17:59:43","新北市汐止區招商街11巷2號","121.666583333333","25.0687283333333","6501100","汐止區"
"242034","280-VK","2017/10/13 17:59:53","新北市新莊區景德路532號","121.443815","25.033275","6500500","新莊區"
