"lineid","car","time","location","longitude","latitude","cityid","cityname"
"234013","149-BY","2017/10/13 18:09:50","新北市永和區福和路1號","121.526631666667","25.01019","6500400","永和區"
"234007","207-UY","2017/10/13 18:09:53","新北市永和區福和路1號","121.526633333333","25.01005","6500400","永和區"
"234042","862-TW","2017/10/13 18:09:52","新北市永和區福和路1號","121.52614","25.0098216666667","6500400","永和區"
"234026","9371-KE","2017/10/13 18:09:38","新北市永和區秀朗路一段10巷19號","121.513446666667","25.006145","6500400","永和區"
"234011","9373-KE","2017/10/13 17:54:21","新北市永和區福和路1號","121.525638333333","25.009515","6500400","永和區"
"249005","172-UM","2017/10/13 18:09:42","新北市八里區荖阡坑路15號","121.401646666667","25.1398183333333","6502300","八里區"
"249001","173-UM","2017/10/13 18:09:43","新北市八里區龍米路二段26號","121.448761666667","25.1396083333333","6502300","八里區"
"249004","303-UY","2017/10/13 18:09:40","新北市八里區龍米路二段200巷5號","121.433763333333","25.15883","6502300","八里區"
"249002","305-UY","2017/10/13 18:09:37","新北市八里區龍米路一段386巷9號","121.452236666667","25.132065","6502300","八里區"
"249003","593-UM","2017/10/13 18:09:39","新北市八里區中華路二段205巷20弄20號","121.405891666667","25.1480266666667","6502300","八里區"
"248014","025-BX","2017/10/13 18:09:46","新北市五股區成泰路一段231-11號","121.435361666667","25.0775766666667","6501500","五股區"
"248006","077-UY","2017/10/13 18:09:36","新北市五股區中興路二段95號","121.46038","25.0774883333333","6501500","五股區"
"248008","095-VK","2017/10/13 18:09:44","新北市五股區中興路二段182巷15弄13-1號","121.457275","25.0811516666667","6501500","五股區"
"248018","225-UY","2017/10/13 18:09:50","新北市五股區成泰路三段67號","121.443405","25.08971","6501500","五股區"
"248010","272-BY","2017/10/13 18:09:43","新北市五股區成泰路一段189巷20-2號","121.433388333333","25.0768516666667","6501500","五股區"
"248004","677-BX","2017/10/13 18:09:36","新北市五股區工商路46號","121.439206666667","25.0839333333333","6501500","五股區"
"248002","678-BX","2017/10/13 17:56:33","新北市五股區中興路二段37巷28號","121.460116666667","25.0749716666667","6501500","五股區"
"232011","375-UM","2017/10/13 18:09:39","新北市坪林區坪雙路一段21號","121.712641666667","24.9416966666667","6502000","坪林區"
"244013","069-UM","2017/10/13 18:09:41","新北市林口區中山路150號","121.391193333333","25.0788083333333","6501700","林口區"
"244007","080-UY","2017/10/13 18:09:52","新北市林口區竹林路157巷7號","121.388115","25.080105","6501700","林口區"
"244019","403-UM","2017/10/13 18:09:42","新北市林口區忠孝路542巷5弄9號","121.373971666667","25.0676283333333","6501700","林口區"
"244025","742-UY","2017/10/13 18:09:54","新北市林口區文化北路一段293-1號","121.359995","25.07271","6501700","林口區"
"244009","410-SL","2017/10/13 18:09:39","新北市林口區竹林路586號","121.386136666667","25.08265","6501700","林口區"
"244023","483-VK","2017/10/13 18:09:52","新北市林口區東湖路153巷123號","121.382301666667","25.0732233333333","6501700","林口區"
"244017","485-VK","2017/10/13 18:09:50","新北市林口區忠孝路482號","121.3703","25.0704966666667","6501700","林口區"
"244011","656-BX","2017/10/13 18:09:48","新北市林口區新生街28號","121.393998333333","25.0764416666667","6501700","林口區"
"244021","838-TS","2017/10/13 18:09:50","新北市林口區自強九街10號","121.400805","25.0760933333333","6501700","林口區"
"222003","436-BY","2017/10/13 18:09:37","新北市深坑區腳坑2號","121.611378333333","24.9963416666667","6501800","深坑區"
"222001","628-TS","2017/10/13 18:09:57","新北市深坑區北深路二段182號","121.614138333333","25.0022883333333","6501800","深坑區"
"222002","659-BX","2017/10/13 18:09:42","新北市深坑區文化街52號","121.618966666667","25.0016433333333","6501800","深坑區"
"231041","002-UM","2017/10/13 18:09:47","新北市新店區安華路28-1號","121.519623333333","24.9608966666667","6500600","新店區"
"231059","046-UY","2017/10/13 18:09:35","新北市新店區安華路28-1號","121.519491666667","24.9608116666667","6500600","新店區"
"231048","108-UY","2017/10/13 18:09:40","新北市新店區安華路28-1號","121.519453333333","24.961185","6500600","新店區"
"231053","187-VK","2017/10/13 18:09:38","新北市新店區安華路28-1號","121.519493333333","24.9612316666667","6500600","新店區"
"231046","278-BY","2017/10/13 18:09:50","新北市新店區直潭七街60號","121.532245","24.93991","6500600","新店區"
"231058","3712-VJ","2017/10/13 18:09:42","新北市新店區安華路28-1號","121.519178333333","24.9606633333333","6500600","新店區"
"231056","4716-K9","2017/10/13 18:09:42","新北市新店區安華路28-1號","121.51956","24.9612083333333","6500600","新店區"
"231045","617-UM","2017/10/13 18:09:52","新北市新店區安華路28-1號","121.519383333333","24.960925","6500600","新店區"
"231040","619-UM","2017/10/13 18:09:38","新北市新店區安華路28-1號","121.519456666667","24.9608683333333","6500600","新店區"
"231049","719-UM","2017/10/13 18:09:54","新北市新店區安華路28-1號","121.519463333333","24.9614316666667","6500600","新店區"
"231066","AKT-0513","2017/10/13 18:09:52","新北市新店區安華路1-1號","121.519478333333","24.9605066666667","6500600","新店區"
"241008","059-VK","2017/10/13 18:09:52","新北市三重區永福街66號","121.480725","25.0769233333333","6500200","三重區"
"241024","065-VK","2017/10/13 18:09:51","新北市三重區中正北路193巷37號","121.476028333333","25.07081","6500200","三重區"
"241032","743-BX","2017/10/13 18:03:48","新北市三重區興華街109號","121.483755","25.05981","6500200","三重區"
"241033","AAC-255","2017/10/13 18:09:41","新北市三重區中興北街56-1號","121.46891","25.0513866666667","6500200","三重區"
"235066","003-UY","2017/10/13 18:09:43","新北市中和區中正路300號","121.494365","24.9940683333333","6500300","中和區"
"235064","005-UY","2017/10/13 18:09:46","新北市中和區中正路209號","121.49734","24.9936516666667","6500300","中和區"
"235063","006-UY","2017/10/13 18:09:49","新北市中和區員山路36巷16-3號","121.48502","24.9913016666667","6500300","中和區"
"235065","098-UM","2017/10/13 18:09:51","新北市中和區中正路808號","121.48494","25.0027616666667","6500300","中和區"
"235040","150-BY","2017/10/13 16:59:02","新北市中和區和城路一段271巷1號","121.48568","24.991995","6500300","中和區"
"235058","151-BY","2017/10/13 18:09:54","新北市中和區圓通路367巷33弄15號","121.495238333333","24.985125","6500300","中和區"
"235038","185-VK","2017/10/13 18:09:44","新北市中和區景平路253號","121.50878","24.9930083333333","6500300","中和區"
"235067","255-BX","2017/10/13 18:09:43","新北市中和區和城路一段271巷1號","121.485455","24.9917483333333","6500300","中和區"
"235051","376-QA","2017/10/13 18:09:49","新北市中和區中正路226號","121.496226666667","24.9939116666667","6500300","中和區"
"235061","378-QA","2017/10/13 14:55:51","新北市中和區員山路36巷13號","121.484201666667","24.9913166666667","6500300","中和區"
"235050","4979-A6","2017/10/13 18:09:37","新北市中和區中正路190-1號","121.497805","24.9938233333333","6500300","中和區"
"235069","4980-A6","2017/10/13 18:08:37","新北市中和區景平路630巷11號","121.500615","24.9983216666667","6500300","中和區"
"235042","551-UM","2017/10/13 18:09:36","新北市中和區景平路353號","121.504791666667","24.9934433333333","6500300","中和區"
"235070","558-UM","2017/10/13 18:09:54","新北市中和區連城路469巷89號","121.485215","24.993285","6500300","中和區"
"235045","565-BX","2017/10/13 18:09:37","新北市中和區中正路637巷52弄1號","121.485551666667","24.993565","6500300","中和區"
"235054","640-BX","2017/10/13 18:09:34","新北市中和區員山路82巷6-3號","121.481226666667","24.99363","6500300","中和區"
"235062","800-TS","2017/10/13 18:09:41","新北市中和區中正路808號","121.485003333333","25.0029333333333","6500300","中和區"
"235057","801-TS","2017/10/13 18:09:42","新北市中和區連城路469巷7號","121.483626666667","24.9956433333333","6500300","中和區"
"235052","805-TS","2017/10/13 18:09:39","新北市中和區中正路637巷52弄1號","121.485593333333","24.99355","6500300","中和區"
"235048","896-TW","2017/10/13 18:09:48","新北市中和區員山路36巷13號","121.48432","24.9907916666667","6500300","中和區"
"235053","900-TW","2017/10/13 18:09:36","新北市中和區和城路一段271巷1號","121.48556","24.991395","6500300","中和區"
"235037","AAC-213","2017/10/13 18:09:53","新北市中和區景平路357號","121.504653333333","24.99333","6500300","中和區"
"235059","AAC-215","2017/10/13 16:52:59","新北市中和區員山路36巷16-3號","121.485098333333","24.9914216666667","6500300","中和區"
"226004","312-R5","2017/10/13 18:09:36","新北市平溪區薯榔里薯榔寮28號","121.7136","25.0194983333333","6502400","平溪區"
"228001","212-TW","2017/10/13 18:09:40","新北市貢寮區真理里新港街26巷55弄2號","121.927433333333","25.0529383333333","6502600","貢寮區"
"228002","663-BX","2017/10/13 18:09:59","新北市貢寮區福連里馬崗街13-1號","122.001833333333","25.012945","6502600","貢寮區"
"228003","828-UM","2017/10/13 18:09:37","新北市貢寮區真理里美艷山街6-2號","121.928888333333","25.06073","6502600","貢寮區"
"224006","676-BX","2017/10/13 18:09:37","新北市瑞芳區中正路2號","121.809253333333","25.10684","6501200","瑞芳區"
"224002","639-TC","2017/10/13 18:09:46","新北市瑞芳區三爪子坑路44號","121.810628333333","25.1058683333333","6501200","瑞芳區"
"224009","285-BY","2017/10/13 18:09:43","新北市瑞芳區金光路115號","121.853491666667","25.1062833333333","6501200","瑞芳區"
"224008","275-VK","2017/10/13 18:09:45","新北市瑞芳區國中新村34號","121.816406666667","25.107985","6501200","瑞芳區"
"224007","273-VK","2017/10/13 18:09:45","新北市瑞芳區四腳亭坑路3-1號","121.776711666667","25.1093433333333","6501200","瑞芳區"
"224005","271-BY","2017/10/13 18:09:54","新北市瑞芳區深澳路1號","121.816481666667","25.128575","6501200","瑞芳區"
"227011","030-BX","2017/10/13 17:37:40","新北市雙溪區三貂里定福路1-2號","121.850745","25.0634566666667","6502500","雙溪區"
"253005","032-BX","2017/10/13 18:09:41","新北市石門區福安街7號","121.56847","25.292865","6502200","石門區"
"253006","295-VK","2017/10/13 18:09:51","新北市石門區老梅路52巷21號","121.54635","25.2883516666667","6502200","石門區"
"208002","742-BX","2017/10/13 18:09:51","新北市金山區法鼓路99號","121.623358333333","25.233145","6502700","金山區"
"208003","665-BX","2017/10/13 18:09:52","新北市金山區民生路196號","121.645496666667","25.221815","6502700","金山區"
"208001","761-BX","2017/10/13 18:09:45","新北市金山區磺港里磺港路61號","121.647551666667","25.227375","6502700","金山區"
"251004","009-UM","2017/10/13 18:09:42","新北市淡水區民族路96號","121.462501666667","25.1355","6501000","淡水區"
"251002","012-UM","2017/10/13 18:09:44","新北市淡水區中正東路一段129號","121.455511666667","25.15929","6501000","淡水區"
"251013","179-VK","2017/10/13 18:09:41","新北市淡水區竹圍子10號","121.476076666667","25.1945916666667","6501000","淡水區"
"251008","181-VK","2017/10/13 18:09:43","新北市淡水區坪頂路70巷41號","121.460681666667","25.1604616666667","6501000","淡水區"
"251015","182-VK","2017/10/13 17:46:12","新北市淡水區興福寮25-1號","121.492218333333","25.16455","6501000","淡水區"
"251010","413-VK","2017/10/13 18:09:46","新北市淡水區中正路二段50巷2號","121.419773333333","25.18318","6501000","淡水區"
"251012","441-VK","2017/10/13 18:09:35","新北市淡水區北新路三段122號","121.487236666667","25.188805","6501000","淡水區"
"251005","443-VK","2017/10/13 18:09:38","新北市淡水區水源街一段141號","121.447216666667","25.171935","6501000","淡水區"
"251001","559-UM","2017/10/13 18:09:53","新北市淡水區自立路10號","121.463081666667","25.129475","6501000","淡水區"
"251006","561-UM","2017/10/13 18:09:42","新北市淡水區真理街3巷26-1號","121.437991666667","25.176735","6501000","淡水區"
"251009","575-R6","2017/10/13 18:09:50","新北市淡水區大忠街34巷23號","121.444295","25.17588","6501000","淡水區"
"251011","650-BX","2017/10/13 18:09:47","新北市淡水區三空泉9-2號","121.4741","25.16353","6501000","淡水區"
"251003","673-BX","2017/10/13 18:09:52","新北市淡水區北新路182巷24號","121.44893","25.1780066666667","6501000","淡水區"
"207003","291-VK","2017/10/13 18:09:49","新北市萬里區野柳里港西路72號","121.68555","25.20491","6502800","萬里區"
"207004","225-TW","2017/10/13 18:09:53","新北市萬里區中幅里中福路111號","121.676405","25.168485","6502800","萬里區"
"252002","178-VK","2017/10/13 18:09:33","新北市三芝區中山路二段33號","121.502805","25.2551983333333","6502100","三芝區"
"252003","249-BX","2017/10/13 18:09:49","新北市三芝區埔頭里埔頭37號","121.498431666667","25.26033","6502100","三芝區"
"252001","292-VK","2017/10/13 18:09:53","新北市三芝區中興街二段2號","121.49834","25.25668","6502100","三芝區"
"237004","078-UY","2017/10/13 18:09:33","新北市三峽區圳頭51-1號","121.377013333333","24.8842066666667","6500900","三峽區"
"237007","153-BY","2017/10/13 18:09:33","新北市三峽區中正路二段329號","121.365928333333","24.9101033333333","6500900","三峽區"
"237009","210-TH","2017/10/13 18:09:46","新北市三峽區大仁路66巷1號","121.364863333333","24.93741","6500900","三峽區"
"237013","252-BX","2017/10/13 18:09:56","新北市三峽區長泰街78巷3號","121.376643333333","24.9335433333333","6500900","三峽區"
"237012","275-BY","2017/10/13 18:09:50","新北市三峽區民生街1巷6-8號","121.3772","24.9357466666667","6500900","三峽區"
"237008","302-VK","2017/10/13 18:09:42","新北市三峽區白雞44-3號","121.378808333333","24.9098583333333","6500900","三峽區"
"237014","433-BY","2017/10/13 18:09:44","新北市三峽區國光街81巷7號","121.373783333333","24.9380133333333","6500900","三峽區"
"237006","5529-G3","2017/10/13 18:09:57","新北市三峽區溪東路34巷13號","121.400358333333","24.9343633333333","6500900","三峽區"
"237011","572-TV","2017/10/13 12:52:53","新北市三峽區中山路459巷163-3號","121.348781666667","24.933","6500900","三峽區"
"237015","649-BX","2017/10/13 18:09:39","新北市三峽區紫新路48號","121.422156666667","24.9219383333333","6500900","三峽區"
"237010","706-TV","2017/10/13 18:09:24","新北市三峽區民族街72號","121.369665","24.9300766666667","6500900","三峽區"
"237005","AKY-6261","2017/10/13 18:09:44","新北市三峽區和平街34號","121.370196666667","24.93713","6500900","三峽區"
"236072","105-UM","2017/10/13 18:09:50","新北市土城區學府路一段280巷17號","121.449261666667","24.9827233333333","6501300","土城區"
"236043","107-UM","2017/10/13 18:09:54","新北市土城區裕生路64號","121.447575","24.986105","6501300","土城區"
"236079","166-UM","2017/10/13 18:09:51","新北市土城區永寧路53號","121.429643333333","24.9611316666667","6501300","土城區"
"236031","253-BX","2017/10/13 18:09:50","新北市土城區城林路6巷80號","121.438545","24.97963","6501300","土城區"
"236027","269-VK","2017/10/13 18:09:36","新北市土城區承天路67號","121.439671666667","24.96347","6501300","土城區"
"236015","270-VK","2017/10/13 18:09:38","新北市土城區學府路二段16號","121.44913","24.9820916666667","6501300","土城區"
"236039","271-VK","2017/10/13 18:09:34","新北市土城區金城路二段59號","121.450801666667","24.9789083333333","6501300","土城區"
"236022","401-BY","2017/10/13 18:09:51","新北市土城區城林路6巷80號","121.438626666667","24.97979","6501300","土城區"
"236059","912-UM","2017/10/13 18:09:52","新北市土城區中央路四段114號","121.41803","24.95902","6501300","土城區"
"236050","913-UM","2017/10/13 18:09:25","新北市土城區明德路一段365-1號","121.453553333333","24.9790633333333","6501300","土城區"
"236063","915-UM","2017/10/13 18:09:49","新北市土城區金城路二段220號","121.456221666667","24.9827966666667","6501300","土城區"
"236055","AAC-216","2017/10/13 18:09:55","新北市土城區中華路二段80號","121.438635","24.9756533333333","6501300","土城區"
"242032","AAC-296","2017/10/13 18:09:52","新北市新莊區新泰路277巷60號","121.442913333333","25.0400883333333","6500500","新莊區"
"242029","986-R7","2017/10/13 18:09:39","新北市新莊區中平路75號","121.444683333333","25.0450583333333","6500500","新莊區"
"242050","751-BX","2017/10/13 18:09:33","新北市新莊區民本街25巷15號","121.429086666667","25.0195183333333","6500500","新莊區"
"242025","615-BX","2017/10/13 18:09:43","新北市新莊區五權一路13-3號","121.45985","25.06822","6500500","新莊區"
"242023","613-BX","2017/10/13 18:09:47","新北市新莊區幸福路775號","121.446821666667","25.0490783333333","6500500","新莊區"
"242027","612-BX","2017/10/13 18:09:46","新北市新莊區幸福路549號","121.454675","25.0492766666667","6500500","新莊區"
"242039","566-BX","2017/10/13 18:09:43","新北市新莊區民安西路88巷6號","121.426166666667","25.0199616666667","6500500","新莊區"
"242044","497-BY","2017/10/13 18:09:51","新北市新莊區天泉一街3號","121.414771666667","25.0240416666667","6500500","新莊區"
"242002","442-UM","2017/10/13 18:09:45","新北市新莊區新莊路90號","121.456673333333","25.0363083333333","6500500","新莊區"
"242048","441-UM","2017/10/13 18:09:53","新北市新莊區民安路98巷11號","121.423495","25.0255066666667","6500500","新莊區"
"242054","440-UM","2017/10/13 18:09:54","新北市新莊區西盛街395巷25弄11號","121.428415","25.01206","6500500","新莊區"
"242005","413-TV","2017/10/13 18:09:53","新北市新莊區自立街68號","121.454175","25.0453133333333","6500500","新莊區"
"242041","400-BY","2017/10/13 18:09:46","新北市新莊區天祥街42號","121.416981666667","25.02872","6500500","新莊區"
"242060","362-BY","2017/10/13 18:09:47","新北市新莊區新樹路75號","121.437786666667","25.02761","6500500","新莊區"
"242058","353-BY","2017/10/13 18:09:50","新北市新莊區新北大道七段716號","121.412415","25.026275","6500500","新莊區"
"242007","132-UY","2017/10/13 18:09:51","新北市新莊區中華路二段62號","121.454096666667","25.0462483333333","6500500","新莊區"
"242037","133-UY","2017/10/13 18:09:49","新北市新莊區福營路230號","121.426883333333","25.02912","6500500","新莊區"
"242021","135-UY","2017/10/13 18:09:45","新北市新莊區中華路一段63巷42號","121.449918333333","25.0392833333333","6500500","新莊區"
"242046","172-VK","2017/10/13 18:09:39","新北市新莊區福營路226號","121.427235","25.0294666666667","6500500","新莊區"
"242009","173-VK","2017/10/13 18:09:45","新北市新莊區昌平街71巷7號","121.453993333333","25.053515","6500500","新莊區"
"242015","175-VK","2017/10/13 18:09:38","新北市新莊區中和街59巷28號","121.446205","25.046795","6500500","新莊區"
"242019","348-TH","2017/10/13 18:09:36","新北市新莊區長青街37巷22弄1號","121.456121666667","25.041245","6500500","新莊區"
"242056","349-TH","2017/10/13 18:09:49","新北市新莊區豐年街豐1巷5號","121.446865","25.031215","6500500","新莊區"
"242017","350-TH","2017/10/13 18:09:51","新北市新莊區中華路一段226號","121.452633333333","25.0426616666667","6500500","新莊區"
"242011","351-TH","2017/10/13 18:09:37","新北市新莊區中信街80號","121.44794","25.0530733333333","6500500","新莊區"
"238015","755-BX","2017/10/13 18:09:34","新北市樹林區大安路322巷8號","121.417096666667","24.9917466666667","6500700","樹林區"
"238023","601-UM","2017/10/13 18:09:37","新北市樹林區龍興街46巷10號","121.402623333333","25.01541","6500700","樹林區"
"238019","599-UM","2017/10/13 18:09:54","新北市樹林區水源街69號","121.42554","24.9818633333333","6500700","樹林區"
"238018","571-TV","2017/10/13 18:09:45","新北市樹林區中正路241號","121.430288333333","24.9986633333333","6500700","樹林區"
"238021","KEA-2217","2017/10/13 18:09:35","新北市樹林區田尾街110-1號","121.406525","24.95508","6500700","樹林區"
"238022","KEA-2213","2017/10/13 18:09:55","新北市樹林區太平路150巷34號","121.417618333333","24.977615","6500700","樹林區"
"238025","303-VK","2017/10/13 18:09:49","新北市樹林區保安街二段259號","121.412995","25.0050166666667","6500700","樹林區"
"238017","283-BY","2017/10/13 18:09:39","新北市樹林區三俊街71-2號","121.415065","25.0155433333333","6500700","樹林區"
"238014","282-BY","2017/10/13 18:09:48","新北市樹林區中正路59號","121.426558333333","24.999905","6500700","樹林區"
"238020","268-VK","2017/10/13 18:09:38","新北市樹林區三龍街99號","121.41689","25.0183516666667","6500700","樹林區"
"238026","172-UY","2017/10/13 18:09:46","新北市樹林區育德街57號","121.391403333333","24.9702183333333","6500700","樹林區"
"238016","169-UY","2017/10/13 18:09:51","新北市樹林區中山路一段242巷6號","121.420738333333","24.9878533333333","6500700","樹林區"
"239007","AAC-297","2017/10/13 18:09:46","新北市鶯歌區育英街65-1號","121.347295","24.952305","6500800","鶯歌區"
"239006","891-R6","2017/10/13 18:09:52","新北市鶯歌區鶯桃路367號","121.333755","24.963055","6500800","鶯歌區"
"239008","527-UM","2017/10/13 18:09:55","新北市鶯歌區朝陽街61巷1號","121.338186666667","24.9784633333333","6500800","鶯歌區"
"239005","526-UM","2017/10/13 18:09:42","新北市鶯歌區鶯桃路668巷53號","121.329388333333","24.9710416666667","6500800","鶯歌區"
"239001","417-VK","2017/10/13 18:09:46","新北市鶯歌區國中街71-1號","121.340526666667","24.9406666666667","6500800","鶯歌區"
"239003","360-BY","2017/10/13 18:09:43","新北市鶯歌區福安街58號","121.335566666667","24.9652383333333","6500800","鶯歌區"
"239002","359-BY","2017/10/13 18:09:44","新北市鶯歌區國慶街35號","121.3496","24.9561066666667","6500800","鶯歌區"
"239004","193-VK","2017/10/13 18:09:45","新北市鶯歌區尖山路174巷35弄14號","121.343916666667","24.9485166666667","6500800","鶯歌區"
"221008","489-VK","2017/10/13 18:09:53","新北市汐止區康寧街307巷1弄10號","121.626943333333","25.0680016666667","6501100","汐止區"
"221036","130-UY","2017/10/13 18:09:53","新北市汐止區大同路三段211號","121.672118333333","25.07702","6501100","汐止區"
"221015","131-UY","2017/10/13 18:09:07","新北市汐止區鄉長路二段124-1號","121.664345","25.0860833333333","6501100","汐止區"
"221010","269-BY","2017/10/13 18:09:45","新北市汐止區汐萬路二段248號","121.646231666667","25.088875","6501100","汐止區"
"221012","276-VK","2017/10/13 13:25:25","新北市汐止區汐萬路一段256巷3號","121.653438333333","25.074685","6501100","汐止區"
"221012","278-VK","2017/10/13 18:09:51","新北市汐止區保一街39號","121.674175","25.0799316666667","6501100","汐止區"
"221023","279-VK","2017/10/13 18:09:38","新北市汐止區中興路295號","121.62788","25.0701833333333","6501100","汐止區"
"221032","280-BY","2017/10/13 18:09:54","新北市汐止區橫科路6號","121.617593333333","25.0513483333333","6501100","汐止區"
"221027","281-BY","2017/10/13 18:09:47","新北市汐止區大同路二段585號","121.663731666667","25.07044","6501100","汐止區"
"221029","298-VK","2017/10/13 18:09:45","新北市汐止區樟樹二路134號","121.63994","25.065635","6501100","汐止區"
"221021","299-VK","2017/10/13 18:09:46","新北市汐止區連興街30號","121.655193333333","25.0638666666667","6501100","汐止區"
"221031","353-TW","2017/10/13 18:09:41","新北市汐止區中興路181巷16弄11號","121.629381666667","25.066745","6501100","汐止區"
"221035","622-UM","2017/10/13 18:09:53","新北市汐止區大同路二段187巷8弄1號","121.652566666667","25.0656266666667","6501100","汐止區"
"221025","623-UM","2017/10/13 18:09:50","新北市汐止區勤進路8號","121.659751666667","25.06168","6501100","汐止區"
"221038","646-BX","2017/10/13 18:09:39","新北市汐止區南興路83巷13號","121.653636666667","25.0591633333333","6501100","汐止區"
"221033","647-BX","2017/10/13 18:09:39","新北市汐止區林森街21號","121.621783333333","25.0405883333333","6501100","汐止區"
"221002","707-TV","2017/10/13 18:09:47","新北市汐止區福德一路188-1號","121.634683333333","25.065425","6501100","汐止區"
"221018","753-BX","2017/10/13 18:09:45","新北市汐止區忠孝東路406號","121.665998333333","25.07105","6501100","汐止區"
"242034","280-VK","2017/10/13 18:09:53","新北市新莊區新豐街65號","121.446361666667","25.03365","6500500","新莊區"
