"lineid","car","time","location","longitude","latitude","cityid","cityname"
"234013","149-BY","2017/10/13 18:19:50","新北市永和區福和路1號","121.526438333333","25.0097933333333","6500400","永和區"
"234007","207-UY","2017/10/13 18:19:34","新北市永和區保生路55-6號","121.504705","25.012335","6500400","永和區"
"234042","862-TW","2017/10/13 18:19:52","新北市永和區福和路1號","121.526108333333","25.0098383333333","6500400","永和區"
"234026","9371-KE","2017/10/13 18:19:38","新北市永和區豫溪街42巷4號","121.515448333333","25.0096166666667","6500400","永和區"
"234011","9373-KE","2017/10/13 18:19:37","新北市永和區福和路1號","121.525471666667","25.0095016666667","6500400","永和區"
"249005","172-UM","2017/10/13 18:19:42","新北市八里區荖阡坑路15-25號","121.400526666667","25.1402116666667","6502300","八里區"
"249001","173-UM","2017/10/13 18:19:43","新北市八里區龍米路一段103號","121.45294","25.125235","6502300","八里區"
"249004","303-UY","2017/10/13 18:19:40","新北市八里區觀海大道35-2號","121.429825","25.1607666666667","6502300","八里區"
"249002","305-UY","2017/10/13 18:19:37","新北市八里區龍形五街21號","121.450155","25.1331233333333","6502300","八里區"
"249003","593-UM","2017/10/13 18:19:39","新北市八里區中華路二段341-1號","121.39986","25.1453583333333","6502300","八里區"
"248014","025-BX","2017/10/13 18:19:46","新北市五股區自強路19巷5-1號","121.434623333333","25.0737283333333","6501500","五股區"
"248016","026-BX","2017/10/13 18:19:52","新北市五股區西雲路293號","121.449393333333","25.0992533333333","6501500","五股區"
"248006","077-UY","2017/10/13 18:19:36","新北市五股區中興路一段164-1號","121.464165","25.0739216666667","6501500","五股區"
"248008","095-VK","2017/10/13 18:19:44","新北市五股區更洲路32巷8弄14號","121.459256666667","25.0796633333333","6501500","五股區"
"248018","225-UY","2017/10/13 18:19:50","新北市五股區御史路150號","121.431305","25.1028","6501500","五股區"
"248012","247-BX","2017/10/13 18:19:45","新北市五股區御史路1巷101弄2號","121.440998333333","25.091205","6501500","五股區"
"248010","272-BY","2017/10/13 18:19:43","新北市五股區成泰路一段139巷2弄1號","121.435058333333","25.0730033333333","6501500","五股區"
"248004","677-BX","2017/10/13 18:19:36","新北市五股區成泰路二段156號","121.43832","25.0842066666667","6501500","五股區"
"248002","678-BX","2017/10/13 17:56:33","新北市五股區中興路二段37巷28號","121.460116666667","25.0749716666667","6501500","五股區"
"232011","375-UM","2017/10/13 18:13:38","新北市坪林區坪雙路一段43號","121.711716666667","24.942505","6502000","坪林區"
"244013","069-UM","2017/10/13 18:19:41","新北市林口區中山路202-1號","121.387525","25.0792516666667","6501700","林口區"
"244007","080-UY","2017/10/13 18:19:52","新北市林口區後湖17-6號","121.386646666667","25.0962833333333","6501700","林口區"
"244019","403-UM","2017/10/13 18:19:42","新北市林口區麗園路100號","121.371771666667","25.0679233333333","6501700","林口區"
"244025","742-UY","2017/10/13 18:19:54","新北市林口區南勢六街55號","121.355681666667","25.071415","6501700","林口區"
"244009","410-SL","2017/10/13 18:19:39","新北市林口區民生路166號","121.379703333333","25.08757","6501700","林口區"
"244023","483-VK","2017/10/13 18:19:52","新北市林口區仁愛路二段8號","121.38583","25.0763383333333","6501700","林口區"
"244017","485-VK","2017/10/13 18:19:50","新北市林口區八德路48巷1號","121.36678","25.066305","6501700","林口區"
"244011","656-BX","2017/10/13 18:19:48","新北市林口區中山路73號","121.392775","25.0784516666667","6501700","林口區"
"244021","838-TS","2017/10/13 18:19:50","新北市林口區自強二街1-5號","121.39742","25.0785583333333","6501700","林口區"
"243013","AAD-798","2017/10/13 18:19:46","新北市泰山區南林路89-4號","121.415456666667","25.0511966666667","6501600","泰山區"
"222003","436-BY","2017/10/13 18:19:37","新北市深坑區旺耽路67號","121.626268333333","25.00303","6501800","深坑區"
"222001","628-TS","2017/10/13 18:19:37","新北市深坑區北深路二段58號","121.619021666667","25.0042316666667","6501800","深坑區"
"222002","659-BX","2017/10/13 18:19:41","新北市深坑區雲鄉路154號","121.623113333333","24.9979933333333","6501800","深坑區"
"231041","002-UM","2017/10/13 18:19:47","新北市新店區安華路28-1號","121.51962","24.9608566666667","6500600","新店區"
"231059","046-UY","2017/10/13 18:19:34","新北市新店區安華路28-1號","121.519483333333","24.9607916666667","6500600","新店區"
"231061","047-UY","2017/10/13 18:19:36","新北市新店區安華路28-1號","121.519251666667","24.9610083333333","6500600","新店區"
"231060","106-UY","2017/10/13 18:19:34","新北市新店區安華路28-1號","121.519696666667","24.96078","6500600","新店區"
"231048","108-UY","2017/10/13 18:19:40","新北市新店區安華路28-1號","121.519445","24.961025","6500600","新店區"
"231051","110-UY","2017/10/13 18:19:40","新北市新店區安華路28-1號","121.519881666667","24.9612083333333","6500600","新店區"
"231053","187-VK","2017/10/13 18:19:38","新北市新店區安康路一段293號","121.522765","24.9637166666667","6500600","新店區"
"231057","256-BX","2017/10/13 18:19:53","新北市新店區安華路28-1號","121.519608333333","24.9611583333333","6500600","新店區"
"231046","278-BY","2017/10/13 18:19:50","新北市新店區直潭七街60號","121.532231666667","24.9398766666667","6500600","新店區"
"231054","AAD-862","2017/10/13 18:19:46","新北市新店區安華路28-1號","121.519843333333","24.96111","6500600","新店區"
"231058","3712-VJ","2017/10/13 18:19:46","新北市新店區環河路1-3號","121.538086666667","24.9612933333333","6500600","新店區"
"231055","3713-VJ","2017/10/13 18:19:48","新北市新店區力行路11巷57號","121.538595","24.9617833333333","6500600","新店區"
"231056","4716-K9","2017/10/13 18:19:42","新北市新店區中央路216-1號","121.529843333333","24.9731616666667","6500600","新店區"
"231067","4772-VM","2017/10/13 18:19:52","新北市新店區安華路28-1號","121.519186666667","24.96067","6500600","新店區"
"231065","513-UM","2017/10/13 18:19:47","新北市新店區安華路28-1號","121.519298333333","24.9612133333333","6500600","新店區"
"231064","515-UM","2017/10/13 18:19:43","新北市新店區安華路28-1號","121.519576666667","24.9611433333333","6500600","新店區"
"231045","617-UM","2017/10/13 18:19:52","新北市新店區安華路28-1號","121.519451666667","24.960975","6500600","新店區"
"231040","619-UM","2017/10/13 18:19:38","新北市新店區安華路28-1號","121.519426666667","24.9608066666667","6500600","新店區"
"231042","641-BX","2017/10/13 18:19:34","新北市新店區安華路28-1號","121.519548333333","24.9605466666667","6500600","新店區"
"231063","645-TV","2017/10/13 18:19:39","新北市新店區安華路28-1號","121.519315","24.960705","6500600","新店區"
"231049","719-UM","2017/10/13 18:19:33","新北市新店區安華路28-1號","121.519453333333","24.961215","6500600","新店區"
"231062","720-UM","2017/10/13 18:19:41","新北市新店區安華路28-1號","121.51936","24.9612083333333","6500600","新店區"
"231043","899-TW","2017/10/13 18:19:36","新北市新店區安華路28-1號","121.51931","24.9608483333333","6500600","新店區"
"231066","AKT-0513","2017/10/13 18:19:33","新北市新店區安華路1-1號","121.519543333333","24.9604683333333","6500600","新店區"
"241024","065-VK","2017/10/13 18:19:51","新北市三重區新北大道一段7號","121.48943","25.0613816666667","6500200","三重區"
"241032","743-BX","2017/10/13 18:18:48","新北市三重區名源街59號","121.482323333333","25.0594166666667","6500200","三重區"
"241033","AAC-255","2017/10/13 18:19:41","新北市三重區光復路一段68巷5號","121.47147","25.0494366666667","6500200","三重區"
"235066","003-UY","2017/10/13 18:19:43","新北市中和區安邦街95號","121.497156666667","24.9962316666667","6500300","中和區"
"235064","005-UY","2017/10/13 18:19:46","新北市中和區中正路220號","121.496471666667","24.9937983333333","6500300","中和區"
"235063","006-UY","2017/10/13 18:19:49","新北市中和區中正路589巷3號","121.485798333333","24.9941916666667","6500300","中和區"
"235056","096-UM","2017/10/13 18:19:40","新北市中和區員山路611巷1號","121.477881666667","25.0113183333333","6500300","中和區"
"235039","097-UM","2017/10/13 18:19:43","新北市中和區中正路275號","121.495498333333","24.9937416666667","6500300","中和區"
"235065","098-UM","2017/10/13 18:19:51","新北市中和區橋和路97號","121.490625","25.0056416666667","6500300","中和區"
"235040","150-BY","2017/10/13 18:19:41","新北市中和區中正路18號","121.502771666667","24.9937083333333","6500300","中和區"
"235058","151-BY","2017/10/13 18:19:54","新北市中和區圓通路367巷7號","121.492221666667","24.9879416666667","6500300","中和區"
"235055","183-VK","2017/10/13 18:19:52","新北市中和區員山路36巷16-3號","121.485123333333","24.9914333333333","6500300","中和區"
"235038","185-VK","2017/10/13 18:19:44","新北市中和區大智街81號","121.521668333333","24.9923083333333","6500300","中和區"
"235067","255-BX","2017/10/13 18:19:43","新北市中和區和城路一段271巷1號","121.48549","24.991855","6500300","中和區"
"235043","352-BY","2017/10/13 18:19:36","新北市中和區中正路161巷2號","121.498258333333","24.9936916666667","6500300","中和區"
"235051","376-QA","2017/10/13 18:19:49","新北市中和區南山路260號","121.507875","24.9883966666667","6500300","中和區"
"235061","378-QA","2017/10/13 18:19:44","新北市中和區國光街215巷24弄1號","121.467016666667","25.0003633333333","6500300","中和區"
"235050","4979-A6","2017/10/13 18:19:37","新北市中和區捷運路57號","121.50918","24.9895216666667","6500300","中和區"
"235069","4980-A6","2017/10/13 18:19:36","新北市中和區連城路125號","121.496251666667","24.9991083333333","6500300","中和區"
"235042","551-UM","2017/10/13 18:19:36","新北市中和區景平路162號","121.517238333333","24.99214","6500300","中和區"
"235070","558-UM","2017/10/13 18:16:33","新北市中和區中正路408號","121.492266666667","24.9938966666667","6500300","中和區"
"235045","565-BX","2017/10/13 18:19:51","新北市中和區景安路200巷2弄2號","121.503915","24.9914783333333","6500300","中和區"
"235054","640-BX","2017/10/13 18:19:54","新北市中和區莒光路203號","121.47248","24.9988333333333","6500300","中和區"
"235060","647-TV","2017/10/13 18:19:40","新北市中和區連城路523巷13弄10號","121.481911666667","24.993665","6500300","中和區"
"235047","732-UM","2017/10/13 18:19:35","新北市中和區錦和路350-1號","121.490533333333","24.993615","6500300","中和區"
"235046","733-UM","2017/10/13 18:19:48","新北市中和區員山路36巷13號","121.484143333333","24.990845","6500300","中和區"
"235062","800-TS","2017/10/13 18:19:40","新北市中和區橋和路81號","121.489496666667","25.0053016666667","6500300","中和區"
"235057","801-TS","2017/10/13 18:19:42","新北市中和區建八路1號","121.48548","24.9986666666667","6500300","中和區"
"235052","805-TS","2017/10/13 18:19:39","新北市中和區中正路2號","121.503256666667","24.9938016666667","6500300","中和區"
"235048","896-TW","2017/10/13 18:19:48","新北市中和區中正路637巷52弄1號","121.485588333333","24.9936066666667","6500300","中和區"
"235053","900-TW","2017/10/13 18:19:36","新北市中和區員山路36巷13號","121.484301666667","24.990765","6500300","中和區"
"235037","AAC-213","2017/10/13 18:19:34","新北市中和區景德街26號","121.518423333333","24.9913433333333","6500300","中和區"
"235059","AAC-215","2017/10/13 16:52:59","新北市中和區員山路36巷16-3號","121.485098333333","24.9914216666667","6500300","中和區"
"220065","072-UY","2017/10/13 18:19:44","新北市板橋區華東街1-9號","121.448128333333","24.9949416666667","6500100","板橋區"
"220068","120-SR","2017/10/13 18:19:41","新北市板橋區民生路二段120號","121.470415","25.019765","6500100","板橋區"
"226004","312-R5","2017/10/13 18:19:36","新北市平溪區靜安路二段76號","121.716895","25.0220016666667","6502400","平溪區"
"228001","212-TW","2017/10/13 18:19:40","新北市貢寮區真理里新港街26巷55弄2號","121.927445","25.052945","6502600","貢寮區"
"228002","663-BX","2017/10/13 18:19:45","新北市貢寮區福連里福興街38-2號","121.99145","25.01214","6502600","貢寮區"
"228003","828-UM","2017/10/13 18:19:37","新北市貢寮區真理里美艷山街64-2號","121.92028","25.072285","6502600","貢寮區"
"224006","676-BX","2017/10/13 18:19:37","新北市瑞芳區民權街3-2號","121.808076666667","25.1074666666667","6501200","瑞芳區"
"224002","639-TC","2017/10/13 18:19:46","新北市瑞芳區三爪子坑路91巷22號","121.811626666667","25.10677","6501200","瑞芳區"
"224009","285-BY","2017/10/13 18:19:43","新北市瑞芳區新山路31號","121.855905","25.1083416666667","6501200","瑞芳區"
"224008","275-VK","2017/10/13 18:19:45","新北市瑞芳區逢甲路76-1號","121.81039","25.1083516666667","6501200","瑞芳區"
"224007","273-VK","2017/10/13 18:19:45","新北市瑞芳區大埔路23巷18號","121.764693333333","25.1014816666667","6501200","瑞芳區"
"224005","271-BY","2017/10/13 18:19:54","新北市瑞芳區建基新村28號","121.812636666667","25.1294516666667","6501200","瑞芳區"
"227003","642-TC","2017/10/13 18:19:43","新北市雙溪區共和里中山路2號","121.863773333333","25.0338516666667","6502500","雙溪區"
"227011","030-BX","2017/10/13 18:19:39","新北市雙溪區牡丹里牡丹73號","121.85172","25.059395","6502500","雙溪區"
"253005","032-BX","2017/10/13 18:19:41","新北市石門區中央路2號","121.564281666667","25.291175","6502200","石門區"
"253006","295-VK","2017/10/13 18:19:51","新北市石門區老梅路51-1號","121.545585","25.28932","6502200","石門區"
"208002","742-BX","2017/10/13 18:19:51","新北市金山區磺清路135號","121.639316666667","25.22738","6502700","金山區"
"208003","665-BX","2017/10/13 18:19:52","新北市金山區民生路51巷1-2號","121.641831666667","25.2198883333333","6502700","金山區"
"208001","761-BX","2017/10/13 18:19:45","新北市金山區自強路24號","121.640345","25.21667","6502700","金山區"
"251004","009-UM","2017/10/13 18:19:42","新北市淡水區民族路31巷19號","121.462135","25.1363666666667","6501000","淡水區"
"251002","012-UM","2017/10/13 18:19:44","新北市淡水區竿蓁二街7號","121.452961666667","25.16281","6501000","淡水區"
"251013","179-VK","2017/10/13 18:19:45","新北市淡水區行忠路850號","121.477648333333","25.200125","6501000","淡水區"
"251008","181-VK","2017/10/13 18:19:43","新北市淡水區鄧公路278巷1號","121.46089","25.16823","6501000","淡水區"
"251015","182-VK","2017/10/13 17:46:12","新北市淡水區興福寮25-1號","121.492218333333","25.16455","6501000","淡水區"
"251010","413-VK","2017/10/13 18:19:46","新北市淡水區淡海路203號","121.420338333333","25.1849183333333","6501000","淡水區"
"251012","441-VK","2017/10/13 18:19:55","新北市淡水區北新路二段75號","121.47991","25.1856716666667","6501000","淡水區"
"251005","443-VK","2017/10/13 18:19:38","新北市淡水區水源街一段122巷14號","121.447193333333","25.17124","6501000","淡水區"
"251001","559-UM","2017/10/13 18:19:53","新北市淡水區自強路110-8號","121.461478333333","25.1314433333333","6501000","淡水區"
"251006","561-UM","2017/10/13 18:19:42","新北市淡水區新民街76巷13號","121.438913333333","25.1769533333333","6501000","淡水區"
"251011","650-BX","2017/10/13 18:19:47","新北市淡水區坪頂路50號","121.457958333333","25.16258","6501000","淡水區"
"251003","673-BX","2017/10/13 18:19:32","新北市淡水區北新路180號","121.449418333333","25.1787783333333","6501000","淡水區"
"207003","291-VK","2017/10/13 18:19:49","新北市萬里區野柳里港東路62-1號","121.687596666667","25.2038383333333","6502800","萬里區"
"207004","225-TW","2017/10/13 18:19:53","新北市萬里區中幅里中福路39-1號","121.677896666667","25.1663966666667","6502800","萬里區"
"252002","178-VK","2017/10/13 18:19:33","新北市三芝區中山路二段33號","121.50278","25.25518","6502100","三芝區"
"252003","249-BX","2017/10/13 18:19:49","新北市三芝區錫板里海尾14-7號","121.477265","25.25895","6502100","三芝區"
"252001","292-VK","2017/10/13 18:19:53","新北市三芝區中興街二段2號","121.498331666667","25.256685","6502100","三芝區"
"237004","078-UY","2017/10/13 18:19:53","新北市三峽區五寮81-1號","121.359606666667","24.85849","6500900","三峽區"
"237007","153-BY","2017/10/13 18:19:53","新北市三峽區中正路二段451號","121.362385","24.9067516666667","6500900","三峽區"
"237009","210-TH","2017/10/13 18:19:46","新北市三峽區中山路138-1號","121.3652","24.93621","6500900","三峽區"
"237013","252-BX","2017/10/13 18:19:50","新北市三峽區永安街3號","121.378011666667","24.9299533333333","6500900","三峽區"
"237012","275-BY","2017/10/13 18:19:50","新北市三峽區民生街1巷3-7號","121.37709","24.9363166666667","6500900","三峽區"
"237008","302-VK","2017/10/13 18:19:42","新北市三峽區白雞68-19號","121.391895","24.9093","6500900","三峽區"
"237014","433-BY","2017/10/13 18:19:44","新北市三峽區復興路110巷1弄2號","121.372763333333","24.938125","6500900","三峽區"
"237006","5529-G3","2017/10/13 18:19:51","新北市三峽區溪東路473巷2號","121.413861666667","24.928155","6500900","三峽區"
"237011","572-TV","2017/10/13 12:52:53","新北市三峽區中山路459巷163-3號","121.348781666667","24.933","6500900","三峽區"
"237015","649-BX","2017/10/13 18:19:39","新北市三峽區紫微南路11號","121.42548","24.9219","6500900","三峽區"
"237010","706-TV","2017/10/13 18:19:37","新北市三峽區中山路321-2號","121.361035","24.93789","6500900","三峽區"
"237005","AKY-6261","2017/10/13 18:19:44","新北市三峽區忠孝街25-9號","121.371475","24.9343783333333","6500900","三峽區"
"236072","105-UM","2017/10/13 18:19:50","新北市土城區永豐路135巷1號","121.466685","24.9833833333333","6501300","土城區"
"236043","107-UM","2017/10/13 18:19:54","新北市土城區裕生路21巷6弄22號","121.448548333333","24.9866466666667","6501300","土城區"
"236079","166-UM","2017/10/13 18:19:51","新北市土城區永平街29號","121.428473333333","24.962355","6501300","土城區"
"236031","253-BX","2017/10/13 18:19:50","新北市土城區中央路二段180巷10號","121.441271666667","24.9764433333333","6501300","土城區"
"236027","269-VK","2017/10/13 18:19:36","新北市土城區承天路18號","121.439478333333","24.9634016666667","6501300","土城區"
"236015","270-VK","2017/10/13 18:19:38","新北市土城區青雲路39巷7號","121.460276666667","24.9873483333333","6501300","土城區"
"236039","271-VK","2017/10/13 18:19:55","新北市土城區青雲路451巷5號","121.459216666667","24.9746766666667","6501300","土城區"
"236022","401-BY","2017/10/13 18:19:51","新北市土城區中央路一段262巷23號","121.44303","24.984","6501300","土城區"
"236059","912-UM","2017/10/13 18:19:52","新北市土城區中央路四段442-1號","121.410576666667","24.9513883333333","6501300","土城區"
"236050","913-UM","2017/10/13 18:19:45","新北市土城區明德路一段288-2號","121.456471666667","24.977715","6501300","土城區"
"236063","915-UM","2017/10/13 18:19:49","新北市土城區金城路三段202-3號","121.46955","24.9886266666667","6501300","土城區"
"236055","AAC-216","2017/10/13 18:19:34","新北市土城區中華路二段92號","121.438248333333","24.9748016666667","6501300","土城區"
"242032","AAC-296","2017/10/13 18:19:40","新北市新莊區新泰路255巷23號","121.445156666667","25.0396666666667","6500500","新莊區"
"242029","986-R7","2017/10/13 18:19:39","新北市新莊區中平路156號","121.444768333333","25.0473633333333","6500500","新莊區"
"242050","751-BX","2017/10/13 18:19:33","新北市新莊區民本街7號","121.42767","25.0199033333333","6500500","新莊區"
"242025","615-BX","2017/10/13 18:19:45","新北市新莊區五權一路12巷9弄17號","121.45777","25.0652933333333","6500500","新莊區"
"242023","613-BX","2017/10/13 18:19:47","新北市新莊區新泰路500號","121.44185","25.0462","6500500","新莊區"
"242027","612-BX","2017/10/13 18:19:34","新北市新莊區幸福路818號","121.445465","25.0491033333333","6500500","新莊區"
"242039","566-BX","2017/10/13 18:19:40","新北市新莊區民安東路189號","121.43328","25.0205116666667","6500500","新莊區"
"242044","497-BY","2017/10/13 18:19:51","新北市新莊區雙鳳路110號","121.41371","25.028235","6500500","新莊區"
"242002","442-UM","2017/10/13 18:19:45","新北市新莊區新莊路415-5號","121.451261666667","25.03275","6500500","新莊區"
"242054","440-UM","2017/10/13 18:19:54","新北市新莊區光華街18號","121.428776666667","25.0109983333333","6500500","新莊區"
"242005","413-TV","2017/10/13 18:19:53","新北市新莊區新泰路528號","121.441991666667","25.047175","6500500","新莊區"
"242041","400-BY","2017/10/13 18:19:46","新北市新莊區天祥街121巷22號","121.414153333333","25.0289966666667","6500500","新莊區"
"242060","362-BY","2017/10/13 18:19:47","新北市新莊區後港一路139號","121.429636666667","25.0274433333333","6500500","新莊區"
"242058","353-BY","2017/10/13 18:19:51","新北市新莊區中正路808號","121.410016666667","25.02098","6500500","新莊區"
"242007","132-UY","2017/10/13 18:19:51","新北市新莊區自治街31號","121.45398","25.0480066666667","6500500","新莊區"
"242037","133-UY","2017/10/13 18:19:49","新北市新莊區後港一路65巷11弄12號","121.42578","25.0271883333333","6500500","新莊區"
"242021","135-UY","2017/10/13 18:19:45","新北市新莊區新興街16號","121.450725","25.0363616666667","6500500","新莊區"
"242046","172-VK","2017/10/13 18:19:39","新北市新莊區中正路829巷22弄4號","121.421373333333","25.0271816666667","6500500","新莊區"
"242009","173-VK","2017/10/13 18:19:45","新北市新莊區中華路二段126號","121.453103333333","25.0491433333333","6500500","新莊區"
"242015","175-VK","2017/10/13 18:19:38","新北市新莊區中平路152巷15號","121.445553333333","25.0473983333333","6500500","新莊區"
"242056","349-TH","2017/10/13 18:19:47","新北市新莊區豐年街51巷23號","121.44778","25.03188","6500500","新莊區"
"242017","350-TH","2017/10/13 18:19:50","新北市新莊區中正路274號","121.447385","25.0351","6500500","新莊區"
"242011","351-TH","2017/10/13 18:19:38","新北市新莊區中港路中慶巷27弄13號","121.45007","25.05328","6500500","新莊區"
"238015","755-BX","2017/10/13 18:19:47","新北市樹林區啟智街82-12號","121.418788333333","24.990505","6500700","樹林區"
"238023","601-UM","2017/10/13 18:19:37","新北市樹林區三福街72號","121.404463333333","25.0162033333333","6500700","樹林區"
"238019","599-UM","2017/10/13 18:19:54","新北市樹林區國凱街140巷4號","121.423846666667","24.9804833333333","6500700","樹林區"
"238018","571-TV","2017/10/13 18:19:45","新北市板橋區大觀路三段265號","121.429073333333","24.992355","6500700","樹林區"
"238024","5061-A6","2017/10/13 18:19:39","新北市樹林區文化街28號","121.419363333333","24.9877283333333","6500700","樹林區"
"238021","KEA-2217","2017/10/13 18:19:35","新北市樹林區柑園街一段242-1號","121.391751666667","24.9564433333333","6500700","樹林區"
"238022","KEA-2213","2017/10/13 18:19:35","新北市樹林區太平路150巷12號","121.417998333333","24.9778383333333","6500700","樹林區"
"238025","303-VK","2017/10/13 18:19:49","新北市樹林區保安街一段227號","121.420318333333","24.9964433333333","6500700","樹林區"
"238017","283-BY","2017/10/13 18:19:39","新北市樹林區中正路628號","121.410101666667","25.01602","6500700","樹林區"
"238014","282-BY","2017/10/13 18:19:48","新北市樹林區潭興街91巷16號","121.424178333333","24.9989383333333","6500700","樹林區"
"238020","268-VK","2017/10/13 18:19:38","新北市樹林區三俊街63號","121.413573333333","25.0158083333333","6500700","樹林區"
"238026","172-UY","2017/10/13 18:19:46","新北市樹林區佳園路一段75巷30號","121.395531666667","24.97011","6500700","樹林區"
"238016","169-UY","2017/10/13 18:19:50","新北市樹林區文化街28號","121.419325","24.9877666666667","6500700","樹林區"
"239007","AAC-297","2017/10/13 18:19:46","新北市鶯歌區重慶街65號","121.349605","24.9517283333333","6500800","鶯歌區"
"239006","891-R6","2017/10/13 18:19:52","新北市鶯歌區德昌街88號","121.33253","24.96017","6500800","鶯歌區"
"239008","527-UM","2017/10/13 18:19:35","新北市鶯歌區國際一路179號","121.336238333333","24.97654","6500800","鶯歌區"
"239005","526-UM","2017/10/13 18:19:42","新北市鶯歌區鳳吉二街29號","121.325978333333","24.973115","6500800","鶯歌區"
"239001","417-VK","2017/10/13 18:19:46","新北市鶯歌區國中街178號","121.338265","24.9393133333333","6500800","鶯歌區"
"239003","360-BY","2017/10/13 18:19:43","新北市鶯歌區福安街58號","121.335563333333","24.9652233333333","6500800","鶯歌區"
"239002","359-BY","2017/10/13 18:19:44","新北市鶯歌區建國路156號","121.350695","24.9538483333333","6500800","鶯歌區"
"239004","193-VK","2017/10/13 18:19:45","新北市鶯歌區尖山路269號","121.341103333333","24.9437416666667","6500800","鶯歌區"
"221008","489-VK","2017/10/13 18:19:33","新北市汐止區康寧街647號","121.637438333333","25.072165","6501100","汐止區"
"221036","130-UY","2017/10/13 18:19:41","新北市汐止區長安路77巷2號","121.66917","25.0784733333333","6501100","汐止區"
"221015","131-UY","2017/10/13 18:19:46","新北市汐止區鄉長路二段23巷12號","121.667501666667","25.0829933333333","6501100","汐止區"
"221010","269-BY","2017/10/13 18:19:45","新北市汐止區祥雲街40號","121.647391666667","25.0894933333333","6501100","汐止區"
"221012","276-VK","2017/10/13 13:25:25","新北市汐止區汐萬路一段256巷3號","121.653438333333","25.074685","6501100","汐止區"
"221012","278-VK","2017/10/13 18:19:51","新北市汐止區保長路35巷13號","121.673246666667","25.0800733333333","6501100","汐止區"
"221023","279-VK","2017/10/13 18:19:37","新北市汐止區康寧街430號","121.631245","25.067555","6501100","汐止區"
"221032","280-BY","2017/10/13 18:19:45","新北市汐止區橫科路2巷1號","121.61697","25.0513483333333","6501100","汐止區"
"221027","281-BY","2017/10/13 18:19:47","新北市汐止區和平街34-2號","121.662681666667","25.0708733333333","6501100","汐止區"
"221029","298-VK","2017/10/13 18:19:45","新北市汐止區樟樹一路207號","121.642703333333","25.06913","6501100","汐止區"
"221021","299-VK","2017/10/13 18:19:45","新北市汐止區大同路二段184巷8號","121.65328","25.064065","6501100","汐止區"
"221031","353-TW","2017/10/13 18:19:44","新北市汐止區中興路158-1號","121.632278333333","25.065075","6501100","汐止區"
"221035","622-UM","2017/10/13 18:19:53","新北市汐止區大同路二段169巷34號","121.650756666667","25.06507","6501100","汐止區"
"221025","623-UM","2017/10/13 18:19:50","新北市汐止區勤進路12巷49號","121.658993333333","25.0629316666667","6501100","汐止區"
"221038","646-BX","2017/10/13 18:19:39","新北市汐止區仁愛路180號","121.664923333333","25.0657283333333","6501100","汐止區"
"221033","647-BX","2017/10/13 18:19:39","新北市汐止區宜興街40巷1號","121.622","25.042075","6501100","汐止區"
"221002","707-TV","2017/10/13 18:19:47","新北市汐止區福德一路213巷35號","121.63577","25.0648333333333","6501100","汐止區"
"221018","753-BX","2017/10/13 18:19:42","新北市汐止區茄苳路118號","121.668195","25.07032","6501100","汐止區"
"220082","610-BX","2017/10/13 18:19:49","新北市板橋區華東街1-10號","121.448266666667","24.994945","6500100","板橋區"
"242034","280-VK","2017/10/13 18:19:53","新北市新莊區景德路262號","121.448463333333","25.0336966666667","6500500","新莊區"
