"lineid","car","time","location","longitude","latitude","cityid","cityname"
"234046","148-BY","2017/10/13 18:37:35","新北市永和區福和路7巷12弄1-1號","121.525473333333","25.0073616666667","6500400","永和區"
"234013","149-BY","2017/10/13 18:37:50","新北市永和區環河東路一段106號","121.520195","25.0161883333333","6500400","永和區"
"234007","207-UY","2017/10/13 18:37:34","新北市永和區文化路170號","121.51175","25.0155533333333","6500400","永和區"
"234064","337-UY","2017/10/13 18:37:36","新北市永和區福和路1號","121.526388333333","25.0100366666667","6500400","永和區"
"234086","338-UY","2017/10/13 18:37:37","新北市永和區永貞路128號","121.518495","25.0044966666667","6500400","永和區"
"234054","553-UM","2017/10/13 18:37:39","新北市永和區福和路1號","121.525873333333","25.0098183333333","6500400","永和區"
"234042","862-TW","2017/10/13 18:37:52","新北市永和區福和路72號","121.52312","25.008095","6500400","永和區"
"234050","863-TW","2017/10/13 18:37:35","新北市永和區福和路1號","121.526098333333","25.0098933333333","6500400","永和區"
"234026","9371-KE","2017/10/13 18:37:38","新北市永和區永貞路408號","121.508971666667","25.00784","6500400","永和區"
"234011","9373-KE","2017/10/13 18:37:37","新北市永和區文化路9巷22弄60號","121.5138","25.01454","6500400","永和區"
"249005","172-UM","2017/10/13 18:37:42","新北市八里區中華路三段232號","121.388425","25.1245783333333","6502300","八里區"
"249001","173-UM","2017/10/13 18:37:43","新北市八里區龍米路一段360號","121.451571666667","25.1313733333333","6502300","八里區"
"249004","303-UY","2017/10/13 18:37:39","新北市八里區龍米路三段60號","121.423645","25.1590166666667","6502300","八里區"
"249002","305-UY","2017/10/13 18:37:37","新北市八里區龍形一街33巷1-1號","121.44934","25.1301416666667","6502300","八里區"
"248014","025-BX","2017/10/13 18:37:46","新北市五股區蓬萊路24號","121.4342","25.0798183333333","6501500","五股區"
"248016","026-BX","2017/10/13 18:37:52","新北市五股區凌雲路一段149巷20號","121.448885","25.10177","6501500","五股區"
"248008","095-VK","2017/10/13 18:37:44","新北市五股區中興路一段142-2號","121.464761666667","25.07382","6501500","五股區"
"248018","225-UY","2017/10/13 18:37:50","新北市五股區民義路二段54-1號","121.406523333333","25.10747","6501500","五股區"
"248012","247-BX","2017/10/13 18:37:45","新北市五股區御史路24號","121.44207","25.0914816666667","6501500","五股區"
"248010","272-BY","2017/10/13 18:37:43","新北市五股區水碓一路53號","121.431366666667","25.0718933333333","6501500","五股區"
"248004","677-BX","2017/10/13 18:37:36","新北市五股區六合街3號","121.431943333333","25.0885516666667","6501500","五股區"
"248002","678-BX","2017/10/13 17:56:33","新北市五股區中興路二段37巷28號","121.460116666667","25.0749716666667","6501500","五股區"
"234023","9380-KE","2017/10/13 18:37:48","新北市永和區福和路52號","121.523453333333","25.0081866666667","6500400","永和區"
"234077","969-R7","2017/10/13 18:37:36","新北市永和區福和路64號","121.523351666667","25.0080816666667","6500400","永和區"
"234067","AAC-212","2017/10/13 18:37:50","新北市永和區福和路51號","121.523301666667","25.0078966666667","6500400","永和區"
"234003","AAC-295","2017/10/13 14:58:08","新北市永和區福和路1號","121.526456666667","25.010115","6500400","永和區"
"232011","375-UM","2017/10/13 18:13:38","新北市坪林區坪雙路一段43號","121.711716666667","24.942505","6502000","坪林區"
"244013","069-UM","2017/10/13 18:37:41","新北市林口區中正路416號","121.384605","25.0778783333333","6501700","林口區"
"244007","080-UY","2017/10/13 18:37:52","新北市林口區太平里19號","121.377833333333","25.1159766666667","6501700","林口區"
"244019","403-UM","2017/10/13 18:37:42","新北市林口區忠孝路561巷13號","121.373165","25.0687766666667","6501700","林口區"
"244025","742-UY","2017/10/13 18:37:34","新北市林口區南勢里53-6號","121.355043333333","25.0749366666667","6501700","林口區"
"244009","410-SL","2017/10/13 18:37:39","新北市林口區民生路154號","121.379371666667","25.0880533333333","6501700","林口區"
"244023","483-VK","2017/10/13 18:37:52","新北市林口區文化二路二段88巷29號","121.380445","25.0804483333333","6501700","林口區"
"244017","485-VK","2017/10/13 18:37:50","新北市林口區文化二路一段92-2號","121.366558333333","25.069885","6501700","林口區"
"244011","656-BX","2017/10/13 18:37:48","新北市林口區中正路57巷12弄16號","121.394871666667","25.07665","6501700","林口區"
"244021","838-TS","2017/10/13 18:37:50","新北市林口區工六路17號","121.400043333333","25.0775666666667","6501700","林口區"
"243013","AAD-798","2017/10/13 18:37:46","新北市泰山區明志路三段206巷3號","121.423338333333","25.037975","6501600","泰山區"
"243012","646-TV","2017/10/13 18:37:36","新北市泰山區泰林路二段240號","121.432153333333","25.062125","6501600","泰山區"
"222001","016-RS","2017/10/13 18:37:53","新北市深坑區北深路一段280號","121.628828333333","25.00839","6501800","深坑區"
"222003","436-BY","2017/10/13 18:37:36","新北市深坑區翠谷街36號","121.627193333333","25.0092233333333","6501800","深坑區"
"222001","628-TS","2017/10/13 18:37:37","新北市深坑區深南路88巷1號","121.621095","25.0117383333333","6501800","深坑區"
"222002","659-BX","2017/10/13 18:37:41","新北市深坑區文山路一段62巷33號","121.621168333333","25.0002133333333","6501800","深坑區"
"231041","002-UM","2017/10/13 18:37:47","新北市新店區安華路28-1號","121.519706666667","24.96085","6500600","新店區"
"231059","046-UY","2017/10/13 18:37:35","新北市新店區安華路28-1號","121.519545","24.96079","6500600","新店區"
"231061","047-UY","2017/10/13 18:37:36","新北市新店區安華路28-1號","121.519235","24.9609383333333","6500600","新店區"
"231060","106-UY","2017/10/13 18:37:34","新北市新店區安華路28-1號","121.519605","24.960775","6500600","新店區"
"231048","108-UY","2017/10/13 18:37:40","新北市新店區安康路一段222-1號","121.522846666667","24.963695","6500600","新店區"
"231051","110-UY","2017/10/13 18:37:40","新北市新店區安康路一段228號","121.52318","24.9636516666667","6500600","新店區"
"231053","187-VK","2017/10/13 18:37:39","新北市新店區新烏路一段58-2號","121.545991666667","24.9475","6500600","新店區"
"231050","KEA-2219","2017/10/13 18:37:41","新北市新店區安華路28-1號","121.519865","24.9611983333333","6500600","新店區"
"231057","256-BX","2017/10/13 18:37:53","新北市新店區永興路15號","121.544455","24.9389883333333","6500600","新店區"
"231046","278-BY","2017/10/13 18:37:50","新北市新店區直潭二街1號","121.535543333333","24.9432516666667","6500600","新店區"
"231054","AAD-862","2017/10/13 18:37:46","新北市新店區安華路28-1號","121.519871666667","24.9612383333333","6500600","新店區"
"231058","3712-VJ","2017/10/13 18:37:42","新北市新店區新店後街26號","121.537891666667","24.9533883333333","6500600","新店區"
"231055","3713-VJ","2017/10/13 18:37:48","新北市新店區中正路218號","121.540388333333","24.9726133333333","6500600","新店區"
"231056","4716-K9","2017/10/13 18:37:42","新北市新店區自立街62號","121.537773333333","24.9794366666667","6500600","新店區"
"231067","4772-VM","2017/10/13 18:37:32","新北市新店區安華路28-1號","121.519195","24.9606783333333","6500600","新店區"
"231065","513-UM","2017/10/13 18:37:47","新北市新店區安華路28-1號","121.519258333333","24.9612016666667","6500600","新店區"
"231064","515-UM","2017/10/13 18:37:43","新北市新店區安華路28-1號","121.519645","24.9611183333333","6500600","新店區"
"231045","617-UM","2017/10/13 18:37:51","新北市新店區安華路28-1號","121.519495","24.9609316666667","6500600","新店區"
"231040","619-UM","2017/10/13 18:37:38","新北市新店區安華路28-1號","121.519588333333","24.9608833333333","6500600","新店區"
"231042","641-BX","2017/10/13 18:37:34","新北市新店區安華路28-1號","121.519566666667","24.96055","6500600","新店區"
"231063","645-TV","2017/10/13 18:37:38","新北市新店區安華路28-1號","121.519326666667","24.96069","6500600","新店區"
"231049","719-UM","2017/10/13 18:37:33","新北市新店區安康路一段230-1號","121.522466666667","24.9637383333333","6500600","新店區"
"231062","720-UM","2017/10/13 18:37:41","新北市新店區安華路28-1號","121.519213333333","24.9612433333333","6500600","新店區"
"231044","897-TW","2017/10/13 18:37:47","新北市新店區溪洲路69號","121.533121666667","24.960435","6500600","新店區"
"231043","899-TW","2017/10/13 18:37:36","新北市新店區安華路28-1號","121.519266666667","24.9608916666667","6500600","新店區"
"231066","AKT-0513","2017/10/13 18:37:33","新北市新店區安華路1-1號","121.519491666667","24.960475","6500600","新店區"
"241024","065-VK","2017/10/13 18:35:51","新北市五股區中直路13-7號","121.424223333333","25.110765","6500200","三重區"
"235066","003-UY","2017/10/13 18:37:43","新北市中和區水源路31號","121.504201666667","25.0036066666667","6500300","中和區"
"235064","005-UY","2017/10/13 18:37:46","新北市中和區連城路139巷56號","121.496813333333","24.9972466666667","6500300","中和區"
"235063","006-UY","2017/10/13 18:37:49","新北市中和區連城路389巷8號","121.486548333333","24.995705","6500300","中和區"
"235056","096-UM","2017/10/13 18:37:40","新北市板橋區三民路二段220巷19號","121.477941666667","25.01138","6500300","中和區"
"235039","097-UM","2017/10/13 18:37:48","新北市中和區安平路160號","121.51258","24.9986433333333","6500300","中和區"
"235065","098-UM","2017/10/13 18:37:51","新北市中和區莊敬路49巷20弄32號","121.50326","25.0051583333333","6500300","中和區"
"235040","150-BY","2017/10/13 18:37:41","新北市中和區安平路38號","121.509871666667","24.995005","6500300","中和區"
"235058","151-BY","2017/10/13 18:37:33","新北市中和區圓通路369巷39號","121.489776666667","24.9863883333333","6500300","中和區"
"235055","183-VK","2017/10/13 18:37:52","新北市中和區民生街91號","121.468583333333","25.0047816666667","6500300","中和區"
"235038","185-VK","2017/10/13 18:37:44","新北市永和區民有街75巷10弄18號","121.519043333333","24.9959983333333","6500300","中和區"
"235049","186-VK","2017/10/13 18:37:48","新北市中和區景安路137號","121.505675","24.9957683333333","6500300","中和區"
"235067","255-BX","2017/10/13 18:37:43","新北市中和區新生街12號","121.483145","25.00449","6500300","中和區"
"235044","293-VK","2017/10/13 18:37:42","新北市中和區復興路261號","121.50283","24.9902266666667","6500300","中和區"
"235072","301-VK","2017/10/13 18:37:46","新北市中和區連城路133-1號","121.495868333333","24.9989833333333","6500300","中和區"
"235043","352-BY","2017/10/13 18:37:36","新北市中和區景平路149號","121.513726666667","24.9922916666667","6500300","中和區"
"235068","375-QA","2017/10/13 18:37:43","新北市中和區中正路155號","121.498935","24.9933766666667","6500300","中和區"
"235051","376-QA","2017/10/13 18:37:49","新北市中和區興南路二段114巷12號","121.503925","24.9844583333333","6500300","中和區"
"235061","378-QA","2017/10/13 18:37:37","新北市中和區民享街88巷10號","121.474046666667","25.0005266666667","6500300","中和區"
"235050","4979-A6","2017/10/13 18:37:37","新北市中和區景新街496巷28弄12號","121.513031666667","24.9859633333333","6500300","中和區"
"235069","4980-A6","2017/10/13 18:37:36","新北市中和區連城路67號","121.497503333333","25.0013583333333","6500300","中和區"
"235042","551-UM","2017/10/13 18:37:36","新北市中和區成功路107巷3號","121.526283333333","24.99127","6500300","中和區"
"235070","558-UM","2017/10/13 18:37:33","新北市中和區南華路1巷3號","121.501971666667","24.9955916666667","6500300","中和區"
"235045","565-BX","2017/10/13 18:37:37","新北市中和區復興路49巷2號","121.504641666667","24.989865","6500300","中和區"
"235054","640-BX","2017/10/13 18:37:54","新北市中和區民享街93巷8號","121.475243333333","25.0006566666667","6500300","中和區"
"235060","647-TV","2017/10/13 18:37:40","新北市中和區員山路441號","121.480575","25.0039933333333","6500300","中和區"
"235047","732-UM","2017/10/13 18:37:35","新北市中和區南山路320巷3號","121.507655","24.9865066666667","6500300","中和區"
"235046","733-UM","2017/10/13 18:37:48","新北市中和區南山路389號","121.506455","24.990315","6500300","中和區"
"235062","800-TS","2017/10/13 18:37:41","新北市中和區中山路二段312巷45弄1號","121.494978333333","25.0044116666667","6500300","中和區"
"235057","801-TS","2017/10/13 18:37:42","新北市中和區民安街41號","121.479871666667","25.0003666666667","6500300","中和區"
"235041","802-TS","2017/10/13 18:37:35","新北市中和區景平路349號","121.504943333333","24.9933983333333","6500300","中和區"
"235052","805-TS","2017/10/13 18:37:39","新北市中和區興南路二段252號","121.503091666667","24.9819433333333","6500300","中和區"
"235048","896-TW","2017/10/13 18:37:48","新北市中和區南山路305號","121.504861666667","24.9916533333333","6500300","中和區"
"235053","900-TW","2017/10/13 18:37:36","新北市中和區莒光路211-37號","121.470233333333","24.9932066666667","6500300","中和區"
"235037","AAC-213","2017/10/13 18:37:50","新北市中和區景平路111巷26-1號","121.516038333333","24.9906583333333","6500300","中和區"
"235059","AAC-215","2017/10/13 18:37:51","新北市中和區錦和路350-1號","121.490486666667","24.9935733333333","6500300","中和區"
"220065","072-UY","2017/10/13 18:37:44","新北市板橋區華東街11號","121.451066666667","24.9981516666667","6500100","板橋區"
"220086","073-UY","2017/10/13 18:37:36","新北市板橋區南雅西路二段95巷18號","121.451838333333","25.0099833333333","6500100","板橋區"
"220068","120-SR","2017/10/13 18:37:41","新北市板橋區民生路二段120號","121.470438333333","25.01979","6500100","板橋區"
"226004","312-R5","2017/10/13 18:37:36","新北市平溪區平溪里三坑路17號","121.736803333333","25.02852","6502400","平溪區"
"228001","212-TW","2017/10/13 18:37:40","新北市貢寮區仁理村保健街73號","121.923731666667","25.0516933333333","6502600","貢寮區"
"228002","663-BX","2017/10/13 18:37:39","新北市貢寮區福隆里東興街6-11號","121.95078","25.02112","6502600","貢寮區"
"228003","828-UM","2017/10/13 18:37:36","新北市貢寮區和美里龍洞街42號","121.913013333333","25.112835","6502600","貢寮區"
"224010","AGQ-8101","2017/10/13 18:36:38","新北市瑞芳區烏勢巷108號","121.846271666667","25.1087516666667","6501200","瑞芳區"
"224006","676-BX","2017/10/13 18:37:37","新北市瑞芳區明燈路三段55號","121.806096666667","25.1081933333333","6501200","瑞芳區"
"224002","639-TC","2017/10/13 18:37:46","新北市瑞芳區靜安路四段155號","121.793096666667","25.11026","6501200","瑞芳區"
"224009","285-BY","2017/10/13 18:37:43","新北市瑞芳區祈堂路8號","121.858853333333","25.11424","6501200","瑞芳區"
"224008","275-VK","2017/10/13 18:37:45","新北市瑞芳區岳王路31號","121.80764","25.1111533333333","6501200","瑞芳區"
"224007","273-VK","2017/10/13 18:37:45","新北市瑞芳區大埔路115巷16號","121.763003333333","25.1012433333333","6501200","瑞芳區"
"224005","271-BY","2017/10/13 18:37:34","新北市瑞芳區連福新城3號","121.819503333333","25.119825","6501200","瑞芳區"
"227003","642-TC","2017/10/13 18:37:43","新北市雙溪區魚行里坤溪3-5號","121.876215","25.0207433333333","6502500","雙溪區"
"227011","030-BX","2017/10/13 18:37:39","新北市雙溪區牡丹里下坑11號","121.850978333333","25.05622","6502500","雙溪區"
"253005","032-BX","2017/10/13 18:37:41","新北市石門區石門街37號","121.56625","25.29051","6502200","石門區"
"253006","295-VK","2017/10/13 18:37:51","新北市石門區楓林28-5號","121.542621666667","25.2898433333333","6502200","石門區"
"208002","742-BX","2017/10/13 18:37:51","新北市金山區忠孝一路19巷17號","121.63748","25.217625","6502700","金山區"
"208003","665-BX","2017/10/13 18:37:52","新北市金山區中山路292號","121.634715","25.22452","6502700","金山區"
"208001","761-BX","2017/10/13 18:37:45","新北市金山區文化三路36號","121.635583333333","25.2247866666667","6502700","金山區"
"251004","009-UM","2017/10/13 18:37:42","新北市淡水區中正東路二段143巷6弄1號","121.461216666667","25.1475116666667","6501000","淡水區"
"251002","012-UM","2017/10/13 18:37:43","新北市淡水區中正東路一段17號","121.451601666667","25.1635833333333","6501000","淡水區"
"251013","179-VK","2017/10/13 18:37:41","新北市淡水區椿子林5-2號","121.482305","25.2057033333333","6501000","淡水區"
"251008","181-VK","2017/10/13 18:37:43","新北市淡水區北投子71-1號","121.453813333333","25.1820366666667","6501000","淡水區"
"251015","182-VK","2017/10/13 17:46:12","新北市淡水區興福寮25-1號","121.492218333333","25.16455","6501000","淡水區"
"251010","413-VK","2017/10/13 18:37:46","新北市淡水區沙崙路141號","121.423196666667","25.1830116666667","6501000","淡水區"
"251012","441-VK","2017/10/13 18:37:35","新北市淡水區北新路121號","121.448936666667","25.1787016666667","6501000","淡水區"
"251001","559-UM","2017/10/13 18:37:33","新北市淡水區自強路415巷2號","121.465518333333","25.1342583333333","6501000","淡水區"
"251006","561-UM","2017/10/13 18:37:42","新北市淡水區中山北路三段79號","121.444565","25.19241","6501000","淡水區"
"251011","650-BX","2017/10/13 18:37:47","新北市淡水區學府路32巷87號","121.448111666667","25.1677066666667","6501000","淡水區"
"251003","673-BX","2017/10/13 18:37:32","新北市淡水區北新路69巷26號","121.446553333333","25.180085","6501000","淡水區"
"207003","291-VK","2017/10/13 18:37:49","新北市萬里區大鵬里頂社2-1號","121.660353333333","25.2072533333333","6502800","萬里區"
"207004","225-TW","2017/10/13 18:37:53","新北市萬里區萬里里獅頭路10-1號","121.69202","25.1785383333333","6502800","萬里區"
"252002","178-VK","2017/10/13 18:37:33","新北市三芝區民生街54巷1號","121.503756666667","25.255445","6502100","三芝區"
"252003","249-BX","2017/10/13 18:37:49","新北市三芝區後厝里土地公坑55-10號","121.459476666667","25.2468083333333","6502100","三芝區"
"252001","292-VK","2017/10/13 18:37:53","新北市三芝區中興街二段54號","121.499636666667","25.2549783333333","6502100","三芝區"
"237004","078-UY","2017/10/13 18:37:33","新北市三峽區有木17號","121.426046666667","24.8632783333333","6500900","三峽區"
"237007","153-BY","2017/10/13 18:37:33","新北市三峽區中正路二段500號","121.361073333333","24.9065116666667","6500900","三峽區"
"237009","210-TH","2017/10/13 18:37:46","新北市三峽區弘園街48號","121.365818333333","24.9266566666667","6500900","三峽區"
"237013","252-BX","2017/10/13 18:37:36","新北市三峽區光明路69巷25號","121.376656666667","24.9292866666667","6500900","三峽區"
"237012","275-BY","2017/10/13 18:37:50","新北市三峽區三樹路340號","121.383893333333","24.9433383333333","6500900","三峽區"
"237008","302-VK","2017/10/13 18:37:42","新北市三峽區白雞67號","121.39709","24.9114816666667","6500900","三峽區"
"237014","433-BY","2017/10/13 18:37:44","新北市三峽區復興路159號","121.370475","24.9384433333333","6500900","三峽區"
"237006","5529-G3","2017/10/13 18:37:36","新北市三峽區溪東路307號","121.40986","24.9308183333333","6500900","三峽區"
"237011","572-TV","2017/10/13 12:52:53","新北市三峽區中山路459巷163-3號","121.348781666667","24.933","6500900","三峽區"
"237015","649-BX","2017/10/13 18:37:39","新北市三峽區安坑13-3號","121.44474","24.9266916666667","6500900","三峽區"
"237010","706-TV","2017/10/13 18:37:36","新北市三峽區復興路321號","121.364846666667","24.93885","6500900","三峽區"
"237005","AKY-6261","2017/10/13 18:37:44","新北市三峽區民生街104巷3-1號","121.373605","24.9359166666667","6500900","三峽區"
"236072","105-UM","2017/10/13 18:37:49","新北市土城區永豐路157巷29弄1號","121.468696666667","24.9814916666667","6501300","土城區"
"236043","107-UM","2017/10/13 18:37:34","新北市土城區學成路94巷9弄18號","121.450401666667","24.9896683333333","6501300","土城區"
"236079","166-UM","2017/10/13 18:37:51","新北市土城區中央路四段22號","121.420933333333","24.961","6501300","土城區"
"236031","253-BX","2017/10/13 18:37:30","新北市土城區福仁街53號","121.43977","24.9751583333333","6501300","土城區"
"236027","269-VK","2017/10/13 18:37:36","新北市土城區千歲路28巷2-1號","121.441413333333","24.9687466666667","6501300","土城區"
"236015","270-VK","2017/10/13 18:37:39","新北市土城區青雲路183巷11弄1號","121.45985","24.982955","6501300","土城區"
"236039","271-VK","2017/10/13 18:37:41","新北市土城區明德路一段291巷17號","121.460471666667","24.97607","6501300","土城區"
"236022","401-BY","2017/10/13 18:37:31","新北市土城區延吉街291巷4號","121.467081666667","24.9842733333333","6501300","土城區"
"236059","912-UM","2017/10/13 18:37:52","新北市土城區中央路四段11號","121.425425","24.9627683333333","6501300","土城區"
"236050","913-UM","2017/10/13 18:37:45","新北市土城區明德路一段33號","121.465021666667","24.9854683333333","6501300","土城區"
"236063","915-UM","2017/10/13 18:37:49","新北市土城區延壽路77巷2號","121.46914","24.9926383333333","6501300","土城區"
"236055","AAC-216","2017/10/13 18:37:55","新北市土城區中華路一段111號","121.444505","24.9870183333333","6501300","土城區"
"242029","986-R7","2017/10/13 18:37:39","新北市新莊區新泰路357巷3弄57號","121.44217","25.03932","6500500","新莊區"
"242050","751-BX","2017/10/13 18:37:33","新北市板橋區金門街121巷62-1號","121.435075","24.9914066666667","6500500","新莊區"
"242054","440-UM","2017/10/13 18:37:34","新北市樹林區俊英街2號","121.43045","24.9990983333333","6500500","新莊區"
"242041","400-BY","2017/10/13 18:37:48","新北市新莊區天祥街92巷3-1號","121.41538","25.0298283333333","6500500","新莊區"
"242060","362-BY","2017/10/13 18:37:47","新北市新莊區新樹路271號","121.43427","25.0207566666667","6500500","新莊區"
"242058","353-BY","2017/10/13 18:37:39","新北市新莊區中正路881-5號","121.4174","25.0255166666667","6500500","新莊區"
"242021","135-UY","2017/10/13 18:37:45","新北市新莊區中正路192號","121.449511666667","25.0354883333333","6500500","新莊區"
"242046","172-VK","2017/10/13 18:37:39","新北市新莊區中正路692-8號","121.419743333333","25.0283366666667","6500500","新莊區"
"242056","349-TH","2017/10/13 18:37:43","新北市新莊區環河路636-7號","121.437481666667","25.0117316666667","6500500","新莊區"
"238015","755-BX","2017/10/13 18:37:34","新北市樹林區備內街40號","121.412303333333","24.9873866666667","6500700","樹林區"
"238023","601-UM","2017/10/13 18:37:17","新北市樹林區三福街114號","121.406506666667","25.016385","6500700","樹林區"
"238019","599-UM","2017/10/13 18:34:10","新北市樹林區中華路190-16號","121.411758333333","24.980565","6500700","樹林區"
"238018","571-TV","2017/10/13 18:37:45","新北市樹林區樹新路52-9號","121.42874","24.9966816666667","6500700","樹林區"
"238024","5061-A6","2017/10/13 18:37:39","新北市樹林區中山路一段158號","121.42218","24.9894966666667","6500700","樹林區"
"238021","KEA-2217","2017/10/13 18:37:35","新北市樹林區西圳街二段97巷19-1號","121.386493333333","24.9573616666667","6500700","樹林區"
"238025","303-VK","2017/10/13 18:37:49","新北市樹林區中山路二段219號","121.402646666667","24.97639","6500700","樹林區"
"238017","283-BY","2017/10/13 18:37:51","新北市樹林區保安街二段337巷4號","121.411786666667","25.00806","6500700","樹林區"
"238014","282-BY","2017/10/13 18:37:48","新北市樹林區大安路111巷41號","121.423281666667","24.9976016666667","6500700","樹林區"
"238020","268-VK","2017/10/13 18:37:38","新北市樹林區俊安街24巷10弄6號","121.418996666667","25.013825","6500700","樹林區"
"238026","172-UY","2017/10/13 18:37:46","新北市樹林區八德街1012號","121.39138","24.9686033333333","6500700","樹林區"
"238016","169-UY","2017/10/13 18:37:50","新北市樹林區日新街148巷37號","121.419366666667","24.9878783333333","6500700","樹林區"
"239007","AAC-297","2017/10/13 18:37:46","新北市鶯歌區中正一路478號","121.366493333333","24.95689","6500800","鶯歌區"
"239006","891-R6","2017/10/13 18:37:52","新北市鶯歌區鶯桃路296巷106號","121.337145","24.9622816666667","6500800","鶯歌區"
"239008","527-UM","2017/10/13 18:37:35","新北市鶯歌區國際一路179號","121.336233333333","24.9765183333333","6500800","鶯歌區"
"239005","526-UM","2017/10/13 18:37:42","新北市鶯歌區鳳吉二街48號","121.326421666667","24.9736466666667","6500800","鶯歌區"
"239001","417-VK","2017/10/13 18:37:51","新北市鶯歌區中正二路187-2號","121.340293333333","24.947225","6500800","鶯歌區"
"239003","360-BY","2017/10/13 18:37:43","新北市鶯歌區永和街99巷2號","121.333585","24.9683183333333","6500800","鶯歌區"
"239002","359-BY","2017/10/13 18:37:44","新北市鶯歌區中正一路305號","121.356423333333","24.957165","6500800","鶯歌區"
"239004","193-VK","2017/10/13 18:37:45","新北市鶯歌區中正三路230巷28號","121.329908333333","24.9401333333333","6500800","鶯歌區"
"221008","489-VK","2017/10/13 18:31:22","新北市汐止區康寧街901號","121.651398333333","25.0750683333333","6501100","汐止區"
"221036","130-UY","2017/10/13 18:37:41","新北市汐止區大同路二段553號","121.662303333333","25.0695633333333","6501100","汐止區"
"221015","131-UY","2017/10/13 18:37:46","新北市汐止區吉祥街12巷12-1號","121.668833333333","25.08054","6501100","汐止區"
"221010","269-BY","2017/10/13 18:37:45","新北市汐止區汐萬路三段258號","121.643791666667","25.1046983333333","6501100","汐止區"
"221012","276-VK","2017/10/13 13:25:25","新北市汐止區汐萬路一段256巷3號","121.653438333333","25.074685","6501100","汐止區"
"221012","278-VK","2017/10/13 18:37:51","新北市汐止區保長路25號","121.672406666667","25.07973","6501100","汐止區"
"221023","279-VK","2017/10/13 18:37:37","新北市汐止區明峰街4-1號","121.635465","25.0713333333333","6501100","汐止區"
"221032","280-BY","2017/10/13 18:37:45","新北市汐止區福山街60巷8號","121.617941666667","25.0463583333333","6501100","汐止區"
"221027","281-BY","2017/10/13 18:37:46","新北市汐止區禮門街1號","121.656605","25.0672066666667","6501100","汐止區"
"221029","298-VK","2017/10/13 18:37:45","新北市汐止區樟樹一路131號","121.6422","25.0649683333333","6501100","汐止區"
"221021","299-VK","2017/10/13 18:37:45","新北市汐止區復興路67號","121.65721","25.0620966666667","6501100","汐止區"
"221031","353-TW","2017/10/13 18:37:41","新北市汐止區大同路一段286巷18號","121.635303333333","25.0565766666667","6501100","汐止區"
"221035","622-UM","2017/10/13 18:37:53","新北市汐止區大同路一段515巷2號","121.645693333333","25.0623466666667","6501100","汐止區"
"221025","623-UM","2017/10/13 18:37:50","新北市汐止區仁愛路119巷18號","121.662165","25.0643233333333","6501100","汐止區"
"221038","646-BX","2017/10/13 18:37:39","新北市汐止區汐萬路一段256巷3號","121.652565","25.0746166666667","6501100","汐止區"
"221033","647-BX","2017/10/13 18:37:39","新北市汐止區東勢街15-1號","121.624005","25.0388683333333","6501100","汐止區"
"221002","707-TV","2017/10/13 18:37:46","新北市汐止區中興路54號","121.636038333333","25.060595","6501100","汐止區"
"221018","753-BX","2017/10/13 18:37:42","新北市汐止區茄苳路262號","121.6719","25.0682016666667","6501100","汐止區"
"220079","145-BY","2017/10/13 18:37:48","新北市板橋區大觀路一段51號","121.447826666667","25.00744","6500100","板橋區"
"220082","610-BX","2017/10/13 18:37:49","新北市板橋區華東街1-10號","121.44827","24.9949383333333","6500100","板橋區"
"220101","245-BX","2017/10/13 15:39:11","新北市板橋區民生路二段171號","121.469911666667","25.020205","6500100","板橋區"
"220056","276-BY","2017/10/13 18:37:47","新北市板橋區華東街1-10號","121.448631666667","24.9948416666667","6500100","板橋區"
"220072","277-BY","2017/10/13 18:37:36","新北市板橋區華東街1-10號","121.4483","24.9950816666667","6500100","板橋區"
"220071","283-VK","2017/10/13 18:37:43","新北市板橋區華東街1-9號","121.448075","24.9949433333333","6500100","板橋區"
"220053","285-VK","2017/10/13 18:37:46","新北市板橋區民生路二段161巷1號","121.470218333333","25.0200733333333","6500100","板橋區"
"220083","286-VK","2017/10/13 18:37:54","新北市板橋區華東街1-10號","121.448353333333","24.99513","6500100","板橋區"
"220081","287-VK","2017/10/13 15:30:58","新北市板橋區華東街1-9號","121.448103333333","24.9950466666667","6500100","板橋區"
"220061","293-UM","2017/10/13 18:37:36","新北市板橋區民生路二段161巷3號","121.470276666667","25.0198316666667","6500100","板橋區"
"220084","296-UM","2017/10/13 18:37:34","新北市板橋區華東街1-9號","121.448138333333","24.994995","6500100","板橋區"
"220075","297-UM","2017/10/13 18:37:44","新北市板橋區華東街1-9號","121.448178333333","24.9950166666667","6500100","板橋區"
"220062","305-R5","2017/10/13 18:37:48","新北市板橋區民生路二段120號","121.470371666667","25.0197233333333","6500100","板橋區"
"220098","317-R6","2017/10/13 18:37:48","新北市板橋區民生路二段120號","121.470346666667","25.0196166666667","6500100","板橋區"
"220080","461-BY","2017/10/13 18:37:48","新北市板橋區華東街1-10號","121.448391666667","24.9949716666667","6500100","板橋區"
"220064","486-VK","2017/10/13 18:37:39","新北市板橋區縣民大道二段22號","121.464311666667","25.0136366666667","6500100","板橋區"
"220035","560-BX","2017/10/13 18:37:37","新北市板橋區南雅南路二段92巷40號","121.452751666667","25.0023066666667","6500100","板橋區"
"220002","568-UM","2017/10/13 18:37:49","新北市板橋區華東街1-9號","121.448076666667","24.9949083333333","6500100","板橋區"
"220057","686-BX","2017/10/13 18:37:47","新北市板橋區華東街1-9號","121.448213333333","24.9949216666667","6500100","板橋區"
"220077","687-BX","2017/10/13 18:37:50","新北市板橋區華東街1-10號","121.448316666667","24.9949316666667","6500100","板橋區"
"220055","827-TW","2017/10/13 18:37:46","新北市板橋區華東街1-9號","121.448151666667","24.9949416666667","6500100","板橋區"
"220067","829-TW","2017/10/13 18:37:45","新北市板橋區民生路二段120號","121.470385","25.01969","6500100","板橋區"
"220074","895-R6","2017/10/13 18:37:53","新北市板橋區華東街1-10號","121.448216666667","24.995035","6500100","板橋區"
"220070","AAC-253","2017/10/13 18:37:46","新北市板橋區華東街1-9號","121.448235","24.9948866666667","6500100","板橋區"
