"lineid","car","time","location","longitude","latitude","cityid","cityname"
"234046","148-BY","2017/10/13 19:09:35","新北市永和區永元路54號","121.522341666667","25.0011066666667","6500400","永和區"
"234013","149-BY","2017/10/13 19:09:50","新北市永和區永和路二段127號","121.51503","25.012025","6500400","永和區"
"234007","207-UY","2017/10/13 19:09:34","新北市永和區中山路一段238號","121.507423333333","25.0075233333333","6500400","永和區"
"234078","298-R6","2017/10/13 19:09:43","新北市永和區永貞路39巷9弄5號","121.522138333333","25.00683","6500400","永和區"
"234038","336-UY","2017/10/13 19:09:45","新北市永和區民樂街71巷2號","121.527408333333","24.997385","6500400","永和區"
"234064","337-UY","2017/10/13 19:09:56","新北市永和區秀朗路二段33號","121.521268333333","25.0024316666667","6500400","永和區"
"234086","338-UY","2017/10/13 19:09:37","新北市永和區永貞路90號","121.519396666667","25.0046283333333","6500400","永和區"
"234070","552-UM","2017/10/13 19:09:52","新北市永和區豫溪街137巷1弄24號","121.51844","25.0104633333333","6500400","永和區"
"234054","553-UM","2017/10/13 19:09:39","新北市永和區竹林路72巷2號","121.519283333333","25.0130266666667","6500400","永和區"
"234017","745-BX","2017/10/13 19:09:41","新北市永和區忠孝街36號","121.514776666667","25.015795","6500400","永和區"
"234030","746-BX","2017/10/13 19:09:43","新北市永和區四維街121號","121.523113333333","24.998385","6500400","永和區"
"234061","AAD-866","2017/10/13 19:09:43","新北市永和區安樂路304巷7號","121.514553333333","25.00522","6500400","永和區"
"234042","862-TW","2017/10/13 19:09:52","新北市永和區永貞路346號","121.510736666667","25.00595","6500400","永和區"
"234050","863-TW","2017/10/13 19:09:55","新北市永和區仁愛路104巷7弄23號","121.51097","25.014075","6500400","永和區"
"234026","9371-KE","2017/10/13 19:09:38","新北市永和區安樂路274號","121.514651666667","25.0041933333333","6500400","永和區"
"234011","9373-KE","2017/10/13 19:09:37","新北市永和區仁愛路141巷5弄2號","121.51169","25.0119333333333","6500400","永和區"
"249005","172-UM","2017/10/13 19:09:42","新北市八里區中華路三段53號","121.395133333333","25.141455","6502300","八里區"
"249001","173-UM","2017/10/13 19:09:43","新北市八里區龍米路二段236-3號","121.431535","25.1586233333333","6502300","八里區"
"249002","305-UY","2017/10/13 19:09:37","新北市八里區龍形一街33巷6-1號","121.449346666667","25.1295183333333","6502300","八里區"
"248016","026-BX","2017/10/13 19:09:52","新北市五股區成泰路三段543巷52-1號","121.44973","25.1030783333333","6501500","五股區"
"248006","077-UY","2017/10/13 19:09:56","新北市五股區四維路96號","121.467503333333","25.0734433333333","6501500","五股區"
"248018","225-UY","2017/10/13 19:09:50","新北市五股區民義路一段255-5號","121.426093333333","25.0915116666667","6501500","五股區"
"248012","247-BX","2017/10/13 19:09:45","新北市五股區中興路四段48巷16號","121.438621666667","25.083485","6501500","五股區"
"248010","272-BY","2017/10/13 19:09:43","新北市五股區水碓一路23號","121.430658333333","25.0713116666667","6501500","五股區"
"248004","677-BX","2017/10/13 19:09:36","新北市五股區六合街17號","121.431201666667","25.0888433333333","6501500","五股區"
"248002","678-BX","2017/10/13 19:09:53","新北市五股區凌雲路一段158巷6號","121.4478","25.103135","6501500","五股區"
"234023","9380-KE","2017/10/13 19:09:48","新北市永和區中興街10巷19號","121.515916666667","25.0112316666667","6500400","永和區"
"234077","969-R7","2017/10/13 19:09:55","新北市永和區民權路3號","121.520148333333","24.9984433333333","6500400","永和區"
"234074","AAC-211","2017/10/13 19:09:52","新北市永和區竹林路185號","121.520535","25.00967","6500400","永和區"
"234067","AAC-212","2017/10/13 19:09:50","新北市永和區保平路28號","121.512208333333","25.00745","6500400","永和區"
"234003","AAC-295","2017/10/13 19:09:44","新北市永和區保福路一段57號","121.512621666667","25.009475","6500400","永和區"
"244013","069-UM","2017/10/13 19:09:41","新北市林口區麗園一街11巷7號","121.378211666667","25.070565","6501700","林口區"
"244019","403-UM","2017/10/13 19:09:42","新北市林口區麗園二街47巷49號","121.38264","25.0696083333333","6501700","林口區"
"244009","410-SL","2017/10/13 19:09:39","新北市林口區林口路72號","121.390085","25.07952","6501700","林口區"
"244023","483-VK","2017/10/13 19:09:52","新北市林口區文化三路一段617巷138號","121.371183333333","25.0784433333333","6501700","林口區"
"244011","656-BX","2017/10/13 19:09:48","新北市林口區中山路250-1號","121.38594","25.0795166666667","6501700","林口區"
"243013","AAD-798","2017/10/13 19:09:46","新北市泰山區明志路三段277號","121.423091666667","25.036885","6501600","泰山區"
"243009","297-R6","2017/10/13 19:09:47","新北市泰山區明志路一段117巷3號","121.433843333333","25.0635033333333","6501600","泰山區"
"243015","380-SR","2017/10/13 19:09:56","新北市泰山區明志路一段452號","121.430666666667","25.055795","6501600","泰山區"
"243014","421-VK","2017/10/13 19:09:49","新北市泰山區泰林路2段424-1號","121.426756666667","25.06434","6501600","泰山區"
"243010","KEA-2215","2017/10/13 19:09:48","新北市泰山區明志路一段483巷1弄3號","121.431095","25.0555316666667","6501600","泰山區"
"243011","KEA-2216","2017/10/13 19:09:39","新北市泰山區明志路二段336號","121.426108333333","25.0455883333333","6501600","泰山區"
"243012","646-TV","2017/10/13 19:09:49","新北市泰山區辭修路36巷8弄5號","121.427885","25.05867","6501600","泰山區"
"243016","680-BX","2017/10/13 19:09:42","新北市泰山區明志路三段1號","121.42477","25.0434983333333","6501600","泰山區"
"222001","016-RS","2017/10/13 19:09:53","新北市深坑區北深路一段300號","121.624153333333","25.0058366666667","6501800","深坑區"
"222003","436-BY","2017/10/13 19:09:42","新北市深坑區深南路156號","121.624043333333","25.01489","6501800","深坑區"
"222001","628-TS","2017/10/13 19:09:57","新北市深坑區深南路88巷1號","121.62109","25.0117416666667","6501800","深坑區"
"222002","659-BX","2017/10/13 19:09:41","新北市深坑區紅葉街61號","121.63224","25.013915","6501800","深坑區"
"231041","002-UM","2017/10/13 19:09:48","新北市新店區溪園路389-10號","121.523635","24.9790416666667","6500600","新店區"
"231059","046-UY","2017/10/13 19:09:54","新北市新店區安和路二段160號","121.519718333333","24.9735116666667","6500600","新店區"
"231061","047-UY","2017/10/13 19:09:50","新北市新店區安康路一段52巷2號","121.530051666667","24.9612033333333","6500600","新店區"
"231060","106-UY","2017/10/13 19:09:55","新北市新店區安康路二段300號","121.507598333333","24.9584383333333","6500600","新店區"
"231048","108-UY","2017/10/13 19:09:40","新北市新店區德正街27巷29弄46-1號","121.545818333333","24.972585","6500600","新店區"
"231051","110-UY","2017/10/13 19:09:40","新北市新店區百忍街33號","121.533693333333","24.9758","6500600","新店區"
"231053","187-VK","2017/10/13 19:09:39","新北市新店區自強路23巷1號","121.546123333333","24.92677","6500600","新店區"
"231050","KEA-2219","2017/10/13 19:09:41","新北市新店區竹林路2巷29弄9號","121.550505","24.9503666666667","6500600","新店區"
"231046","278-BY","2017/10/13 19:09:50","新北市新店區華潭街1巷1號","121.529636666667","24.9499866666667","6500600","新店區"
"231054","AAD-862","2017/10/13 19:09:46","新北市新店區新店路190號","121.53714","24.9560566666667","6500600","新店區"
"231058","3712-VJ","2017/10/13 19:09:47","新北市新店區光明街138巷9號","121.539948333333","24.9612466666667","6500600","新店區"
"231055","3713-VJ","2017/10/13 19:09:48","新北市新店區新生街13巷42-1號","121.538893333333","24.9665466666667","6500600","新店區"
"231056","4716-K9","2017/10/13 19:09:41","新北市新店區民權路107-2號","121.53642","24.9821716666667","6500600","新店區"
"231067","4772-VM","2017/10/13 19:09:52","新北市新店區安康路一段169-6號","121.526926666667","24.961935","6500600","新店區"
"231065","513-UM","2017/10/13 19:09:47","新北市新店區安祥路109巷6弄55號","121.475675","24.957015","6500600","新店區"
"231064","515-UM","2017/10/13 19:09:43","新北市新店區安忠路56巷3號","121.512428333333","24.9589266666667","6500600","新店區"
"231045","617-UM","2017/10/13 19:09:52","新北市新店區北宜路一段188號","121.540938333333","24.95284","6500600","新店區"
"231040","619-UM","2017/10/13 19:09:38","新北市新店區三民路98-2號","121.533936666667","24.973485","6500600","新店區"
"231042","641-BX","2017/10/13 19:09:54","新北市新店區中興路一段115號","121.541375","24.9627716666667","6500600","新店區"
"231063","645-TV","2017/10/13 19:09:38","新北市新店區車子路134號","121.505078333333","24.9488","6500600","新店區"
"231049","719-UM","2017/10/13 19:09:33","新北市新店區二十張路25巷18弄35號","121.53936","24.9810616666667","6500600","新店區"
"231062","720-UM","2017/10/13 19:09:41","新北市新店區安康路一段222號","121.5238","24.9636966666667","6500600","新店區"
"231044","897-TW","2017/10/13 19:09:47","新北市新店區中興路三段190號","121.544061666667","24.9816833333333","6500600","新店區"
"231043","899-TW","2017/10/13 19:09:35","新北市新店區寶橋路98號","121.546875","24.9760716666667","6500600","新店區"
"231066","AKT-0513","2017/10/13 19:09:52","新北市新店區安康路三段359巷12弄14號","121.484191666667","24.9496966666667","6500600","新店區"
"241024","065-VK","2017/10/13 19:09:51","新北市五股區天乙路101-6號","121.446106666667","25.1070433333333","6500200","三重區"
"241026","066-VK","2017/10/13 19:09:48","新北市三重區泉州街72號","121.49477","25.0549766666667","6500200","三重區"
"241035","462-BY","2017/10/13 19:09:51","新北市三重區捷運路15號","121.485588333333","25.0561716666667","6500200","三重區"
"241029","942-UM","2017/10/13 19:09:49","新北市三重區集美街222號","121.491938333333","25.055445","6500200","三重區"
"235066","003-UY","2017/10/13 19:09:43","新北市中和區廣福路82號","121.502893333333","25.0014883333333","6500300","中和區"
"235064","005-UY","2017/10/13 19:09:46","新北市中和區泰和街42號","121.499108333333","24.9998516666667","6500300","中和區"
"235063","006-UY","2017/10/13 19:09:49","新北市中和區中正路588號","121.48593","24.99492","6500300","中和區"
"235056","096-UM","2017/10/13 19:09:40","新北市板橋區三民路二段226號","121.478875","25.011515","6500300","中和區"
"235039","097-UM","2017/10/13 19:09:43","新北市永和區民有街23巷1號","121.51695","24.996395","6500300","中和區"
"235065","098-UM","2017/10/13 19:09:51","新北市中和區福祥路158號","121.498536666667","25.0077433333333","6500300","中和區"
"235040","150-BY","2017/10/13 19:09:41","新北市中和區宜安路92巷1號","121.510786666667","24.9976766666667","6500300","中和區"
"235058","151-BY","2017/10/13 19:09:53","新北市中和區員山路143巷16號","121.480276666667","24.9961233333333","6500300","中和區"
"235055","183-VK","2017/10/13 19:09:51","新北市中和區莒光路2號","121.47172","25.00481","6500300","中和區"
"235038","185-VK","2017/10/13 19:09:44","新北市中和區大仁街10巷27弄1號","121.519111666667","24.9925866666667","6500300","中和區"
"235049","186-VK","2017/10/13 19:09:48","新北市中和區明禮街16號","121.504911666667","24.9960633333333","6500300","中和區"
"235067","255-BX","2017/10/13 19:09:43","新北市中和區新生街176巷6號","121.483335","25.0000083333333","6500300","中和區"
"235044","293-VK","2017/10/13 19:09:42","新北市中和區中興街202巷2號","121.499513333333","24.9902116666667","6500300","中和區"
"235072","301-VK","2017/10/13 19:09:46","新北市中和區中山路二段248號","121.497768333333","25.0025916666667","6500300","中和區"
"235043","352-BY","2017/10/13 19:09:56","新北市中和區景平路120號","121.519353333333","24.991865","6500300","中和區"
"235068","375-QA","2017/10/13 19:09:43","新北市中和區圓通路162巷2弄2號","121.497185","24.9954316666667","6500300","中和區"
"235051","376-QA","2017/10/13 19:09:49","新北市中和區忠孝街31巷56號","121.509718333333","24.9856816666667","6500300","中和區"
"235061","378-QA","2017/10/13 19:09:47","新北市中和區民享街2巷1號","121.473835","25.0057416666667","6500300","中和區"
"235071","269-TV","2017/10/13 19:09:42","新北市中和區員山路82巷10弄8號","121.481421666667","24.99357","6500300","中和區"
"235050","4979-A6","2017/10/13 19:09:37","新北市中和區復興路280巷18弄20號","121.501743333333","24.9922533333333","6500300","中和區"
"235069","4980-A6","2017/10/13 19:09:36","新北市中和區中和路165巷21號","121.50325","25.00057","6500300","中和區"
"235042","551-UM","2017/10/13 19:09:36","新北市中和區自立路99巷15號","121.522873333333","24.9949366666667","6500300","中和區"
"235070","558-UM","2017/10/13 19:09:53","新北市中和區中和路212號","121.506068333333","24.99962","6500300","中和區"
"235045","565-BX","2017/10/13 19:09:36","新北市中和區景新街467巷20弄166號","121.514485","24.9876983333333","6500300","中和區"
"235054","640-BX","2017/10/13 19:09:54","新北市中和區民享街77號","121.474215","25.0019066666667","6500300","中和區"
"235060","647-TV","2017/10/13 19:09:39","新北市中和區民治街7巷2號","121.475106666667","25.00466","6500300","中和區"
"235047","732-UM","2017/10/13 19:09:55","新北市中和區興南路一段56巷4號","121.510721666667","24.990885","6500300","中和區"
"235046","733-UM","2017/10/13 19:09:48","新北市中和區忠孝街1巷14號","121.508671666667","24.9836666666667","6500300","中和區"
"235062","800-TS","2017/10/13 19:09:40","新北市中和區中山路二段356號","121.492636666667","25.0028583333333","6500300","中和區"
"235057","801-TS","2017/10/13 19:09:42","新北市中和區民利街100巷6弄2號","121.47703","24.9984833333333","6500300","中和區"
"235041","802-TS","2017/10/13 19:09:49","新北市中和區中和路260-1號","121.508171666667","24.9995083333333","6500300","中和區"
"235052","805-TS","2017/10/13 19:09:39","新北市中和區興南路二段142巷19弄58號","121.502335","24.9832683333333","6500300","中和區"
"235048","896-TW","2017/10/13 19:09:48","新北市中和區華新街190號","121.506911666667","24.982085","6500300","中和區"
"235053","900-TW","2017/10/13 19:09:56","新北市中和區和平路210號","121.46392","24.99619","6500300","中和區"
"235037","AAC-213","2017/10/13 19:09:53","新北市中和區秀朗路三段128巷31-1號","121.524736666667","24.9943933333333","6500300","中和區"
"235059","AAC-215","2017/10/13 19:09:51","新北市中和區圓通路296巷31弄2號","121.488585","24.9905116666667","6500300","中和區"
"220065","072-UY","2017/10/13 19:09:44","新北市板橋區民族路247巷3弄10號","121.470206666667","25.0077183333333","6500100","板橋區"
"220086","073-UY","2017/10/13 19:09:36","新北市板橋區中正路216巷142號","121.460336666667","25.0194516666667","6500100","板橋區"
"220106","075-UY","2017/10/13 19:09:41","新北市板橋區文化路二段311號","121.471968333333","25.029665","6500100","板橋區"
"220069","AAD-861","2017/10/13 19:09:41","新北市板橋區華興街73-1號","121.457008333333","25.0051","6500100","板橋區"
"220068","120-SR","2017/10/13 19:09:41","新北市板橋區三民路一段7號","121.479115","25.0233016666667","6500100","板橋區"
"247012","546-UM","2017/10/13 19:09:12","新北市五股區中興路三段163號","121.449175","25.0807916666667","6501400","蘆洲區"
"226004","312-R5","2017/10/13 19:09:56","新北市平溪區十分里十分街238號","121.778135","25.04419","6502400","平溪區"
"228001","212-TW","2017/10/13 19:09:40","新北市貢寮區真理里新港街10號","121.925518333333","25.054445","6502600","貢寮區"
"228002","663-BX","2017/10/13 19:09:39","新北市貢寮區福隆里福隆街36號","121.945113333333","25.0174816666667","6502600","貢寮區"
"228003","828-UM","2017/10/13 19:09:38","新北市貢寮區和美里和美街22-1號","121.912728333333","25.0826666666667","6502600","貢寮區"
"224006","676-BX","2017/10/13 19:09:37","新北市瑞芳區三爪子坑路106巷1-11號","121.808148333333","25.104945","6501200","瑞芳區"
"224009","285-BY","2017/10/13 19:09:43","新北市瑞芳區洞頂路148號","121.859375","25.1180366666667","6501200","瑞芳區"
"224008","275-VK","2017/10/13 19:09:45","新北市瑞芳區瑞芳街102-1號","121.801836666667","25.1105366666667","6501200","瑞芳區"
"224005","271-BY","2017/10/13 19:09:54","新北市瑞芳區國中新村19號","121.81753","25.1069933333333","6501200","瑞芳區"
"227003","642-TC","2017/10/13 19:09:43","新北市雙溪區平林里外平林8號","121.859686666667","25.0381333333333","6502500","雙溪區"
"227011","030-BX","2017/10/13 19:09:39","新北市雙溪區牡丹里中正路39號","121.864703333333","25.0385416666667","6502500","雙溪區"
"253005","032-BX","2017/10/13 19:09:41","新北市石門區阿里荖41-1號","121.60565","25.2806266666667","6502200","石門區"
"253006","295-VK","2017/10/13 19:09:51","新北市石門區崁子腳1-7號","121.532243333333","25.287725","6502200","石門區"
"208002","742-BX","2017/10/13 19:09:51","新北市金山區中正路67號","121.633873333333","25.2217166666667","6502700","金山區"
"208003","665-BX","2017/10/13 19:09:52","新北市金山區中正路52號","121.634308333333","25.2220166666667","6502700","金山區"
"208001","761-BX","2017/10/13 19:09:45","新北市金山區民生路47號","121.64161","25.2208866666667","6502700","金山區"
"251002","012-UM","2017/10/13 19:09:43","新北市淡水區中山路70-1號","121.443161666667","25.1705916666667","6501000","淡水區"
"251013","179-VK","2017/10/13 19:09:41","新北市淡水區安子內12號","121.48151","25.2191416666667","6501000","淡水區"
"251015","182-VK","2017/10/13 17:46:12","新北市淡水區興福寮25-1號","121.492218333333","25.16455","6501000","淡水區"
"251010","413-VK","2017/10/13 19:09:46","新北市淡水區中正路一段156巷3號","121.421176666667","25.1802466666667","6501000","淡水區"
"251005","443-VK","2017/10/13 19:09:37","新北市淡水區中山路141號","121.44092","25.17169","6501000","淡水區"
"251001","559-UM","2017/10/13 19:09:53","新北市淡水區民權路94巷1號","121.463056666667","25.1253066666667","6501000","淡水區"
"251006","561-UM","2017/10/13 19:09:42","新北市淡水區中山北路三段116號","121.443806666667","25.1939083333333","6501000","淡水區"
"251009","575-R6","2017/10/13 19:09:49","新北市淡水區清水街240號","121.440263333333","25.171925","6501000","淡水區"
"251007","577-R6","2017/10/13 19:09:36","新北市淡水區民生路117巷10號","121.464961666667","25.1391316666667","6501000","淡水區"
"251011","650-BX","2017/10/13 19:09:47","新北市淡水區中正東路二段143巷2弄1號","121.460753333333","25.1474683333333","6501000","淡水區"
"251003","673-BX","2017/10/13 19:09:52","新北市淡水區中山北路一段95號","121.442348333333","25.1763166666667","6501000","淡水區"
"207003","291-VK","2017/10/13 19:09:49","新北市萬里區大鵬里萬里加投19-10號","121.649576666667","25.2101233333333","6502800","萬里區"
"207004","225-TW","2017/10/13 19:09:53","新北市萬里區萬里里瑪鋉路54巷20號","121.690995","25.1778383333333","6502800","萬里區"
"252002","178-VK","2017/10/13 19:09:33","新北市三芝區埔坪里埔頭坑84號","121.508438333333","25.2542633333333","6502100","三芝區"
"252003","249-BX","2017/10/13 19:09:50","新北市三芝區古庄里四棧橋18-3號","121.489878333333","25.26091","6502100","三芝區"
"252001","292-VK","2017/10/13 19:09:53","新北市三芝區長勤街80號","121.5003","25.255135","6502100","三芝區"
"237004","078-UY","2017/10/13 19:09:53","新北市三峽區有木206號","121.439095","24.8515116666667","6500900","三峽區"
"237007","153-BY","2017/10/13 19:09:53","新北市三峽區麻園40號","121.363938333333","24.9208183333333","6500900","三峽區"
"237013","252-BX","2017/10/13 19:09:36","新北市三峽區光明路69巷27號","121.376803333333","24.9292783333333","6500900","三峽區"
"237012","275-BY","2017/10/13 19:09:50","新北市三峽區三樹路222巷254弄15號","121.392146666667","24.9440566666667","6500900","三峽區"
"237008","302-VK","2017/10/13 19:09:42","新北市三峽區大同路90號","121.375771666667","24.9277666666667","6500900","三峽區"
"237014","433-BY","2017/10/13 19:09:43","新北市三峽區大仁路8號","121.366545","24.937635","6500900","三峽區"
"237006","5529-G3","2017/10/13 19:09:56","新北市三峽區橫溪路10號","121.396066666667","24.9360233333333","6500900","三峽區"
"237011","572-TV","2017/10/13 12:52:53","新北市三峽區中山路459巷163-3號","121.348781666667","24.933","6500900","三峽區"
"237015","649-BX","2017/10/13 19:09:39","新北市三峽區建安25-3號","121.445315","24.9272866666667","6500900","三峽區"
"237010","706-TV","2017/10/13 19:02:57","新北市三峽區民生街72號","121.374531666667","24.9359266666667","6500900","三峽區"
"237005","AKY-6261","2017/10/13 19:09:44","新北市三峽區新興街25號","121.372785","24.93545","6500900","三峽區"
"236072","105-UM","2017/10/13 19:09:50","新北市土城區裕生路84巷2號","121.447298333333","24.985485","6501300","土城區"
"236079","166-UM","2017/10/13 19:09:51","新北市土城區龍泉路22號","121.410341666667","24.9483583333333","6501300","土城區"
"236027","269-VK","2017/10/13 19:09:56","新北市土城區中央路二段177巷1-4號","121.442518333333","24.9759483333333","6501300","土城區"
"236015","270-VK","2017/10/13 19:09:38","新北市土城區學府路一段77號","121.456895","24.9882433333333","6501300","土城區"
"236039","271-VK","2017/10/13 19:09:34","新北市土城區清水路98巷3弄1號","121.457583333333","24.9813166666667","6501300","土城區"
"236022","401-BY","2017/10/13 19:09:51","新北市土城區延峰街31巷2號","121.469618333333","24.9847816666667","6501300","土城區"
"236059","912-UM","2017/10/13 19:09:53","新北市土城區金城路二段241號","121.45573","24.9825833333333","6501300","土城區"
"236050","913-UM","2017/10/13 19:09:25","新北市土城區明德路一段398-1號","121.453615","24.97916","6501300","土城區"
"236063","915-UM","2017/10/13 19:09:49","新北市土城區金城路三段93巷26號","121.466755","24.9886683333333","6501300","土城區"
"236055","AAC-216","2017/10/13 19:09:39","新北市土城區學府路一段254號","121.451451666667","24.984465","6501300","土城區"
"242058","353-BY","2017/10/13 18:56:17","新北市新莊區新泰路255巷83號","121.442215","25.038855","6500500","新莊區"
"238015","755-BX","2017/10/13 19:09:51","新北市樹林區備內街154號","121.40729","24.98956","6500700","樹林區"
"238023","601-UM","2017/10/13 19:09:37","新北市樹林區大慶街66號","121.396458333333","25.0140283333333","6500700","樹林區"
"238019","599-UM","2017/10/13 19:09:53","新北市樹林區東榮街60號","121.416786666667","24.9830933333333","6500700","樹林區"
"238018","571-TV","2017/10/13 19:09:45","新北市樹林區太平路48號","121.419031666667","24.9825933333333","6500700","樹林區"
"238021","KEA-2217","2017/10/13 19:09:41","新北市樹林區柑園街二段276巷40號","121.371643333333","24.953845","6500700","樹林區"
"238022","KEA-2213","2017/10/13 19:09:55","新北市樹林區中山路二段151巷2號","121.407153333333","24.9780816666667","6500700","樹林區"
"238025","303-VK","2017/10/13 19:09:49","新北市樹林區中山路三段28號","121.395416666667","24.9728266666667","6500700","樹林區"
"238017","283-BY","2017/10/13 19:09:39","新北市樹林區光興街50號","121.409843333333","25.0027833333333","6500700","樹林區"
"238014","282-BY","2017/10/13 19:09:47","新北市樹林區中正路22-1號","121.427736666667","24.9994433333333","6500700","樹林區"
"238020","268-VK","2017/10/13 19:09:37","新北市樹林區俊英街200號","121.425618333333","25.0086466666667","6500700","樹林區"
"238026","172-UY","2017/10/13 19:09:46","新北市樹林區佳園路一段45號","121.393165","24.970505","6500700","樹林區"
"238016","169-UY","2017/10/13 19:09:50","新北市樹林區復興路302號","121.417025","24.9872133333333","6500700","樹林區"
"239007","AAC-297","2017/10/13 19:09:46","新北市鶯歌區中山路164號","121.348993333333","24.9570766666667","6500800","鶯歌區"
"239006","891-R6","2017/10/13 19:09:52","新北市鶯歌區永昌街176-2號","121.339755","24.9505016666667","6500800","鶯歌區"
"239008","527-UM","2017/10/13 19:09:35","新北市鶯歌區國際二路12巷5號","121.337846666667","24.974545","6500800","鶯歌區"
"239005","526-UM","2017/10/13 19:09:42","新北市鶯歌區東湖路8-1號","121.351431666667","24.972305","6500800","鶯歌區"
"239001","417-VK","2017/10/13 19:09:46","新北市鶯歌區永智街116號","121.33693","24.9528733333333","6500800","鶯歌區"
"239003","360-BY","2017/10/13 19:09:43","新北市鶯歌區八德路7-2號","121.336463333333","24.9501266666667","6500800","鶯歌區"
"239002","359-BY","2017/10/13 19:09:44","新北市鶯歌區中山路290號","121.343921666667","24.957045","6500800","鶯歌區"
"239004","193-VK","2017/10/13 19:09:45","新北市鶯歌區二甲路41號","121.338408333333","24.935235","6500800","鶯歌區"
"221008","489-VK","2017/10/13 19:09:43","新北市汐止區康寧街434號","121.630886666667","25.0681633333333","6501100","汐止區"
"221036","130-UY","2017/10/13 19:09:41","新北市汐止區南昌街16號","121.663003333333","25.06847","6501100","汐止區"
"221015","131-UY","2017/10/13 19:09:46","新北市汐止區康寧街901號","121.651671666667","25.0750333333333","6501100","汐止區"
"221010","269-BY","2017/10/13 19:09:45","新北市汐止區康寧街901號","121.651611666667","25.075025","6501100","汐止區"
"221012","276-VK","2017/10/13 13:25:25","新北市汐止區汐萬路一段256巷3號","121.653438333333","25.074685","6501100","汐止區"
"221012","278-VK","2017/10/13 19:09:51","新北市汐止區康寧街901號","121.650806666667","25.0752666666667","6501100","汐止區"
"221023","279-VK","2017/10/13 19:09:37","新北市汐止區康寧街901號","121.65098","25.0752466666667","6501100","汐止區"
"221032","280-BY","2017/10/13 19:09:45","新北市汐止區橫科路407巷25弄13號","121.626088333333","25.0487533333333","6501100","汐止區"
"221027","281-BY","2017/10/13 19:09:46","新北市汐止區康寧街901號","121.651448333333","25.074975","6501100","汐止區"
"221029","298-VK","2017/10/13 19:09:45","新北市汐止區汐萬路一段256巷3號","121.652456666667","25.074685","6501100","汐止區"
"221021","299-VK","2017/10/13 19:09:45","新北市汐止區康寧街901號","121.65144","25.07511","6501100","汐止區"
"221031","353-TW","2017/10/13 19:09:45","新北市汐止區福德三路141號","121.632968333333","25.0674766666667","6501100","汐止區"
"221025","623-UM","2017/10/13 19:09:50","新北市汐止區康寧街901號","121.651495","25.07497","6501100","汐止區"
"221038","646-BX","2017/10/13 19:09:39","新北市汐止區康寧街901號","121.650741666667","25.0753433333333","6501100","汐止區"
"221033","647-BX","2017/10/13 19:09:39","新北市汐止區南勢街1巷1號","121.627078333333","25.0374666666667","6501100","汐止區"
"221002","707-TV","2017/10/13 19:09:47","台北市南港區南港路一段2號","121.620506666667","25.0547766666667","6501100","汐止區"
"221018","753-BX","2017/10/13 19:09:42","新北市汐止區康寧街901號","121.651638333333","25.0749983333333","6501100","汐止區"
"220079","145-BY","2017/10/13 19:09:48","新北市板橋區民權路266號","121.457715","25.0153766666667","6500100","板橋區"
"220082","610-BX","2017/10/13 19:09:49","新北市板橋區溪崑二街11-3號","121.42896","24.9918516666667","6500100","板橋區"
"220101","245-BX","2017/10/13 19:09:40","新北市板橋區萬板路32號","121.47194","25.0222783333333","6500100","板橋區"
"220091","267-BY","2017/10/13 19:09:45","新北市板橋區縣民大道247巷86號","121.482173333333","25.0270233333333","6500100","板橋區"
"220056","276-BY","2017/10/13 19:09:47","新北市板橋區信義路74巷1弄1號","121.457286666667","24.9932283333333","6500100","板橋區"
"220072","277-BY","2017/10/13 19:09:36","新北市板橋區篤行路二段92-3號","121.431483333333","24.9914266666667","6500100","板橋區"
"220094","280-UM","2017/10/13 19:09:50","新北市板橋區光武街73-3號","121.46716","25.0263","6500100","板橋區"
"220071","283-VK","2017/10/13 19:09:43","新北市板橋區重慶路219號","121.463168333333","25.00135","6500100","板橋區"
"220053","285-VK","2017/10/13 19:09:46","新北市板橋區懷仁街35巷1號","121.4767","25.0195866666667","6500100","板橋區"
"220083","286-VK","2017/10/13 19:09:51","新北市板橋區龍興街99巷8號","121.443961666667","25.0031083333333","6500100","板橋區"
"220081","287-VK","2017/10/13 15:30:58","新北市板橋區華東街1-9號","121.448103333333","24.9950466666667","6500100","板橋區"
"220090","288-VK","2017/10/13 19:09:51","新北市板橋區裕民街52號","121.461476666667","25.0287533333333","6500100","板橋區"
"220061","293-UM","2017/10/13 19:09:36","新北市板橋區中山路二段295巷18號","121.477961666667","25.01884","6500100","板橋區"
"220096","295-UM","2017/10/13 19:09:47","新北市板橋區雙十路二段35號","121.476665","25.0257783333333","6500100","板橋區"
"220084","296-UM","2017/10/13 19:09:34","新北市板橋區篤行路一段29號","121.431993333333","24.99473","6500100","板橋區"
"220075","297-UM","2017/10/13 19:09:44","新北市板橋區館前西路146號","121.456165","25.0080916666667","6500100","板橋區"
"220062","305-R5","2017/10/13 19:09:49","新北市板橋區三民路二段245巷4弄10號","121.48088","25.0118083333333","6500100","板橋區"
"220092","307-R5","2017/10/13 19:09:41","新北市板橋區文化路一段138號","121.465485","25.01876","6500100","板橋區"
"220098","317-R6","2017/10/13 19:09:50","新北市板橋區自由路51巷12號","121.46492","25.0234133333333","6500100","板橋區"
"220080","461-BY","2017/10/13 19:09:48","新北市板橋區大觀路二段7巷81號","121.449711666667","25.00312","6500100","板橋區"
"220064","486-VK","2017/10/13 19:09:50","新北市板橋區板新路200巷2號","121.469253333333","25.0160816666667","6500100","板橋區"
"220089","487-VK","2017/10/13 19:09:33","新北市板橋區文化路二段503號","121.476058333333","25.034545","6500100","板橋區"
"220088","491-VK","2017/10/13 19:09:43","新北市板橋區文化路二段182巷1弄8號","121.471226666667","25.0276766666667","6500100","板橋區"
"220035","560-BX","2017/10/13 19:09:37","新北市板橋區中正路379巷1弄36號","121.453093333333","25.0218966666667","6500100","板橋區"
"220103","561-BX","2017/10/13 19:09:54","新北市板橋區文化路一段188巷9弄21號","121.46845","25.01954","6500100","板橋區"
"220054","568-UM","2017/10/13 19:09:49","新北市板橋區重慶路139巷17號","121.463543333333","25.00476","6500100","板橋區"
"220063","609-BX","2017/10/13 19:09:47","新北市板橋區三民路二段2號","121.479243333333","25.018295","6500100","板橋區"
"220057","686-BX","2017/10/13 19:09:47","新北市板橋區重慶路141號","121.462346666667","25.0045533333333","6500100","板橋區"
"220077","687-BX","2017/10/13 19:09:50","新北市板橋區大觀路二段107號","121.446133333333","25.001745","6500100","板橋區"
"220093","689-BX","2017/10/13 19:09:34","新北市板橋區民生路三段249號","121.464543333333","25.029015","6500100","板橋區"
"220055","827-TW","2017/10/13 19:09:46","新北市板橋區中山路一段158巷2號","121.465928333333","25.0116666666667","6500100","板橋區"
"220067","829-TW","2017/10/13 19:09:45","新北市板橋區民享街116巷2弄8號","121.477676666667","25.0156666666667","6500100","板橋區"
"220102","830-TW","2017/10/13 19:09:39","新北市板橋區田單街36號","121.48251","25.0280566666667","6500100","板橋區"
"220074","895-R6","2017/10/13 19:09:53","新北市板橋區林園街11號","121.453903333333","25.0094716666667","6500100","板橋區"
"220073","985-R7","2017/10/13 19:09:48","新北市板橋區中正路189號","121.456428333333","25.0169083333333","6500100","板橋區"
"220097","AAC-210","2017/10/13 19:09:53","新北市板橋區幸福路60巷81號","121.459743333333","25.021815","6500100","板橋區"
"220070","AAC-253","2017/10/13 19:09:46","新北市板橋區四川路一段333號","121.45859","25.0002466666667","6500100","板橋區"
