"lineid","car","time","location","longitude","latitude","cityid","cityname"
"232010","375-UM","2017/10/14 07:39:32","新北市坪林區磨壁潭1號","121.718161666667","24.9410366666667","6502000","坪林區"
"232009","758-BX","2017/10/14 07:39:46","新北市石碇區雙溪33-6號","121.649035","25.0072066666667","6502000","坪林區"
"244005","657-BX","2017/10/14 07:39:36","新北市林口區下福里20鄰2號","121.317893333333","25.1080833333333","6501700","林口區"
"222004","289-BY","2017/10/14 07:12:47","新北市深坑區昇高坑路72號","121.63107","24.9876633333333","6501800","深坑區"
"231007","189-VK","2017/10/14 07:39:40","新北市新店區安華路28-1號","121.519645","24.961155","6500600","新店區"
"231008","192-VK","2017/10/14 07:39:38","新北市新店區安華路28-1號","121.519396666667","24.9613616666667","6500600","新店區"
"226005","5620-A6","2017/10/14 07:39:51","新北市平溪區嶺腳里嶺腳寮53號","121.747881666667","25.0310183333333","6502400","平溪區"
"226002","7418-A5","2017/10/14 07:39:42","新北市平溪區平湖里大湖18號","121.77992","25.0220983333333","6502400","平溪區"
"226003","AGD-0702","2017/10/14 07:39:37","新北市平溪區嶺腳里嶺腳寮58號","121.747786666667","25.0312816666667","6502400","平溪區"
"223006","022-BY","2017/10/14 07:39:49","新北市石碇區北宜路五段火燒樟巷11號","121.625425","24.9544033333333","6501900","石碇區"
"223002","198-BX","2017/10/14 07:19:46","新北市石碇區烏塗窟16-2號","121.656275","24.9756316666667","6501900","石碇區"
"223003","205-TH","2017/10/14 07:38:16","新北市石碇區樟空子10-2號","121.666918333333","24.9620966666667","6501900","石碇區"
"223008","406-TH","2017/10/14 07:39:37","新北市石碇區頭3號","121.707065","24.995935","6501900","石碇區"
"223001","592-UM","2017/10/14 07:39:34","新北市石碇區四分子3號","121.664096666667","24.964105","6501900","石碇區"
"223004","660-BX","2017/10/14 07:39:50","新北市石碇區八分寮47號","121.642376666667","25.0138816666667","6501900","石碇區"
"223007","661-BX","2017/10/14 07:39:32","新北市石碇區大溪墘11號","121.694988333333","25.00818","6501900","石碇區"
"223005","677-TV","2017/10/14 07:39:47","新北市石碇區八分寮47-1號","121.642466666667","25.0138483333333","6501900","石碇區"
"227006","282-VK","2017/10/14 07:39:31","新北市雙溪區雙溪里太平路54號","121.86476","25.03544","6502500","雙溪區"
"252004","249-BX","2017/10/14 07:39:35","新北市三芝區店子里菜公坑97號","121.515318333333","25.2076183333333","6502100","三芝區"
"252007","AAC-283","2017/10/14 07:39:35","新北市三芝區古庄里四棧橋57號","121.484228333333","25.26482","6502100","三芝區"
"237001","159-UY","2017/10/14 07:39:42","新北市三峽區大學路33號","121.377553333333","24.94005","6500900","三峽區"
"236011","165-UM","2017/10/14 07:39:40","新北市土城區金城路三段257號","121.471823333333","24.9900283333333","6501300","土城區"
"236002","339-SR","2017/10/14 07:39:28","新北市土城區龍泉路89-2號","121.44484","24.9431066666667","6501300","土城區"
"220064","282-UM","2017/10/14 07:39:33","新北市板橋區民權路328-4號","121.456675","25.0165366666667","6500100","板橋區"
