"lineid","car","time","location","longitude","latitude","cityid","cityname"
"248005","653-BX","2017/06/19 09:19:45","新北市五股區水碓三路43號","121.43023","25.0714783333333","6501500","五股區"
"232017","758-BX","2017/06/19 09:18:54","新北市坪林區坪雙路一段115號","121.72912","24.9481383333333","6502000","坪林區"
"244012","069-UM","2017/06/19 09:19:45","新北市林口區文化一路二段92號","121.381545","25.0787016666667","6501700","林口區"
"244018","403-UM","2017/06/19 09:19:48","新北市林口區文化一路一段100巷11號","121.374016666667","25.0707883333333","6501700","林口區"
"244022","483-VK","2017/06/19 09:19:52","新北市林口區東湖路216號","121.382818333333","25.0737783333333","6501700","林口區"
"244016","485-VK","2017/06/19 09:18:56","新北市林口區文化二路一段120巷13號","121.368425","25.0693883333333","6501700","林口區"
"244008","656-BX","2017/06/19 09:19:36","新北市林口區林口路190號","121.387431666667","25.0828733333333","6501700","林口區"
"244010","701-TV","2017/06/19 09:19:43","新北市林口區中正路26號","121.395821666667","25.0775","6501700","林口區"
"244024","837-TS","2017/06/19 09:19:41","新北市林口區仁愛路二段235號","121.375518333333","25.076135","6501700","林口區"
"243002","548-UM","2017/06/19 09:19:51","新北市泰山區犁頭窠3-1號","121.422216666667","25.0605266666667","6501600","泰山區"
"222005","289-BY","2017/06/19 09:19:43","新北市深坑區土庫尖路75-1號","121.631281666667","25.0182633333333","6501800","深坑區"
"231054","260-TV","2017/06/19 09:19:48","新北市新店區雙峰路75號","121.5868","24.9406616666667","6500600","新店區"
"231008","719-UY","2017/06/19 09:19:48","新北市新店區廣興路60巷35號","121.542456666667","24.9166016666667","6500600","新店區"
"220086","015-TV","2017/06/19 09:01:34","新北市板橋區華東街1-10號","121.448415","24.99512","6500100","板橋區"
"223002","198-BX","2017/06/19 09:19:46","新北市石碇區員潭子坑4號","121.638586666667","24.9849416666667","6501900","石碇區"
"223008","406-TH","2017/06/19 09:11:57","新北市石碇區光明路13號","121.680055","25.0336133333333","6501900","石碇區"
"223001","592-UM","2017/06/19 09:19:53","新北市石碇區北宜路五段坑內巷1號","121.636676666667","24.9531983333333","6501900","石碇區"
"223004","660-BX","2017/06/19 09:19:47","新北市石碇區崩山45號","121.679968333333","24.9683733333333","6501900","石碇區"
"223007","661-BX","2017/06/19 09:19:50","新北市石碇區碇南路二段7號","121.668678333333","25.031105","6501900","石碇區"
"223005","677-TV","2017/06/19 09:19:38","新北市石碇區崩山53號","121.682375","24.96883","6501900","石碇區"
"227005","282-VK","2017/06/19 09:19:54","新北市雙溪區泰平里溪尾寮3號","121.819053333333","24.96825","6502500","雙溪區"
"253002","4710-YM","2017/06/19 09:19:51","新北市石門區七股30號","121.55203","25.2641366666667","6502200","石門區"
"253003","6232-TK","2017/06/19 09:19:56","新北市石門區尖子鹿53-1號","121.582655","25.2732216666667","6502200","石門區"
"253001","6251-TK","2017/06/19 09:19:37","新北市石門區八甲70號","121.531068333333","25.2702116666667","6502200","石門區"
"253004","8270-PC","2017/06/19 09:19:37","新北市石門區坪林50號","121.588385","25.268965","6502200","石門區"
"252006","073-UM","2017/06/19 09:19:44","新北市三芝區古庄里山豬堀14號","121.49259","25.2601016666667","6502100","三芝區"
"252004","249-BX","2017/06/19 09:19:51","新北市三芝區興華里車埕69-3號","121.49336","25.19368","6502100","三芝區"
"236007","165-UM","2017/06/19 09:19:44","新北市土城區中山路47號","121.420893333333","24.9627416666667","6501300","土城區"
"236001","339-SR","2017/06/19 09:19:53","新北市土城區中正路1號","121.44239","24.9750883333333","6501300","土城區"
"236005","498-BY","2017/06/19 09:19:48","新北市土城區中央路三段126巷28號","121.434353333333","24.96731","6501300","土城區"
"242020","AAC-296","2017/06/19 09:19:57","新北市新莊區和興街3號","121.447625","25.0390316666667","6500500","新莊區"
"242028","986-R7","2017/06/19 09:19:52","新北市新莊區昌隆街10號","121.45333","25.0508316666667","6500500","新莊區"
"242047","751-BX","2017/06/19 09:19:50","新北市新莊區成功街172號","121.42277","25.017035","6500500","新莊區"
"242024","615-BX","2017/06/19 09:19:52","新北市新莊區五工三路3號","121.459901666667","25.0642683333333","6500500","新莊區"
"242022","613-BX","2017/06/19 09:19:42","新北市新莊區化成路174號","121.46554","25.0455966666667","6500500","新莊區"
"242026","612-BX","2017/06/19 09:19:52","新北市新莊區思源路233號","121.45983","25.046585","6500500","新莊區"
"242035","566-BX","2017/06/19 09:19:55","新北市新莊區建安街55號","121.42843","25.0253933333333","6500500","新莊區"
"242040","497-BY","2017/06/19 09:19:37","新北市新莊區天祥街47巷19號","121.416265","25.0281583333333","6500500","新莊區"
"242003","442-UM","2017/06/19 09:19:56","新北市新莊區頭興街9巷1號","121.462388333333","25.0535483333333","6500500","新莊區"
"242045","441-UM","2017/06/19 09:19:38","新北市新莊區中正路新生巷9號","121.417078333333","25.0240783333333","6500500","新莊區"
"242049","440-UM","2017/06/19 09:19:53","新北市新莊區民安西路52號","121.427426666667","25.0206466666667","6500500","新莊區"
"242030","415-TV","2017/06/19 09:19:41","新北市新莊區忠孝街29巷24號","121.443643333333","25.0365566666667","6500500","新莊區"
"242001","413-TV","2017/06/19 09:19:53","新北市新莊區中正路78-1號","121.458526666667","25.0377966666667","6500500","新莊區"
"242038","400-BY","2017/06/19 09:19:36","新北市新莊區民安路421號","121.433275","25.0228216666667","6500500","新莊區"
"242059","362-BY","2017/06/19 09:19:57","新北市新莊區瓊林路59-38號","121.44112","25.02344","6500500","新莊區"
"242057","353-BY","2017/06/19 09:19:55","新北市新莊區龍安路266巷4號","121.421595","25.0191433333333","6500500","新莊區"
"242010","132-UY","2017/06/19 09:19:50","新北市新莊區中義街4號","121.451481666667","25.0512216666667","6500500","新莊區"
"242018","135-UY","2017/06/19 09:19:50","新北市新莊區銘德街46號","121.457306666667","25.0436783333333","6500500","新莊區"
"242043","172-VK","2017/06/19 09:19:45","新北市新莊區萬壽路一段21巷17弄10號","121.411091666667","25.0201833333333","6500500","新莊區"
"242006","173-VK","2017/06/19 09:19:39","新北市新莊區思源路287巷2弄14號","121.459461666667","25.04868","6500500","新莊區"
"242012","175-VK","2017/06/19 09:19:38","新北市新莊區中和街175巷11號","121.4472","25.050595","6500500","新莊區"
"242055","176-VK","2017/06/19 09:19:46","新北市新莊區新莊路713巷5弄5號","121.443841666667","25.0320283333333","6500500","新莊區"
"242033","347-TH","2017/06/19 09:19:49","新北市新莊區新泰路199巷4號","121.44676","25.0380883333333","6500500","新莊區"
"242052","349-TH","2017/06/19 09:19:45","新北市新莊區民安西路229巷11號","121.426781666667","25.014245","6500500","新莊區"
"242014","350-TH","2017/06/19 09:19:40","新北市新莊區中平路36巷29號","121.445935","25.0435083333333","6500500","新莊區"
