"lineid","car","time","location","longitude","latitude","cityid","cityname"
"244025","837-TS","2017/06/19 09:43:10","新北市林口區粉寮路二段160巷28號","121.405216666667","25.0907416666667","6501700","林口區"
"231008","719-UY","2017/06/19 10:59:28","新北市新店區小坑一路21-1號","121.532025","24.9131733333333","6500600","新店區"
"220086","015-TV","2017/06/19 09:01:34","新北市板橋區華東街1-10號","121.448415","24.99512","6500100","板橋區"
"227005","282-VK","2017/06/19 10:59:34","新北市雙溪區泰平里泰平7-1號","121.845183333333","24.9876066666667","6502500","雙溪區"
"253001","6251-TK","2017/06/19 10:59:37","新北市石門區中山路62-7號","121.567338333333","25.290135","6502200","石門區"
"252006","AAC-283","2017/06/19 00:38:00","新北市三芝區埔坪里埔頭坑41號","121.504483333333","25.2644916666667","6502100","三芝區"
"242030","415-TV","2017/06/19 10:59:19","新北市新莊區瓊林路59-13號","121.442256666667","25.02524","6500500","新莊區"
"239001","661-UM","2017/06/19 10:59:30","新北市鶯歌區二甲路12-2號","121.345391666667","24.9347983333333","6500800","鶯歌區"
