"lineid","car","time","location","longitude","latitude","cityid","cityname"
"234040","862-TW","2017/06/19 12:09:19","新北市永和區福和路1號","121.526228333333","25.00971","6500400","永和區"
"244025","837-TS","2017/06/19 09:43:10","新北市林口區粉寮路二段160巷28號","121.405216666667","25.0907416666667","6501700","林口區"
"231008","719-UY","2017/06/19 11:48:08","新北市新店區成功路91-1號","121.537713333333","24.895195","6500600","新店區"
"235031","255-BX","2017/06/19 11:55:00","新北市中和區和城路一段271巷1號","121.485405","24.9919916666667","6500300","中和區"
"220086","015-TV","2017/06/19 09:01:34","新北市板橋區華東街1-10號","121.448415","24.99512","6500100","板橋區"
"227005","282-VK","2017/06/19 12:09:14","新北市雙溪區三貂里定福路1-2號","121.85077","25.0634233333333","6502500","雙溪區"
"207002","749-BX","2017/06/19 12:09:14","新北市萬里區萬里里景美路15-1號","121.686553333333","25.173225","6502800","萬里區"
"252006","AAC-283","2017/06/19 00:38:00","新北市三芝區埔坪里埔頭坑41號","121.504483333333","25.2644916666667","6502100","三芝區"
