"lineid","car","time","location","longitude","latitude","cityid","cityname"
"234044","148-BY","2017/06/19 13:29:18","新北市永和區秀朗路二段149號","121.524838333333","25.0016933333333","6500400","永和區"
"234012","149-BY","2017/06/19 13:29:27","新北市永和區永和路二段85號","121.514853333333","25.0113183333333","6500400","永和區"
"234005","207-UY","2017/06/19 13:29:14","新北市永和區中山路一段102號","121.511175","25.0106416666667","6500400","永和區"
"234078","298-R6","2017/06/19 13:29:12","新北市永和區環河東路三段52巷7號","121.526403333333","25.0059416666667","6500400","永和區"
"234036","336-UY","2017/06/19 13:29:23","新北市永和區成功路一段117巷2號","121.527595","25.0020466666667","6500400","永和區"
"234062","337-UY","2017/06/19 13:29:28","新北市永和區中正路368巷1弄75號","121.520546666667","25.0008033333333","6500400","永和區"
"234084","338-UY","2017/06/19 13:29:22","新北市永和區永利路87-1號","121.521501666667","25.0033266666667","6500400","永和區"
"234068","552-UM","2017/06/19 13:29:17","新北市永和區中興街1號","121.515558333333","25.0120516666667","6500400","永和區"
"234052","553-UM","2017/06/19 13:29:14","新北市永和區復興街19巷2號","121.516131666667","25.0131433333333","6500400","永和區"
"234015","745-BX","2017/06/19 13:29:15","新北市永和區環河西路一段63號","121.513341666667","25.0181883333333","6500400","永和區"
"234028","746-BX","2017/06/19 13:29:23","新北市永和區民權路1巷10號","121.52081","24.9983933333333","6500400","永和區"
"234060","AAD-866","2017/06/19 13:29:16","新北市永和區中正路582號","121.517135","25.0065516666667","6500400","永和區"
"234040","862-TW","2017/06/19 13:29:19","新北市永和區中和路519巷2號","121.51093","25.0028933333333","6500400","永和區"
"234048","863-TW","2017/06/19 13:29:27","新北市永和區保福路二段78號","121.510473333333","25.013265","6500400","永和區"
"234025","9371-KE","2017/06/19 13:29:24","新北市永和區豫溪街50號","121.515913333333","25.0099666666667","6500400","永和區"
"234010","9373-KE","2017/06/19 13:29:28","新北市永和區仁愛路141巷5弄12號","121.512311666667","25.0121566666667","6500400","永和區"
"249005","759-BX","2017/06/19 13:28:51","新北市八里區楓林路14號","121.383538333333","25.1275366666667","6502300","八里區"
"248013","025-BX","2017/06/19 13:29:18","新北市五股區成泰路一段110-7號","121.4356","25.0725166666667","6501500","五股區"
"248015","026-BX","2017/06/19 13:29:13","新北市五股區凌雲路一段83巷34號","121.449251666667","25.1010283333333","6501500","五股區"
"248005","077-UY","2017/06/19 13:29:14","新北市五股區四維路25號","121.467116666667","25.0706183333333","6501500","五股區"
"248007","095-VK","2017/06/19 13:29:27","新北市五股區四維路185巷42弄7號","121.463683333333","25.0768333333333","6501500","五股區"
"248019","225-UY","2017/06/19 13:29:16","新北市五股區孝義路82號","121.449343333333","25.1157516666667","6501500","五股區"
"248011","247-BX","2017/06/17 21:12:09","新北市五股區中興路二段161號","121.457835","25.0767416666667","6501500","五股區"
"248009","272-BY","2017/06/19 13:29:20","新北市五股區明德路27號","121.434531666667","25.071325","6501500","五股區"
"248003","677-BX","2017/06/19 13:29:28","新北市五股區六合街3號","121.431953333333","25.088575","6501500","五股區"
"248001","678-BX","2017/06/19 13:29:23","新北市五股區西雲路167-1號","121.446918333333","25.0948466666667","6501500","五股區"
"234022","9380-KE","2017/06/19 13:29:25","新北市永和區竹林路91巷47弄3號","121.521131666667","25.0128616666667","6500400","永和區"
"234076","969-R7","2017/06/19 13:29:10","新北市永和區智光街53號","121.517191666667","24.9980433333333","6500400","永和區"
"234072","AAC-211","2017/06/19 13:29:27","新北市永和區永和路二段105號","121.514891666667","25.0118483333333","6500400","永和區"
"234066","AAC-212","2017/06/19 13:29:30","新北市永和區保平路174巷5號","121.510316666667","25.0073","6500400","永和區"
"234001","AAC-295","2017/06/19 13:26:46","新北市永和區保福路一段47巷20號","121.511851666667","25.00909","6500400","永和區"
"244001","248-BX","2017/06/19 13:29:24","新北市林口區嘉寶里89-1號","121.333123333333","25.1216283333333","6501700","林口區"
"244025","837-TS","2017/06/19 09:43:10","新北市林口區粉寮路二段160巷28號","121.405216666667","25.0907416666667","6501700","林口區"
"243005","AAD-798","2017/06/19 13:29:24","新北市泰山區明志路三段206巷3號","121.4233","25.0379483333333","6501600","泰山區"
"231002","002-UM","2017/06/19 13:29:31","新北市新店區環河路62號","121.53715","24.9626566666667","6500600","新店區"
"231025","0291-UT","2017/06/19 13:29:24","新北市新店區中央五街7號","121.52999","24.9742116666667","6500600","新店區"
"231028","046-UY","2017/06/19 13:29:29","新北市新店區安和路一段2-1號","121.517093333333","24.9645816666667","6500600","新店區"
"231030","047-UY","2017/06/19 13:29:20","新北市新店區安康路一段222-3號","121.52265","24.9637216666667","6500600","新店區"
"231029","106-UY","2017/06/19 13:29:26","新北市新店區安忠路205巷8號","121.50925","24.9548766666667","6500600","新店區"
"231018","107-UY","2017/06/19 13:29:25","新北市新店區中央路216-1號","121.529855","24.9732733333333","6500600","新店區"
"231011","108-UY","2017/06/19 13:29:26","新北市新店區德正街19巷2號","121.54376","24.9723533333333","6500600","新店區"
"231019","187-VK","2017/06/19 13:29:10","新北市新店區永興路88-1號","121.543965","24.933735","6500600","新店區"
"231026","256-BX","2017/06/19 13:29:15","新北市新店區光明街85號","121.538746666667","24.9609066666667","6500600","新店區"
"231010","278-BY","2017/06/19 13:29:23","新北市新店區自由街8號","121.535318333333","24.9750283333333","6500600","新店區"
"231014","AAD-862","2017/06/19 13:29:13","新北市新店區北宜路二段30巷5弄3號","121.548323333333","24.9507633333333","6500600","新店區"
"231027","3712-VJ","2017/06/19 13:29:17","新北市新店區新店後街83號","121.537583333333","24.95541","6500600","新店區"
"231024","3713-VJ","2017/06/19 13:29:14","新北市新店區中正路128巷9弄2號","121.542441666667","24.9719333333333","6500600","新店區"
"231038","4715-K9","2017/06/19 13:29:18","新北市新店區安華路30巷1號","121.51957","24.959265","6500600","新店區"
"231036","512-UM","2017/06/19 13:29:30","新北市新店區建業路86號","121.48057","24.9544516666667","6500600","新店區"
"231023","513-UM","2017/06/19 13:29:27","新北市新店區新店路43號","121.539506666667","24.9526616666667","6500600","新店區"
"231035","515-UM","2017/06/19 13:29:30","新北市新店區安華路28-1號","121.51956","24.9613166666667","6500600","新店區"
"231003","616-UM","2017/06/19 13:29:25","新北市新店區中正路71號","121.543495","24.969695","6500600","新店區"
"231006","617-UM","2017/06/19 13:29:14","新北市新店區安康路一段186號","121.524781666667","24.963315","6500600","新店區"
"231001","619-UM","2017/06/19 13:29:29","新北市新店區安康路一段52巷1號","121.529966666667","24.961245","6500600","新店區"
"231034","645-TV","2017/06/19 13:29:31","新北市新店區車子路109號","121.505225","24.9521083333333","6500600","新店區"
"231013","719-UM","2017/06/19 13:29:29","新北市新店區中正路454-5號","121.534436666667","24.9790233333333","6500600","新店區"
"231031","720-UM","2017/06/19 13:29:17","新北市新店區安忠路57巷11弄14號","121.515553333333","24.95789","6500600","新店區"
"231005","897-TW","2017/06/19 13:29:15","新北市新店區中正路51號","121.54468","24.9699316666667","6500600","新店區"
"231004","899-TW","2017/06/19 13:29:30","新北市新店區安康路一段84號","121.528075","24.96189","6500600","新店區"
"231037","AKT-0513","2017/06/19 13:29:25","新北市新店區薏仁坑路35號","121.493445","24.9631333333333","6500600","新店區"
"235030","003-UY","2017/06/19 13:29:16","新北市中和區中山路二段120號","121.502686666667","25.0037816666667","6500300","中和區"
"235028","005-UY","2017/06/19 13:29:30","新北市中和區圓通路141巷48弄17號","121.498253333333","24.9943466666667","6500300","中和區"
"235027","006-UY","2017/06/19 13:29:18","新北市中和區中正路545號","121.487455","24.9942433333333","6500300","中和區"
"235020","096-UM","2017/06/19 13:29:16","新北市中和區中正路755號","121.484821666667","25.0001166666667","6500300","中和區"
"235003","097-UM","2017/06/19 13:29:27","新北市中和區景平路166號","121.517173333333","24.992285","6500300","中和區"
"235029","098-UM","2017/06/19 13:29:30","新北市中和區莊敬路49巷19號","121.501443333333","25.005805","6500300","中和區"
"235004","150-BY","2017/06/19 13:29:16","新北市中和區安平路59號","121.50953","24.9951116666667","6500300","中和區"
"235022","151-BY","2017/06/19 13:29:16","新北市中和區圓通路369巷152號","121.48794","24.9815933333333","6500300","中和區"
"235019","183-VK","2017/06/19 13:29:27","新北市中和區莒光路222-8號","121.469073333333","24.9947866666667","6500300","中和區"
"235002","185-VK","2017/06/19 13:29:25","新北市中和區大智街100號","121.523871666667","24.9925516666667","6500300","中和區"
"235013","186-VK","2017/06/19 13:29:25","新北市中和區景安路179-3號","121.50514","24.99395","6500300","中和區"
"235031","255-BX","2017/06/19 13:29:24","新北市中和區民樂路81號","121.484646666667","25.001325","6500300","中和區"
"235036","301-VK","2017/06/19 13:29:17","新北市中和區連城路265巷6弄9號","121.491078333333","24.9957816666667","6500300","中和區"
"235007","352-BY","2017/06/19 13:29:30","新北市中和區景平路331號","121.5058","24.993195","6500300","中和區"
"235005","375-QA","2017/06/19 13:29:22","新北市中和區中正路2-1號","121.503178333333","24.993515","6500300","中和區"
"235015","376-QA","2017/06/19 13:29:25","新北市中和區興南路二段242巷2號","121.502721666667","24.982915","6500300","中和區"
"235032","377-QA","2017/06/19 13:29:26","新北市中和區中正路589巷15號","121.485635","24.9933166666667","6500300","中和區"
"235025","378-QA","2017/06/19 13:29:22","新北市中和區民享街116巷8號","121.474138333333","24.9988233333333","6500300","中和區"
"235014","4979-A6","2017/06/19 10:16:11","新北市中和區員山路36巷13號","121.48431","24.9910916666667","6500300","中和區"
"235033","4980-A6","2017/06/19 13:29:27","新北市中和區連城路127巷23號","121.496971666667","24.9978383333333","6500300","中和區"
"235006","551-UM","2017/06/19 13:29:17","新北市中和區秀朗路三段150巷16號","121.523466666667","24.9911216666667","6500300","中和區"
"235034","558-UM","2017/06/19 13:29:24","新北市中和區圓通路119號","121.499413333333","24.996285","6500300","中和區"
"235009","565-BX","2017/06/19 13:29:24","新北市中和區景安路200巷7號","121.50337","24.991635","6500300","中和區"
"235018","640-BX","2017/06/19 13:29:20","新北市中和區民享街114巷1號","121.474485","24.9990916666667","6500300","中和區"
"235024","647-TV","2017/06/19 13:29:17","新北市中和區連城路469巷70弄18號","121.482791666667","24.9936383333333","6500300","中和區"
"235011","732-UM","2017/06/19 13:29:28","新北市中和區南山路300號","121.507865","24.9871416666667","6500300","中和區"
"235035","783-BX","2017/06/19 13:29:17","新北市中和區永和路458巷1弄2號","121.484125","25.012505","6500300","中和區"
"235026","800-TS","2017/06/19 13:29:20","新北市中和區福美路319號","121.496618333333","25.0045583333333","6500300","中和區"
"235021","801-TS","2017/06/19 13:29:25","新北市中和區民享街97巷15號","121.475551666667","24.9999566666667","6500300","中和區"
"235016","805-TS","2017/06/19 13:29:20","新北市中和區興南路二段133號","121.505245","24.98422","6500300","中和區"
"235012","896-TW","2017/06/19 13:29:26","新北市中和區中正路637巷52弄1號","121.48545","24.993445","6500300","中和區"
"235017","900-TW","2017/06/19 13:29:21","新北市中和區連城路583巷17號","121.478986666667","24.9934","6500300","中和區"
"235005","157-BY","2017/06/19 13:29:20","新北市中和區中和路324巷6弄1號","121.509761666667","25.0005883333333","6500300","中和區"
"235001","AAC-213","2017/06/19 13:29:29","新北市中和區景德街54號","121.517468333333","24.9914666666667","6500300","中和區"
"235023","AAC-215","2017/06/19 13:29:13","新北市中和區員山路36巷16-3號","121.485085","24.9913033333333","6500300","中和區"
"220016","013-TV","2017/06/19 13:29:18","新北市板橋區民生路二段17號","121.472468333333","25.016455","6500100","板橋區"
"220086","015-TV","2017/06/19 09:01:34","新北市板橋區華東街1-10號","121.448415","24.99512","6500100","板橋區"
"220013","072-UY","2017/06/19 13:29:14","新北市板橋區民生路二段22號","121.472845","25.0166283333333","6500100","板橋區"
"220034","073-UY","2017/06/19 13:29:23","新北市板橋區華東街1-8號","121.447733333333","24.994855","6500100","板橋區"
"247005","341-TH","2017/06/19 13:29:21","新北市五股區中興路三段2巷10號","121.448811666667","25.0816016666667","6501400","蘆洲區"
"247007","339-TH","2017/06/19 13:29:18","新北市蘆洲區永安南路二段252號","121.45982","25.0801666666667","6501400","蘆洲區"
"247013","057-VK","2017/06/19 13:29:13","新北市五股區中興路三段2巷10號","121.449333333333","25.0810616666667","6501400","蘆洲區"
"208004","AAC-292","2017/06/19 13:29:12","新北市金山區南勢湖80號","121.612155","25.212575","6502700","金山區"
"207002","749-BX","2017/06/19 13:29:14","新北市萬里區崁腳里崁腳路166號","121.645001666667","25.155905","6502800","萬里區"
"207001","463-BY","2017/06/19 13:29:22","新北市萬里區龜吼里新墾丁路122號","121.677691666667","25.2004733333333","6502800","萬里區"
"252005","073-UM","2017/06/19 13:29:09","新北市三芝區圓山里八連溪頭2-3號","121.524046666667","25.2231583333333","6502100","三芝區"
"252006","AAC-283","2017/06/19 00:38:00","新北市三芝區埔坪里埔頭坑41號","121.504483333333","25.2644916666667","6502100","三芝區"
"236064","105-UM","2017/06/19 13:12:57","新北市土城區城林路6巷80號","121.438281666667","24.979745","6501300","土城區"
"236012","270-VK","2017/06/19 13:29:21","新北市土城區城林路6巷80號","121.438445","24.9797383333333","6501300","土城區"
"236005","498-BY","2017/06/19 13:29:25","新北市土城區亞洲路11巷1弄14號","121.435568333333","24.97178","6501300","土城區"
"242043","172-VK","2017/06/19 13:29:22","新北市新莊區成德街64號","121.424065","25.022515","6500500","新莊區"
"221032","280-BY","2017/06/19 13:29:14","新北市汐止區水源路一段56號","121.657378333333","25.06554","6501100","汐止區"
"221018","753-BX","2017/06/19 13:29:29","新北市汐止區福德一路452號","121.625446666667","25.05877","6501100","汐止區"
"220027","145-BY","2017/06/19 13:29:11","新北市板橋區華東街1-9號","121.448206666667","24.99489","6500100","板橋區"
"220030","610-BX","2017/06/19 13:29:18","新北市板橋區華東街1-9號","121.448255","24.9949216666667","6500100","板橋區"
"220012","280-UM","2017/06/19 13:29:14","新北市板橋區民生路二段36-1號","121.472635","25.0167566666667","6500100","板橋區"
"220019","283-VK","2017/06/19 13:29:12","新北市板橋區民生路二段36-1號","121.472555","25.0168133333333","6500100","板橋區"
"220001","285-VK","2017/06/19 13:29:25","新北市板橋區民生路二段22號","121.473","25.0166316666667","6500100","板橋區"
"220029","287-VK","2017/06/19 13:29:18","新北市板橋區華東街1-10號","121.448291666667","24.9950466666667","6500100","板橋區"
"220004","303-R5","2017/06/19 13:29:13","新北市板橋區中山路一段156號","121.465223333333","25.0116233333333","6500100","板橋區"
"220010","305-R5","2017/06/19 13:29:14","新北市板橋區中山路二段89巷7弄15號","121.472738333333","25.016955","6500100","板橋區"
"220104","560-BX","2017/06/19 13:29:11","新北市板橋區中正路1巷18-1號","121.455186666667","25.011545","6500100","板橋區"
"220011","609-BX","2017/06/19 13:29:10","新北市板橋區民生路二段36-1號","121.472478333333","25.0166066666667","6500100","板橋區"
"220005","686-BX","2017/06/19 13:29:18","新北市板橋區民生路二段22號","121.472768333333","25.016535","6500100","板橋區"
"220025","687-BX","2017/06/19 13:29:25","新北市板橋區華東街1-10號","121.448338333333","24.99504","6500100","板橋區"
"220002","741-BX","2017/06/19 13:29:16","新北市板橋區民生路二段36-1號","121.47263","25.016785","6500100","板橋區"
"220022","895-R6","2017/06/19 13:29:17","新北市板橋區南雅南路二段116號","121.453191666667","25.000125","6500100","板橋區"
