"lineid","car","time","location","longitude","latitude","cityid","cityname"
"234044","148-BY","2017/06/19 14:09:18","新北市永和區得和路377號","121.524778333333","24.99936","6500400","永和區"
"234012","149-BY","2017/06/19 14:09:27","新北市永和區永貞路431號","121.506958333333","25.0098566666667","6500400","永和區"
"234005","207-UY","2017/06/19 14:09:14","新北市中和區中和路232號","121.506706666667","24.9995583333333","6500400","永和區"
"234078","298-R6","2017/06/19 14:09:28","新北市永和區國中路31號","121.524523333333","25.00546","6500400","永和區"
"234036","336-UY","2017/06/19 14:09:24","新北市永和區成功路一段93巷23弄15號","121.52846","25.0035333333333","6500400","永和區"
"234062","337-UY","2017/06/19 14:09:28","新北市永和區永利路152號","121.5225","25.0027683333333","6500400","永和區"
"234084","338-UY","2017/06/19 14:09:22","新北市永和區福和路72號","121.523183333333","25.0080033333333","6500400","永和區"
"234068","552-UM","2017/06/19 14:09:17","新北市永和區永安街7巷7號","121.518445","25.0061233333333","6500400","永和區"
"234052","553-UM","2017/06/19 14:09:14","新北市永和區環河東路一段122號","121.520675","25.0154816666667","6500400","永和區"
"234015","745-BX","2017/06/19 14:09:15","新北市永和區仁愛路30號","121.514636666667","25.0134533333333","6500400","永和區"
"234028","746-BX","2017/06/19 14:09:22","新北市永和區民權路84號","121.519901666667","24.997035","6500400","永和區"
"234060","AAD-866","2017/06/19 14:09:16","新北市永和區中正路230號","121.516173333333","24.998035","6500400","永和區"
"234040","862-TW","2017/06/19 14:09:22","新北市永和區雙和街18-1號","121.509435","25.0020133333333","6500400","永和區"
"234048","863-TW","2017/06/19 14:09:28","新北市永和區環河西路二段37號","121.507403333333","25.0156066666667","6500400","永和區"
"234025","9371-KE","2017/06/19 14:09:24","新北市永和區安樂路272巷9弄7號","121.515003333333","25.00461","6500400","永和區"
"249005","759-BX","2017/06/19 14:09:11","新北市八里區小坑18號","121.38664","25.1122616666667","6502300","八里區"
"248015","026-BX","2017/06/19 14:09:13","新北市五股區成泰路三段543巷62號","121.449375","25.10327","6501500","五股區"
"248019","225-UY","2017/06/19 14:01:51","新北市五股區凌雲路三段57號","121.42528","25.1250183333333","6501500","五股區"
"248011","247-BX","2017/06/19 14:09:18","新北市五股區工商路40號","121.439355","25.0837816666667","6501500","五股區"
"248009","272-BY","2017/06/19 14:09:20","新北市五股區水碓一路23號","121.430586666667","25.07128","6501500","五股區"
"248003","677-BX","2017/06/19 14:09:28","新北市五股區六合街3號","121.431863333333","25.0885083333333","6501500","五股區"
"248001","678-BX","2017/06/19 14:09:23","新北市五股區成泰路三段577巷16號","121.451781666667","25.1027383333333","6501500","五股區"
"234022","9380-KE","2017/06/19 14:09:12","新北市永和區竹林路39巷14號","121.518535","25.0146216666667","6500400","永和區"
"234076","969-R7","2017/06/19 14:09:30","新北市永和區民治街59巷10號","121.518461666667","24.9972333333333","6500400","永和區"
"234072","AAC-211","2017/06/19 14:09:26","新北市永和區竹林路191巷20號","121.52161","25.0095983333333","6500400","永和區"
"234066","AAC-212","2017/06/19 14:09:10","新北市永和區永貞路358號","121.510155","25.006575","6500400","永和區"
"234001","AAC-295","2017/06/19 14:07:06","新北市永和區永和路二段5號","121.5144","25.0101766666667","6500400","永和區"
"244001","248-BX","2017/06/19 14:09:24","新北市林口區嘉溪雅坑5-8號","121.34574","25.1000683333333","6501700","林口區"
"244025","837-TS","2017/06/19 09:43:10","新北市林口區粉寮路二段160巷28號","121.405216666667","25.0907416666667","6501700","林口區"
"243005","AAD-798","2017/06/19 14:09:24","新北市泰山區明志路三段277號","121.423123333333","25.0368033333333","6501600","泰山區"
"243001","297-R6","2017/06/19 14:09:21","新北市泰山區楓樹街15巷20號","121.434675","25.0631983333333","6501600","泰山區"
"243007","380-SR","2017/06/19 14:09:29","新北市泰山區明志路一段453-1號","121.430788333333","25.05632","6501600","泰山區"
"243006","421-VK","2017/06/19 14:09:25","新北市泰山區泰林路二段480-1號","121.42499","25.0640466666667","6501600","泰山區"
"243002","548-UM","2017/06/19 14:09:21","新北市泰山區明志路一段485號","121.430713333333","25.0554816666667","6501600","泰山區"
"243003","549-UM","2017/06/19 14:09:14","新北市泰山區明志路二段368號","121.425515","25.0448283333333","6501600","泰山區"
"243004","646-TV","2017/06/19 14:09:31","新北市泰山區辭修路36巷8弄5號","121.427856666667","25.0586","6501600","泰山區"
"243008","680-BX","2017/06/19 14:09:24","新北市泰山區明志路三段1號","121.4248","25.04343","6501600","泰山區"
"231002","002-UM","2017/06/19 14:09:22","新北市新店區中正路547號","121.533805","24.9877466666667","6500600","新店區"
"231025","0291-UT","2017/06/19 14:09:24","新北市新店區中正路328巷35號","121.53775","24.9760833333333","6500600","新店區"
"231028","046-UY","2017/06/19 14:09:09","新北市新店區安和路二段232-1號","121.516781666667","24.9769416666667","6500600","新店區"
"231030","047-UY","2017/06/19 14:09:20","新北市新店區薏仁坑路自強巷1號","121.497708333333","24.9577883333333","6500600","新店區"
"231029","106-UY","2017/06/19 14:09:26","新北市新店區安康路二段130-2號","121.512598333333","24.9621233333333","6500600","新店區"
"231018","107-UY","2017/06/19 14:09:25","新北市新店區中央五街15號","121.529671666667","24.9743866666667","6500600","新店區"
"231011","108-UY","2017/06/19 14:09:26","新北市新店區五峰路63巷6號","121.546461666667","24.9684233333333","6500600","新店區"
"231019","187-VK","2017/06/19 14:09:30","新北市新店區屈尺路2號","121.549365","24.9225116666667","6500600","新店區"
"231014","AAD-862","2017/06/19 14:09:13","新北市新店區郵政路1巷6號","121.55739","24.9521066666667","6500600","新店區"
"231027","3712-VJ","2017/06/19 14:09:17","新北市新店區中興路一段24號","121.53863","24.958395","6500600","新店區"
"231038","4715-K9","2017/06/19 14:09:18","新北市新店區溪洲路121號","121.53117","24.9629133333333","6500600","新店區"
"231036","512-UM","2017/06/19 14:09:10","新北市新店區安祥路109巷3弄104號","121.47932","24.96046","6500600","新店區"
"231023","513-UM","2017/06/19 14:09:27","新北市新店區北宜路一段41-1號","121.538505","24.9573216666667","6500600","新店區"
"231035","515-UM","2017/06/19 14:09:30","新北市新店區安和路一段52巷2-1號","121.517721666667","24.9666166666667","6500600","新店區"
"231003","616-UM","2017/06/19 14:09:25","新北市新店區中興路一段112-1號","121.540666666667","24.9614066666667","6500600","新店區"
"231006","617-UM","2017/06/19 14:09:21","新北市新店區北宜路二段108-1號","121.555793333333","24.95373","6500600","新店區"
"231001","619-UM","2017/06/19 14:09:19","新北市新店區三民路31-3號","121.53797","24.9705216666667","6500600","新店區"
"231034","645-TV","2017/06/19 14:09:31","新北市新店區黎明路3號","121.503418333333","24.9523533333333","6500600","新店區"
"231013","719-UM","2017/06/19 14:09:29","新北市新店區二十張路1巷3弄3號","121.540595","24.98212","6500600","新店區"
"231031","720-UM","2017/06/19 14:09:17","新北市新店區永業路51巷2號","121.531866666667","24.954695","6500600","新店區"
"231005","897-TW","2017/06/19 14:09:15","新北市新店區中興路三段324號","121.542096666667","24.9861533333333","6500600","新店區"
"231004","899-TW","2017/06/19 14:09:10","新北市新店區北新路三段2號","121.542493333333","24.9787883333333","6500600","新店區"
"231037","AKT-0513","2017/06/19 14:09:25","新北市新店區安康路二段341巷48號","121.496691666667","24.9543366666667","6500600","新店區"
"235030","003-UY","2017/06/19 14:09:15","新北市中和區廣福路10號","121.505648333333","25.0028916666667","6500300","中和區"
"235028","005-UY","2017/06/19 14:09:30","新北市中和區泰和街44巷34號","121.498288333333","25.0010333333333","6500300","中和區"
"235027","006-UY","2017/06/19 14:09:18","新北市中和區中正路604號","121.485758333333","24.9954166666667","6500300","中和區"
"235020","096-UM","2017/06/19 14:09:29","新北市中和區中正路1191號","121.480643333333","25.0099366666667","6500300","中和區"
"235003","097-UM","2017/06/19 14:09:22","新北市中和區景平路3號","121.523903333333","24.9902766666667","6500300","中和區"
"235029","098-UM","2017/06/19 14:09:30","新北市中和區勝利路35巷22號","121.49908","25.0068866666667","6500300","中和區"
"235004","150-BY","2017/06/19 14:09:16","新北市中和區宜安路121號","121.509965","24.997885","6500300","中和區"
"235022","151-BY","2017/06/19 14:09:16","新北市中和區員山路104號","121.481093333333","24.9954416666667","6500300","中和區"
"235019","183-VK","2017/06/19 14:09:27","新北市中和區民德路2號","121.46872","25.00344","6500300","中和區"
"235002","185-VK","2017/06/19 14:09:25","新北市中和區自強路66號","121.51987","24.99421","6500300","中和區"
"235013","186-VK","2017/06/19 14:09:25","新北市中和區明禮街24號","121.50454","24.9960966666667","6500300","中和區"
"235031","255-BX","2017/06/19 14:09:24","新北市中和區新生街170號","121.483665","25.0000883333333","6500300","中和區"
"235008","293-VK","2017/06/19 14:09:14","新北市中和區中興街161巷8弄2號","121.500893333333","24.9908783333333","6500300","中和區"
"235036","301-VK","2017/06/19 14:09:17","新北市中和區景平路731號","121.496428333333","25.0042183333333","6500300","中和區"
"235007","352-BY","2017/06/19 14:09:30","新北市中和區景平路4號","121.524208333333","24.9904716666667","6500300","中和區"
"235005","375-QA","2017/06/19 14:09:22","新北市中和區安平路161號","121.512428333333","24.9986283333333","6500300","中和區"
"235015","376-QA","2017/06/19 14:09:25","新北市中和區仁愛街36巷44號","121.51138","24.98636","6500300","中和區"
"235032","377-QA","2017/06/19 14:09:26","新北市中和區圓通路162巷2弄1號","121.497113333333","24.995365","6500300","中和區"
"235025","378-QA","2017/06/19 14:09:22","新北市中和區員山路333號","121.481278333333","25.0013583333333","6500300","中和區"
"235014","4979-A6","2017/06/19 14:09:12","新北市中和區復興路280巷18弄20號","121.501808333333","24.992255","6500300","中和區"
"235033","4980-A6","2017/06/19 14:09:27","新北市中和區廣福路106號","121.502401666667","25.00119","6500300","中和區"
"235006","551-UM","2017/06/19 14:09:17","新北市中和區自立路131號","121.521956666667","24.9939933333333","6500300","中和區"
"235034","558-UM","2017/06/19 14:09:24","新北市中和區安和路209號","121.506001666667","24.9988816666667","6500300","中和區"
"235009","565-BX","2017/06/19 14:09:24","新北市中和區景新街467巷15弄2號","121.514198333333","24.9884216666667","6500300","中和區"
"235018","640-BX","2017/06/19 14:09:20","新北市中和區民享街91-4號","121.474441666667","25.0011833333333","6500300","中和區"
"235024","647-TV","2017/06/19 14:09:17","新北市中和區民治街25巷2號","121.475453333333","25.0017883333333","6500300","中和區"
"235011","732-UM","2017/06/19 14:09:28","新北市中和區興南路二段21號","121.507921666667","24.9859433333333","6500300","中和區"
"235010","733-UM","2017/06/19 14:09:16","新北市中和區忠孝街1巷48號","121.508456666667","24.984295","6500300","中和區"
"235035","783-BX","2017/06/19 14:09:17","新北市中和區立德街98巷16號","121.487668333333","25.0085933333333","6500300","中和區"
"235026","800-TS","2017/06/19 14:09:20","新北市中和區中山路二段366巷34號","121.491681666667","25.0049366666667","6500300","中和區"
"235021","801-TS","2017/06/19 14:09:21","新北市中和區民利街100巷2弄2號","121.477463333333","24.9979933333333","6500300","中和區"
"235016","805-TS","2017/06/19 14:09:20","新北市中和區興南路二段261巷1號","121.502733333333","24.980995","6500300","中和區"
"235012","896-TW","2017/06/19 14:09:26","新北市中和區華新街109巷11弄2-8號","121.508086666667","24.9796583333333","6500300","中和區"
"235017","900-TW","2017/06/19 14:09:21","新北市中和區和平路200巷1-7號","121.464471666667","24.99518","6500300","中和區"
"235005","157-BY","2017/06/19 14:09:20","新北市中和區中安街42號","121.512938333333","25.0027866666667","6500300","中和區"
"235001","AAC-213","2017/06/19 14:09:09","新北市中和區秀朗路三段128巷25弄6號","121.524021666667","24.9939433333333","6500300","中和區"
"235023","AAC-215","2017/06/19 14:09:13","新北市中和區圓通路296巷31弄1號","121.488573333333","24.9904133333333","6500300","中和區"
"220016","013-TV","2017/06/19 14:09:19","新北市板橋區翠華街6巷29號","121.48144","25.0244783333333","6500100","板橋區"
"220086","015-TV","2017/06/19 09:01:34","新北市板橋區華東街1-10號","121.448415","24.99512","6500100","板橋區"
"220013","072-UY","2017/06/19 14:09:14","新北市板橋區民族路247巷3弄2號","121.470413333333","25.0075816666667","6500100","板橋區"
"220034","073-UY","2017/06/19 14:09:23","新北市板橋區中正路236巷53號","121.458093333333","25.0194583333333","6500100","板橋區"
"220105","075-UY","2017/06/19 14:09:21","新北市板橋區文化路二段263巷20號","121.47122","25.0297616666667","6500100","板橋區"
"220017","AAD-861","2017/06/19 14:09:26","新北市板橋區華興街76號","121.457153333333","25.0050466666667","6500100","板橋區"
"247019","893-R6","2017/06/19 14:09:26","新北市蘆洲區民族路426巷22號","121.473031666667","25.0928466666667","6501400","蘆洲區"
"247009","546-UM","2017/06/19 14:09:20","新北市蘆洲區三民路52號","121.475411666667","25.08353","6501400","蘆洲區"
"247017","500-BY","2017/06/19 14:09:12","新北市蘆洲區復興路111-5號","121.476726666667","25.0883766666667","6501400","蘆洲區"
"247005","341-TH","2017/06/19 14:09:21","新北市蘆洲區和平路91號","121.468115","25.0786733333333","6501400","蘆洲區"
"247007","339-TH","2017/06/19 14:09:25","新北市蘆洲區中山一路270號","121.471706666667","25.0793616666667","6501400","蘆洲區"
"247023","337-TH","2017/06/19 14:09:17","新北市蘆洲區光榮路112號","121.464425","25.0893383333333","6501400","蘆洲區"
"247001","336-TH","2017/06/19 14:09:25","新北市蘆洲區永平街32巷1號","121.458748333333","25.090945","6501400","蘆洲區"
"247013","057-VK","2017/06/19 14:09:13","新北市蘆洲區忠孝路31號","121.471323333333","25.0856733333333","6501400","蘆洲區"
"247003","056-VK","2017/06/19 14:09:24","新北市蘆洲區中華街6巷36號","121.462715","25.0823916666667","6501400","蘆洲區"
"247011","007-UY","2017/06/19 14:09:22","新北市蘆洲區信義路248號","121.478481666667","25.08638","6501400","蘆洲區"
"247021","002-UY","2017/06/19 14:09:13","新北市蘆洲區三民路120號","121.471265","25.0872483333333","6501400","蘆洲區"
"247015","001-UY","2017/06/19 14:09:11","新北市蘆洲區光華路46巷34號","121.467978333333","25.0840833333333","6501400","蘆洲區"
"208004","AAC-292","2017/06/19 14:09:31","新北市金山區山城路91號","121.598988333333","25.1999633333333","6502700","金山區"
"207002","749-BX","2017/06/19 14:09:13","新北市萬里區溪底里瑞泉路9號","121.605036666667","25.1436916666667","6502800","萬里區"
"207001","463-BY","2017/06/19 14:09:22","新北市萬里區磺潭里清水18號","121.637886666667","25.1977233333333","6502800","萬里區"
"252005","073-UM","2017/06/19 14:09:29","新北市三芝區橫山里橫山23-6號","121.540925","25.26087","6502100","三芝區"
"252006","AAC-283","2017/06/19 00:38:00","新北市三芝區埔坪里埔頭坑41號","121.504483333333","25.2644916666667","6502100","三芝區"
"236064","105-UM","2017/06/19 14:09:11","新北市土城區學士路278-10號","121.445643333333","24.9777233333333","6501300","土城區"
"236040","107-UM","2017/06/19 14:09:15","新北市土城區裕生路61號","121.44766","24.9860616666667","6501300","土城區"
"236074","166-UM","2017/06/19 14:09:19","新北市土城區永寧路32巷10弄83號","121.428253333333","24.9616266666667","6501300","土城區"
"236028","253-BX","2017/06/19 14:09:26","新北市土城區城林路6巷80號","121.438435","24.979735","6501300","土城區"
"236024","269-VK","2017/06/19 14:09:25","新北市土城區承天路67號","121.439496666667","24.963565","6501300","土城區"
"236012","270-VK","2017/06/19 14:09:21","新北市土城區學府路一段152號","121.45452","24.9869033333333","6501300","土城區"
"236032","271-VK","2017/06/19 14:09:26","新北市土城區明德路一段280號","121.457575","24.9774166666667","6501300","土城區"
"236016","401-BY","2017/06/19 14:09:18","新北市土城區中華路二段2號","121.439508333333","24.9795266666667","6501300","土城區"
"236005","498-BY","2017/06/19 14:09:25","新北市土城區中華路一段2號","121.448186666667","24.9908766666667","6501300","土城區"
"236056","912-UM","2017/06/19 14:09:12","新北市土城區中央路三段188號","121.430466666667","24.9648766666667","6501300","土城區"
"236044","913-UM","2017/06/19 14:09:29","新北市土城區明德路一段385-1號","121.452728333333","24.97972","6501300","土城區"
"236060","915-UM","2017/06/19 14:09:24","新北市土城區青雲路145號","121.458653333333","24.984225","6501300","土城區"
"236052","AAC-216","2017/06/19 14:09:31","新北市土城區中華路二段108號","121.437978333333","24.9741833333333","6501300","土城區"
"221032","280-BY","2017/06/19 14:09:14","台北市文山區新光路二段74巷1號","121.592986666667","24.9938533333333","6501100","汐止區"
"220027","145-BY","2017/06/19 14:09:25","新北市板橋區民權路260巷54號","121.459918333333","25.0150916666667","6500100","板橋區"
"220042","146-RM","2017/06/19 14:09:30","新北市板橋區民生路三段257號","121.46445","25.0293633333333","6500100","板橋區"
"220030","610-BX","2017/06/19 14:09:27","新北市板橋區滿平街95號","121.428191666667","24.98873","6500100","板橋區"
"220050","245-BX","2017/06/19 14:09:29","新北市板橋區莊敬路142-3號","121.47125","25.0231883333333","6500100","板橋區"
"220043","267-BY","2017/06/19 14:09:29","新北市板橋區光武街108-5號","121.465785","25.0291083333333","6500100","板橋區"
"220020","277-BY","2017/06/19 14:09:21","新北市板橋區溪北路166號","121.430848333333","24.98811","6500100","板橋區"
"220012","280-UM","2017/06/19 14:09:21","新北市板橋區板新路15號","121.474935","25.0126383333333","6500100","板橋區"
"220019","283-VK","2017/06/19 14:09:12","新北市板橋區忠孝路132號","121.463376666667","25.00222","6500100","板橋區"
"220038","285-UM","2017/06/19 14:09:17","新北市板橋區文化路二段419號","121.474623333333","25.0326366666667","6500100","板橋區"
"220001","285-VK","2017/06/19 14:09:25","新北市板橋區懷仁街14巷27號","121.475543333333","25.0193733333333","6500100","板橋區"
"220031","286-VK","2017/06/19 14:09:13","新北市板橋區龍興街97巷1號","121.444045","25.002655","6500100","板橋區"
"220029","287-VK","2017/06/19 14:09:18","新北市板橋區光華街39巷27號","121.452955","25.0129","6500100","板橋區"
"220039","288-VK","2017/06/19 14:09:13","新北市板橋區四維路291巷4弄1號","121.462325","25.0282783333333","6500100","板橋區"
"220009","293-UM","2017/06/19 14:09:17","新北市板橋區中山路二段311號","121.478888333333","25.0184516666667","6500100","板橋區"
"220032","296-UM","2017/06/19 14:09:28","新北市板橋區龍興街2號","121.442676666667","24.9993916666667","6500100","板橋區"
"220023","297-UM","2017/06/19 14:09:25","新北市板橋區大智街25巷22號","121.454538333333","25.0148","6500100","板橋區"
"220004","303-R5","2017/06/19 14:09:17","新北市板橋區信義路74巷3弄1號","121.457051666667","24.993075","6500100","板橋區"
"220010","305-R5","2017/06/19 14:09:14","新北市板橋區三民路二段205-2號","121.47932","25.0132283333333","6500100","板橋區"
"220041","307-R5","2017/06/19 14:09:20","新北市板橋區文化路二段225巷37號","121.469305","25.02836","6500100","板橋區"
"220047","317-R6","2017/06/19 14:09:22","新北市板橋區自由路51巷14弄5號","121.464671666667","25.0237233333333","6500100","板橋區"
"220037","491-VK","2017/06/19 14:09:02","新北市板橋區文化路二段182巷9弄9號","121.47267","25.0269883333333","6500100","板橋區"
"220104","560-BX","2017/06/19 14:09:31","新北市板橋區中正路407號","121.45412","25.0223416666667","6500100","板橋區"
"220052","561-BX","2017/06/19 14:09:17","新北市板橋區文化路一段188巷9弄39號","121.4693","25.0190683333333","6500100","板橋區"
"220011","609-BX","2017/06/19 14:09:29","新北市板橋區三民路二段67號","121.479531666667","25.0171416666667","6500100","板橋區"
"220040","637-BX","2017/06/19 14:09:28","新北市板橋區萬板路518號","121.480643333333","25.02641","6500100","板橋區"
"220005","686-BX","2017/06/19 14:09:18","新北市板橋區重慶路89巷2-1號","121.462008333333","25.0062433333333","6500100","板橋區"
"220025","687-BX","2017/06/19 14:09:25","新北市板橋區大觀路二段174巷177號","121.442043333333","25.0037166666667","6500100","板橋區"
"220002","741-BX","2017/06/19 14:09:16","新北市板橋區重慶路93巷32號","121.463351666667","25.005915","6500100","板橋區"
"220003","827-TW","2017/06/19 14:09:30","新北市板橋區新民街2號","121.46438","25.009035","6500100","板橋區"
"220014","829-TW","2017/06/19 14:09:29","新北市板橋區民生路一段35號","121.475738333333","25.0129","6500100","板橋區"
"220051","830-TW","2017/06/19 14:09:20","新北市板橋區萬板路818巷1號","121.482966666667","25.027265","6500100","板橋區"
"220045","831-TW","2017/06/19 14:09:21","新北市板橋區雙十路二段47巷6號","121.476138333333","25.0260866666667","6500100","板橋區"
"220022","895-R6","2017/06/19 14:09:17","新北市板橋區林園街51號","121.4537","25.010125","6500100","板橋區"
"220021","985-R7","2017/06/19 14:09:15","新北市板橋區中正路159巷2號","121.45664","25.0162366666667","6500100","板橋區"
"220046","AAC-210","2017/06/19 14:09:21","新北市板橋區英士路76號","121.460116666667","25.0241916666667","6500100","板橋區"
"220018","AAC-253","2017/06/19 14:09:24","新北市板橋區四川路一段236號","121.459213333333","25.001715","6500100","板橋區"
