"lineid","car","time","location","longitude","latitude","cityid","cityname"
"234012","149-BY","2017/06/19 14:29:27","新北市永和區仁愛路295號","121.505128333333","25.00907","6500400","永和區"
"234005","207-UY","2017/06/19 14:29:14","新北市永和區中正路512號","121.517233333333","25.004685","6500400","永和區"
"234078","298-R6","2017/06/19 14:29:12","新北市永和區福和路57巷11弄2號","121.523006666667","25.0073066666667","6500400","永和區"
"234036","336-UY","2017/06/19 14:29:23","新北市永和區環河東路四段40號","121.528788333333","24.9988916666667","6500400","永和區"
"234062","337-UY","2017/06/19 14:29:28","新北市永和區中正路433號","121.517045","25.0050333333333","6500400","永和區"
"234084","338-UY","2017/06/19 14:29:22","新北市永和區永和路二段201號","121.515358333333","25.013555","6500400","永和區"
"234052","553-UM","2017/06/19 14:29:14","新北市永和區光復街26-1號","121.516573333333","25.0173383333333","6500400","永和區"
"234028","746-BX","2017/06/19 14:29:22","新北市三重區重新路五段326巷25-1號","121.479698333333","25.0426633333333","6500400","永和區"
"234060","AAD-866","2017/06/19 14:29:22","新北市永和區安樂路182號","121.514895","25.0011866666667","6500400","永和區"
"234040","862-TW","2017/06/19 14:29:19","新北市永和區安樂路330號","121.514391666667","25.00586","6500400","永和區"
"234048","863-TW","2017/06/19 14:29:27","新北市永和區保安路136號","121.508533333333","25.01532","6500400","永和區"
"234025","9371-KE","2017/06/19 14:29:24","新北市永和區安樂路144巷24號","121.515155","24.9997033333333","6500400","永和區"
"249005","759-BX","2017/06/19 14:29:11","新北市八里區長道坑33-1號","121.399903333333","25.0940933333333","6502300","八里區"
"248013","025-BX","2017/06/19 14:29:15","新北市五股區民義路一段161號","121.432466666667","25.0875216666667","6501500","五股區"
"248015","026-BX","2017/06/19 14:29:13","新北市五股區成泰路三段625號","121.452898333333","25.104135","6501500","五股區"
"248007","095-VK","2017/06/19 14:29:27","新北市五股區中興路一段95巷20號","121.466545","25.0722683333333","6501500","五股區"
"248019","225-UY","2017/06/19 14:01:51","新北市五股區凌雲路三段57號","121.42528","25.1250183333333","6501500","五股區"
"248011","247-BX","2017/06/19 14:29:18","新北市五股區蓬萊路10號","121.435276666667","25.07956","6501500","五股區"
"248009","272-BY","2017/06/19 14:29:20","新北市五股區水碓一路23號","121.430618333333","25.0712266666667","6501500","五股區"
"248003","677-BX","2017/06/19 14:29:28","新北市五股區五福路37號","121.433486666667","25.0894666666667","6501500","五股區"
"248001","678-BX","2017/06/19 14:29:23","新北市五股區成泰路三段436號","121.450835","25.0994766666667","6501500","五股區"
"234072","AAC-211","2017/06/19 14:29:26","新北市永和區竹林路119巷16號","121.521065","25.0113683333333","6500400","永和區"
"234066","AAC-212","2017/06/19 14:29:30","新北市永和區保平路236巷7弄1號","121.508805","25.0060433333333","6500400","永和區"
"234001","AAC-295","2017/06/19 14:27:06","新北市永和區福和路376號","121.51432","25.00789","6500400","永和區"
"244001","248-BX","2017/06/19 14:29:24","新北市林口區林口路76號","121.389685","25.08066","6501700","林口區"
"244025","837-TS","2017/06/19 09:43:10","新北市林口區粉寮路二段160巷28號","121.405216666667","25.0907416666667","6501700","林口區"
"243005","AAD-798","2017/06/19 14:29:24","新北市泰山區貴子路38號","121.426018333333","25.0416383333333","6501600","泰山區"
"243001","297-R6","2017/06/19 14:29:13","新北市五股區成泰路一段7巷22號","121.43302","25.0668666666667","6501600","泰山區"
"243007","380-SR","2017/06/19 14:29:09","新北市泰山區民權街65號","121.428901666667","25.0498933333333","6501600","泰山區"
"243006","421-VK","2017/06/19 14:29:27","新北市泰山區中港西路490號","121.43268","25.0524766666667","6501600","泰山區"
"243002","548-UM","2017/06/19 14:29:20","新北市泰山區中華街1巷2號","121.428191666667","25.0523566666667","6501600","泰山區"
"243003","549-UM","2017/06/19 14:29:14","新北市泰山區貴子路67巷27號","121.431036666667","25.041015","6501600","泰山區"
"243004","646-TV","2017/06/19 14:29:30","新北市泰山區全興路18巷25號","121.431985","25.0585216666667","6501600","泰山區"
"243008","680-BX","2017/06/19 14:29:24","新北市新莊區新北大道七段120號","121.41748","25.032105","6501600","泰山區"
"231002","002-UM","2017/06/19 14:29:11","新北市新店區中央路200號","121.530445","24.9742583333333","6500600","新店區"
"231025","0291-UT","2017/06/19 14:29:24","新北市新店區民族路106號","121.538978333333","24.9780016666667","6500600","新店區"
"231028","046-UY","2017/06/19 14:29:29","新北市新店區安成街2號","121.510988333333","24.9601966666667","6500600","新店區"
"231030","047-UY","2017/06/19 14:29:20","新北市新店區安民街67-3號","121.516275","24.96681","6500600","新店區"
"231029","106-UY","2017/06/19 14:29:26","新北市新店區安康路二段400-1號","121.496931666667","24.95538","6500600","新店區"
"231018","107-UY","2017/06/19 14:29:25","新北市新店區中央二街60號","121.526753333333","24.9745483333333","6500600","新店區"
"231011","108-UY","2017/06/19 14:29:26","新北市新店區寶興路40號","121.548791666667","24.9740533333333","6500600","新店區"
"231019","187-VK","2017/06/19 14:29:30","新北市新店區新烏路三段69號","121.55569","24.9040883333333","6500600","新店區"
"231014","AAD-862","2017/06/19 14:29:13","新北市新店區雙峰路16-1號","121.58117","24.95032","6500600","新店區"
"231027","3712-VJ","2017/06/19 14:29:17","新北市新店區北新路二段228巷15號","121.54347","24.9770866666667","6500600","新店區"
"231038","4715-K9","2017/06/19 14:29:18","新北市新店區溪洲路8巷34號","121.533413333333","24.9620466666667","6500600","新店區"
"231036","512-UM","2017/06/19 14:29:30","新北市新店區安祥路109巷90弄74號","121.476088333333","24.9585583333333","6500600","新店區"
"231023","513-UM","2017/06/19 14:29:27","新北市新店區光明街137號","121.539491666667","24.9619933333333","6500600","新店區"
"231035","515-UM","2017/06/19 14:29:10","新北市新店區安民街3巷1號","121.514558333333","24.96422","6500600","新店區"
"231003","616-UM","2017/06/19 14:29:25","新北市新店區中興路一段267-3號","121.545026666667","24.9678483333333","6500600","新店區"
"231006","617-UM","2017/06/19 14:29:14","新北市新店區北宜路二段493號","121.562856666667","24.953815","6500600","新店區"
"231001","619-UM","2017/06/19 14:29:09","新北市新店區北新路一段96巷23號","121.543001666667","24.9688733333333","6500600","新店區"
"231034","645-TV","2017/06/19 14:29:20","新北市新店區黎明路11號","121.502048333333","24.9499916666667","6500600","新店區"
"231013","719-UM","2017/06/19 14:29:29","新北市新店區民權路100-1號","121.536243333333","24.983385","6500600","新店區"
"231031","720-UM","2017/06/19 14:29:17","新北市新店區安業街33號","121.517466666667","24.9771883333333","6500600","新店區"
"231005","897-TW","2017/06/19 14:29:19","新北市新店區寶強路27號","121.543611666667","24.9789733333333","6500600","新店區"
"231004","899-TW","2017/06/19 14:29:10","新北市新店區中正路235號","121.53937","24.9731683333333","6500600","新店區"
"231037","AKT-0513","2017/06/19 14:29:25","新北市新店區車子路25號","121.504468333333","24.9523116666667","6500600","新店區"
"235030","003-UY","2017/06/19 14:29:15","新北市中和區景新街5號","121.503103333333","24.9995366666667","6500300","中和區"
"235028","005-UY","2017/06/19 14:29:30","新北市中和區連城路4號","121.499155","25.0023733333333","6500300","中和區"
"235027","006-UY","2017/06/19 14:29:18","新北市中和區連勝街119號","121.495081666667","24.99542","6500300","中和區"
"235020","096-UM","2017/06/19 14:29:19","新北市中和區民富街94號","121.47679","25.0085333333333","6500300","中和區"
"235003","097-UM","2017/06/19 14:29:22","新北市中和區秀峰街82號","121.519905","24.9908766666667","6500300","中和區"
"235029","098-UM","2017/06/19 14:29:29","新北市中和區中山路二段2巷17號","121.503748333333","25.006705","6500300","中和區"
"235004","150-BY","2017/06/19 14:29:16","新北市中和區安樂路83號","121.512676666667","24.99448","6500300","中和區"
"235022","151-BY","2017/06/19 14:29:16","新北市中和區連城路467-6號","121.48359","24.99592","6500300","中和區"
"235019","183-VK","2017/06/19 14:29:27","新北市中和區中山路三段181巷18弄11號","121.472651666667","25.0047883333333","6500300","中和區"
"235002","185-VK","2017/06/19 14:29:25","新北市中和區大智街55巷33號","121.5204","24.99297","6500300","中和區"
"235013","186-VK","2017/06/19 14:29:25","新北市中和區景新街287號","121.509808333333","24.9933316666667","6500300","中和區"
"235031","255-BX","2017/06/19 14:29:24","新北市中和區民樂路81號","121.48466","25.0012766666667","6500300","中和區"
"235008","293-VK","2017/06/19 14:29:14","新北市中和區中興街250號","121.499533333333","24.98818","6500300","中和區"
"235036","301-VK","2017/06/19 14:29:17","新北市永和區中和路100號","121.50048","25.0001033333333","6500300","中和區"
"235007","352-BY","2017/06/19 14:29:30","新北市中和區景平路316號","121.512291666667","24.9926133333333","6500300","中和區"
"235005","375-QA","2017/06/19 14:29:22","新北市中和區安平路161號","121.512435","24.99864","6500300","中和區"
"235015","376-QA","2017/06/19 14:29:25","新北市中和區捷運路58-2號","121.507558333333","24.99071","6500300","中和區"
"235032","377-QA","2017/06/19 14:29:26","新北市中和區圓通路158巷3號","121.497811666667","24.9962733333333","6500300","中和區"
"235025","378-QA","2017/06/19 14:29:22","新北市中和區員山路226巷5弄2號","121.48169","25.00066","6500300","中和區"
"235014","4979-A6","2017/06/19 14:29:12","新北市中和區和城路一段271巷1號","121.485376666667","24.9917383333333","6500300","中和區"
"235006","551-UM","2017/06/19 14:29:25","新北市中和區中和路350巷15弄4號","121.510723333333","25.00091","6500300","中和區"
"235034","558-UM","2017/06/19 14:29:24","新北市中和區景平路603號","121.496625","25.0012233333333","6500300","中和區"
"235009","565-BX","2017/06/19 14:29:24","新北市中和區景新街423巷31號","121.513795","24.989585","6500300","中和區"
"235018","640-BX","2017/06/19 14:29:20","新北市中和區國光街109巷27號","121.469443333333","24.99941","6500300","中和區"
"235024","647-TV","2017/06/19 14:29:16","新北市中和區新生街114巷4號","121.483178333333","25.00237","6500300","中和區"
"235011","732-UM","2017/06/19 14:29:28","新北市中和區景平路243-1號","121.50934","24.99266","6500300","中和區"
"235010","733-UM","2017/06/19 14:29:16","新北市中和區忠孝街22號","121.510408333333","24.9828466666667","6500300","中和區"
"235035","783-BX","2017/06/19 14:29:17","新北市中和區連城路280號","121.484531666667","24.9963866666667","6500300","中和區"
"235026","800-TS","2017/06/19 14:29:20","新北市中和區中山路二段359巷2號","121.488423333333","25.0044683333333","6500300","中和區"
"235021","801-TS","2017/06/19 14:29:21","新北市中和區中山路三段37巷47號","121.47999","25.004625","6500300","中和區"
"235016","805-TS","2017/06/19 14:29:20","新北市中和區華新街143巷19號","121.506556666667","24.980965","6500300","中和區"
"235012","896-TW","2017/06/19 14:29:27","新北市中和區忠孝街37巷1號","121.510801666667","24.9834316666667","6500300","中和區"
"235017","900-TW","2017/06/19 14:29:29","新北市中和區華安街16號","121.466295","24.9982666666667","6500300","中和區"
"235005","157-BY","2017/06/19 14:29:20","新北市中和區中安街178巷3弄5-2號","121.511003333333","24.99886","6500300","中和區"
"235001","AAC-213","2017/06/19 14:29:29","新北市中和區秀朗路三段60巷38號","121.525091666667","24.9949116666667","6500300","中和區"
"235023","AAC-215","2017/06/19 14:29:13","新北市中和區圓通路252巷5弄2號","121.493255","24.991475","6500300","中和區"
"220016","013-TV","2017/06/19 14:29:29","新北市板橋區萬安街14號","121.484701666667","25.022615","6500100","板橋區"
"220086","015-TV","2017/06/19 09:01:34","新北市板橋區華東街1-10號","121.448415","24.99512","6500100","板橋區"
"220013","072-UY","2017/06/19 14:29:14","新北市板橋區國泰街75巷28弄1號","121.467823333333","25.0054933333333","6500100","板橋區"
"220034","073-UY","2017/06/19 14:29:23","新北市板橋區中正路250巷91號","121.45942","25.019975","6500100","板橋區"
"220105","075-UY","2017/06/19 14:29:21","新北市板橋區長江路三段62號","121.473653333333","25.033895","6500100","板橋區"
"220017","AAD-861","2017/06/19 14:29:26","新北市板橋區華興街1號","121.459446666667","25.0045883333333","6500100","板橋區"
"247019","893-R6","2017/06/19 14:29:25","新北市蘆洲區水湳街102號","121.469616666667","25.0929766666667","6501400","蘆洲區"
"247009","546-UM","2017/06/19 14:29:20","新北市蘆洲區鷺江街39號","121.478525","25.0823966666667","6501400","蘆洲區"
"247017","500-BY","2017/06/19 14:29:12","新北市蘆洲區復興路227巷19-1號","121.479453333333","25.0908883333333","6501400","蘆洲區"
"247005","341-TH","2017/06/19 14:29:21","新北市蘆洲區長安街74號","121.462448333333","25.0802066666667","6501400","蘆洲區"
"247007","339-TH","2017/06/19 14:29:13","新北市蘆洲區中山一路61巷41號","121.477433333333","25.0806316666667","6501400","蘆洲區"
"247023","337-TH","2017/06/19 14:29:17","新北市蘆洲區中正路100號","121.469893333333","25.0841633333333","6501400","蘆洲區"
"247001","336-TH","2017/06/19 14:29:25","新北市蘆洲區永樂街38巷19弄42-1號","121.456725","25.089465","6501400","蘆洲區"
"247013","057-VK","2017/06/19 14:29:13","新北市蘆洲區中山二路261號","121.469983333333","25.0796366666667","6501400","蘆洲區"
"247003","056-VK","2017/06/19 14:29:24","新北市蘆洲區中原路12巷38號","121.460431666667","25.0842316666667","6501400","蘆洲區"
"247011","007-UY","2017/06/19 14:29:22","新北市蘆洲區三民路88號","121.473823333333","25.0852416666667","6501400","蘆洲區"
"247021","002-UY","2017/06/19 14:29:13","新北市蘆洲區三民路128巷24號","121.47084","25.0881766666667","6501400","蘆洲區"
"247015","001-UY","2017/06/19 14:29:11","新北市蘆洲區中正路185巷68弄25號","121.466188333333","25.08547","6501400","蘆洲區"
"208004","AAC-292","2017/06/19 14:29:29","新北市金山區六股里頂六股9-1號","121.610088333333","25.2203566666667","6502700","金山區"
"207002","749-BX","2017/06/19 14:27:53","新北市萬里區溪底里富士坪路24-2號","121.620421666667","25.15208","6502800","萬里區"
"207001","463-BY","2017/06/19 14:29:22","新北市萬里區磺潭里清水13號","121.639625","25.1993166666667","6502800","萬里區"
"252005","073-UM","2017/06/19 14:29:09","新北市三芝區埔坪里埔頭坑91-3號","121.508281666667","25.2525083333333","6502100","三芝區"
"252006","AAC-283","2017/06/19 00:38:00","新北市三芝區埔坪里埔頭坑41號","121.504483333333","25.2644916666667","6502100","三芝區"
"236064","105-UM","2017/06/19 14:29:11","新北市土城區永豐路173號","121.469685","24.97884","6501300","土城區"
"236040","107-UM","2017/06/19 14:29:15","新北市土城區學成路99巷11號","121.449986666667","24.9883566666667","6501300","土城區"
"236074","166-UM","2017/06/19 14:29:19","新北市土城區中央路三段281巷15弄1號","121.42624","24.9626516666667","6501300","土城區"
"236028","253-BX","2017/06/19 14:29:26","新北市土城區水源街73號","121.439651666667","24.9764783333333","6501300","土城區"
"236024","269-VK","2017/06/19 14:29:25","新北市土城區承天路65號","121.439563333333","24.9636233333333","6501300","土城區"
"236012","270-VK","2017/06/19 14:29:21","新北市土城區青雲路39巷7號","121.460356666667","24.987545","6501300","土城區"
"236032","271-VK","2017/06/19 14:29:26","新北市土城區青雲路451巷6號","121.459483333333","24.9746333333333","6501300","土城區"
"236016","401-BY","2017/06/19 14:29:18","新北市土城區永豐路202巷7號","121.466323333333","24.98323","6501300","土城區"
"236005","498-BY","2017/06/19 14:29:25","新北市土城區中華路一段94號","121.44469","24.9873766666667","6501300","土城區"
"236056","912-UM","2017/06/19 14:29:12","新北市土城區中央路四段211號","121.413896666667","24.95583","6501300","土城區"
"236044","913-UM","2017/06/19 14:29:09","新北市土城區青雲路410號","121.458758333333","24.972545","6501300","土城區"
"236060","915-UM","2017/06/19 14:29:23","新北市土城區延壽路1-9號","121.4692","24.9939133333333","6501300","土城區"
"236052","AAC-216","2017/06/19 14:29:31","新北市土城區中華路二段103號","121.439231666667","24.9772633333333","6501300","土城區"
"220027","145-BY","2017/06/19 14:29:11","新北市板橋區民權路259號","121.457095","25.0160383333333","6500100","板橋區"
"220042","146-RM","2017/06/19 14:29:30","新北市板橋區雨農路52號","121.460981666667","25.0242","6500100","板橋區"
"220030","610-BX","2017/06/19 14:29:18","新北市板橋區溪城路77號","121.426558333333","24.9837766666667","6500100","板橋區"
"220050","245-BX","2017/06/19 14:29:29","新北市板橋區雙十路一段9號","121.478011666667","25.0241483333333","6500100","板橋區"
"220043","267-BY","2017/06/19 14:29:18","新北市板橋區吳鳳路38號","121.468526666667","25.0303516666667","6500100","板橋區"
"220020","277-BY","2017/06/19 14:29:27","新北市板橋區金門街337巷7弄1號","121.430231666667","24.984825","6500100","板橋區"
"220012","280-UM","2017/06/19 14:29:24","新北市板橋區館前西路46巷2號","121.458993333333","25.0070416666667","6500100","板橋區"
"220019","283-VK","2017/06/19 14:29:12","新北市板橋區大豐街30號","121.461811666667","25.0013466666667","6500100","板橋區"
"220038","285-UM","2017/06/19 14:29:14","新北市板橋區文化路一段189號","121.46313","25.0164383333333","6500100","板橋區"
"220001","285-VK","2017/06/19 14:29:25","新北市板橋區富山街27號","121.477861666667","25.021785","6500100","板橋區"
"220031","286-VK","2017/06/19 14:29:25","新北市板橋區龍興街73巷40號","121.442413333333","25.00279","6500100","板橋區"
"220029","287-VK","2017/06/19 14:29:25","新北市板橋區南雅南路一段108號","121.454868333333","25.0042933333333","6500100","板橋區"
"220039","288-VK","2017/06/19 14:29:14","新北市板橋區長江路一段106巷12弄9號","121.459848333333","25.02876","6500100","板橋區"
"220009","293-UM","2017/06/19 14:29:17","新北市板橋區中山路二段91號","121.474258333333","25.0159683333333","6500100","板橋區"
"220032","296-UM","2017/06/19 14:29:10","新北市板橋區溪崑二街73巷6號","121.428158333333","24.990035","6500100","板橋區"
"220023","297-UM","2017/06/19 14:29:25","新北市板橋區南雅西路一段64號","121.453646666667","25.0051733333333","6500100","板橋區"
"220004","303-R5","2017/06/19 14:29:21","新北市板橋區干城路146號","121.459795","24.9931333333333","6500100","板橋區"
"220010","305-R5","2017/06/19 14:29:14","新北市板橋區三民路二段181巷7號","121.479905","25.0143983333333","6500100","板橋區"
"220041","307-R5","2017/06/19 14:29:20","新北市板橋區文化路二段75號","121.469043333333","25.0259383333333","6500100","板橋區"
"220047","317-R6","2017/06/19 14:29:30","新北市板橋區四維路266巷5弄12號","121.463706666667","25.0288516666667","6500100","板橋區"
"220037","491-VK","2017/06/19 14:29:07","新北市板橋區雙十路一段25號","121.477531666667","25.0245716666667","6500100","板橋區"
"220104","560-BX","2017/06/19 14:29:11","新北市板橋區中正路391號","121.454345","25.0218466666667","6500100","板橋區"
"220052","561-BX","2017/06/19 14:29:17","新北市板橋區文化路一段280-1號","121.46708","25.0210083333333","6500100","板橋區"
"220011","609-BX","2017/06/19 14:29:29","新北市板橋區三民路二段204-4號","121.47893","25.012415","6500100","板橋區"
"220040","637-BX","2017/06/19 14:29:08","新北市板橋區文聖街70號","121.477191666667","25.0303366666667","6500100","板橋區"
"220005","686-BX","2017/06/19 14:29:18","新北市板橋區和平路143巷10號","121.463128333333","24.9958783333333","6500100","板橋區"
"220025","687-BX","2017/06/19 14:29:25","新北市板橋區大觀路二段157號","121.4454","25.000685","6500100","板橋區"
"220002","741-BX","2017/06/19 14:29:16","新北市板橋區重慶路155巷31號","121.463388333333","25.004145","6500100","板橋區"
"220003","827-TW","2017/06/19 14:29:10","新北市板橋區實踐路92號","121.464066666667","25.0050116666667","6500100","板橋區"
"220014","829-TW","2017/06/19 14:29:29","新北市板橋區漢生東路279巷12號","121.471951666667","25.009115","6500100","板橋區"
"220051","830-TW","2017/06/19 14:29:25","新北市板橋區松柏街22巷31號","121.474981666667","25.029175","6500100","板橋區"
"220045","831-TW","2017/06/19 14:29:21","新北市板橋區莒光路165巷30號","121.474246666667","25.024705","6500100","板橋區"
"220022","895-R6","2017/06/19 14:29:17","新北市板橋區府中路44號","121.457286666667","25.0095166666667","6500100","板橋區"
"220021","985-R7","2017/06/19 14:29:15","新北市板橋區新生街92號","121.45819","25.0217816666667","6500100","板橋區"
"220046","AAC-210","2017/06/19 14:29:21","新北市板橋區陽明街131號","121.4634","25.023735","6500100","板橋區"
"220018","AAC-253","2017/06/19 14:29:24","新北市板橋區忠孝路97號","121.462396666667","25.0022833333333","6500100","板橋區"
