"lineid","car","time","location","longitude","latitude","cityid","cityname"
"248020","225-UY","2017/06/19 15:27:12","新北市五股區中興路二段83巷26-6號","121.460046666667","25.0752483333333","6501500","五股區"
"244025","837-TS","2017/06/19 09:43:10","新北市林口區粉寮路二段160巷28號","121.405216666667","25.0907416666667","6501700","林口區"
"231030","047-UY","2017/06/19 15:59:20","新北市新店區永平街8號","121.517273333333","24.9835866666667","6500600","新店區"
"231018","107-UY","2017/06/19 15:59:25","新北市新店區中正路663巷1弄2號","121.532921666667","24.990025","6500600","新店區"
"231011","108-UY","2017/06/19 15:59:26","新北市新店區中正路348號","121.536303333333","24.9754133333333","6500600","新店區"
"231026","256-BX","2017/06/19 15:59:24","新北市新店區民生路45號","121.532345","24.985925","6500600","新店區"
"231046","278-BY","2017/06/19 15:59:13","新北市新店區安華路28-1號","121.519795","24.96151","6500600","新店區"
"231014","AAD-862","2017/06/19 15:59:13","新北市新店區中正路284巷4弄8號","121.538578333333","24.9745716666667","6500600","新店區"
"231038","4715-K9","2017/06/19 15:59:18","新北市新店區安康路二段228巷35弄3號","121.509485","24.96012","6500600","新店區"
"231035","515-UM","2017/06/19 15:59:10","新北市新店區安民街300號","121.517765","24.9736766666667","6500600","新店區"
"231003","616-UM","2017/06/19 15:59:26","新北市新店區寶興路58巷2號","121.549786666667","24.972255","6500600","新店區"
"231034","645-TV","2017/06/19 15:59:11","新北市新店區吉祥街9巷1號","121.49746","24.94704","6500600","新店區"
"231013","719-UM","2017/06/19 15:59:22","新北市新店區永業路96-1號","121.530016666667","24.95118","6500600","新店區"
"231037","AKT-0513","2017/06/19 15:59:25","新北市新店區安康路二段16巷48號","121.51678","24.96568","6500600","新店區"
"241011","013-R5","2017/06/19 15:59:22","新北市三重區文化北路105號","121.49786","25.068445","6500200","三重區"
"241028","022-UY","2017/06/19 15:59:25","新北市三重區電信街102號","121.495401666667","25.058105","6500200","三重區"
"241008","059-VK","2017/06/19 15:59:19","新北市三重區重新路四段121號","121.48486","25.0519616666667","6500200","三重區"
"241015","062-VK","2017/06/19 15:59:14","新北市三重區重新路四段121號","121.485121666667","25.05207","6500200","三重區"
"241017","063-VK","2017/06/19 15:59:18","新北市三重區大仁街48巷44號","121.490485","25.0642466666667","6500200","三重區"
"241024","065-VK","2017/06/19 15:59:18","新北市三重區力行路一段38巷27號","121.485446666667","25.0670433333333","6500200","三重區"
"241026","066-VK","2017/06/19 15:59:21","新北市三重區正義南路111號","121.498761666667","25.058395","6500200","三重區"
"241003","091-VK","2017/06/19 15:59:25","新北市三重區自強路五段116號","121.496808333333","25.0838033333333","6500200","三重區"
"241005","262-UM","2017/06/19 15:59:12","新北市三重區仁愛街355號","121.491923333333","25.0800683333333","6500200","三重區"
"241004","265-UM","2017/06/19 15:59:25","新北市三重區福德南路86號","121.502491666667","25.0598783333333","6500200","三重區"
"241016","266-UM","2017/06/19 15:59:12","新北市三重區捷運路36號","121.483243333333","25.0544466666667","6500200","三重區"
"241022","267-UM","2017/06/19 15:59:28","新北市三重區三民街175巷2號","121.483408333333","25.065495","6500200","三重區"
"241018","268-UM","2017/06/19 15:59:13","新北市三重區中正北路29號","121.49155","25.0631083333333","6500200","三重區"
"241013","270-UM","2017/06/19 15:59:28","新北市三重區正義北路271號","121.495486666667","25.0701166666667","6500200","三重區"
"241025","271-UM","2017/06/19 15:59:22","新北市三重區三民街191號","121.482226666667","25.06568","6500200","三重區"
"241007","398-BY","2017/06/19 15:59:28","新北市三重區忠孝路二段160號","121.482103333333","25.0678","6500200","三重區"
"241020","413-TH","2017/06/19 15:59:28","新北市三重區車路頭街4巷14號","121.483408333333","25.0700033333333","6500200","三重區"
"241019","478-VK","2017/06/19 15:59:30","新北市三重區重新路四段121號","121.485206666667","25.0519183333333","6500200","三重區"
"241014","543-UM","2017/06/19 15:59:30","新北市三重區重新路四段121號","121.485091666667","25.0519466666667","6500200","三重區"
"241023","545-UM","2017/06/19 15:59:23","新北市三重區三民街148號","121.482663333333","25.0652416666667","6500200","三重區"
"241001","547-UM","2017/06/19 15:59:23","新北市三重區重新路四段121號","121.484553333333","25.05241","6500200","三重區"
"241006","AAD-863","2017/06/19 15:59:22","新北市三重區力行路一段62號","121.484505","25.069325","6500200","三重區"
"241012","887-TS","2017/06/19 15:59:09","新北市三重區長元西街32號","121.498053333333","25.0657516666667","6500200","三重區"
"241029","942-UM","2017/06/19 15:59:27","新北市三重區大同南路212巷9號","121.497183333333","25.0565166666667","6500200","三重區"
"241033","AAC-255","2017/06/19 15:59:18","新北市三重區重新路五段448號","121.47472","25.0472266666667","6500200","三重區"
"235021","801-TS","2017/06/19 15:59:20","新北市中和區中正路845號","121.484676666667","25.0025933333333","6500300","中和區"
"235023","AAC-215","2017/06/19 15:59:13","新北市中和區員山路72號","121.480866666667","24.9935633333333","6500300","中和區"
"224007","273-VK","2017/06/19 15:59:24","新北市瑞芳區大埔路吉慶公園城39號","121.764173333333","25.0983716666667","6501200","瑞芳區"
"224005","271-BY","2017/06/19 15:59:14","新北市瑞芳區傑魚坑路183號","121.788525","25.108265","6501200","瑞芳區"
"227001","642-TC","2017/06/19 15:59:12","新北市雙溪區平林里外平林70號","121.842996666667","25.0350233333333","6502500","雙溪區"
"227008","400-TW","2017/06/19 15:59:12","新北市雙溪區三港里雙澳路26號","121.86954","25.0483266666667","6502500","雙溪區"
"251013","182-VK","2017/06/19 15:59:14","新北市淡水區中正路二段31號","121.419355","25.181715","6501000","淡水區"
"252005","073-UM","2017/06/19 15:22:13","新北市三芝區埔坪里埔頭坑41號","121.504588333333","25.2644433333333","6502100","三芝區"
"252006","AAC-283","2017/06/19 00:38:00","新北市三芝區埔坪里埔頭坑41號","121.504483333333","25.2644916666667","6502100","三芝區"
"236064","105-UM","2017/06/19 15:59:10","新北市土城區福安街112號","121.417041666667","24.9638266666667","6501300","土城區"
"236074","166-UM","2017/06/19 15:59:19","新北市土城區三民路23巷8弄4號","121.419805","24.9635","6501300","土城區"
"236016","401-BY","2017/06/19 15:59:18","新北市土城區金城路三段208號","121.47167","24.9898233333333","6501300","土城區"
"236056","912-UM","2017/06/19 15:59:24","新北市土城區中央路一段286號","121.443515","24.9825333333333","6501300","土城區"
"236044","913-UM","2017/06/19 15:59:09","新北市土城區清水路97號","121.456601666667","24.98177","6501300","土城區"
"236052","AAC-216","2017/06/19 15:59:10","新北市土城區中華路二段62號","121.438973333333","24.976975","6501300","土城區"
"238002","755-BX","2017/06/19 15:59:22","新北市樹林區文德街2巷17號","121.419688333333","24.9917283333333","6500700","樹林區"
"238010","601-UM","2017/06/19 15:59:29","新北市樹林區龍興街16號","121.402768333333","25.01629","6500700","樹林區"
"238006","599-UM","2017/06/19 15:59:08","新北市樹林區忠孝街95號","121.424416666667","24.9809216666667","6500700","樹林區"
"238005","571-TV","2017/06/19 15:59:19","新北市樹林區鎮前街45號","121.425318333333","24.99172","6500700","樹林區"
"238011","5061-A6","2017/06/19 15:48:20","新北市樹林區山佳街57號","121.392921666667","24.9725533333333","6500700","樹林區"
"238009","312-TH","2017/06/19 15:59:14","新北市樹林區太順街86巷28號","121.416536666667","24.9786216666667","6500700","樹林區"
"238008","311-TH","2017/06/19 15:59:28","新北市樹林區柑園街二段140號","121.3833","24.9548533333333","6500700","樹林區"
"238012","303-VK","2017/06/19 15:59:24","新北市樹林區保安街一段87-1號","121.422156666667","24.9952966666667","6500700","樹林區"
"238004","283-BY","2017/06/19 15:59:28","新北市樹林區中正路433-2號","121.414953333333","25.0082083333333","6500700","樹林區"
"238001","282-BY","2017/06/19 15:59:17","新北市樹林區千歲街68號","121.426201666667","24.9974483333333","6500700","樹林區"
"238007","268-VK","2017/06/19 15:59:23","新北市新莊區龍安路254巷18-1號","121.420661666667","25.0184566666667","6500700","樹林區"
"238013","172-UY","2017/06/19 15:59:19","新北市樹林區佳園路一段27號","121.392948333333","24.971055","6500700","樹林區"
"238003","169-UY","2017/06/19 15:59:13","新北市樹林區復興路335巷3號","121.41809","24.9881433333333","6500700","樹林區"
