"lineid","car","time","location","longitude","latitude","cityid","cityname"
"249005","172-UM","2017/06/19 16:39:09","新北市八里區博物館路15號","121.415086666667","25.1635333333333","6502300","八里區"
"249002","305-UY","2017/06/19 16:39:23","新北市八里區大堀湖13號","121.42635","25.14888","6502300","八里區"
"248007","095-VK","2017/06/19 16:25:22","新北市五股區中興路二段37巷28號","121.460201666667","25.075005","6501500","五股區"
"248020","225-UY","2017/06/19 15:27:12","新北市五股區中興路二段83巷26-6號","121.460046666667","25.0752483333333","6501500","五股區"
"244025","837-TS","2017/06/19 16:35:25","新北市林口區粉寮路二段160巷28號","121.405203333333","25.090815","6501700","林口區"
"231046","278-BY","2017/06/19 16:39:13","新北市新店區灣潭路15-1號","121.54008","24.94227","6500600","新店區"
"241011","013-R5","2017/06/19 16:39:18","新北市三重區仁愛街49號","121.49656","25.071655","6500200","三重區"
"241028","022-UY","2017/06/19 16:39:25","新北市三重區重新路三段88號","121.49305","25.0605766666667","6500200","三重區"
"241008","059-VK","2017/06/19 16:39:19","新北市三重區永安北路一段27巷19號","121.47713","25.0755033333333","6500200","三重區"
"241009","060-VK","2017/06/19 16:39:11","新北市三重區三和路四段203巷63號","121.483521666667","25.0798333333333","6500200","三重區"
"241031","061-VK","2017/06/19 16:39:28","新北市三重區重新路四段39-7號","121.487948333333","25.057775","6500200","三重區"
"241015","062-VK","2017/06/19 16:39:14","新北市三重區文化北路37號","121.498926666667","25.065035","6500200","三重區"
"241017","063-VK","2017/06/19 16:39:17","新北市三重區中正北路25巷2號","121.493255","25.0626966666667","6500200","三重區"
"241024","065-VK","2017/06/19 16:39:13","新北市三重區中正北路315巷6弄66號","121.476288333333","25.0725016666667","6500200","三重區"
"241026","066-VK","2017/06/19 16:39:20","新北市三重區福德南路53號","121.502943333333","25.0617283333333","6500200","三重區"
"241002","090-VK","2017/06/19 16:39:12","新北市三重區仁義街216號","121.4961","25.08244","6500200","三重區"
"241003","091-VK","2017/06/19 16:39:25","新北市三重區五華街71巷88號","121.494073333333","25.0838716666667","6500200","三重區"
"241005","262-UM","2017/06/19 16:39:12","新北市三重區仁華街116-1號","121.486061666667","25.08314","6500200","三重區"
"241004","265-UM","2017/06/19 16:39:25","新北市三重區仁愛街387號","121.491348333333","25.0807033333333","6500200","三重區"
"241016","266-UM","2017/06/19 16:39:12","新北市三重區大智街17-2號","121.494475","25.0654083333333","6500200","三重區"
"241022","267-UM","2017/06/19 16:39:08","新北市三重區重陽路二段10號","121.486571666667","25.062025","6500200","三重區"
"241018","268-UM","2017/06/19 16:39:12","新北市三重區正義北路338巷50號","121.493031666667","25.0703283333333","6500200","三重區"
"241032","269-UM","2017/06/19 16:39:26","新北市三重區中山路40巷1-1號","121.485865","25.06131","6500200","三重區"
"241013","270-UM","2017/06/19 16:39:28","新北市三重區三和路三段89號","121.494688333333","25.072335","6500200","三重區"
"241025","271-UM","2017/06/19 16:39:22","新北市三重區中正北路428巷7弄9號","121.47417","25.0700916666667","6500200","三重區"
"241007","398-BY","2017/06/19 16:39:08","新北市三重區三和路四段167巷49號","121.485273333333","25.079455","6500200","三重區"
"241020","413-TH","2017/06/19 16:39:27","新北市三重區自強路三段8巷28號","121.486111666667","25.0715333333333","6500200","三重區"
"241019","478-VK","2017/06/19 16:39:09","新北市三重區安慶街295號","121.488638333333","25.0673033333333","6500200","三重區"
"241030","480-VK","2017/06/19 16:39:17","新北市三重區環河南路286號","121.488898333333","25.0489366666667","6500200","三重區"
"241014","543-UM","2017/06/19 16:39:10","新北市三重區龍濱路28號","121.502895","25.06803","6500200","三重區"
"241023","545-UM","2017/06/19 16:39:23","新北市三重區忠孝路三段50巷47號","121.482913333333","25.0644016666667","6500200","三重區"
"241001","547-UM","2017/06/19 16:39:23","新北市三重區仁愛街266號","121.493115","25.0783183333333","6500200","三重區"
"241006","AAD-863","2017/06/19 16:39:22","新北市三重區力行路二段91巷21弄5號","121.483411666667","25.0755766666667","6500200","三重區"
"241012","887-TS","2017/06/19 16:39:09","新北市三重區仁興街3巷32號","121.500615","25.0740566666667","6500200","三重區"
"241029","942-UM","2017/06/19 16:39:19","新北市三重區集美街162號","121.490006666667","25.0530283333333","6500200","三重區"
"241033","AAC-255","2017/06/19 16:39:18","新北市三重區光復路一段138-1號","121.472113333333","25.0531","6500200","三重區"
"235026","800-TS","2017/06/19 16:39:20","新北市中和區永和路191巷9號","121.491275","25.00678","6500300","中和區"
"247006","341-TH","2017/06/19 16:39:15","新北市五股區中興路三段5號","121.448485","25.0798683333333","6501400","蘆洲區"
"247014","057-VK","2017/06/19 16:39:14","新北市蘆洲區三民路145號","121.47179","25.0867133333333","6501400","蘆洲區"
"247004","056-VK","2017/06/19 16:39:13","新北市五股區中興路三段167號","121.445661666667","25.08064","6501400","蘆洲區"
"247016","001-UY","2017/06/19 16:39:21","新北市蘆洲區中正路507號","121.461165","25.0972166666667","6501400","蘆洲區"
"228002","585-TW","2017/06/19 16:39:26","新北市貢寮區貢寮里朝陽街1-2號","121.91235","25.0212966666667","6502600","貢寮區"
"228001","670-TC","2017/06/19 16:39:12","新北市貢寮區貢寮里朝陽街1-2號","121.912303333333","25.0212483333333","6502600","貢寮區"
"224006","676-BX","2017/06/19 16:39:25","新北市瑞芳區大寮路356-1號","121.784788333333","25.10326","6501200","瑞芳區"
"224008","275-VK","2017/06/19 16:39:17","新北市瑞芳區民權街3-1號","121.809293333333","25.1083566666667","6501200","瑞芳區"
"224007","273-VK","2017/06/19 16:39:24","新北市瑞芳區月眉路26號","121.760533333333","25.107795","6501200","瑞芳區"
"224005","271-BY","2017/06/19 16:39:10","新北市瑞芳區洞頂路210-4號","121.861268333333","25.1246266666667","6501200","瑞芳區"
"227001","642-TC","2017/06/19 16:39:12","新北市雙溪區外柑里外柑腳37號","121.80992","25.0184133333333","6502500","雙溪區"
"227008","400-TW","2017/06/19 16:39:12","新北市雙溪區牡丹里中正路56號","121.865526666667","25.040365","6502500","雙溪區"
"251008","181-VK","2017/06/19 16:39:21","新北市淡水區樹梅坑9號","121.47281","25.1426366666667","6501000","淡水區"
"251013","182-VK","2017/06/19 16:39:14","新北市淡水區楓樹湖3-6號","121.49768","25.1880833333333","6501000","淡水區"
"251015","442-VK","2017/06/19 16:39:16","新北市淡水區忠愛街5-2號","121.460638333333","25.1716516666667","6501000","淡水區"
"252005","073-UM","2017/06/19 15:22:13","新北市三芝區埔坪里埔頭坑41號","121.504588333333","25.2644433333333","6502100","三芝區"
"252002","178-VK","2017/06/19 16:39:29","新北市三芝區晴光街1號","121.510381666667","25.2578566666667","6502100","三芝區"
"252001","702-TV","2017/06/19 16:39:22","新北市三芝區埔坪里埔頭坑44號","121.50462","25.261765","6502100","三芝區"
"252006","AAC-283","2017/06/19 00:38:00","新北市三芝區埔坪里埔頭坑41號","121.504483333333","25.2644916666667","6502100","三芝區"
"238010","601-UM","2017/06/19 16:39:24","新北市樹林區中正路675號","121.41201","25.0133666666667","6500700","樹林區"
"238024","5061-A6","2017/06/19 16:39:22","新北市樹林區中山路二段181號","121.405606666667","24.9783966666667","6500700","樹林區"
"238012","303-VK","2017/06/19 16:18:39","新北市樹林區中正路22-1號","121.427851666667","24.9992833333333","6500700","樹林區"
"238004","283-BY","2017/06/19 16:39:08","新北市樹林區中正路433-2號","121.414775","25.0083066666667","6500700","樹林區"
"238001","282-BY","2017/06/19 16:39:17","新北市樹林區中正路22-1號","121.427811666667","24.9995633333333","6500700","樹林區"
