"lineid","car","time","location","longitude","latitude","cityid","cityname"
"234026","9371-KE","2017/06/19 17:39:18","新北市永和區中正路637號","121.515395","25.0101016666667","6500400","永和區"
"249005","172-UM","2017/06/19 17:39:09","新北市八里區荖阡坑路34號","121.402738333333","25.129745","6502300","八里區"
"249001","173-UM","2017/06/19 17:39:15","新北市八里區渡船頭街3-1號","121.43439","25.1582216666667","6502300","八里區"
"249004","303-UY","2017/06/19 17:39:14","新北市八里區民治街173號","121.413378333333","25.1566866666667","6502300","八里區"
"249002","305-UY","2017/06/19 17:39:23","新北市八里區坪子頂1號","121.44321","25.1269233333333","6502300","八里區"
"249003","593-UM","2017/06/19 17:39:11","新北市八里區中山路二段225號","121.403451666667","25.149305","6502300","八里區"
"248007","095-VK","2017/06/19 16:25:22","新北市五股區中興路二段37巷28號","121.460201666667","25.075005","6501500","五股區"
"248020","225-UY","2017/06/19 15:27:12","新北市五股區中興路二段83巷26-6號","121.460046666667","25.0752483333333","6501500","五股區"
"232011","375-UM","2017/06/19 17:36:24","新北市坪林區鶯子瀨11-2號","121.710713333333","24.915535","6502000","坪林區"
"244013","069-UM","2017/06/19 17:39:21","新北市林口區中正路559號","121.38105","25.0769183333333","6501700","林口區"
"244019","403-UM","2017/06/19 17:39:19","新北市林口區文化一路一段137號","121.373443333333","25.0722666666667","6501700","林口區"
"244023","483-VK","2017/06/19 17:39:18","新北市林口區東明一街95巷15號","121.39135","25.0704766666667","6501700","林口區"
"244017","485-VK","2017/06/19 17:39:21","新北市林口區文化一路一段190巷5弄1號","121.3787","25.075325","6501700","林口區"
"244009","656-BX","2017/06/19 17:39:21","新北市林口區文化一路二段299-1號","121.385493333333","25.0854366666667","6501700","林口區"
"244021","657-BX","2017/06/19 17:39:17","新北市林口區中山路2-2號","121.396518333333","25.07878","6501700","林口區"
"244011","701-TV","2017/06/19 17:39:18","新北市林口區仁愛路一段410號","121.38662","25.0767733333333","6501700","林口區"
"244025","837-TS","2017/06/19 17:39:06","新北市林口區文化二路一段289-5號","121.367486666667","25.071845","6501700","林口區"
"222002","659-BX","2017/06/19 17:39:12","新北市深坑區北深路三段22號","121.609403333333","25.00119","6501800","深坑區"
"241017","063-VK","2017/06/19 17:39:17","新北市三重區大同北路36號","121.494933333333","25.0624966666667","6500200","三重區"
"241024","065-VK","2017/06/19 17:39:13","新北市三重區國道路一段58巷20號","121.481316666667","25.0720733333333","6500200","三重區"
"241005","262-UM","2017/06/19 17:39:12","新北市三重區永安北路二段5巷14號","121.482103333333","25.08111","6500200","三重區"
"241016","266-UM","2017/06/19 17:39:12","新北市三重區正義北路32-1號","121.497406666667","25.06335","6500200","三重區"
"241013","270-UM","2017/06/19 17:39:28","新北市三重區仁愛街141巷25號","121.497161666667","25.0759333333333","6500200","三重區"
"241007","398-BY","2017/06/19 17:39:08","新北市三重區三和路四段145巷188號","121.488863333333","25.0796283333333","6500200","三重區"
"241014","543-UM","2017/06/19 17:39:10","新北市三重區長壽街174號","121.503475","25.06887","6500200","三重區"
"241023","545-UM","2017/06/19 17:39:23","新北市三重區中華路121號","121.483558333333","25.06373","6500200","三重區"
"241024","743-BX","2017/06/19 17:39:30","新北市三重區國道路一段58巷20號","121.48116","25.0720866666667","6500200","三重區"
"241012","887-TS","2017/06/19 17:39:09","新北市三重區龍濱路190號","121.501151666667","25.073245","6500200","三重區"
"241033","AAC-255","2017/06/19 17:39:18","新北市三重區興德路141巷6號","121.469551666667","25.0530883333333","6500200","三重區"
"235061","378-QA","2017/06/19 17:13:09","新北市中和區員山路36巷16-2號","121.48533","24.9916933333333","6500300","中和區"
"235071","783-BX","2017/06/19 17:39:25","新北市中和區員山路36巷16-3號","121.485268333333","24.991085","6500300","中和區"
"235062","800-TS","2017/06/19 17:34:17","新北市中和區員山路36巷16-3號","121.485051666667","24.9914366666667","6500300","中和區"
"247020","893-R6","2017/06/19 17:39:21","新北市蘆洲區民族路424號","121.473886666667","25.0917233333333","6501400","蘆洲區"
"247010","546-UM","2017/06/19 17:39:19","新北市蘆洲區中山一路124-2號","121.476961666667","25.0816016666667","6501400","蘆洲區"
"247018","500-BY","2017/06/19 17:39:23","新北市蘆洲區民權路63號","121.47379","25.088175","6501400","蘆洲區"
"247006","341-TH","2017/06/19 17:39:15","新北市蘆洲區長安街68巷1號","121.462775","25.0802266666667","6501400","蘆洲區"
"247008","339-TH","2017/06/19 17:39:18","新北市蘆洲區民生街105號","121.47348","25.078695","6501400","蘆洲區"
"247024","337-TH","2017/06/19 17:39:15","新北市蘆洲區光榮路97巷15號","121.462668333333","25.0892033333333","6501400","蘆洲區"
"247002","336-TH","2017/06/19 17:39:10","新北市蘆洲區永平街32巷11弄25號","121.45787","25.091645","6501400","蘆洲區"
"247014","057-VK","2017/06/19 17:39:14","新北市蘆洲區正和街47號","121.469178333333","25.0814966666667","6501400","蘆洲區"
"247004","056-VK","2017/06/19 17:39:13","新北市蘆洲區長安街172巷11號","121.459556666667","25.0835483333333","6501400","蘆洲區"
"247012","007-UY","2017/06/19 17:39:26","新北市蘆洲區民權路31巷10號","121.475473333333","25.0861266666667","6501400","蘆洲區"
"247022","002-UY","2017/06/19 17:39:20","新北市蘆洲區民族路548巷37號","121.467376666667","25.0895683333333","6501400","蘆洲區"
"247016","001-UY","2017/06/19 17:39:20","新北市蘆洲區中正路185巷68弄13號","121.466423333333","25.0850216666667","6501400","蘆洲區"
"228003","097-TW","2017/06/19 17:39:28","新北市貢寮區仁理村仁和路39號","121.92399","25.0539533333333","6502600","貢寮區"
"228002","585-TW","2017/06/19 17:39:26","新北市貢寮區福隆里龜壽谷街12號","121.956126666667","25.0062183333333","6502600","貢寮區"
"228001","670-TC","2017/06/19 17:39:12","新北市貢寮區仁理村仁愛路95-1號","121.927715","25.0554616666667","6502600","貢寮區"
"224010","AGQ-8101","2017/06/19 08:52:16","新北市瑞芳區民權街3-1號","121.809421666667","25.10824","6501200","瑞芳區"
"224006","676-BX","2017/06/19 17:39:25","新北市瑞芳區傑魚坑路29號","121.793838333333","25.110525","6501200","瑞芳區"
"224002","639-TC","2017/06/19 16:21:35","新北市瑞芳區明燈路二段44-1號","121.809501666667","25.1082966666667","6501200","瑞芳區"
"224009","285-BY","2017/06/19 17:39:21","新北市瑞芳區崙頂路1-5號","121.846735","25.1063633333333","6501200","瑞芳區"
"224008","275-VK","2017/06/19 17:39:17","新北市瑞芳區明燈路一段6-1號","121.823021666667","25.1075316666667","6501200","瑞芳區"
"224007","273-VK","2017/06/19 17:39:24","新北市平溪區新寮里五分寮10-2號","121.800043333333","25.0741216666667","6501200","瑞芳區"
"224005","271-BY","2017/06/19 17:39:10","新北市瑞芳區海濱路8-6號","121.831706666667","25.1261283333333","6501200","瑞芳區"
"227001","642-TC","2017/06/19 17:39:12","新北市雙溪區共和里東榮街52號","121.86631","25.0336966666667","6502500","雙溪區"
"227008","400-TW","2017/06/19 17:25:12","新北市雙溪區三貂里定福路1-2號","121.85068","25.0634283333333","6502500","雙溪區"
"208003","665-BX","2017/06/19 17:39:07","新北市金山區磺清路135號","121.639523333333","25.2277633333333","6502700","金山區"
"251009","008-UM","2017/06/19 17:25:58","新北市淡水區重建街1巷7號","121.439663333333","25.173645","6501000","淡水區"
"251004","009-UM","2017/06/19 17:39:10","新北市淡水區民權一街11號","121.458953333333","25.1369233333333","6501000","淡水區"
"251007","179-VK","2017/06/19 17:39:16","新北市淡水區民生路91號","121.463795","25.138355","6501000","淡水區"
"251008","181-VK","2017/06/19 17:39:20","新北市淡水區八勢二街53巷10號","121.46203","25.14841","6501000","淡水區"
"251013","182-VK","2017/06/19 17:39:14","新北市淡水區演戲埔腳12號","121.469466666667","25.19427","6501000","淡水區"
"251010","413-VK","2017/06/19 17:39:29","新北市淡水區淡海路280巷97號","121.41991","25.1891733333333","6501000","淡水區"
"251012","441-VK","2017/06/19 17:39:13","新北市淡水區北新路200巷10號","121.451788333333","25.17964","6501000","淡水區"
"251015","442-VK","2017/06/19 17:39:16","新北市淡水區興福寮88巷1-10號","121.487145","25.1661333333333","6501000","淡水區"
"251005","443-VK","2017/06/19 17:39:25","新北市淡水區鄧公路33巷13號","121.451961666667","25.1709583333333","6501000","淡水區"
"251001","559-UM","2017/06/19 17:39:17","新北市淡水區中正東路二段19號","121.458675","25.1569283333333","6501000","淡水區"
"251006","561-UM","2017/06/19 17:39:19","新北市淡水區大信街1巷16號","121.440136666667","25.176785","6501000","淡水區"
"251011","650-BX","2017/06/19 17:39:08","新北市淡水區小坪頂22號","121.484598333333","25.1571483333333","6501000","淡水區"
"251002","672-BX","2017/06/19 17:39:22","新北市淡水區文化路65號","121.43784","25.172885","6501000","淡水區"
"251003","766-UM","2017/06/19 17:39:14","新北市淡水區大忠街8號","121.443048333333","25.176165","6501000","淡水區"
"207003","550-UM","2017/06/19 17:39:24","新北市萬里區野柳里東澳路64-1號","121.692193333333","25.20033","6502800","萬里區"
"207004","225-TW","2017/06/19 17:39:20","新北市萬里區中幅里中福路8-1號","121.685558333333","25.1649133333333","6502800","萬里區"
"252005","073-UM","2017/06/19 15:22:13","新北市三芝區埔坪里埔頭坑41號","121.504588333333","25.2644433333333","6502100","三芝區"
"252002","178-VK","2017/06/19 17:39:09","新北市三芝區中正路二段2號","121.50501","25.2557266666667","6502100","三芝區"
"252001","702-TV","2017/06/19 17:39:22","新北市三芝區淡金路一段83號","121.502081666667","25.2588283333333","6502100","三芝區"
"252006","AAC-283","2017/06/19 00:38:00","新北市三芝區埔坪里埔頭坑41號","121.504483333333","25.2644916666667","6502100","三芝區"
"237013","252-BX","2017/06/19 17:39:12","新北市三峽區中華路8-1號","121.375076666667","24.93294","6500900","三峽區"
"237011","572-TV","2017/06/19 17:39:26","新北市三峽區中山路98號","121.366451666667","24.9354133333333","6500900","三峽區"
"237015","649-BX","2017/06/19 17:39:19","新北市三峽區民權街166號","121.367888333333","24.9303216666667","6500900","三峽區"
"237010","706-TV","2017/06/19 17:39:18","新北市三峽區中山路121號","121.365455","24.935905","6500900","三峽區"
"236042","107-UM","2017/06/19 17:39:25","新北市土城區城林路6巷80號","121.438553333333","24.9797616666667","6501300","土城區"
"236078","166-UM","2017/06/19 17:39:23","新北市土城區城林路6巷80號","121.438381666667","24.9794766666667","6501300","土城區"
"236014","270-VK","2017/06/19 17:39:16","新北市土城區城林路6巷80號","121.438591666667","24.9795833333333","6501300","土城區"
"242021","AAC-296","2017/06/19 17:39:27","新北市新莊區中華路一段74號","121.452055","25.039","6500500","新莊區"
"242029","986-R7","2017/06/19 17:39:10","新北市新莊區復興路二段147號","121.457793333333","25.0444183333333","6500500","新莊區"
"242048","751-BX","2017/06/19 17:39:18","新北市新莊區萬安街123號","121.420666666667","25.0224666666667","6500500","新莊區"
"242025","615-BX","2017/06/19 17:39:25","新北市新莊區思源路108號","121.46008","25.0465783333333","6500500","新莊區"
"242023","613-BX","2017/06/19 17:39:25","新北市新莊區中港路132巷24號","121.45635","25.040645","6500500","新莊區"
"242027","612-BX","2017/06/19 17:39:10","新北市新莊區福壽街77號","121.458188333333","25.049805","6500500","新莊區"
"242036","566-BX","2017/06/19 17:39:24","新北市新莊區後港一路168號","121.431085","25.027785","6500500","新莊區"
"242042","497-BY","2017/06/19 17:39:15","新北市泰山區漢口街36號","121.426448333333","25.0350983333333","6500500","新莊區"
"242004","442-UM","2017/06/19 17:39:18","新北市新莊區自立街186號","121.456231666667","25.0454533333333","6500500","新莊區"
"242046","441-UM","2017/06/19 17:39:08","新北市新莊區福營路25巷20號","121.437256666667","25.0319116666667","6500500","新莊區"
"242050","440-UM","2017/06/19 17:39:10","新北市新莊區西盛街193號","121.428141666667","25.0172816666667","6500500","新莊區"
"242031","415-TV","2017/06/19 17:39:27","新北市新莊區新泰路323號","121.444993333333","25.04147","6500500","新莊區"
"242002","413-TV","2017/06/19 17:39:14","新北市新莊區新莊路338號","121.450155","25.0336016666667","6500500","新莊區"
"242039","400-BY","2017/06/19 17:39:12","新北市新莊區民安東路8號","121.427996666667","25.02091","6500500","新莊區"
"242060","362-BY","2017/06/19 17:39:17","新北市新莊區瓊林南路72號","121.434286666667","25.01273","6500500","新莊區"
"242058","353-BY","2017/06/19 17:39:27","新北市新莊區中正路652號","121.421655","25.0286516666667","6500500","新莊區"
"242011","132-UY","2017/06/19 17:39:12","新北市新莊區中港路597號","121.451446666667","25.0528666666667","6500500","新莊區"
"242019","135-UY","2017/06/19 17:39:12","新北市新莊區中港路177號","121.454965","25.0414183333333","6500500","新莊區"
"242044","172-VK","2017/06/19 17:39:17","新北市新莊區富國路6號","121.418108333333","25.02631","6500500","新莊區"
"242007","173-VK","2017/06/19 17:39:18","新北市新莊區自信街81巷1號","121.455981666667","25.04821","6500500","新莊區"
"242013","175-VK","2017/06/19 17:39:15","新北市新莊區中誠街110號","121.449598333333","25.0477616666667","6500500","新莊區"
"242056","176-VK","2017/06/19 17:39:17","新北市新莊區泰豐街30巷20號","121.448971666667","25.0319383333333","6500500","新莊區"
"242034","347-TH","2017/06/19 17:39:23","新北市新莊區新莊路637號","121.445268333333","25.03287","6500500","新莊區"
"242017","348-TH","2017/06/19 17:39:16","新北市新莊區復興路一段149巷21弄23號","121.449023333333","25.0438683333333","6500500","新莊區"
"242053","349-TH","2017/06/19 17:39:17","新北市新莊區新樹路701號","121.432263333333","25.0022366666667","6500500","新莊區"
"242015","350-TH","2017/06/19 17:39:28","新北市新莊區新泰路325號","121.444963333333","25.041535","6500500","新莊區"
"242009","351-TH","2017/06/19 17:39:21","新北市新莊區福壽街169巷13號","121.456806666667","25.0536483333333","6500500","新莊區"
"238015","755-BX","2017/06/19 17:39:23","新北市樹林區啟智街7號","121.42114","24.99382","6500700","樹林區"
"238023","601-UM","2017/06/19 17:39:24","新北市樹林區三福街114號","121.406465","25.0163766666667","6500700","樹林區"
"238019","599-UM","2017/06/19 17:39:28","新北市樹林區太平路129號","121.419175","24.9804283333333","6500700","樹林區"
"238018","571-TV","2017/06/19 17:39:19","新北市樹林區鎮前街111號","121.424438333333","24.98971","6500700","樹林區"
"238024","5061-A6","2017/06/19 17:38:59","新北市樹林區忠孝街65號","121.424593333333","24.9815","6500700","樹林區"
"238022","312-TH","2017/06/19 17:39:14","新北市樹林區中華路187巷21號","121.42089","24.9808316666667","6500700","樹林區"
"238021","311-TH","2017/06/19 17:39:16","新北市樹林區西圳街一段203巷25-7號","121.394183333333","24.95912","6500700","樹林區"
"238025","303-VK","2017/06/19 17:39:20","新北市樹林區保安街二段223號","121.413193333333","25.004365","6500700","樹林區"
"238017","283-BY","2017/06/19 17:39:28","新北市樹林區三德街3號","121.412741666667","25.0128483333333","6500700","樹林區"
"238014","282-BY","2017/06/19 17:39:17","新北市樹林區保安街一段269號","121.419181666667","24.9971816666667","6500700","樹林區"
"238020","268-VK","2017/06/19 17:39:23","新北市樹林區俊英街116巷29弄14號","121.428143333333","25.0067466666667","6500700","樹林區"
"238026","172-UY","2017/06/19 17:39:21","新北市樹林區新興街19巷13號","121.401083333333","24.9732616666667","6500700","樹林區"
"238016","169-UY","2017/06/19 17:39:13","新北市樹林區育英街70號","121.420846666667","24.9893","6500700","樹林區"
"239007","AAC-297","2017/06/19 17:39:18","新北市鶯歌區陽明街14號","121.340513333333","24.9567416666667","6500800","鶯歌區"
"239006","891-R6","2017/06/19 17:39:14","新北市鶯歌區鶯桃路512號","121.33172","24.9663716666667","6500800","鶯歌區"
"239008","527-UM","2017/06/19 17:39:24","新北市鶯歌區大湖路373號","121.331028333333","24.9784333333333","6500800","鶯歌區"
"239005","526-UM","2017/06/19 17:39:16","新北市鶯歌區福隆二街15號","121.325195","24.9718916666667","6500800","鶯歌區"
"239001","417-VK","2017/06/19 17:39:17","新北市鶯歌區中正三路215號","121.335033333333","24.9392083333333","6500800","鶯歌區"
"239003","360-BY","2017/06/19 17:39:24","新北市鶯歌區鶯桃路188-1號","121.338058333333","24.9585033333333","6500800","鶯歌區"
"239002","359-BY","2017/06/19 17:39:12","新北市鶯歌區國慶街60號","121.349891666667","24.9551116666667","6500800","鶯歌區"
"239004","193-VK","2017/06/19 17:39:18","新北市鶯歌區三鶯路94號","121.35877","24.9436066666667","6500800","鶯歌區"
"221010","269-BY","2017/06/19 17:39:28","新北市汐止區汐萬路一段418巷25號","121.649968333333","25.0788883333333","6501100","汐止區"
"221032","280-BY","2017/06/19 17:39:20","新北市汐止區樟樹二路334號","121.64148","25.0703866666667","6501100","汐止區"
"221025","623-UM","2017/06/19 17:39:25","新北市汐止區汐萬路一段278巷5號","121.65145","25.0747966666667","6501100","汐止區"
"221033","647-BX","2017/06/19 17:39:24","新北市汐止區大同路一段122號","121.630991666667","25.0547433333333","6501100","汐止區"
"221018","753-BX","2017/06/19 17:39:14","新北市汐止區忠孝東路348號","121.665578333333","25.069715","6501100","汐止區"
