"lineid","car","time","location","longitude","latitude","cityid","cityname"
"234046","148-BY","2017/06/19 18:49:17","新北市永和區秀朗路二段126巷30號","121.524611666667","25.0008416666667","6500400","永和區"
"234013","149-BY","2017/06/19 18:49:13","新北市永和區保福路二段133巷1號","121.5096","25.0137933333333","6500400","永和區"
"234007","207-UY","2017/06/19 18:49:15","新北市永和區文化路32號","121.515088333333","25.0150216666667","6500400","永和區"
"234081","298-R6","2017/06/19 18:49:11","新北市永和區林森路122號","121.522406666667","25.0030133333333","6500400","永和區"
"234036","336-UY","2017/06/19 18:49:19","新北市永和區成功路二段207號","121.526611666667","24.99596","6500400","永和區"
"234064","337-UY","2017/06/19 18:49:17","新北市永和區豫溪街217巷7號","121.524645","25.0095583333333","6500400","永和區"
"234086","338-UY","2017/06/19 18:49:22","新北市永和區中正路51號","121.514558333333","24.9963416666667","6500400","永和區"
"234070","552-UM","2017/06/19 18:49:20","新北市永和區竹林路96巷7號","121.519173333333","25.01197","6500400","永和區"
"234054","553-UM","2017/06/19 18:49:18","新北市永和區竹林路66巷2號","121.518253333333","25.01334","6500400","永和區"
"234017","745-BX","2017/06/19 18:49:14","新北市永和區忠孝街26巷27弄1號","121.515263333333","25.0169816666667","6500400","永和區"
"234030","746-BX","2017/06/19 18:49:14","新北市永和區得和路336號","121.523495","24.999535","6500400","永和區"
"234061","AAD-866","2017/06/19 18:49:11","新北市永和區福和路303號","121.516353333333","25.007225","6500400","永和區"
"234042","862-TW","2017/06/19 18:49:25","新北市永和區永貞路306號","121.511908333333","25.004875","6500400","永和區"
"234050","863-TW","2017/06/19 18:49:11","新北市永和區保安路1號","121.510838333333","25.017315","6500400","永和區"
"234011","9373-KE","2017/06/19 18:49:25","新北市永和區文化路128號","121.51294","25.0153266666667","6500400","永和區"
"249005","172-UM","2017/06/19 18:49:29","新北市八里區長道坑16-2號","121.395453333333","25.1171266666667","6502300","八里區"
"249001","173-UM","2017/06/19 18:49:15","新北市八里區龍米路二段58-1號","121.448275","25.1409533333333","6502300","八里區"
"249004","303-UY","2017/06/19 18:49:14","新北市八里區中山路一段43號","121.419353333333","25.1597233333333","6502300","八里區"
"248014","025-BX","2017/06/19 18:49:09","新北市五股區民義路一段107巷32號","121.432213333333","25.0844666666667","6501500","五股區"
"248016","026-BX","2017/06/19 18:49:22","新北市五股區凌雲路一段133巷36號","121.448681666667","25.1010083333333","6501500","五股區"
"248005","077-UY","2017/06/19 18:49:13","新北市五股區四維路1巷3-1號","121.465966666667","25.070405","6501500","五股區"
"248008","095-VK","2017/06/19 18:49:11","新北市五股區中興路一段151巷1弄2號","121.465003333333","25.073165","6501500","五股區"
"248020","225-UY","2017/06/19 18:49:12","新北市五股區民義路二段64號","121.406295","25.1080116666667","6501500","五股區"
"248012","247-BX","2017/06/19 15:12:38","新北市五股區中興路二段83巷26-6號","121.459316666667","25.0754083333333","6501500","五股區"
"248010","272-BY","2017/06/19 18:49:14","新北市五股區水碓七路81號","121.429711666667","25.0722533333333","6501500","五股區"
"248004","677-BX","2017/06/19 18:49:26","新北市五股區民義路二段26-2號","121.419506666667","25.097335","6501500","五股區"
"248002","678-BX","2017/06/19 18:49:24","新北市五股區成泰路三段454號","121.451403333333","25.1004266666667","6501500","五股區"
"234023","9380-KE","2017/06/19 18:49:20","新北市永和區竹林路119巷47號","121.522011666667","25.011885","6500400","永和區"
"234077","969-R7","2017/06/19 18:49:19","新北市中和區景平路278巷16弄2號","121.51392","24.9933516666667","6500400","永和區"
"234074","AAC-211","2017/06/19 18:49:17","新北市永和區福和路1號","121.52642","25.0098566666667","6500400","永和區"
"234067","AAC-212","2017/06/19 18:49:13","新北市永和區安樂路250-2號","121.514476666667","25.003655","6500400","永和區"
"234003","AAC-295","2017/06/19 18:47:47","新北市永和區福和路170號","121.521083333333","25.00783","6500400","永和區"
"232011","375-UM","2017/06/19 18:49:09","新北市坪林區坪雙路一段5號","121.71122","24.9399716666667","6502000","坪林區"
"244013","069-UM","2017/06/19 18:49:21","新北市林口區仁愛路二段201-1號","121.378208333333","25.0750316666667","6501700","林口區"
"244019","403-UM","2017/06/19 18:49:19","新北市林口區忠孝路646巷43號","121.379651666667","25.06711","6501700","林口區"
"244023","483-VK","2017/06/19 18:49:17","新北市林口區吉祥路178號","121.376661666667","25.0804566666667","6501700","林口區"
"244017","485-VK","2017/06/19 18:49:21","新北市林口區文化二路一段20巷9號","121.365223333333","25.0672166666667","6501700","林口區"
"244009","656-BX","2017/06/19 18:49:21","新北市林口區竹林路278巷16號","121.3908","25.0812383333333","6501700","林口區"
"244011","701-TV","2017/06/19 18:49:18","新北市林口區中正路57巷12弄36號","121.394623333333","25.076075","6501700","林口區"
"244025","837-TS","2017/06/19 18:49:26","新北市林口區南勢一街6號","121.36055","25.0746233333333","6501700","林口區"
"243013","AAD-798","2017/06/19 18:49:26","新北市泰山區明志路三段206巷3號","121.42331","25.0379316666667","6501600","泰山區"
"243009","297-R6","2017/06/19 18:49:08","新北市泰山區黎明路25號","121.422015","25.0610066666667","6501600","泰山區"
"243015","380-SR","2017/06/19 18:49:07","新北市泰山區憲訓路1號","121.42879","25.0640083333333","6501600","泰山區"
"243016","539-UM","2017/06/19 18:49:06","新北市泰山區明志路二段135號","121.427635","25.050765","6501600","泰山區"
"243010","548-UM","2017/06/19 18:49:17","新北市泰山區辭修路24號","121.429028333333","25.0580816666667","6501600","泰山區"
"243012","646-TV","2017/06/19 18:49:09","新北市泰山區福興三街13號","121.434403333333","25.057735","6501600","泰山區"
"222003","436-BY","2017/06/19 18:49:11","新北市深坑區翠谷街17巷42弄2號","121.625381666667","25.010135","6501800","深坑區"
"222002","659-BX","2017/06/19 18:19:42","新北市深坑區雲鄉路2號","121.620923333333","25.00009","6501800","深坑區"
"222001","696-SL","2017/06/19 18:49:20","新北市深坑區松柏街54巷2號","121.638803333333","25.012015","6501800","深坑區"
"231041","002-UM","2017/06/19 18:49:22","新北市新店區安華路28-1號","121.519645","24.9609016666667","6500600","新店區"
"231056","0291-UT","2017/06/19 18:49:19","新北市新店區大豐路68巷15號","121.538478333333","24.9802716666667","6500600","新店區"
"231059","046-UY","2017/06/19 18:49:29","新北市新店區安華路28-1號","121.519596666667","24.9608833333333","6500600","新店區"
"231061","047-UY","2017/06/19 18:49:10","新北市新店區安忠路56巷1號","121.512641666667","24.959025","6500600","新店區"
"231060","106-UY","2017/06/19 18:49:20","新北市新店區安華路28-1號","121.519691666667","24.96081","6500600","新店區"
"231051","107-UY","2017/06/19 18:49:24","新北市新店區中央路59號","121.532735","24.9772983333333","6500600","新店區"
"231047","108-UY","2017/06/19 18:49:20","新北市新店區德正街11號","121.543628333333","24.9730966666667","6500600","新店區"
"231052","187-VK","2017/06/19 18:49:29","新北市新店區新烏路一段159號","121.54477","24.9355916666667","6500600","新店區"
"231063","268-BY","2017/06/19 18:49:18","新北市新店區車子路22號","121.50485","24.953715","6500600","新店區"
"231046","278-BY","2017/06/19 18:49:18","新北市新店區直潭路43號","121.533423333333","24.9425266666667","6500600","新店區"
"231050","AAD-862","2017/06/19 18:49:29","新北市新店區北新路一段89號","121.538623333333","24.9615833333333","6500600","新店區"
"231058","3712-VJ","2017/06/19 18:49:17","新北市新店區北宜路一段105巷4弄13號","121.540781666667","24.9555166666667","6500600","新店區"
"231055","3713-VJ","2017/06/19 18:49:22","新北市新店區北新路一段271巷35號","121.539466666667","24.966925","6500600","新店區"
"231067","4772-VM","2017/06/19 18:49:19","新北市新店區安康路一段76巷10-1號","121.528815","24.9625316666667","6500600","新店區"
"231065","512-UM","2017/06/19 18:49:12","新北市新店區安華路28-1號","121.519","24.96122","6500600","新店區"
"231054","513-UM","2017/06/19 18:49:20","新北市新店區北新路一段41號","121.538093333333","24.9593333333333","6500600","新店區"
"231064","515-UM","2017/06/19 18:49:09","新北市新店區安華路28-1號","121.519601666667","24.9611183333333","6500600","新店區"
"231042","616-UM","2017/06/19 18:49:25","新北市新店區安華路28-1號","121.519453333333","24.9605333333333","6500600","新店區"
"231045","617-UM","2017/06/19 18:49:18","新北市新店區安華路28-1號","121.51968","24.96113","6500600","新店區"
"231040","619-UM","2017/06/19 18:49:15","新北市新店區中央路81號","121.532256666667","24.976625","6500600","新店區"
"231049","719-UM","2017/06/19 18:49:26","新北市新店區中正路454-5號","121.534441666667","24.9790233333333","6500600","新店區"
"231062","720-UM","2017/06/19 18:49:16","新北市新店區安華路28-1號","121.519243333333","24.96133","6500600","新店區"
"231044","897-TW","2017/06/19 18:49:15","新北市新店區寶中路72號","121.54789","24.9806133333333","6500600","新店區"
"231043","899-TW","2017/06/19 18:49:22","新北市新店區安康路一段116號","121.527171666667","24.9626116666667","6500600","新店區"
"231066","AKT-0513","2017/06/19 18:49:11","新北市新店區安豐路22巷15號","121.502963333333","24.954945","6500600","新店區"
"235066","003-UY","2017/06/19 18:49:27","新北市中和區水源路7巷4號","121.504","25.003715","6500300","中和區"
"235064","005-UY","2017/06/19 18:49:16","新北市中和區連城路109巷8號","121.496516666667","24.9991716666667","6500300","中和區"
"235063","006-UY","2017/06/19 18:49:27","新北市中和區錦和路85號","121.489978333333","24.9959866666667","6500300","中和區"
"235056","096-UM","2017/06/19 18:49:18","新北市板橋區三民路二段220巷19號","121.47793","25.011435","6500300","中和區"
"235039","097-UM","2017/06/19 18:49:20","新北市中和區宜安路18巷13號","121.513886666667","24.996275","6500300","中和區"
"235065","098-UM","2017/06/19 18:49:25","新北市中和區莊敬路49巷29弄6-6號","121.501398333333","25.006415","6500300","中和區"
"235040","150-BY","2017/06/19 18:49:16","新北市中和區安平路36巷5號","121.51037","24.994975","6500300","中和區"
"235058","151-BY","2017/06/19 18:49:25","新北市中和區連城路506號","121.477493333333","24.9925766666667","6500300","中和區"
"235055","183-VK","2017/06/19 18:49:14","新北市中和區民生街23號","121.470713333333","25.00551","6500300","中和區"
"235038","185-VK","2017/06/19 18:49:11","新北市中和區大勇街60巷6號","121.518553333333","24.9947133333333","6500300","中和區"
"235049","186-VK","2017/06/19 18:49:09","新北市中和區景安路163號","121.505271666667","24.99464","6500300","中和區"
"235067","255-BX","2017/06/19 18:49:27","新北市中和區中正路877巷2-2號","121.484253333333","25.004015","6500300","中和區"
"235044","293-VK","2017/06/19 18:49:06","新北市中和區復興路265號","121.502765","24.9903783333333","6500300","中和區"
"235072","301-VK","2017/06/19 18:49:08","新北市中和區中山路二段57號","121.504286666667","25.0048883333333","6500300","中和區"
"235043","352-BY","2017/06/19 18:49:17","新北市中和區景平路1號","121.525661666667","24.99015","6500300","中和區"
"235051","376-QA","2017/06/19 18:49:20","新北市中和區華新街109巷34號","121.508956666667","24.9798783333333","6500300","中和區"
"235068","377-QA","2017/06/19 18:48:27","新北市中和區保健路61巷1號","121.509546666667","24.9974083333333","6500300","中和區"
"235061","378-QA","2017/06/19 18:49:25","新北市中和區民享街30巷4號","121.473645","25.0035583333333","6500300","中和區"
"235050","4979-A6","2017/06/19 18:49:19","新北市中和區忠孝街62巷7弄2號","121.512941666667","24.9837666666667","6500300","中和區"
"235069","4980-A6","2017/06/19 18:49:06","新北市中和區中和路119號","121.501631666667","25.000235","6500300","中和區"
"235042","551-UM","2017/06/19 18:49:24","新北市中和區秀朗路三段135巷5弄1號","121.525396666667","24.9923116666667","6500300","中和區"
"235070","558-UM","2017/06/19 18:49:25","新北市中和區南山路71號","121.502178333333","24.9981566666667","6500300","中和區"
"235045","565-BX","2017/06/19 18:49:13","新北市中和區南山路220號","121.506375","24.9902983333333","6500300","中和區"
"235054","640-BX","2017/06/19 18:49:12","新北市中和區民享街57號","121.474081666667","25.002515","6500300","中和區"
"235060","647-TV","2017/06/19 18:49:11","新北市中和區中山路三段33號","121.479013333333","25.0058883333333","6500300","中和區"
"235047","732-UM","2017/06/19 18:49:18","新北市中和區興南路二段92號","121.505318333333","24.9844916666667","6500300","中和區"
"235046","733-UM","2017/06/19 18:49:18","新北市中和區仁愛街36巷51號","121.511466666667","24.9861983333333","6500300","中和區"
"235071","783-BX","2017/06/19 18:49:25","新北市中和區員山路36巷16-3號","121.485151666667","24.9912283333333","6500300","中和區"
"235062","800-TS","2017/06/19 18:49:11","新北市中和區景平路714號","121.496816666667","25.0027583333333","6500300","中和區"
"235057","801-TS","2017/06/19 18:49:18","新北市中和區員山路327巷46號","121.480443333333","25.0016633333333","6500300","中和區"
"235052","805-TS","2017/06/19 18:49:24","新北市中和區興南路二段399巷86號","121.500105","24.97836","6500300","中和區"
"235048","896-TW","2017/06/19 18:49:24","新北市中和區南山路252號","121.507806666667","24.988835","6500300","中和區"
"235053","900-TW","2017/06/19 18:49:09","新北市中和區華安街16巷18號","121.465956666667","24.9973766666667","6500300","中和區"
"235041","157-BY","2017/06/19 18:49:13","新北市中和區宜安路165號","121.508726666667","24.9990333333333","6500300","中和區"
"235037","AAC-213","2017/06/19 18:49:20","新北市中和區景平路111巷26號","121.516043333333","24.9906066666667","6500300","中和區"
"235059","AAC-215","2017/06/19 18:49:19","新北市中和區圓通路369巷14弄4號","121.490145","24.9882966666667","6500300","中和區"
"220068","013-TV","2017/06/19 18:49:27","新北市板橋區民生路二段48號","121.472326666667","25.0177633333333","6500100","板橋區"
"220065","072-UY","2017/06/19 18:49:24","新北市板橋區民生路二段36-1號","121.472403333333","25.01683","6500100","板橋區"
"220086","073-UY","2017/06/19 18:49:14","新北市板橋區南雅西路二段180巷18號","121.452396666667","25.0139433333333","6500100","板橋區"
"220106","075-UY","2017/06/19 18:49:26","新北市板橋區民生路二段161巷3號","121.469863333333","25.0197083333333","6500100","板橋區"
"220069","AAD-861","2017/06/19 18:49:16","新北市板橋區民生路二段36-1號","121.472275","25.01659","6500100","板橋區"
"247006","341-TH","2017/06/19 18:49:15","新北市五股區更洲路47-1號","121.456731666667","25.079295","6501400","蘆洲區"
"247024","337-TH","2017/06/19 18:46:59","新北市五股區中興路三段163號","121.449306666667","25.080545","6501400","蘆洲區"
"247002","336-TH","2017/06/19 18:49:09","新北市五股區中興路三段2巷10號","121.448103333333","25.0821633333333","6501400","蘆洲區"
"247014","057-VK","2017/06/19 18:33:49","新北市五股區中興路三段163號","121.449275","25.0807616666667","6501400","蘆洲區"
"247022","002-UY","2017/06/19 18:49:20","新北市五股區成泰路一段98巷77號","121.452231666667","25.07895","6501400","蘆洲區"
"226004","312-R5","2017/06/19 18:49:25","新北市平溪區平溪里平溪街16號","121.738796666667","25.0250783333333","6502400","平溪區"
"228003","097-TW","2017/06/19 18:49:11","新北市貢寮區和美里龍洞街56-3號","121.912461666667","25.1141116666667","6502600","貢寮區"
"228002","585-TW","2017/06/19 18:49:06","新北市貢寮區福隆里東興街6-11號","121.950756666667","25.0210566666667","6502600","貢寮區"
"228001","670-TC","2017/06/19 18:49:12","新北市貢寮區仁理村研海街12-1號","121.923911666667","25.051695","6502600","貢寮區"
"224010","AGQ-8101","2017/06/19 18:44:45","新北市瑞芳區山尖路172-1號","121.848471666667","25.111755","6501200","瑞芳區"
"224006","676-BX","2017/06/19 18:49:25","新北市瑞芳區中正路91號","121.805163333333","25.1076583333333","6501200","瑞芳區"
"224011","420-VK","2017/06/19 18:49:14","新北市瑞芳區崙頂路3-1號","121.84703","25.1047066666667","6501200","瑞芳區"
"224009","285-BY","2017/06/19 18:49:21","新北市瑞芳區祈堂路108號","121.858991666667","25.1093516666667","6501200","瑞芳區"
"224008","275-VK","2017/06/19 18:49:17","新北市瑞芳區瑞芳街150號","121.80117","25.11161","6501200","瑞芳區"
"224007","273-VK","2017/06/19 18:49:24","新北市瑞芳區大埔路211-1號","121.76264","25.1017333333333","6501200","瑞芳區"
"224005","271-BY","2017/06/19 18:49:25","新北市瑞芳區建基路一段44-6號","121.819023333333","25.1216666666667","6501200","瑞芳區"
"227001","642-TC","2017/06/19 18:49:26","新北市雙溪區平林里梅竹蹊26號","121.861668333333","25.0360116666667","6502500","雙溪區"
"227008","400-TW","2017/06/19 18:49:17","新北市雙溪區牡丹里聖南8號","121.858996666667","25.05266","6502500","雙溪區"
"253006","032-BX","2017/06/19 18:49:14","新北市石門區下員坑15-10號","121.513656666667","25.2836533333333","6502200","石門區"
"253005","295-VK","2017/06/19 18:49:20","新北市石門區中山路28-3號","121.565773333333","25.28987","6502200","石門區"
"208001","742-BX","2017/06/19 18:49:14","新北市金山區文化三路62號","121.634348333333","25.2256333333333","6502700","金山區"
"208003","665-BX","2017/06/19 18:49:07","新北市金山區中山路344號","121.633456666667","25.2253033333333","6502700","金山區"
"251007","179-VK","2017/06/19 18:49:27","新北市淡水區民生路140號","121.464378333333","25.1383583333333","6501000","淡水區"
"251008","181-VK","2017/06/19 18:49:20","新北市淡水區中山北路三段159號","121.445268333333","25.1963966666667","6501000","淡水區"
"251013","182-VK","2017/06/19 18:49:14","新北市淡水區頂田寮路769號","121.480241666667","25.2146133333333","6501000","淡水區"
"251010","413-VK","2017/06/19 18:49:09","新北市淡水區沙崙路14號","121.421121666667","25.181045","6501000","淡水區"
"251012","441-VK","2017/06/19 18:49:13","新北市淡水區新興街91號","121.441458333333","25.1802566666667","6501000","淡水區"
"251015","442-VK","2017/06/19 18:49:16","新北市淡水區興福寮88巷17號","121.486675","25.1639683333333","6501000","淡水區"
"251005","443-VK","2017/06/19 18:49:24","新北市淡水區下圭柔山90-8號","121.431285","25.210285","6501000","淡水區"
"251001","559-UM","2017/06/19 18:49:17","新北市淡水區自強路58號","121.463163333333","25.1274633333333","6501000","淡水區"
"251011","650-BX","2017/06/19 18:49:28","新北市淡水區中正東路71號","121.447415","25.16773","6501000","淡水區"
"251002","672-BX","2017/06/19 18:49:21","新北市淡水區學府路66號","121.448788333333","25.1702066666667","6501000","淡水區"
"251003","766-UM","2017/06/19 18:49:14","新北市淡水區中山北路一段149巷24號","121.44291","25.1779083333333","6501000","淡水區"
"207003","550-UM","2017/06/19 18:49:24","新北市萬里區大鵬里頂社1號","121.65702","25.2097133333333","6502800","萬里區"
"207004","225-TW","2017/06/19 18:49:20","新北市萬里區萬里里獅頭路23號","121.693226666667","25.1782666666667","6502800","萬里區"
"252005","073-UM","2017/06/19 15:22:13","新北市三芝區埔坪里埔頭坑41號","121.504588333333","25.2644433333333","6502100","三芝區"
"252002","178-VK","2017/06/19 18:49:09","新北市三芝區中正路一段112號","121.504793333333","25.2564533333333","6502100","三芝區"
"252003","249-BX","2017/06/19 18:49:19","新北市三芝區後厝里土地公坑73-2號","121.46081","25.2474033333333","6502100","三芝區"
"252001","702-TV","2017/06/19 18:49:21","新北市三芝區中正路三段9號","121.502851666667","25.2539083333333","6502100","三芝區"
"252006","AAC-283","2017/06/19 00:38:00","新北市三芝區埔坪里埔頭坑41號","121.504483333333","25.2644916666667","6502100","三芝區"
"208002","170-UY","2017/06/19 18:49:22","新北市金山區信義路62號","121.635715","25.218955","6502700","金山區"
"237004","078-UY","2017/06/19 18:49:21","新北市三峽區插角225號","121.414986666667","24.86789","6500900","三峽區"
"237007","153-BY","2017/06/19 18:49:07","新北市三峽區柑樹路2巷13號","121.362045","24.9050333333333","6500900","三峽區"
"237009","210-TH","2017/06/19 18:49:16","新北市三峽區民權街223號","121.36783","24.928175","6500900","三峽區"
"237013","252-BX","2017/06/19 18:49:12","新北市三峽區光明路69巷25號","121.376655","24.9292283333333","6500900","三峽區"
"237012","275-BY","2017/06/19 18:49:17","新北市三峽區三樹路340號","121.383963333333","24.9433566666667","6500900","三峽區"
"237008","302-VK","2017/06/19 18:49:08","新北市三峽區白雞38-9號","121.373381666667","24.9124516666667","6500900","三峽區"
"237014","433-BY","2017/06/19 18:49:25","新北市三峽區隆恩街177巷16-1號","121.362945","24.9410516666667","6500900","三峽區"
"237006","5529-G3","2017/06/19 18:49:23","新北市三峽區溪東路211巷45號","121.40584","24.9342","6500900","三峽區"
"237011","572-TV","2017/06/19 18:49:19","新北市三峽區介壽路三段47號","121.395591666667","24.9374616666667","6500900","三峽區"
"237015","649-BX","2017/06/19 18:49:19","新北市三峽區建安77-1號","121.451096666667","24.9244316666667","6500900","三峽區"
"237010","706-TV","2017/06/19 18:49:18","新北市三峽區復興路239號","121.367551666667","24.93891","6500900","三峽區"
"237005","AKY-6261","2017/06/19 18:49:12","新北市三峽區中山路108號","121.365945","24.9356333333333","6500900","三峽區"
"236069","105-UM","2017/06/19 18:49:21","新北市土城區明德路一段57號","121.465448333333","24.9846083333333","6501300","土城區"
"236042","107-UM","2017/06/19 18:49:25","新北市土城區裕民路92巷23弄2號","121.449696666667","24.9861283333333","6501300","土城區"
"236078","166-UM","2017/06/19 18:49:23","新北市土城區中央路四段125巷13-2號","121.416881666667","24.95694","6501300","土城區"
"236030","253-BX","2017/06/19 18:49:22","新北市土城區忠義路26巷10號","121.439873333333","24.9698916666667","6501300","土城區"
"236026","269-VK","2017/06/19 18:49:21","新北市土城區興城路48號","121.441406666667","24.9726583333333","6501300","土城區"
"236014","270-VK","2017/06/19 18:49:18","新北市土城區清水路235巷5弄2號","121.460766666667","24.9839066666667","6501300","土城區"
"236036","271-VK","2017/06/19 18:49:16","新北市土城區明德路一段221巷3號","121.463638333333","24.9779883333333","6501300","土城區"
"236020","401-BY","2017/06/19 18:49:07","新北市土城區延安街76號","121.468101666667","24.9840766666667","6501300","土城區"
"236058","912-UM","2017/06/19 18:49:26","新北市土城區中央路三段143號","121.433048333333","24.9653816666667","6501300","土城區"
"236048","913-UM","2017/06/19 18:49:24","新北市板橋區廣權路2號","121.460135","24.990725","6501300","土城區"
"236062","915-UM","2017/06/19 18:49:23","新北市土城區延壽路13巷5號","121.470803333333","24.9902916666667","6501300","土城區"
"236053","AAC-216","2017/06/19 18:49:26","新北市土城區裕民路112號","121.450965","24.9866183333333","6501300","土城區"
"242046","441-UM","2017/06/19 18:49:08","新北市板橋區金門街369巷83-1號","121.430703333333","24.9814516666667","6500500","新莊區"
"242058","353-BY","2017/06/19 18:49:10","新北市新莊區中山路三段619號","121.41322","25.0249283333333","6500500","新莊區"
"242044","172-VK","2017/06/19 18:49:17","新北市新莊區新泰路357巷3弄41號","121.441896666667","25.040285","6500500","新莊區"
"238023","601-UM","2017/06/19 18:49:24","新北市樹林區三福街114號","121.406538333333","25.0163133333333","6500700","樹林區"
"238019","599-UM","2017/06/19 18:49:09","新北市樹林區東榮街147巷4弄3號","121.414675","24.9809616666667","6500700","樹林區"
"238018","571-TV","2017/06/19 18:49:18","新北市樹林區鎮前街164號","121.424413333333","24.989995","6500700","樹林區"
"238024","5061-A6","2017/06/19 18:49:25","新北市樹林區太順街47-1號","121.418093333333","24.9792933333333","6500700","樹林區"
"238022","312-TH","2017/06/19 18:49:14","新北市樹林區中華路379巷25號","121.413748333333","24.9779083333333","6500700","樹林區"
"238021","311-TH","2017/06/19 18:48:56","新北市樹林區中山路三段214號","121.38017","24.9679033333333","6500700","樹林區"
"238025","303-VK","2017/06/19 18:49:20","新北市樹林區中山路三段210-2號","121.381438333333","24.9655133333333","6500700","樹林區"
"238020","268-VK","2017/06/19 18:49:22","新北市樹林區俊英街190號","121.425858333333","25.0079683333333","6500700","樹林區"
"238026","172-UY","2017/06/19 18:49:20","新北市樹林區中和街11號","121.392025","24.9729483333333","6500700","樹林區"
"238016","169-UY","2017/06/19 18:49:13","新北市樹林區文化街28號","121.419365","24.9876533333333","6500700","樹林區"
"239007","AAC-297","2017/06/19 18:49:11","新北市鶯歌區中正一路建德巷38號","121.364493333333","24.95781","6500800","鶯歌區"
"239008","527-UM","2017/06/19 18:49:24","新北市鶯歌區國際一路14號","121.336173333333","24.9765116666667","6500800","鶯歌區"
"239005","526-UM","2017/06/19 18:49:16","新北市鶯歌區鳳吉二街18號","121.325716666667","24.9731716666667","6500800","鶯歌區"
"239001","417-VK","2017/06/19 18:49:17","新北市鶯歌區中正三路69號","121.338765","24.9413383333333","6500800","鶯歌區"
"239003","360-BY","2017/06/19 18:49:24","新北市鶯歌區永和街181號","121.335881666667","24.9704283333333","6500800","鶯歌區"
"239004","193-VK","2017/06/19 18:49:18","新北市鶯歌區中正三路156巷31號","121.333505","24.9396966666667","6500800","鶯歌區"
"221036","130-UY","2017/06/19 18:49:24","新北市汐止區水碓街59號","121.665131666667","25.06891","6501100","汐止區"
"221015","131-UY","2017/06/19 18:49:09","新北市汐止區吉祥街12巷12號","121.668903333333","25.08048","6501100","汐止區"
"221010","269-BY","2017/06/19 18:49:28","新北市汐止區康寧街901號","121.65154","25.0749916666667","6501100","汐止區"
"221012","278-VK","2017/06/19 18:49:23","新北市汐止區汐萬路一段39號","121.655046666667","25.06899","6501100","汐止區"
"221023","279-VK","2017/06/19 15:16:38","新北市汐止區康寧街901號","121.651458333333","25.0748983333333","6501100","汐止區"
"221032","280-BY","2017/06/19 18:49:20","新北市汐止區橫科路385巷6弄6號","121.624088333333","25.0479366666667","6501100","汐止區"
"221027","281-BY","2017/06/19 18:49:18","新北市汐止區康寧街901號","121.65089","25.0752666666667","6501100","汐止區"
"221038","297-VK","2017/06/19 18:49:15","新北市汐止區汐萬路一段39-3號","121.654913333333","25.0696316666667","6501100","汐止區"
"221029","298-VK","2017/06/19 18:49:10","新北市汐止區工建路40號","121.641451666667","25.0630783333333","6501100","汐止區"
"221021","299-VK","2017/06/19 18:49:04","新北市汐止區連興街114號","121.653821666667","25.0627916666667","6501100","汐止區"
"221035","622-UM","2017/06/19 18:49:16","新北市汐止區大同路二段352號","121.656906666667","25.0670633333333","6501100","汐止區"
"221025","623-UM","2017/06/19 18:49:25","新北市汐止區秀峰路62號","121.659756666667","25.0646616666667","6501100","汐止區"
"221033","647-BX","2017/06/19 18:49:24","新北市汐止區南勢街1巷1號","121.627066666667","25.0374166666667","6501100","汐止區"
"221002","707-TV","2017/06/19 18:49:25","新北市汐止區大同路一段138號","121.631073333333","25.055125","6501100","汐止區"
"221018","753-BX","2017/06/19 18:49:13","新北市汐止區茄苳路262號","121.671833333333","25.0681733333333","6501100","汐止區"
"220079","145-BY","2017/06/19 18:49:28","新北市板橋區民權路202巷8弄1號","121.460113333333","25.0147716666667","6500100","板橋區"
"220093","146-RM","2017/06/19 18:49:24","新北市板橋區民生路二段120號","121.470321666667","25.01981","6500100","板橋區"
"220080","200-UY","2017/06/19 18:49:21","新北市板橋區大觀路二段265巷128號","121.442381666667","24.9961616666667","6500100","板橋區"
"220082","610-BX","2017/06/19 18:49:13","新北市板橋區篤行路二段92-3號","121.431571666667","24.991545","6500100","板橋區"
"220101","245-BX","2017/06/19 16:51:22","新北市板橋區民生路二段120號","121.470555","25.0196816666667","6500100","板橋區"
"220094","267-BY","2017/06/19 18:49:06","新北市板橋區民生路二段120號","121.470446666667","25.01968","6500100","板橋區"
"220056","276-BY","2017/06/19 18:49:23","新北市板橋區四川路二段45號","121.453955","24.9953433333333","6500100","板橋區"
"220072","277-BY","2017/06/19 18:49:17","新北市板橋區金門街25巷21號","121.434225","24.99442","6500100","板橋區"
"220064","280-UM","2017/06/19 18:49:09","新北市板橋區民生路二段56-1號","121.472201666667","25.0170133333333","6500100","板橋區"
"220071","283-VK","2017/06/19 18:49:19","新北市板橋區觀光街1巷1號","121.472291666667","25.0153983333333","6500100","板橋區"
"220089","285-UM","2017/06/19 18:49:15","新北市板橋區民生路二段120號","121.47051","25.0196016666667","6500100","板橋區"
"220053","285-VK","2017/06/19 18:49:27","新北市板橋區民生路二段46號","121.472415","25.01766","6500100","板橋區"
"220083","286-VK","2017/06/19 18:49:16","新北市板橋區大觀路二段22巷12號","121.445951666667","25.0034483333333","6500100","板橋區"
"220081","287-VK","2017/06/19 18:49:08","新北市板橋區大觀路一段28巷78號","121.449823333333","25.01082","6500100","板橋區"
"220090","288-VK","2017/06/19 18:49:08","新北市板橋區民生路二段120號","121.470428333333","25.019575","6500100","板橋區"
"220061","293-UM","2017/06/19 18:49:12","新北市板橋區民生路二段56-1號","121.472448333333","25.0171183333333","6500100","板橋區"
"220084","296-UM","2017/06/19 18:49:19","新北市板橋區大觀路二段148巷54號","121.441861666667","25.0004216666667","6500100","板橋區"
"220075","297-UM","2017/06/19 18:49:18","新北市板橋區大觀路一段28巷106-1號","121.450773333333","25.0108283333333","6500100","板橋區"
"220062","305-R5","2017/06/19 18:49:10","新北市板橋區觀光街4巷2弄4號","121.472298333333","25.01563","6500100","板橋區"
"220092","307-R5","2017/06/19 18:49:14","新北市板橋區民生路二段89-6號","121.470553333333","25.0192933333333","6500100","板橋區"
"220098","317-R6","2017/06/19 18:49:12","新北市板橋區民生路二段120號","121.470345","25.0198616666667","6500100","板橋區"
"220088","491-VK","2017/06/19 18:48:55","新北市板橋區民生路二段161巷3號","121.470173333333","25.01981","6500100","板橋區"
"220035","560-BX","2017/06/19 18:49:28","新北市板橋區中正路275巷68號","121.452735","25.0179166666667","6500100","板橋區"
"220103","561-BX","2017/06/19 18:49:13","新北市板橋區民生路二段120號","121.470453333333","25.0196216666667","6500100","板橋區"
"220063","609-BX","2017/06/19 16:45:32","新北市板橋區民生路二段22號","121.472746666667","25.016555","6500100","板橋區"
"220091","637-BX","2017/06/19 18:49:18","新北市板橋區民生路二段161巷1號","121.470096666667","25.0200766666667","6500100","板橋區"
"220057","686-BX","2017/06/19 18:49:22","新北市板橋區民生路二段36-1號","121.47214","25.016885","6500100","板橋區"
"220077","687-BX","2017/06/19 18:49:24","新北市板橋區大觀路二段174巷177號","121.442043333333","25.0036966666667","6500100","板橋區"
"220054","741-BX","2017/06/19 18:49:17","新北市板橋區觀光街2-3號","121.472291666667","25.0154616666667","6500100","板橋區"
"220055","827-TW","2017/06/19 18:49:15","新北市板橋區民生路二段15-1號","121.472691666667","25.0164183333333","6500100","板橋區"
"220067","829-TW","2017/06/19 18:49:24","新北市板橋區民生路二段15號","121.472708333333","25.0160733333333","6500100","板橋區"
"220102","830-TW","2017/06/19 18:48:33","新北市板橋區民生路二段120號","121.470395","25.0201316666667","6500100","板橋區"
"220096","831-TW","2017/06/19 16:10:18","新北市板橋區民生路二段161巷9號","121.470318333333","25.01965","6500100","板橋區"
"220074","895-R6","2017/06/19 18:49:18","新北市板橋區南門街44號","121.456885","25.0082133333333","6500100","板橋區"
"220073","985-R7","2017/06/19 18:49:17","新北市板橋區館前西路88號","121.457475","25.00722","6500100","板橋區"
"220097","AAC-210","2017/06/19 18:49:18","新北市板橋區民生路二段120號","121.470526666667","25.0194333333333","6500100","板橋區"
"220070","AAC-253","2017/06/19 18:49:20","新北市板橋區民生路二段36-1號","121.472486666667","25.0167933333333","6500100","板橋區"
