"lineid","car","time","location","longitude","latitude","cityid","cityname"
"234046","148-BY","2017/06/19 19:09:17","新北市永和區永元路54號","121.522396666667","25.0010566666667","6500400","永和區"
"234013","149-BY","2017/06/19 19:09:13","新北市永和區保福路二段6號","121.510995","25.01105","6500400","永和區"
"234007","207-UY","2017/06/19 19:09:16","新北市永和區中山路一段219號","121.508158333333","25.0079633333333","6500400","永和區"
"234081","298-R6","2017/06/19 19:09:11","新北市永和區福和路139號","121.520913333333","25.0075633333333","6500400","永和區"
"234038","336-UY","2017/06/19 19:09:19","新北市永和區環河東路4段84-1號","121.528403333333","24.997995","6500400","永和區"
"234064","337-UY","2017/06/19 19:09:17","新北市永和區秀朗路二段33號","121.521331666667","25.0023966666667","6500400","永和區"
"234086","338-UY","2017/06/19 19:09:22","新北市永和區中正路500號","121.517341666667","25.004245","6500400","永和區"
"234070","552-UM","2017/06/19 19:09:21","新北市永和區豫溪街99號","121.518698333333","25.0100566666667","6500400","永和區"
"234054","553-UM","2017/06/19 19:09:18","新北市永和區竹林路78號","121.519308333333","25.0128316666667","6500400","永和區"
"234017","745-BX","2017/06/19 19:09:23","新北市永和區忠孝街19號","121.514245","25.0156066666667","6500400","永和區"
"234030","746-BX","2017/06/19 19:09:14","新北市永和區民生路23號","121.52288","24.9988366666667","6500400","永和區"
"234061","AAD-866","2017/06/19 19:09:11","新北市永和區安樂路304巷10弄17號","121.515268333333","25.0056366666667","6500400","永和區"
"234042","862-TW","2017/06/19 19:09:25","新北市永和區永貞路350號","121.51083","25.00605","6500400","永和區"
"234050","863-TW","2017/06/19 19:09:16","新北市永和區文化路135巷9號","121.51065","25.014495","6500400","永和區"
"234026","9371-KE","2017/06/19 19:09:18","新北市永和區安樂路272巷9弄6號","121.515246666667","25.004455","6500400","永和區"
"234011","9373-KE","2017/06/19 19:09:25","新北市永和區仁愛路141巷5弄12號","121.512321666667","25.0122033333333","6500400","永和區"
"249005","172-UM","2017/06/19 19:09:09","新北市八里區中華路三段131巷8號","121.392425","25.13502","6502300","八里區"
"249001","173-UM","2017/06/19 19:09:15","新北市八里區龍米路二段203-1號","121.4328","25.1583166666667","6502300","八里區"
"248016","026-BX","2017/06/19 19:09:22","新北市五股區成泰路三段559巷36弄1號","121.450685","25.102805","6501500","五股區"
"248020","225-UY","2017/06/19 19:09:12","新北市五股區民義路二段22巷2號","121.420275","25.0967433333333","6501500","五股區"
"248012","247-BX","2017/06/19 15:12:38","新北市五股區中興路二段83巷26-6號","121.459316666667","25.0754083333333","6501500","五股區"
"248010","272-BY","2017/06/19 19:09:14","新北市五股區自強路90巷72號","121.430866666667","25.0713066666667","6501500","五股區"
"248004","677-BX","2017/06/19 19:09:26","新北市五股區民義路一段185號","121.430993333333","25.08864","6501500","五股區"
"248002","678-BX","2017/06/19 19:09:24","新北市五股區凌雲路一段158巷6號","121.447786666667","25.1029766666667","6501500","五股區"
"234023","9380-KE","2017/06/19 19:09:20","新北市永和區中興街10巷19號","121.515885","25.01117","6500400","永和區"
"234077","969-R7","2017/06/19 19:09:21","新北市永和區民權路34號","121.520211666667","24.9989366666667","6500400","永和區"
"234074","AAC-211","2017/06/19 19:09:17","新北市永和區竹林路222號","121.520811666667","25.0079866666667","6500400","永和區"
"234067","AAC-212","2017/06/19 19:09:13","新北市永和區保平路23號","121.512653333333","25.0074333333333","6500400","永和區"
"234003","AAC-295","2017/06/19 19:07:47","新北市永和區保福路一段80號","121.512306666667","25.010135","6500400","永和區"
"244013","069-UM","2017/06/19 19:09:21","新北市林口區麗園一街11巷11號","121.378676666667","25.0705316666667","6501700","林口區"
"244019","403-UM","2017/06/19 19:09:25","新北市林口區麗園二街12巷1-3號","121.378535","25.0694833333333","6501700","林口區"
"244023","483-VK","2017/06/19 19:09:17","新北市林口區仁愛路二段692號","121.369453333333","25.0805016666667","6501700","林口區"
"244017","485-VK","2017/06/19 19:09:21","新北市林口區公園路94號","121.369571666667","25.070545","6501700","林口區"
"244009","656-BX","2017/06/19 19:09:21","新北市林口區台電新村18號","121.38673","25.0862533333333","6501700","林口區"
"244011","701-TV","2017/06/19 19:09:18","新北市林口區中正路329號","121.388408333333","25.0776183333333","6501700","林口區"
"244025","837-TS","2017/06/19 19:09:06","新北市林口區民族路185號","121.367771666667","25.0768016666667","6501700","林口區"
"243013","AAD-798","2017/06/19 19:09:26","新北市泰山區明志路三段277號","121.423145","25.036755","6501600","泰山區"
"243009","297-R6","2017/06/19 19:09:28","新北市泰山區明志路一段117巷26號","121.434248333333","25.063655","6501600","泰山區"
"243015","380-SR","2017/06/19 19:09:27","新北市泰山區明志路一段433號","121.430991666667","25.05654","6501600","泰山區"
"243014","421-VK","2017/06/19 19:09:19","新北市泰山區泰林路二段377號","121.427693333333","25.0641633333333","6501600","泰山區"
"243016","539-UM","2017/06/19 19:08:06","新北市泰山區明志路三段21號","121.424861666667","25.0430633333333","6501600","泰山區"
"243010","548-UM","2017/06/19 19:09:17","新北市泰山區仁愛路39巷21號","121.431116666667","25.05524","6501600","泰山區"
"243011","549-UM","2017/06/19 19:09:14","新北市泰山區明志路二段356號","121.425398333333","25.0452916666667","6501600","泰山區"
"243012","646-TV","2017/06/19 19:09:09","新北市泰山區辭修路34巷1號","121.428585","25.058015","6501600","泰山區"
"222003","436-BY","2017/06/19 19:09:11","新北市深坑區深南路142號","121.622966666667","25.01409","6501800","深坑區"
"222002","659-BX","2017/06/19 18:19:42","新北市深坑區雲鄉路2號","121.620923333333","25.00009","6501800","深坑區"
"222001","696-SL","2017/06/19 19:09:20","新北市深坑區北深路一段300號","121.624033333333","25.0056883333333","6501800","深坑區"
"231041","002-UM","2017/06/19 19:09:22","新北市新店區中央一街12號","121.528423333333","24.9726666666667","6500600","新店區"
"231056","0291-UT","2017/06/19 19:09:19","新北市新店區二十張路46巷37弄37號","121.535853333333","24.98148","6500600","新店區"
"231059","046-UY","2017/06/19 19:09:09","新北市新店區安和路二段120號","121.519055","24.9707866666667","6500600","新店區"
"231061","047-UY","2017/06/19 19:09:14","新北市新店區安康路一段83-1號","121.529608333333","24.9612466666667","6500600","新店區"
"231060","106-UY","2017/06/19 19:09:20","新北市新店區車子路1-1號","121.504728333333","24.9579216666667","6500600","新店區"
"231051","107-UY","2017/06/19 19:09:24","新北市新店區中正路378號","121.534825","24.976975","6500600","新店區"
"231047","108-UY","2017/06/19 19:09:20","新北市新店區德正街25巷2號","121.544375","24.9716283333333","6500600","新店區"
"231052","187-VK","2017/06/19 19:09:09","新北市新店區自強路36號","121.54612","24.9260116666667","6500600","新店區"
"231063","268-BY","2017/06/19 19:09:18","新北市新店區車子路134號","121.505158333333","24.9489116666667","6500600","新店區"
"231046","278-BY","2017/06/19 19:09:18","新北市新店區新潭路一段35號","121.523425","24.9420583333333","6500600","新店區"
"231050","AAD-862","2017/06/19 19:09:09","新北市新店區竹林路2巷31號","121.55043","24.95022","6500600","新店區"
"231058","3712-VJ","2017/06/19 19:09:17","新北市新店區中興路一段180號","121.543233333333","24.9647566666667","6500600","新店區"
"231055","3713-VJ","2017/06/19 19:09:22","新北市新店區中央一街12號","121.528563333333","24.9726416666667","6500600","新店區"
"231067","4772-VM","2017/06/19 19:09:19","新北市新店區安康路一段247巷6-1號","121.525008333333","24.962605","6500600","新店區"
"231065","512-UM","2017/06/19 19:09:12","新北市新店區安祥路147巷33號","121.476571666667","24.956685","6500600","新店區"
"231054","513-UM","2017/06/19 19:09:20","新北市新店區新店路179號","121.53711","24.9559433333333","6500600","新店區"
"231064","515-UM","2017/06/19 19:09:09","新北市新店區安忠路56巷6號","121.512925","24.9593733333333","6500600","新店區"
"231042","616-UM","2017/06/19 19:09:25","新北市新店區大新街9巷28號","121.544396666667","24.9668166666667","6500600","新店區"
"231045","617-UM","2017/06/19 19:09:18","新北市新店區北宜路一段144-2號","121.540175","24.9541066666667","6500600","新店區"
"231040","619-UM","2017/06/19 19:09:15","新北市新店區三民路98-3號","121.534005","24.9734533333333","6500600","新店區"
"231049","719-UM","2017/06/19 19:09:09","新北市新店區二十張路18號","121.538681666667","24.982195","6500600","新店區"
"231062","720-UM","2017/06/19 19:09:17","新北市新店區安平路22號","121.52404","24.9671166666667","6500600","新店區"
"231044","897-TW","2017/06/19 19:09:15","新北市新店區中興路三段167號","121.544196666667","24.98054","6500600","新店區"
"231043","899-TW","2017/06/19 19:09:22","新北市新店區寶橋路75號","121.545786666667","24.9752016666667","6500600","新店區"
"231066","AKT-0513","2017/06/19 19:09:11","新北市新店區安康路三段359巷12弄2號","121.484525","24.9501333333333","6500600","新店區"
"241026","066-VK","2017/06/19 19:09:20","新北市三重區泉州街57號","121.494641666667","25.0547516666667","6500200","三重區"
"241035","462-BY","2017/06/19 19:09:10","新北市三重區重新路四段121號","121.484883333333","25.052005","6500200","三重區"
"241029","942-UM","2017/06/19 19:09:19","新北市三重區集美街235號","121.49209","25.0552683333333","6500200","三重區"
"235066","003-UY","2017/06/19 19:09:27","新北市中和區廣福路12-1號","121.505531666667","25.0028183333333","6500300","中和區"
"235064","005-UY","2017/06/19 19:09:16","新北市中和區泰和街44巷3號","121.498675","25.000215","6500300","中和區"
"235063","006-UY","2017/06/19 19:09:06","新北市中和區中正路628號","121.485513333333","24.9958616666667","6500300","中和區"
"235056","096-UM","2017/06/19 19:09:18","新北市中和區員山路570號","121.478853333333","25.01104","6500300","中和區"
"235039","097-UM","2017/06/19 19:09:20","新北市永和區民有街3-2號","121.515898333333","24.9971416666667","6500300","中和區"
"235065","098-UM","2017/06/19 19:09:25","新北市中和區福祥路136號","121.498923333333","25.006855","6500300","中和區"
"235040","150-BY","2017/06/19 19:09:16","新北市中和區宜安路11巷17號","121.512756666667","24.9950433333333","6500300","中和區"
"235058","151-BY","2017/06/19 19:09:25","新北市中和區員山路106號","121.48107","24.9954966666667","6500300","中和區"
"235055","183-VK","2017/06/19 19:09:22","新北市中和區德光路77巷2弄2號","121.469475","25.00348","6500300","中和區"
"235038","185-VK","2017/06/19 19:09:11","新北市中和區立人街24-5號","121.518883333333","24.9941116666667","6500300","中和區"
"235049","186-VK","2017/06/19 19:09:09","新北市中和區景新街208號","121.506636666667","24.9954266666667","6500300","中和區"
"235067","255-BX","2017/06/19 19:09:07","新北市中和區新生街187號","121.483785","25.0004183333333","6500300","中和區"
"235044","293-VK","2017/06/19 19:09:26","新北市中和區復興路280巷33弄4號","121.501338333333","24.9915066666667","6500300","中和區"
"235072","301-VK","2017/06/19 19:09:08","新北市中和區景平路731號","121.496296666667","25.0042083333333","6500300","中和區"
"235043","352-BY","2017/06/19 19:09:28","新北市中和區景平路3號","121.523648333333","24.9905316666667","6500300","中和區"
"235051","376-QA","2017/06/19 19:09:20","新北市中和區興南路一段105巷20弄3號","121.510046666667","24.9858033333333","6500300","中和區"
"235068","377-QA","2017/06/19 19:09:07","新北市中和區圓通路178號","121.49677","24.994475","6500300","中和區"
"235061","378-QA","2017/06/19 19:09:25","新北市中和區中山路三段63巷9號","121.477165","25.0042733333333","6500300","中和區"
"235050","4979-A6","2017/06/19 19:09:19","新北市中和區復興路249巷8號","121.503403333333","24.989945","6500300","中和區"
"235069","4980-A6","2017/06/19 19:09:26","新北市中和區中和路217巷18弄1號","121.504791666667","25.0003433333333","6500300","中和區"
"235042","551-UM","2017/06/19 19:09:24","新北市中和區自立路117巷1號","121.522306666667","24.99454","6500300","中和區"
"235070","558-UM","2017/06/19 19:09:25","新北市中和區中和路127號","121.501725","24.99996","6500300","中和區"
"235045","565-BX","2017/06/19 19:09:13","新北市中和區景新街467巷20弄21號","121.515148333333","24.9872866666667","6500300","中和區"
"235054","640-BX","2017/06/19 19:09:12","新北市中和區民享街37號","121.474081666667","25.0037083333333","6500300","中和區"
"235060","647-TV","2017/06/19 19:09:11","新北市中和區民治街120號","121.475211666667","25.00346","6500300","中和區"
"235047","732-UM","2017/06/19 19:09:17","新北市中和區興南路二段10-3號","121.507738333333","24.98591","6500300","中和區"
"235046","733-UM","2017/06/19 19:09:18","新北市中和區興南路二段31巷19號","121.50815","24.9851466666667","6500300","中和區"
"235071","783-BX","2017/06/19 19:09:25","新北市中和區連城路358號","121.482113333333","24.9953916666667","6500300","中和區"
"235057","801-TS","2017/06/19 19:09:17","新北市中和區民利街40巷1弄12號","121.478913333333","24.99906","6500300","中和區"
"235052","805-TS","2017/06/19 19:09:24","新北市中和區興南路二段142巷19弄13號","121.502728333333","24.9835","6500300","中和區"
"235048","896-TW","2017/06/19 19:09:24","新北市中和區華新街143巷55弄23號","121.507643333333","24.980545","6500300","中和區"
"235053","900-TW","2017/06/19 19:09:09","新北市中和區和平路200巷33-3號","121.46529","24.9945633333333","6500300","中和區"
"235041","157-BY","2017/06/19 19:09:13","新北市中和區安平路133號","121.511683333333","24.998125","6500300","中和區"
"235037","AAC-213","2017/06/19 19:09:11","新北市中和區自立路99巷36弄16號","121.523943333333","24.9941216666667","6500300","中和區"
"235059","AAC-215","2017/06/19 19:09:19","新北市中和區圓通路294巷17-5號","121.488636666667","24.9904383333333","6500300","中和區"
"220068","013-TV","2017/06/19 19:09:27","新北市板橋區三民路一段7號","121.479145","25.0233283333333","6500100","板橋區"
"220065","072-UY","2017/06/19 19:09:24","新北市板橋區民族路247巷3弄5號","121.470245","25.00762","6500100","板橋區"
"220086","073-UY","2017/06/19 19:09:14","新北市板橋區中正路250巷20號","121.456251666667","25.0193666666667","6500100","板橋區"
"220106","075-UY","2017/06/19 19:09:07","新北市板橋區文化路二段317號","121.472225","25.02982","6500100","板橋區"
"220069","AAD-861","2017/06/19 19:09:16","新北市板橋區華興街81號","121.45686","25.005125","6500100","板橋區"
"247006","341-TH","2017/06/19 18:59:53","新北市五股區中興路三段163號","121.449318333333","25.0806166666667","6501400","蘆洲區"
"247024","337-TH","2017/06/19 18:46:59","新北市五股區中興路三段163號","121.449306666667","25.080545","6501400","蘆洲區"
"247002","336-TH","2017/06/19 19:08:37","新北市五股區中興路三段163號","121.449421666667","25.0806266666667","6501400","蘆洲區"
"247014","057-VK","2017/06/19 19:09:21","新北市五股區成泰路三段362號","121.451716666667","25.0988466666667","6501400","蘆洲區"
"226004","312-R5","2017/06/19 19:09:25","新北市平溪區靜安路三段238號","121.77571","25.0396616666667","6502400","平溪區"
"228003","097-TW","2017/06/19 19:09:08","新北市貢寮區和美里和美街37號","121.91228","25.0866516666667","6502600","貢寮區"
"228002","585-TW","2017/06/19 19:09:06","新北市貢寮區福隆里福隆街32-1號","121.945093333333","25.0174066666667","6502600","貢寮區"
"228001","670-TC","2017/06/19 19:09:12","新北市貢寮區真理里新港街10號","121.92551","25.054355","6502600","貢寮區"
"224010","AGQ-8101","2017/06/19 18:57:25","新北市瑞芳區汽車路9-7號","121.845151666667","25.109895","6501200","瑞芳區"
"224006","676-BX","2017/06/19 19:09:25","新北市瑞芳區三爪子坑路106巷128號","121.809095","25.1037933333333","6501200","瑞芳區"
"224011","420-VK","2017/06/19 19:09:14","新北市瑞芳區崙頂路1-6號","121.847071666667","25.1047283333333","6501200","瑞芳區"
"224009","285-BY","2017/06/19 19:09:21","新北市瑞芳區洞頂路85號","121.863063333333","25.118195","6501200","瑞芳區"
"224008","275-VK","2017/06/19 19:09:17","新北市瑞芳區瑞芳街112巷1號","121.801285","25.1105266666667","6501200","瑞芳區"
"224007","273-VK","2017/06/19 19:09:24","新北市瑞芳區中央路5號","121.76203","25.1038016666667","6501200","瑞芳區"
"224005","271-BY","2017/06/19 19:09:10","新北市瑞芳區連福新城30號","121.820488333333","25.1190133333333","6501200","瑞芳區"
"227001","642-TC","2017/06/19 19:09:25","新北市雙溪區平林里外平林9-3號","121.859261666667","25.0380316666667","6502500","雙溪區"
"227008","400-TW","2017/06/19 19:09:17","新北市雙溪區牡丹里中正路39號","121.864751666667","25.038485","6502500","雙溪區"
"253006","032-BX","2017/06/19 19:09:14","新北市石門區海灣新城20號","121.52596","25.2848","6502200","石門區"
"253005","295-VK","2017/06/19 19:09:20","新北市石門區小坑12-8號","121.599813333333","25.2877033333333","6502200","石門區"
"208001","742-BX","2017/06/19 19:09:14","新北市金山區溫泉路4號","121.639665","25.2219566666667","6502700","金山區"
"208003","665-BX","2017/06/19 19:09:22","新北市金山區中正路101號","121.632976666667","25.2216883333333","6502700","金山區"
"251009","008-UM","2017/06/19 19:09:18","新北市淡水區清水街81號","121.441211666667","25.170205","6501000","淡水區"
"251007","179-VK","2017/06/19 19:09:07","新北市淡水區民生路145巷29號","121.466636666667","25.1388483333333","6501000","淡水區"
"251008","181-VK","2017/06/19 19:09:20","新北市淡水區新市五路一段162號","121.428478333333","25.200095","6501000","淡水區"
"251013","182-VK","2017/06/19 19:09:14","新北市淡水區安子內12號","121.481515","25.21905","6501000","淡水區"
"251010","413-VK","2017/06/19 19:09:09","新北市淡水區中正路一段156巷3號","121.42108","25.18033","6501000","淡水區"
"251012","441-VK","2017/06/19 19:09:13","新北市淡水區下圭柔山90-8號","121.431656666667","25.2117383333333","6501000","淡水區"
"251015","442-VK","2017/06/19 19:09:16","新北市淡水區南勢埔47巷27號","121.484068333333","25.17848","6501000","淡水區"
"251005","443-VK","2017/06/19 19:09:24","新北市淡水區中山路113號","121.441768333333","25.1708666666667","6501000","淡水區"
"251001","559-UM","2017/06/19 19:09:17","新北市淡水區民權路185-5號","121.45943","25.1341233333333","6501000","淡水區"
"251006","561-UM","2017/06/19 19:09:19","新北市淡水區大信街33號","121.441973333333","25.1773033333333","6501000","淡水區"
"251011","650-BX","2017/06/19 19:09:28","新北市淡水區中正東路二段143巷2弄1號","121.460723333333","25.147365","6501000","淡水區"
"251002","672-BX","2017/06/19 19:09:21","新北市淡水區中山路77號","121.442661666667","25.1703816666667","6501000","淡水區"
"251003","766-UM","2017/06/19 19:09:14","新北市淡水區中山路185號","121.441268333333","25.1741283333333","6501000","淡水區"
"207003","550-UM","2017/06/19 19:09:24","新北市萬里區大鵬里萬里加投24-2號","121.649105","25.2073","6502800","萬里區"
"207004","225-TW","2017/06/19 19:09:23","新北市萬里區萬里里瑪鋉路54巷15號","121.690491666667","25.1773","6502800","萬里區"
"252005","073-UM","2017/06/19 15:22:13","新北市三芝區埔坪里埔頭坑41號","121.504588333333","25.2644433333333","6502100","三芝區"
"252002","178-VK","2017/06/19 19:09:09","新北市三芝區中正路一段3號","121.502731666667","25.258965","6502100","三芝區"
"252003","249-BX","2017/06/19 19:09:16","新北市三芝區錫板里南勢崗6號","121.479583333333","25.2619783333333","6502100","三芝區"
"252001","702-TV","2017/06/19 19:09:21","新北市三芝區長勤街45巷2號","121.500335","25.25507","6502100","三芝區"
"252006","AAC-283","2017/06/19 00:38:00","新北市三芝區埔坪里埔頭坑41號","121.504483333333","25.2644916666667","6502100","三芝區"
"208002","170-UY","2017/06/19 19:09:02","新北市金山區仁愛路67巷26號","121.634188333333","25.22103","6502700","金山區"
"237004","078-UY","2017/06/19 19:09:21","新北市三峽區有木205-1號","121.439051666667","24.85156","6500900","三峽區"
"237007","153-BY","2017/06/19 19:09:07","新北市三峽區中正路二段87號","121.366395","24.9168083333333","6500900","三峽區"
"237013","252-BX","2017/06/19 19:09:12","新北市三峽區光明路69巷18號","121.376298333333","24.9289316666667","6500900","三峽區"
"237012","275-BY","2017/06/19 19:09:17","新北市三峽區三樹路222巷254弄61號","121.393318333333","24.9443383333333","6500900","三峽區"
"237008","302-VK","2017/06/19 19:09:28","新北市三峽區中正路一段207號","121.37223","24.9275066666667","6500900","三峽區"
"237014","433-BY","2017/06/19 19:09:25","新北市三峽區隆恩街250號","121.357386666667","24.9409516666667","6500900","三峽區"
"237006","5529-G3","2017/06/19 19:09:23","新北市三峽區橫溪路99巷18-2號","121.400598333333","24.9360233333333","6500900","三峽區"
"237011","572-TV","2017/06/19 19:09:19","新北市三峽區介壽路三段21號","121.395863333333","24.9365616666667","6500900","三峽區"
"237015","649-BX","2017/06/19 19:09:19","新北市三峽區建安89-3號","121.4553","24.9209033333333","6500900","三峽區"
"237010","706-TV","2017/06/19 19:09:18","新北市三峽區國光街52號","121.374575","24.937995","6500900","三峽區"
"237005","AKY-6261","2017/06/19 19:09:12","新北市三峽區中山路459巷163-3號","121.348656666667","24.932865","6500900","三峽區"
"236069","105-UM","2017/06/19 19:09:20","新北市土城區裕生路84巷2號","121.447301666667","24.9854233333333","6501300","土城區"
"236042","107-UM","2017/06/19 19:09:25","新北市土城區學府路一段189巷8號","121.45236","24.9845183333333","6501300","土城區"
"236078","166-UM","2017/06/19 19:09:23","新北市土城區龍泉路7號","121.409571666667","24.94932","6501300","土城區"
"236026","269-VK","2017/06/19 19:09:21","新北市土城區中正路54號","121.443786666667","24.9752483333333","6501300","土城區"
"236014","270-VK","2017/06/19 19:09:16","新北市土城區永豐路9號","121.461288333333","24.988955","6501300","土城區"
"236036","271-VK","2017/06/19 19:09:15","新北市土城區清水路141巷10號","121.45841","24.9819433333333","6501300","土城區"
"236020","401-BY","2017/06/19 19:09:27","新北市土城區延峰街36巷2號","121.46967","24.9846483333333","6501300","土城區"
"236058","912-UM","2017/06/19 19:09:06","新北市土城區金城路二段234號","121.456651666667","24.9830016666667","6501300","土城區"
"236048","913-UM","2017/06/19 19:09:23","新北市土城區明德路一段398-1號","121.453651666667","24.97906","6501300","土城區"
"236062","915-UM","2017/06/19 19:09:23","新北市土城區金城路三段93巷25號","121.466725","24.988625","6501300","土城區"
"236053","AAC-216","2017/06/19 19:09:26","新北市土城區學成路20號","121.45307","24.9868816666667","6501300","土城區"
"242058","353-BY","2017/06/19 19:09:20","新北市新莊區中正路879-16號","121.417556666667","25.02585","6500500","新莊區"
"238015","755-BX","2017/06/19 19:09:21","新北市樹林區備內街158巷22號","121.407513333333","24.98988","6500700","樹林區"
"238023","601-UM","2017/06/19 19:09:24","新北市樹林區大慶街122號","121.396006666667","25.01351","6500700","樹林區"
"238019","599-UM","2017/06/19 19:09:28","新北市樹林區東榮街37號","121.417441666667","24.9832933333333","6500700","樹林區"
"238018","571-TV","2017/06/19 19:09:18","新北市樹林區太平路48號","121.419041666667","24.982545","6500700","樹林區"
"238024","5061-A6","2017/06/19 19:04:39","新北市樹林區中山路三段210-2號","121.380753333333","24.9662833333333","6500700","樹林區"
"238022","312-TH","2017/06/19 19:09:14","新北市樹林區東順街90巷2號","121.408256666667","24.9762333333333","6500700","樹林區"
"238021","311-TH","2017/06/19 19:09:16","新北市樹林區柑園街二段276巷8-2號","121.373015","24.9529183333333","6500700","樹林區"
"238025","303-VK","2017/06/19 19:09:20","新北市樹林區中山路三段210-2號","121.381576666667","24.965475","6500700","樹林區"
"238017","283-BY","2017/06/19 19:09:28","新北市樹林區保安街一段237號","121.420168333333","24.996525","6500700","樹林區"
"238014","282-BY","2017/06/19 19:09:17","新北市樹林區中正路7號","121.427861666667","24.9989483333333","6500700","樹林區"
"238020","268-VK","2017/06/19 19:09:22","新北市樹林區俊英街190號","121.425908333333","25.0080116666667","6500700","樹林區"
"238026","172-UY","2017/06/19 19:09:20","新北市樹林區佳園路一段41巷6號","121.393506666667","24.97079","6500700","樹林區"
"238016","169-UY","2017/06/19 19:09:27","新北市樹林區復興路373巷3弄11號","121.417395","24.98683","6500700","樹林區"
"239007","AAC-297","2017/06/19 19:09:11","新北市鶯歌區中正一路211巷1弄2號","121.353633333333","24.95741","6500800","鶯歌區"
"239006","891-R6","2017/06/19 19:09:20","新北市鶯歌區鶯桃路296巷94弄16號","121.3373","24.96171","6500800","鶯歌區"
"239008","527-UM","2017/06/19 19:09:24","新北市鶯歌區國際二路18巷1號","121.337138333333","24.9748983333333","6500800","鶯歌區"
"239005","526-UM","2017/06/19 19:09:16","新北市鶯歌區大湖路361巷37號","121.332171666667","24.9763716666667","6500800","鶯歌區"
"239001","417-VK","2017/06/19 19:09:17","新北市鶯歌區永明街15號","121.338628333333","24.9555833333333","6500800","鶯歌區"
"239003","360-BY","2017/06/19 19:09:24","新北市鶯歌區鶯桃路441號","121.332401666667","24.9652883333333","6500800","鶯歌區"
"239004","193-VK","2017/06/19 19:09:18","新北市鶯歌區中正三路388巷1弄1號","121.326578333333","24.934915","6500800","鶯歌區"
"221036","130-UY","2017/06/19 19:09:24","新北市汐止區信義路1號","121.662626666667","25.0692983333333","6501100","汐止區"
"221015","131-UY","2017/06/19 19:09:09","新北市汐止區大同路二段619號","121.66432","25.0709016666667","6501100","汐止區"
"221010","269-BY","2017/06/19 19:09:08","新北市汐止區康寧街901號","121.65139","25.0750616666667","6501100","汐止區"
"221012","278-VK","2017/06/19 19:09:23","新北市汐止區康寧街901號","121.650835","25.0751033333333","6501100","汐止區"
"221023","279-VK","2017/06/19 15:16:38","新北市汐止區康寧街901號","121.651458333333","25.0748983333333","6501100","汐止區"
"221027","281-BY","2017/06/19 18:50:42","新北市汐止區康寧街901號","121.650843333333","25.07528","6501100","汐止區"
"221038","297-VK","2017/06/19 19:09:15","新北市汐止區康寧街901號","121.651533333333","25.0749683333333","6501100","汐止區"
"221029","298-VK","2017/06/19 19:09:10","新北市汐止區汐萬路一段312號","121.650548333333","25.075345","6501100","汐止區"
"221021","299-VK","2017/06/19 19:09:23","新北市汐止區康寧街901號","121.651361666667","25.07504","6501100","汐止區"
"221025","623-UM","2017/06/19 19:09:25","新北市汐止區康寧街901號","121.65153","25.0749816666667","6501100","汐止區"
"221033","647-BX","2017/06/19 19:09:24","新北市汐止區南勢街3號","121.627093333333","25.037385","6501100","汐止區"
"221002","707-TV","2017/06/19 19:09:25","台北市南港區南港路一段28號","121.618741666667","25.0547683333333","6501100","汐止區"
"221018","753-BX","2017/06/19 19:09:14","新北市汐止區汐萬路一段37號","121.655491666667","25.068415","6501100","汐止區"
"220079","145-BY","2017/06/19 19:09:12","新北市板橋區民權路260巷39號","121.459343333333","25.0152666666667","6500100","板橋區"
"220093","146-RM","2017/06/19 19:09:24","新北市板橋區民生路三段203號","121.465295","25.0278766666667","6500100","板橋區"
"220080","200-UY","2017/06/19 19:09:21","新北市板橋區大觀路二段179巷34號","121.446308333333","24.999475","6500100","板橋區"
"220082","610-BX","2017/06/19 19:09:23","新北市板橋區溪北路5號","121.426693333333","24.9904833333333","6500100","板橋區"
"220101","245-BX","2017/06/19 19:09:17","新北市板橋區萬板路31-1號","121.470876666667","25.02105","6500100","板橋區"
"220094","267-BY","2017/06/19 19:09:26","新北市板橋區光武街127巷2號","121.46594","25.0287933333333","6500100","板橋區"
"220056","276-BY","2017/06/19 19:09:23","新北市板橋區信義路74巷4弄2號","121.45695","24.9929966666667","6500100","板橋區"
"220072","277-BY","2017/06/19 19:09:17","新北市板橋區金門街289號","121.430916666667","24.9874983333333","6500100","板橋區"
"220064","280-UM","2017/06/19 19:09:09","新北市板橋區民生路一段33-1號","121.476071666667","25.0121066666667","6500100","板橋區"
"220071","283-VK","2017/06/19 19:09:19","新北市板橋區忠孝路154巷9號","121.464128333333","25.00196","6500100","板橋區"
"220089","285-UM","2017/06/19 19:09:25","新北市板橋區文化路二段389號","121.473636666667","25.03152","6500100","板橋區"
"220053","285-VK","2017/06/19 19:09:07","新北市板橋區懷仁街35巷5號","121.47688","25.0197116666667","6500100","板橋區"
"220083","286-VK","2017/06/19 19:09:16","新北市板橋區僑中二街152號","121.444828333333","25.0043516666667","6500100","板橋區"
"220081","287-VK","2017/06/19 19:09:28","新北市板橋區光華街28巷1號","121.453965","25.012465","6500100","板橋區"
"220090","288-VK","2017/06/19 19:09:28","新北市板橋區裕民街45巷4號","121.461545","25.0283283333333","6500100","板橋區"
"220061","293-UM","2017/06/19 19:09:12","新北市板橋區懷仁街85巷2弄2號","121.47761","25.0183616666667","6500100","板橋區"
"220084","296-UM","2017/06/19 19:09:19","新北市板橋區大觀路三段24號","121.434333333333","24.995685","6500100","板橋區"
"220075","297-UM","2017/06/19 19:09:12","新北市板橋區南雅南路一段1巷38號","121.457271666667","25.0066016666667","6500100","板橋區"
"220062","305-R5","2017/06/19 19:09:10","新北市板橋區三民路二段245巷69弄3號","121.481038333333","25.01286","6500100","板橋區"
"220092","307-R5","2017/06/19 19:09:14","新北市板橋區文化路二段225巷62號","121.469238333333","25.0284883333333","6500100","板橋區"
"220098","317-R6","2017/06/19 19:09:12","新北市板橋區四維路103巷17號","121.46481","25.0241066666667","6500100","板橋區"
"220088","491-VK","2017/06/19 19:08:55","新北市板橋區文化路二段182巷5弄13-2號","121.472011666667","25.0275216666667","6500100","板橋區"
"220035","560-BX","2017/06/19 19:09:09","新北市板橋區中正路377-3號","121.454211666667","25.0215583333333","6500100","板橋區"
"220103","561-BX","2017/06/19 19:09:13","新北市板橋區文化路一段188巷9弄116號","121.468775","25.0192633333333","6500100","板橋區"
"220063","609-BX","2017/06/19 19:09:19","台北市萬華區長泰街130號","121.498713333333","25.0228483333333","6500100","板橋區"
"220091","637-BX","2017/06/19 19:09:20","新北市板橋區萬板路506號","121.480275","25.02614","6500100","板橋區"
"220057","686-BX","2017/06/19 19:09:22","新北市板橋區重慶路177號","121.46276","25.0025416666667","6500100","板橋區"
"220077","687-BX","2017/06/19 19:09:24","新北市板橋區大觀路二段125-1號","121.445866666667","25.001315","6500100","板橋區"
"220054","741-BX","2017/06/19 19:09:23","新北市板橋區重慶路93巷26號","121.463061666667","25.0058433333333","6500100","板橋區"
"220055","827-TW","2017/06/19 19:09:22","新北市板橋區中山路一段140號","121.463585","25.01093","6500100","板橋區"
"220067","829-TW","2017/06/19 19:09:24","新北市板橋區三民路二段正隆巷44號","121.476938333333","25.0139066666667","6500100","板橋區"
"220102","830-TW","2017/06/19 19:09:13","新北市板橋區田單街2巷39-3號","121.482353333333","25.027675","6500100","板橋區"
"220096","831-TW","2017/06/19 19:09:12","新北市板橋區雙十路二段33巷1-1號","121.476675","25.0256966666667","6500100","板橋區"
"220074","895-R6","2017/06/19 19:09:18","新北市板橋區北門街62-2號","121.45641","25.0115166666667","6500100","板橋區"
"220073","985-R7","2017/06/19 19:09:17","新北市板橋區中正路213號","121.456108333333","25.0176233333333","6500100","板橋區"
"220097","AAC-210","2017/06/19 19:09:18","新北市板橋區英士路194號","121.458321666667","25.022595","6500100","板橋區"
"220070","AAC-253","2017/06/19 19:09:26","新北市板橋區四川路一段259號","121.45971","25.002335","6500100","板橋區"
