"lineid","car","time","location","longitude","latitude","cityid","cityname"
"234046","148-BY","2017/06/19 19:49:26","新北市永和區秀朗路二段80號","121.523028333333","25.0016033333333","6500400","永和區"
"234013","149-BY","2017/06/19 19:49:13","新北市永和區仁愛路241號","121.508858333333","25.0119466666667","6500400","永和區"
"234007","207-UY","2017/06/19 19:49:15","新北市中和區中和路232號","121.506668333333","24.9994533333333","6500400","永和區"
"234081","298-R6","2017/06/19 19:49:11","新北市永和區林森路20巷7號","121.525943333333","25.005665","6500400","永和區"
"234038","336-UY","2017/06/19 19:49:19","新北市永和區成功路二段131號","121.52676","24.9982583333333","6500400","永和區"
"234064","337-UY","2017/06/19 19:49:17","新北市永和區中正路368巷10弄1號","121.518235","25.0006733333333","6500400","永和區"
"234086","338-UY","2017/06/19 19:49:22","新北市永和區永亨路151號","121.525685","25.0039166666667","6500400","永和區"
"234070","552-UM","2017/06/19 19:49:20","新北市永和區竹林路117-1號","121.519916666667","25.0114566666667","6500400","永和區"
"234054","553-UM","2017/06/19 19:49:18","新北市永和區竹林路75巷15-2號","121.519761666667","25.0137866666667","6500400","永和區"
"234017","745-BX","2017/06/19 19:49:14","新北市永和區永和路二段425巷18號","121.514835","25.017745","6500400","永和區"
"234030","746-BX","2017/06/19 19:49:14","新北市永和區民生路47巷25號","121.524698333333","24.9977316666667","6500400","永和區"
"234061","AAD-866","2017/06/19 19:49:10","新北市永和區中正路184號","121.515345","24.9969066666667","6500400","永和區"
"234042","862-TW","2017/06/19 19:49:25","新北市永和區中和路389巷32號","121.508303333333","25.0015166666667","6500400","永和區"
"234050","863-TW","2017/06/19 19:49:11","新北市永和區環河西路一段101號","121.511168333333","25.0176433333333","6500400","永和區"
"234026","9371-KE","2017/06/19 19:49:18","新北市永和區雙和街7巷8號","121.509486666667","25.001515","6500400","永和區"
"234011","9373-KE","2017/06/19 19:49:25","新北市永和區仁愛路352巷92弄2號","121.501136666667","25.0078816666667","6500400","永和區"
"249001","173-UM","2017/06/19 19:49:17","新北市八里區中華路二段201號","121.405595","25.1496616666667","6502300","八里區"
"249004","303-UY","2017/06/19 19:49:11","新北市八里區仁愛路19號","121.413383333333","25.1609083333333","6502300","八里區"
"249002","305-UY","2017/06/19 19:49:23","新北市八里區頂寮五街17號","121.45148","25.1259866666667","6502300","八里區"
"249003","593-UM","2017/06/19 19:49:11","新北市八里區中華路二段550號","121.398706666667","25.1455","6502300","八里區"
"248014","025-BX","2017/06/19 19:49:24","新北市五股區五福路52巷19號","121.434321666667","25.0901883333333","6501500","五股區"
"248016","026-BX","2017/06/19 19:49:22","新北市五股區成泰路四段16號","121.453468333333","25.1067733333333","6501500","五股區"
"248008","095-VK","2017/06/19 19:49:11","新北市五股區國道路三段7-1號","121.469488333333","25.0751316666667","6501500","五股區"
"248020","225-UY","2017/06/19 19:45:52","新北市五股區外寮路1-1號","121.425731666667","25.0767466666667","6501500","五股區"
"248012","247-BX","2017/06/19 15:12:38","新北市五股區中興路二段83巷26-6號","121.459316666667","25.0754083333333","6501500","五股區"
"248010","272-BY","2017/06/19 19:49:14","新北市五股區登林路貿商巷2弄2號","121.430533333333","25.0695966666667","6501500","五股區"
"248004","677-BX","2017/06/19 19:49:26","新北市五股區成泰路一段198號","121.435938333333","25.0787416666667","6501500","五股區"
"248002","678-BX","2017/06/19 19:49:24","新北市五股區成泰路四段15-6號","121.453271666667","25.1069133333333","6501500","五股區"
"234077","969-R7","2017/06/19 19:49:19","新北市永和區民治街59巷1號","121.51855","24.9977583333333","6500400","永和區"
"234074","AAC-211","2017/06/19 19:49:17","新北市永和區竹林路213巷26號","121.522203333333","25.008915","6500400","永和區"
"234067","AAC-212","2017/06/19 19:49:13","新北市永和區永平路173巷14弄2號","121.510223333333","25.0085016666667","6500400","永和區"
"234003","AAC-295","2017/06/19 19:47:28","新北市永和區福和路326號","121.515615","25.007235","6500400","永和區"
"244019","403-UM","2017/06/19 19:49:19","新北市林口區頂福里34號","121.354366666667","25.0999033333333","6501700","林口區"
"243013","AAD-798","2017/06/19 19:49:26","新北市泰山區應化街7號","121.423875","25.0437283333333","6501600","泰山區"
"243009","297-R6","2017/06/19 19:49:24","新北市泰山區美寧街60號","121.430941666667","25.06469","6501600","泰山區"
"243015","380-SR","2017/06/19 19:46:07","新北市泰山區文程路18巷10號","121.428151666667","25.0489383333333","6501600","泰山區"
"243014","421-VK","2017/06/19 19:49:19","新北市泰山區泰林路二段33-8號","121.435173333333","25.0564633333333","6501600","泰山區"
"243016","539-UM","2017/06/19 19:48:06","新北市泰山區明志路三段514號","121.420976666667","25.0308","6501600","泰山區"
"243010","548-UM","2017/06/19 19:49:17","新北市泰山區民生路33號","121.430631666667","25.052195","6501600","泰山區"
"243011","549-UM","2017/06/19 19:49:14","新北市泰山區明志路三段182巷37號","121.423065","25.0393566666667","6501600","泰山區"
"243012","646-TV","2017/06/19 19:49:28","新北市泰山區全興路13號","121.432341666667","25.058945","6501600","泰山區"
"222003","436-BY","2017/06/19 19:32:24","新北市深坑區深南路51-1號","121.621123333333","25.0099966666667","6501800","深坑區"
"222002","659-BX","2017/06/19 18:19:42","新北市深坑區雲鄉路2號","121.620923333333","25.00009","6501800","深坑區"
"222001","696-SL","2017/06/19 19:49:20","新北市深坑區北深路三段62號","121.60803","25.0013833333333","6501800","深坑區"
"231041","002-UM","2017/06/19 19:49:22","新北市新店區中央路99號","121.531158333333","24.9749666666667","6500600","新店區"
"231056","0291-UT","2017/06/19 19:49:19","新北市新店區安民街35巷9弄16號","121.514713333333","24.9653983333333","6500600","新店區"
"231059","046-UY","2017/06/19 19:49:18","新北市新店區安和路一段15號","121.516908333333","24.9643033333333","6500600","新店區"
"231061","047-UY","2017/06/19 19:49:10","新北市新店區安民街281號","121.517578333333","24.9732316666667","6500600","新店區"
"231060","106-UY","2017/06/19 19:49:20","新北市新店區安康路二段161號","121.510208333333","24.9593366666667","6500600","新店區"
"231051","107-UY","2017/06/19 19:49:24","新北市新店區中央二街60號","121.526701666667","24.9745633333333","6500600","新店區"
"231047","108-UY","2017/06/19 19:49:20","新北市新店區寶興路65巷2-1號","121.550871666667","24.9717216666667","6500600","新店區"
"231052","187-VK","2017/06/19 19:49:09","新北市新店區新烏路三段126號","121.55254","24.9031983333333","6500600","新店區"
"231057","256-BX","2017/06/19 19:49:18","新北市新店區梅崗三路1號","121.558376666667","24.9312633333333","6500600","新店區"
"231063","268-BY","2017/06/19 19:49:18","新北市新店區黎明路3號","121.503673333333","24.952445","6500600","新店區"
"231046","278-BY","2017/06/19 19:49:18","新北市新店區福園街17巷2號","121.532803333333","24.9727916666667","6500600","新店區"
"231050","AAD-862","2017/06/19 19:48:09","新北市新店區北宜路二段579巷13號","121.565248333333","24.9543966666667","6500600","新店區"
"231058","3712-VJ","2017/06/19 19:49:17","新北市新店區中正路102巷8弄2號","121.543406666667","24.971095","6500600","新店區"
"231067","4772-VM","2017/06/19 19:49:19","新北市新店區精忠路10-1號","121.532703333333","24.959025","6500600","新店區"
"231065","512-UM","2017/06/19 19:49:12","新北市新店區安祥路109巷93號","121.478006666667","24.95989","6500600","新店區"
"231054","513-UM","2017/06/19 19:49:19","新北市新店區光明街87號","121.539068333333","24.9608566666667","6500600","新店區"
"231064","515-UM","2017/06/19 19:49:09","新北市新店區安和路二段66號","121.518195","24.9679583333333","6500600","新店區"
"231042","616-UM","2017/06/19 19:49:25","新北市新店區中興路一段267-4號","121.545075","24.9678933333333","6500600","新店區"
"231045","617-UM","2017/06/19 19:49:18","新北市新店區中生路83巷5號","121.564693333333","24.9519333333333","6500600","新店區"
"231040","618-UM","2017/06/19 19:49:19","新北市新店區北新路一段98號","121.542245","24.9688316666667","6500600","新店區"
"231049","719-UM","2017/06/19 19:49:09","新北市新店區建國路249號","121.537658333333","24.9825366666667","6500600","新店區"
"231062","720-UM","2017/06/19 19:49:16","新北市新店區永業路81巷1弄6號","121.52988","24.9497666666667","6500600","新店區"
"231044","897-TW","2017/06/19 19:49:15","新北市新店區復興路40-1號","121.538755","24.986795","6500600","新店區"
"231043","899-TW","2017/06/19 19:49:22","新北市新店區中正路232號","121.539926666667","24.9728866666667","6500600","新店區"
"231066","AKT-0513","2017/06/19 19:49:11","新北市新店區安康路二段341巷36號","121.496701666667","24.9543516666667","6500600","新店區"
"241011","013-R5","2017/06/19 19:49:21","新北市三重區介壽路39巷6號","121.498958333333","25.07017","6500200","三重區"
"241028","022-UY","2017/06/19 19:49:25","新北市三重區中正南路157號","121.493846666667","25.05612","6500200","三重區"
"241008","059-VK","2017/06/19 19:49:20","新北市三重區永福街92號","121.478843333333","25.0761516666667","6500200","三重區"
"241009","060-VK","2017/06/19 19:49:11","新北市三重區三和路四段398號","121.481458333333","25.0792183333333","6500200","三重區"
"241031","061-VK","2017/06/19 19:49:07","新北市三重區重新路四段248號","121.486106666667","25.05342","6500200","三重區"
"241015","062-VK","2017/06/19 19:49:19","新北市三重區三和路一段2號","121.503843333333","25.0642683333333","6500200","三重區"
"241017","063-VK","2017/06/19 19:49:17","新北市三重區重陽路三段5巷8弄29號","121.489661666667","25.06664","6500200","三重區"
"241024","065-VK","2017/06/19 19:49:13","新北市三重區大勇街82巷5號","121.479563333333","25.0713833333333","6500200","三重區"
"241026","066-VK","2017/06/19 19:49:20","新北市三重區文化南路42號","121.500428333333","25.06025","6500200","三重區"
"241003","091-VK","2017/06/19 19:49:12","新北市三重區五華街93巷85號","121.493756666667","25.084875","6500200","三重區"
"241016","266-UM","2017/06/19 19:49:19","新北市三重區正義北路16巷33號","121.496466666667","25.0628083333333","6500200","三重區"
"241022","267-UM","2017/06/19 19:49:16","新北市三重區過圳街3號","121.489356666667","25.0584816666667","6500200","三重區"
"241018","268-UM","2017/06/19 19:49:19","新北市三重區雙園街57巷1號","121.494913333333","25.0675933333333","6500200","三重區"
"241032","269-UM","2017/06/19 19:49:24","新北市三重區重陽路一段44巷10號","121.48597","25.0576783333333","6500200","三重區"
"241013","270-UM","2017/06/19 19:49:21","新北市三重區仁福街64巷39號","121.497386666667","25.0760316666667","6500200","三重區"
"241025","271-UM","2017/06/19 19:49:20","新北市三重區頂崁街210巷16號","121.476553333333","25.0676916666667","6500200","三重區"
"241007","398-BY","2017/06/19 19:49:12","新北市三重區三和路四段125巷2號","121.484946666667","25.07797","6500200","三重區"
"241020","413-TH","2017/06/19 19:49:07","新北市三重區三和路四段12號","121.491531666667","25.0739433333333","6500200","三重區"
"241035","462-BY","2017/06/19 19:49:10","新北市三重區文化北路31號","121.49944","25.06398","6500200","三重區"
"241019","478-VK","2017/06/19 19:49:09","新北市三重區大智街188號","121.48946","25.0703033333333","6500200","三重區"
"241030","480-VK","2017/06/19 19:49:17","新北市三重區昌隆街71號","121.490713333333","25.0507733333333","6500200","三重區"
"241014","543-UM","2017/06/19 19:49:07","新北市三重區三和路二段37-8號","121.501341666667","25.0674716666667","6500200","三重區"
"241023","545-UM","2017/06/19 19:49:21","新北市三重區頂崁街172號","121.477638333333","25.06592","6500200","三重區"
"241001","547-UM","2017/06/19 19:49:10","新北市三重區仁愛街327巷76號","121.493855","25.080495","6500200","三重區"
"241006","AAD-863","2017/06/19 19:49:12","新北市三重區力行路二段82號","121.481591666667","25.07392","6500200","三重區"
"241012","887-TS","2017/06/19 19:49:20","新北市三重區仁福街64巷7號","121.497961666667","25.075025","6500200","三重區"
"241029","942-UM","2017/06/19 19:49:19","新北市三重區光明路20號","121.491243333333","25.0586733333333","6500200","三重區"
"241033","AAC-255","2017/06/19 19:49:10","新北市三重區中興南街66號","121.470723333333","25.04404","6500200","三重區"
"235066","003-UY","2017/06/19 19:49:27","新北市中和區南工路26號","121.505676666667","25.0009066666667","6500300","中和區"
"235064","005-UY","2017/06/19 19:49:16","新北市中和區南山路127巷9號","121.502823333333","24.9973016666667","6500300","中和區"
"235063","006-UY","2017/06/19 19:49:06","新北市中和區連城路170號","121.493446666667","24.9973283333333","6500300","中和區"
"235056","096-UM","2017/06/19 19:49:18","新北市中和區中山路三段114巷59號","121.475595","25.00816","6500300","中和區"
"235039","097-UM","2017/06/19 19:49:20","新北市中和區秀峰街70號","121.520431666667","24.9905383333333","6500300","中和區"
"235065","098-UM","2017/06/19 19:49:25","新北市中和區永和路8巷4號","121.500106666667","25.00298","6500300","中和區"
"235040","150-BY","2017/06/19 19:49:16","新北市中和區安平路59號","121.50951","24.9951133333333","6500300","中和區"
"235058","151-BY","2017/06/19 19:49:25","新北市中和區員山路142巷11號","121.481975","24.9965733333333","6500300","中和區"
"235055","183-VK","2017/06/19 19:49:14","新北市中和區中山路三段181巷18弄11號","121.472743333333","25.004805","6500300","中和區"
"235038","185-VK","2017/06/19 19:49:11","新北市中和區自立路35號","121.521873333333","24.9954566666667","6500300","中和區"
"235049","186-VK","2017/06/19 19:49:09","新北市中和區景平路385-1號","121.502946666667","24.9941366666667","6500300","中和區"
"235067","255-BX","2017/06/19 19:49:27","新北市中和區新生街277號","121.484068333333","24.997995","6500300","中和區"
"235044","293-VK","2017/06/19 19:49:26","新北市中和區捷運路63號","121.508886666667","24.9897983333333","6500300","中和區"
"235072","301-VK","2017/06/19 19:49:08","新北市中和區永和路103巷19號","121.495068333333","25.0071483333333","6500300","中和區"
"235043","352-BY","2017/06/19 19:49:17","新北市中和區安樂路8-1號","121.511821666667","24.9917083333333","6500300","中和區"
"235051","376-QA","2017/06/19 19:49:20","新北市中和區中興街127號","121.499945","24.9916733333333","6500300","中和區"
"235068","377-QA","2017/06/19 19:49:27","新北市中和區枋寮街81號","121.50083","25.0013733333333","6500300","中和區"
"235061","378-QA","2017/06/19 19:49:25","新北市中和區員山路174巷10號","121.482048333333","24.999865","6500300","中和區"
"235050","4979-A6","2017/06/19 19:40:39","新北市中和區中正路416號","121.491866666667","24.9936566666667","6500300","中和區"
"235069","4980-A6","2017/06/19 19:49:26","新北市中和區圓通路178號","121.496805","24.994475","6500300","中和區"
"235042","551-UM","2017/06/19 19:49:24","新北市中和區保健路2巷20號","121.507293333333","24.9977366666667","6500300","中和區"
"235070","558-UM","2017/06/19 19:43:05","新北市中和區景平路597號","121.497101666667","25.0006516666667","6500300","中和區"
"235045","565-BX","2017/06/19 19:49:13","新北市中和區景新街336號","121.512003333333","24.9906883333333","6500300","中和區"
"235054","640-BX","2017/06/19 19:49:12","新北市中和區國光街102巷15號","121.470766666667","25.0007183333333","6500300","中和區"
"235060","647-TV","2017/06/19 19:49:11","新北市中和區新生街18號","121.483041666667","25.0043066666667","6500300","中和區"
"235047","732-UM","2017/06/19 19:47:57","新北市中和區南山路421巷1弄32號","121.50732","24.9904716666667","6500300","中和區"
"235046","733-UM","2017/06/19 19:49:18","新北市中和區四維街27-3號","121.512951666667","24.9867066666667","6500300","中和區"
"235071","783-BX","2017/06/19 19:49:05","新北市中和區立德街200巷23號","121.4853","25.009825","6500300","中和區"
"235057","801-TS","2017/06/19 19:49:28","新北市中和區員山路220號","121.481338333333","25.001075","6500300","中和區"
"235052","805-TS","2017/06/19 19:49:24","新北市中和區華新街192巷29號","121.506301666667","24.98318","6500300","中和區"
"235048","896-TW","2017/06/19 19:49:23","新北市中和區華新街29號","121.507641666667","24.9848383333333","6500300","中和區"
"235053","900-TW","2017/06/19 19:49:09","新北市中和區國光街205巷2號","121.466756666667","25.0019516666667","6500300","中和區"
"235041","157-BY","2017/06/19 19:49:13","新北市中和區中和路350巷15弄1號","121.510563333333","25.0009516666667","6500300","中和區"
"235037","AAC-213","2017/06/19 19:49:11","新北市中和區秀朗路三段10巷14弄98號","121.523326666667","24.99658","6500300","中和區"
"235059","AAC-215","2017/06/19 19:49:19","新北市中和區圓通路305巷18號","121.495008333333","24.9890983333333","6500300","中和區"
"220068","013-TV","2017/06/19 19:49:24","新北市板橋區中山路二段416巷37號","121.483203333333","25.0196116666667","6500100","板橋區"
"220065","072-UY","2017/06/19 19:49:24","新北市板橋區國泰街39巷9弄9號","121.46882","25.0053866666667","6500100","板橋區"
"220086","073-UY","2017/06/19 19:49:24","新北市板橋區中正路170號","121.456446666667","25.0172716666667","6500100","板橋區"
"220106","075-UY","2017/06/19 19:49:27","新北市板橋區文化路608巷50-1號","121.479316666667","25.0345216666667","6500100","板橋區"
"220069","AAD-861","2017/06/19 19:49:16","新北市板橋區稚暉街1號","121.455963333333","25.0045033333333","6500100","板橋區"
"247018","500-BY","2017/06/19 19:49:14","新北市蘆洲區民族路278號","121.478308333333","25.0893833333333","6501400","蘆洲區"
"247006","341-TH","2017/06/19 19:49:06","新北市蘆洲區永安南路二段16巷17弄13號","121.467363333333","25.0776816666667","6501400","蘆洲區"
"247008","339-TH","2017/06/19 19:49:25","新北市蘆洲區信義路113巷1弄20號","121.47762","25.08027","6501400","蘆洲區"
"247024","337-TH","2017/06/19 19:49:27","新北市蘆洲區光復路6號","121.46246","25.0842083333333","6501400","蘆洲區"
"247002","336-TH","2017/06/19 19:49:12","新北市蘆洲區永平街24號","121.458943333333","25.09064","6501400","蘆洲區"
"247014","057-VK","2017/06/19 19:49:21","新北市蘆洲區保和街69巷18號","121.469696666667","25.085325","6501400","蘆洲區"
"247004","056-VK","2017/06/19 19:48:50","新北市蘆洲區中原路38號","121.459805","25.0826366666667","6501400","蘆洲區"
"226004","312-R5","2017/06/19 19:49:25","新北市平溪區南山里南山坪94號","121.776946666667","25.0411216666667","6502400","平溪區"
"228003","097-TW","2017/06/19 19:49:07","新北市貢寮區真理里美艷山街12-8號","121.928395","25.06339","6502600","貢寮區"
"228001","670-TC","2017/06/19 19:49:12","新北市貢寮區真理里大澳街10巷50號","121.925671666667","25.0564166666667","6502600","貢寮區"
"224010","AGQ-8101","2017/06/19 19:49:25","新北市瑞芳區豎崎路29號","121.843211666667","25.10846","6501200","瑞芳區"
"224002","639-TC","2017/06/19 19:49:18","新北市瑞芳區員山子路員山巷21號","121.816961666667","25.10424","6501200","瑞芳區"
"224011","420-VK","2017/06/19 19:49:14","新北市瑞芳區崙頂路1-6號","121.847121666667","25.104695","6501200","瑞芳區"
"227001","642-TC","2017/06/19 19:49:25","新北市雙溪區雙溪里內挖路47號","121.863223333333","25.0367916666667","6502500","雙溪區"
"227008","400-TW","2017/06/19 19:49:17","新北市雙溪區新基里自強路7號","121.866226666667","25.0389666666667","6502500","雙溪區"
"208001","742-BX","2017/06/19 19:49:14","新北市金山區重和里林口28-3號","121.596613333333","25.20933","6502700","金山區"
"208003","665-BX","2017/06/19 19:49:07","新北市金山區清泉里清水路41巷2號","121.62966","25.2337033333333","6502700","金山區"
"251004","009-UM","2017/06/19 19:49:10","新北市淡水區民權路177巷53號","121.460558333333","25.1338516666667","6501000","淡水區"
"251007","179-VK","2017/06/19 19:49:27","新北市淡水區中正東路一段55號","121.452695","25.1626483333333","6501000","淡水區"
"251008","181-VK","2017/06/19 19:49:21","新北市淡水區中正路一段60號","121.425556666667","25.1769","6501000","淡水區"
"251013","182-VK","2017/06/19 19:49:14","新北市淡水區頂田寮11-2號","121.463156666667","25.21401","6501000","淡水區"
"251012","441-VK","2017/06/19 19:49:13","新北市淡水區淡金路三段212號","121.448961666667","25.204355","6501000","淡水區"
"251015","442-VK","2017/06/19 19:49:16","新北市淡水區北新路三段16-5號","121.483455","25.1858033333333","6501000","淡水區"
"251005","443-VK","2017/06/19 19:49:24","新北市淡水區原德路26號","121.442305","25.1718666666667","6501000","淡水區"
"251001","559-UM","2017/06/19 19:49:17","新北市淡水區淡金路二段371號","121.447026666667","25.1860483333333","6501000","淡水區"
"251006","561-UM","2017/06/19 19:49:19","新北市淡水區水碓街15號","121.443486666667","25.1769733333333","6501000","淡水區"
"251011","650-BX","2017/06/19 19:49:08","新北市淡水區淡金路二段147號","121.449826666667","25.1828816666667","6501000","淡水區"
"251003","766-UM","2017/06/19 19:49:14","新北市淡水區中山北路三段156號","121.445038333333","25.19573","6501000","淡水區"
"207003","550-UM","2017/06/19 19:49:24","新北市萬里區大鵬里萬里加投68號","121.642415","25.2147816666667","6502800","萬里區"
"207004","225-TW","2017/06/19 19:49:21","新北市萬里區萬里里瑪鋉路238號","121.689018333333","25.1802983333333","6502800","萬里區"
"252005","073-UM","2017/06/19 15:22:13","新北市三芝區埔坪里埔頭坑41號","121.504588333333","25.2644433333333","6502100","三芝區"
"252002","178-VK","2017/06/19 19:49:09","新北市三芝區三民街33-1號","121.504673333333","25.25841","6502100","三芝區"
"252001","702-TV","2017/06/19 19:49:21","新北市三芝區公正街66號","121.49979","25.257465","6502100","三芝區"
"252006","AAC-283","2017/06/19 00:38:00","新北市三芝區埔坪里埔頭坑41號","121.504483333333","25.2644916666667","6502100","三芝區"
"208002","170-UY","2017/06/19 19:49:22","新北市金山區中山路313巷6號","121.635448333333","25.2234966666667","6502700","金山區"
"237004","078-UY","2017/06/19 19:49:21","新北市三峽區添福143-1號","121.374795","24.8996983333333","6500900","三峽區"
"237007","153-BY","2017/06/19 19:49:07","新北市三峽區二鬮路112號","121.360001666667","24.90868","6500900","三峽區"
"237009","210-TH","2017/06/19 19:49:16","新北市三峽區清水街433號","121.368656666667","24.925675","6500900","三峽區"
"237013","252-BX","2017/06/19 19:49:12","新北市三峽區橫溪路57號","121.397226666667","24.9352666666667","6500900","三峽區"
"237012","275-BY","2017/06/19 19:49:17","新北市三峽區光明路15號","121.373111666667","24.93143","6500900","三峽區"
"237008","302-VK","2017/06/19 19:49:27","新北市三峽區永安街151號","121.37339","24.9279166666667","6500900","三峽區"
"237014","433-BY","2017/06/19 19:49:25","新北市三峽區嘉添31號","121.368745","24.9114916666667","6500900","三峽區"
"237006","5529-G3","2017/06/19 19:49:23","新北市三峽區正義街27巷26-1號","121.37021","24.9185216666667","6500900","三峽區"
"237015","649-BX","2017/06/19 19:49:19","新北市三峽區溪東路218巷2-2號","121.407445","24.9318033333333","6500900","三峽區"
"237005","AKY-6261","2017/06/19 19:49:12","新北市三峽區民生街92號","121.374105","24.9356183333333","6500900","三峽區"
"236069","105-UM","2017/06/19 19:49:20","新北市土城區中央路二段191-3號","121.442035","24.9752916666667","6501300","土城區"
"236042","107-UM","2017/06/19 19:49:24","新北市土城區裕民路280號","121.455381666667","24.98215","6501300","土城區"
"236078","166-UM","2017/06/19 19:49:23","新北市土城區中央路四段260號","121.41486","24.9568416666667","6501300","土城區"
"236030","253-BX","2017/06/19 19:49:22","新北市土城區中央路一段318巷4弄12號","121.443206666667","24.982355","6501300","土城區"
"236026","269-VK","2017/06/19 19:49:21","新北市土城區中央路二段61巷22號","121.443233333333","24.9787216666667","6501300","土城區"
"236036","271-VK","2017/06/19 19:49:18","新北市土城區國際路158巷54號","121.467931666667","24.9748133333333","6501300","土城區"
"236020","401-BY","2017/06/19 19:49:27","新北市土城區金城路三段200-5號","121.468823333333","24.98769","6501300","土城區"
"236058","912-UM","2017/06/19 19:49:26","新北市土城區中央路二段5號","121.443005","24.9808083333333","6501300","土城區"
"236048","913-UM","2017/06/19 19:49:24","新北市土城區青雲路305號","121.459068333333","24.9792966666667","6501300","土城區"
"236062","915-UM","2017/06/19 19:49:23","新北市土城區延平街67號","121.467715","24.992895","6501300","土城區"
"236053","AAC-216","2017/06/19 19:49:26","新北市土城區立德路18號","121.46271","24.987835","6501300","土城區"
"242029","986-R7","2017/06/19 19:49:07","新北市新莊區新泰路417-9號","121.442521666667","25.044765","6500500","新莊區"
"242048","751-BX","2017/06/19 19:49:14","新北市新莊區建安街92巷1號","121.42594","25.0241416666667","6500500","新莊區"
"242023","613-BX","2017/06/19 19:49:24","新北市新莊區化成路160號","121.465366666667","25.0452933333333","6500500","新莊區"
"242027","612-BX","2017/06/19 19:49:15","新北市新莊區幸福路914號","121.44247","25.0485966666667","6500500","新莊區"
"242036","566-BX","2017/06/19 19:49:12","新北市新莊區建安街58號","121.42729","25.02471","6500500","新莊區"
"242004","442-UM","2017/06/19 19:49:18","新北市新莊區化成路63巷24弄5號","121.462915","25.0459233333333","6500500","新莊區"
"242031","415-TV","2017/06/19 19:49:22","新北市新莊區忠孝街80號","121.443993333333","25.036645","6500500","新莊區"
"242002","413-TV","2017/06/19 19:49:16","新北市新莊區新泰路69號","121.44945","25.0343316666667","6500500","新莊區"
"242060","362-BY","2017/06/19 19:49:27","新北市新莊區新莊路773號","121.44201","25.032705","6500500","新莊區"
"242007","173-VK","2017/06/19 19:49:17","新北市新莊區福壽街336號","121.457798333333","25.0582616666667","6500500","新莊區"
"242013","175-VK","2017/06/19 19:49:12","新北市新莊區中泰街34號","121.450943333333","25.046965","6500500","新莊區"
"242056","176-VK","2017/06/19 19:49:17","新北市新莊區新豐街8號","121.448825","25.0345866666667","6500500","新莊區"
"242017","348-TH","2017/06/19 19:49:16","新北市新莊區中華路一段73號","121.452246666667","25.040095","6500500","新莊區"
"242009","351-TH","2017/06/19 19:49:23","新北市新莊區中誠街54號","121.451028333333","25.0481166666667","6500500","新莊區"
"238015","755-BX","2017/06/19 19:49:21","新北市樹林區樹德街14號","121.422826666667","24.9915716666667","6500700","樹林區"
"238023","601-UM","2017/06/19 19:49:24","新北市樹林區三福街138號","121.40562","25.015995","6500700","樹林區"
"238024","5061-A6","2017/06/19 19:49:19","新北市樹林區佳園路一段72巷15號","121.391733333333","24.9696283333333","6500700","樹林區"
"238022","312-TH","2017/06/19 19:49:14","新北市樹林區國凱街74號","121.42097","24.9789266666667","6500700","樹林區"
"238021","311-TH","2017/06/19 19:49:16","新北市樹林區學勤路526號","121.382936666667","24.9476966666667","6500700","樹林區"
"238025","303-VK","2017/06/19 19:49:20","新北市樹林區中山路二段162號","121.412038333333","24.982965","6500700","樹林區"
"238017","283-BY","2017/06/19 19:49:28","新北市樹林區保安街二段45巷15號","121.415331666667","24.99987","6500700","樹林區"
"238014","282-BY","2017/06/19 19:49:17","新北市樹林區千歲街42號","121.425791666667","24.996875","6500700","樹林區"
"238020","268-VK","2017/06/19 19:49:22","新北市樹林區俊保路60號","121.425061666667","25.009595","6500700","樹林區"
"239006","891-R6","2017/06/19 19:49:13","新北市鶯歌區尖山埔路100號","121.347415","24.9510433333333","6500800","鶯歌區"
"221036","130-UY","2017/06/19 19:49:24","新北市汐止區汐萬路一段18號","121.65603","25.067485","6501100","汐止區"
"221015","131-UY","2017/06/19 19:49:09","新北市汐止區汐萬路一段20號","121.655968333333","25.067635","6501100","汐止區"
"221010","269-BY","2017/06/19 19:49:27","新北市汐止區汐萬路一段355-1號","121.650036666667","25.0775733333333","6501100","汐止區"
"221012","278-VK","2017/06/19 19:49:23","新北市汐止區保長路273巷10號","121.681775","25.0739283333333","6501100","汐止區"
"221023","279-VK","2017/06/19 15:16:38","新北市汐止區康寧街901號","121.651458333333","25.0748983333333","6501100","汐止區"
"221032","280-BY","2017/06/19 19:49:20","新北市汐止區橫科路119號","121.620063333333","25.0503233333333","6501100","汐止區"
"221027","281-BY","2017/06/19 19:49:23","新北市汐止區秀峰路17巷4號","121.659878333333","25.0666216666667","6501100","汐止區"
"221038","297-VK","2017/06/19 19:49:15","新北市汐止區忠孝東路248號","121.662875","25.0673683333333","6501100","汐止區"
"221029","298-VK","2017/06/19 19:49:10","新北市汐止區康寧街901號","121.651465","25.075075","6501100","汐止區"
"221021","299-VK","2017/06/19 19:36:24","新北市汐止區汐萬路一段229號","121.65173","25.07273","6501100","汐止區"
"221035","622-UM","2017/06/19 19:49:16","新北市汐止區汐萬路一段160號","121.652563333333","25.0715083333333","6501100","汐止區"
"221025","623-UM","2017/06/19 19:49:25","新北市汐止區秀峰路81巷15弄23號","121.661296666667","25.0649333333333","6501100","汐止區"
"221033","647-BX","2017/06/19 19:49:24","新北市汐止區東勢街76巷45號","121.633661666667","25.0391616666667","6501100","汐止區"
"221018","753-BX","2017/06/19 19:49:13","新北市汐止區汐萬路一段160號","121.652636666667","25.071485","6501100","汐止區"
"220079","145-BY","2017/06/19 19:49:12","新北市板橋區民權路202巷17弄44號","121.459041666667","25.016815","6500100","板橋區"
"220093","146-RM","2017/06/19 19:49:29","新北市板橋區長江路二段271號","121.46981","25.033","6500100","板橋區"
"220080","200-UY","2017/06/19 19:49:21","新北市板橋區大觀路二段153巷46弄10號","121.449023333333","24.9995766666667","6500100","板橋區"
"220082","610-BX","2017/06/19 19:49:23","新北市板橋區沙崙街47號","121.430188333333","24.9942783333333","6500100","板橋區"
"220101","245-BX","2017/06/19 19:49:17","新北市板橋區莒光路237-9號","121.474265","25.0218966666667","6500100","板橋區"
"220094","267-BY","2017/06/19 19:49:26","新北市板橋區吳鳳路82號","121.466995","25.0313766666667","6500100","板橋區"
"220056","276-BY","2017/06/19 19:49:25","新北市板橋區四川路二段99巷5弄2號","121.45279","24.9944083333333","6500100","板橋區"
"220072","277-BY","2017/06/19 19:49:17","新北市板橋區金門街253巷6弄2號","121.432455","24.9885833333333","6500100","板橋區"
"220064","280-UM","2017/06/19 19:49:09","新北市板橋區實踐路171號","121.464341666667","25.0036733333333","6500100","板橋區"
"220071","283-VK","2017/06/19 19:49:19","新北市板橋區信義路54巷2號","121.457145","24.994125","6500100","板橋區"
"220089","285-UM","2017/06/19 19:49:15","新北市板橋區英士路151號","121.45981","25.0239966666667","6500100","板橋區"
"220053","285-VK","2017/06/19 19:49:24","新北市板橋區中山路二段60巷1弄11號","121.474653333333","25.01555","6500100","板橋區"
"220083","286-VK","2017/06/19 19:49:16","新北市板橋區龍興街65巷36號","121.44289","25.00171","6500100","板橋區"
"220081","287-VK","2017/06/19 19:49:08","新北市板橋區大觀路一段29巷143號","121.449431666667","25.0054866666667","6500100","板橋區"
"220090","288-VK","2017/06/19 19:49:28","新北市板橋區新海路431巷16號","121.457803333333","25.0269433333333","6500100","板橋區"
"220061","293-UM","2017/06/19 19:49:12","新北市板橋區中山路一段283巷2弄1號","121.470196666667","25.014545","6500100","板橋區"
"220084","296-UM","2017/06/19 19:49:19","新北市板橋區滿平二街2巷1弄24號","121.42492","24.9869433333333","6500100","板橋區"
"220075","297-UM","2017/06/19 19:49:12","新北市板橋區中正路192號","121.456091666667","25.017845","6500100","板橋區"
"220062","305-R5","2017/06/19 19:49:10","新北市板橋區中山路二段416巷38弄27-1號","121.481846666667","25.0193816666667","6500100","板橋區"
"220092","307-R5","2017/06/19 19:49:14","新北市板橋區四維路103巷33號","121.464376666667","25.0236716666667","6500100","板橋區"
"220098","317-R6","2017/06/19 19:49:23","新北市板橋區裕民街133巷10號","121.45977","25.027165","6500100","板橋區"
"220088","491-VK","2017/06/19 19:48:14","新北市板橋區仁化街103號","121.47666","25.0323183333333","6500100","板橋區"
"220035","560-BX","2017/06/19 19:49:09","新北市板橋區金華街101號","121.458628333333","25.0208183333333","6500100","板橋區"
"220103","561-BX","2017/06/19 19:49:13","新北市板橋區陽明街27巷4號","121.465395","25.0217116666667","6500100","板橋區"
"220063","609-BX","2017/06/19 19:49:20","新北市板橋區三民路一段73號","121.479788333333","25.02231","6500100","板橋區"
"220091","637-BX","2017/06/19 19:49:18","新北市板橋區懷德街181巷25號","121.480105","25.03048","6500100","板橋區"
"220057","686-BX","2017/06/19 19:49:22","新北市板橋區和平路安樂巷32號","121.461528333333","24.9935783333333","6500100","板橋區"
"220077","687-BX","2017/06/19 19:49:24","新北市板橋區僑中一街102巷3弄20號","121.445951666667","25.0125366666667","6500100","板橋區"
"220054","741-BX","2017/06/19 19:49:17","新北市板橋區實踐路61號","121.463835","25.0064783333333","6500100","板橋區"
"220055","827-TW","2017/06/19 19:49:15","新北市板橋區國慶路149巷13弄13號","121.460363333333","24.9967333333333","6500100","板橋區"
"220067","829-TW","2017/06/19 19:49:24","新北市板橋區長安街331巷19弄13號","121.473461666667","25.0122383333333","6500100","板橋區"
"220102","830-TW","2017/06/19 19:49:26","新北市板橋區雙十路二段46巷45號","121.476011666667","25.0293316666667","6500100","板橋區"
"220096","831-TW","2017/06/19 19:49:12","新北市板橋區莊敬路140巷16號","121.470256666667","25.023265","6500100","板橋區"
"220074","895-R6","2017/06/19 19:49:10","新北市板橋區福德街34號","121.456063333333","25.0083866666667","6500100","板橋區"
"220073","985-R7","2017/06/19 19:49:17","新北市板橋區國光路49巷9號","121.458401666667","25.0186283333333","6500100","板橋區"
"220097","AAC-210","2017/06/19 19:49:18","新北市板橋區文化路一段285巷57號","121.46319","25.0198316666667","6500100","板橋區"
"220070","AAC-253","2017/06/19 19:49:20","新北市板橋區民族路173號","121.468551666667","25.0076233333333","6500100","板橋區"
