"lineid","car","time","location","longitude","latitude","cityid","cityname"
"234052","553-UM","2017/10/26 14:49:54","新北市永和區環河東路一段80號","121.519625","25.0165566666667","6500400","永和區"
"234025","9371-KE","2017/10/26 14:49:44","新北市永和區水源街33巷5號","121.510861666667","25.00422","6500400","永和區"
"248013","025-BX","2017/10/26 14:49:53","新北市五股區五福路14巷19號","121.435116666667","25.088895","6501500","五股區"
"248015","026-BX","2017/10/26 14:49:46","新北市五股區成泰路三段577巷80弄7號","121.449501666667","25.1043433333333","6501500","五股區"
"248007","095-VK","2017/10/26 14:49:51","新北市五股區四維路185巷1號","121.468311666667","25.0758583333333","6501500","五股區"
"248017","225-UY","2017/10/26 14:21:32","新北市五股區壟路16號","121.415306666667","25.0856483333333","6501500","五股區"
"248011","247-BX","2017/10/26 14:49:42","新北市五股區六合街29號","121.430623333333","25.0889533333333","6501500","五股區"
"248009","272-BY","2017/10/26 14:49:57","新北市五股區成泰路一段9號","121.433606666667","25.06666","6501500","五股區"
"248003","677-BX","2017/10/26 14:49:51","新北市五股區成泰路一段114號","121.435533333333","25.0732133333333","6501500","五股區"
"248001","678-BX","2017/10/26 14:49:45","新北市五股區成泰路三段85巷2號","121.44361","25.0903066666667","6501500","五股區"
"244024","742-UY","2017/10/26 09:27:09","新北市林口區粉寮路二段160巷28號","121.405218333333","25.0907966666667","6501700","林口區"
"244003","657-BX","2017/10/26 14:20:25","新北市林口區林口路76號","121.38973","25.0806633333333","6501700","林口區"
"243001","267-VK","2017/10/26 14:49:55","新北市泰山區泰林路二段114號","121.43472","25.0593083333333","6501600","泰山區"
"243005","AAD-798","2017/10/26 14:49:57","新北市泰山區明志路三段74巷28弄16號","121.423278333333","25.04276","6501600","泰山區"
"243007","380-SR","2017/10/26 14:49:48","新北市泰山區明志路一段316號","121.431431666667","25.0594883333333","6501600","泰山區"
"243006","421-VK","2017/10/26 14:49:58","新北市泰山區明志路一段33號","121.43368","25.0654816666667","6501600","泰山區"
"243002","KEA-2215","2017/10/26 14:49:45","新北市泰山區明志路二段273巷5弄2號","121.42795","25.0472583333333","6501600","泰山區"
"243003","KEA-2216","2017/10/26 14:49:52","新北市泰山區貴陽街3號","121.420986666667","25.0337366666667","6501600","泰山區"
"243004","646-TV","2017/10/26 14:49:51","新北市泰山區楓江路113號","121.438488333333","25.0640783333333","6501600","泰山區"
"243008","680-BX","2017/10/26 14:49:45","新北市泰山區貴陽街4-1號","121.421653333333","25.0332583333333","6501600","泰山區"
"231002","002-UM","2017/10/26 14:49:55","新北市新店區民權路91號","121.537295","24.9829966666667","6500600","新店區"
"231028","046-UY","2017/10/26 14:49:46","新北市新店區安康路二段278號","121.508331666667","24.9586683333333","6500600","新店區"
"231030","047-UY","2017/10/26 14:49:48","新北市新店區安民街340號","121.517076666667","24.9752833333333","6500600","新店區"
"231029","106-UY","2017/10/26 14:49:37","新北市新店區安康路三段552號","121.48192","24.9489466666667","6500600","新店區"
"231011","108-UY","2017/10/26 14:49:48","新北市新店區寶橋路75號","121.545563333333","24.9752116666667","6500600","新店區"
"231021","187-VK","2017/10/26 14:49:53","新北市新店區永興路102-4號","121.545803333333","24.9303033333333","6500600","新店區"
"231031","188-VK","2017/10/26 14:49:40","新北市新店區安豐路30-1號","121.500865","24.9571566666667","6500600","新店區"
"231007","189-VK","2017/10/26 11:50:28","新北市新店區安華路28-1號","121.519481666667","24.961265","6500600","新店區"
"231017","KEA-2219","2017/10/26 14:46:47","新北市新店區北宜路三段214號","121.589411666667","24.95216","6500600","新店區"
"231027","3712-VJ","2017/10/26 14:49:46","新北市新店區中正路328巷5號","121.536965","24.975395","6500600","新店區"
"231024","3713-VJ","2017/10/26 14:49:56","新北市新店區新生街5巷2號","121.54017","24.9659783333333","6500600","新店區"
"231025","4716-K9","2017/10/26 14:49:57","新北市新店區民族路161號","121.53769","24.976725","6500600","新店區"
"231036","512-UM","2017/10/26 14:49:46","新北市新店區安祥路104巷6弄36號","121.48309","24.9630266666667","6500600","新店區"
"231023","513-UM","2017/10/26 14:49:53","新北市新店區檳榔路105號","121.544608333333","24.9616533333333","6500600","新店區"
"231035","515-UM","2017/10/26 14:49:51","新北市新店區安樂街1-1號","121.5198","24.97379","6500600","新店區"
"231001","619-UM","2017/10/26 14:49:39","新北市新店區三民路129號","121.534576666667","24.9724466666667","6500600","新店區"
"231003","641-BX","2017/10/26 14:49:47","新北市新店區中興路二段121巷1號","121.547478333333","24.9720416666667","6500600","新店區"
"231034","645-TV","2017/10/26 14:49:57","新北市新店區玫瑰路4-1號","121.493521666667","24.9514783333333","6500600","新店區"
"231013","719-UM","2017/10/26 14:49:39","新北市新店區北新路二段35號","121.542611666667","24.97261","6500600","新店區"
"231018","719-UY","2017/10/26 14:49:57","新北市新店區中央二街5巷3號","121.529048333333","24.9728516666667","6500600","新店區"
"231005","897-TW","2017/10/26 14:49:39","新北市新店區中正路602號","121.534196666667","24.98812","6500600","新店區"
"231006","898-TW","2017/10/26 14:49:48","新北市新店區北宜路一段143號","121.54122","24.953005","6500600","新店區"
"231004","899-TW","2017/10/26 14:49:49","新北市新店區民族路110號","121.537751666667","24.9770116666667","6500600","新店區"
"235030","003-UY","2017/10/26 14:50:00","新北市中和區中山路二段23號","121.504975","25.0054216666667","6500300","中和區"
"235027","006-UY","2017/10/26 14:49:45","新北市中和區連城路263巷27弄2號","121.492711666667","24.9945516666667","6500300","中和區"
"235020","096-UM","2017/10/26 14:49:45","新北市中和區中山路三段114巷3號","121.475175","25.0073166666667","6500300","中和區"
"235003","097-UM","2017/10/26 14:49:57","新北市中和區安樂路249號","121.514026666667","24.9996933333333","6500300","中和區"
"235029","098-UM","2017/10/26 14:49:46","新北市中和區永和路90巷2弄18號","121.497936666667","25.00548","6500300","中和區"
"235004","150-BY","2017/10/26 14:49:39","新北市中和區景安路77號","121.506596666667","24.9974283333333","6500300","中和區"
"235022","151-BY","2017/10/26 14:49:50","新北市中和區員山路146巷6號","121.481633333333","24.9967883333333","6500300","中和區"
"235019","183-VK","2017/10/26 14:49:41","新北市中和區民德路10號","121.4688","25.00278","6500300","中和區"
"235002","185-VK","2017/10/26 14:49:50","新北市中和區自立路141巷3號","121.522385","24.993665","6500300","中和區"
"235013","186-VK","2017/10/26 14:49:53","新北市中和區中正路58號","121.50157","24.9937583333333","6500300","中和區"
"235031","255-BX","2017/10/26 14:49:50","新北市中和區新生街220巷27號","121.482615","24.9985366666667","6500300","中和區"
"235008","293-VK","2017/10/26 14:49:44","新北市中和區南山路487號","121.507965","24.987975","6500300","中和區"
"235036","301-VK","2017/10/26 14:49:46","新北市中和區景平路668號","121.49722","25.0010283333333","6500300","中和區"
"235007","352-BY","2017/10/26 14:49:52","新北市中和區安樂路49號","121.51199","24.9933766666667","6500300","中和區"
"235015","376-QA","2017/10/26 14:49:38","新北市中和區中興街157號","121.499991666667","24.9909583333333","6500300","中和區"
"235032","377-QA","2017/10/26 14:49:52","新北市中和區景平路736巷5弄7號","121.497581666667","25.0034566666667","6500300","中和區"
"235025","378-QA","2017/10/26 14:49:58","新北市中和區民樂路2號","121.481583333333","25.00097","6500300","中和區"
"235035","269-TV","2017/10/26 14:49:52","新北市中和區建六路57號","121.48654","25.0022983333333","6500300","中和區"
"235014","4979-A6","2017/10/26 14:49:43","新北市中和區景平路239巷38號","121.508253333333","24.9922516666667","6500300","中和區"
"235033","4980-A6","2017/10/26 14:49:41","新北市中和區圓通路217號","121.496726666667","24.9942233333333","6500300","中和區"
"235006","551-UM","2017/10/26 14:49:56","新北市中和區宜安路1巷30弄1號","121.51204","24.993845","6500300","中和區"
"235034","558-UM","2017/10/26 14:49:57","新北市中和區景平路511號","121.499356666667","24.99875","6500300","中和區"
"235018","640-BX","2017/10/26 14:49:40","新北市中和區莒光路207-1號","121.470968333333","24.9971716666667","6500300","中和區"
"235011","732-UM","2017/10/26 14:49:54","新北市中和區和平街110號","121.507125","24.9914416666667","6500300","中和區"
"235010","733-UM","2017/10/26 14:49:45","新北市中和區仁愛街47號","121.511193333333","24.9882316666667","6500300","中和區"
"235026","800-TS","2017/10/26 14:49:50","新北市中和區中山路二段321-1號","121.493638333333","25.0021316666667","6500300","中和區"
"235021","801-TS","2017/10/26 14:49:58","新北市中和區員山路150-2號","121.481285","24.997365","6500300","中和區"
"235016","805-TS","2017/10/26 14:49:37","新北市中和區華新街144巷20號","121.507563333333","24.9831783333333","6500300","中和區"
"235012","896-TW","2017/10/26 14:49:47","新北市中和區忠孝街118號","121.512138333333","24.9856816666667","6500300","中和區"
"235017","900-TW","2017/10/26 14:49:58","新北市中和區民德路65號","121.469011666667","25.0014816666667","6500300","中和區"
"235024","911-UM","2017/10/26 14:49:50","新北市中和區新生街16巷18號","121.482495","25.0043766666667","6500300","中和區"
"235001","AAC-213","2017/10/26 14:49:38","新北市中和區秀朗路三段173-2號","121.524445","24.9913716666667","6500300","中和區"
"235023","AAC-215","2017/10/26 14:49:56","新北市中和區圓通路305巷5弄55號","121.494995","24.9901966666667","6500300","中和區"
"220104","015-TV","2017/10/26 14:49:57","新北市板橋區金華街25號","121.4559","25.020535","6500100","板橋區"
"220013","072-UY","2017/10/26 14:49:37","新北市板橋區國泰街25巷8-2號","121.469183333333","25.0061316666667","6500100","板橋區"
"220105","075-UY","2017/10/26 14:49:38","新北市板橋區文化路二段548巷19號","121.47661","25.0339","6500100","板橋區"
"220017","AAD-861","2017/10/26 14:49:55","新北市板橋區南雅南路二段32號","121.45436","25.00306","6500100","板橋區"
"220016","120-SR","2017/10/26 14:49:58","新北市板橋區光復街202巷2號","121.485816666667","25.020195","6500100","板橋區"
"247021","893-R6","2017/10/26 14:49:44","新北市蘆洲區仁愛街230巷16號","121.464211666667","25.09453","6501400","蘆洲區"
"247019","500-BY","2017/10/26 14:49:48","新北市蘆洲區民義街71巷24號","121.472636666667","25.0907016666667","6501400","蘆洲區"
"247001","337-TH","2017/10/26 14:49:40","新北市蘆洲區長安街242號","121.45773","25.0860766666667","6501400","蘆洲區"
"247015","057-VK","2017/10/26 14:49:58","新北市蘆洲區和平路196號","121.465988333333","25.081775","6501400","蘆洲區"
"247007","053-VK","2017/10/26 14:49:38","新北市蘆洲區信義路33號","121.474315","25.0794316666667","6501400","蘆洲區"
"247013","007-UY","2017/10/26 14:49:42","新北市蘆洲區成功路118號","121.472256666667","25.0824816666667","6501400","蘆洲區"
"247023","002-UY","2017/10/26 14:49:45","新北市蘆洲區和平路101號","121.46797","25.079355","6501400","蘆洲區"
"228005","097-TW","2017/10/26 14:49:53","新北市貢寮區美豐里丹裡街59-1號","121.909793333333","25.0590516666667","6502600","貢寮區"
"228004","212-TW","2017/10/26 14:49:54","新北市貢寮區福隆里裕隆街5號","121.946145","25.0159966666667","6502600","貢寮區"
"227010","400-TW","2017/10/26 13:47:47","新北市雙溪區三貂里政光路3-1號","121.85087","25.063155","6502500","雙溪區"
"208004","AAC-292","2017/10/26 14:49:54","新北市金山區兩湖里倒照湖25號","121.594171666667","25.2390383333333","6502700","金山區"
"207002","749-BX","2017/10/26 14:49:49","新北市萬里區崁腳里崁腳路73號","121.647588333333","25.15966","6502800","萬里區"
"252005","073-UM","2017/10/26 14:49:14","新北市三芝區埔坪里埔頭坑157號","121.508983333333","25.249545","6502100","三芝區"
"207001","662-BX","2017/10/26 14:47:35","新北市萬里區雙興里豐稟路22號","121.640908333333","25.1868116666667","6502800","萬里區"
"236066","105-UM","2017/10/26 14:49:40","新北市土城區青雲路113號","121.459025","24.9844933333333","6501300","土城區"
"236040","107-UM","2017/10/26 14:49:49","新北市土城區裕民路137-1號","121.451575","24.9864566666667","6501300","土城區"
"236076","166-UM","2017/10/26 14:49:55","新北市土城區中央路四段67巷60號","121.418095","24.9566083333333","6501300","土城區"
"236028","253-BX","2017/10/26 14:49:39","新北市土城區忠義路36巷24號","121.439693333333","24.9695433333333","6501300","土城區"
"236024","269-VK","2017/10/26 14:49:45","新北市土城區慶安街58號","121.440948333333","24.9730933333333","6501300","土城區"
"236012","270-VK","2017/10/26 14:49:47","新北市土城區金城路二段356號","121.461775","24.98517","6501300","土城區"
"236033","271-VK","2017/10/26 14:49:51","新北市土城區明德路一段195巷3弄7號","121.464303333333","24.9786033333333","6501300","土城區"
"236018","401-BY","2017/10/26 14:49:45","新北市土城區延吉街253巷9號","121.467921666667","24.9844683333333","6501300","土城區"
"236056","912-UM","2017/10/26 14:49:49","新北市土城區中央路三段155號","121.432063333333","24.9654016666667","6501300","土城區"
"236047","913-UM","2017/10/26 14:49:51","新北市土城區青雲路38號","121.459915","24.9885116666667","6501300","土城區"
"236060","915-UM","2017/10/26 14:49:42","新北市土城區金城路三段197號","121.47011","24.9891233333333","6501300","土城區"
"236052","AAC-216","2017/10/26 14:49:51","新北市土城區裕民路202號","121.453278333333","24.98474","6501300","土城區"
"242045","172-VK","2017/10/26 14:49:53","新北市板橋區溪城路123號","121.427776666667","24.9820166666667","6500500","新莊區"
"242001","233-RS","2017/10/26 09:03:45","新北市新莊區環河路48-7號","121.436905","25.009825","6500500","新莊區"
"238018","571-TV","2017/10/26 14:49:47","新北市樹林區育德街78-1號","121.387833333333","24.968255","6500700","樹林區"
"238009","KEA-2213","2017/10/26 14:49:37","新北市樹林區育德街78-1號","121.38793","24.9681666666667","6500700","樹林區"
"221012","276-VK","2017/10/26 13:21:20","新北市汐止區汐萬路一段256巷3號","121.653438333333","25.07459","6501100","汐止區"
"221002","358-BY","2017/10/26 14:49:41","新北市汐止區新台五路一段145號","121.653296666667","25.0621","6501100","汐止區"
"220027","145-BY","2017/10/26 14:49:46","新北市板橋區建國街100號","121.459895","25.0173416666667","6500100","板橋區"
"220028","200-UY","2017/10/26 14:49:44","新北市板橋區大觀路二段59巷5號","121.447151666667","25.0025716666667","6500100","板橋區"
"220030","610-BX","2017/10/26 14:49:47","新北市板橋區大觀路三段160巷36號","121.42996","24.9941183333333","6500100","板橋區"
"220050","245-BX","2017/10/26 14:50:00","新北市板橋區莒光路196巷1號","121.47419","25.0224566666667","6500100","板橋區"
"220020","277-BY","2017/10/26 14:49:51","新北市板橋區金門街215巷101號","121.433606666667","24.98827","6500100","板橋區"
"220019","283-VK","2017/10/26 14:49:56","新北市板橋區五權街32巷20號","121.464173333333","24.9929216666667","6500100","板橋區"
"220043","285-UM","2017/10/26 14:49:39","新北市板橋區長江路一段123號","121.460165","25.02994","6500100","板橋區"
"220001","285-VK","2017/10/26 14:49:52","新北市板橋區中山路二段60巷1弄16號","121.47483","25.0155716666667","6500100","板橋區"
"220031","286-VK","2017/10/26 14:49:58","新北市板橋區僑中二街10巷34號","121.445655","25.0111983333333","6500100","板橋區"
"220029","287-VK","2017/10/26 14:49:52","新北市板橋區大觀路一段28巷70號","121.449811666667","25.01062","6500100","板橋區"
"220039","288-VK","2017/10/26 14:49:58","新北市板橋區綠堤街29號","121.455761666667","25.0265016666667","6500100","板橋區"
"220009","293-UM","2017/10/26 14:49:50","新北市板橋區觀光街32號","121.471318333333","25.01626","6500100","板橋區"
"220032","296-UM","2017/10/26 14:49:57","新北市板橋區溪崑二街118巷3號","121.425676666667","24.988555","6500100","板橋區"
"220023","297-UM","2017/10/26 14:49:55","新北市板橋區大勇街36號","121.453411666667","25.016835","6500100","板橋區"
"220010","305-R5","2017/10/26 14:49:58","新北市板橋區中山路二段416巷52-4號","121.48282","25.01932","6500100","板橋區"
"220041","307-R5","2017/10/26 14:49:54","新北市板橋區四維路259巷83號","121.460246666667","25.026405","6500100","板橋區"
"220047","317-R6","2017/10/26 14:49:47","新北市板橋區新海路390號","121.458958333333","25.0263533333333","6500100","板橋區"
"220012","486-VK","2017/10/26 14:49:58","新北市板橋區實踐路137號","121.46428","25.0045916666667","6500100","板橋區"
"220038","487-VK","2017/10/26 14:49:46","新北市板橋區英士路192-1號","121.458368333333","25.023765","6500100","板橋區"
"220037","491-VK","2017/10/26 14:49:58","新北市板橋區民治街13號","121.477546666667","25.0345133333333","6500100","板橋區"
"220052","561-BX","2017/10/26 14:49:45","新北市板橋區陽明街46-3號","121.465611666667","25.0220533333333","6500100","板橋區"
"220011","609-BX","2017/10/26 14:49:53","新北市板橋區萬安街53巷22號","121.483368333333","25.023735","6500100","板橋區"
"220040","637-BX","2017/10/26 14:49:57","新北市板橋區懷德街133號","121.479243333333","25.0305716666667","6500100","板橋區"
"220005","686-BX","2017/10/26 14:49:53","新北市板橋區廣和街79號","121.462681666667","24.992185","6500100","板橋區"
"220025","687-BX","2017/10/26 14:49:55","新北市板橋區大觀路一段79號","121.447043333333","25.0043483333333","6500100","板橋區"
"220042","689-BX","2017/10/26 14:49:48","新北市板橋區長江路一段371號","121.461721666667","25.0306866666667","6500100","板橋區"
"220002","741-BX","2017/10/26 14:49:42","新北市板橋區忠孝路239巷30號","121.467196666667","25.0035566666667","6500100","板橋區"
"220003","827-TW","2017/10/26 14:49:56","新北市板橋區仁愛路47巷2號","121.459858333333","24.9994683333333","6500100","板橋區"
"220014","829-TW","2017/10/26 14:49:50","新北市板橋區漢生東路193巷69弄6號","121.472421666667","25.0121733333333","6500100","板橋區"
"220051","830-TW","2017/10/26 14:49:47","新北市板橋區文聖街20號","121.475718333333","25.0318483333333","6500100","板橋區"
"220045","831-TW","2017/10/26 14:49:45","新北市板橋區莊敬路148-1號","121.470475","25.0227","6500100","板橋區"
"220022","895-R6","2017/10/26 14:49:38","新北市板橋區民權路67號","121.46158","25.0115583333333","6500100","板橋區"
"220021","985-R7","2017/10/26 14:49:44","新北市板橋區南雅西路二段176號","121.451595","25.0138633333333","6500100","板橋區"
"220046","AAC-210","2017/10/26 14:49:43","新北市板橋區幸福路32巷2弄1號","121.461698333333","25.02075","6500100","板橋區"
"220018","AAC-253","2017/10/26 14:49:38","新北市板橋區民族路271號","121.470753333333","25.00686","6500100","板橋區"
