"lineid","car","time","location","longitude","latitude","cityid","cityname"
"234026","9371-KE","2017/10/26 17:39:39","新北市永和區中正路730號","121.51552","25.0101166666667","6500400","永和區"
"249005","172-UM","2017/10/26 17:39:53","新北市八里區荖阡坑路28-5號","121.402793333333","25.1298316666667","6502300","八里區"
"249001","173-UM","2017/10/26 17:39:54","新北市八里區龍米路二段153-8號","121.440113333333","25.1535983333333","6502300","八里區"
"249004","303-UY","2017/10/26 17:39:44","新北市八里區民治街14號","121.414648333333","25.1577083333333","6502300","八里區"
"249002","305-UY","2017/10/26 17:39:17","新北市八里區石壁腳9-5號","121.444983333333","25.134645","6502300","八里區"
"249003","593-UM","2017/10/26 17:39:39","新北市八里區中山路二段229號","121.403311666667","25.1492983333333","6502300","八里區"
"234067","AAC-212","2017/10/26 16:24:14","新北市永和區福和路1號","121.526288333333","25.0095383333333","6500400","永和區"
"232011","375-UM","2017/10/26 17:39:57","新北市坪林區北宜路八段157號","121.707271666667","24.9345516666667","6502000","坪林區"
"244013","069-UM","2017/10/26 17:39:39","新北市林口區文化一路二段36號","121.381105","25.0769766666667","6501700","林口區"
"244007","080-UY","2017/10/26 17:39:41","新北市林口區菁埔48-2號","121.382848333333","25.0945383333333","6501700","林口區"
"244019","403-UM","2017/10/26 17:39:48","新北市林口區文化一路一段135巷12號","121.373353333333","25.0723016666667","6501700","林口區"
"244025","742-UY","2017/10/26 17:39:49","新北市林口區文化三路一段394巷10號","121.366588333333","25.0727733333333","6501700","林口區"
"244009","410-SL","2017/10/26 17:39:54","新北市林口區中北三街295號","121.382593333333","25.0832066666667","6501700","林口區"
"244023","483-VK","2017/10/26 17:39:54","新北市林口區東明一街142巷8號","121.389943333333","25.0710666666667","6501700","林口區"
"244017","485-VK","2017/10/26 17:39:59","新北市林口區文化一路一段223號","121.378951666667","25.0756566666667","6501700","林口區"
"244011","701-TV","2017/10/26 17:39:57","新北市林口區竹林路35號","121.386901666667","25.07758","6501700","林口區"
"244021","838-TS","2017/10/26 17:39:51","新北市林口區醒吾新村1號","121.396488333333","25.0788933333333","6501700","林口區"
"243013","AAD-798","2017/10/26 17:39:50","新北市泰山區自強路39號","121.40521","25.0551766666667","6501600","泰山區"
"243016","680-BX","2017/10/26 16:01:16","新北市泰山區黎明路25號","121.422166666667","25.060865","6501600","泰山區"
"222003","436-BY","2017/10/26 17:39:43","新北市深坑區北深路二段2巷13弄2號","121.622123333333","25.0071416666667","6501800","深坑區"
"231007","189-VK","2017/10/26 11:50:28","新北市新店區安華路28-1號","121.519481666667","24.961265","6500600","新店區"
"231046","278-BY","2017/10/26 17:39:42","新北市新店區直潭路92號","121.530906666667","24.937675","6500600","新店區"
"241011","013-R5","2017/10/26 17:39:44","新北市三重區河邊北街102號","121.503853333333","25.0706716666667","6500200","三重區"
"241005","156-TC","2017/10/26 17:39:44","新北市三重區碧華街85號","121.485271666667","25.0815216666667","6500200","三重區"
"241017","265-UM","2017/10/26 17:39:37","新北市三重區大同北路34巷15號","121.494538333333","25.0624533333333","6500200","三重區"
"241016","266-UM","2017/10/26 17:39:41","新北市三重區正義北路49號","121.497338333333","25.0640883333333","6500200","三重區"
"241032","269-UM","2017/10/26 17:39:58","新北市三重區三陽路141號","121.482628333333","25.0589366666667","6500200","三重區"
"241007","398-BY","2017/10/26 17:39:41","新北市三重區慈愛街2號","121.484213333333","25.0784416666667","6500200","三重區"
"241019","478-VK","2017/10/26 17:39:47","新北市三重區六張街156號","121.489451666667","25.0688483333333","6500200","三重區"
"241014","543-UM","2017/10/26 17:39:55","新北市三重區龍濱路34號","121.502763333333","25.0682383333333","6500200","三重區"
"241023","545-UM","2017/10/26 17:39:41","新北市三重區中華路121號","121.483663333333","25.0638083333333","6500200","三重區"
"241024","743-BX","2017/10/26 17:35:26","新北市三重區國道路一段85巷9號","121.47994","25.072445","6500200","三重區"
"241012","941-UM","2017/10/26 17:39:52","新北市三重區河邊北街385號","121.501703333333","25.07672","6500200","三重區"
"241033","AAC-255","2017/10/26 17:39:40","新北市三重區光復路一段134號","121.472091666667","25.0524866666667","6500200","三重區"
"235062","800-TS","2017/10/26 17:39:39","新北市中和區員山路36巷16-3號","121.484773333333","24.9915133333333","6500300","中和區"
"247022","893-R6","2017/10/26 17:39:42","新北市蘆洲區民族路548巷2號","121.467663333333","25.0893333333333","6501400","蘆洲區"
"247012","546-UM","2017/10/26 17:39:41","新北市蘆洲區民權路34號","121.476343333333","25.0862383333333","6501400","蘆洲區"
"247020","500-BY","2017/10/26 17:39:36","新北市蘆洲區民族路446-3號","121.472796666667","25.09212","6501400","蘆洲區"
"247010","339-TH","2017/10/26 17:39:42","新北市蘆洲區中山一路112號","121.477376666667","25.0815366666667","6501400","蘆洲區"
"247002","337-TH","2017/10/26 17:39:50","新北市蘆洲區永平街62號","121.457326666667","25.0917333333333","6501400","蘆洲區"
"247004","336-TH","2017/10/26 17:39:47","新北市蘆洲區長安街249巷28號","121.4582","25.082955","6501400","蘆洲區"
"247016","335-TH","2017/10/26 17:39:48","新北市蘆洲區光華路44號","121.468825","25.08316","6501400","蘆洲區"
"247006","056-VK","2017/10/26 17:39:43","新北市蘆洲區長安街68巷41號","121.46399","25.08122","6501400","蘆洲區"
"247008","053-VK","2017/10/26 17:39:45","新北市蘆洲區和平路29巷13號","121.472025","25.0785066666667","6501400","蘆洲區"
"247014","007-UY","2017/10/26 17:39:46","新北市蘆洲區中正路32號","121.471283333333","25.0823633333333","6501400","蘆洲區"
"247024","002-UY","2017/10/26 17:39:44","新北市蘆洲區長樂路125-1號","121.462121666667","25.0880633333333","6501400","蘆洲區"
"247018","001-UY","2017/10/26 17:39:58","新北市蘆洲區民權路116號","121.473626666667","25.0884616666667","6501400","蘆洲區"
"228003","097-TW","2017/10/26 17:39:45","新北市貢寮區仁理村仁和路33號","121.923916666667","25.0538583333333","6502600","貢寮區"
"228001","212-TW","2017/10/26 17:39:50","新北市貢寮區仁理村仁愛路95-1號","121.92769","25.0555","6502600","貢寮區"
"228002","585-TW","2017/10/26 17:39:55","新北市貢寮區福隆里外隆林街15-2號","121.958676666667","25.00383","6502600","貢寮區"
"224010","AGQ-8101","2017/10/26 17:39:04","新北市瑞芳區岳王路158-2號","121.808335","25.1112916666667","6501200","瑞芳區"
"224006","676-BX","2017/10/26 17:39:26","新北市瑞芳區傑魚坑路26號","121.79423","25.11061","6501200","瑞芳區"
"224009","285-BY","2017/10/26 17:39:54","新北市瑞芳區烏勢巷145號","121.847616666667","25.1089216666667","6501200","瑞芳區"
"224008","275-VK","2017/10/26 17:39:47","新北市瑞芳區瑞柑新村4號","121.829078333333","25.106355","6501200","瑞芳區"
"224005","271-BY","2017/10/26 17:39:43","新北市瑞芳區籠山路15-1號","121.831755","25.12409","6501200","瑞芳區"
"251009","008-UM","2017/10/26 17:39:49","新北市淡水區中正路38-1號","121.443676666667","25.1693783333333","6501000","淡水區"
"251004","009-UM","2017/10/26 17:39:39","新北市淡水區中正東路二段88巷37-21號","121.459303333333","25.14391","6501000","淡水區"
"251001","011-UM","2017/10/26 17:39:46","新北市淡水區民權路92巷35-1號","121.462146666667","25.1267383333333","6501000","淡水區"
"251002","012-UM","2017/10/26 17:39:45","新北市淡水區重建街96號","121.440101666667","25.1725166666667","6501000","淡水區"
"251007","179-VK","2017/10/26 17:39:48","新北市淡水區民生路124巷19號","121.464241666667","25.1377233333333","6501000","淡水區"
"251008","181-VK","2017/10/26 17:39:40","新北市淡水區八勢路30巷19號","121.462681666667","25.1536883333333","6501000","淡水區"
"251014","182-VK","2017/10/26 17:39:01","新北市淡水區公埔子15-1號","121.479616666667","25.22624","6501000","淡水區"
"251010","413-VK","2017/10/26 17:39:45","新北市淡水區淡海路280巷97號","121.41997","25.1889016666667","6501000","淡水區"
"251012","441-VK","2017/10/26 17:39:54","新北市淡水區北新路200巷8號","121.451773333333","25.1797133333333","6501000","淡水區"
"251016","442-VK","2017/10/26 17:39:53","新北市淡水區埤島39-15號","121.452758333333","25.1959416666667","6501000","淡水區"
"251005","443-VK","2017/10/26 17:39:55","新北市淡水區鄧公路35巷1號","121.451638333333","25.171395","6501000","淡水區"
"251006","561-UM","2017/10/26 17:39:57","新北市淡水區大信街24巷2號","121.441945","25.17679","6501000","淡水區"
"251011","650-BX","2017/10/26 17:39:41","新北市淡水區小坪頂23-6號","121.485395","25.1559016666667","6501000","淡水區"
"251003","766-UM","2017/10/26 17:39:55","新北市淡水區大忠街5巷1號","121.443121666667","25.1764433333333","6501000","淡水區"
"207003","550-UM","2017/10/26 17:39:55","新北市萬里區龜吼里漁澳路62-1號","121.687313333333","25.1953833333333","6502800","萬里區"
"207004","225-TW","2017/10/26 17:39:43","新北市萬里區中幅里中福路8-1號","121.685803333333","25.1649983333333","6502800","萬里區"
"252002","178-VK","2017/10/26 17:39:45","新北市三芝區智成街80號","121.504975","25.2557933333333","6502100","三芝區"
"252001","292-VK","2017/10/26 17:39:43","新北市三芝區中山路一段4號","121.501193333333","25.258975","6502100","三芝區"
"237004","078-UY","2017/10/26 17:39:56","新北市三峽區中山路459巷137號","121.349978333333","24.9339833333333","6500900","三峽區"
"237008","302-VK","2017/10/26 17:39:47","新北市三峽區中山路323號","121.360735","24.938135","6500900","三峽區"
"237006","5529-G3","2017/10/26 17:39:43","新北市三峽區介壽路一段552巷5號","121.387668333333","24.932915","6500900","三峽區"
"237011","572-TV","2017/10/26 17:39:19","新北市三峽區中山路98號","121.366443333333","24.93545","6500900","三峽區"
"237015","649-BX","2017/10/26 17:39:58","新北市三峽區白雞38-7號","121.373013333333","24.9124083333333","6500900","三峽區"
"236071","105-UM","2017/10/26 17:39:42","新北市土城區城林路6巷80號","121.438388333333","24.9797816666667","6501300","土城區"
"236042","107-UM","2017/10/26 17:39:41","新北市土城區城林路6巷80號","121.438465","24.9798183333333","6501300","土城區"
"236078","166-UM","2017/10/26 17:39:53","新北市土城區城林路6巷80號","121.438411666667","24.97967","6501300","土城區"
"236026","269-VK","2017/10/26 17:39:56","新北市土城區城林路6巷80號","121.43847","24.9796366666667","6501300","土城區"
"236014","270-VK","2017/10/26 17:39:52","新北市土城區城林路6巷80號","121.438581666667","24.9796766666667","6501300","土城區"
"236037","271-VK","2017/10/26 17:39:49","新北市土城區城林路6巷80號","121.438481666667","24.9797633333333","6501300","土城區"
"236021","401-BY","2017/10/26 17:39:57","新北市土城區城林路6巷80號","121.438766666667","24.9797016666667","6501300","土城區"
"242031","AAC-296","2017/10/26 17:39:39","新北市新莊區新泰路369巷18號","121.442855","25.0433083333333","6500500","新莊區"
"242029","986-R7","2017/10/26 17:39:43","新北市新莊區復興路二段90號","121.455958333333","25.04423","6500500","新莊區"
"242051","751-BX","2017/10/26 17:39:54","新北市新莊區西盛街189號","121.428936666667","25.017185","6500500","新莊區"
"242025","705-TV","2017/10/26 17:39:49","新北市新莊區思源路110號","121.46015","25.0466483333333","6500500","新莊區"
"242023","613-BX","2017/10/26 17:39:37","新北市新莊區公園路39號","121.453158333333","25.04025","6500500","新莊區"
"242027","612-BX","2017/10/26 17:39:54","新北市新莊區福壽街126-5號","121.457861666667","25.0512883333333","6500500","新莊區"
"242039","566-BX","2017/10/26 17:39:59","新北市新莊區民安東路37號","121.42894","25.0209866666667","6500500","新莊區"
"242044","497-BY","2017/10/26 17:39:50","新北市新莊區中正路871巷9弄45號","121.419986666667","25.0266866666667","6500500","新莊區"
"242034","442-UM","2017/10/26 17:39:57","新北市新莊區新莊路540號","121.445381666667","25.0329366666667","6500500","新莊區"
"242048","441-UM","2017/10/26 17:39:42","新北市新莊區萬安街145號","121.420445","25.0217483333333","6500500","新莊區"
"242053","440-UM","2017/10/26 17:39:42","新北市新莊區新樹路699巷27號","121.432825","25.0015","6500500","新莊區"
"242004","413-TV","2017/10/26 17:39:57","新北市新莊區自立街229號","121.456765","25.0457716666667","6500500","新莊區"
"242042","400-BY","2017/10/26 17:39:55","新北市新莊區中正路514巷97號","121.43115","25.034425","6500500","新莊區"
"242061","362-BY","2017/10/26 17:39:40","新北市新莊區瓊林南路103巷8弄21號","121.435238333333","25.0112916666667","6500500","新莊區"
"242058","353-BY","2017/10/26 17:39:52","新北市新莊區中正路582號","121.427333333333","25.0305383333333","6500500","新莊區"
"242007","132-UY","2017/10/26 17:39:44","新北市新莊區自信街71號","121.455651666667","25.0482716666667","6500500","新莊區"
"242036","133-UY","2017/10/26 17:39:43","新北市新莊區建福路59巷30號","121.428076666667","25.0276266666667","6500500","新莊區"
"242021","135-UY","2017/10/26 17:39:54","新北市新莊區中華路一段73號","121.452285","25.0398816666667","6500500","新莊區"
"242046","172-VK","2017/10/26 17:39:52","新北市新莊區福營路103號","121.433973333333","25.03229","6500500","新莊區"
"242009","173-VK","2017/10/26 17:39:56","新北市新莊區昌明街14巷22號","121.457456666667","25.0536","6500500","新莊區"
"242015","175-VK","2017/10/26 17:39:50","新北市新莊區新泰路332號","121.444885","25.0419633333333","6500500","新莊區"
"242002","176-VK","2017/10/26 17:39:56","新北市新莊區新莊路282號","121.451483333333","25.0338616666667","6500500","新莊區"
"242001","233-RS","2017/10/26 09:03:45","新北市新莊區環河路48-7號","121.436905","25.009825","6500500","新莊區"
"242013","347-TH","2017/10/26 17:39:51","新北市新莊區中誠街98號","121.449886666667","25.0477983333333","6500500","新莊區"
"242056","349-TH","2017/10/26 17:39:37","新北市新莊區新泰路3巷33號","121.44901","25.0320416666667","6500500","新莊區"
"242017","350-TH","2017/10/26 17:39:42","新北市新莊區復興路一段149巷22弄2號","121.450286666667","25.0441533333333","6500500","新莊區"
"242011","351-TH","2017/10/26 17:39:45","新北市新莊區中港路652號","121.450905","25.0558116666667","6500500","新莊區"
"238015","755-BX","2017/10/26 17:39:55","新北市樹林區啟智街40號","121.420603333333","24.9931066666667","6500700","樹林區"
"238023","601-UM","2017/10/26 17:39:57","新北市樹林區三福街44號","121.407835","25.0165016666667","6500700","樹林區"
"238019","599-UM","2017/10/26 17:39:53","新北市樹林區太平路94-3號","121.418971666667","24.979845","6500700","樹林區"
"238018","571-TV","2017/10/26 17:39:47","新北市樹林區鎮前街113號","121.424238333333","24.9897133333333","6500700","樹林區"
"238024","5061-A6","2017/10/26 17:39:39","新北市樹林區環河路2-2號","121.425575","24.9770183333333","6500700","樹林區"
"238021","KEA-2217","2017/10/26 17:39:39","新北市樹林區西圳街一段203巷7號","121.393033333333","24.9602416666667","6500700","樹林區"
"238022","KEA-2213","2017/10/26 17:39:43","新北市樹林區中華路187巷13號","121.420773333333","24.9810916666667","6500700","樹林區"
"238025","303-VK","2017/10/26 17:39:41","新北市樹林區保安街二段134號","121.413465","25.003995","6500700","樹林區"
"238017","283-BY","2017/10/26 17:39:56","新北市樹林區中正路282-8號","121.415245","25.0094666666667","6500700","樹林區"
"238014","282-BY","2017/10/26 17:39:44","新北市樹林區保安街一段300號","121.419371666667","24.997745","6500700","樹林區"
"238020","268-VK","2017/10/26 17:39:42","新北市樹林區俊英街160巷14號","121.428031666667","25.0069233333333","6500700","樹林區"
"238026","172-UY","2017/10/26 17:39:57","新北市樹林區新興街19巷34弄19號","121.402336666667","24.972805","6500700","樹林區"
"238016","169-UY","2017/10/26 17:39:44","新北市樹林區育英街53號","121.420796666667","24.9892516666667","6500700","樹林區"
"239007","AAC-297","2017/10/26 17:39:47","新北市鶯歌區鶯桃路182巷20號","121.337343333333","24.9561783333333","6500800","鶯歌區"
"239006","891-R6","2017/10/26 17:39:49","新北市鶯歌區永和街56巷5號","121.333665","24.96785","6500800","鶯歌區"
"239008","527-UM","2017/10/26 17:39:39","新北市鶯歌區大湖路700巷22弄23號","121.333925","24.9774216666667","6500800","鶯歌區"
"239005","526-UM","2017/10/26 17:39:53","新北市鶯歌區鳳吉四街13號","121.326433333333","24.972685","6500800","鶯歌區"
"239001","417-VK","2017/10/26 17:39:42","新北市鶯歌區中正三路300號","121.32842","24.935705","6500800","鶯歌區"
"239003","360-BY","2017/10/26 17:39:51","新北市鶯歌區鶯桃路204號","121.337211666667","24.959015","6500800","鶯歌區"
"239002","359-BY","2017/10/26 17:39:48","新北市鶯歌區育智路22號","121.344923333333","24.955215","6500800","鶯歌區"
"239004","193-VK","2017/10/26 17:39:55","新北市鶯歌區三鶯路35號","121.35629","24.941655","6500800","鶯歌區"
"221008","489-VK","2017/10/26 17:39:49","新北市汐止區康寧街901號","121.651423333333","25.0751266666667","6501100","汐止區"
"221015","131-UY","2017/10/26 17:39:44","新北市汐止區汐萬路一段310號","121.650326666667","25.0748783333333","6501100","汐止區"
"221010","269-BY","2017/10/26 17:39:38","新北市汐止區汐萬路一段312號","121.650505","25.0754466666667","6501100","汐止區"
"221012","276-VK","2017/10/26 13:21:20","新北市汐止區汐萬路一段256巷3號","121.653438333333","25.07459","6501100","汐止區"
"221023","279-VK","2017/10/26 17:39:41","新北市汐止區康寧街901號","121.651733333333","25.074945","6501100","汐止區"
"221032","280-BY","2017/10/26 17:39:38","新北市汐止區樟樹二路345號","121.641865","25.0732033333333","6501100","汐止區"
"221033","647-BX","2017/10/26 17:39:49","新北市汐止區大同路一段40號","121.622191666667","25.0549783333333","6501100","汐止區"
"221018","753-BX","2017/10/26 17:39:46","新北市汐止區汐萬路一段81號","121.654741666667","25.0700433333333","6501100","汐止區"
"242019","280-VK","2017/10/26 17:39:48","新北市新莊區中港路181號","121.45495","25.041555","6500500","新莊區"
