"lineid","car","time","location","longitude","latitude","cityid","cityname"
"234046","148-BY","2017/10/26 19:19:44","新北市永和區秀朗路二段148巷10弄1號","121.525353333333","25.0009333333333","6500400","永和區"
"234007","207-UY","2017/10/26 19:19:42","新北市永和區永貞路389巷7號","121.507948333333","25.008355","6500400","永和區"
"234081","298-R6","2017/10/26 19:19:50","新北市永和區福和路7巷12弄1號","121.525398333333","25.0074916666667","6500400","永和區"
"234038","336-UY","2017/10/26 19:19:44","新北市永和區民樂街59巷3號","121.527851666667","24.9983633333333","6500400","永和區"
"234064","337-UY","2017/10/26 19:19:47","新北市永和區永元路17巷6弄2號","121.521386666667","25.00072","6500400","永和區"
"234086","338-UY","2017/10/26 19:19:51","新北市永和區永利路37號","121.51878","25.0055883333333","6500400","永和區"
"234070","552-UM","2017/10/26 19:19:47","新北市永和區中正路666巷18號","121.51744","25.00908","6500400","永和區"
"234054","553-UM","2017/10/26 19:19:49","新北市永和區中興街27號","121.516088333333","25.0120166666667","6500400","永和區"
"234017","745-BX","2017/10/26 19:19:55","新北市永和區文化路144巷31弄8號","121.51239","25.0168183333333","6500400","永和區"
"234030","746-BX","2017/10/26 19:19:52","新北市永和區厚德街22號","121.525615","24.99851","6500400","永和區"
"234061","AAD-866","2017/10/26 19:19:44","新北市永和區秀朗路一段175號","121.517021666667","25.0036966666667","6500400","永和區"
"234013","847-RS","2017/10/26 19:19:57","新北市永和區信義路56號","121.513083333333","25.0125633333333","6500400","永和區"
"234042","862-TW","2017/10/26 19:19:43","新北市永和區保平路151巷3號","121.510185","25.005625","6500400","永和區"
"234050","863-TW","2017/10/26 19:19:54","新北市永和區保福路二段88巷27號","121.511798333333","25.0137283333333","6500400","永和區"
"234026","9371-KE","2017/10/26 19:19:39","新北市永和區安樂路66號","121.514905","24.9982433333333","6500400","永和區"
"234011","9373-KE","2017/10/26 19:19:39","新北市永和區保福路二段14-1號","121.510965","25.0114233333333","6500400","永和區"
"249005","172-UM","2017/10/26 19:19:53","新北市八里區中華路三段120-2號","121.3927","25.137695","6502300","八里區"
"249001","173-UM","2017/10/26 19:19:54","新北市八里區中華路二段145號","121.409005","25.15247","6502300","八里區"
"249002","305-UY","2017/10/26 19:19:37","新北市八里區龍形一街33巷6-2號","121.44932","25.1295","6502300","八里區"
"249003","593-UM","2017/10/26 19:19:55","新北市八里區中山路二段462號","121.39906","25.1472016666667","6502300","八里區"
"248020","225-UY","2017/10/26 19:07:51","新北市五股區凌雲路三段57號","121.425306666667","25.125055","6501500","五股區"
"248012","247-BX","2017/10/26 19:19:54","新北市五股區中興路四段48巷16號","121.438601666667","25.0835033333333","6501500","五股區"
"248010","272-BY","2017/10/26 19:19:51","新北市五股區水碓一路23號","121.430611666667","25.0713283333333","6501500","五股區"
"248004","677-BX","2017/10/26 19:19:54","新北市五股區五福路53號","121.433056666667","25.089735","6501500","五股區"
"248002","678-BX","2017/10/26 19:19:57","新北市五股區凌雲路一段158巷11號","121.447756666667","25.1034383333333","6501500","五股區"
"234023","9380-KE","2017/10/26 19:19:47","新北市永和區竹林路109巷3號","121.520073333333","25.0119116666667","6500400","永和區"
"234077","969-R7","2017/10/26 19:19:58","新北市永和區民治街70號","121.517783333333","24.9980716666667","6500400","永和區"
"234074","AAC-211","2017/10/26 19:19:39","新北市永和區竹林路104號","121.519691666667","25.0119433333333","6500400","永和區"
"234067","AAC-212","2017/10/26 19:19:44","新北市永和區保平路30巷10號","121.511688333333","25.00759","6500400","永和區"
"234003","AAC-295","2017/10/26 19:19:55","新北市永和區永平路168號","121.510725","25.008985","6500400","永和區"
"244013","069-UM","2017/10/26 19:19:39","新北市林口區麗園一街1號","121.375818333333","25.07259","6501700","林口區"
"244019","403-UM","2017/10/26 19:19:48","新北市林口區麗園二街12巷3-2號","121.379025","25.06961","6501700","林口區"
"244023","483-VK","2017/10/26 19:19:54","新北市林口區民有街66號","121.372765","25.0770883333333","6501700","林口區"
"244011","701-TV","2017/10/26 19:19:37","新北市林口區寶斗厝坑7-2號","121.356421666667","25.0992133333333","6501700","林口區"
"243013","AAD-798","2017/10/26 18:22:30","新北市泰山區錢厝坑13號","121.414603333333","25.0411433333333","6501600","泰山區"
"243009","297-R6","2017/10/26 19:19:49","新北市泰山區和平街13巷13號","121.434415","25.06519","6501600","泰山區"
"243015","380-SR","2017/10/26 19:19:55","新北市泰山區公園路40號","121.4289","25.0544433333333","6501600","泰山區"
"243014","421-VK","2017/10/26 19:19:52","新北市泰山區泰林路二段115號","121.43449","25.0593733333333","6501600","泰山區"
"243012","539-UM","2017/10/26 19:19:58","新北市泰山區仁愛路98號","121.433326666667","25.055145","6501600","泰山區"
"243010","KEA-2215","2017/10/26 19:19:41","新北市泰山區明志路二段32巷2-1號","121.42945","25.0535233333333","6501600","泰山區"
"243011","KEA-2216","2017/10/26 19:19:43","新北市泰山區中央路11巷12號","121.426578333333","25.042605","6501600","泰山區"
"243016","680-BX","2017/10/26 19:19:53","新北市泰山區工專路61號","121.422533333333","25.040405","6501600","泰山區"
"222003","436-BY","2017/10/26 19:19:43","新北市深坑區深南路204號","121.626656666667","25.016075","6501800","深坑區"
"222002","659-BX","2017/10/26 19:19:47","新北市深坑區北深路一段210號","121.632558333333","25.0109433333333","6501800","深坑區"
"231041","002-UM","2017/10/26 19:19:54","新北市新店區溪園路245-6號","121.525341666667","24.98328","6500600","新店區"
"231059","046-UY","2017/10/26 19:19:43","新北市新店區安和路三段29-3號","121.5174","24.9812316666667","6500600","新店區"
"231061","047-UY","2017/10/26 19:19:48","新北市新店區安康路一段222-1號","121.522928333333","24.963715","6500600","新店區"
"231060","106-UY","2017/10/26 19:19:47","新北市新店區安康路二段128號","121.512621666667","24.9625233333333","6500600","新店區"
"231047","108-UY","2017/10/26 19:19:47","新北市新店區中興路一段282-3號","121.545955","24.9683283333333","6500600","新店區"
"231052","187-VK","2017/10/26 19:19:52","新北市新店區自強路229號","121.547068333333","24.9187516666667","6500600","新店區"
"231007","189-VK","2017/10/26 11:50:28","新北市新店區安華路28-1號","121.519481666667","24.961265","6500600","新店區"
"231050","KEA-2219","2017/10/26 19:19:32","新北市新店區竹林路157-1號","121.556663333333","24.9476633333333","6500600","新店區"
"231057","256-BX","2017/10/26 18:50:58","新北市新店區花園一路一段2號","121.553115","24.9324816666667","6500600","新店區"
"231046","278-BY","2017/10/26 19:19:41","新北市新店區華城路36巷1-1號","121.528473333333","24.9553033333333","6500600","新店區"
"231058","3712-VJ","2017/10/26 19:19:51","新北市新店區光明街286巷2號","121.540636666667","24.96387","6500600","新店區"
"231065","512-UM","2017/10/26 19:19:42","新北市新店區安祥路134號","121.474376666667","24.9561816666667","6500600","新店區"
"231054","513-UM","2017/10/26 19:19:55","新北市新店區北宜路一段28號","121.538056666667","24.9570133333333","6500600","新店區"
"231064","515-UM","2017/10/26 19:19:39","新北市新店區安忠路57巷26弄54號","121.512025","24.95752","6500600","新店區"
"231040","619-UM","2017/10/26 19:19:54","新北市新店區中華路147號","121.538098333333","24.97049","6500600","新店區"
"231042","641-BX","2017/10/26 19:19:48","新北市新店區北宜路一段3號","121.538563333333","24.958465","6500600","新店區"
"231063","645-TV","2017/10/26 19:19:38","新北市新店區達觀路14巷1-3號","121.504116666667","24.9419116666667","6500600","新店區"
"231049","719-UM","2017/10/26 19:19:41","新北市新店區大豐路23-1號","121.541215","24.9800283333333","6500600","新店區"
"231051","719-UY","2017/10/26 19:19:47","新北市新店區中央路78巷21-3號","121.532383333333","24.9770766666667","6500600","新店區"
"231062","720-UM","2017/10/26 19:19:44","新北市新店區莒光路85巷2號","121.523066666667","24.9559","6500600","新店區"
"231044","897-TW","2017/10/26 19:19:52","新北市新店區中興路三段315號","121.541895","24.9860966666667","6500600","新店區"
"231045","898-TW","2017/10/26 19:19:58","新北市新店區北宜路一段278號","121.546371666667","24.95272","6500600","新店區"
"231043","899-TW","2017/10/26 19:19:54","新北市新店區北新路二段153號","121.542856666667","24.9760216666667","6500600","新店區"
"231066","AKT-0513","2017/10/26 19:19:47","新北市新店區安康路三段165巷2弄29號","121.487941666667","24.9514816666667","6500600","新店區"
"241031","061-VK","2017/10/26 19:19:44","新北市三重區重新路四段95號","121.485953333333","25.05502","6500200","三重區"
"241026","066-VK","2017/10/26 19:19:54","新北市三重區同安東街78號","121.498596666667","25.057455","6500200","三重區"
"241017","265-UM","2017/10/26 19:19:37","新北市三重區大同北路213號","121.491881666667","25.0656116666667","6500200","三重區"
"241022","267-UM","2017/10/26 19:19:39","新北市三重區中正北路58號","121.48699","25.0644033333333","6500200","三重區"
"241032","269-UM","2017/10/26 19:19:56","新北市三重區新生街93號","121.483808333333","25.059505","6500200","三重區"
"241025","271-UM","2017/10/26 19:19:48","新北市三重區中正北路408巷2號","121.475353333333","25.070335","6500200","三重區"
"241007","398-BY","2017/10/26 19:19:41","新北市三重區慈愛街48號","121.485838333333","25.0791066666667","6500200","三重區"
"241009","KEA-2210","2017/10/26 19:19:56","新北市三重區溪尾街230巷57號","121.486438333333","25.08127","6500200","三重區"
"241020","413-TH","2017/10/26 19:19:48","新北市三重區後竹圍街132號","121.488105","25.0725966666667","6500200","三重區"
"241035","462-BY","2017/10/26 19:19:57","新北市三重區大仁街53號","121.493455","25.065815","6500200","三重區"
"241030","480-VK","2017/10/26 19:19:39","新北市三重區新興路42號","121.491468333333","25.0533716666667","6500200","三重區"
"241006","AAD-863","2017/10/26 19:19:36","新北市三重區車路頭街180號","121.483675","25.077045","6500200","三重區"
"241029","942-UM","2017/10/26 19:19:41","新北市三重區重安街31號","121.491086666667","25.0569783333333","6500200","三重區"
"235066","003-UY","2017/10/26 19:19:54","新北市中和區中和路102號","121.502626666667","24.99978","6500300","中和區"
"235064","005-UY","2017/10/26 19:19:41","新北市中和區泰和街2號","121.49999","25.0014616666667","6500300","中和區"
"235063","006-UY","2017/10/26 19:19:59","新北市中和區連城路249巷10弄1號","121.493823333333","24.9963833333333","6500300","中和區"
"235056","096-UM","2017/10/26 19:19:53","新北市中和區中正路1163號","121.481616666667","25.00925","6500300","中和區"
"235039","097-UM","2017/10/26 19:19:57","新北市中和區自立路187-1號","121.52386","24.9914466666667","6500300","中和區"
"235065","098-UM","2017/10/26 19:19:43","新北市中和區中山路二段64巷6號","121.503711666667","25.0049666666667","6500300","中和區"
"235040","150-BY","2017/10/26 19:19:56","新北市中和區安平路89-3號","121.510635","24.996555","6500300","中和區"
"235058","151-BY","2017/10/26 19:19:51","新北市中和區連城路477巷6弄4號","121.48295","24.99513","6500300","中和區"
"235055","183-VK","2017/10/26 19:19:39","新北市中和區德光路49號","121.47013","25.0040016666667","6500300","中和區"
"235038","185-VK","2017/10/26 19:19:50","新北市中和區大仁街20巷34號","121.519311666667","24.99307","6500300","中和區"
"235049","186-VK","2017/10/26 19:19:57","新北市中和區景新街235號","121.508098333333","24.9944966666667","6500300","中和區"
"235067","255-BX","2017/10/26 19:19:46","新北市中和區民樂路29號","121.483101666667","25.0012966666667","6500300","中和區"
"235044","293-VK","2017/10/26 19:19:54","新北市中和區中興街266巷1號","121.49841","24.98762","6500300","中和區"
"235072","301-VK","2017/10/26 19:19:50","新北市中和區連城路265號","121.49131","24.9962516666667","6500300","中和區"
"235043","352-BY","2017/10/26 19:19:58","新北市中和區景平路404號","121.508953333333","24.9931766666667","6500300","中和區"
"235051","376-QA","2017/10/26 19:19:48","新北市中和區和平街2巷2弄1號","121.510181666667","24.9903616666667","6500300","中和區"
"235068","377-QA","2017/10/26 19:19:59","新北市中和區連城路75巷7-3號","121.498576666667","24.9987616666667","6500300","中和區"
"235061","378-QA","2017/10/26 19:19:46","新北市中和區中山路三段63巷11弄2號","121.477188333333","25.0040683333333","6500300","中和區"
"235071","269-TV","2017/10/26 19:19:45","新北市中和區連城路469巷38號","121.483473333333","24.99477","6500300","中和區"
"235050","4979-A6","2017/10/26 19:19:46","新北市中和區中興街204號","121.500005","24.9901633333333","6500300","中和區"
"235042","551-UM","2017/10/26 19:19:44","新北市永和區中正路129巷8號","121.515468333333","24.99839","6500300","中和區"
"235070","558-UM","2017/10/26 19:19:40","新北市中和區中和路92號","121.501201666667","25.0003483333333","6500300","中和區"
"235045","565-BX","2017/10/26 19:19:51","新北市中和區景新街437巷29號","121.514571666667","24.9894783333333","6500300","中和區"
"235054","640-BX","2017/10/26 19:19:55","新北市中和區國光街108號","121.470035","25.000525","6500300","中和區"
"235047","732-UM","2017/10/26 19:19:54","新北市中和區和平街76巷6弄4號","121.508073333333","24.99206","6500300","中和區"
"235046","733-UM","2017/10/26 19:19:55","新北市中和區忠孝街2巷12-2號","121.510706666667","24.9815433333333","6500300","中和區"
"235062","800-TS","2017/10/26 19:19:39","新北市三重區後埔街61-1號","121.479621666667","25.0477333333333","6500300","中和區"
"235057","801-TS","2017/10/26 19:19:41","新北市中和區員山路263號","121.481173333333","24.9992433333333","6500300","中和區"
"235041","802-TS","2017/10/26 19:19:44","新北市永和區中和路307號","121.506656666667","24.9996116666667","6500300","中和區"
"235052","805-TS","2017/10/26 19:19:42","新北市中和區華新街143巷15號","121.506646666667","24.9810016666667","6500300","中和區"
"235048","896-TW","2017/10/26 19:19:44","新北市中和區忠孝街103號","121.512071666667","24.98623","6500300","中和區"
"235053","900-TW","2017/10/26 19:19:39","新北市中和區華安街30巷17號","121.46684","24.9972883333333","6500300","中和區"
"235060","911-UM","2017/10/26 19:19:49","新北市中和區民有街16號","121.475635","25.0054333333333","6500300","中和區"
"235037","AAC-213","2017/10/26 19:19:47","新北市中和區秀朗路三段50巷12弄8號","121.524083333333","24.99549","6500300","中和區"
"235059","AAC-215","2017/10/26 19:19:44","新北市中和區圓通路252巷5弄38號","121.492196666667","24.991495","6500300","中和區"
"220065","072-UY","2017/10/26 19:19:57","新北市板橋區民族路170巷14號","121.467218333333","25.007355","6500100","板橋區"
"220086","073-UY","2017/10/26 19:19:57","新北市板橋區中正路216巷87號","121.458465","25.0191316666667","6500100","板橋區"
"220106","075-UY","2017/10/26 19:19:57","新北市板橋區雙十路三段17號","121.470958333333","25.0313066666667","6500100","板橋區"
"220069","AAD-861","2017/10/26 19:19:54","新北市板橋區大明街20巷31號","121.458538333333","25.00367","6500100","板橋區"
"220068","120-SR","2017/10/26 19:19:56","新北市板橋區林森街1巷33-3號","121.482838333333","25.0243916666667","6500100","板橋區"
"226004","312-R5","2017/10/26 19:19:51","新北市平溪區十分里十分街96-2號","121.776641666667","25.0426566666667","6502400","平溪區"
"228003","097-TW","2017/10/26 19:19:45","新北市貢寮區和美里和美街22-1號","121.912808333333","25.08263","6502600","貢寮區"
"228001","212-TW","2017/10/26 19:19:57","新北市貢寮區真理里新港街26巷6-3號","121.92562","25.0545716666667","6502600","貢寮區"
"228002","585-TW","2017/10/26 19:19:55","新北市貢寮區龍門里復興街8-2號","121.926786666667","25.0269666666667","6502600","貢寮區"
"224006","676-BX","2017/10/26 19:19:46","新北市瑞芳區中山路230號","121.800285","25.1070566666667","6501200","瑞芳區"
"224008","275-VK","2017/10/26 19:19:59","新北市瑞芳區一坑路124號","121.802351666667","25.1086066666667","6501200","瑞芳區"
"224005","271-BY","2017/10/26 19:19:42","新北市瑞芳區國中新村18號","121.817283333333","25.10739","6501200","瑞芳區"
"227004","642-TC","2017/10/26 19:19:38","新北市雙溪區平林里梅竹蹊64號","121.860571666667","25.0358883333333","6502500","雙溪區"
"227010","400-TW","2017/10/26 19:19:47","新北市雙溪區新基里新基北街69號","121.869906666667","25.0387116666667","6502500","雙溪區"
"253005","032-BX","2017/10/26 19:19:40","新北市石門區阿里荖41-1號","121.605875","25.28229","6502200","石門區"
"253006","295-VK","2017/10/26 19:19:44","新北市石門區楓林19號","121.536593333333","25.2909466666667","6502200","石門區"
"222001","KEA-2212","2017/10/26 19:19:44","新北市深坑區北深路二段84號","121.617451666667","25.0034933333333","6501800","深坑區"
"208002","742-BX","2017/10/26 19:19:40","新北市金山區中華路132-1號","121.633136666667","25.2209866666667","6502700","金山區"
"208003","665-BX","2017/10/26 19:19:51","新北市金山區中山路154號","121.638676666667","25.2207133333333","6502700","金山區"
"208001","761-BX","2017/10/26 19:19:56","新北市金山區民生路69號","121.64017","25.2198416666667","6502700","金山區"
"251009","008-UM","2017/10/26 19:19:49","新北市淡水區中山路100號","121.442498333333","25.1705966666667","6501000","淡水區"
"251001","011-UM","2017/10/26 19:19:46","新北市淡水區自強路201巷49號","121.462083333333","25.1269233333333","6501000","淡水區"
"251002","012-UM","2017/10/26 19:19:45","新北市淡水區中正路368號","121.4339","25.1743766666667","6501000","淡水區"
"251007","179-VK","2017/10/26 19:19:48","新北市淡水區民生路117巷22號","121.464946666667","25.139375","6501000","淡水區"
"251014","182-VK","2017/10/26 19:19:40","新北市淡水區小中寮19-7號","121.484775","25.2296883333333","6501000","淡水區"
"251010","413-VK","2017/10/26 19:19:44","新北市淡水區沙崙路27號","121.421511666667","25.1816733333333","6501000","淡水區"
"251016","442-VK","2017/10/26 19:19:53","新北市淡水區下圭柔山119-51號","121.450728333333","25.2084766666667","6501000","淡水區"
"251005","443-VK","2017/10/26 19:19:55","新北市淡水區水源街一段5號","121.442611666667","25.1724816666667","6501000","淡水區"
"251011","650-BX","2017/10/26 19:19:41","新北市淡水區中正東路二段143巷2弄1號","121.460693333333","25.14743","6501000","淡水區"
"251003","766-UM","2017/10/26 19:19:54","新北市淡水區中山北路一段33號","121.441591666667","25.1752416666667","6501000","淡水區"
"207003","550-UM","2017/10/26 19:19:55","新北市萬里區大鵬里萬里加投79-3號","121.647363333333","25.2123616666667","6502800","萬里區"
"207004","225-TW","2017/10/26 19:19:43","新北市萬里區萬里里瑪鋉路8-2號","121.687576666667","25.1751416666667","6502800","萬里區"
"252002","178-VK","2017/10/26 19:19:45","新北市三芝區淡金路二段18-1號","121.502686666667","25.2595516666667","6502100","三芝區"
"252003","249-BX","2017/10/26 19:19:57","新北市三芝區埔坪里埔頭坑41號","121.504483333333","25.2644883333333","6502100","三芝區"
"252001","292-VK","2017/10/26 19:19:43","新北市三芝區長勤街9巷11弄3號","121.501836666667","25.2546583333333","6502100","三芝區"
"237004","078-UY","2017/10/26 19:19:56","新北市三峽區有木206號","121.439105","24.851475","6500900","三峽區"
"237007","153-BY","2017/10/26 19:19:44","新北市三峽區二鬮路9號","121.359096666667","24.9068866666667","6500900","三峽區"
"237009","210-TH","2017/10/26 19:19:47","新北市三峽區文化路111號","121.370476666667","24.93612","6500900","三峽區"
"237013","252-BX","2017/10/26 19:19:42","新北市三峽區光明路75巷8號","121.377366666667","24.9280066666667","6500900","三峽區"
"237012","275-BY","2017/10/26 19:19:48","新北市三峽區三樹路222巷236弄8-3號","121.391366666667","24.943035","6500900","三峽區"
"237008","302-VK","2017/10/26 19:19:47","新北市三峽區永安街183號","121.373166666667","24.92681","6500900","三峽區"
"237014","433-BY","2017/10/26 19:19:46","新北市三峽區中山路257巷1號","121.362501666667","24.9373083333333","6500900","三峽區"
"237006","5529-G3","2017/10/26 19:19:43","新北市三峽區介壽路一段420號","121.384423333333","24.9313233333333","6500900","三峽區"
"237011","572-TV","2017/10/26 19:13:31","新北市三峽區中正路一段100號","121.374323333333","24.92969","6500900","三峽區"
"237015","649-BX","2017/10/26 19:19:58","新北市三峽區安坑49-5號","121.461805","24.9320066666667","6500900","三峽區"
"237010","706-TV","2017/10/26 19:15:01","新北市三峽區復興路17號","121.374183333333","24.9361816666667","6500900","三峽區"
"237005","AKY-6261","2017/10/26 19:19:38","新北市三峽區中山路459巷42號","121.357001666667","24.9373016666667","6500900","三峽區"
"236071","105-UM","2017/10/26 19:19:42","新北市土城區學成路76巷7號","121.451413333333","24.9885716666667","6501300","土城區"
"236078","166-UM","2017/10/26 19:19:53","新北市土城區龍泉路36-1號","121.411936666667","24.9462816666667","6501300","土城區"
"236026","269-VK","2017/10/26 19:19:56","新北市土城區中央路二段154號","121.441873333333","24.9768933333333","6501300","土城區"
"236014","270-VK","2017/10/26 19:19:52","新北市土城區學府路一段24巷3號","121.458413333333","24.9886716666667","6501300","土城區"
"236021","401-BY","2017/10/26 19:19:56","新北市土城區延峰街8號","121.468571666667","24.9865616666667","6501300","土城區"
"236058","912-UM","2017/10/26 19:19:57","新北市土城區金城路一段7號","121.439306666667","24.9690566666667","6501300","土城區"
"236051","913-UM","2017/10/26 19:19:40","新北市土城區明德路一段398-1號","121.453651666667","24.9791016666667","6501300","土城區"
"242039","566-BX","2017/10/26 19:19:39","新北市新莊區民安路411號","121.433111666667","25.0228416666667","6500500","新莊區"
"242001","233-RS","2017/10/26 09:03:45","新北市新莊區環河路48-7號","121.436905","25.009825","6500500","新莊區"
"238015","755-BX","2017/10/26 19:19:43","新北市樹林區備內街40號","121.41246","24.98737","6500700","樹林區"
"238023","601-UM","2017/10/26 19:19:36","新北市樹林區三興路41號","121.395938333333","25.0146","6500700","樹林區"
"238019","599-UM","2017/10/26 19:19:50","新北市樹林區鎮前街365號","121.416083333333","24.9839266666667","6500700","樹林區"
"238018","571-TV","2017/10/26 19:19:47","新北市樹林區太平路56巷33號","121.418183333333","24.98156","6500700","樹林區"
"238024","5061-A6","2017/10/26 19:19:39","新北市樹林區福德街26號","121.400901666667","24.9756533333333","6500700","樹林區"
"238021","KEA-2217","2017/10/26 19:19:39","新北市樹林區柑園街二段382巷1號","121.368218333333","24.949305","6500700","樹林區"
"238022","KEA-2213","2017/10/26 19:19:40","新北市樹林區東興街3號","121.409203333333","24.980285","6500700","樹林區"
"238025","303-VK","2017/10/26 19:19:41","新北市樹林區中山路二段133號","121.406646666667","24.9791566666667","6500700","樹林區"
"238017","283-BY","2017/10/26 19:19:56","新北市樹林區光興街360號","121.407243333333","25.005835","6500700","樹林區"
"238014","282-BY","2017/10/26 19:19:44","新北市樹林區中正路22-1號","121.427773333333","24.9994633333333","6500700","樹林區"
"238020","268-VK","2017/10/26 19:19:41","新北市樹林區俊英街133巷4號","121.424011666667","25.0114216666667","6500700","樹林區"
"238026","172-UY","2017/10/26 19:19:55","新北市樹林區佳園路三段34號","121.38754","24.9535533333333","6500700","樹林區"
"238016","169-UY","2017/10/26 19:19:44","新北市樹林區中山路二段34-2號","121.417053333333","24.985405","6500700","樹林區"
"239007","AAC-297","2017/10/26 19:19:47","新北市鶯歌區西湖街45巷17號","121.33982","24.9593866666667","6500800","鶯歌區"
"239006","891-R6","2017/10/26 19:19:57","新北市鶯歌區建國路512巷24號","121.340025","24.9511066666667","6500800","鶯歌區"
"239008","527-UM","2017/10/26 19:19:59","新北市鶯歌區大湖路460巷2弄2號","121.339955","24.9724216666667","6500800","鶯歌區"
"239005","526-UM","2017/10/26 19:19:53","新北市鶯歌區中湖街268-1號","121.349145","24.9764283333333","6500800","鶯歌區"
"239001","417-VK","2017/10/26 19:19:42","新北市鶯歌區鶯桃路39-2號","121.342638333333","24.9509533333333","6500800","鶯歌區"
"239003","360-BY","2017/10/26 19:19:51","新北市鶯歌區國華路56號","121.342286666667","24.9549666666667","6500800","鶯歌區"
"239004","193-VK","2017/10/26 19:19:55","新北市鶯歌區中正三路鄭厝巷65號","121.331693333333","24.9337633333333","6500800","鶯歌區"
"221008","489-VK","2017/10/26 19:19:58","新北市汐止區康寧街307巷1弄9號","121.62681","25.0673433333333","6501100","汐止區"
"221036","130-UY","2017/10/26 19:19:40","新北市汐止區汐萬路一段312號","121.650421666667","25.075095","6501100","汐止區"
"221015","131-UY","2017/10/26 19:19:44","新北市汐止區康寧街901號","121.651646666667","25.07493","6501100","汐止區"
"221010","269-BY","2017/10/26 19:19:38","新北市汐止區康寧街901號","121.651295","25.0749916666667","6501100","汐止區"
"221012","276-VK","2017/10/26 13:21:20","新北市汐止區汐萬路一段256巷3號","121.653438333333","25.07459","6501100","汐止區"
"221012","278-VK","2017/10/26 19:19:54","新北市汐止區汐萬路一段284號","121.650733333333","25.07423","6501100","汐止區"
"221023","279-VK","2017/10/26 19:19:41","新北市汐止區康寧街901號","121.650955","25.075265","6501100","汐止區"
"221027","281-BY","2017/10/26 19:19:51","新北市汐止區汐萬路一段312號","121.650325","25.0749016666667","6501100","汐止區"
"221029","298-VK","2017/10/26 19:19:41","新北市汐止區康寧街901號","121.651635","25.0748433333333","6501100","汐止區"
"221021","299-VK","2017/10/26 19:19:54","新北市汐止區康寧街901號","121.65138","25.0749883333333","6501100","汐止區"
"221031","353-TW","2017/10/26 19:19:50","新北市汐止區汐萬路一段333巷23號","121.648888333333","25.0760866666667","6501100","汐止區"
"221002","358-BY","2017/10/26 19:19:41","新北市汐止區大同路一段363號","121.640226666667","25.0601533333333","6501100","汐止區"
"221025","623-UM","2017/10/26 19:19:55","新北市汐止區汐萬路一段273號","121.650555","25.07445","6501100","汐止區"
"221038","646-BX","2017/10/26 19:19:28","新北市汐止區汐萬路一段312號","121.650691666667","25.075295","6501100","汐止區"
"221033","647-BX","2017/10/26 19:19:49","新北市汐止區南勢街1巷1號","121.627085","25.037575","6501100","汐止區"
"221018","753-BX","2017/10/26 19:19:46","新北市汐止區康寧街901號","121.651545","25.0749633333333","6501100","汐止區"
"220079","145-BY","2017/10/26 19:19:53","新北市板橋區民權路202巷26號","121.460668333333","25.0172616666667","6500100","板橋區"
"220080","200-UY","2017/10/26 19:19:52","新北市板橋區大觀路二段7巷110號","121.450515","25.0028066666667","6500100","板橋區"
"220082","610-BX","2017/10/26 19:19:42","新北市板橋區篤行路三段玉平巷76弄16號","121.427416666667","24.985975","6500100","板橋區"
"220101","245-BX","2017/10/26 19:19:41","新北市板橋區莊敬路25巷17號","121.474393333333","25.027045","6500100","板橋區"
"220056","276-BY","2017/10/26 19:19:56","新北市板橋區信義路131號","121.457953333333","24.993135","6500100","板橋區"
"220072","277-BY","2017/10/26 19:19:45","新北市板橋區金門街337巷9弄3號","121.430445","24.9847883333333","6500100","板橋區"
"220071","283-VK","2017/10/26 19:19:59","新北市板橋區大豐街130號","121.46093","25.0011166666667","6500100","板橋區"
"220094","285-UM","2017/10/26 19:19:55","新北市板橋區吳鳳路82號","121.467003333333","25.0313383333333","6500100","板橋區"
"220053","285-VK","2017/10/26 19:19:52","新北市板橋區富山街5號","121.47855","25.0215516666667","6500100","板橋區"
"220083","286-VK","2017/10/26 19:19:47","新北市板橋區大觀路二段174巷186弄10號","121.442676666667","25.0035233333333","6500100","板橋區"
"220081","287-VK","2017/10/26 19:19:54","新北市板橋區南雅西路一段122號","121.452741666667","25.006615","6500100","板橋區"
"220090","288-VK","2017/10/26 19:19:52","新北市板橋區長江路一段106巷13弄35號","121.46138","25.0298233333333","6500100","板橋區"
"220061","293-UM","2017/10/26 19:19:48","新北市板橋區三民路二段21巷39號","121.480415","25.0182783333333","6500100","板橋區"
"220084","296-UM","2017/10/26 19:19:50","新北市板橋區溪崑二街56巷25號","121.427591666667","24.990995","6500100","板橋區"
"220075","297-UM","2017/10/26 19:19:54","新北市板橋區僑中一街124巷72-3號","121.449671666667","25.01766","6500100","板橋區"
"220062","305-R5","2017/10/26 19:19:50","新北市板橋區三民路二段153巷7弄2號","121.480515","25.01507","6500100","板橋區"
"220092","307-R5","2017/10/26 19:19:49","新北市板橋區光武街48巷47弄1號","121.468175","25.0272916666667","6500100","板橋區"
"220098","317-R6","2017/10/26 19:19:46","新北市板橋區民有街91號","121.464723333333","25.02768","6500100","板橋區"
"220064","486-VK","2017/10/26 19:19:54","新北市板橋區板新路184號","121.469671666667","25.0159216666667","6500100","板橋區"
"220089","487-VK","2017/10/26 19:19:56","新北市板橋區文化路一段357號","121.466783333333","25.02109","6500100","板橋區"
"220088","491-VK","2017/10/26 19:19:50","新北市板橋區雙十路二段42-4號","121.47586","25.027485","6500100","板橋區"
"220035","560-BX","2017/10/26 19:19:50","新北市板橋區中正路332-11號","121.454238333333","25.023255","6500100","板橋區"
"220103","561-BX","2017/10/26 19:19:52","新北市板橋區介壽街17號","121.467723333333","25.0201366666667","6500100","板橋區"
"220063","609-BX","2017/10/26 19:19:40","新北市板橋區中山路二段284號","121.479505","25.01864","6500100","板橋區"
"220091","637-BX","2017/10/26 19:19:57","新北市板橋區文聖街207號","121.479851666667","25.0263216666667","6500100","板橋區"
"220057","686-BX","2017/10/26 19:19:45","新北市板橋區國慶路180號","121.462838333333","24.9961666666667","6500100","板橋區"
"220077","687-BX","2017/10/26 19:19:58","新北市板橋區僑中二街2號","121.447335","25.011445","6500100","板橋區"
"220093","689-BX","2017/10/26 19:19:44","新北市板橋區文化路一段435巷16號","121.467528333333","25.0234016666667","6500100","板橋區"
"220054","741-BX","2017/10/26 19:19:43","新北市板橋區四川路一段197號","121.460703333333","25.00372","6500100","板橋區"
"220055","827-TW","2017/10/26 19:19:51","新北市板橋區館前東路156巷21號","121.464263333333","25.00684","6500100","板橋區"
"220067","829-TW","2017/10/26 19:19:43","新北市板橋區長安街138巷1弄108號","121.474056666667","25.0102466666667","6500100","板橋區"
"220102","830-TW","2017/10/26 19:20:00","新北市板橋區松柏街15巷2號","121.47426","25.0298483333333","6500100","板橋區"
"220096","831-TW","2017/10/26 19:19:55","新北市板橋區大同街33號","121.477791666667","25.0272366666667","6500100","板橋區"
"220074","895-R6","2017/10/26 19:19:54","新北市板橋區中正路自強新村91-1號","121.454858333333","25.0131816666667","6500100","板橋區"
"220073","985-R7","2017/10/26 19:19:42","新北市板橋區新生街51號","121.457253333333","25.0211","6500100","板橋區"
"220097","AAC-210","2017/10/26 19:19:48","新北市板橋區幸福路60巷6號","121.460683333333","25.0210333333333","6500100","板橋區"
"220070","AAC-253","2017/10/26 19:19:57","新北市板橋區忠孝路161號","121.463751666667","25.0024983333333","6500100","板橋區"
