"lineid","car","time","location","longitude","latitude","cityid","cityname"
"234046","148-BY","2017/10/26 19:39:44","新北市永和區秀朗路二段181巷8號","121.526178333333","25.001425","6500400","永和區"
"234007","207-UY","2017/10/26 19:39:42","新北市中和區中和路454號","121.512011666667","25.0036583333333","6500400","永和區"
"234081","298-R6","2017/10/26 19:39:44","新北市永和區林森路20巷28號","121.525643333333","25.0061033333333","6500400","永和區"
"234038","336-UY","2017/10/26 19:39:44","新北市永和區成功路一段123號","121.526953333333","25.0019216666667","6500400","永和區"
"234064","337-UY","2017/10/26 19:39:47","新北市永和區秀朗路一段192巷6弄14號","121.519118333333","25.002295","6500400","永和區"
"234086","338-UY","2017/10/26 19:39:51","新北市永和區成功路一段48巷12號","121.526316666667","25.0042533333333","6500400","永和區"
"234070","552-UM","2017/10/26 19:39:46","新北市永和區永和路二段239-2號","121.515725","25.0146333333333","6500400","永和區"
"234054","553-UM","2017/10/26 19:39:44","新北市永和區竹林路39巷14號","121.518555","25.0146216666667","6500400","永和區"
"234017","745-BX","2017/10/26 19:39:55","新北市永和區永和路二段425巷70號","121.513568333333","25.0171516666667","6500400","永和區"
"234030","746-BX","2017/10/26 19:39:52","新北市永和區民生路47巷7號","121.523231666667","24.9978","6500400","永和區"
"234061","AAD-866","2017/10/26 19:39:44","新北市永和區永貞路218號","121.515131666667","25.0040033333333","6500400","永和區"
"234013","847-RS","2017/10/26 19:39:53","新北市永和區仁愛路186巷2號","121.50996","25.0125916666667","6500400","永和區"
"234042","862-TW","2017/10/26 19:39:43","新北市永和區中和路305巷2弄1號","121.506671666667","25.0000733333333","6500400","永和區"
"234050","863-TW","2017/10/26 19:39:54","新北市永和區保安路53號","121.509416666667","25.0158366666667","6500400","永和區"
"234026","9371-KE","2017/10/26 19:39:58","新北市永和區中和路503號","121.510648333333","25.002325","6500400","永和區"
"249004","303-UY","2017/10/26 19:39:43","新北市八里區博物館路23號","121.414753333333","25.1633116666667","6502300","八里區"
"249002","305-UY","2017/10/26 19:39:37","新北市八里區頂寮二街42號","121.45045","25.1252566666667","6502300","八里區"
"249003","593-UM","2017/10/26 19:39:55","新北市八里區華峰三街29號","121.399348333333","25.1459133333333","6502300","八里區"
"248014","025-BX","2017/10/26 19:39:38","新北市五股區民義路一段172巷11號","121.433495","25.0880916666667","6501500","五股區"
"248016","026-BX","2017/10/26 19:39:45","新北市五股區成泰路三段571號","121.452198333333","25.1023533333333","6501500","五股區"
"248008","095-VK","2017/10/26 19:39:48","新北市五股區四維路118巷13號","121.46934","25.0742133333333","6501500","五股區"
"248020","225-UY","2017/10/26 19:39:43","新北市五股區中直路10-5號","121.427896666667","25.1115066666667","6501500","五股區"
"248012","247-BX","2017/10/26 19:39:54","新北市五股區成泰路二段87號","121.438268333333","25.08408","6501500","五股區"
"248010","272-BY","2017/10/26 19:39:51","新北市五股區自強路144號","121.432236666667","25.0707433333333","6501500","五股區"
"248004","677-BX","2017/10/26 19:39:54","新北市五股區成泰路二段47號","121.43735","25.082305","6501500","五股區"
"248002","678-BX","2017/10/26 19:39:17","新北市五股區成泰路三段577巷56號","121.450696666667","25.1032433333333","6501500","五股區"
"234077","969-R7","2017/10/26 19:39:58","新北市永和區民權路29巷19號","121.521098333333","24.9980283333333","6500400","永和區"
"234074","AAC-211","2017/10/26 19:39:59","新北市永和區竹林路223號","121.520928333333","25.008535","6500400","永和區"
"234067","AAC-212","2017/10/26 19:39:44","新北市永和區中山路一段213號","121.508486666667","25.008155","6500400","永和區"
"234003","AAC-295","2017/10/26 19:39:59","新北市永和區永和路一段39號","121.512958333333","25.0060783333333","6500400","永和區"
"244019","403-UM","2017/10/26 19:39:47","新北市林口區文化二路一段490-7號","121.37592","25.0782183333333","6501700","林口區"
"243013","AAD-798","2017/10/26 18:22:30","新北市泰山區錢厝坑13號","121.414603333333","25.0411433333333","6501600","泰山區"
"243009","297-R6","2017/10/26 19:39:49","新北市泰山區美寧街76號","121.431485","25.06461","6501600","泰山區"
"243015","380-SR","2017/10/26 19:39:35","新北市泰山區民權街71號","121.428685","25.0499983333333","6501600","泰山區"
"243014","421-VK","2017/10/26 19:39:52","新北市泰山區泰林路二段33-7號","121.435193333333","25.056415","6501600","泰山區"
"243012","539-UM","2017/10/26 19:39:47","新北市泰山區仁愛路100巷56號","121.433811666667","25.054465","6501600","泰山區"
"243010","KEA-2215","2017/10/26 19:39:41","新北市泰山區民生路33號","121.430538333333","25.05221","6501600","泰山區"
"243011","KEA-2216","2017/10/26 19:39:43","新北市泰山區明志路三段204巷1號","121.4215","25.0382616666667","6501600","泰山區"
"243016","680-BX","2017/10/26 19:39:52","新北市泰山區中山路三段114號","121.41794","25.0323333333333","6501600","泰山區"
"222003","436-BY","2017/10/26 19:32:06","新北市深坑區深南路51-1號","121.621158333333","25.01009","6501800","深坑區"
"222002","659-BX","2017/10/26 19:39:47","新北市深坑區北深路一段177號","121.632535","25.0109183333333","6501800","深坑區"
"231041","002-UM","2017/10/26 19:39:54","新北市新店區中正路500-1號","121.534411666667","24.9819366666667","6500600","新店區"
"231059","046-UY","2017/10/26 19:39:43","新北市新店區安和路二段240號","121.51652","24.9783516666667","6500600","新店區"
"231061","047-UY","2017/10/26 19:39:58","新北市新店區安民街189-4號","121.516813333333","24.9711166666667","6500600","新店區"
"231060","106-UY","2017/10/26 19:39:47","新北市新店區安康路二段208號","121.510173333333","24.9595033333333","6500600","新店區"
"231047","108-UY","2017/10/26 19:39:47","新北市新店區五峰路63巷38號","121.54688","24.9699083333333","6500600","新店區"
"231052","187-VK","2017/10/26 19:39:52","新北市新店區新烏路二段482號","121.552908333333","24.907925","6500600","新店區"
"231007","189-VK","2017/10/26 11:50:28","新北市新店區安華路28-1號","121.519481666667","24.961265","6500600","新店區"
"231050","KEA-2219","2017/10/26 19:39:52","新北市新店區郵政路93號","121.554685","24.951455","6500600","新店區"
"231057","256-BX","2017/10/26 19:39:44","新北市新店區橘園一路11號","121.547906666667","24.9340466666667","6500600","新店區"
"231046","278-BY","2017/10/26 19:39:41","新北市新店區中正路329巷3弄2號","121.53544","24.9746433333333","6500600","新店區"
"231058","3712-VJ","2017/10/26 19:39:51","新北市新店區中正路76巷11弄22號","121.543716666667","24.9717766666667","6500600","新店區"
"231067","4772-VM","2017/10/26 19:39:39","新北市新店區精忠路10-1號","121.532668333333","24.959085","6500600","新店區"
"231065","512-UM","2017/10/26 19:39:42","新北市新店區安祥路109巷83號","121.477716666667","24.9602933333333","6500600","新店區"
"231054","513-UM","2017/10/26 19:39:55","新北市新店區北宜路一段37號","121.538465","24.9574516666667","6500600","新店區"
"231064","515-UM","2017/10/26 19:39:39","新北市新店區安和路一段52巷2-1號","121.5176","24.96632","6500600","新店區"
"231040","619-UM","2017/10/26 19:39:54","新北市新店區北新路一段96巷23號","121.543015","24.968855","6500600","新店區"
"231042","641-BX","2017/10/26 19:39:48","新北市新店區中興路一段203號","121.543721666667","24.9658633333333","6500600","新店區"
"231063","645-TV","2017/10/26 19:39:38","新北市新店區達觀路41號","121.502688333333","24.93827","6500600","新店區"
"231068","718-UY","2017/10/26 19:39:45","新北市新店區安華路28-1號","121.519503333333","24.9610633333333","6500600","新店區"
"231049","719-UM","2017/10/26 19:40:00","新北市新店區大豐路71號","121.53923","24.9795333333333","6500600","新店區"
"231051","719-UY","2017/10/26 19:39:47","新北市新店區中央四街60號","121.527275","24.9753616666667","6500600","新店區"
"231062","720-UM","2017/10/26 19:39:44","新北市新店區碧潭路64號","121.534873333333","24.9567966666667","6500600","新店區"
"231044","897-TW","2017/10/26 19:39:37","新北市新店區北新路三段220號","121.541058333333","24.9843983333333","6500600","新店區"
"231045","898-TW","2017/10/26 19:39:58","新北市新店區北宜路二段415號","121.560001666667","24.954515","6500600","新店區"
"231043","899-TW","2017/10/26 19:39:54","新北市新店區北新路二段10號","121.542753333333","24.9711933333333","6500600","新店區"
"231066","AKT-0513","2017/10/26 19:39:45","新北市新店區安康路二段341巷11號","121.497743333333","24.95561","6500600","新店區"
"241011","013-R5","2017/10/26 19:39:44","新北市三重區秀江街190號","121.497746666667","25.071615","6500200","三重區"
"241028","022-UY","2017/10/26 19:39:54","新北市三重區中正南路206號","121.49386","25.0557616666667","6500200","三重區"
"241008","059-VK","2017/10/26 19:39:37","新北市三重區永福街135巷1號","121.478626666667","25.07684","6500200","三重區"
"241031","061-VK","2017/10/26 19:39:44","新北市三重區重新路四段248號","121.48617","25.0534833333333","6500200","三重區"
"241015","062-VK","2017/10/26 19:39:39","新北市三重區福德北路34號","121.502013333333","25.065245","6500200","三重區"
"241026","066-VK","2017/10/26 19:39:54","新北市三重區文化南路65巷48號","121.498641666667","25.06059","6500200","三重區"
"241017","265-UM","2017/10/26 19:39:37","新北市三重區民生街59號","121.491015","25.066315","6500200","三重區"
"241022","267-UM","2017/10/26 19:39:59","新北市三重區中正北路162號","121.484643333333","25.066035","6500200","三重區"
"241018","268-UM","2017/10/26 19:39:50","新北市三重區大智街63號","121.492661666667","25.067995","6500200","三重區"
"241032","269-UM","2017/10/26 19:39:56","新北市三重區重陽路一段60巷81號","121.484125","25.05826","6500200","三重區"
"241013","270-UM","2017/10/26 19:39:47","新北市三重區仁賢街10號","121.495835","25.0746233333333","6500200","三重區"
"241025","271-UM","2017/10/26 19:39:48","新北市三重區大有街1-1號","121.477596666667","25.0655816666667","6500200","三重區"
"241007","398-BY","2017/10/26 19:39:41","新北市三重區溪尾街126巷92號","121.487638333333","25.078685","6500200","三重區"
"241009","KEA-2210","2017/10/26 19:39:56","新北市三重區三和路四段404號","121.48104","25.0796483333333","6500200","三重區"
"241020","413-TH","2017/10/26 19:39:48","新北市三重區三和路四段20巷67號","121.48948","25.0736066666667","6500200","三重區"
"241035","462-BY","2017/10/26 19:39:57","新北市三重區正義北路61-3號","121.49759","25.064565","6500200","三重區"
"241019","478-VK","2017/10/26 19:39:46","新北市三重區六張街194巷1弄2號","121.488583333333","25.06807","6500200","三重區"
"241030","480-VK","2017/10/26 19:39:39","新北市三重區新興路29號","121.49218","25.053405","6500200","三重區"
"241014","543-UM","2017/10/26 19:39:39","新北市三重區河邊北街80號","121.504213333333","25.0687316666667","6500200","三重區"
"241023","545-UM","2017/10/26 19:39:41","新北市三重區忠孝路三段99巷22號","121.47947","25.0642166666667","6500200","三重區"
"241006","AAD-863","2017/10/26 19:39:56","新北市三重區聯華街77號","121.485888333333","25.0753666666667","6500200","三重區"
"241012","941-UM","2017/10/26 19:39:52","新北市三重區河邊北街256巷25號","121.500726666667","25.0760483333333","6500200","三重區"
"241029","942-UM","2017/10/26 19:39:41","新北市三重區光明路122號","121.492918333333","25.0559666666667","6500200","三重區"
"235066","003-UY","2017/10/26 19:39:54","新北市中和區景新街59號","121.504581666667","24.9989116666667","6500300","中和區"
"235064","005-UY","2017/10/26 19:39:41","新北市中和區南山路125號","121.50237","24.9972333333333","6500300","中和區"
"235063","006-UY","2017/10/26 19:39:39","新北市中和區連城路203巷10弄6號","121.494786666667","24.99725","6500300","中和區"
"235056","096-UM","2017/10/26 19:39:43","新北市中和區員山路581巷2弄22號","121.477536666667","25.0098066666667","6500300","中和區"
"235039","097-UM","2017/10/26 19:39:37","新北市中和區秀峰街103巷7弄1號","121.52022","24.9895316666667","6500300","中和區"
"235065","098-UM","2017/10/26 19:39:43","新北市中和區永和路52號","121.499193333333","25.00404","6500300","中和區"
"235040","150-BY","2017/10/26 19:39:56","新北市中和區安平路59號","121.5097","24.9952283333333","6500300","中和區"
"235058","151-BY","2017/10/26 19:39:51","新北市中和區員山路132巷22號","121.482296666667","24.99624","6500300","中和區"
"235055","183-VK","2017/10/26 19:39:39","新北市中和區中山路三段179巷3號","121.472945","25.0059466666667","6500300","中和區"
"235038","185-VK","2017/10/26 19:39:50","新北市中和區立人街39號","121.520825","24.9942466666667","6500300","中和區"
"235049","186-VK","2017/10/26 19:39:57","新北市中和區景新街212號","121.507016666667","24.9952033333333","6500300","中和區"
"235067","255-BX","2017/10/26 19:39:46","新北市中和區新生街184號","121.483581666667","24.9996816666667","6500300","中和區"
"235044","293-VK","2017/10/26 19:39:54","新北市中和區捷運路12號","121.50915","24.9898666666667","6500300","中和區"
"235072","301-VK","2017/10/26 19:39:50","新北市中和區錦和路93巷2弄1號","121.490276666667","24.995715","6500300","中和區"
"235043","352-BY","2017/10/26 19:39:58","新北市中和區興南路一段25號","121.511231666667","24.99077","6500300","中和區"
"235051","376-QA","2017/10/26 19:39:48","新北市中和區板南路100號","121.503806666667","24.9926016666667","6500300","中和區"
"235068","377-QA","2017/10/26 19:39:39","新北市中和區廟美街11-1號","121.500551666667","25.0015183333333","6500300","中和區"
"235061","378-QA","2017/10/26 19:39:46","新北市中和區員山路150-24號","121.48133","24.99802","6500300","中和區"
"235071","269-TV","2017/10/26 19:39:45","新北市中和區民樂路81號","121.48484","25.0013383333333","6500300","中和區"
"235050","4979-A6","2017/10/26 19:39:46","新北市中和區錦和路350-1號","121.490531666667","24.9935733333333","6500300","中和區"
"235069","4980-A6","2017/10/26 19:39:51","新北市中和區圓通路175號","121.497511666667","24.99508","6500300","中和區"
"235042","551-UM","2017/10/26 19:39:44","新北市中和區保健路19巷4弄16號","121.50899","24.99822","6500300","中和區"
"235070","558-UM","2017/10/26 19:39:40","新北市中和區圓通路54號","121.500616666667","24.9976116666667","6500300","中和區"
"235045","565-BX","2017/10/26 19:39:51","新北市中和區景新街383巷58號","121.514623333333","24.99058","6500300","中和區"
"235054","640-BX","2017/10/26 19:39:55","新北市中和區國光街102巷11弄1號","121.470618333333","25.000685","6500300","中和區"
"235047","732-UM","2017/10/26 19:39:54","新北市中和區景平路355號","121.504718333333","24.9933933333333","6500300","中和區"
"235046","733-UM","2017/10/26 19:39:44","新北市中和區四維街8號","121.51332","24.9872983333333","6500300","中和區"
"235062","800-TS","2017/10/26 19:39:39","新北市八里區中山路三段409號","121.368743333333","25.1341583333333","6500300","中和區"
"235057","801-TS","2017/10/26 19:39:41","新北市中和區員山路246號","121.481381666667","25.0014916666667","6500300","中和區"
"235041","802-TS","2017/10/26 19:39:44","新北市中和區中和路350巷6-1號","121.510708333333","25.0005416666667","6500300","中和區"
"235052","805-TS","2017/10/26 19:39:42","新北市中和區華新街204號","121.506573333333","24.9820183333333","6500300","中和區"
"235048","896-TW","2017/10/26 19:39:44","新北市中和區忠孝街2-7號","121.509175","24.9830066666667","6500300","中和區"
"235053","900-TW","2017/10/26 19:39:39","新北市中和區民德路198號","121.468225","24.9988316666667","6500300","中和區"
"235060","911-UM","2017/10/26 19:39:49","新北市中和區員山路314巷7弄4號","121.482163333333","25.003115","6500300","中和區"
"235037","AAC-213","2017/10/26 19:39:46","新北市中和區秀朗路三段10巷29弄5號","121.525108333333","24.9960166666667","6500300","中和區"
"235059","AAC-215","2017/10/26 19:39:44","新北市中和區圓通路319號","121.492705","24.9906666666667","6500300","中和區"
"220065","072-UY","2017/10/26 19:39:40","新北市板橋區國泰街28-2號","121.468395","25.0067833333333","6500100","板橋區"
"220086","073-UY","2017/10/26 19:39:57","新北市板橋區民權路328-4號","121.456666666667","25.016555","6500100","板橋區"
"220106","075-UY","2017/10/26 19:39:40","新北市板橋區江寧路三段42號","121.471493333333","25.0318983333333","6500100","板橋區"
"220069","AAD-861","2017/10/26 19:39:54","新北市板橋區縣民大道一段72號","121.455405","25.0041883333333","6500100","板橋區"
"220068","120-SR","2017/10/26 19:39:56","新北市板橋區中山路二段416巷2號","121.482871666667","25.0210133333333","6500100","板橋區"
"247004","336-TH","2017/10/26 19:39:52","新北市蘆洲區中華街6巷10號","121.463153333333","25.0819666666667","6501400","蘆洲區"
"226004","312-R5","2017/10/26 19:39:51","新北市平溪區靜安路三段392巷3號","121.78439","25.0495466666667","6502400","平溪區"
"228003","097-TW","2017/10/26 19:39:45","新北市貢寮區真理里美艷山街15-3號","121.923688333333","25.0680566666667","6502600","貢寮區"
"228001","212-TW","2017/10/26 19:39:50","新北市貢寮區真理里延平街22-9號","121.924685","25.0559633333333","6502600","貢寮區"
"224006","676-BX","2017/10/26 19:38:46","新北市瑞芳區八分寮路12號","121.794485","25.0869366666667","6501200","瑞芳區"
"224002","639-TC","2017/10/26 19:39:41","新北市瑞芳區民享新村22號","121.817033333333","25.105575","6501200","瑞芳區"
"227004","642-TC","2017/10/26 19:39:38","新北市雙溪區雙溪里太平路50號","121.8646","25.035375","6502500","雙溪區"
"227010","400-TW","2017/10/26 19:39:47","新北市雙溪區新基里新基北街19巷14號","121.867133333333","25.03807","6502500","雙溪區"
"253006","295-VK","2017/10/26 19:39:44","新北市石門區小坑12號","121.592898333333","25.2874016666667","6502200","石門區"
"222001","KEA-2212","2017/10/26 19:39:44","新北市深坑區北深路二段198號","121.613016666667","25.0016566666667","6501800","深坑區"
"208002","742-BX","2017/10/26 19:39:40","新北市金山區四維路31號","121.634686666667","25.2228816666667","6502700","金山區"
"208003","665-BX","2017/10/26 19:39:55","新北市金山區仁愛路20號","121.638291666667","25.2198833333333","6502700","金山區"
"208001","761-BX","2017/10/26 19:39:56","新北市金山區重和里六股林口31號","121.603058333333","25.2190583333333","6502700","金山區"
"251009","008-UM","2017/10/26 19:39:53","新北市淡水區中山北路一段196號","121.444756666667","25.1793966666667","6501000","淡水區"
"251004","009-UM","2017/10/26 19:39:39","新北市淡水區中正東路二段153號","121.459961666667","25.14655","6501000","淡水區"
"251001","011-UM","2017/10/26 19:39:48","新北市淡水區民權路59號","121.45976","25.1388033333333","6501000","淡水區"
"251007","179-VK","2017/10/26 19:39:48","新北市淡水區中正東路一段111巷23號","121.455313333333","25.16089","6501000","淡水區"
"251008","181-VK","2017/10/26 19:39:40","新北市淡水區中正路一段8巷2弄2號","121.428131666667","25.1771283333333","6501000","淡水區"
"251014","182-VK","2017/10/26 19:39:40","新北市淡水區桂竹圍4-2號","121.474541666667","25.2318583333333","6501000","淡水區"
"251010","413-VK","2017/10/26 19:39:44","新北市淡水區崁頂三路121號","121.43184","25.2008766666667","6501000","淡水區"
"251012","441-VK","2017/10/26 19:39:53","新北市淡水區中山北路三段138號","121.445665","25.1950116666667","6501000","淡水區"
"251016","442-VK","2017/10/26 19:39:53","新北市淡水區淡金路三段350巷18號","121.450748333333","25.2083616666667","6501000","淡水區"
"251005","443-VK","2017/10/26 19:39:55","新北市淡水區水源街一段47巷51號","121.444148333333","25.174055","6501000","淡水區"
"251006","561-UM","2017/10/26 19:39:57","新北市淡水區新興街71號","121.441383333333","25.179575","6501000","淡水區"
"251011","650-BX","2017/10/26 19:39:41","新北市淡水區八勢一街40號","121.461451666667","25.155075","6501000","淡水區"
"207003","550-UM","2017/10/26 19:39:55","新北市萬里區大鵬里下社49號","121.64868","25.216075","6502800","萬里區"
"207004","225-TW","2017/10/26 19:39:43","新北市萬里區萬里里瑪鋉路21號","121.687286666667","25.1753783333333","6502800","萬里區"
"252002","178-VK","2017/10/26 19:39:45","新北市三芝區中正路一段18巷34-1號","121.503893333333","25.259185","6502100","三芝區"
"252001","292-VK","2017/10/26 19:39:43","新北市三芝區公正街9號","121.499786666667","25.2574933333333","6502100","三芝區"
"237004","078-UY","2017/10/26 19:39:56","新北市三峽區插角1號","121.398568333333","24.8733183333333","6500900","三峽區"
"237007","153-BY","2017/10/26 19:39:44","新北市三峽區二鬮路71號","121.359666666667","24.9072333333333","6500900","三峽區"
"237009","210-TH","2017/10/26 19:39:47","新北市三峽區中園街62-4號","121.368055","24.9255983333333","6500900","三峽區"
"237013","252-BX","2017/10/26 19:39:42","新北市三峽區介壽路二段12-1號","121.390175","24.9348783333333","6500900","三峽區"
"237012","275-BY","2017/10/26 19:39:48","新北市三峽區民生街3號","121.374555","24.9354133333333","6500900","三峽區"
"237008","302-VK","2017/10/26 19:39:47","新北市三峽區大同路176號","121.372606666667","24.9267716666667","6500900","三峽區"
"237014","433-BY","2017/10/26 19:39:46","新北市三峽區中正路二段122號","121.366358333333","24.91716","6500900","三峽區"
"237006","5529-G3","2017/10/26 19:39:43","新北市三峽區中正路一段336巷15弄2號","121.369956666667","24.9249833333333","6500900","三峽區"
"237015","649-BX","2017/10/26 19:39:38","新北市三峽區成福路117號","121.41981","24.92976","6500900","三峽區"
"237005","AKY-6261","2017/10/26 19:39:57","新北市三峽區中山路169巷9號","121.364285","24.9359766666667","6500900","三峽區"
"236071","105-UM","2017/10/26 19:39:42","新北市土城區清水路25巷25號","121.453255","24.9807533333333","6501300","土城區"
"236042","107-UM","2017/10/26 19:39:41","新北市土城區學士路12巷2號","121.45371","24.9830366666667","6501300","土城區"
"236078","166-UM","2017/10/26 19:39:53","新北市土城區中州路52巷2弄22號","121.412553333333","24.957965","6501300","土城區"
"236030","253-BX","2017/10/26 19:39:50","新北市土城區福祥街64號","121.441533333333","24.9816166666667","6501300","土城區"
"236026","269-VK","2017/10/26 19:39:56","新北市土城區中央路二段61巷22號","121.443145","24.9787216666667","6501300","土城區"
"236037","271-VK","2017/10/26 19:39:49","新北市土城區清水路98巷3弄36號","121.458596666667","24.9808033333333","6501300","土城區"
"236021","401-BY","2017/10/26 19:39:56","新北市土城區峰廷街3號","121.469106666667","24.987415","6501300","土城區"
"236051","913-UM","2017/10/26 19:39:55","新北市土城區明德路一段40號","121.465218333333","24.9844783333333","6501300","土城區"
"236062","915-UM","2017/10/26 19:39:42","新北市土城區延平街19號","121.468216666667","24.991205","6501300","土城區"
"236053","AAC-216","2017/10/26 19:39:45","新北市土城區學府路一段145號","121.453566666667","24.986205","6501300","土城區"
"242031","AAC-296","2017/10/26 19:39:46","新北市新莊區新泰路218號","121.44667","25.0389","6500500","新莊區"
"242027","612-BX","2017/10/26 19:40:00","新北市新莊區三和路12-21號","121.442113333333","25.0385616666667","6500500","新莊區"
"242039","566-BX","2017/10/26 19:39:39","新北市新莊區民安路426-9號","121.433113333333","25.0227766666667","6500500","新莊區"
"242044","497-BY","2017/10/26 19:39:47","新北市泰山區中山路三段8-1號","121.418545","25.03225","6500500","新莊區"
"242034","442-UM","2017/10/26 19:39:45","新北市新莊區中正路342號","121.444436666667","25.0344966666667","6500500","新莊區"
"242009","173-VK","2017/10/26 19:39:56","新北市新莊區三和路12-21號","121.441986666667","25.0388133333333","6500500","新莊區"
"242001","233-RS","2017/10/26 09:03:45","新北市新莊區環河路48-7號","121.436905","25.009825","6500500","新莊區"
"242013","347-TH","2017/10/26 19:39:50","新北市新莊區中泰街104巷5弄2號","121.448666666667","25.0470383333333","6500500","新莊區"
"242017","350-TH","2017/10/26 19:39:56","新北市新莊區三和路12-21號","121.442348333333","25.0381083333333","6500500","新莊區"
"238015","755-BX","2017/10/26 19:39:43","新北市樹林區日新街117號","121.421275","24.9896633333333","6500700","樹林區"
"238023","601-UM","2017/10/26 19:39:56","新北市樹林區三福街38號","121.408043333333","25.0165833333333","6500700","樹林區"
"238018","571-TV","2017/10/26 19:39:47","新北市樹林區水源街27號","121.425266666667","24.9826716666667","6500700","樹林區"
"238024","5061-A6","2017/10/26 19:39:49","新北市樹林區佳園路一段52-5號","121.392933333333","24.9700483333333","6500700","樹林區"
"238021","KEA-2217","2017/10/26 19:39:39","新北市樹林區學勤路589號","121.383796666667","24.948855","6500700","樹林區"
"238022","KEA-2213","2017/10/26 19:39:40","新北市樹林區名園街63號","121.420125","24.9779133333333","6500700","樹林區"
"238025","303-VK","2017/10/26 19:39:44","新北市樹林區中山路一段358號","121.419085","24.9859183333333","6500700","樹林區"
"238017","283-BY","2017/10/26 19:39:56","新北市樹林區保安街二段169號","121.41491","25.0028783333333","6500700","樹林區"
"238014","282-BY","2017/10/26 19:39:44","新北市樹林區保安二街62號","121.424165","24.9954866666667","6500700","樹林區"
"238020","268-VK","2017/10/26 19:39:41","新北市樹林區俊英街109-1號","121.424763333333","25.0098","6500700","樹林區"
"238026","172-UY","2017/10/26 19:39:55","新北市樹林區佳園路二段41號","121.391633333333","24.9626266666667","6500700","樹林區"
"238016","169-UY","2017/10/26 19:39:44","新北市樹林區東和街18巷6號","121.404205","24.9813233333333","6500700","樹林區"
"239007","AAC-297","2017/10/26 19:39:47","新北市鶯歌區大湖路187-6號","121.34526","24.9705866666667","6500800","鶯歌區"
"239006","891-R6","2017/10/26 19:39:49","新北市鶯歌區文化路267號","121.35328","24.95299","6500800","鶯歌區"
"239001","417-VK","2017/10/26 19:39:42","新北市樹林區中山路三段214號","121.380431666667","24.9679633333333","6500800","鶯歌區"
"239004","193-VK","2017/10/26 19:39:54","新北市鶯歌區二甲路佳美巷29號","121.337538333333","24.9338916666667","6500800","鶯歌區"
"221008","489-VK","2017/10/26 19:39:38","新北市汐止區康寧街61巷65號","121.620091666667","25.067805","6501100","汐止區"
"221036","130-UY","2017/10/26 19:39:41","新北市汐止區汐萬路一段256巷1號","121.651763333333","25.0748516666667","6501100","汐止區"
"221015","131-UY","2017/10/26 19:39:44","新北市汐止區康寧街901號","121.651695","25.0749416666667","6501100","汐止區"
"221010","269-BY","2017/10/26 19:39:38","新北市汐止區汐萬路二段63號","121.649208333333","25.0823416666667","6501100","汐止區"
"221012","276-VK","2017/10/26 13:21:20","新北市汐止區汐萬路一段256巷3號","121.653438333333","25.07459","6501100","汐止區"
"221012","278-VK","2017/10/26 19:39:54","新北市汐止區大同路三段380號","121.681365","25.0714483333333","6501100","汐止區"
"221023","279-VK","2017/10/26 19:39:54","新北市汐止區民族六街18號","121.63004","25.068975","6501100","汐止區"
"221032","280-BY","2017/10/26 19:39:38","新北市汐止區南興路8號","121.651848333333","25.062965","6501100","汐止區"
"221027","281-BY","2017/10/26 19:39:51","新北市汐止區忠孝東路9號","121.658321666667","25.0659916666667","6501100","汐止區"
"221029","298-VK","2017/10/26 19:34:20","新北市汐止區康寧街901號","121.65157","25.0748966666667","6501100","汐止區"
"221021","299-VK","2017/10/26 19:39:54","新北市汐止區南興路6巷2號","121.651791666667","25.0633283333333","6501100","汐止區"
"221031","353-TW","2017/10/26 19:39:50","新北市汐止區福德三路127號","121.63355","25.0675766666667","6501100","汐止區"
"221025","623-UM","2017/10/26 19:39:55","新北市汐止區福安街20巷2號","121.662563333333","25.0650166666667","6501100","汐止區"
"221038","646-BX","2017/10/26 19:39:48","新北市汐止區忠孝東路225號","121.66228","25.06692","6501100","汐止區"
"221033","647-BX","2017/10/26 19:39:49","台北市南港區舊莊街二段10巷1號","121.626643333333","25.0375916666667","6501100","汐止區"
"221018","753-BX","2017/10/26 19:39:45","新北市汐止區康寧街901號","121.65153","25.0749216666667","6501100","汐止區"
"220079","145-BY","2017/10/26 19:39:53","新北市板橋區建國街107號","121.460201666667","25.0175066666667","6500100","板橋區"
"220080","200-UY","2017/10/26 19:39:59","新北市板橋區大觀路二段37巷192號","121.449578333333","25.0017466666667","6500100","板橋區"
"220082","610-BX","2017/10/26 19:39:42","新北市板橋區大觀路三段261號","121.42927","24.9920816666667","6500100","板橋區"
"220101","245-BX","2017/10/26 19:39:41","新北市板橋區莊敬路261號","121.473783333333","25.0216083333333","6500100","板橋區"
"220056","276-BY","2017/10/26 19:39:56","新北市板橋區四川路二段47巷7號","121.454328333333","24.9944","6500100","板橋區"
"220072","277-BY","2017/10/26 19:39:45","新北市板橋區金門街253巷17弄25號","121.433438333333","24.989115","6500100","板橋區"
"220071","283-VK","2017/10/26 19:39:49","新北市板橋區信義路29號","121.456923333333","24.9964833333333","6500100","板橋區"
"220094","285-UM","2017/10/26 19:39:55","新北市板橋區銘傳街96-3號","121.469676666667","25.0316166666667","6500100","板橋區"
"220053","285-VK","2017/10/26 19:39:52","新北市板橋區中山路二段150號","121.476605","25.0170833333333","6500100","板橋區"
"220083","286-VK","2017/10/26 19:39:40","新北市板橋區龍興街65巷1號","121.443381666667","25.0014033333333","6500100","板橋區"
"220081","287-VK","2017/10/26 19:39:55","新北市板橋區大觀路一段29巷131弄25號","121.450618333333","25.0046966666667","6500100","板橋區"
"220090","288-VK","2017/10/26 19:39:51","新北市板橋區長江路一段48巷1弄2號","121.459051666667","25.028755","6500100","板橋區"
"220061","293-UM","2017/10/26 19:39:48","新北市板橋區中山路二段125號","121.47511","25.0163816666667","6500100","板橋區"
"220084","296-UM","2017/10/26 19:39:50","新北市板橋區滿平街84巷100弄3號","121.42635","24.9864116666667","6500100","板橋區"
"220075","297-UM","2017/10/26 19:39:54","新北市板橋區大勇街10巷2號","121.453878333333","25.0170733333333","6500100","板橋區"
"220062","305-R5","2017/10/26 19:39:49","新北市板橋區三民路二段29巷9號","121.481695","25.018105","6500100","板橋區"
"220092","307-R5","2017/10/26 19:39:42","新北市板橋區文化路一段387巷2號","121.466945","25.022025","6500100","板橋區"
"220098","317-R6","2017/10/26 19:39:54","新北市板橋區四維路269巷33號","121.46177","25.0276966666667","6500100","板橋區"
"220064","486-VK","2017/10/26 19:39:53","新北市板橋區民權路33號","121.462276666667","25.011075","6500100","板橋區"
"220089","487-VK","2017/10/26 19:39:55","新北市板橋區陽明街249號","121.462688333333","25.0250183333333","6500100","板橋區"
"242019","280-VK","2017/10/26 19:39:52","新北市新莊區新泰路357巷3弄53號","121.44245","25.0398916666667","6500500","新莊區"
"220088","491-VK","2017/10/26 19:39:49","新北市板橋區文化路二段568號","121.47645","25.03448","6500100","板橋區"
"220035","560-BX","2017/10/26 19:39:46","新北市板橋區金華街85巷19號","121.45837","25.021465","6500100","板橋區"
"220103","561-BX","2017/10/26 19:39:52","新北市板橋區文化路一段286巷10-2號","121.467948333333","25.021365","6500100","板橋區"
"220063","609-BX","2017/10/26 19:40:00","新北市板橋區中山路二段541-6號","121.483601666667","25.0215633333333","6500100","板橋區"
"220091","637-BX","2017/10/26 19:39:57","新北市板橋區懷德街139巷21號","121.479841666667","25.0308566666667","6500100","板橋區"
"220057","686-BX","2017/10/26 19:39:45","新北市板橋區國慶路158巷3-4號","121.462085","24.995845","6500100","板橋區"
"220077","687-BX","2017/10/26 19:39:57","新北市板橋區僑中二街82號","121.446581666667","25.0098","6500100","板橋區"
"220093","689-BX","2017/10/26 19:39:55","新北市板橋區長江路一段109號","121.459726666667","25.0297283333333","6500100","板橋區"
"220054","741-BX","2017/10/26 19:39:43","新北市板橋區忠孝路237號","121.46613","25.00307","6500100","板橋區"
"220055","827-TW","2017/10/26 19:39:51","新北市板橋區國慶路149巷5號","121.461183333333","24.9969433333333","6500100","板橋區"
"220067","829-TW","2017/10/26 19:39:43","新北市板橋區漢生東路193巷57號","121.471748333333","25.0117","6500100","板橋區"
"220102","830-TW","2017/10/26 19:39:40","新北市板橋區雙十路二段70巷11號","121.475516666667","25.0284066666667","6500100","板橋區"
"220096","831-TW","2017/10/26 19:39:44","新北市板橋區民生路二段234巷77號","121.470356666667","25.0225983333333","6500100","板橋區"
"220074","895-R6","2017/10/26 19:39:53","新北市板橋區倉後街1號","121.455601666667","25.0087133333333","6500100","板橋區"
"220073","985-R7","2017/10/26 19:39:42","新北市板橋區國光路49巷17號","121.458931666667","25.0187833333333","6500100","板橋區"
"220097","AAC-210","2017/10/26 19:39:50","新北市板橋區幸福路32巷4弄15號","121.461458333333","25.0216283333333","6500100","板橋區"
"220070","AAC-253","2017/10/26 19:39:57","新北市板橋區民族路258號","121.46938","25.0071716666667","6500100","板橋區"
