"lineid","car","time","location","longitude","latitude","cityid","cityname"
"243013","AAD-798","2017/10/26 18:22:30","新北市泰山區錢厝坑13號","121.414603333333","25.0411433333333","6501600","泰山區"
"231007","189-VK","2017/10/26 11:50:28","新北市新店區安華路28-1號","121.519481666667","24.961265","6500600","新店區"
"231050","KEA-2219","2017/10/26 21:29:52","新北市新店區中正路189巷14號","121.540183333333","24.9718383333333","6500600","新店區"
"231063","645-TV","2017/10/26 21:29:38","新北市新店區吉祥街7巷1號","121.49735","24.9475166666667","6500600","新店區"
"241024","065-VK","2017/10/26 21:29:54","新北市三重區中正北路145巷1弄12號","121.48361","25.0671483333333","6500200","三重區"
"241026","066-VK","2017/10/26 21:29:54","新北市三重區環河南路220-8號","121.493351666667","25.0525516666667","6500200","三重區"
"241003","091-VK","2017/10/26 21:29:46","新北市三重區進安街106號","121.495223333333","25.0856566666667","6500200","三重區"
"241005","156-TC","2017/10/26 21:29:48","新北市三重區仁華街5號","121.483525","25.0814933333333","6500200","三重區"
"241017","265-UM","2017/10/26 21:29:57","新北市三重區中正北路25巷2號","121.493276666667","25.0627166666667","6500200","三重區"
"241016","266-UM","2017/10/26 21:29:40","新北市三重區正義北路113號","121.496898333333","25.065795","6500200","三重區"
"241007","398-BY","2017/10/26 21:29:41","新北市三重區正義北路113號","121.496888333333","25.0658133333333","6500200","三重區"
"247020","500-BY","2017/10/26 21:29:51","新北市蘆洲區永平街62號","121.45733","25.0918616666667","6501400","蘆洲區"
"247010","339-TH","2017/10/26 21:29:48","新北市蘆洲區三民路26巷33號","121.477013333333","25.0829216666667","6501400","蘆洲區"
"247008","053-VK","2017/10/26 21:29:39","新北市蘆洲區中山一路234號","121.472785","25.0802383333333","6501400","蘆洲區"
"247014","007-UY","2017/10/26 21:29:53","新北市蘆洲區永安南路二段328巷15弄15號","121.455643333333","25.083435","6501400","蘆洲區"
"247024","002-UY","2017/10/26 21:29:59","新北市五股區天乙路102-18號","121.447303333333","25.1071816666667","6501400","蘆洲區"
"251009","008-UM","2017/10/26 21:29:48","新北市淡水區民族路65巷62號","121.463483333333","25.1360233333333","6501000","淡水區"
"251004","009-UM","2017/10/26 21:29:39","新北市淡水區民權路34號","121.459546666667","25.1373666666667","6501000","淡水區"
"251001","011-UM","2017/10/26 21:29:46","新北市淡水區濱海路一段221號","121.43712","25.189875","6501000","淡水區"
"251002","012-UM","2017/10/26 21:29:40","新北市淡水區英專路151號","121.448355","25.1750083333333","6501000","淡水區"
"251008","181-VK","2017/10/26 21:29:42","新北市淡水區水源街二段126號","121.453228333333","25.1747316666667","6501000","淡水區"
"251014","182-VK","2017/10/26 21:29:40","新北市淡水區溪口28號","121.455455","25.2361983333333","6501000","淡水區"
"251010","413-VK","2017/10/26 21:29:44","新北市淡水區沙崙路25巷21號","121.420601666667","25.1823866666667","6501000","淡水區"
"251012","441-VK","2017/10/26 21:29:53","新北市淡水區淡金路四段521號","121.451458333333","25.2290283333333","6501000","淡水區"
"251016","442-VK","2017/10/26 21:29:53","新北市淡水區淡金路三段461巷11-3號","121.450563333333","25.2138833333333","6501000","淡水區"
"251005","443-VK","2017/10/26 21:29:55","新北市淡水區水源街一段39號","121.443725","25.1723","6501000","淡水區"
"251006","561-UM","2017/10/26 21:29:47","新北市淡水區公明街57號","121.44354","25.1686783333333","6501000","淡水區"
"251011","650-BX","2017/10/26 21:29:40","新北市淡水區新民街164號","121.437111666667","25.17846","6501000","淡水區"
"251003","766-UM","2017/10/26 21:29:54","新北市淡水區崁頂15-5號","121.438983333333","25.1859383333333","6501000","淡水區"
"242001","233-RS","2017/10/26 09:03:45","新北市新莊區環河路48-7號","121.436905","25.009825","6500500","新莊區"
"221012","276-VK","2017/10/26 13:21:20","新北市汐止區汐萬路一段256巷3號","121.653438333333","25.07459","6501100","汐止區"
"220070","AAC-253","2017/10/26 21:28:16","新北市八里區荖阡坑路34號","121.402676666667","25.1281833333333","6500100","板橋區"
