"lineid","car","time","location","longitude","latitude","cityid","cityname"
"243013","AAD-798","2017/10/26 18:22:30","新北市泰山區錢厝坑13號","121.414603333333","25.0411433333333","6501600","泰山區"
"231007","189-VK","2017/10/26 11:50:28","新北市新店區安華路28-1號","121.519481666667","24.961265","6500600","新店區"
"241005","156-TC","2017/10/26 21:49:43","新北市三重區集賢路87號","121.49414","25.0872066666667","6500200","三重區"
"247008","053-VK","2017/10/26 21:49:39","新北市八里區中山路三段390號","121.368211666667","25.1359366666667","6501400","蘆洲區"
"251009","008-UM","2017/10/26 21:49:48","新北市淡水區民族路35巷14號","121.465151666667","25.1373216666667","6501000","淡水區"
"251004","009-UM","2017/10/26 21:49:59","新北市淡水區自強路201巷39號","121.46227","25.1268716666667","6501000","淡水區"
"251001","011-UM","2017/10/26 21:49:46","新北市淡水區後洲路一段157號","121.427746666667","25.1986616666667","6501000","淡水區"
"251002","012-UM","2017/10/26 21:49:57","新北市淡水區大忠街139號","121.447628333333","25.1768","6501000","淡水區"
"251008","181-VK","2017/10/26 21:50:00","新北市淡水區學府路104號","121.449846666667","25.17179","6501000","淡水區"
"251016","442-VK","2017/10/26 21:49:53","新北市淡水區濱海路一段51號","121.44388","25.1887916666667","6501000","淡水區"
"251005","443-VK","2017/10/26 21:49:55","新北市淡水區鄧公路30巷8號","121.452938333333","25.169785","6501000","淡水區"
"251011","650-BX","2017/10/26 21:50:00","新北市淡水區新民街322巷9號","121.436381666667","25.1828683333333","6501000","淡水區"
"251003","766-UM","2017/10/26 21:49:54","新北市淡水區新民街276號","121.435663333333","25.1813383333333","6501000","淡水區"
"242001","233-RS","2017/10/26 09:03:45","新北市新莊區環河路48-7號","121.436905","25.009825","6500500","新莊區"
"221012","276-VK","2017/10/26 13:21:20","新北市汐止區汐萬路一段256巷3號","121.653438333333","25.07459","6501100","汐止區"
"220070","AAC-253","2017/10/26 21:49:56","新北市板橋區華東街1-9號","121.448165","24.9949633333333","6500100","板橋區"
