"lineid","car","time","location","longitude","latitude","cityid","cityname"
"232004","290-BY","2017/10/27 06:39:41","新北市坪林區北宜路八段558號","121.718103333333","24.9092366666667","6502000","坪林區"
"232015","291-BY","2017/10/27 06:39:47","新北市坪林區北宜路八段558號","121.718026666667","24.9094183333333","6502000","坪林區"
"232015","705-BZ","2017/10/27 06:39:55","新北市坪林區北宜路八段558號","121.718348333333","24.9092316666667","6502000","坪林區"
"232008","758-BX","2017/10/27 06:39:52","新北市坪林區北宜路八段558號","121.717938333333","24.9094916666667","6502000","坪林區"
"244004","657-BX","2017/10/27 06:39:36","新北市林口區粉寮路二段160巷28號","121.405115","25.090745","6501700","林口區"
"235001","157-BY","2017/10/27 06:39:52","新北市中和區和平街29-1號","121.507453333333","24.9910833333333","6500300","中和區"
"223006","022-BY","2017/10/27 06:39:49","新北市石碇區雙溪33-3號","121.649346666667","25.0091633333333","6501900","石碇區"
"223002","198-BX","2017/10/27 06:39:43","新北市石碇區小粗坑(潭邊里)1-7號","121.672816666667","24.9831433333333","6501900","石碇區"
"223003","205-TH","2017/10/27 06:39:40","新北市石碇區碇坪路一段186號","121.667793333333","24.98385","6501900","石碇區"
"223008","406-TH","2017/10/27 06:39:35","新北市石碇區小粗坑(潭邊里)14-6號","121.681133333333","24.9828316666667","6501900","石碇區"
"223001","437-BY","2017/10/27 06:39:48","新北市石碇區碇坪路一段160號","121.665096666667","24.9873","6501900","石碇區"
"227005","282-VK","2017/10/27 06:39:57","新北市雙溪區牡丹里中正路68號","121.864555","25.043925","6502500","雙溪區"
"236010","165-UM","2017/10/27 06:39:50","新北市土城區永平街51號","121.427971666667","24.95916","6501300","土城區"
