"lineid","car","time","location","longitude","latitude","cityid","cityname"
"232003","290-BY","2017/10/27 07:39:41","新北市坪林區下坑子口6-15號","121.711418333333","24.9434333333333","6502000","坪林區"
"232015","291-BY","2017/10/27 07:39:47","新北市坪林區北宜路七段338號","121.696981666667","24.9349333333333","6502000","坪林區"
"232019","705-BZ","2017/10/27 07:39:53","新北市坪林區乾溪6號","121.745536666667","24.9687533333333","6502000","坪林區"
"232008","758-BX","2017/10/27 07:39:32","新北市坪林區魚堀5-2號","121.713666666667","24.9037483333333","6502000","坪林區"
"244004","657-BX","2017/10/27 07:39:56","新北市林口區頂福里8鄰70-2號","121.33128","25.1002016666667","6501700","林口區"
"222005","289-BY","2017/10/27 07:39:57","新北市深坑區文化街39巷13號","121.618848333333","25.0011033333333","6501800","深坑區"
"231009","192-VK","2017/10/27 07:39:42","新北市新店區安華路28-1號","121.519291666667","24.9613066666667","6500600","新店區"
"235001","157-BY","2017/10/27 07:39:51","新北市中和區和平街88號","121.50743","24.9911433333333","6500300","中和區"
"226005","5620-A6","2017/10/27 07:39:43","新北市平溪區嶺腳里嶺腳寮57號","121.74787","25.031165","6502400","平溪區"
"226001","7418-A5","2017/10/27 07:39:47","新北市平溪區平湖里大厝1號","121.779581666667","25.0393433333333","6502400","平溪區"
"226003","AGD-0702","2017/10/27 07:39:49","新北市平溪區嶺腳里嶺腳寮57號","121.74787","25.0312","6502400","平溪區"
"223006","022-BY","2017/10/27 07:39:49","新北市坪林區北宜路八段422號","121.708395","24.9265383333333","6501900","石碇區"
"223002","198-BX","2017/10/27 07:39:43","新北市石碇區北宜路六段獅子頭坑巷19號","121.637788333333","24.9305616666667","6501900","石碇區"
"223003","205-TH","2017/10/27 07:39:40","新北市石碇區四分子3號","121.664028333333","24.9642116666667","6501900","石碇區"
"223008","406-TH","2017/10/27 07:39:55","新北市石碇區靜安路一段337號","121.69878","25.014645","6501900","石碇區"
"223001","437-BY","2017/10/27 07:39:47","新北市石碇區四分子6-9號","121.662533333333","24.9626466666667","6501900","石碇區"
"223004","660-BX","2017/10/27 07:39:39","新北市石碇區八分寮47號","121.642211666667","25.0138483333333","6501900","石碇區"
"223007","661-BX","2017/10/27 07:39:39","新北市石碇區大溪墘17號","121.692331666667","25.008145","6501900","石碇區"
"223005","677-TV","2017/10/27 07:39:56","新北市石碇區八分寮47號","121.64224","25.0139483333333","6501900","石碇區"
"227005","282-VK","2017/10/27 07:39:57","新北市雙溪區雙溪里太平路54號","121.864796666667","25.0354383333333","6502500","雙溪區"
"237001","159-UY","2017/10/27 07:39:44","新北市三峽區三樹路170號","121.378538333333","24.941005","6500900","三峽區"
"236010","165-UM","2017/10/27 07:39:50","新北市土城區金城路三段36號","121.4655","24.98635","6501300","土城區"
"236004","339-SR","2017/10/27 07:39:20","新北市土城區龍泉路89-3號","121.44665","24.9436533333333","6501300","土城區"
"220064","282-UM","2017/10/27 07:39:55","新北市板橋區國光路51號","121.4581","25.0179633333333","6500100","板橋區"
