"lineid","car","time","location","longitude","latitude","cityid","cityname"
"248005","653-BX","2017/11/30 09:09:38","新北市五股區水碓路10號","121.433968333333","25.072165","6501500","五股區"
"244012","069-UM","2017/11/30 09:09:38","新北市林口區中山路262-1號","121.384593333333","25.0799583333333","6501700","林口區"
"244006","080-UY","2017/11/30 09:09:55","新北市林口區竹林路155號","121.388735","25.07986","6501700","林口區"
"244018","403-UM","2017/11/30 09:09:41","新北市林口區忠孝路542巷6號","121.372845","25.06728","6501700","林口區"
"244008","410-SL","2017/11/30 09:09:39","新北市林口區民生路14號","121.375968333333","25.0862283333333","6501700","林口區"
"244022","483-VK","2017/11/30 09:09:53","新北市林口區東湖路153巷135號","121.382201666667","25.0735316666667","6501700","林口區"
"244016","485-VK","2017/11/30 09:09:39","新北市林口區文化二路一段120巷8-3號","121.367701666667","25.0695466666667","6501700","林口區"
"244003","657-BX","2017/11/30 09:09:42","新北市林口區下福99號","121.291971666667","25.1179116666667","6501700","林口區"
"244010","701-TV","2017/11/30 09:09:40","新北市林口區仁愛路一段285巷60號","121.395426666667","25.0743683333333","6501700","林口區"
"244024","837-TS","2017/11/30 09:09:51","新北市林口區文化三路二段158號","121.375646666667","25.0818733333333","6501700","林口區"
"222006","289-BY","2017/11/30 09:09:39","新北市深坑區土庫尖路92-1號","121.633965","25.0173633333333","6501800","深坑區"
"231069","188-VK","2017/11/30 08:59:15","新北市新店區新潭路三段236號","121.501575","24.9025033333333","6500600","新店區"
"231008","192-VK","2017/11/30 09:09:43","新北市新店區廣興路66巷3號","121.538845","24.9137083333333","6500600","新店區"
"226005","5620-A6","2017/11/30 09:09:43","新北市平溪區十分里十分街252號","121.778103333333","25.04492","6502400","平溪區"
"226002","7418-A5","2017/11/30 09:08:46","新北市平溪區東勢里芊蓁林9-1號","121.735986666667","24.9906933333333","6502400","平溪區"
"226003","AGD-0702","2017/11/30 09:09:45","新北市平溪區靜安路三段388號","121.781988333333","25.0484116666667","6502400","平溪區"
"223001","205-TH","2017/11/30 09:09:53","新北市石碇區北宜路五段坑內巷1號","121.636813333333","24.953215","6501900","石碇區"
"223008","406-TH","2017/11/30 09:09:34","新北市石碇區光明路耳空龜巷10-2號","121.690978333333","25.038085","6501900","石碇區"
"223001","592-UM","2017/11/30 09:09:47","新北市石碇區北宜路五段坑內巷5號","121.634986666667","24.9534666666667","6501900","石碇區"
"223004","660-BX","2017/11/30 09:09:55","新北市石碇區磨石坑13號","121.688888333333","24.973","6501900","石碇區"
"223007","661-BX","2017/11/30 09:04:37","新北市石碇區光明路17-2號","121.685286666667","25.0318583333333","6501900","石碇區"
"223005","677-TV","2017/11/30 09:09:50","新北市石碇區大崙22號","121.685168333333","24.9795733333333","6501900","石碇區"
"252004","249-BX","2017/11/30 09:09:45","新北市淡水區大埤頭1-1號","121.492865","25.1944466666667","6502100","三芝區"
"252007","AAC-283","2017/11/30 09:09:46","新北市三芝區埔頭里埔頭19號","121.491553333333","25.260175","6502100","三芝區"
"236009","165-UM","2017/11/30 09:09:39","新北市土城區金城路二段46巷1-38號","121.452431666667","24.977915","6501300","土城區"
"236003","339-SR","2017/11/30 09:09:53","新北市土城區中央路三段99-6號","121.436576666667","24.9670883333333","6501300","土城區"
"236005","498-BY","2017/11/30 09:09:54","新北市土城區中央路三段74-1號","121.436201666667","24.96742","6501300","土城區"
"242030","AAC-296","2017/11/30 09:09:40","新北市新莊區公園一路112號","121.44472","25.0379416666667","6500500","新莊區"
"242028","986-R7","2017/11/30 09:09:52","新北市新莊區中華路二段151號","121.452743333333","25.0514466666667","6500500","新莊區"
"242049","751-BX","2017/11/30 09:09:55","新北市新莊區民安西路260號","121.426015","25.013375","6500500","新莊區"
"242022","705-TV","2017/11/30 09:09:46","新北市新莊區化成路604號","121.466141666667","25.0545683333333","6500500","新莊區"
"242024","615-BX","2017/11/30 09:09:42","新北市新莊區五工一路72巷3號","121.46201","25.0671","6500500","新莊區"
"242026","612-BX","2017/11/30 09:09:43","新北市新莊區幸福路540號","121.45539","25.0494133333333","6500500","新莊區"
"242038","566-BX","2017/11/30 09:09:52","新北市新莊區龍安路441號","121.42432","25.0185716666667","6500500","新莊區"
"242043","497-BY","2017/11/30 09:09:48","新北市新莊區中正路933號","121.410493333333","25.0211016666667","6500500","新莊區"
"242055","442-UM","2017/11/30 09:09:54","新北市新莊區新莊路649巷15弄1號","121.444993333333","25.0314516666667","6500500","新莊區"
"242047","441-UM","2017/11/30 09:09:45","新北市新莊區四維路186巷1號","121.421886666667","25.0210666666667","6500500","新莊區"
"242052","440-UM","2017/11/30 09:09:38","新北市新莊區民安西路271號","121.426321666667","25.0126016666667","6500500","新莊區"
"242033","415-TV","2017/11/30 09:09:38","新北市新莊區仁愛街54巷1號","121.445025","25.03716","6500500","新莊區"
"242003","413-TV","2017/11/30 09:09:56","新北市新莊區化成路219號","121.46593","25.0524916666667","6500500","新莊區"
"242040","400-BY","2017/11/30 09:09:47","新北市新莊區天祥街54巷2弄1號","121.416661666667","25.0292333333333","6500500","新莊區"
"242059","362-BY","2017/11/30 09:09:35","新北市新莊區瓊泰路45號","121.44364","25.028595","6500500","新莊區"
"242057","353-BY","2017/11/30 09:09:44","新北市新莊區八德街85號","121.424493333333","25.0216566666667","6500500","新莊區"
"242035","133-UY","2017/11/30 09:09:57","新北市新莊區建安街9巷8號","121.429101666667","25.02659","6500500","新莊區"
"242020","135-UY","2017/11/30 09:09:54","新北市新莊區和興街41號","121.446646666667","25.040345","6500500","新莊區"
"242045","172-VK","2017/11/30 09:09:48","新北市新莊區裕民街122號","121.418148333333","25.0226933333333","6500500","新莊區"
"242008","173-VK","2017/11/30 09:09:56","新北市新莊區幸福路56號","121.457346666667","25.04956","6500500","新莊區"
"242014","175-VK","2017/11/30 09:09:47","新北市新莊區中平路53號","121.44468","25.0443016666667","6500500","新莊區"
"242001","233-RS","2017/11/30 09:09:54","新北市新莊區環河路636-7號","121.437183333333","25.0116033333333","6500500","新莊區"
"242012","346-TH","2017/11/30 09:09:42","新北市新莊區中和街161號","121.447368333333","25.05021","6500500","新莊區"
"242006","347-TH","2017/11/30 09:09:47","新北市新莊區思源路287巷1弄21號","121.459415","25.047465","6500500","新莊區"
"242018","348-TH","2017/11/30 09:09:55","新北市新莊區銘德街3號","121.459243333333","25.0437016666667","6500500","新莊區"
"242016","350-TH","2017/11/30 09:09:51","新北市新莊區三和路12-11號","121.441953333333","25.036935","6500500","新莊區"
"242010","351-TH","2017/11/30 09:09:51","新北市新莊區中信街10號","121.451291666667","25.0508616666667","6500500","新莊區"
"220057","282-UM","2017/11/30 09:09:40","新北市五股區新五路二段279號","121.442741666667","25.0860383333333","6500100","板橋區"
"242001","280-VK","2017/11/30 09:09:55","新北市新莊區中正路60號","121.461695","25.0400866666667","6500500","新莊區"
