"lineid","car","time","location","longitude","latitude","cityid","cityname"
"248005","653-BX","2017/11/30 10:22:28","新北市五股區中興路二段83巷26-6號","121.459911666667","25.0751066666667","6501500","五股區"
"244018","403-UM","2017/11/30 10:29:41","新北市林口區麗園一街15號","121.377063333333","25.0692333333333","6501700","林口區"
"244025","837-TS","2017/11/30 09:30:50","新北市林口區粉寮路二段160巷28號","121.405188333333","25.0907433333333","6501700","林口區"
"222006","289-BY","2017/11/30 10:29:39","新北市深坑區向天湖12號","121.619901666667","24.99155","6501800","深坑區"
"231069","188-VK","2017/11/30 10:29:55","新北市新店區小坑三路52-1號","121.517108333333","24.9083333333333","6500600","新店區"
"231008","192-VK","2017/11/30 10:25:03","新北市新店區小坑一路71號","121.531253333333","24.9084416666667","6500600","新店區"
"252007","AAC-283","2017/11/30 10:29:46","新北市三芝區新庄里番社后1-1號","121.501406666667","25.2645233333333","6502100","三芝區"
"242001","233-RS","2017/11/30 09:16:31","新北市新莊區環河路48-7號","121.436893333333","25.0097933333333","6500500","新莊區"
