"lineid","car","time","location","longitude","latitude","cityid","cityname"
"248005","653-BX","2017/11/30 10:37:53","新北市五股區中興路二段83巷26-6號","121.459806666667","25.0750683333333","6501500","五股區"
"244025","837-TS","2017/11/30 09:30:50","新北市林口區粉寮路二段160巷28號","121.405188333333","25.0907433333333","6501700","林口區"
"222006","289-BY","2017/11/30 10:39:39","新北市深坑區阿柔洋61號","121.606606666667","24.9983416666667","6501800","深坑區"
"231069","188-VK","2017/11/30 10:39:35","新北市新店區新潭路三段86號","121.503731666667","24.9098266666667","6500600","新店區"
"231008","192-VK","2017/11/30 10:39:43","新北市新店區小坑一路22號","121.53232","24.9138333333333","6500600","新店區"
"242001","233-RS","2017/11/30 09:16:31","新北市新莊區環河路48-7號","121.436893333333","25.0097933333333","6500500","新莊區"
