"lineid","car","time","location","longitude","latitude","cityid","cityname"
"248005","653-BX","2017/11/30 10:37:53","新北市五股區中興路二段83巷26-6號","121.459806666667","25.0750683333333","6501500","五股區"
"244018","403-UM","2017/11/30 11:13:38","新北市林口區粉寮69號","121.405093333333","25.09077","6501700","林口區"
"244025","837-TS","2017/11/30 09:30:50","新北市林口區粉寮路二段160巷28號","121.405188333333","25.0907433333333","6501700","林口區"
"231008","192-VK","2017/11/30 11:49:43","新北市新店區松林路81號","121.547045","24.9071033333333","6500600","新店區"
"235031","255-BX","2017/11/30 11:47:24","新北市中和區和城路一段271巷1號","121.485485","24.991965","6500300","中和區"
"242001","233-RS","2017/11/30 09:16:31","新北市新莊區環河路48-7號","121.436893333333","25.0097933333333","6500500","新莊區"
