"lineid","car","time","location","longitude","latitude","cityid","cityname"
"234044","148-BY","2017/11/30 13:29:41","新北市永和區秀朗路二段249號","121.526275","24.9994983333333","6500400","永和區"
"234012","149-BY","2017/11/30 13:29:53","新北市永和區永平路203巷1號","121.509303333333","25.0098633333333","6500400","永和區"
"234005","207-UY","2017/11/30 13:29:39","新北市永和區永貞路375號","121.508208333333","25.008195","6500400","永和區"
"234078","298-R6","2017/11/30 13:29:51","新北市永和區國中路104巷12弄13號","121.525628333333","25.006785","6500400","永和區"
"234036","336-UY","2017/11/30 13:29:39","新北市永和區民樂街30巷2號","121.527581666667","25.00125","6500400","永和區"
"234062","337-UY","2017/11/30 13:29:41","新北市永和區得和路243巷16號","121.520651666667","25.0008016666667","6500400","永和區"
"234084","338-UY","2017/11/30 13:29:52","新北市永和區林森路64號","121.523866666667","25.004175","6500400","永和區"
"234068","552-UM","2017/11/30 13:29:39","新北市永和區警光街5-1號","121.519753333333","25.0094916666667","6500400","永和區"
"234052","553-UM","2017/11/30 13:29:43","新北市永和區復興街19巷4號","121.5162","25.01314","6500400","永和區"
"234015","745-BX","2017/11/30 13:29:51","新北市永和區環河西路一段51巷2號","121.5139","25.01816","6500400","永和區"
"234028","746-BX","2017/11/30 13:29:48","新北市永和區民生路69號","121.522686666667","24.9972866666667","6500400","永和區"
"234060","AAD-866","2017/11/30 13:29:36","新北市永和區中正路399號","121.517111666667","25.004245","6500400","永和區"
"234040","862-TW","2017/11/30 13:29:56","新北市永和區中和路519巷5號","121.510733333333","25.00291","6500400","永和區"
"234048","863-TW","2017/11/30 13:29:47","新北市永和區仁愛路110號","121.511858333333","25.013185","6500400","永和區"
"234025","9381-KE","2017/11/30 13:29:49","新北市永和區中山路一段17巷4弄8號","121.513448333333","25.010215","6500400","永和區"
"234010","9373-KE","2017/11/30 13:29:43","新北市永和區保福路二段44巷2弄10號","121.51161","25.01186","6500400","永和區"
"248013","025-BX","2017/11/30 13:29:41","新北市五股區成泰路一段141號","121.435475","25.0729666666667","6501500","五股區"
"248015","026-BX","2017/11/30 13:29:53","新北市五股區凌雲路一段83巷34號","121.44926","25.1010033333333","6501500","五股區"
"248005","077-UY","2017/11/30 13:29:38","新北市五股區四維路59號","121.467201666667","25.071685","6501500","五股區"
"248007","095-VK","2017/11/30 13:29:40","新北市五股區四維路185巷46號","121.463396666667","25.0774283333333","6501500","五股區"
"248017","225-UY","2017/11/30 13:29:35","新北市五股區御史路269號","121.421871666667","25.1061566666667","6501500","五股區"
"248011","247-BX","2017/11/30 13:29:51","新北市五股區御成路18號","121.44174","25.09139","6501500","五股區"
"248009","272-BY","2017/11/30 13:29:56","新北市五股區明德路8號","121.433395","25.0713583333333","6501500","五股區"
"248005","653-BX","2017/11/30 10:37:53","新北市五股區中興路二段83巷26-6號","121.459806666667","25.0750683333333","6501500","五股區"
"248003","677-BX","2017/11/30 13:29:39","新北市五股區六合街3號","121.431945","25.0885383333333","6501500","五股區"
"248001","678-BX","2017/11/30 13:29:39","新北市五股區西雲路170號","121.446903333333","25.0948","6501500","五股區"
"234022","9380-KE","2017/11/30 13:29:52","新北市永和區竹林路91巷45號","121.521373333333","25.012905","6500400","永和區"
"234076","969-R7","2017/11/30 13:29:45","新北市永和區智光街53號","121.517168333333","24.997995","6500400","永和區"
"234072","AAC-211","2017/11/30 13:29:54","新北市永和區光復街60巷20弄2號","121.517678333333","25.0175616666667","6500400","永和區"
"234066","AAC-212","2017/11/30 13:29:38","新北市永和區保平路113號","121.510895","25.0066266666667","6500400","永和區"
"234001","AAC-295","2017/11/30 13:29:56","新北市永和區永和路一段107號","121.513845","25.007995","6500400","永和區"
"244018","403-UM","2017/11/30 11:13:38","新北市林口區粉寮69號","121.405093333333","25.09077","6501700","林口區"
"244003","657-BX","2017/11/30 13:29:43","新北市林口區寶斗厝坑39號","121.33478","25.119245","6501700","林口區"
"244025","837-TS","2017/11/30 09:30:50","新北市林口區粉寮路二段160巷28號","121.405188333333","25.0907433333333","6501700","林口區"
"243007","380-SR","2017/11/30 12:12:36","新北市泰山區犁頭窠3-1號","121.422261666667","25.060275","6501600","泰山區"
"243005","646-TV","2017/11/30 13:29:54","新北市泰山區錢厝坑13號","121.4142","25.0424583333333","6501600","泰山區"
"231028","046-UY","2017/11/30 13:29:44","新北市新店區安康路一段266巷4號","121.519883333333","24.964035","6500600","新店區"
"231030","047-UY","2017/11/30 13:29:46","新北市新店區安康路一段351-1號","121.519626666667","24.9638916666667","6500600","新店區"
"231029","106-UY","2017/11/30 13:29:52","新北市新店區安豐路24號","121.500651666667","24.9564833333333","6500600","新店區"
"231018","107-UY","2017/11/30 13:29:40","新北市新店區中央路218號","121.529776666667","24.973005","6500600","新店區"
"231011","108-UY","2017/11/30 13:29:50","新北市新店區德正街11號","121.543591666667","24.9730766666667","6500600","新店區"
"231021","187-VK","2017/11/30 13:29:49","新北市新店區新烏路一段58-3號","121.546176666667","24.9501383333333","6500600","新店區"
"231017","KEA-2219","2017/11/30 13:29:54","新北市新店區新烏路一段11巷7號","121.5473","24.951345","6500600","新店區"
"231026","256-BX","2017/11/30 13:29:44","新北市新店區北宜路一段3號","121.538115","24.95851","6500600","新店區"
"231034","268-BY","2017/11/30 13:29:48","新北市新店區車子路20號","121.50554","24.954575","6500600","新店區"
"231010","278-BY","2017/11/30 13:29:52","新北市新店區自由街18號","121.53516","24.9747683333333","6500600","新店區"
"231023","AAD-862","2017/11/30 13:29:37","新北市新店區北宜路一段168號","121.540366666667","24.9529366666667","6500600","新店區"
"231002","355-BY","2017/11/30 13:29:55","新北市新店區環河路64號","121.536978333333","24.9626916666667","6500600","新店區"
"231027","3712-VJ","2017/11/30 13:29:41","新北市新店區新店後街69號","121.5375","24.9551233333333","6500600","新店區"
"231025","3713-VJ","2017/11/30 13:29:50","新北市新店區中央七街61巷5號","121.528345","24.976575","6500600","新店區"
"231024","4716-K9","2017/11/30 13:29:53","新北市新店區中正路128巷17號","121.542485","24.9724266666667","6500600","新店區"
"231038","4715-K9","2017/11/30 13:29:42","新北市新店區安華路1-1號","121.519416666667","24.9605283333333","6500600","新店區"
"231035","515-UM","2017/11/30 13:29:56","新北市新店區安忠路13號","121.514736666667","24.9625683333333","6500600","新店區"
"231003","616-UM","2017/11/30 13:29:40","新北市新店區光明街143號","121.539408333333","24.962155","6500600","新店區"
"231001","619-UM","2017/11/30 13:29:57","新北市新店區中央路175-3號","121.534711666667","24.9697766666667","6500600","新店區"
"231013","719-UM","2017/11/30 13:29:52","新北市新店區中正路454-5號","121.534446666667","24.97904","6500600","新店區"
"231036","719-UY","2017/11/30 13:29:53","新北市新店區建業路47-1號","121.478695","24.955025","6500600","新店區"
"231031","720-UM","2017/11/30 13:29:53","新北市新店區安忠路57巷11弄2號","121.514293333333","24.95752","6500600","新店區"
"231005","897-TW","2017/11/30 13:29:41","新北市新店區北新路二段2號","121.542591666667","24.9706466666667","6500600","新店區"
"231006","898-TW","2017/11/30 13:29:45","新北市新店區安康路一段52巷2號","121.530066666667","24.9611866666667","6500600","新店區"
"231004","899-TW","2017/11/30 13:29:39","新北市新店區秀山路68號","121.530955","24.9609816666667","6500600","新店區"
"231037","AKT-0513","2017/11/30 13:29:37","新北市新店區薏仁坑路57號","121.490603333333","24.9639533333333","6500600","新店區"
"235030","003-UY","2017/11/30 13:29:42","新北市中和區中山路二段120號","121.502725","25.00372","6500300","中和區"
"235027","006-UY","2017/11/30 13:29:56","新北市中和區連城路347巷2弄1號","121.488205","24.995825","6500300","中和區"
"235011","031-BX","2017/11/30 13:29:43","新北市中和區興南路三段35號","121.497078333333","24.978045","6500300","中和區"
"235020","096-UM","2017/11/30 13:29:37","新北市中和區中山路二段586-2號","121.48232","25.005415","6500300","中和區"
"235003","097-UM","2017/11/30 13:29:52","新北市中和區景平路172號","121.51695","24.9925683333333","6500300","中和區"
"235029","098-UM","2017/11/30 13:29:50","新北市中和區莊敬路38巷1號","121.501693333333","25.0052416666667","6500300","中和區"
"235004","150-BY","2017/11/30 13:29:47","新北市中和區安平路59號","121.509535","24.9953066666667","6500300","中和區"
"235022","151-BY","2017/11/30 13:29:49","新北市中和區圓通路369巷165號","121.490176666667","24.982195","6500300","中和區"
"235019","183-VK","2017/11/30 13:29:25","新北市土城區延平街77號","121.46751","24.9933633333333","6500300","中和區"
"235002","185-VK","2017/11/30 13:29:45","新北市中和區秀朗路三段128巷17弄13號","121.523985","24.9932583333333","6500300","中和區"
"235001","186-VK","2017/11/30 13:29:46","新北市中和區景安路183-1號","121.504948333333","24.99317","6500300","中和區"
"235031","255-BX","2017/11/30 13:29:40","新北市中和區員山路148巷46號","121.482553333333","24.996965","6500300","中和區"
"235036","301-VK","2017/11/30 13:29:38","新北市中和區連城路269號","121.490848333333","24.9964616666667","6500300","中和區"
"235007","352-BY","2017/11/30 13:29:55","新北市中和區景平路321號","121.506083333333","24.9932866666667","6500300","中和區"
"235032","377-QA","2017/11/30 02:24:29","新北市中和區員山路36巷16-3號","121.485138333333","24.9911616666667","6500300","中和區"
"235025","378-QA","2017/11/30 13:29:43","新北市中和區民享街92號","121.474868333333","24.9997916666667","6500300","中和區"
"235035","269-TV","2017/11/30 13:29:48","新北市中和區永和路504號","121.48276","25.0121966666667","6500300","中和區"
"235014","4979-A6","2017/11/30 13:29:49","新北市中和區景新街410巷18弄19號","121.51187","24.9897633333333","6500300","中和區"
"235033","4980-A6","2017/11/30 13:29:57","新北市中和區連城路99巷59號","121.49729","24.9985483333333","6500300","中和區"
"235006","551-UM","2017/11/30 13:29:52","新北市中和區自立路56巷21號","121.52245","24.9915766666667","6500300","中和區"
"235034","558-UM","2017/11/30 13:28:03","新北市中和區圓通路61號","121.500436666667","24.9972233333333","6500300","中和區"
"235009","565-BX","2017/11/30 13:29:41","新北市中和區復興路13號","121.505801666667","24.98962","6500300","中和區"
"235018","640-BX","2017/11/30 13:29:41","新北市中和區民享街117巷2號","121.474561666667","24.9990233333333","6500300","中和區"
"235024","647-TV","2017/11/30 13:29:52","新北市中和區員山路134號","121.481158333333","24.99639","6500300","中和區"
"235010","733-UM","2017/11/30 13:29:38","新北市中和區中正路275-1號","121.495551666667","24.9936216666667","6500300","中和區"
"235026","800-TS","2017/11/30 13:29:41","新北市中和區景平路734號","121.496615","25.004055","6500300","中和區"
"235021","801-TS","2017/11/30 13:29:53","新北市中和區民安街53-12號","121.479678333333","24.999415","6500300","中和區"
"235005","802-TS","2017/11/30 13:29:55","新北市中和區中和路328號","121.509861666667","25.0010883333333","6500300","中和區"
"235016","805-TS","2017/11/30 13:29:58","新北市中和區興南路二段133號","121.505256666667","24.9842016666667","6500300","中和區"
"235012","896-TW","2017/11/30 13:29:46","新北市中和區中正路589巷15號","121.485723333333","24.9935683333333","6500300","中和區"
"235017","900-TW","2017/11/30 13:29:57","新北市土城區金城路三段210號","121.471971666667","24.9897133333333","6500300","中和區"
"235028","911-UM","2017/11/30 13:29:55","新北市中和區連城路139巷38號","121.496526666667","24.9977183333333","6500300","中和區"
"235001","157-BY","2017/11/30 13:29:48","新北市中和區興南路二段142巷25弄20號","121.502791666667","24.9841833333333","6500300","中和區"
"235001","AAC-213","2017/11/30 13:29:52","新北市中和區景德街125號","121.514998333333","24.9909883333333","6500300","中和區"
"235023","AAC-215","2017/11/30 00:12:23","新北市中和區員山路36巷16-3號","121.485026666667","24.9911966666667","6500300","中和區"
"220016","013-TV","2017/11/30 13:29:38","新北市板橋區民生路二段120號","121.470615","25.01983","6500100","板橋區"
"220034","073-UY","2017/11/30 13:29:55","新北市板橋區南雅南路二段120-16號","121.452005","24.9991816666667","6500100","板橋區"
"247009","339-TH","2017/11/30 13:29:44","新北市五股區中興路三段163號","121.44916","25.080615","6501400","蘆洲區"
"247017","001-UY","2017/11/30 13:29:57","新北市五股區中興路三段163號","121.449085","25.0806866666667","6501400","蘆洲區"
"228005","097-TW","2017/11/30 13:29:41","新北市貢寮區美豐里文秀坑8號","121.902681666667","25.0504933333333","6502600","貢寮區"
"228004","212-TW","2017/11/30 13:29:42","新北市貢寮區龍崗里石壁坑街17號","121.910405","24.9893683333333","6502600","貢寮區"
"253003","6232-TK","2017/11/30 13:29:47","新北市石門區內石門50-1號","121.571991666667","25.261795","6502200","石門區"
"253001","6251-TK","2017/11/30 13:29:36","新北市石門區下員坑21-1號","121.511458333333","25.276795","6502200","石門區"
"253002","637-UY","2017/11/30 13:29:49","新北市石門區九芎林13-1號","121.565083333333","25.2637083333333","6502200","石門區"
"253004","8270-PC","2017/11/30 13:29:44","新北市石門區阿里荖1號","121.616448333333","25.2777933333333","6502200","石門區"
"208004","AAC-292","2017/11/30 13:29:38","新北市金山區南勢湖84號","121.613241666667","25.2121533333333","6502700","金山區"
"207002","749-BX","2017/11/30 13:29:55","新北市萬里區崁腳里崁腳路166號","121.645055","25.1558233333333","6502800","萬里區"
"252005","073-UM","2017/11/30 13:29:40","新北市三芝區圓山里八連溪頭8-1號","121.528368333333","25.2206866666667","6502100","三芝區"
"207001","662-BX","2017/11/30 13:29:54","新北市萬里區龜吼里亭路11號","121.683345","25.1905433333333","6502800","萬里區"
"236005","498-BY","2017/11/30 13:29:45","新北市土城區亞洲路11巷1弄34號","121.436361666667","24.9717966666667","6501300","土城區"
"242001","233-RS","2017/11/30 09:16:31","新北市新莊區環河路48-7號","121.436893333333","25.0097933333333","6500500","新莊區"
"238021","KEA-2217","2017/11/30 13:29:47","新北市樹林區育德街78-1號","121.388121666667","24.9680783333333","6500700","樹林區"
"221012","276-VK","2017/11/30 13:12:08","新北市汐止區汐萬路一段256巷3號","121.653465","25.0746316666667","6501100","汐止區"
"221032","280-BY","2017/11/30 13:29:50","新北市汐止區水源路一段56-1號","121.656876666667","25.0654683333333","6501100","汐止區"
"221018","753-BX","2017/11/30 13:29:51","新北市汐止區福德一路430巷28號","121.624491666667","25.0601933333333","6501100","汐止區"
"220027","145-BY","2017/11/30 13:29:40","新北市板橋區大觀路二段153巷46弄11號","121.44927","24.9984133333333","6500100","板橋區"
"220030","610-BX","2017/11/30 13:29:54","新北市板橋區華東街1-10號","121.448271666667","24.9949833333333","6500100","板橋區"
"220032","296-UM","2017/11/30 13:29:40","新北市板橋區華東街1-9號","121.448181666667","24.99498","6500100","板橋區"
"220012","486-VK","2017/11/30 13:29:55","新北市板橋區館前西路53號","121.457741666667","25.006535","6500100","板橋區"
"220104","560-BX","2017/11/30 13:29:40","新北市板橋區南雅西路二段2-6號","121.453455","25.0090116666667","6500100","板橋區"
"220025","687-BX","2017/11/30 13:29:53","新北市板橋區篤行路一段34號","121.431915","24.9938866666667","6500100","板橋區"
"220002","741-BX","2017/11/30 13:29:51","新北市板橋區華東街1-9號","121.448093333333","24.9949333333333","6500100","板橋區"
"220014","829-TW","2017/11/30 13:29:38","新北市板橋區民生路二段120號","121.47045","25.0197233333333","6500100","板橋區"
"220022","895-R6","2017/11/30 13:29:39","新北市板橋區華東街1-10號","121.448228333333","24.9949866666667","6500100","板橋區"
