"lineid","car","time","location","longitude","latitude","cityid","cityname"
"234044","148-BY","2017/11/30 14:09:41","新北市永和區得和路346號","121.523761666667","24.9992866666667","6500400","永和區"
"234012","149-BY","2017/11/30 14:09:39","新北市永和區中山路一段240號","121.507593333333","25.0076666666667","6500400","永和區"
"234005","207-UY","2017/11/30 14:09:39","新北市中和區中和路234號","121.506876666667","24.9994916666667","6500400","永和區"
"234078","298-R6","2017/11/30 14:09:50","新北市永和區國中路86巷1號","121.524666666667","25.0061866666667","6500400","永和區"
"234036","336-UY","2017/11/30 14:09:36","新北市永和區成功路一段56號","121.526948333333","25.0039616666667","6500400","永和區"
"234062","337-UY","2017/11/30 14:09:41","新北市永和區永利路150號","121.522393333333","25.002745","6500400","永和區"
"234084","338-UY","2017/11/30 14:09:52","新北市永和區福和路256號","121.51848","25.0075616666667","6500400","永和區"
"234068","552-UM","2017/11/30 14:09:39","新北市永和區福和路175號","121.519958333333","25.0075733333333","6500400","永和區"
"234052","553-UM","2017/11/30 14:09:43","新北市永和區博愛街45巷2號","121.519203333333","25.015865","6500400","永和區"
"234015","745-BX","2017/11/30 14:09:42","新北市永和區仁愛路30號","121.514606666667","25.0134666666667","6500400","永和區"
"234028","746-BX","2017/11/30 14:09:51","新北市永和區民權路55號","121.520241666667","24.9969316666667","6500400","永和區"
"234060","AAD-866","2017/11/30 14:09:50","新北市永和區安樂路100巷5號","121.514226666667","24.9993516666667","6500400","永和區"
"234040","862-TW","2017/11/30 14:09:56","新北市永和區雙和街64巷23號","121.509728333333","25.0033666666667","6500400","永和區"
"234048","863-TW","2017/11/30 14:09:38","新北市永和區環河西路二段105號","121.506445","25.0146433333333","6500400","永和區"
"234025","9381-KE","2017/11/30 14:09:49","新北市永和區安樂路198巷4弄2號","121.515596666667","25.0019116666667","6500400","永和區"
"234010","9373-KE","2017/11/30 14:09:43","新北市永和區仁愛路352巷122弄13號","121.500703333333","25.008955","6500400","永和區"
"248015","026-BX","2017/11/30 14:09:53","新北市五股區成泰路三段543巷50號","121.45019","25.1027683333333","6501500","五股區"
"248007","095-VK","2017/11/30 14:09:40","新北市五股區中興路一段118巷22號","121.46604","25.0745283333333","6501500","五股區"
"248017","225-UY","2017/11/30 14:09:55","新北市五股區民義路一段245-2號","121.42907","25.090485","6501500","五股區"
"248011","247-BX","2017/11/30 14:09:51","新北市五股區工商路36巷11號","121.439786666667","25.08433","6501500","五股區"
"248009","272-BY","2017/11/30 14:09:56","新北市五股區水碓一路23號","121.430633333333","25.0712566666667","6501500","五股區"
"248005","653-BX","2017/11/30 10:37:53","新北市五股區中興路二段83巷26-6號","121.459806666667","25.0750683333333","6501500","五股區"
"248003","677-BX","2017/11/30 14:09:39","新北市五股區民義路一段185-4號","121.431845","25.0884233333333","6501500","五股區"
"248001","678-BX","2017/11/30 14:09:59","新北市五股區成泰路三段577巷33號","121.451205","25.1029583333333","6501500","五股區"
"234022","9380-KE","2017/11/30 14:09:59","新北市永和區博愛街32巷10號","121.518818333333","25.0153466666667","6500400","永和區"
"234076","969-R7","2017/11/30 14:09:45","新北市永和區民族街67巷6號","121.518763333333","24.9971666666667","6500400","永和區"
"234072","AAC-211","2017/11/30 14:09:54","新北市永和區豫溪街156號","121.523076666667","25.0099166666667","6500400","永和區"
"234066","AAC-212","2017/11/30 14:09:38","新北市永和區保平路236巷1弄1號","121.509043333333","25.0057666666667","6500400","永和區"
"234001","AAC-295","2017/11/30 14:09:56","新北市永和區中正路690號","121.516573333333","25.00956","6500400","永和區"
"244018","403-UM","2017/11/30 11:13:38","新北市林口區粉寮69號","121.405093333333","25.09077","6501700","林口區"
"244025","837-TS","2017/11/30 09:30:50","新北市林口區粉寮路二段160巷28號","121.405188333333","25.0907433333333","6501700","林口區"
"243003","267-VK","2017/11/30 14:09:48","新北市泰山區明志路二段346號","121.42587","25.0452633333333","6501600","泰山區"
"243004","AAD-798","2017/11/30 14:09:46","新北市泰山區辭修路24號","121.429006666667","25.05814","6501600","泰山區"
"243001","297-R6","2017/11/30 14:09:56","新北市泰山區文化街1巷1號","121.433756666667","25.0639766666667","6501600","泰山區"
"243007","380-SR","2017/11/30 14:09:44","新北市泰山區明志路一段431號","121.430778333333","25.0565866666667","6501600","泰山區"
"243006","421-VK","2017/11/30 14:09:39","新北市泰山區泰林路二段464-1號","121.425523333333","25.064075","6501600","泰山區"
"243002","KEA-2215","2017/11/30 14:09:33","新北市泰山區明志路一段481號","121.43107","25.0554183333333","6501600","泰山區"
"243005","646-TV","2017/11/30 14:09:53","新北市泰山區台麗街6巷11號","121.424155","25.03767","6501600","泰山區"
"243008","680-BX","2017/11/30 14:09:54","新北市泰山區明志路三段45號","121.425008333333","25.0424916666667","6501600","泰山區"
"231028","046-UY","2017/11/30 14:09:44","新北市新店區安和路二段227號","121.51728","24.976015","6500600","新店區"
"231030","047-UY","2017/11/30 14:09:46","新北市新店區安民街65巷21-2號","121.515086666667","24.96738","6500600","新店區"
"231029","106-UY","2017/11/30 14:09:52","新北市新店區安康路二段159巷10號","121.510246666667","24.9589533333333","6500600","新店區"
"231018","107-UY","2017/11/30 14:09:40","新北市新店區中央五街22號","121.529303333333","24.9743983333333","6500600","新店區"
"231011","108-UY","2017/11/30 14:09:50","新北市新店區中興路一段267號","121.544903333333","24.9674716666667","6500600","新店區"
"231021","187-VK","2017/11/30 14:09:49","新北市新店區屈尺路87巷2號","121.545531666667","24.922705","6500600","新店區"
"231017","KEA-2219","2017/11/30 14:09:47","新北市新店區郵政路4巷8號","121.55689","24.9516866666667","6500600","新店區"
"231034","268-BY","2017/11/30 14:09:48","新北市新店區黎明路3號","121.503371666667","24.9523083333333","6500600","新店區"
"231023","AAD-862","2017/11/30 14:09:37","新北市新店區北宜路一段37號","121.538385","24.9573933333333","6500600","新店區"
"231002","355-BY","2017/11/30 14:09:55","新北市新店區中正路541號","121.533485","24.98693","6500600","新店區"
"231027","3712-VJ","2017/11/30 14:09:41","新北市新店區光明街138巷13弄7號","121.54021","24.961485","6500600","新店區"
"231025","3713-VJ","2017/11/30 14:09:50","新北市新店區中正路312巷19號","121.53807","24.9752883333333","6500600","新店區"
"231024","4716-K9","2017/11/30 14:09:53","新北市新店區中央路151號","121.529433333333","24.97188","6500600","新店區"
"231038","4715-K9","2017/11/30 14:09:42","新北市新店區溪洲路121號","121.531301666667","24.9626966666667","6500600","新店區"
"231035","515-UM","2017/11/30 14:09:56","新北市新店區安和路二段113巷1弄2號","121.518296666667","24.9702","6500600","新店區"
"231003","616-UM","2017/11/30 14:09:39","新北市新店區光明街138巷13弄1號","121.540423333333","24.9611483333333","6500600","新店區"
"231001","619-UM","2017/11/30 14:09:56","新北市新店區中華路29號","121.540448333333","24.96751","6500600","新店區"
"231013","719-UM","2017/11/30 14:09:52","新北市新店區北新路三段65巷34弄21號","121.540001666667","24.981645","6500600","新店區"
"231036","719-UY","2017/11/30 14:09:53","新北市新店區安祥路109巷3弄6號","121.475546666667","24.9594666666667","6500600","新店區"
"231031","720-UM","2017/11/30 14:09:53","新北市新店區碧潭路13號","121.534595","24.9561766666667","6500600","新店區"
"231005","897-TW","2017/11/30 14:09:41","新北市新店區中興路三段304號","121.542291666667","24.9853516666667","6500600","新店區"
"231006","898-TW","2017/11/30 14:09:45","新北市新店區北宜路二段335號","121.557461666667","24.9539466666667","6500600","新店區"
"231004","899-TW","2017/11/30 14:09:39","新北市新店區北新路二段214號","121.542961666667","24.97698","6500600","新店區"
"231037","AKT-0513","2017/11/30 14:09:56","新北市新店區安康路二段341巷38號","121.496648333333","24.9543633333333","6500600","新店區"
"235030","003-UY","2017/11/30 14:09:47","新北市中和區廣福路6號","121.505873333333","25.003165","6500300","中和區"
"235027","006-UY","2017/11/30 14:09:56","新北市中和區中正路262號","121.495378333333","24.9943533333333","6500300","中和區"
"235011","031-BX","2017/11/30 14:09:43","新北市中和區興南路一段56巷1弄2號","121.510678333333","24.99085","6500300","中和區"
"235020","096-UM","2017/11/30 14:09:57","新北市中和區中正路1171號","121.481403333333","25.0094066666667","6500300","中和區"
"235003","097-UM","2017/11/30 14:09:52","新北市中和區秀峰街99號","121.520825","24.99033","6500300","中和區"
"235029","098-UM","2017/11/30 14:09:56","新北市中和區中山路二段2巷3弄8號","121.504546666667","25.0059466666667","6500300","中和區"
"235004","150-BY","2017/11/30 14:09:47","新北市中和區宜安路116號","121.510311666667","24.9980416666667","6500300","中和區"
"235022","151-BY","2017/11/30 14:09:49","新北市中和區連城路477巷6弄18號","121.482431666667","24.995065","6500300","中和區"
"235019","183-VK","2017/11/30 14:09:45","新北市中和區德光路84號","121.468971666667","25.0036583333333","6500300","中和區"
"235002","185-VK","2017/11/30 14:09:55","新北市中和區大仁街19巷1號","121.517746666667","24.993015","6500300","中和區"
"235013","186-VK","2017/11/30 14:09:46","新北市中和區明禮街5號","121.505131666667","24.995685","6500300","中和區"
"235031","255-BX","2017/11/30 14:09:40","新北市中和區新生街176巷11號","121.483063333333","24.9998833333333","6500300","中和區"
"235008","293-VK","2017/11/30 14:09:47","新北市中和區中興街235巷1號","121.500741666667","24.9897083333333","6500300","中和區"
"235036","301-VK","2017/11/30 14:09:46","新北市中和區景平路681號","121.496616666667","25.0029683333333","6500300","中和區"
"235007","352-BY","2017/11/30 14:09:55","新北市中和區景平路116號","121.519523333333","24.9915766666667","6500300","中和區"
"235032","377-QA","2017/11/30 02:24:29","新北市中和區員山路36巷16-3號","121.485138333333","24.9911616666667","6500300","中和區"
"235025","378-QA","2017/11/30 14:09:46","新北市中和區中山路三段63巷11弄2號","121.477203333333","25.0040766666667","6500300","中和區"
"235035","269-TV","2017/11/30 14:09:48","新北市中和區立德街98巷85號","121.488516666667","25.00862","6500300","中和區"
"235014","4979-A6","2017/11/30 14:09:49","新北市中和區復興路263巷9弄10號","121.503143333333","24.9896733333333","6500300","中和區"
"235033","4980-A6","2017/11/30 14:09:37","新北市中和區中山路二段152號","121.501608333333","25.00294","6500300","中和區"
"235006","551-UM","2017/11/30 14:09:52","新北市中和區立人街69巷15弄1號","121.520835","24.99358","6500300","中和區"
"235034","558-UM","2017/11/30 14:09:43","新北市中和區安和路219號","121.505785","24.99926","6500300","中和區"
"235009","565-BX","2017/11/30 14:09:41","新北市中和區景新街467巷36號","121.51538","24.9886","6500300","中和區"
"235018","640-BX","2017/11/30 14:09:41","新北市中和區國光街87號","121.470491666667","25.0001566666667","6500300","中和區"
"235024","647-TV","2017/11/30 14:09:52","新北市中和區民治街146號","121.475366666667","25.0018033333333","6500300","中和區"
"235010","733-UM","2017/11/30 14:09:38","新北市中和區忠孝街1巷9號","121.508593333333","24.9836016666667","6500300","中和區"
"235026","800-TS","2017/11/30 14:09:41","新北市中和區中山路二段372號","121.491996666667","25.0029266666667","6500300","中和區"
"235021","801-TS","2017/11/30 14:09:53","新北市中和區民利街68巷1弄1號","121.478471666667","24.9986266666667","6500300","中和區"
"235005","802-TS","2017/11/30 14:09:55","新北市中和區新興街6巷1號","121.512161666667","25.0024566666667","6500300","中和區"
"235016","805-TS","2017/11/30 14:09:38","新北市中和區興南路二段112巷2弄2號","121.504455","24.98419","6500300","中和區"
"235012","896-TW","2017/11/30 14:09:46","新北市中和區工專路147號","121.508506666667","24.9789016666667","6500300","中和區"
"235017","900-TW","2017/11/30 14:09:37","新北市中和區華福街71巷32號","121.46775","24.9969566666667","6500300","中和區"
"235028","911-UM","2017/11/30 14:09:55","新北市中和區泰和街38巷33號","121.49848","25.0012183333333","6500300","中和區"
"235001","157-BY","2017/11/30 14:09:48","新北市中和區興南路一段20-1號","121.51112","24.991","6500300","中和區"
"235001","AAC-213","2017/11/30 14:09:52","新北市中和區秀朗路三段60巷32號","121.525255","24.9949533333333","6500300","中和區"
"235023","AAC-215","2017/11/30 14:09:35","新北市中和區圓通路294巷1號","121.488816666667","24.9895116666667","6500300","中和區"
"220016","013-TV","2017/11/30 14:09:38","新北市板橋區三民路一段31巷19號","121.480161666667","25.0233283333333","6500100","板橋區"
"220013","072-UY","2017/11/30 14:09:55","新北市板橋區民族路247巷5弄48號","121.470328333333","25.0087233333333","6500100","板橋區"
"220034","073-UY","2017/11/30 14:09:35","新北市板橋區中正路236巷78號","121.458116666667","25.0194183333333","6500100","板橋區"
"220105","075-UY","2017/11/30 14:09:51","新北市板橋區雙十路三段14號","121.471646666667","25.0304","6500100","板橋區"
"220017","AAD-861","2017/11/30 14:09:40","新北市板橋區貴興路5號","121.457808333333","25.0044416666667","6500100","板橋區"
"220051","120-SR","2017/11/30 14:09:49","新北市板橋區田單街47號","121.482526666667","25.0283166666667","6500100","板橋區"
"247021","893-R6","2017/11/30 14:09:50","新北市蘆洲區三民路130號","121.470801666667","25.0874716666667","6501400","蘆洲區"
"247011","546-UM","2017/11/30 14:09:42","新北市蘆洲區信義路333號","121.477936666667","25.0868216666667","6501400","蘆洲區"
"247019","500-BY","2017/11/30 14:09:54","新北市蘆洲區民族路426巷19號","121.472978333333","25.0932133333333","6501400","蘆洲區"
"247007","341-TH","2017/11/30 14:09:41","新北市五股區四維路140號","121.468096666667","25.075225","6501400","蘆洲區"
"247009","339-TH","2017/11/30 14:09:44","新北市蘆洲區信義路285號","121.478671666667","25.085555","6501400","蘆洲區"
"247001","337-TH","2017/11/30 14:09:49","新北市蘆洲區永平街38號","121.45829","25.0910983333333","6501400","蘆洲區"
"247003","336-TH","2017/11/30 14:09:44","新北市蘆洲區長安街108巷37號","121.462221666667","25.082625","6501400","蘆洲區"
"247023","335-TH","2017/11/30 14:09:48","新北市蘆洲區光榮路88號","121.463755","25.08902","6501400","蘆洲區"
"247015","057-VK","2017/11/30 14:09:56","新北市蘆洲區光華路46巷34號","121.468026666667","25.0840983333333","6501400","蘆洲區"
"247005","056-VK","2017/11/30 14:09:43","新北市蘆洲區永安南路二段16巷15號","121.467858333333","25.0777166666667","6501400","蘆洲區"
"247013","007-UY","2017/11/30 14:09:53","新北市蘆洲區保和街32號","121.470348333333","25.0865016666667","6501400","蘆洲區"
"247017","001-UY","2017/11/30 14:09:57","新北市蘆洲區復興路111-5號","121.47662","25.088345","6501400","蘆洲區"
"228005","097-TW","2017/11/30 14:09:41","新北市雙溪區三港里雙澳路100號","121.888548333333","25.0561333333333","6502600","貢寮區"
"228004","212-TW","2017/11/30 14:09:41","新北市貢寮區雙玉里下雙溪街8號","121.91627","25.0138683333333","6502600","貢寮區"
"253003","6232-TK","2017/11/30 14:09:47","新北市石門區尖子鹿53-1號","121.582585","25.2731483333333","6502200","石門區"
"253001","6251-TK","2017/11/30 14:09:36","新北市石門區八甲43號","121.531513333333","25.2679416666667","6502200","石門區"
"253002","637-UY","2017/11/30 14:09:56","新北市石門區大溪墘3-2號","121.55163","25.2796633333333","6502200","石門區"
"253004","8270-PC","2017/11/30 14:09:40","新北市石門區阿里荖48號","121.60713","25.276015","6502200","石門區"
"208004","AAC-292","2017/11/30 14:09:38","新北市金山區重和里六股林口75號","121.601433333333","25.2169183333333","6502700","金山區"
"207002","749-BX","2017/11/30 14:09:55","新北市萬里區溪底里瑞泉路9號","121.60385","25.1442916666667","6502800","萬里區"
"252005","073-UM","2017/11/30 14:09:40","新北市三芝區橫山里橫山23-6號","121.540553333333","25.2615683333333","6502100","三芝區"
"207001","662-BX","2017/11/30 14:09:54","新北市萬里區磺潭里清水18號","121.637858333333","25.1976833333333","6502800","萬里區"
"236066","105-UM","2017/11/30 14:09:55","新北市土城區明德路一段385-1號","121.452378333333","24.9795983333333","6501300","土城區"
"236040","107-UM","2017/11/30 14:09:49","新北市土城區裕生路61號","121.447656666667","24.9861183333333","6501300","土城區"
"236028","253-BX","2017/11/30 14:09:39","新北市土城區興城路79號","121.439901666667","24.9707283333333","6501300","土城區"
"236024","269-VK","2017/11/30 14:09:47","新北市土城區承天路18號","121.439235","24.9636083333333","6501300","土城區"
"236012","270-VK","2017/11/30 14:09:54","新北市土城區學府路一段148號","121.454756666667","24.987045","6501300","土城區"
"236033","271-VK","2017/11/30 14:09:41","新北市土城區青雲路449號","121.458911666667","24.9748333333333","6501300","土城區"
"236018","401-BY","2017/11/30 14:09:55","新北市土城區員福街50號","121.4406","24.9790383333333","6501300","土城區"
"236005","498-BY","2017/11/30 14:09:57","新北市土城區中華路一段10-1號","121.44806","24.9907483333333","6501300","土城區"
"236076","752-BX","2017/11/30 14:09:43","新北市土城區永寧路32巷35號","121.428285","24.9608183333333","6501300","土城區"
"236056","912-UM","2017/11/30 14:09:54","新北市土城區中央路四段38號","121.420805","24.9608083333333","6501300","土城區"
"236047","913-UM","2017/11/30 14:09:41","新北市土城區明德路一段365-1號","121.453545","24.9790533333333","6501300","土城區"
"236060","915-UM","2017/11/30 14:09:36","新北市土城區金城路三段180號","121.467966666667","24.9877416666667","6501300","土城區"
"236052","AAC-216","2017/11/30 14:09:55","新北市土城區中華路二段98號","121.43809","24.9744533333333","6501300","土城區"
"242001","233-RS","2017/11/30 09:16:31","新北市新莊區環河路48-7號","121.436893333333","25.0097933333333","6500500","新莊區"
"221012","276-VK","2017/11/30 13:12:08","新北市汐止區汐萬路一段256巷3號","121.653465","25.0746316666667","6501100","汐止區"
"220027","145-BY","2017/11/30 14:09:40","新北市板橋區民權路260巷73號","121.46066","25.0149233333333","6500100","板橋區"
"220028","200-UY","2017/11/30 14:09:44","新北市板橋區大觀路二段7巷72號","121.449436666667","25.002995","6500100","板橋區"
"220030","610-BX","2017/11/30 14:09:54","新北市板橋區大觀路三段273號","121.428601666667","24.992455","6500100","板橋區"
"220050","245-BX","2017/11/30 14:09:48","新北市板橋區民生路二段226巷46號","121.47172","25.0221083333333","6500100","板橋區"
"220040","267-BY","2017/11/30 14:09:41","新北市板橋區萬板路472號","121.479838333333","25.0259933333333","6500100","板橋區"
"220004","276-BY","2017/11/30 14:09:39","新北市板橋區信義路110巷2弄1號","121.457908333333","24.9921833333333","6500100","板橋區"
"220020","277-BY","2017/11/30 14:09:49","新北市板橋區金門街369巷99號","121.428403333333","24.9816883333333","6500100","板橋區"
"220043","283-UM","2017/11/30 14:09:40","新北市板橋區光武街133號","121.465766666667","25.0290166666667","6500100","板橋區"
"220019","283-VK","2017/11/30 14:09:43","新北市板橋區重慶路325號","121.464011666667","24.9984366666667","6500100","板橋區"
"220001","285-VK","2017/11/30 14:09:55","新北市板橋區懷仁街35巷7號","121.47688","25.019735","6500100","板橋區"
"220031","286-VK","2017/11/30 14:09:51","新北市板橋區大觀路二段174巷173弄12號","121.441215","25.0039433333333","6500100","板橋區"
"220029","287-VK","2017/11/30 14:09:40","新北市板橋區南雅西路二段156巷6號","121.452196666667","25.0133433333333","6500100","板橋區"
"220039","288-VK","2017/11/30 14:09:46","新北市板橋區四維路291巷1號","121.461953333333","25.028305","6500100","板橋區"
"220009","293-UM","2017/11/30 14:09:45","新北市板橋區三民路二段21巷13號","121.479851666667","25.0182716666667","6500100","板橋區"
"220032","296-UM","2017/11/30 14:09:40","新北市板橋區篤行路二段90巷10號","121.431048333333","24.9918866666667","6500100","板橋區"
"220023","297-UM","2017/11/30 14:09:43","新北市板橋區大智街26號","121.455498333333","25.0149183333333","6500100","板橋區"
"220010","303-R5","2017/11/30 14:09:44","新北市板橋區三民路二段205-2號","121.479296666667","25.0132733333333","6500100","板橋區"
"220041","307-R5","2017/11/30 14:09:47","新北市板橋區文化路二段225巷60弄71號","121.46905","25.03","6500100","板橋區"
"220047","317-R6","2017/11/30 14:09:48","新北市板橋區自由路51巷14弄5號","121.464621666667","25.02367","6500100","板橋區"
"220012","486-VK","2017/11/30 14:09:55","新北市板橋區民生路一段33號","121.476391666667","25.011865","6500100","板橋區"
"220038","487-VK","2017/11/30 14:09:46","新北市板橋區文化路二段389號","121.473488333333","25.03138","6500100","板橋區"
"220037","491-VK","2017/11/30 14:09:56","新北市板橋區莊敬路56-1號","121.472765","25.02673","6500100","板橋區"
"220104","560-BX","2017/11/30 14:09:53","新北市板橋區中正路413巷1號","121.453643333333","25.0225333333333","6500100","板橋區"
"220052","561-BX","2017/11/30 14:09:48","新北市板橋區文化路一段188巷9弄39號","121.469281666667","25.0190533333333","6500100","板橋區"
"220011","609-BX","2017/11/30 14:09:54","新北市板橋區三民路二段140-3號","121.479111666667","25.0157716666667","6500100","板橋區"
"220005","686-BX","2017/11/30 14:09:42","新北市板橋區重慶路78號","121.461905","25.0062816666667","6500100","板橋區"
"220025","687-BX","2017/11/30 14:09:58","新北市板橋區龍興街65巷1號","121.443355","25.0013283333333","6500100","板橋區"
"220042","689-BX","2017/11/30 14:09:55","新北市板橋區民生路三段257號","121.464526666667","25.029355","6500100","板橋區"
"220002","741-BX","2017/11/30 14:09:51","新北市板橋區重慶路93巷32號","121.463316666667","25.0059366666667","6500100","板橋區"
"220003","827-TW","2017/11/30 14:09:50","新北市板橋區民族路53號","121.463588333333","25.0095616666667","6500100","板橋區"
"220014","829-TW","2017/11/30 14:09:56","新北市板橋區長安街232-3號","121.475155","25.012505","6500100","板橋區"
"220045","831-TW","2017/11/30 14:09:53","新北市板橋區雙十路二段51號","121.476496666667","25.0263283333333","6500100","板橋區"
"220022","895-R6","2017/11/30 14:09:39","新北市板橋區南雅南路一段115號","121.455431666667","25.0048416666667","6500100","板橋區"
"220021","985-R7","2017/11/30 14:09:54","新北市板橋區中正路35號","121.456298333333","25.013035","6500100","板橋區"
"220046","AAC-210","2017/11/30 14:09:52","新北市板橋區新海路135巷2號","121.460011666667","25.02292","6500100","板橋區"
"220018","AAC-253","2017/11/30 14:09:49","新北市板橋區四川路一段479號","121.45722","24.9973316666667","6500100","板橋區"
