"lineid","car","time","location","longitude","latitude","cityid","cityname"
"248010","272-BY","2017/11/30 15:25:42","新北市五股區中興路二段83巷26-6號","121.460011666667","25.0751033333333","6501500","五股區"
"248005","653-BX","2017/11/30 10:37:53","新北市五股區中興路二段83巷26-6號","121.459806666667","25.0750683333333","6501500","五股區"
"244018","403-UM","2017/11/30 11:13:38","新北市林口區粉寮69號","121.405093333333","25.09077","6501700","林口區"
"244025","837-TS","2017/11/30 09:30:50","新北市林口區粉寮路二段160巷28號","121.405188333333","25.0907433333333","6501700","林口區"
"243010","KEA-2215","2017/11/30 15:32:39","","121.422035","25.0610566666667","6501600","泰山區"
"231028","046-UY","2017/11/30 15:39:44","新北市新店區安康路二段382-2號","121.500431666667","24.9573433333333","6500600","新店區"
"231030","047-UY","2017/11/30 15:39:46","新北市新店區永安街109巷11號","121.521345","24.9860733333333","6500600","新店區"
"231029","106-UY","2017/11/30 15:39:32","新北市新店區安康路三段26號","121.493198333333","24.953235","6500600","新店區"
"231018","107-UY","2017/11/30 15:39:40","新北市新店區民生路156巷2號","121.528775","24.9809566666667","6500600","新店區"
"231011","108-UY","2017/11/30 15:39:30","新北市新店區寶元路一段112號","121.545291666667","24.9828083333333","6500600","新店區"
"231021","187-VK","2017/11/30 15:39:29","新北市新店區梅崗三路1號","121.558546666667","24.9312333333333","6500600","新店區"
"231017","KEA-2219","2017/11/30 15:39:45","新北市新店區北宜路二段151-1號","121.551901666667","24.9532","6500600","新店區"
"231026","256-BX","2017/11/30 15:39:49","新北市新店區三民路75巷4弄2號","121.535496666667","24.9709266666667","6500600","新店區"
"231034","268-BY","2017/11/30 15:39:48","新北市新店區玫瑰路58巷18號","121.49457","24.9467033333333","6500600","新店區"
"231046","278-BY","2017/11/30 15:39:38","新北市新店區安華路28-1號","121.519556666667","24.96115","6500600","新店區"
"231023","AAD-862","2017/11/30 15:39:37","新北市新店區中興路一段281號","121.545315","24.968265","6500600","新店區"
"231002","355-BY","2017/11/30 15:39:34","新北市新店區環河路112-1號","121.534768333333","24.96757","6500600","新店區"
"231027","3712-VJ","2017/11/30 15:24:05","新北市新店區安華路28-1號","121.51929","24.9606716666667","6500600","新店區"
"231025","3713-VJ","2017/11/30 15:39:30","新北市新店區安興路39號","121.516425","24.9709866666667","6500600","新店區"
"231038","4715-K9","2017/11/30 15:39:38","新北市新店區安康路一段258號","121.520531666667","24.9641183333333","6500600","新店區"
"231035","515-UM","2017/11/30 15:39:36","新北市新店區安興路69-1號","121.515726666667","24.97531","6500600","新店區"
"231003","616-UM","2017/11/30 15:39:40","新北市新店區中興路二段197號","121.548231666667","24.9737116666667","6500600","新店區"
"231039","718-UY","2017/11/30 15:39:37","新北市新店區寶元路二段11號","121.546045","24.982465","6500600","新店區"
"231013","719-UM","2017/11/30 15:39:37","新北市新店區永業路81巷20號","121.53086","24.9482283333333","6500600","新店區"
"231036","719-UY","2017/11/30 15:39:34","新北市新店區安康路二段456巷6號","121.493541666667","24.9544133333333","6500600","新店區"
"231031","720-UM","2017/11/30 15:39:33","新北市新店區雙城路137號","121.494326666667","24.94514","6500600","新店區"
"231005","897-TW","2017/11/30 15:39:41","新北市新店區民族路192號","121.536126666667","24.9753966666667","6500600","新店區"
"231004","899-TW","2017/11/30 15:39:39","新北市新店區民族路108號","121.538191666667","24.97736","6500600","新店區"
"231037","AKT-0513","2017/11/30 15:39:36","新北市新店區安興路105-1號","121.514591666667","24.977695","6500600","新店區"
"241028","022-UY","2017/11/30 15:39:45","新北市三重區重新路四段121號","121.484701666667","25.0524633333333","6500200","三重區"
"241015","062-VK","2017/11/30 15:39:44","新北市三重區重新路四段121號","121.485178333333","25.05205","6500200","三重區"
"241017","063-VK","2017/11/30 15:39:40","新北市三重區大仁街1號","121.491686666667","25.0635833333333","6500200","三重區"
"241005","262-UM","2017/11/30 15:39:37","新北市三重區重新路四段121號","121.484878333333","25.051995","6500200","三重區"
"241011","265-UM","2017/11/30 15:39:32","新北市三重區長壽街120巷67號","121.501923333333","25.0700233333333","6500200","三重區"
"241016","266-UM","2017/11/30 15:39:28","新北市三重區重新路四段121號","121.485116666667","25.0520633333333","6500200","三重區"
"241018","268-UM","2017/11/30 15:39:46","新北市三重區重安街98號","121.492615","25.0560883333333","6500200","三重區"
"241013","270-UM","2017/11/30 15:39:40","新北市三重區正義北路291號","121.49483","25.07056","6500200","三重區"
"241007","398-BY","2017/11/30 15:39:46","新北市三重區重新路四段121號","121.485238333333","25.0520483333333","6500200","三重區"
"241020","413-TH","2017/11/30 15:39:36","新北市三重區忠孝路二段48號","121.48511","25.0703533333333","6500200","三重區"
"241023","545-UM","2017/11/30 15:39:41","新北市三重區重新路四段121號","121.484758333333","25.0524983333333","6500200","三重區"
"241012","941-UM","2017/11/30 15:39:36","新北市三重區自強路一段73號","121.497125","25.066805","6500200","三重區"
"241029","942-UM","2017/11/30 15:39:32","新北市三重區中正南路252巷5號","121.493646666667","25.0527116666667","6500200","三重區"
"241033","AAC-255","2017/11/30 15:39:43","新北市三重區重新路五段283號","121.47936","25.0490566666667","6500200","三重區"
"235014","4979-A6","2017/11/30 15:39:49","新北市中和區中正路416號","121.49188","24.99417","6500300","中和區"
"235033","4980-A6","2017/11/30 15:39:36","新北市中和區員山路327巷20號","121.480755","25.00144","6500300","中和區"
"235023","AAC-215","2017/11/30 15:39:35","新北市中和區員山路17號","121.480403333333","24.9847716666667","6500300","中和區"
"220013","072-UY","2017/11/30 15:38:48","","121.421425","25.1119166666667","6500100","板橋區"
"227004","400-TW","2017/11/30 15:39:33","新北市雙溪區牡丹里頂坪5-1號","121.862788333333","25.0387066666667","6502500","雙溪區"
"208004","AAC-292","2017/11/30 15:39:38","新北市金山區南勢15號","121.634028333333","25.2166933333333","6502700","金山區"
"236066","105-UM","2017/11/30 15:39:35","新北市土城區中央路三段130-4號","121.434381666667","24.96578","6501300","土城區"
"236028","253-BX","2017/11/30 15:39:39","新北市土城區中央路一段143巷1號","121.447051666667","24.9878433333333","6501300","土城區"
"236024","269-VK","2017/11/30 15:39:47","新北市土城區中央路一段265號","121.445036666667","24.9853216666667","6501300","土城區"
"236012","270-VK","2017/11/30 15:39:34","新北市土城區廣明街90巷21號","121.455398333333","24.9945833333333","6501300","土城區"
"236033","271-VK","2017/11/30 15:39:41","新北市土城區明德路一段365-1號","121.45341","24.97926","6501300","土城區"
"236018","401-BY","2017/11/30 15:39:34","新北市土城區延吉街137巷6號","121.470876666667","24.9857733333333","6501300","土城區"
"236076","752-BX","2017/11/30 15:39:42","新北市土城區龍泉路18號","121.409873333333","24.9486266666667","6501300","土城區"
"236056","912-UM","2017/11/30 15:39:48","新北市土城區中央路二段93號","121.442165","24.9780183333333","6501300","土城區"
"236047","913-UM","2017/11/30 15:39:41","新北市土城區金城路三段315號","121.474973333333","24.9911866666667","6501300","土城區"
"236060","915-UM","2017/11/30 15:39:36","新北市土城區立德路95號","121.463121666667","24.9877233333333","6501300","土城區"
"236052","AAC-216","2017/11/30 15:39:40","新北市土城區學府路一段121號","121.455195","24.9872816666667","6501300","土城區"
"242001","233-RS","2017/11/30 09:16:31","新北市新莊區環河路48-7號","121.436893333333","25.0097933333333","6500500","新莊區"
"238002","755-BX","2017/11/30 15:39:44","新北市樹林區日新街83號","121.421733333333","24.9904266666667","6500700","樹林區"
"238010","601-UM","2017/11/30 15:39:46","新北市樹林區三福街114號","121.406486666667","25.0162966666667","6500700","樹林區"
"238006","599-UM","2017/11/30 15:39:41","新北市樹林區太平路206號","121.418815","24.9749133333333","6500700","樹林區"
"238005","571-TV","2017/11/30 15:39:45","新北市樹林區中華路70號","121.419611666667","24.98144","6500700","樹林區"
"238011","5061-A6","2017/11/30 15:39:37","新北市樹林區東豐街115號","121.405955","24.9744816666667","6500700","樹林區"
"238008","KEA-2217","2017/11/30 15:39:33","新北市樹林區柑園街一段23-8號","121.40429","24.9602783333333","6500700","樹林區"
"238009","KEA-2213","2017/11/30 15:39:36","新北市樹林區中華路187巷15號","121.420793333333","24.9810416666667","6500700","樹林區"
"238012","303-VK","2017/11/30 15:39:35","新北市樹林區中山路二段156號","121.412736666667","24.9826533333333","6500700","樹林區"
"238004","283-BY","2017/11/30 15:39:30","新北市樹林區保安街二段333巷2號","121.412405","25.007635","6500700","樹林區"
"238001","282-BY","2017/11/30 15:39:33","新北市樹林區潭興街107巷18號","121.42466","24.9993566666667","6500700","樹林區"
"238007","268-VK","2017/11/30 15:39:47","新北市樹林區俊英街168號","121.426725","25.00702","6500700","樹林區"
"238013","172-UY","2017/11/30 15:39:35","新北市樹林區新興街19巷2弄25號","121.40165","24.9729416666667","6500700","樹林區"
"238003","169-UY","2017/11/30 15:39:48","新北市樹林區育英街42號","121.421618333333","24.9892333333333","6500700","樹林區"
"221012","276-VK","2017/11/30 13:12:08","新北市汐止區汐萬路一段256巷3號","121.653465","25.0746316666667","6501100","汐止區"
"220050","245-BX","2017/11/30 15:39:46","新北市板橋區縣民大道二段101號","121.466643333333","25.015615","6500100","板橋區"
"220010","303-R5","2017/11/30 15:39:44","新北市八里區商港路90號","121.394705","25.1473333333333","6500100","板橋區"
"220012","486-VK","2017/11/30 15:39:42","新北市板橋區華東街1-9號","121.448276666667","24.9948816666667","6500100","板橋區"
"220038","487-VK","2017/11/30 15:39:46","新北市板橋區四維路268號","121.463253333333","25.0285433333333","6500100","板橋區"
"220052","561-BX","2017/11/30 15:39:30","新北市板橋區漢生東路45號","121.465853333333","25.01671","6500100","板橋區"
