"lineid","car","time","location","longitude","latitude","cityid","cityname"
"249005","172-UM","2017/11/30 16:39:40","新北市八里區忠孝路409號","121.415666666667","25.1611016666667","6502300","八里區"
"249002","305-UY","2017/11/30 16:39:07","新北市八里區渡船頭1號","121.434918333333","25.1508766666667","6502300","八里區"
"248010","272-BY","2017/11/30 15:25:42","新北市五股區中興路二段83巷26-6號","121.460011666667","25.0751033333333","6501500","五股區"
"248005","653-BX","2017/11/30 10:37:53","新北市五股區中興路二段83巷26-6號","121.459806666667","25.0750683333333","6501500","五股區"
"244018","403-UM","2017/11/30 11:13:38","新北市林口區粉寮69號","121.405093333333","25.09077","6501700","林口區"
"244025","837-TS","2017/11/30 09:30:50","新北市林口區粉寮路二段160巷28號","121.405188333333","25.0907433333333","6501700","林口區"
"243009","297-R6","2017/11/30 15:55:23","新北市泰山區黎明路25號","121.421993333333","25.0609633333333","6501600","泰山區"
"243010","KEA-2215","2017/11/30 15:32:39","","121.422035","25.0610566666667","6501600","泰山區"
"243016","680-BX","2017/11/30 15:50:06","新北市泰山區犁頭窠3-1號","121.42183","25.0604933333333","6501600","泰山區"
"231046","278-BY","2017/11/30 16:39:38","新北市新店區灣潭路55號","121.541801666667","24.9431566666667","6500600","新店區"
"231027","3712-VJ","2017/11/30 15:24:05","新北市新店區安華路28-1號","121.51929","24.9606716666667","6500600","新店區"
"241028","022-UY","2017/11/30 16:39:45","新北市三重區重新路三段68號","121.493496666667","25.0611466666667","6500200","三重區"
"241008","059-VK","2017/11/30 16:39:51","新北市三重區永安北路一段27巷46號","121.477813333333","25.0756433333333","6500200","三重區"
"241009","060-VK","2017/11/30 16:39:39","新北市三重區三和路四段203巷42號","121.483005","25.0797616666667","6500200","三重區"
"241031","061-VK","2017/11/30 16:39:40","新北市三重區重新路四段41巷24號","121.487406666667","25.0581716666667","6500200","三重區"
"241015","062-VK","2017/11/30 16:39:44","新北市三重區文化北路37號","121.499076666667","25.0650483333333","6500200","三重區"
"241017","063-VK","2017/11/30 16:39:40","新北市三重區中正北路25巷9號","121.492696666667","25.062205","6500200","三重區"
"241024","065-VK","2017/11/30 16:39:50","新北市三重區中正北路315巷6弄62號","121.476056666667","25.0725883333333","6500200","三重區"
"241026","066-VK","2017/11/30 16:39:49","新北市三重區福德南路56號","121.503145","25.0620266666667","6500200","三重區"
"241002","090-VK","2017/11/30 16:39:42","新北市三重區自強路五段115號","121.495985","25.0824916666667","6500200","三重區"
"241003","091-VK","2017/11/30 16:39:37","新北市三重區五華街71巷71號","121.493896666667","25.0836366666667","6500200","三重區"
"241030","156-TC","2017/11/30 16:39:37","新北市三重區環河南路286號","121.489183333333","25.0488616666667","6500200","三重區"
"241005","262-UM","2017/11/30 16:39:52","新北市三重區碧華街165號","121.486898333333","25.0823116666667","6500200","三重區"
"241011","265-UM","2017/11/30 16:39:52","新北市三重區仁愛街43巷29號","121.497928333333","25.0719516666667","6500200","三重區"
"241016","266-UM","2017/11/30 16:39:47","新北市三重區自強路一段160巷2弄6號","121.495331666667","25.06573","6500200","三重區"
"241022","267-UM","2017/11/30 16:39:52","新北市三重區三民街90號","121.485435","25.0629733333333","6500200","三重區"
"241018","268-UM","2017/11/30 16:39:46","新北市三重區六張街71號","121.493576666667","25.0701916666667","6500200","三重區"
"241032","269-UM","2017/11/30 16:39:44","新北市三重區三民街28號","121.485595","25.061285","6500200","三重區"
"241013","270-UM","2017/11/30 16:39:40","新北市三重區三和路三段101巷38號","121.495236666667","25.0728616666667","6500200","三重區"
"241025","271-UM","2017/11/30 16:39:46","新北市三重區中正北路430-3號","121.47451","25.0707783333333","6500200","三重區"
"241007","398-BY","2017/11/30 16:39:45","新北市三重區三和路四段167巷61號","121.485706666667","25.0795816666667","6500200","三重區"
"241020","413-TH","2017/11/30 16:39:56","新北市三重區後竹圍街205巷25號","121.484796666667","25.0723833333333","6500200","三重區"
"241004","475-VK","2017/11/30 16:39:46","新北市三重區仁愛街377巷53號","121.493443333333","25.0814716666667","6500200","三重區"
"241019","478-VK","2017/11/30 16:39:40","新北市三重區重陽路三段7-2號","121.489051666667","25.066545","6500200","三重區"
"241014","543-UM","2017/11/30 16:39:36","新北市三重區龍濱路41號","121.502785","25.0684416666667","6500200","三重區"
"241023","545-UM","2017/11/30 16:39:41","新北市三重區忠孝路三段50巷94號","121.48323","25.0643233333333","6500200","三重區"
"241001","547-UM","2017/11/30 16:39:38","新北市三重區仁愛街202號","121.493821666667","25.0774133333333","6500200","三重區"
"241006","AAD-863","2017/11/30 16:39:42","新北市三重區車路頭街138-1號","121.483485","25.0755033333333","6500200","三重區"
"241012","941-UM","2017/11/30 16:39:50","新北市三重區公園街21號","121.49918","25.0735466666667","6500200","三重區"
"241029","942-UM","2017/11/30 16:39:52","新北市三重區集美街168號","121.490106666667","25.0530333333333","6500200","三重區"
"241033","AAC-255","2017/11/30 16:39:43","新北市三重區光復路二段25號","121.472058333333","25.0551333333333","6500200","三重區"
"235026","800-TS","2017/11/30 16:39:41","新北市中和區連城路222巷6弄2號","121.490755","24.9978616666667","6500300","中和區"
"235064","911-UM","2017/11/30 16:17:00","新北市中和區員山路36巷16-3號","121.485051666667","24.991455","6500300","中和區"
"220013","072-UY","2017/11/30 16:39:48","新北市五股區中直路11-21號","121.427013333333","25.1094616666667","6500100","板橋區"
"247004","336-TH","2017/11/30 16:39:44","新北市五股區芳洲九路50號","121.447883333333","25.0885833333333","6501400","蘆洲區"
"247016","057-VK","2017/11/30 16:39:40","新北市五股區成洲五路22號","121.453128333333","25.1011383333333","6501400","蘆洲區"
"247006","056-VK","2017/11/30 16:39:40","新北市五股區中興路三段163號","121.448315","25.07995","6501400","蘆洲區"
"224006","676-BX","2017/11/30 16:39:47","新北市瑞芳區大寮路356-1號","121.784643333333","25.1033","6501200","瑞芳區"
"224008","275-VK","2017/11/30 16:39:44","新北市瑞芳區民權街3-1號","121.809115","25.10832","6501200","瑞芳區"
"224007","273-VK","2017/11/30 16:39:50","新北市瑞芳區月眉路47號","121.760408333333","25.1096516666667","6501200","瑞芳區"
"224005","271-BY","2017/11/30 16:39:47","新北市瑞芳區明里路122號","121.863305","25.1226783333333","6501200","瑞芳區"
"227010","642-TC","2017/11/30 16:39:49","新北市雙溪區牡丹里中正路91號","121.862088333333","25.04696","6502500","雙溪區"
"227004","400-TW","2017/11/30 16:39:52","新北市雙溪區外柑里外柑腳56號","121.807963333333","25.0178766666667","6502500","雙溪區"
"251008","181-VK","2017/11/30 16:39:32","台北市北投區中央北路四段30巷160號","121.47415","25.1404733333333","6501000","淡水區"
"251014","182-VK","2017/11/30 16:39:54","新北市淡水區興仁路160號","121.451596666667","25.2205016666667","6501000","淡水區"
"251016","442-VK","2017/11/30 16:39:51","新北市淡水區淡金路二段15號","121.446156666667","25.188875","6501000","淡水區"
"252002","AAC-283","2017/11/30 16:39:33","新北市三芝區茂長里陳厝坑15號","121.516808333333","25.2547783333333","6502100","三芝區"
"236076","752-BX","2017/11/30 16:39:42","新北市樹林區環河路600號","121.404678333333","24.9691966666667","6501300","土城區"
"242061","362-BY","2017/11/30 16:39:48","新北市新莊區新泰路255巷83號","121.442395","25.0386783333333","6500500","新莊區"
"242001","233-RS","2017/11/30 09:16:31","新北市新莊區環河路48-7號","121.436893333333","25.0097933333333","6500500","新莊區"
"238004","283-BY","2017/11/30 16:39:51","新北市樹林區光武街28號","121.415803333333","25.0055766666667","6500700","樹林區"
"238001","282-BY","2017/11/30 16:39:53","新北市樹林區大慶街99-1號","121.427685","24.99974","6500700","樹林區"
"238007","268-VK","2017/11/30 16:39:47","新北市樹林區俊英街121巷2號","121.424588333333","25.0104833333333","6500700","樹林區"
"239002","359-BY","2017/11/28 20:20:14","新北市鶯歌區二甲路13號","121.344175","24.9353916666667","6500800","鶯歌區"
"221012","276-VK","2017/11/30 13:12:08","新北市汐止區汐萬路一段256巷3號","121.653465","25.0746316666667","6501100","汐止區"
"220010","303-R5","2017/11/30 16:39:44","新北市板橋區民生路二段120號","121.470376666667","25.01969","6500100","板橋區"
