"lineid","car","time","location","longitude","latitude","cityid","cityname"
"249005","172-UM","2017/11/30 17:09:40","新北市八里區華富山3-1號","121.416613333333","25.14636","6502300","八里區"
"249001","173-UM","2017/11/30 17:09:50","新北市八里區中華路二段516號","121.399468333333","25.14519","6502300","八里區"
"249004","303-UY","2017/11/30 17:09:41","新北市八里區忠七街20號","121.42137","25.1609466666667","6502300","八里區"
"249002","305-UY","2017/11/30 17:09:47","新北市八里區龍米路二段147巷5號","121.443255","25.149405","6502300","八里區"
"249003","759-BX","2017/11/30 17:09:37","新北市八里區中山路二段470號","121.398888333333","25.1471183333333","6502300","八里區"
"248010","272-BY","2017/11/30 15:25:42","新北市五股區中興路二段83巷26-6號","121.460011666667","25.0751033333333","6501500","五股區"
"248005","653-BX","2017/11/30 10:37:53","新北市五股區中興路二段83巷26-6號","121.459806666667","25.0750683333333","6501500","五股區"
"244007","080-UY","2017/11/30 17:09:45","新北市林口區菁埔13鄰39號","121.374766666667","25.0973133333333","6501700","林口區"
"244018","403-UM","2017/11/30 17:09:35","新北市林口區仁愛路二段190號","121.38049","25.0739133333333","6501700","林口區"
"244009","410-SL","2017/11/30 17:09:49","新北市林口區竹林路432號","121.388916666667","25.0850616666667","6501700","林口區"
"244023","483-VK","2017/11/30 17:09:38","新北市林口區仁愛路一段285巷116號","121.394918333333","25.0758516666667","6501700","林口區"
"244017","485-VK","2017/11/30 17:09:29","新北市林口區粉寮69號","121.40497","25.0908866666667","6501700","林口區"
"244025","837-TS","2017/11/30 17:09:49","新北市林口區粉寮路37-1號","121.400933333333","25.0847633333333","6501700","林口區"
"244020","838-TS","2017/11/30 17:09:46","新北市林口區粉寮一街15-1號","121.405115","25.0858533333333","6501700","林口區"
"243009","297-R6","2017/11/30 15:55:23","新北市泰山區黎明路25號","121.421993333333","25.0609633333333","6501600","泰山區"
"243010","KEA-2215","2017/11/30 15:32:39","","121.422035","25.0610566666667","6501600","泰山區"
"243016","680-BX","2017/11/30 15:50:06","新北市泰山區犁頭窠3-1號","121.42183","25.0604933333333","6501600","泰山區"
"231046","278-BY","2017/11/30 17:09:38","新北市新店區直潭六街64號","121.532238333333","24.940015","6500600","新店區"
"231027","3712-VJ","2017/11/30 15:24:05","新北市新店區安華路28-1號","121.51929","24.9606716666667","6500600","新店區"
"241028","022-UY","2017/11/30 17:09:45","新北市三重區重新路三段110號","121.492351666667","25.0602366666667","6500200","三重區"
"241008","059-VK","2017/11/30 17:09:31","新北市三重區力行路二段136巷17弄2號","121.481643333333","25.0756566666667","6500200","三重區"
"241009","060-VK","2017/11/30 17:09:19","新北市三重區三和路四段215巷31號","121.482856666667","25.0798966666667","6500200","三重區"
"241031","061-VK","2017/11/30 17:09:40","新北市三重區重陽路一段113巷2弄2號","121.487503333333","25.0599083333333","6500200","三重區"
"241015","062-VK","2017/11/30 17:09:44","新北市三重區長生街24號","121.49947","25.0664333333333","6500200","三重區"
"241017","063-VK","2017/11/30 17:09:40","新北市三重區大仁街26號","121.491605","25.0637816666667","6500200","三重區"
"241024","065-VK","2017/11/30 17:09:50","新北市三重區大勇街82巷26弄20號","121.478733333333","25.0720433333333","6500200","三重區"
"241026","066-VK","2017/11/30 17:09:49","新北市三重區重新路二段58號","121.498143333333","25.0622216666667","6500200","三重區"
"241002","090-VK","2017/11/30 17:09:42","新北市三重區仁義街227號","121.496715","25.0822116666667","6500200","三重區"
"241003","091-VK","2017/11/30 17:09:37","新北市三重區富福街114號","121.493543333333","25.0856666666667","6500200","三重區"
"241030","156-TC","2017/11/30 17:09:37","新北市三重區成功路39號","121.489743333333","25.0506116666667","6500200","三重區"
"241005","262-UM","2017/11/30 17:09:37","新北市三重區碧華街26號","121.482358333333","25.08063","6500200","三重區"
"241011","265-UM","2017/11/30 17:09:32","新北市三重區仁愛街55巷96號","121.498351666667","25.0726166666667","6500200","三重區"
"241016","266-UM","2017/11/30 17:09:47","新北市三重區大同北路112號","121.493213333333","25.0639483333333","6500200","三重區"
"241022","267-UM","2017/11/30 17:09:46","新北市三重區重陽路二段26號","121.486601666667","25.062715","6500200","三重區"
"241018","268-UM","2017/11/30 17:09:46","新北市三重區正義北路332號","121.494503333333","25.0707533333333","6500200","三重區"
"241032","269-UM","2017/11/30 17:09:44","新北市三重區三陽路13巷10號","121.486005","25.0594383333333","6500200","三重區"
"241013","270-UM","2017/11/30 17:09:40","新北市三重區仁愛街88號","121.495463333333","25.0738783333333","6500200","三重區"
"241025","271-UM","2017/11/30 17:09:46","新北市三重區中正北路560巷89號","121.471393333333","25.0682566666667","6500200","三重區"
"241007","398-BY","2017/11/30 17:09:50","新北市三重區三和路四段163巷71號","121.485665","25.0792933333333","6500200","三重區"
"241020","413-TH","2017/11/30 17:09:36","新北市三重區後竹圍街175巷2弄2號","121.485876666667","25.0719633333333","6500200","三重區"
"241004","475-VK","2017/11/30 17:09:46","新北市三重區五華街98巷21號","121.491676666667","25.0819566666667","6500200","三重區"
"241019","478-VK","2017/11/30 17:09:40","新北市三重區力行路一段153巷24號","121.485938333333","25.06908","6500200","三重區"
"241014","543-UM","2017/11/30 17:09:36","新北市三重區龍濱路197號","121.501918333333","25.0713333333333","6500200","三重區"
"241023","545-UM","2017/11/30 17:09:41","新北市三重區忠孝路三段84巷1號","121.480291666667","25.064515","6500200","三重區"
"241001","547-UM","2017/11/30 17:09:38","新北市三重區仁愛街245巷9號","121.493941666667","25.0782033333333","6500200","三重區"
"241006","AAD-863","2017/11/30 17:09:42","新北市三重區三和路四段264巷2弄13號","121.485138333333","25.07684","6500200","三重區"
"241012","941-UM","2017/11/30 17:09:30","新北市三重區仁信街7號","121.501661666667","25.0757133333333","6500200","三重區"
"241029","942-UM","2017/11/30 17:09:32","新北市三重區中正南路254號","121.493193333333","25.0531666666667","6500200","三重區"
"241033","AAC-255","2017/11/30 17:09:43","新北市三重區中興北街271號","121.469146666667","25.0605866666667","6500200","三重區"
"235064","911-UM","2017/11/30 16:17:00","新北市中和區員山路36巷16-3號","121.485051666667","24.991455","6500300","中和區"
"247022","893-R6","2017/11/30 17:09:35","新北市蘆洲區三民路224號","121.468648333333","25.0893233333333","6501400","蘆洲區"
"247012","546-UM","2017/11/30 17:09:35","新北市蘆洲區信義路292巷6號","121.478081666667","25.0876783333333","6501400","蘆洲區"
"247020","500-BY","2017/11/30 17:09:46","新北市蘆洲區仁愛街62巷22號","121.472145","25.0942083333333","6501400","蘆洲區"
"247008","341-TH","2017/11/30 17:09:30","新北市蘆洲區信義路30巷123號","121.475223333333","25.0768083333333","6501400","蘆洲區"
"247010","339-TH","2017/11/30 17:09:44","新北市蘆洲區民族路38號","121.476728333333","25.084095","6501400","蘆洲區"
"247002","337-TH","2017/11/30 17:09:36","新北市蘆洲區永樂街83號","121.455656666667","25.0888433333333","6501400","蘆洲區"
"247004","336-TH","2017/11/30 17:09:44","新北市蘆洲區長安街207巷24號","121.45922","25.081705","6501400","蘆洲區"
"247024","335-TH","2017/11/30 17:09:48","新北市蘆洲區長興路37號","121.463356666667","25.0836883333333","6501400","蘆洲區"
"247016","057-VK","2017/11/30 17:09:40","新北市蘆洲區光華路73巷21號","121.46848","25.0822383333333","6501400","蘆洲區"
"247006","056-VK","2017/11/30 17:09:40","新北市蘆洲區長安街102巷61弄2號","121.462451666667","25.0822633333333","6501400","蘆洲區"
"247014","007-UY","2017/11/30 17:09:49","新北市蘆洲區中央路37巷15-15號","121.473183333333","25.0824833333333","6501400","蘆洲區"
"247018","001-UY","2017/11/30 17:09:42","新北市蘆洲區復興路154號","121.47729","25.0879416666667","6501400","蘆洲區"
"228003","097-TW","2017/11/30 17:09:51","新北市貢寮區福隆里東興街29-5號","121.949851666667","25.0180383333333","6502600","貢寮區"
"228001","212-TW","2017/11/30 17:09:31","新北市貢寮區仁理村研海街62-2號","121.92574","25.04366","6502600","貢寮區"
"228002","585-TW","2017/11/30 17:09:44","新北市貢寮區雙玉里下雙溪街2號","121.9121","25.0167266666667","6502600","貢寮區"
"224010","AGQ-8101","2017/11/30 09:43:06","新北市瑞芳區民權街3-1號","121.809321666667","25.1081733333333","6501200","瑞芳區"
"224006","676-BX","2017/11/30 17:09:47","新北市瑞芳區楓子瀨路112-1號","121.778808333333","25.099195","6501200","瑞芳區"
"224009","285-BY","2017/11/30 17:09:32","新北市瑞芳區街頂巷36號","121.843531666667","25.11057","6501200","瑞芳區"
"224008","275-VK","2017/11/30 17:09:48","新北市瑞芳區柴寮路14號","121.82462","25.0828633333333","6501200","瑞芳區"
"224007","273-VK","2017/11/30 17:09:44","新北市瑞芳區粗坑口路16號","121.761556666667","25.0988383333333","6501200","瑞芳區"
"224005","271-BY","2017/11/30 17:09:49","新北市瑞芳區鼻頭路131號","121.91637","25.1221433333333","6501200","瑞芳區"
"227010","642-TC","2017/11/30 17:09:29","新北市雙溪區三貂里子崙坑1-6號","121.849938333333","25.0574666666667","6502500","雙溪區"
"227004","400-TW","2017/11/30 17:09:33","新北市雙溪區外柑里外柑腳77號","121.80688","25.0174366666667","6502500","雙溪區"
"251009","008-UM","2017/11/30 17:09:35","新北市淡水區三民街20號","121.438998333333","25.1717166666667","6501000","淡水區"
"251005","010-UM","2017/11/30 17:09:31","新北市淡水區水源街一段145號","121.447383333333","25.17181","6501000","淡水區"
"251007","179-VK","2017/11/30 17:09:48","新北市淡水區民生路14號","121.461046666667","25.1378516666667","6501000","淡水區"
"251008","181-VK","2017/11/30 17:09:32","新北市淡水區樹梅坑7-6號","121.472271666667","25.144015","6501000","淡水區"
"251014","182-VK","2017/11/30 17:09:49","新北市淡水區八里堆9-3號","121.465003333333","25.2243683333333","6501000","淡水區"
"251010","413-VK","2017/11/30 17:09:39","新北市淡水區新市五路二段75號","121.43124","25.1982533333333","6501000","淡水區"
"251012","441-VK","2017/11/30 17:09:37","新北市淡水區新春街103-11號","121.44063","25.1818283333333","6501000","淡水區"
"251016","442-VK","2017/11/30 17:09:31","新北市淡水區社厝坑3-11號","121.474998333333","25.188685","6501000","淡水區"
"251006","561-UM","2017/11/30 17:09:40","新北市淡水區中正路一段122號","121.42299","25.1785","6501000","淡水區"
"251011","650-BX","2017/11/30 17:09:42","新北市淡水區坪頂路40號","121.457583333333","25.1622816666667","6501000","淡水區"
"251003","766-UM","2017/11/30 17:09:35","新北市淡水區中正路二段31號","121.419433333333","25.18148","6501000","淡水區"
"252001","292-VK","2017/11/30 17:09:38","新北市三芝區埔頭里埔頭37號","121.498606666667","25.260385","6502100","三芝區"
"252002","AAC-283","2017/11/30 17:09:32","新北市三芝區智成街117號","121.505931666667","25.2550783333333","6502100","三芝區"
"242031","AAC-296","2017/11/30 17:09:40","新北市新莊區新泰路357巷3弄57號","121.44208","25.0394583333333","6500500","新莊區"
"242029","986-R7","2017/11/30 17:09:33","新北市新莊區新泰路357巷3弄57號","121.442368333333","25.0393133333333","6500500","新莊區"
"242051","751-BX","2017/11/30 17:09:45","新北市新莊區三和路12-12號","121.441868333333","25.0370283333333","6500500","新莊區"
"242023","705-TV","2017/11/30 17:09:29","新北市新莊區三和路12-12號","121.442318333333","25.03706","6500500","新莊區"
"242025","615-BX","2017/11/30 17:09:33","新北市新莊區新泰路357巷3弄57號","121.44205","25.03911","6500500","新莊區"
"242027","612-BX","2017/11/30 17:09:35","新北市新莊區新泰路255巷83號","121.442085","25.03889","6500500","新莊區"
"242039","566-BX","2017/11/30 17:09:44","新北市泰山區磚雅厝3號","121.442088333333","25.0417283333333","6500500","新莊區"
"242044","497-BY","2017/11/30 17:09:38","新北市新莊區公園一路75巷5號","121.442646666667","25.0375316666667","6500500","新莊區"
"242048","441-UM","2017/11/30 17:09:33","新北市新莊區中正路723-9號","121.422903333333","25.0290566666667","6500500","新莊區"
"242053","440-UM","2017/11/30 17:09:47","新北市新莊區三和路12-11號","121.441876666667","25.0369866666667","6500500","新莊區"
"242034","415-TV","2017/11/30 15:12:48","新北市新莊區新泰路357巷3弄57號","121.442183333333","25.0393466666667","6500500","新莊區"
"242004","413-TV","2017/11/30 17:09:49","新北市新莊區新泰路357巷3弄57號","121.441883333333","25.0394283333333","6500500","新莊區"
"242042","400-BY","2017/11/30 17:09:50","新北市新莊區新泰路357巷3弄57號","121.442118333333","25.0392116666667","6500500","新莊區"
"242061","362-BY","2017/11/30 17:09:48","新北市新莊區新泰路255巷83號","121.442535","25.0387166666667","6500500","新莊區"
"242058","353-BY","2017/11/30 17:09:39","新北市新莊區新泰路255巷83號","121.442153333333","25.03896","6500500","新莊區"
"242036","133-UY","2017/11/30 17:09:33","新北市新莊區三和路12-21號","121.442396666667","25.0378883333333","6500500","新莊區"
"242021","135-UY","2017/11/30 17:09:49","新北市新莊區三和路12-21號","121.441928333333","25.0388166666667","6500500","新莊區"
"242046","172-VK","2017/11/30 10:29:13","新北市新莊區三和路12-21號","121.44209","25.0387416666667","6500500","新莊區"
"242015","175-VK","2017/11/30 17:09:42","新北市新莊區三和路12-21號","121.441973333333","25.038675","6500500","新莊區"
"242001","233-RS","2017/11/30 09:16:31","新北市新莊區環河路48-7號","121.436893333333","25.0097933333333","6500500","新莊區"
"242013","346-TH","2017/11/30 09:17:03","新北市新莊區新泰路357巷3弄57號","121.442108333333","25.0394166666667","6500500","新莊區"
"242019","348-TH","2017/11/30 10:47:22","新北市新莊區新泰路357巷3弄57號","121.442088333333","25.0395016666667","6500500","新莊區"
"242056","349-TH","2017/11/30 17:09:43","新北市新莊區三和路12-17號","121.441913333333","25.03752","6500500","新莊區"
"242017","350-TH","2017/11/30 10:33:50","新北市新莊區新泰路255巷83號","121.442071666667","25.0389133333333","6500500","新莊區"
"242011","351-TH","2017/11/30 17:09:32","新北市新莊區新泰路357巷3弄57號","121.441985","25.0395733333333","6500500","新莊區"
"238015","755-BX","2017/11/30 17:09:39","新北市樹林區八德街828-2號","121.394083333333","24.9686966666667","6500700","樹林區"
"238023","601-UM","2017/11/30 17:09:46","新北市樹林區光武街11-1號","121.414991666667","25.00625","6500700","樹林區"
"238019","599-UM","2017/11/30 17:09:41","新北市樹林區八德街682號","121.396175","24.968935","6500700","樹林區"
"238018","571-TV","2017/11/30 17:09:45","新北市樹林區水源街58號","121.425793333333","24.980985","6500700","樹林區"
"238024","5061-A6","2017/11/30 17:09:37","新北市樹林區鎮前街77-21號","121.424905","24.9901116666667","6500700","樹林區"
"238022","KEA-2213","2017/11/30 17:09:50","新北市樹林區八德街263-1號","121.419253333333","24.9738266666667","6500700","樹林區"
"238004","283-BY","2017/11/30 17:09:30","新北市樹林區光武街11-4號","121.415773333333","25.0055133333333","6500700","樹林區"
"238001","282-BY","2017/11/30 17:09:33","新北市樹林區大慶街176-1號","121.427955","24.9998683333333","6500700","樹林區"
"238020","268-VK","2017/11/30 17:09:47","新北市樹林區中山路三段210-2號","121.381971666667","24.965685","6500700","樹林區"
"238026","172-UY","2017/11/30 17:09:32","新北市樹林區八德街500號","121.399873333333","24.970315","6500700","樹林區"
"238016","169-UY","2017/11/30 17:09:48","新北市樹林區中山路二段10號","121.41755","24.9850033333333","6500700","樹林區"
"239007","AAC-297","2017/11/30 17:09:36","新北市鶯歌區中正一路53號","121.352333333333","24.95395","6500800","鶯歌區"
"239006","891-R6","2017/11/30 17:09:45","新北市鶯歌區八德路2巷39號","121.336825","24.9465333333333","6500800","鶯歌區"
"239008","527-UM","2017/11/30 17:09:39","新北市鶯歌區尖山路89號","121.348658333333","24.94935","6500800","鶯歌區"
"239005","526-UM","2017/11/30 17:09:40","新北市鶯歌區德昌街50號","121.333203333333","24.9597616666667","6500800","鶯歌區"
"239001","417-VK","2017/11/30 17:09:45","新北市鶯歌區尖山路129號","121.347048333333","24.9488316666667","6500800","鶯歌區"
"239003","360-BY","2017/11/30 17:09:51","新北市鶯歌區八德路50號","121.33025","24.955565","6500800","鶯歌區"
"239002","359-BY","2017/11/30 17:09:47","新北市鶯歌區建國路149號","121.350675","24.9535933333333","6500800","鶯歌區"
"239004","193-VK","2017/11/30 17:09:39","新北市鶯歌區文化路324巷8弄2衖2號","121.350021666667","24.9450333333333","6500800","鶯歌區"
"221012","276-VK","2017/11/30 13:12:08","新北市汐止區汐萬路一段256巷3號","121.653465","25.0746316666667","6501100","汐止區"
"220010","303-R5","2017/11/30 16:40:01","新北市板橋區民生路二段120號","121.470393333333","25.0197033333333","6500100","板橋區"
