"lineid","car","time","location","longitude","latitude","cityid","cityname"
"249005","172-UM","2017/11/30 17:19:40","新北市五股區中直路70號","121.415266666667","25.123085","6502300","八里區"
"249001","173-UM","2017/11/30 17:19:30","新北市八里區中華路二段165巷2-1號","121.407636666667","25.1508383333333","6502300","八里區"
"249004","303-UY","2017/11/30 17:19:41","新北市八里區中山路一段90號","121.42099","25.1593983333333","6502300","八里區"
"249002","305-UY","2017/11/30 17:19:47","新北市八里區龍米路二段117巷37號","121.443338333333","25.1418633333333","6502300","八里區"
"249003","759-BX","2017/11/30 17:19:37","新北市八里區中山路二段435號","121.396893333333","25.1459933333333","6502300","八里區"
"248010","272-BY","2017/11/30 15:25:42","新北市五股區中興路二段83巷26-6號","121.460011666667","25.0751033333333","6501500","五股區"
"248005","653-BX","2017/11/30 10:37:53","新北市五股區中興路二段83巷26-6號","121.459806666667","25.0750683333333","6501500","五股區"
"244007","080-UY","2017/11/30 17:19:45","新北市林口區菁埔48-20號","121.378696666667","25.094815","6501700","林口區"
"244019","403-UM","2017/11/30 17:19:35","新北市林口區公園路223巷1號","121.373885","25.0748333333333","6501700","林口區"
"244009","410-SL","2017/11/30 17:19:49","新北市林口區文化北路二段550巷3號","121.378426666667","25.0922833333333","6501700","林口區"
"244023","483-VK","2017/11/30 17:19:43","新北市林口區隆林街2號","121.389611666667","25.0753933333333","6501700","林口區"
"244017","485-VK","2017/11/30 17:19:29","新北市林口區粉寮69號","121.405026666667","25.090895","6501700","林口區"
"244011","701-TV","2017/11/30 17:19:42","新北市林口區粉寮69號","121.405031666667","25.0908633333333","6501700","林口區"
"244025","837-TS","2017/11/30 17:19:49","新北市林口區文化三路二段302號","121.37761","25.0839683333333","6501700","林口區"
"244020","838-TS","2017/11/30 17:19:33","新北市林口區粉寮路二段281號","121.404523333333","25.093595","6501700","林口區"
"243009","297-R6","2017/11/30 15:55:23","新北市泰山區黎明路25號","121.421993333333","25.0609633333333","6501600","泰山區"
"243010","KEA-2215","2017/11/30 15:32:39","","121.422035","25.0610566666667","6501600","泰山區"
"243016","680-BX","2017/11/30 15:50:06","新北市泰山區犁頭窠3-1號","121.42183","25.0604933333333","6501600","泰山區"
"231046","278-BY","2017/11/30 17:19:38","新北市新店區直潭路92號","121.530895","24.9376283333333","6500600","新店區"
"231027","3712-VJ","2017/11/30 15:24:05","新北市新店區安華路28-1號","121.51929","24.9606716666667","6500600","新店區"
"241028","022-UY","2017/11/30 17:19:45","新北市三重區仁化街42號","121.4937","25.0592983333333","6500200","三重區"
"241008","059-VK","2017/11/30 17:19:33","新北市三重區下竹圍街12號","121.480846666667","25.0758466666667","6500200","三重區"
"241009","060-VK","2017/11/30 17:19:39","新北市三重區三和路四段231巷111號","121.483701666667","25.08053","6500200","三重區"
"241015","062-VK","2017/11/30 17:19:44","新北市三重區長元街82-1號","121.501888333333","25.0663416666667","6500200","三重區"
"241017","063-VK","2017/11/30 17:19:40","新北市三重區大同北路55號","121.495128333333","25.0632083333333","6500200","三重區"
"241024","065-VK","2017/11/30 17:19:30","新北市三重區中正北路193巷11弄32號","121.478158333333","25.0704766666667","6500200","三重區"
"241026","066-VK","2017/11/30 17:19:49","新北市三重區福裕街16號","121.49965","25.061615","6500200","三重區"
"241002","090-VK","2017/11/30 17:19:42","新北市三重區自強路五段17號","121.492843333333","25.0806416666667","6500200","三重區"
"241003","091-VK","2017/11/30 17:19:37","新北市三重區富福街46號","121.49149","25.0842816666667","6500200","三重區"
"241030","156-TC","2017/11/30 17:19:37","新北市三重區集美街115號","121.489796666667","25.052965","6500200","三重區"
"241005","262-UM","2017/11/30 17:19:44","新北市三重區永安北路二段25巷60號","121.483536666667","25.0820833333333","6500200","三重區"
"241011","265-UM","2017/11/30 17:19:32","新北市三重區龍濱路172號","121.501378333333","25.0727533333333","6500200","三重區"
"241016","266-UM","2017/11/30 17:19:47","新北市三重區中正北路25巷25弄5號","121.493355","25.0627166666667","6500200","三重區"
"241022","267-UM","2017/11/30 17:19:46","新北市三重區中正北路64巷24號","121.486115","25.0637216666667","6500200","三重區"
"241018","268-UM","2017/11/30 17:19:46","新北市三重區安慶街161號","121.49415","25.06871","6500200","三重區"
"241032","269-UM","2017/11/30 17:19:45","新北市三重區中華路20巷20號","121.482596666667","25.0607916666667","6500200","三重區"
"241013","270-UM","2017/11/30 17:19:40","新北市三重區仁愛街106號","121.495276666667","25.0741733333333","6500200","三重區"
"241025","271-UM","2017/11/30 17:19:46","新北市三重區中正北路380號","121.476671666667","25.0697983333333","6500200","三重區"
"241007","398-BY","2017/11/30 17:19:45","新北市三重區慈愛街9號","121.485058333333","25.0785866666667","6500200","三重區"
"241020","413-TH","2017/11/30 17:19:36","新北市三重區自強路三段64號","121.486696666667","25.073195","6500200","三重區"
"241004","475-VK","2017/11/30 17:19:46","新北市三重區五華街122巷17號","121.491123333333","25.0828516666667","6500200","三重區"
"241019","478-VK","2017/11/30 17:19:40","新北市三重區忠孝路二段40號","121.485433333333","25.07063","6500200","三重區"
"241014","543-UM","2017/11/30 17:19:36","新北市三重區長榮路6號","121.500046666667","25.0684983333333","6500200","三重區"
"241023","545-UM","2017/11/30 17:19:41","新北市三重區三民街176號","121.482021666667","25.0656083333333","6500200","三重區"
"241001","547-UM","2017/11/30 17:19:38","新北市三重區仁愛街269巷24號","121.493818333333","25.0792183333333","6500200","三重區"
"241012","941-UM","2017/11/30 17:19:31","新北市三重區仁昌街102號","121.499898333333","25.07513","6500200","三重區"
"241029","942-UM","2017/11/30 17:19:32","新北市三重區重新路三段150號","121.490855","25.0592533333333","6500200","三重區"
"241033","AAC-255","2017/11/30 17:19:43","新北市新莊區化成路630巷19弄12號","121.467233333333","25.05588","6500200","三重區"
"235064","911-UM","2017/11/30 16:17:00","新北市中和區員山路36巷16-3號","121.485051666667","24.991455","6500300","中和區"
"247022","893-R6","2017/11/30 17:19:35","新北市蘆洲區三民路128巷68號","121.470151666667","25.0892766666667","6501400","蘆洲區"
"247012","546-UM","2017/11/30 17:19:35","新北市蘆洲區信義路319巷2號","121.47809","25.08636","6501400","蘆洲區"
"247020","500-BY","2017/11/30 17:19:46","新北市蘆洲區仁愛街25號","121.47233","25.09267","6501400","蘆洲區"
"247008","341-TH","2017/11/30 17:19:30","新北市三重區永安北路一段47號","121.476768333333","25.0764","6501400","蘆洲區"
"247010","339-TH","2017/11/30 17:19:44","新北市蘆洲區中山一路122巷54號","121.476575","25.0828016666667","6501400","蘆洲區"
"247002","337-TH","2017/11/30 17:19:36","新北市蘆洲區永樂街38巷45弄13號","121.45764","25.0898016666667","6501400","蘆洲區"
"247004","336-TH","2017/11/30 17:19:44","新北市蘆洲區中原路34號","121.459921666667","25.082755","6501400","蘆洲區"
"247024","335-TH","2017/11/30 17:19:48","新北市蘆洲區長榮路156-6號","121.460778333333","25.0853916666667","6501400","蘆洲區"
"247016","057-VK","2017/11/30 17:19:40","新北市蘆洲區正和街94號","121.468126666667","25.0807333333333","6501400","蘆洲區"
"247006","056-VK","2017/11/30 17:19:40","新北市蘆洲區永安南路二段156號","121.461891666667","25.079115","6501400","蘆洲區"
"247014","007-UY","2017/11/30 17:19:29","新北市蘆洲區中正路81號","121.470131666667","25.0835833333333","6501400","蘆洲區"
"247018","001-UY","2017/11/30 17:19:22","新北市蘆洲區民權路80號","121.474625","25.08758","6501400","蘆洲區"
"228003","097-TW","2017/11/30 17:19:31","新北市貢寮區福隆里東興街100號","121.946186666667","25.0169466666667","6502600","貢寮區"
"228001","212-TW","2017/11/30 17:19:31","新北市貢寮區仁理村尖山腳街18-3號","121.925506666667","25.0483466666667","6502600","貢寮區"
"228002","585-TW","2017/11/30 17:19:44","新北市貢寮區雙玉里田寮洋街42號","121.925761666667","25.012565","6502600","貢寮區"
"224010","AGQ-8101","2017/11/30 09:43:06","新北市瑞芳區民權街3-1號","121.809321666667","25.1081733333333","6501200","瑞芳區"
"224006","676-BX","2017/11/30 17:19:47","新北市瑞芳區大寮路23號","121.782633333333","25.098875","6501200","瑞芳區"
"224009","285-BY","2017/11/30 17:19:30","新北市瑞芳區汽車路93-9號","121.842903333333","25.10954","6501200","瑞芳區"
"224008","275-VK","2017/11/30 17:19:44","新北市瑞芳區九芎橋路14號","121.832076666667","25.09122","6501200","瑞芳區"
"224007","273-VK","2017/11/30 17:19:30","新北市瑞芳區頂坪路工業區7號","121.792585","25.1019033333333","6501200","瑞芳區"
"224005","271-BY","2017/11/30 17:19:47","新北市瑞芳區南雅路1號","121.890443333333","25.1195616666667","6501200","瑞芳區"
"227010","642-TC","2017/11/30 17:19:49","新北市雙溪區三貂里十三層17-3號","121.853621666667","25.0788316666667","6502500","雙溪區"
"227004","400-TW","2017/11/30 17:19:33","新北市雙溪區上林里內平林90號","121.827555","25.0274616666667","6502500","雙溪區"
"251009","008-UM","2017/11/30 17:19:35","新北市淡水區三民街20號","121.438998333333","25.1717166666667","6501000","淡水區"
"251004","009-UM","2017/11/30 17:19:47","新北市淡水區中正東路二段88巷15號","121.45898","25.1505166666667","6501000","淡水區"
"251005","010-UM","2017/11/30 17:19:31","新北市淡水區鄧公路19號","121.451408333333","25.1700333333333","6501000","淡水區"
"251007","179-VK","2017/11/30 17:19:48","新北市淡水區民生路47-4號","121.462031666667","25.1379833333333","6501000","淡水區"
"251008","181-VK","2017/11/30 17:19:32","新北市淡水區大同路293號","121.467798333333","25.1424666666667","6501000","淡水區"
"251014","182-VK","2017/11/30 17:19:33","新北市淡水區番子田120號","121.464143333333","25.2286833333333","6501000","淡水區"
"251010","413-VK","2017/11/30 17:19:39","新北市淡水區新市一路一段6號","121.429005","25.1874216666667","6501000","淡水區"
"251012","441-VK","2017/11/30 17:19:37","新北市淡水區中山北路一段158號","121.444266666667","25.1779433333333","6501000","淡水區"
"251016","442-VK","2017/11/30 17:19:31","新北市淡水區鄒厝崙14號","121.461655","25.1904816666667","6501000","淡水區"
"251006","561-UM","2017/11/30 17:19:40","新北市淡水區中山路189號","121.441355","25.1744466666667","6501000","淡水區"
"251011","650-BX","2017/11/30 17:19:42","新北市淡水區坪頂路128號","121.464975","25.16131","6501000","淡水區"
"251002","672-BX","2017/11/30 17:19:44","新北市淡水區中正路二段31號","121.419413333333","25.1816616666667","6501000","淡水區"
"251003","766-UM","2017/11/30 17:19:35","新北市淡水區文化路65號","121.437743333333","25.17292","6501000","淡水區"
"207003","550-UM","2017/11/30 17:19:33","新北市萬里區萬里里瑪鋉路340號","121.688015","25.182575","6502800","萬里區"
"252001","292-VK","2017/11/30 17:19:38","新北市三芝區長安街119號","121.498026666667","25.2596233333333","6502100","三芝區"
"252002","AAC-283","2017/11/30 17:19:32","新北市三芝區忠孝街1-15號","121.505531666667","25.25392","6502100","三芝區"
"242031","AAC-296","2017/11/30 17:19:40","新北市新莊區新泰路488號","121.44245","25.0458133333333","6500500","新莊區"
"242029","986-R7","2017/11/30 17:19:33","新北市新莊區幸福路914號","121.442596666667","25.048915","6500500","新莊區"
"242051","751-BX","2017/11/30 17:19:45","新北市新莊區瓊林路190-2號","121.439425","25.0209016666667","6500500","新莊區"
"242023","705-TV","2017/11/30 17:19:49","新北市新莊區中港一街161號","121.447253333333","25.0450633333333","6500500","新莊區"
"242025","615-BX","2017/11/30 17:19:33","新北市新莊區中平路82巷22號","121.445796666667","25.04492","6500500","新莊區"
"242027","612-BX","2017/11/30 17:19:35","新北市新莊區中平路82巷29號","121.44597","25.04495","6500500","新莊區"
"242039","566-BX","2017/11/30 17:19:44","新北市新莊區新樹路157號","121.436658333333","25.0254616666667","6500500","新莊區"
"242044","497-BY","2017/11/30 17:19:38","新北市新莊區中正路556-2號","121.42935","25.03107","6500500","新莊區"
"242048","441-UM","2017/11/30 17:19:33","新北市新莊區龍安路253號","121.419636666667","25.0200916666667","6500500","新莊區"
"242053","440-UM","2017/11/30 17:19:27","新北市新莊區環河路462號","121.440136666667","25.01974","6500500","新莊區"
"242034","415-TV","2017/11/30 17:19:37","新北市新莊區瓊林路58號","121.445515","25.0286516666667","6500500","新莊區"
"242004","413-TV","2017/11/30 17:19:29","新北市新莊區新泰路361巷23號","121.442516666667","25.0423666666667","6500500","新莊區"
"242042","400-BY","2017/11/30 17:19:50","新北市新莊區新樹路52-26號","121.437353333333","25.0267483333333","6500500","新莊區"
"242061","362-BY","2017/11/30 17:19:28","新北市新莊區三和路12-16號","121.441968333333","25.0374683333333","6500500","新莊區"
"242058","353-BY","2017/11/30 17:19:39","新北市新莊區三和路12-21號","121.441971666667","25.0382983333333","6500500","新莊區"
"242036","133-UY","2017/11/30 17:19:33","新北市新莊區新樹路7號","121.440801666667","25.0331066666667","6500500","新莊區"
"242021","135-UY","2017/11/30 17:19:29","新北市新莊區中平路82巷29號","121.446153333333","25.044895","6500500","新莊區"
"242046","172-VK","2017/11/30 17:19:36","新北市新莊區中正路418號","121.441128333333","25.0337633333333","6500500","新莊區"
"242009","173-VK","2017/11/30 15:59:19","新北市新莊區三和路12-21號","121.441773333333","25.0387116666667","6500500","新莊區"
"242015","175-VK","2017/11/30 17:19:42","新北市新莊區中環路二段392-1號","121.442435","25.045685","6500500","新莊區"
"242001","233-RS","2017/11/30 09:16:31","新北市新莊區環河路48-7號","121.436893333333","25.0097933333333","6500500","新莊區"
"242013","346-TH","2017/11/30 09:17:03","新北市新莊區新泰路357巷3弄57號","121.442108333333","25.0394166666667","6500500","新莊區"
"242007","347-TH","2017/11/30 16:47:02","新北市新莊區三和路12-9號","121.44171","25.036735","6500500","新莊區"
"242019","348-TH","2017/11/30 17:19:38","新北市新莊區中港路264號","121.453521666667","25.0436333333333","6500500","新莊區"
"242056","349-TH","2017/11/30 17:19:43","新北市新莊區公園一路75巷5號","121.442665","25.0374983333333","6500500","新莊區"
"242017","350-TH","2017/11/30 17:19:46","新北市新莊區中港一街153號","121.447605","25.04509","6500500","新莊區"
"242011","351-TH","2017/11/30 17:19:32","新北市新莊區中港一街142號","121.44682","25.0449266666667","6500500","新莊區"
"238015","755-BX","2017/11/30 17:19:39","新北市樹林區中山路二段89號","121.411521666667","24.982945","6500700","樹林區"
"238023","601-UM","2017/11/30 17:19:46","新北市樹林區中正路433號","121.414981666667","25.0086466666667","6500700","樹林區"
"238019","599-UM","2017/11/30 17:19:41","新北市樹林區八德街136號","121.421456666667","24.9789333333333","6500700","樹林區"
"238018","571-TV","2017/11/30 17:19:45","新北市樹林區博愛街233號","121.424043333333","24.985855","6500700","樹林區"
"238024","5061-A6","2017/11/30 17:19:37","新北市樹林區樹新路79巷11號","121.427131666667","24.99559","6500700","樹林區"
"238021","KEA-2217","2017/11/30 17:19:35","新北市樹林區西圳街一段165巷20弄12號","121.395303333333","24.960795","6500700","樹林區"
"238022","KEA-2213","2017/11/30 17:19:50","新北市樹林區和平街55號","121.42418","24.9824116666667","6500700","樹林區"
"238025","303-VK","2017/11/30 17:19:30","新北市樹林區保安二街69號","121.424583333333","24.994965","6500700","樹林區"
"238017","283-BY","2017/11/30 17:19:30","新北市樹林區光武街28號","121.4159","25.00553","6500700","樹林區"
"238014","282-BY","2017/11/30 17:19:33","新北市樹林區保安二街67號","121.424611666667","24.99483","6500700","樹林區"
"238020","268-VK","2017/11/30 17:19:27","新北市樹林區大安路265號","121.419075","24.9937716666667","6500700","樹林區"
"238026","172-UY","2017/11/30 17:19:32","新北市樹林區味王街36號","121.40456","24.9741133333333","6500700","樹林區"
"238016","169-UY","2017/11/30 17:19:28","新北市樹林區八德街1號","121.41754","24.9849866666667","6500700","樹林區"
"239007","AAC-297","2017/11/30 17:19:36","新北市鶯歌區行政路3-1號","121.350793333333","24.955295","6500800","鶯歌區"
"239006","891-R6","2017/11/30 17:19:45","新北市鶯歌區德昌二街121號","121.333141666667","24.95682","6500800","鶯歌區"
"239008","527-UM","2017/11/30 17:19:39","新北市鶯歌區西湖街90號","121.339505","24.9598666666667","6500800","鶯歌區"
"239005","526-UM","2017/11/30 17:19:40","新北市鶯歌區福德三街18號","121.329556666667","24.967515","6500800","鶯歌區"
"239001","417-VK","2017/11/30 17:19:45","新北市鶯歌區尖山路178號","121.34452","24.947485","6500800","鶯歌區"
"239003","360-BY","2017/11/30 17:19:51","新北市鶯歌區德昌二街73號","121.333166666667","24.9580166666667","6500800","鶯歌區"
"239002","359-BY","2017/11/30 17:19:27","新北市鶯歌區建國路282-2號","121.345448333333","24.9528433333333","6500800","鶯歌區"
"239004","193-VK","2017/11/30 17:19:39","新北市鶯歌區文化路667號","121.352995","24.9462833333333","6500800","鶯歌區"
"221008","489-VK","2017/11/30 17:19:31","新北市汐止區康寧街901號","121.651185","25.074945","6501100","汐止區"
"221012","276-VK","2017/11/30 13:12:08","新北市汐止區汐萬路一段256巷3號","121.653465","25.0746316666667","6501100","汐止區"
"220010","303-R5","2017/11/30 16:40:01","新北市板橋區民生路二段120號","121.470393333333","25.0197033333333","6500100","板橋區"
"242002","280-VK","2017/11/30 17:19:47","新北市新莊區中正路473-1號","121.44195","25.0332933333333","6500500","新莊區"
