"lineid","car","time","location","longitude","latitude","cityid","cityname"
"234026","9371-KE","2017/11/30 17:39:40","新北市永和區中正路645號","121.515236666667","25.010135","6500400","永和區"
"249005","172-UM","2017/11/30 17:39:40","新北市八里區荖阡坑路34號","121.402746666667","25.1297816666667","6502300","八里區"
"249001","173-UM","2017/11/30 17:39:50","新北市八里區龍米路二段153-8號","121.440176666667","25.15348","6502300","八里區"
"249004","303-UY","2017/11/30 17:39:41","新北市八里區賢二街32號","121.418836666667","25.157945","6502300","八里區"
"249002","305-UY","2017/11/30 17:39:47","新北市八里區石壁腳10號","121.442506666667","25.1352516666667","6502300","八里區"
"249003","759-BX","2017/11/30 17:39:37","新北市八里區中山路二段241號","121.40306","25.1490133333333","6502300","八里區"
"248010","272-BY","2017/11/30 15:25:42","新北市五股區中興路二段83巷26-6號","121.460011666667","25.0751033333333","6501500","五股區"
"248005","653-BX","2017/11/30 10:37:53","新北市五股區中興路二段83巷26-6號","121.459806666667","25.0750683333333","6501500","五股區"
"232011","375-UM","2017/11/30 17:39:38","新北市坪林區北宜路八段451號","121.706813333333","24.92343","6502000","坪林區"
"244013","069-UM","2017/11/30 17:39:52","新北市林口區中正路555號","121.381116666667","25.0768616666667","6501700","林口區"
"244007","080-UY","2017/11/30 17:39:45","新北市林口區中湖40-8號","121.383405","25.0919566666667","6501700","林口區"
"244019","403-UM","2017/11/30 17:39:55","新北市林口區文化一路一段133號","121.37372","25.071915","6501700","林口區"
"244009","410-SL","2017/11/30 17:39:48","新北市林口區中北三街178號","121.383003333333","25.08256","6501700","林口區"
"244023","483-VK","2017/11/30 17:39:41","新北市林口區興林路152巷24號","121.387676666667","25.0715666666667","6501700","林口區"
"244017","485-VK","2017/11/30 17:39:49","新北市林口區文化一路一段121號","121.373291666667","25.071275","6501700","林口區"
"244011","701-TV","2017/11/30 17:39:42","新北市林口區佳林路154號","121.384206666667","25.0771016666667","6501700","林口區"
"244025","837-TS","2017/11/30 17:39:49","新北市林口區文化二路一段289-5號","121.367456666667","25.0718783333333","6501700","林口區"
"244020","838-TS","2017/11/30 17:39:46","新北市林口區東林街14號","121.396273333333","25.0789033333333","6501700","林口區"
"243009","297-R6","2017/11/30 15:55:23","新北市泰山區黎明路25號","121.421993333333","25.0609633333333","6501600","泰山區"
"222002","659-BX","2017/11/30 17:39:50","新北市深坑區北深路二段2巷13弄2號","121.622008333333","25.0071933333333","6501800","深坑區"
"231046","278-BY","2017/11/30 17:39:38","新北市新店區直潭路92號","121.530886666667","24.93766","6500600","新店區"
"231027","3712-VJ","2017/11/30 15:24:05","新北市新店區安華路28-1號","121.51929","24.9606716666667","6500600","新店區"
"241017","063-VK","2017/11/30 17:39:40","新北市三重區大同北路34巷18號","121.494793333333","25.062425","6500200","三重區"
"241003","091-VK","2017/11/30 17:39:37","新北市三重區環河北路三段290號","121.492306666667","25.0896916666667","6500200","三重區"
"241030","156-TC","2017/11/30 17:39:37","新北市三重區中正南路252巷5號","121.493446666667","25.0526533333333","6500200","三重區"
"241005","262-UM","2017/11/30 17:39:37","新北市三重區溪尾街269號","121.487565","25.082455","6500200","三重區"
"241011","265-UM","2017/11/30 17:39:52","新北市三重區河邊北街124巷31號","121.502986666667","25.071315","6500200","三重區"
"241016","266-UM","2017/11/30 17:39:48","新北市三重區重新路二段23號","121.497781666667","25.0625233333333","6500200","三重區"
"241032","269-UM","2017/11/30 17:39:44","新北市五股區中興路三段5號","121.44914","25.080145","6500200","三重區"
"241007","398-BY","2017/11/30 17:39:45","新北市三重區永福街256號","121.484321666667","25.0749033333333","6500200","三重區"
"241024","462-BY","2017/11/30 17:39:50","新北市三重區國道路一段58巷17號","121.481538333333","25.0719133333333","6500200","三重區"
"241019","478-VK","2017/11/30 17:39:40","新北市三重區六張街195號","121.488873333333","25.0687616666667","6500200","三重區"
"241014","543-UM","2017/11/30 17:39:37","新北市三重區龍濱路34號","121.502831666667","25.0682183333333","6500200","三重區"
"241023","545-UM","2017/11/30 17:39:41","新北市三重區中華路109號","121.483586666667","25.0634266666667","6500200","三重區"
"241012","941-UM","2017/11/30 17:39:50","新北市三重區河邊北街266號","121.501655","25.076475","6500200","三重區"
"241033","AAC-255","2017/11/30 17:39:43","新北市三重區光復路一段109號","121.472056666667","25.051645","6500200","三重區"
"235064","911-UM","2017/11/30 16:17:00","新北市中和區員山路36巷16-3號","121.485051666667","24.991455","6500300","中和區"
"247022","893-R6","2017/11/30 17:39:44","新北市蘆洲區民族路435號","121.467875","25.0890783333333","6501400","蘆洲區"
"247012","546-UM","2017/11/30 17:39:35","新北市蘆洲區民權路15號","121.476261666667","25.08615","6501400","蘆洲區"
"247020","500-BY","2017/11/30 17:39:46","新北市蘆洲區民義街108號","121.474041666667","25.09094","6501400","蘆洲區"
"247008","341-TH","2017/11/30 17:39:49","新北市蘆洲區和平路19巷2號","121.472251666667","25.079055","6501400","蘆洲區"
"247010","339-TH","2017/11/30 17:39:44","新北市蘆洲區中山一路136號","121.476418333333","25.0817333333333","6501400","蘆洲區"
"247002","337-TH","2017/11/30 17:39:56","新北市蘆洲區環堤大道212號","121.457553333333","25.0919616666667","6501400","蘆洲區"
"247004","336-TH","2017/11/30 17:39:48","新北市蘆洲區長安街174號","121.459085","25.08336","6501400","蘆洲區"
"247024","335-TH","2017/11/30 17:39:48","新北市蘆洲區光榮路34號","121.4604","25.0880866666667","6501400","蘆洲區"
"247016","057-VK","2017/11/30 17:39:40","新北市蘆洲區光華路44號","121.468708333333","25.08321","6501400","蘆洲區"
"247006","056-VK","2017/11/30 17:39:40","新北市蘆洲區長安街40號","121.463498333333","25.079515","6501400","蘆洲區"
"247014","007-UY","2017/11/30 17:39:49","新北市蘆洲區中正路32號","121.471266666667","25.0822716666667","6501400","蘆洲區"
"247018","001-UY","2017/11/30 17:39:42","新北市蘆洲區水湳街1號","121.472898333333","25.08876","6501400","蘆洲區"
"228003","097-TW","2017/11/30 17:39:51","新北市貢寮區仁理村仁和路11號","121.9231","25.0517433333333","6502600","貢寮區"
"228001","212-TW","2017/11/30 17:39:51","新北市貢寮區仁理村仁愛路95-1號","121.92763","25.0554183333333","6502600","貢寮區"
"228002","585-TW","2017/11/30 17:39:44","新北市貢寮區福隆里外隆林街14-1號","121.959188333333","25.0036216666667","6502600","貢寮區"
"224010","AGQ-8101","2017/11/30 17:39:21","新北市瑞芳區岳王路68號","121.809411666667","25.1112233333333","6501200","瑞芳區"
"224006","676-BX","2017/11/30 17:39:49","新北市瑞芳區中山路251號","121.797551666667","25.109605","6501200","瑞芳區"
"224002","639-TC","2017/11/30 17:39:50","新北市瑞芳區明燈路二段46號","121.809446666667","25.1081583333333","6501200","瑞芳區"
"224009","285-BY","2017/11/30 17:39:52","新北市瑞芳區崙頂路3-1號","121.846753333333","25.1049533333333","6501200","瑞芳區"
"224008","275-VK","2017/11/30 17:39:44","新北市瑞芳區明燈路一段18巷28號","121.82234","25.1084133333333","6501200","瑞芳區"
"224007","273-VK","2017/11/30 17:39:50","新北市平溪區新寮里五分寮10-3號","121.797301666667","25.0766233333333","6501200","瑞芳區"
"224005","271-BY","2017/11/30 17:39:47","新北市瑞芳區籠山路26號","121.832221666667","25.1230483333333","6501200","瑞芳區"
"251009","008-UM","2017/11/30 17:39:34","新北市淡水區中正路36號","121.44379","25.1692383333333","6501000","淡水區"
"251004","009-UM","2017/11/30 17:39:47","新北市淡水區中正東路二段88巷41號","121.459326666667","25.1426366666667","6501000","淡水區"
"251005","010-UM","2017/11/30 17:39:51","新北市淡水區鄧公路35巷1號","121.451678333333","25.17136","6501000","淡水區"
"251007","179-VK","2017/11/30 17:39:48","新北市淡水區民生路124巷30號","121.464143333333","25.1376183333333","6501000","淡水區"
"251008","181-VK","2017/11/30 17:39:52","新北市淡水區八勢路一段98-2號","121.467436666667","25.1557866666667","6501000","淡水區"
"251014","182-VK","2017/11/30 17:39:53","新北市淡水區水碓52號","121.477515","25.22382","6501000","淡水區"
"251010","413-VK","2017/11/30 17:39:39","新北市淡水區淡海路280巷16號","121.419875","25.1894083333333","6501000","淡水區"
"251012","441-VK","2017/11/30 17:39:48","新北市淡水區北新路213號","121.451468333333","25.1798933333333","6501000","淡水區"
"251016","442-VK","2017/11/30 17:39:51","新北市淡水區埤島39-15號","121.452728333333","25.195885","6501000","淡水區"
"251006","561-UM","2017/11/30 17:39:40","新北市淡水區中山北路一段151號","121.443136666667","25.17725","6501000","淡水區"
"251011","650-BX","2017/11/30 17:39:42","新北市淡水區小坪頂13-3號","121.48656","25.156175","6501000","淡水區"
"251002","672-BX","2017/11/30 17:39:44","新北市淡水區重建街82號","121.440078333333","25.17237","6501000","淡水區"
"251003","766-UM","2017/11/30 17:39:55","新北市淡水區大忠街5巷1號","121.443103333333","25.1764166666667","6501000","淡水區"
"207003","550-UM","2017/11/30 17:39:33","新北市萬里區龜吼里漁澳路10號","121.68623","25.1946766666667","6502800","萬里區"
"207004","225-TW","2017/11/30 17:39:36","新北市萬里區中幅里中福路8-1號","121.685903333333","25.1648533333333","6502800","萬里區"
"252001","292-VK","2017/11/30 17:39:38","新北市三芝區淡金路一段65號","121.501408333333","25.2588933333333","6502100","三芝區"
"252002","AAC-283","2017/11/30 17:39:32","新北市三芝區中正路二段2號","121.50496","25.2557183333333","6502100","三芝區"
"237012","275-BY","2017/11/30 17:39:37","新北市三峽區中山路459巷163-3號","121.34884","24.933075","6500900","三峽區"
"237008","302-VK","2017/11/30 17:39:54","新北市三峽區中山路146號","121.364953333333","24.9363116666667","6500900","三峽區"
"237011","572-TV","2017/11/30 17:36:56","新北市三峽區中山路100號","121.366416666667","24.9354333333333","6500900","三峽區"
"237016","649-BX","2017/11/30 17:39:42","新北市三峽區中園街237-1號","121.366885","24.9194583333333","6500900","三峽區"
"236071","105-UM","2017/11/30 17:39:44","新北市土城區城林路6巷80號","121.438461666667","24.9797166666667","6501300","土城區"
"236026","269-VK","2017/11/30 17:39:47","新北市土城區城林路6巷80號","121.438463333333","24.9795983333333","6501300","土城區"
"236014","270-VK","2017/11/30 17:39:37","新北市土城區城林路6巷80號","121.438536666667","24.979615","6501300","土城區"
"236021","401-BY","2017/11/30 17:39:49","新北市土城區城林路6巷80號","121.438615","24.9796983333333","6501300","土城區"
"236058","912-UM","2017/11/30 17:39:38","新北市土城區城林路6巷80號","121.438485","24.9796733333333","6501300","土城區"
"242031","AAC-296","2017/11/30 17:39:40","新北市新莊區新泰路380號","121.444106666667","25.0432316666667","6500500","新莊區"
"242029","986-R7","2017/11/30 17:39:53","新北市新莊區復興路一段151號","121.450508333333","25.0433333333333","6500500","新莊區"
"242051","751-BX","2017/11/30 17:39:46","新北市新莊區西盛街216號","121.428065","25.0171716666667","6500500","新莊區"
"242023","705-TV","2017/11/30 17:39:49","新北市新莊區公園路129-5號","121.457408333333","25.0407816666667","6500500","新莊區"
"242025","615-BX","2017/11/30 17:39:33","新北市新莊區思源路118號","121.460143333333","25.04692","6500500","新莊區"
"242027","612-BX","2017/11/30 17:39:55","新北市新莊區福壽街108號","121.458036666667","25.0505333333333","6500500","新莊區"
"242039","566-BX","2017/11/30 17:39:44","新北市新莊區民安路322號","121.428956666667","25.0219833333333","6500500","新莊區"
"242044","497-BY","2017/11/30 17:39:39","新北市新莊區中正路871巷17號","121.419138333333","25.026665","6500500","新莊區"
"242048","441-UM","2017/11/30 17:39:53","新北市新莊區萬安街133號","121.420636666667","25.0221766666667","6500500","新莊區"
"242053","440-UM","2017/11/30 17:39:47","新北市新莊區新樹路360號","121.432811666667","25.0033916666667","6500500","新莊區"
"242034","415-TV","2017/11/30 17:39:50","新北市新莊區新莊路637號","121.445321666667","25.0329083333333","6500500","新莊區"
"242004","413-TV","2017/11/30 17:39:49","新北市新莊區自立街176號","121.455931666667","25.0454683333333","6500500","新莊區"
"242042","400-BY","2017/11/30 17:39:50","新北市泰山區漢口街36號","121.42638","25.035105","6500500","新莊區"
"242061","362-BY","2017/11/30 17:39:48","新北市新莊區瓊林南路72號","121.43431","25.012775","6500500","新莊區"
"242058","353-BY","2017/11/30 17:39:39","新北市新莊區中正路600號","121.42661","25.0301983333333","6500500","新莊區"
"242036","133-UY","2017/11/30 17:39:33","新北市新莊區後港一路138號","121.429713333333","25.0273883333333","6500500","新莊區"
"242021","135-UY","2017/11/30 17:39:49","新北市新莊區中華路一段118號","121.452485","25.040555","6500500","新莊區"
"242046","172-VK","2017/11/30 17:39:36","新北市新莊區福營路63號","121.43519","25.032405","6500500","新莊區"
"242009","173-VK","2017/11/30 17:39:52","新北市新莊區昌明街14巷7弄1號","121.457335","25.0533466666667","6500500","新莊區"
"242015","175-VK","2017/11/30 17:39:42","新北市新莊區新泰路290號","121.44568","25.0406433333333","6500500","新莊區"
"242001","233-RS","2017/11/30 09:16:31","新北市新莊區環河路48-7號","121.436893333333","25.0097933333333","6500500","新莊區"
"242013","346-TH","2017/11/30 17:39:40","新北市新莊區中誠街115號","121.449555","25.0476433333333","6500500","新莊區"
"242007","347-TH","2017/11/30 17:39:52","新北市新莊區福樂街69號","121.457063333333","25.0477866666667","6500500","新莊區"
"242019","348-TH","2017/11/30 17:39:38","新北市新莊區中港路205號","121.454848333333","25.0419916666667","6500500","新莊區"
"242056","349-TH","2017/11/30 17:39:43","新北市新莊區新泰路3巷35號","121.449073333333","25.0319433333333","6500500","新莊區"
"242017","350-TH","2017/11/30 17:39:46","新北市新莊區復興路一段149巷21弄1號","121.450216666667","25.0440833333333","6500500","新莊區"
"242011","351-TH","2017/11/30 17:39:52","新北市新莊區中港路652號","121.45092","25.0558066666667","6500500","新莊區"
"238015","755-BX","2017/11/30 17:39:43","新北市樹林區啟智街16號","121.421036666667","24.993905","6500700","樹林區"
"238023","601-UM","2017/11/30 17:39:46","新北市樹林區三福街114號","121.406431666667","25.0163","6500700","樹林區"
"238019","599-UM","2017/11/30 17:39:41","新北市樹林區太平路125號","121.41919","24.980505","6500700","樹林區"
"238018","571-TV","2017/11/30 17:39:45","新北市樹林區鎮前街93號","121.424745","24.98968","6500700","樹林區"
"238024","5061-A6","2017/11/30 17:39:37","新北市樹林區八德街369-1號","121.416273333333","24.9716316666667","6500700","樹林區"
"238021","KEA-2217","2017/11/30 17:39:35","新北市樹林區西圳街一段203巷10-1號","121.39287","24.9605633333333","6500700","樹林區"
"238022","KEA-2213","2017/11/30 17:39:50","新北市樹林區中華路187巷5號","121.420576666667","24.98139","6500700","樹林區"
"238025","303-VK","2017/11/30 17:39:50","新北市樹林區三俊街30號","121.411625","25.0154316666667","6500700","樹林區"
"238017","283-BY","2017/11/30 17:39:51","新北市樹林區三德街10巷18號","121.41355","25.0122183333333","6500700","樹林區"
"238014","282-BY","2017/11/30 17:39:33","新北市樹林區保安街一段294巷18號","121.420226666667","24.9985716666667","6500700","樹林區"
"238020","268-VK","2017/11/30 17:39:47","新北市樹林區俊英街116巷29弄10號","121.428206666667","25.0065383333333","6500700","樹林區"
"238026","172-UY","2017/11/30 17:39:32","新北市樹林區新興街19巷36弄5號","121.402471666667","24.973275","6500700","樹林區"
"238016","169-UY","2017/11/30 17:39:48","新北市樹林區育英街69號","121.420473333333","24.989235","6500700","樹林區"
"239007","AAC-297","2017/11/30 17:39:36","新北市鶯歌區國光街72號","121.34146","24.95809","6500800","鶯歌區"
"239006","891-R6","2017/11/30 17:39:45","新北市鶯歌區鶯桃路500號","121.331948333333","24.9660316666667","6500800","鶯歌區"
"239008","527-UM","2017/11/30 17:39:39","桃園市龜山區宏德司法新村4號","121.331101666667","24.9793083333333","6500800","鶯歌區"
"239005","526-UM","2017/11/30 17:39:40","新北市鶯歌區鶯桃路二段20號","121.326126666667","24.9723933333333","6500800","鶯歌區"
"239001","417-VK","2017/11/30 17:39:45","新北市鶯歌區中正三路279-6號","121.332445","24.9379666666667","6500800","鶯歌區"
"239003","360-BY","2017/11/30 17:39:50","新北市鶯歌區鶯桃路179號","121.33796","24.9585366666667","6500800","鶯歌區"
"239002","359-BY","2017/11/30 17:39:47","新北市鶯歌區育英街2號","121.346801666667","24.95503","6500800","鶯歌區"
"239004","193-VK","2017/11/30 17:39:39","新北市鶯歌區三鶯路87號","121.358705","24.943575","6500800","鶯歌區"
"221008","489-VK","2017/11/30 17:39:32","新北市汐止區康寧街901號","121.651378333333","25.0749816666667","6501100","汐止區"
"221010","269-BY","2017/11/30 17:39:40","新北市汐止區汐萬路一段301號","121.649805","25.0757883333333","6501100","汐止區"
"221012","276-VK","2017/11/30 13:12:08","新北市汐止區汐萬路一段256巷3號","121.653465","25.0746316666667","6501100","汐止區"
"221023","279-VK","2017/11/30 17:39:44","新北市汐止區康寧街901號","121.651631666667","25.07493","6501100","汐止區"
"221032","280-BY","2017/11/30 17:39:49","新北市汐止區樟樹二路351號","121.642938333333","25.0737483333333","6501100","汐止區"
"221031","353-TW","2017/11/30 17:39:39","新北市汐止區汐萬路一段256巷1號","121.651723333333","25.0748633333333","6501100","汐止區"
"221033","647-BX","2017/11/30 17:39:50","新北市汐止區南興路9號","121.652083333333","25.0623783333333","6501100","汐止區"
"220010","303-R5","2017/11/30 16:40:01","新北市板橋區民生路二段120號","121.470393333333","25.0197033333333","6500100","板橋區"
"242002","280-VK","2017/11/30 17:39:47","新北市新莊區新莊路268號","121.451775","25.0338933333333","6500500","新莊區"
