"lineid","car","time","location","longitude","latitude","cityid","cityname"
"234026","9371-KE","2017/11/30 17:49:40","新北市永和區永平路179號","121.510491666667","25.0091216666667","6500400","永和區"
"249005","172-UM","2017/11/30 17:49:40","新北市八里區荖阡里41號","121.402313333333","25.1347566666667","6502300","八里區"
"249001","173-UM","2017/11/30 17:49:50","新北市八里區龍米路二段125巷25號","121.446165","25.145815","6502300","八里區"
"249004","303-UY","2017/11/30 17:49:41","新北市八里區中華路一段81巷28號","121.419446666667","25.1547083333333","6502300","八里區"
"249002","305-UY","2017/11/30 17:49:47","新北市八里區龍形五街37巷3-1號","121.448653333333","25.132625","6502300","八里區"
"249003","759-BX","2017/11/30 17:49:37","新北市八里區中山路二段212號","121.405381666667","25.1518016666667","6502300","八里區"
"248006","077-UY","2017/11/30 17:49:38","新北市五股區中興路二段37巷28號","121.460126666667","25.0750183333333","6501500","五股區"
"248008","095-VK","2017/11/30 17:49:50","新北市五股區中興路二段83巷26-6號","121.460043333333","25.0750933333333","6501500","五股區"
"248010","272-BY","2017/11/30 15:25:42","新北市五股區中興路二段83巷26-6號","121.460011666667","25.0751033333333","6501500","五股區"
"248005","653-BX","2017/11/30 10:37:53","新北市五股區中興路二段83巷26-6號","121.459806666667","25.0750683333333","6501500","五股區"
"232011","375-UM","2017/11/30 17:49:38","新北市坪林區北宜路八段66號","121.70503","24.9352666666667","6502000","坪林區"
"244013","069-UM","2017/11/30 17:49:32","新北市林口區中正路507號","121.38316","25.0775333333333","6501700","林口區"
"244007","080-UY","2017/11/30 17:49:45","新北市林口區林口路226號","121.386736666667","25.0838433333333","6501700","林口區"
"244019","403-UM","2017/11/30 17:49:35","新北市林口區文化一路一段135巷7號","121.373356666667","25.0722216666667","6501700","林口區"
"244009","410-SL","2017/11/30 17:49:48","新北市林口區中北三街61號","121.384763333333","25.0855483333333","6501700","林口區"
"244023","483-VK","2017/11/30 17:49:38","新北市林口區東湖一街1號","121.387346666667","25.0730483333333","6501700","林口區"
"244017","485-VK","2017/11/30 17:49:49","新北市林口區忠孝路371-1號","121.369031666667","25.0717866666667","6501700","林口區"
"244011","701-TV","2017/11/30 17:49:42","新北市林口區佳林路253號","121.382928333333","25.0761216666667","6501700","林口區"
"244025","837-TS","2017/11/30 17:49:49","新北市林口區文化三路一段191巷12號","121.361003333333","25.0701983333333","6501700","林口區"
"244020","838-TS","2017/11/30 17:49:46","新北市林口區仁愛路一段165號","121.398365","25.07275","6501700","林口區"
"243009","297-R6","2017/11/30 15:55:23","新北市泰山區黎明路25號","121.421993333333","25.0609633333333","6501600","泰山區"
"222003","436-BY","2017/11/30 17:49:39","新北市深坑區北深路三段28號","121.609198333333","25.0010816666667","6501800","深坑區"
"222002","659-BX","2017/11/30 17:49:50","新北市深坑區平埔街22巷8號","121.614943333333","25.0008533333333","6501800","深坑區"
"231046","278-BY","2017/11/30 17:49:38","新北市新店區下石厝路2-1號","121.531381666667","24.9282933333333","6500600","新店區"
"231027","3712-VJ","2017/11/30 15:24:05","新北市新店區安華路28-1號","121.51929","24.9606716666667","6500600","新店區"
"241003","091-VK","2017/11/30 17:49:36","新北市五股區成泰路三段544-1號","121.453601666667","25.1021816666667","6500200","三重區"
"241005","262-UM","2017/11/30 17:49:37","新北市三重區集賢路82號","121.492106666667","25.0888283333333","6500200","三重區"
"241016","266-UM","2017/11/30 17:49:47","新北市三重區重新路三段45-1號","121.493298333333","25.0613383333333","6500200","三重區"
"241024","462-BY","2017/11/30 17:49:50","新北市三重區力行路二段9巷4號","121.482591666667","25.0723033333333","6500200","三重區"
"241033","AAC-255","2017/11/30 17:49:43","新北市三重區光復路一段7號","121.47218","25.047055","6500200","三重區"
"235065","098-UM","2017/11/30 17:49:39","新北市中和區員山路36巷16-3號","121.485131666667","24.9911216666667","6500300","中和區"
"235061","378-QA","2017/11/30 17:49:39","新北市中和區員山路36巷16-2號","121.485266666667","24.9916683333333","6500300","中和區"
"235062","800-TS","2017/11/30 17:49:43","新北市中和區員山路36巷16-3號","121.48484","24.991535","6500300","中和區"
"235064","911-UM","2017/11/30 17:49:38","新北市中和區員山路36巷16-3號","121.48496","24.9913016666667","6500300","中和區"
"247022","893-R6","2017/11/30 17:49:35","新北市蘆洲區中正路262號","121.46557","25.089715","6501400","蘆洲區"
"247012","546-UM","2017/11/30 17:49:35","新北市蘆洲區復興路122號","121.476375","25.087365","6501400","蘆洲區"
"247020","500-BY","2017/11/30 17:49:46","新北市蘆洲區民權路188-2號","121.47159","25.0907166666667","6501400","蘆洲區"
"247008","341-TH","2017/11/30 17:49:49","新北市蘆洲區中山一路225號","121.473866666667","25.080705","6501400","蘆洲區"
"247010","339-TH","2017/11/30 17:49:44","新北市蘆洲區信義路285號","121.478683333333","25.0854733333333","6501400","蘆洲區"
"247002","337-TH","2017/11/30 17:49:36","新北市蘆洲區永平街32巷21弄33號","121.457945","25.09224","6501400","蘆洲區"
"247004","336-TH","2017/11/30 17:49:44","新北市蘆洲區永安南路二段352號","121.456256666667","25.0828416666667","6501400","蘆洲區"
"247024","335-TH","2017/11/30 17:49:48","新北市蘆洲區光榮路112號","121.464313333333","25.0893133333333","6501400","蘆洲區"
"247016","057-VK","2017/11/30 17:49:40","新北市蘆洲區中正路185巷25弄23號","121.467286666667","25.0838283333333","6501400","蘆洲區"
"247006","056-VK","2017/11/30 17:49:40","新北市蘆洲區九芎街141號","121.465478333333","25.07942","6501400","蘆洲區"
"247014","007-UY","2017/11/30 17:49:49","新北市蘆洲區保和街50-5號","121.469808333333","25.086245","6501400","蘆洲區"
"247018","001-UY","2017/11/30 17:49:42","新北市蘆洲區復興路227巷2弄2號","121.479943333333","25.0900066666667","6501400","蘆洲區"
"228003","097-TW","2017/11/30 17:49:51","新北市貢寮區真理里延平街143-1號","121.924998333333","25.0577133333333","6502600","貢寮區"
"228001","212-TW","2017/11/30 17:49:51","新北市貢寮區仁理村仁愛路95-1號","121.927648333333","25.0554283333333","6502600","貢寮區"
"228002","585-TW","2017/11/30 17:49:44","新北市貢寮區福隆里龜壽谷街11-1號","121.954318333333","25.0069366666667","6502600","貢寮區"
"224006","676-BX","2017/11/30 17:49:47","新北市瑞芳區傑魚坑路157號","121.789941666667","25.109645","6501200","瑞芳區"
"224002","639-TC","2017/11/30 17:49:50","新北市瑞芳區明燈路二段46號","121.809523333333","25.1081133333333","6501200","瑞芳區"
"224009","285-BY","2017/11/30 17:49:52","新北市瑞芳區新山路183號","121.851083333333","25.1088683333333","6501200","瑞芳區"
"224008","275-VK","2017/11/30 17:49:44","新北市瑞芳區明燈路1段50-1號","121.819866666667","25.10723","6501200","瑞芳區"
"224007","273-VK","2017/11/30 17:49:50","新北市瑞芳區靜安路四段28號","121.798001666667","25.0910916666667","6501200","瑞芳區"
"224005","271-BY","2017/11/30 17:49:47","新北市瑞芳區建基路一段54號","121.81748","25.12731","6501200","瑞芳區"
"253006","295-VK","2017/11/30 17:49:34","新北市石門區中央路16-19號","121.567858333333","25.290275","6502200","石門區"
"222001","KEA-2212","2017/11/30 17:49:47","新北市深坑區北深路三段25巷15-2號","121.608758333333","24.99978","6501800","深坑區"
"208002","742-BX","2017/11/30 17:49:34","新北市金山區磺清路135號","121.639336666667","25.2277183333333","6502700","金山區"
"251009","008-UM","2017/11/30 17:49:34","新北市淡水區長興街29號","121.443948333333","25.1710916666667","6501000","淡水區"
"251004","009-UM","2017/11/30 17:48:27","新北市淡水區民權一街4號","121.459345","25.1373133333333","6501000","淡水區"
"251005","010-UM","2017/11/30 17:49:51","新北市淡水區學府路104號","121.449833333333","25.171845","6501000","淡水區"
"251007","179-VK","2017/11/30 17:49:48","新北市淡水區民生路6巷3號","121.460873333333","25.1375983333333","6501000","淡水區"
"251008","181-VK","2017/11/30 17:49:52","新北市淡水區八勢路一段122號","121.46762","25.1566766666667","6501000","淡水區"
"251014","182-VK","2017/11/30 17:49:33","新北市淡水區公埔子16-6號","121.481026666667","25.2245233333333","6501000","淡水區"
"251010","413-VK","2017/11/30 17:49:39","新北市淡水區中正路二段96號","121.41759","25.1857983333333","6501000","淡水區"
"251012","441-VK","2017/11/30 17:49:37","新北市淡水區北新路一段297號","121.463588333333","25.181975","6501000","淡水區"
"251016","442-VK","2017/11/30 17:49:51","新北市淡水區埤島39-15號","121.452735","25.1958783333333","6501000","淡水區"
"251006","561-UM","2017/11/30 17:49:40","新北市淡水區大信街1巷16號","121.440148333333","25.1767783333333","6501000","淡水區"
"251011","650-BX","2017/11/30 17:45:22","新北市淡水區吳(仔)厝9號","121.479146666667","25.1467483333333","6501000","淡水區"
"251002","672-BX","2017/11/30 17:49:44","新北市淡水區中山路27號","121.44413","25.1700366666667","6501000","淡水區"
"251003","766-UM","2017/11/30 17:49:47","新北市淡水區大忠街33號","121.444203333333","25.17618","6501000","淡水區"
"207003","550-UM","2017/11/30 17:49:53","新北市萬里區野柳里東澳路66號","121.692686666667","25.20091","6502800","萬里區"
"207004","225-TW","2017/11/30 17:49:32","新北市萬里區萬里里瑪鋉頂街100-1號","121.687785","25.180515","6502800","萬里區"
"252001","292-VK","2017/11/30 17:49:38","新北市三芝區淡金路一段4-2號","121.49893","25.25959","6502100","三芝區"
"252002","AAC-283","2017/11/30 17:49:42","新北市三芝區智成街56號","121.50438","25.2561666666667","6502100","三芝區"
"237004","078-UY","2017/11/30 17:49:47","新北市三峽區中山路135號","121.365196666667","24.936095","6500900","三峽區"
"237009","210-TH","2017/11/30 17:49:37","新北市三峽區大勇路3巷32號","121.367616666667","24.936805","6500900","三峽區"
"237013","252-BX","2017/11/30 17:49:34","新北市三峽區安溪路309巷9號","121.373418333333","24.933295","6500900","三峽區"
"237012","275-BY","2017/11/30 17:49:37","新北市三峽區民生街111-2號","121.37377","24.9354166666667","6500900","三峽區"
"237008","302-VK","2017/11/30 17:49:55","新北市三峽區正義街2號","121.3698","24.9201283333333","6500900","三峽區"
"237014","433-BY","2017/11/30 17:49:45","新北市三峽區和平街36巷13號","121.371171666667","24.937","6500900","三峽區"
"237006","5529-G3","2017/11/30 17:49:42","新北市三峽區介壽路二段30號","121.390793333333","24.9351416666667","6500900","三峽區"
"237011","572-TV","2017/11/30 17:36:56","新北市三峽區中山路100號","121.366416666667","24.9354333333333","6500900","三峽區"
"237016","649-BX","2017/11/30 17:49:42","新北市三峽區白雞147號","121.399481666667","24.9052583333333","6500900","三峽區"
"237005","AKY-6261","2017/11/30 17:49:39","新北市三峽區中山路246號","121.362131666667","24.937605","6500900","三峽區"
"236071","105-UM","2017/11/30 17:49:44","新北市土城區青雲路322巷12號","121.457746666667","24.97658","6501300","土城區"
"236042","107-UM","2017/11/30 17:49:45","新北市土城區城林路6巷80號","121.43849","24.9797216666667","6501300","土城區"
"236030","253-BX","2017/11/30 17:49:46","新北市土城區城林路6巷80號","121.438466666667","24.9797816666667","6501300","土城區"
"236026","269-VK","2017/11/30 17:49:47","新北市土城區承天路18號","121.439371666667","24.963455","6501300","土城區"
"236014","270-VK","2017/11/30 17:49:37","新北市土城區城林路6巷80號","121.438525","24.9796033333333","6501300","土城區"
"236037","271-VK","2017/11/30 17:49:38","新北市土城區城林路6巷80號","121.438451666667","24.9797683333333","6501300","土城區"
"236021","401-BY","2017/11/30 17:49:49","新北市土城區城林路6巷80號","121.438576666667","24.97968","6501300","土城區"
"236078","752-BX","2017/11/30 17:49:47","新北市土城區中央路三段119-1號","121.434265","24.96575","6501300","土城區"
"236058","912-UM","2017/11/30 17:49:38","新北市土城區城林路6巷80號","121.438315","24.9799016666667","6501300","土城區"
"236051","913-UM","2017/11/30 17:49:52","新北市土城區城林路6巷80號","121.438515","24.979615","6501300","土城區"
"236062","915-UM","2017/11/30 17:49:41","新北市土城區城林路6巷80號","121.43854","24.97958","6501300","土城區"
"236053","AAC-216","2017/11/30 17:49:32","新北市土城區城林路6巷80號","121.438455","24.979625","6501300","土城區"
"242031","AAC-296","2017/11/30 17:49:40","新北市新莊區新泰路357巷3弄5號","121.442398333333","25.041095","6500500","新莊區"
"242029","986-R7","2017/11/30 17:49:53","新北市新莊區復興路一段31號","121.446423333333","25.0417966666667","6500500","新莊區"
"242051","751-BX","2017/11/30 17:49:45","新北市新莊區西盛街262號","121.428051666667","25.01574","6500500","新莊區"
"242023","705-TV","2017/11/30 17:49:49","新北市新莊區福樂街62號","121.457823333333","25.0461983333333","6500500","新莊區"
"242025","615-BX","2017/11/30 17:49:52","新北市三重區新北大道二段25號","121.471378333333","25.06129","6500500","新莊區"
"242027","612-BX","2017/11/30 17:49:55","新北市新莊區福壽街153號","121.45801","25.05323","6500500","新莊區"
"242039","566-BX","2017/11/30 17:49:44","新北市新莊區民安路170號","121.425041666667","25.024035","6500500","新莊區"
"242044","497-BY","2017/11/30 17:49:38","新北市新莊區中正路855巷24號","121.419963333333","25.0270916666667","6500500","新莊區"
"242048","441-UM","2017/11/30 17:49:33","新北市新莊區萬安街60巷17號","121.420478333333","25.0231416666667","6500500","新莊區"
"242053","440-UM","2017/11/30 17:49:47","新北市新莊區新樹路685號","121.432316666667","25.0025066666667","6500500","新莊區"
"242034","415-TV","2017/11/30 17:49:48","新北市新莊區景德路642號","121.44111","25.0328883333333","6500500","新莊區"
"242004","413-TV","2017/11/30 17:49:49","新北市新莊區自立街257號","121.459125","25.0456","6500500","新莊區"
"242042","400-BY","2017/11/30 17:49:51","新北市泰山區明志路三段531巷2號","121.421401666667","25.029755","6500500","新莊區"
"242061","362-BY","2017/11/30 17:49:48","新北市新莊區瓊林南路206號","121.434021666667","25.006465","6500500","新莊區"
"242058","353-BY","2017/11/30 17:49:39","新北市新莊區中正路702-3號","121.417453333333","25.02599","6500500","新莊區"
"242036","133-UY","2017/11/30 17:49:53","新北市新莊區後港一路89號","121.42764","25.0267716666667","6500500","新莊區"
"242021","135-UY","2017/11/30 17:49:49","新北市新莊區永寧街35巷1號","121.452863333333","25.039235","6500500","新莊區"
"242046","172-VK","2017/11/30 17:49:35","新北市新莊區福營路97巷25號","121.435191666667","25.0317466666667","6500500","新莊區"
"242009","173-VK","2017/11/30 17:49:52","新北市新莊區昌明街56號","121.45573","25.0523683333333","6500500","新莊區"
"242015","175-VK","2017/11/30 17:49:42","新北市新莊區新泰路434號","121.443463333333","25.044435","6500500","新莊區"
"242001","233-RS","2017/11/30 09:16:31","新北市新莊區環河路48-7號","121.436893333333","25.0097933333333","6500500","新莊區"
"242013","346-TH","2017/11/30 17:49:36","新北市新莊區中泰街104巷5弄8號","121.448261666667","25.046945","6500500","新莊區"
"242007","347-TH","2017/11/30 17:49:54","新北市新莊區福樂街108巷6號","121.45755","25.0478366666667","6500500","新莊區"
"242019","348-TH","2017/11/30 17:49:38","新北市新莊區復興路二段31號","121.454251666667","25.04403","6500500","新莊區"
"242056","349-TH","2017/11/30 17:49:43","新北市新莊區瓊林路38巷39號","121.446515","25.0303433333333","6500500","新莊區"
"242017","350-TH","2017/11/30 17:49:46","新北市新莊區永安街1號","121.452386666667","25.0448416666667","6500500","新莊區"
"242011","351-TH","2017/11/30 17:49:52","新北市新莊區中港路699號","121.450503333333","25.0569833333333","6500500","新莊區"
"238015","755-BX","2017/11/30 17:49:50","新北市樹林區樹德街136巷43號","121.420183333333","24.9944","6500700","樹林區"
"238023","601-UM","2017/11/30 17:49:47","新北市樹林區福興街13巷7號","121.404221666667","25.016765","6500700","樹林區"
"238019","599-UM","2017/11/30 17:49:41","新北市樹林區太平路148號","121.418536666667","24.9780883333333","6500700","樹林區"
"238018","571-TV","2017/11/30 17:49:50","新北市樹林區博愛街3-1號","121.427568333333","24.9927816666667","6500700","樹林區"
"238021","KEA-2217","2017/11/30 17:49:35","新北市樹林區柑園街一段253巷35號","121.396733333333","24.9537766666667","6500700","樹林區"
"238022","KEA-2213","2017/11/30 17:49:50","新北市樹林區太順街62巷3弄10號","121.417225","24.9796083333333","6500700","樹林區"
"238025","303-VK","2017/11/30 17:49:50","新北市樹林區俊興街211巷7弄1-2號","121.417016666667","25.01426","6500700","樹林區"
"238017","283-BY","2017/11/30 17:49:51","新北市樹林區三德街30巷31號","121.414703333333","25.0122766666667","6500700","樹林區"
"238014","282-BY","2017/11/30 17:49:53","新北市樹林區保安街一段313巷28號","121.416998333333","24.9974166666667","6500700","樹林區"
"238020","268-VK","2017/11/30 17:49:47","新北市樹林區俊英街155巷167號","121.424413333333","25.0116866666667","6500700","樹林區"
"238026","172-UY","2017/11/30 17:49:32","新北市樹林區新興街67號","121.399823333333","24.9708066666667","6500700","樹林區"
"238016","169-UY","2017/11/30 17:49:48","新北市樹林區復興路296號","121.417198333333","24.9873383333333","6500700","樹林區"
"239007","AAC-297","2017/11/30 17:49:37","新北市鶯歌區鶯桃路97巷1-1號","121.338511666667","24.9543716666667","6500800","鶯歌區"
"239006","891-R6","2017/11/30 17:49:45","新北市鶯歌區永和街115巷34號","121.333283333333","24.9692666666667","6500800","鶯歌區"
"239008","527-UM","2017/11/30 17:49:39","新北市鶯歌區大湖路700巷16號","121.333636666667","24.9766916666667","6500800","鶯歌區"
"239005","526-UM","2017/11/30 17:49:40","新北市鶯歌區鳳吉五街13號","121.32678","24.9724466666667","6500800","鶯歌區"
"239001","417-VK","2017/11/30 17:49:45","新北市鶯歌區中正三路412號","121.324871666667","24.9346833333333","6500800","鶯歌區"
"239003","360-BY","2017/11/30 17:49:50","新北市鶯歌區鶯桃路289-1號","121.334718333333","24.9601433333333","6500800","鶯歌區"
"239002","359-BY","2017/11/30 17:49:47","新北市鶯歌區育樂街68號","121.343411666667","24.95504","6500800","鶯歌區"
"239004","193-VK","2017/11/30 17:49:39","新北市鶯歌區文化路136巷58號","121.350491666667","24.9500733333333","6500800","鶯歌區"
"221008","489-VK","2017/11/30 17:49:52","新北市汐止區康寧街901號","121.651366666667","25.0750733333333","6501100","汐止區"
"221036","130-UY","2017/11/30 17:49:45","新北市汐止區長江街89號","121.65781","25.072515","6501100","汐止區"
"221010","269-BY","2017/11/30 17:49:40","新北市汐止區汐萬路二段40號","121.649531666667","25.0814783333333","6501100","汐止區"
"221012","276-VK","2017/11/30 13:12:08","新北市汐止區汐萬路一段256巷3號","121.653465","25.0746316666667","6501100","汐止區"
"221012","278-VK","2017/11/30 17:49:32","新北市汐止區長江街63號","121.656726666667","25.0718383333333","6501100","汐止區"
"221023","279-VK","2017/11/30 17:49:44","新北市汐止區民族二街9號","121.63497","25.070875","6501100","汐止區"
"221032","280-BY","2017/11/30 17:49:49","新北市汐止區大同路一段142-1號","121.631341666667","25.0554033333333","6501100","汐止區"
"221027","281-BY","2017/11/30 17:49:35","新北市汐止區汐萬路一段312號","121.650356666667","25.074995","6501100","汐止區"
"221029","298-VK","2017/11/30 17:49:39","新北市汐止區康寧街901號","121.65153","25.0748416666667","6501100","汐止區"
"221021","299-VK","2017/11/30 17:49:47","新北市汐止區水源路一段17號","121.65717","25.066725","6501100","汐止區"
"221031","353-TW","2017/11/30 17:49:39","新北市汐止區康寧街861巷1號","121.645425","25.0759216666667","6501100","汐止區"
"221015","567-BX","2017/11/30 17:47:25","新北市汐止區汐萬路一段39號","121.654955","25.0690483333333","6501100","汐止區"
"221035","622-UM","2017/11/30 17:49:50","新北市汐止區汐萬路一段191號","121.652468333333","25.071665","6501100","汐止區"
"221025","623-UM","2017/11/30 17:49:39","新北市汐止區大同路二段169巷22弄32號","121.651775","25.0654666666667","6501100","汐止區"
"221038","646-BX","2017/11/30 17:49:44","新北市汐止區汐萬路一段273號","121.650428333333","25.074495","6501100","汐止區"
"221033","647-BX","2017/11/30 17:49:10","新北市汐止區林森街132巷6弄6號","121.624478333333","25.0405983333333","6501100","汐止區"
"220010","303-R5","2017/11/30 16:40:01","新北市板橋區民生路二段120號","121.470393333333","25.0197033333333","6500100","板橋區"
"242002","280-VK","2017/11/30 17:49:47","新北市新莊區景德路166號","121.450515","25.0342","6500500","新莊區"
