"lineid","car","time","location","longitude","latitude","cityid","cityname"
"234046","148-BY","2017/11/30 18:49:40","新北市永和區秀朗路二段124-3號","121.524791666667","25.00153","6500400","永和區"
"234013","149-BY","2017/11/30 18:49:37","新北市永和區仁愛路202巷42號","121.50885","25.01333","6500400","永和區"
"234007","207-UY","2017/11/30 18:49:45","新北市永和區文化路91號","121.513423333333","25.0152116666667","6500400","永和區"
"234081","298-R6","2017/11/30 18:49:44","新北市永和區永利路108號","121.521253333333","25.00339","6500400","永和區"
"234038","336-UY","2017/11/30 18:49:38","新北市永和區環河東路三段34號","121.526501666667","25.0068666666667","6500400","永和區"
"234064","337-UY","2017/11/30 18:49:41","新北市永和區環河東路二段92號","121.524441666667","25.01061","6500400","永和區"
"234086","338-UY","2017/11/30 18:49:54","新北市永和區中正路64號","121.51341","24.994895","6500400","永和區"
"234070","552-UM","2017/11/30 18:49:39","新北市永和區福和路1號","121.525655","25.0094433333333","6500400","永和區"
"234054","553-UM","2017/11/30 18:49:44","新北市永和區豫溪街189巷2號","121.522995","25.0103783333333","6500400","永和區"
"234017","745-BX","2017/11/30 18:49:41","新北市永和區忠孝街26巷27弄1號","121.515231666667","25.0169183333333","6500400","永和區"
"234030","746-BX","2017/11/30 18:49:47","新北市永和區得和路337號","121.523736666667","24.9995716666667","6500400","永和區"
"234061","AAD-866","2017/11/30 18:49:40","新北市永和區福和路307號","121.516245","25.0070716666667","6500400","永和區"
"234042","862-TW","2017/11/30 18:49:43","新北市永和區永貞路271號","121.511748333333","25.0048283333333","6500400","永和區"
"234050","863-TW","2017/11/30 18:49:47","新北市永和區保安路2號","121.51083","25.0174316666667","6500400","永和區"
"234026","9371-KE","2017/11/30 18:49:40","新北市永和區自由街54號","121.513691666667","25.0060183333333","6500400","永和區"
"234011","9373-KE","2017/11/30 18:49:43","新北市永和區仁愛路68號","121.513146666667","25.0133216666667","6500400","永和區"
"249005","172-UM","2017/11/30 18:49:39","新北市八里區長道坑16-2號","121.39522","25.1170133333333","6502300","八里區"
"249001","173-UM","2017/11/30 18:49:50","新北市八里區龍米路二段71號","121.44799","25.1413566666667","6502300","八里區"
"249004","303-UY","2017/11/30 18:49:41","新北市八里區挖子尾街6號","121.415495","25.1642283333333","6502300","八里區"
"248014","025-BX","2017/11/30 18:49:38","新北市五股區成泰路二段252號","121.44049","25.0871866666667","6501500","五股區"
"248016","026-BX","2017/11/30 18:49:36","新北市五股區成泰路三段543巷50號","121.450071666667","25.1028283333333","6501500","五股區"
"248006","077-UY","2017/11/30 18:49:38","新北市五股區四維路1巷3-1號","121.46609","25.0702916666667","6501500","五股區"
"248008","095-VK","2017/11/30 18:49:50","新北市五股區中興路一段126號","121.465538333333","25.0736016666667","6501500","五股區"
"248020","225-UY","2017/11/30 18:49:49","新北市五股區凌雲路三段92號","121.42829","25.1196966666667","6501500","五股區"
"248012","247-BX","2017/11/30 18:49:49","新北市五股區成泰路二段147巷34-6號","121.436573333333","25.08883","6501500","五股區"
"248010","272-BY","2017/11/30 18:49:38","新北市五股區水碓三路63號","121.430293333333","25.0715933333333","6501500","五股區"
"248005","653-BX","2017/11/30 10:37:53","新北市五股區中興路二段83巷26-6號","121.459806666667","25.0750683333333","6501500","五股區"
"248004","677-BX","2017/11/30 18:49:53","新北市五股區民義路二段63號","121.409443333333","25.1052566666667","6501500","五股區"
"248002","678-BX","2017/11/30 18:49:49","新北市五股區成泰路三段454號","121.451408333333","25.1003616666667","6501500","五股區"
"234023","9380-KE","2017/11/30 18:49:47","新北市永和區竹林路119巷24號","121.521163333333","25.0116366666667","6500400","永和區"
"234077","969-R7","2017/11/30 18:49:43","新北市永和區中正路2巷29弄13號","121.513681666667","24.994095","6500400","永和區"
"234074","AAC-211","2017/11/30 18:49:48","新北市永和區福和路1號","121.526211666667","25.0096766666667","6500400","永和區"
"234067","AAC-212","2017/11/30 18:49:38","新北市永和區永和路一段22號","121.512996666667","25.0048116666667","6500400","永和區"
"234003","AAC-295","2017/11/30 18:49:47","新北市永和區中正路633號","121.515506666667","25.0100716666667","6500400","永和區"
"232011","375-UM","2017/11/30 18:24:54","新北市坪林區坪雙路一段31號","121.71173","24.9424083333333","6502000","坪林區"
"244013","069-UM","2017/11/30 18:49:52","新北市林口區文化一路一段137號","121.373778333333","25.072265","6501700","林口區"
"244007","080-UY","2017/11/30 18:49:45","新北市林口區湖北里56號","121.38438","25.1066733333333","6501700","林口區"
"244019","403-UM","2017/11/30 18:49:35","新北市林口區忠孝路616巷7號","121.377196666667","25.067955","6501700","林口區"
"244009","410-SL","2017/11/30 18:49:48","新北市林口區竹林路326巷84號","121.392748333333","25.0825966666667","6501700","林口區"
"244023","483-VK","2017/11/30 18:49:38","新北市林口區文化三路二段181-1號","121.375861666667","25.082245","6501700","林口區"
"244017","485-VK","2017/11/30 18:49:49","新北市林口區文化二路一段20巷25弄9號","121.365338333333","25.0671716666667","6501700","林口區"
"244011","701-TV","2017/11/30 18:49:42","新北市林口區仁愛路一段256號","121.39444","25.075855","6501700","林口區"
"244025","837-TS","2017/11/30 18:49:49","新北市林口區忠孝一路162號","121.359295","25.07391","6501700","林口區"
"243011","267-VK","2017/11/30 18:49:33","新北市泰山區明志路二段27號","121.429763333333","25.05332","6501600","泰山區"
"243012","AAD-798","2017/11/30 18:49:35","新北市泰山區泰林路二段73巷29號","121.434396666667","25.0578316666667","6501600","泰山區"
"243009","297-R6","2017/11/30 15:55:23","新北市泰山區黎明路25號","121.421993333333","25.0609633333333","6501600","泰山區"
"243015","380-SR","2017/11/30 18:49:37","新北市泰山區美寧街57巷34號","121.429645","25.0651383333333","6501600","泰山區"
"243013","646-TV","2017/11/30 18:49:42","新北市泰山區明志路三段206巷3號","121.423288333333","25.0379633333333","6501600","泰山區"
"243016","680-BX","2017/11/30 18:49:47","新北市泰山區泰林路二段364號","121.428691666667","25.0637333333333","6501600","泰山區"
"222003","436-BY","2017/11/30 18:49:39","新北市深坑區翠谷街1號","121.625606666667","25.0070483333333","6501800","深坑區"
"222002","659-BX","2017/11/30 18:49:50","新北市深坑區文山路一段69號","121.626958333333","25.0018616666667","6501800","深坑區"
"231041","001-UM","2017/11/30 18:49:40","新北市新店區安華路28-1號","121.519655","24.96077","6500600","新店區"
"231059","046-UY","2017/11/30 18:49:40","新北市新店區安華路28-1號","121.51958","24.960865","6500600","新店區"
"231061","047-UY","2017/11/30 18:49:42","新北市新店區安華路28-1號","121.519015","24.9609783333333","6500600","新店區"
"231060","106-UY","2017/11/30 18:49:49","新北市新店區安華路28-1號","121.519591666667","24.96086","6500600","新店區"
"231051","110-UY","2017/11/30 18:49:46","新北市新店區中央路63號","121.53258","24.9771033333333","6500600","新店區"
"231052","187-VK","2017/11/30 18:49:37","新北市新店區新烏路一段105巷9號","121.546348333333","24.9409966666667","6500600","新店區"
"231047","188-VK","2017/11/30 18:49:41","新北市新店區安康路一段295號","121.522513333333","24.9636916666667","6500600","新店區"
"231050","KEA-2219","2017/11/30 18:49:43","新北市新店區安康路一段198號","121.524376666667","24.9634133333333","6500600","新店區"
"231063","268-BY","2017/11/30 18:49:56","新北市新店區車子路109號","121.505268333333","24.9521033333333","6500600","新店區"
"231046","278-BY","2017/11/30 18:49:38","新北市新店區直潭路71號","121.53241","24.94218","6500600","新店區"
"231054","AAD-862","2017/11/30 18:49:41","新北市新店區秀山路68-1號","121.531","24.961","6500600","新店區"
"231058","3712-VJ","2017/11/30 18:49:53","新北市新店區北宜路一段40號","121.538308333333","24.9566133333333","6500600","新店區"
"231056","3713-VJ","2017/11/30 18:49:44","新北市新店區大豐路68巷11號","121.538686666667","24.980155","6500600","新店區"
"231055","4716-K9","2017/11/30 18:49:46","新北市新店區新生街37號","121.539396666667","24.9669166666667","6500600","新店區"
"231067","4772-VM","2017/11/30 18:49:37","新北市新店區安康路一段76巷28-2號","121.528158333333","24.96309","6500600","新店區"
"231064","515-UM","2017/11/30 18:49:51","新北市新店區安華路28-1號","121.519571666667","24.960985","6500600","新店區"
"231042","616-UM","2017/11/30 18:49:39","新北市新店區光明街151號","121.53943","24.9623366666667","6500600","新店區"
"231040","619-UM","2017/11/30 18:49:50","新北市新店區中央路179-3號","121.535663333333","24.9691433333333","6500600","新店區"
"231049","719-UM","2017/11/30 18:49:50","新北市新店區中正路454-5號","121.534446666667","24.979045","6500600","新店區"
"231065","719-UY","2017/11/30 18:49:41","新北市新店區車子路10-4號","121.505021666667","24.954545","6500600","新店區"
"231062","720-UM","2017/11/30 18:49:34","新北市新店區安忠路205巷8號","121.509331666667","24.9549166666667","6500600","新店區"
"231044","897-TW","2017/11/30 18:49:44","新北市新店區寶中路72號","121.54785","24.9805916666667","6500600","新店區"
"231045","898-TW","2017/11/30 18:49:37","新北市新店區安康路一段293號","121.52266","24.9636716666667","6500600","新店區"
"231043","899-TW","2017/11/30 18:49:34","新北市新店區安康路一段52巷2號","121.530061666667","24.9611633333333","6500600","新店區"
"231066","AKT-0513","2017/11/30 18:49:49","新北市新店區安豐路22巷3-1號","121.502598333333","24.955455","6500600","新店區"
"241003","091-VK","2017/11/30 18:49:36","新北市五股區國道路三段22號","121.468325","25.075235","6500200","三重區"
"235066","003-UY","2017/11/30 18:49:45","新北市中和區水源路7巷29號","121.504083333333","25.00386","6500300","中和區"
"235063","006-UY","2017/11/30 18:49:40","新北市中和區連城路349號","121.488081666667","24.9961433333333","6500300","中和區"
"235047","031-BX","2017/11/30 18:49:45","新北市中和區興南路二段34巷57弄1號","121.504865","24.98582","6500300","中和區"
"235056","096-UM","2017/11/30 18:49:40","新北市中和區員山路611巷1號","121.47794","25.0112516666667","6500300","中和區"
"235039","097-UM","2017/11/30 18:49:42","新北市中和區安樂路143巷19號","121.513623333333","24.997045","6500300","中和區"
"235065","098-UM","2017/11/30 18:49:39","新北市中和區莊敬路33巷23號","121.50058","25.0071933333333","6500300","中和區"
"235040","150-BY","2017/11/30 18:49:42","新北市中和區宜安路35號","121.512223333333","24.9961566666667","6500300","中和區"
"235058","151-BY","2017/11/30 18:49:35","新北市中和區連城路532巷34弄18號","121.475163333333","24.992745","6500300","中和區"
"235055","183-VK","2017/11/30 18:49:40","新北市中和區民生街42號","121.469611666667","25.0051866666667","6500300","中和區"
"235038","185-VK","2017/11/30 18:49:52","新北市中和區立人街67號","121.52002","24.9942166666667","6500300","中和區"
"235049","186-VK","2017/11/30 18:49:51","新北市中和區景安路132巷3號","121.504681666667","24.9942433333333","6500300","中和區"
"235067","255-BX","2017/11/30 18:49:37","新北市中和區中山路二段475號","121.48317","25.0049083333333","6500300","中和區"
"235044","293-VK","2017/11/30 18:49:37","新北市中和區中興街131號","121.499925","24.9915566666667","6500300","中和區"
"235072","301-VK","2017/11/30 18:49:45","新北市中和區中山路二段45號","121.504523333333","25.0050066666667","6500300","中和區"
"235043","352-BY","2017/11/30 18:49:38","新北市中和區成功路129號","121.525901666667","24.990675","6500300","中和區"
"235068","377-QA","2017/11/30 15:53:04","新北市中和區員山路36巷16-3號","121.48504","24.9912283333333","6500300","中和區"
"235061","378-QA","2017/11/30 18:07:59","新北市中和區中正路741號","121.485028333333","24.9996","6500300","中和區"
"235050","4979-A6","2017/11/30 18:49:34","新北市中和區忠孝街62巷5號","121.512771666667","24.98354","6500300","中和區"
"235069","4980-A6","2017/11/30 18:49:44","新北市中和區南山路81巷8弄12號","121.502543333333","24.99767","6500300","中和區"
"235042","551-UM","2017/11/30 18:49:50","新北市中和區秀朗路三段128巷36弄2號","121.52482","24.9936816666667","6500300","中和區"
"235070","558-UM","2017/11/30 18:49:52","新北市中和區景平路451號","121.50073","24.9963233333333","6500300","中和區"
"235045","565-BX","2017/11/30 18:49:43","新北市中和區復興路52號","121.504095","24.990185","6500300","中和區"
"235054","640-BX","2017/11/30 18:49:42","新北市中和區民享街54巷17號","121.473206666667","25.0022866666667","6500300","中和區"
"235060","647-TV","2017/11/30 18:49:34","新北市中和區中山路三段165號","121.473241666667","25.0062216666667","6500300","中和區"
"235046","733-UM","2017/11/30 18:49:47","新北市中和區仁愛街36巷28號","121.51093","24.986925","6500300","中和區"
"235062","800-TS","2017/11/30 18:49:43","新北市中和區景平路726-2號","121.496643333333","25.0034933333333","6500300","中和區"
"235057","801-TS","2017/11/30 18:49:53","新北市中和區民安街30號","121.480273333333","25.0005416666667","6500300","中和區"
"235041","802-TS","2017/11/30 18:49:49","新北市中和區宜安路118巷16號","121.510743333333","24.99854","6500300","中和區"
"235052","805-TS","2017/11/30 18:49:46","新北市中和區興南路二段399巷98弄70號","121.49791","24.976355","6500300","中和區"
"235048","896-TW","2017/11/30 18:49:41","新北市中和區南山路300號","121.50783","24.9872083333333","6500300","中和區"
"235053","900-TW","2017/11/30 18:49:47","新北市中和區華福街42巷5號","121.46639","24.9961683333333","6500300","中和區"
"235064","911-UM","2017/11/30 18:49:38","新北市中和區連城路127巷11-1號","121.496706666667","24.998585","6500300","中和區"
"235037","157-BY","2017/11/30 18:49:47","新北市中和區華新街109巷11弄2-4號","121.50873","24.9795483333333","6500300","中和區"
"235037","AAC-213","2017/11/30 18:49:45","新北市中和區秀朗路三段128巷1弄2號","121.524596666667","24.9924533333333","6500300","中和區"
"235059","AAC-215","2017/11/30 18:49:52","新北市中和區圓通路393巷23號","121.49033","24.9884783333333","6500300","中和區"
"220068","013-TV","2017/11/30 18:49:41","新北市板橋區民生路二段120號","121.470471666667","25.01959","6500100","板橋區"
"220065","072-UY","2017/11/30 18:49:53","新北市板橋區館前東路5號","121.459738333333","25.007165","6500100","板橋區"
"220086","073-UY","2017/11/30 18:49:55","新北市板橋區大智街71巷3弄1號","121.453515","25.0152566666667","6500100","板橋區"
"220106","075-UY","2017/11/30 18:49:36","新北市板橋區民生路二段161巷9號","121.470176666667","25.019565","6500100","板橋區"
"220069","AAD-861","2017/11/30 18:49:52","新北市板橋區大華街2號","121.458721666667","25.0066033333333","6500100","板橋區"
"220102","120-SR","2017/11/30 18:49:53","新北市板橋區民生路二段120號","121.470456666667","25.0195366666667","6500100","板橋區"
"226004","312-R5","2017/11/30 18:49:41","新北市平溪區靜安路二段350號","121.73747","25.0244583333333","6502400","平溪區"
"228003","097-TW","2017/11/30 18:49:51","新北市貢寮區和美里龍洞街40號","121.914338333333","25.1120833333333","6502600","貢寮區"
"228001","212-TW","2017/11/30 18:49:51","新北市貢寮區仁理村保健街69號","121.923708333333","25.0516233333333","6502600","貢寮區"
"228002","585-TW","2017/11/30 18:49:44","新北市貢寮區福隆里東興街6-11號","121.950728333333","25.02105","6502600","貢寮區"
"224010","AGQ-8101","2017/11/30 18:49:08","新北市瑞芳區基山街4-7號","121.845303333333","25.1094666666667","6501200","瑞芳區"
"224006","676-BX","2017/11/30 18:49:47","新北市瑞芳區中正路65號","121.806111666667","25.1074433333333","6501200","瑞芳區"
"224009","285-BY","2017/11/30 18:49:52","新北市瑞芳區祈堂路2號","121.859806666667","25.1116583333333","6501200","瑞芳區"
"224008","275-VK","2017/11/30 18:49:44","新北市瑞芳區瑞芳街150號","121.801143333333","25.1115916666667","6501200","瑞芳區"
"224007","273-VK","2017/11/30 18:49:50","新北市瑞芳區大埔路269號","121.762133333333","25.1008316666667","6501200","瑞芳區"
"224005","271-BY","2017/11/30 18:49:47","新北市瑞芳區瑞濱路20-1號","121.826051666667","25.1211916666667","6501200","瑞芳區"
"227010","642-TC","2017/11/30 18:49:54","新北市雙溪區牡丹里聖南19號","121.85782","25.05264","6502500","雙溪區"
"227004","400-TW","2017/11/30 18:49:52","新北市雙溪區平林里梅竹蹊24號","121.861701666667","25.0359983333333","6502500","雙溪區"
"253005","032-BX","2017/11/30 18:49:43","新北市石門區內石門2號","121.5651","25.290945","6502200","石門區"
"253006","295-VK","2017/11/30 18:49:40","新北市石門區下員坑15-13號","121.511823333333","25.28469","6502200","石門區"
"222001","KEA-2212","2017/11/30 18:49:47","新北市深坑區松柏街30巷1號","121.638708333333","25.0112533333333","6501800","深坑區"
"208002","742-BX","2017/11/30 18:49:34","新北市金山區信義路61號","121.635718333333","25.21892","6502700","金山區"
"208003","665-BX","2017/11/30 18:49:47","新北市金山區中山路346號","121.633431666667","25.2253216666667","6502700","金山區"
"208001","761-BX","2017/11/30 18:49:48","新北市金山區文化三路66巷2弄1號","121.634336666667","25.2256983333333","6502700","金山區"
"251014","182-VK","2017/11/30 18:49:33","新北市淡水區崙頂2-5號","121.492103333333","25.2239683333333","6501000","淡水區"
"251010","413-VK","2017/11/30 18:49:38","新北市淡水區沙崙路20號","121.421238333333","25.1811316666667","6501000","淡水區"
"251012","441-VK","2017/11/30 18:49:37","新北市淡水區新興街1號","121.443885","25.180225","6501000","淡水區"
"251016","442-VK","2017/11/30 18:49:51","新北市淡水區下圭柔山71-3號","121.447086666667","25.2061666666667","6501000","淡水區"
"251001","559-UM","2017/11/30 18:49:52","新北市淡水區自強路94號","121.462495","25.1288","6501000","淡水區"
"251011","650-BX","2017/11/30 18:49:43","新北市淡水區學府路35號","121.447933333333","25.1689633333333","6501000","淡水區"
"251002","672-BX","2017/11/30 18:49:44","新北市淡水區學府路36號","121.44791","25.1688266666667","6501000","淡水區"
"251003","766-UM","2017/11/30 18:49:35","新北市淡水區中山北路一段153號","121.443241666667","25.177385","6501000","淡水區"
"207003","550-UM","2017/11/30 18:49:33","新北市萬里區大鵬里頂社24-5號","121.658236666667","25.2089183333333","6502800","萬里區"
"207004","225-TW","2017/11/30 18:49:36","新北市萬里區萬里里獅頭路23號","121.693235","25.1782083333333","6502800","萬里區"
"252003","249-BX","2017/11/30 18:49:49","新北市三芝區後厝里大片頭108號","121.458505","25.242795","6502100","三芝區"
"252001","292-VK","2017/11/30 18:49:37","新北市三芝區中正路三段9號","121.502878333333","25.2540016666667","6502100","三芝區"
"252002","AAC-283","2017/11/30 18:49:52","新北市三芝區中正路一段112號","121.50484","25.2563566666667","6502100","三芝區"
"237004","078-UY","2017/11/30 18:49:47","新北市三峽區插角219-3號","121.416488333333","24.8657483333333","6500900","三峽區"
"237007","153-BY","2017/11/30 18:49:37","新北市三峽區柑樹路2巷38號","121.361708333333","24.9052116666667","6500900","三峽區"
"237009","210-TH","2017/11/30 18:49:37","新北市三峽區中山路93號","121.366283333333","24.9354466666667","6500900","三峽區"
"237013","252-BX","2017/11/30 18:49:54","新北市三峽區大同路48巷17弄8-1號","121.376741666667","24.929015","6500900","三峽區"
"237012","275-BY","2017/11/30 18:49:37","新北市三峽區三樹路340號","121.384026666667","24.9433133333333","6500900","三峽區"
"237008","302-VK","2017/11/30 18:49:34","新北市三峽區白雞33-60號","121.370905","24.9131083333333","6500900","三峽區"
"237014","433-BY","2017/11/30 18:49:45","新北市三峽區復興路480巷41號","121.359845","24.9401483333333","6500900","三峽區"
"237006","5529-G3","2017/11/30 18:49:42","新北市三峽區溪東路211巷11號","121.405211666667","24.933715","6500900","三峽區"
"237011","572-TV","2017/11/30 18:05:29","新北市三峽區溪北街2號","121.396006666667","24.9362183333333","6500900","三峽區"
"237016","649-BX","2017/11/30 18:49:42","新北市三峽區建安74號","121.44964","24.9254533333333","6500900","三峽區"
"237010","706-TV","2017/11/30 18:45:47","新北市三峽區復興路321號","121.364835","24.9387533333333","6500900","三峽區"
"237005","AKY-6261","2017/11/30 18:49:39","新北市三峽區中山路459巷92號","121.354606666667","24.93605","6500900","三峽區"
"236071","105-UM","2017/11/30 18:49:44","新北市土城區延和路19號","121.46434","24.9884566666667","6501300","土城區"
"236042","107-UM","2017/11/30 18:49:44","新北市土城區裕民路114巷18號","121.450386666667","24.985885","6501300","土城區"
"236030","253-BX","2017/11/30 18:49:46","新北市土城區忠義路26巷19號","121.439865","24.96983","6501300","土城區"
"236026","269-VK","2017/11/30 18:49:47","新北市土城區慶安街79號","121.440631666667","24.9725383333333","6501300","土城區"
"236014","270-VK","2017/11/30 18:49:37","新北市土城區金城路二段354巷4號","121.460715","24.9845566666667","6501300","土城區"
"236037","271-VK","2017/11/30 18:49:38","新北市土城區明德路一段247巷21號","121.463095","24.9774116666667","6501300","土城區"
"236021","401-BY","2017/11/30 18:49:49","新北市土城區延吉街253巷13號","121.467865","24.9843633333333","6501300","土城區"
"236078","752-BX","2017/11/30 18:49:47","新北市土城區中央路四段125巷29號","121.417835","24.9563633333333","6501300","土城區"
"236058","912-UM","2017/11/30 18:49:37","新北市土城區中央路三段119-1號","121.434235","24.965595","6501300","土城區"
"236051","913-UM","2017/11/30 18:49:52","新北市土城區青雲路35號","121.460016666667","24.9887016666667","6501300","土城區"
"236062","915-UM","2017/11/30 18:49:41","新北市土城區延和路201號","121.46951","24.9901316666667","6501300","土城區"
"236053","AAC-216","2017/11/30 18:49:52","新北市土城區裕民路175號","121.453271666667","24.9848266666667","6501300","土城區"
"242025","615-BX","2017/11/30 18:39:52","新北市新莊區新泰路255巷83號","121.442265","25.0388433333333","6500500","新莊區"
"242061","362-BY","2017/11/30 18:49:48","新北市新莊區新泰路255巷83號","121.442175","25.0390216666667","6500500","新莊區"
"242058","353-BY","2017/11/30 18:49:39","新北市新莊區中正路535-4號","121.437875","25.033055","6500500","新莊區"
"242001","233-RS","2017/11/30 09:16:31","新北市新莊區環河路48-7號","121.436893333333","25.0097933333333","6500500","新莊區"
"242007","347-TH","2017/11/30 18:49:32","新北市新莊區新樹路647-1號","121.435666666667","25.0029633333333","6500500","新莊區"
"238023","601-UM","2017/11/30 18:49:46","新北市樹林區三福街114號","121.40644","25.0163733333333","6500700","樹林區"
"238019","599-UM","2017/11/30 18:49:41","新北市樹林區東榮街147巷2弄19號","121.414105","24.9810766666667","6500700","樹林區"
"238018","571-TV","2017/11/30 18:49:44","新北市樹林區鎮前街165號","121.422246666667","24.9871733333333","6500700","樹林區"
"238024","5061-A6","2017/11/30 18:49:37","新北市樹林區太平路248號","121.418215","24.9735033333333","6500700","樹林區"
"238022","KEA-2213","2017/11/30 18:49:50","新北市樹林區東大街1-3號","121.41351","24.976565","6500700","樹林區"
"238025","303-VK","2017/11/30 18:49:50","新北市樹林區中山路三段22號","121.395628333333","24.9729183333333","6500700","樹林區"
"238014","282-BY","2017/11/30 18:49:32","新北市樹林區中山路三段125-2號","121.397051666667","24.97343","6500700","樹林區"
"238020","268-VK","2017/11/30 18:49:46","新北市樹林區俊英街79號","121.426095","25.0075283333333","6500700","樹林區"
"238026","172-UY","2017/11/30 18:49:52","新北市樹林區中和街8號","121.391608333333","24.9730716666667","6500700","樹林區"
"238016","169-UY","2017/11/30 18:49:48","新北市樹林區文化街28號","121.41934","24.9876883333333","6500700","樹林區"
"239007","AAC-297","2017/11/30 18:49:36","新北市鶯歌區中正一路建德巷38號","121.364501666667","24.9578066666667","6500800","鶯歌區"
"239008","527-UM","2017/11/30 18:49:46","新北市鶯歌區晨曦街18號","121.33756","24.97644","6500800","鶯歌區"
"239005","526-UM","2017/11/30 18:49:40","新北市鶯歌區鳳吉一街68號","121.326595","24.9741766666667","6500800","鶯歌區"
"239001","417-VK","2017/11/30 18:49:45","新北市鶯歌區鶯桃路36號","121.341656666667","24.9525833333333","6500800","鶯歌區"
"239003","360-BY","2017/11/30 18:49:50","新北市鶯歌區鶯桃路561號","121.330208333333","24.9683066666667","6500800","鶯歌區"
"239002","359-BY","2017/11/30 18:49:47","新北市鶯歌區中山路286-1號","121.344053333333","24.9570066666667","6500800","鶯歌區"
"239004","193-VK","2017/11/30 18:49:19","新北市鶯歌區中正三路230巷1號","121.330918333333","24.93797","6500800","鶯歌區"
"221008","489-VK","2017/11/30 18:49:52","新北市汐止區康寧街901號","121.651355","25.0750533333333","6501100","汐止區"
"221036","130-UY","2017/11/30 18:49:45","新北市汐止區水碓街40號","121.665031666667","25.068625","6501100","汐止區"
"221010","269-BY","2017/11/30 18:49:53","新北市汐止區汐萬路二段9號","121.649388333333","25.0803816666667","6501100","汐止區"
"221012","276-VK","2017/11/30 13:12:08","新北市汐止區汐萬路一段256巷3號","121.653465","25.0746316666667","6501100","汐止區"
"221012","278-VK","2017/11/30 18:49:32","新北市汐止區康寧街901號","121.650881666667","25.07529","6501100","汐止區"
"221023","279-VK","2017/11/30 18:49:44","新北市汐止區汐萬路一段256巷3號","121.653366666667","25.0744783333333","6501100","汐止區"
"221032","280-BY","2017/11/30 18:49:49","新北市汐止區橫科路121巷52弄3號","121.622656666667","25.0509366666667","6501100","汐止區"
"221027","281-BY","2017/11/30 18:49:35","新北市汐止區康寧街901號","121.651425","25.074965","6501100","汐止區"
"221029","298-VK","2017/11/30 18:49:39","新北市汐止區工建路60號","121.640655","25.06292","6501100","汐止區"
"221021","299-VK","2017/11/30 18:49:47","新北市汐止區南興路8號","121.65189","25.06294","6501100","汐止區"
"221031","353-TW","2017/11/30 18:49:39","新北市汐止區福德一路274號","121.632115","25.0640116666667","6501100","汐止區"
"221015","567-BX","2017/11/30 18:49:50","新北市汐止區鄉長路一段55巷22號","121.664785","25.0763683333333","6501100","汐止區"
"221035","622-UM","2017/11/30 18:49:50","新北市汐止區汐萬路一段159號","121.653066666667","25.0709916666667","6501100","汐止區"
"221025","623-UM","2017/11/30 18:49:39","新北市汐止區秀峰路120號","121.660076666667","25.0633583333333","6501100","汐止區"
"221038","646-BX","2017/11/30 18:49:44","新北市汐止區汐萬路一段256巷3號","121.65337","25.074525","6501100","汐止區"
"221033","647-BX","2017/11/30 18:49:50","新北市汐止區南勢街3號","121.627098333333","25.0374233333333","6501100","汐止區"
"221002","707-TV","2017/11/30 18:49:42","新北市汐止區大同路一段185號","121.633226666667","25.0571266666667","6501100","汐止區"
"221018","753-BX","2017/11/30 18:49:52","新北市汐止區茄興街12號","121.6735","25.0671516666667","6501100","汐止區"
"220079","145-BY","2017/11/30 18:49:52","新北市板橋區民權路202巷6弄2號","121.460035","25.0145566666667","6500100","板橋區"
"220080","200-UY","2017/11/30 18:49:50","新北市板橋區大觀路二段265巷72弄3號","121.442323333333","24.996845","6500100","板橋區"
"220082","610-BX","2017/11/30 18:49:51","新北市板橋區篤行路二段154號","121.429468333333","24.9879583333333","6500100","板橋區"
"220101","245-BX","2017/11/30 18:49:27","新北市板橋區莊敬路208巷8弄9號","121.470671666667","25.0202533333333","6500100","板橋區"
"220091","267-BY","2017/11/30 18:49:50","新北市板橋區民生路二段188號","121.469948333333","25.0203616666667","6500100","板橋區"
"220056","276-BY","2017/11/30 18:49:47","新北市土城區四川路4號","121.455751666667","24.9961016666667","6500100","板橋區"
"220072","277-BY","2017/11/30 18:49:38","新北市板橋區金門街19巷8號","121.433976666667","24.9948716666667","6500100","板橋區"
"220094","283-UM","2017/11/30 18:49:48","新北市板橋區民生路二段161巷1號","121.470028333333","25.0198583333333","6500100","板橋區"
"220071","283-VK","2017/11/30 18:49:44","新北市板橋區忠孝路27號","121.460631666667","25.0019683333333","6500100","板橋區"
"220053","285-VK","2017/11/30 18:49:44","新北市板橋區永豐街75巷21號","121.472751666667","25.0187333333333","6500100","板橋區"
"220083","286-VK","2017/11/30 18:49:48","新北市板橋區僑中二街116巷1號","121.44564","25.0062566666667","6500100","板橋區"
"220081","287-VK","2017/11/30 18:49:46","新北市板橋區光華街13巷29號","121.453071666667","25.0112466666667","6500100","板橋區"
"220090","288-VK","2017/11/30 18:49:50","新北市板橋區民生路二段120號","121.470431666667","25.01968","6500100","板橋區"
"220061","293-UM","2017/11/30 18:49:37","新北市板橋區太和街4巷13號","121.474271666667","25.0199933333333","6500100","板橋區"
"220084","296-UM","2017/11/30 18:49:39","新北市板橋區大觀路二段150巷62號","121.441518333333","25.0006316666667","6500100","板橋區"
"220075","297-UM","2017/11/30 18:49:38","新北市板橋區大觀路一段28巷98號","121.450525","25.0110233333333","6500100","板橋區"
"220062","303-R5","2017/11/30 18:49:48","新北市板橋區中山路二段24號","121.47257","25.015035","6500100","板橋區"
"220092","307-R5","2017/11/30 18:49:44","新北市板橋區民生路二段120號","121.470381666667","25.0196933333333","6500100","板橋區"
"220098","317-R6","2017/11/30 18:49:40","新北市板橋區民生路二段120號","121.47038","25.0196366666667","6500100","板橋區"
"220012","486-VK","2017/11/30 18:49:23","新北市板橋區民生路二段17號","121.47247","25.0162933333333","6500100","板橋區"
"220088","491-VK","2017/11/30 18:49:50","新北市板橋區民生路二段161巷1號","121.47001","25.01996","6500100","板橋區"
"220035","560-BX","2017/11/30 18:49:42","新北市板橋區中正路325巷30-2號","121.452948333333","25.01868","6500100","板橋區"
"220103","561-BX","2017/11/30 18:49:42","新北市板橋區民生路二段161巷7號","121.47029","25.0197083333333","6500100","板橋區"
"220063","609-BX","2017/11/30 18:49:42","新北市板橋區民生路二段36-1號","121.47215","25.0167316666667","6500100","板橋區"
"220057","686-BX","2017/11/30 18:49:53","新北市板橋區華東街1-9號","121.448213333333","24.9949016666667","6500100","板橋區"
"220077","687-BX","2017/11/30 18:49:47","新北市板橋區僑中二街152號","121.444973333333","25.0043366666667","6500100","板橋區"
"220093","689-BX","2017/11/30 17:12:19","新北市板橋區民生路二段177號","121.46973","25.02025","6500100","板橋區"
"220054","741-BX","2017/11/30 18:49:34","新北市板橋區南雅南路一段1巷42號","121.457605","25.00639","6500100","板橋區"
"220055","827-TW","2017/11/30 18:49:40","新北市板橋區館前西路53號","121.457736666667","25.0065783333333","6500100","板橋區"
"220067","829-TW","2017/11/30 18:49:50","新北市板橋區三民路二段正隆巷42號","121.476991666667","25.01376","6500100","板橋區"
"220096","831-TW","2017/11/30 18:49:55","新北市板橋區民生路二段120號","121.470346666667","25.0196683333333","6500100","板橋區"
"220074","895-R6","2017/11/30 18:49:54","新北市板橋區南門街30號","121.457136666667","25.008535","6500100","板橋區"
"220073","985-R7","2017/11/30 18:49:32","新北市板橋區館前西路86號","121.457548333333","25.0071483333333","6500100","板橋區"
"220097","AAC-210","2017/11/30 18:49:45","新北市板橋區民生路二段161巷9號","121.470238333333","25.01961","6500100","板橋區"
"220070","AAC-253","2017/11/30 18:49:34","新北市板橋區南雅南路二段4巷4號","121.454085","25.0037366666667","6500100","板橋區"
