"lineid","car","time","location","longitude","latitude","cityid","cityname"
"234046","148-BY","2017/11/30 19:19:40","新北市永和區永元路25號","121.522043333333","25.0006516666667","6500400","永和區"
"234013","149-BY","2017/11/30 19:19:46","新北市永和區信義路46-1號","121.513255","25.0124233333333","6500400","永和區"
"234007","207-UY","2017/11/30 19:19:45","新北市永和區中山路一段320號","121.506605","25.0069","6500400","永和區"
"234081","298-R6","2017/11/30 19:19:44","新北市永和區福和路7巷7號","121.525295","25.007895","6500400","永和區"
"234038","336-UY","2017/11/30 19:19:51","新北市永和區民樂街59巷1-1號","121.527736666667","24.998295","6500400","永和區"
"234064","337-UY","2017/11/30 19:19:41","新北市永和區永元路17巷6弄2號","121.521396666667","25.000725","6500400","永和區"
"234086","338-UY","2017/11/30 19:19:34","新北市永和區永利路48號","121.518928333333","25.0053916666667","6500400","永和區"
"234070","552-UM","2017/11/30 19:19:39","新北市永和區豫溪街43號","121.516895","25.0098633333333","6500400","永和區"
"234054","553-UM","2017/11/30 19:19:44","新北市永和區中興街45號","121.516405","25.0117366666667","6500400","永和區"
"234017","745-BX","2017/11/30 19:19:45","新北市永和區文化路144巷19弄12號","121.512383333333","25.0167583333333","6500400","永和區"
"234030","746-BX","2017/11/30 19:19:47","新北市永和區厚德街75號","121.524663333333","24.99871","6500400","永和區"
"241031","838-RS","2017/11/30 19:19:48","新北市永和區保順路27號","121.50386","25.0104483333333","6500200","三重區"
"234061","AAD-866","2017/11/30 19:19:40","新北市永和區秀朗路一段175號","121.51705","25.00365","6500400","永和區"
"234042","862-TW","2017/11/30 19:19:49","新北市永和區保平路151巷2弄6號","121.509786666667","25.0054566666667","6500400","永和區"
"234050","863-TW","2017/11/30 19:19:47","新北市永和區仁愛路104巷10號","121.512051666667","25.0136883333333","6500400","永和區"
"234026","9371-KE","2017/11/30 19:19:40","新北市永和區安樂路144巷31號","121.515228333333","24.9996883333333","6500400","永和區"
"234011","9373-KE","2017/11/30 19:19:43","新北市永和區保福路二段23巷19號","121.510111666667","25.0111316666667","6500400","永和區"
"249001","173-UM","2017/11/30 19:19:10","新北市八里區中華路二段61-6號","121.409893333333","25.1530316666667","6502300","八里區"
"249003","759-BX","2017/11/30 19:19:37","新北市八里區中山路二段466巷22號","121.398945","25.148295","6502300","八里區"
"248020","225-UY","2017/11/30 19:19:29","新北市五股區凌雲路三段57號","121.42529","25.1249866666667","6501500","五股區"
"248012","247-BX","2017/11/30 19:19:49","新北市五股區中興路四段48巷16號","121.438601666667","25.0834333333333","6501500","五股區"
"248010","272-BY","2017/11/30 19:19:45","新北市五股區水碓一路23號","121.430665","25.0712633333333","6501500","五股區"
"248005","653-BX","2017/11/30 10:37:53","新北市五股區中興路二段83巷26-6號","121.459806666667","25.0750683333333","6501500","五股區"
"248004","677-BX","2017/11/30 19:19:34","新北市五股區五福路43號","121.433258333333","25.0896533333333","6501500","五股區"
"248002","678-BX","2017/11/30 19:19:28","新北市五股區凌雲路一段158巷14-1號","121.447911666667","25.1034566666667","6501500","五股區"
"234023","9380-KE","2017/11/30 19:19:51","新北市永和區竹林路124巷29號","121.518443333333","25.0111433333333","6500400","永和區"
"234077","969-R7","2017/11/30 19:19:43","新北市永和區民治街72巷12號","121.518193333333","24.9986416666667","6500400","永和區"
"234074","AAC-211","2017/11/30 19:19:48","新北市永和區竹林路98號","121.519595","25.0121366666667","6500400","永和區"
"234067","AAC-212","2017/11/30 19:19:42","新北市永和區保平路50巷4號","121.51131","25.007285","6500400","永和區"
"234003","AAC-295","2017/11/30 19:19:47","新北市永和區中山路一段110號","121.510881666667","25.01036","6500400","永和區"
"244013","069-UM","2017/11/30 19:19:32","新北市林口區麗園一街4巷2號","121.376136666667","25.0708933333333","6501700","林口區"
"244019","403-UM","2017/11/30 19:19:35","新北市林口區麗園二街42巷25號","121.381931666667","25.0665016666667","6501700","林口區"
"244023","483-VK","2017/11/30 19:19:38","新北市林口區民富街99號","121.37061","25.0753233333333","6501700","林口區"
"244011","701-TV","2017/11/30 19:19:42","新北市林口區中山路97巷10號","121.389496666667","25.0782816666667","6501700","林口區"
"243011","267-VK","2017/11/30 19:19:33","新北市泰山區中央路7巷2號","121.426436666667","25.0432633333333","6501600","泰山區"
"243012","AAD-798","2017/11/30 19:19:35","新北市泰山區仁義路160號","121.4327","25.0543333333333","6501600","泰山區"
"243009","297-R6","2017/11/30 19:19:28","新北市泰山區和平街13巷7號","121.434366666667","25.0650133333333","6501600","泰山區"
"243015","380-SR","2017/11/30 19:19:37","新北市泰山區公園路71號","121.426301666667","25.055385","6501600","泰山區"
"243014","421-VK","2017/11/30 19:19:45","新北市泰山區泰林路二段117號","121.434358333333","25.0596233333333","6501600","泰山區"
"243010","KEA-2215","2017/11/30 19:19:44","新北市泰山區明志路一段494號","121.430186666667","25.0546466666667","6501600","泰山區"
"243013","646-TV","2017/11/30 19:19:42","新北市泰山區明志路三段145巷2弄13號","121.425125","25.039475","6501600","泰山區"
"243016","680-BX","2017/11/30 19:19:47","新北市泰山區工專路82巷1號","121.422425","25.0405616666667","6501600","泰山區"
"222003","436-BY","2017/11/30 19:19:38","新北市深坑區深南路204號","121.626585","25.01602","6501800","深坑區"
"222002","659-BX","2017/11/30 19:19:29","新北市深坑區北深路一段177號","121.63257","25.0108833333333","6501800","深坑區"
"231041","001-UM","2017/11/30 19:19:40","新北市新店區溪園路245-6號","121.525413333333","24.9832966666667","6500600","新店區"
"231059","046-UY","2017/11/30 19:19:40","新北市新店區安和路三段4號","121.517918333333","24.9809216666667","6500600","新店區"
"231061","047-UY","2017/11/30 19:19:42","新北市新店區安康路一段228號","121.5232","24.963665","6500600","新店區"
"231060","106-UY","2017/11/30 19:19:49","新北市新店區安康路二段140號","121.512455","24.9618083333333","6500600","新店區"
"231051","110-UY","2017/11/30 19:19:46","新北市新店區中央路75號","121.532243333333","24.97684","6500600","新店區"
"231052","187-VK","2017/11/30 19:19:37","新北市新店區自強路236號","121.54713","24.9186733333333","6500600","新店區"
"231047","188-VK","2017/11/30 19:19:41","新北市新店區德正街27巷29弄15號","121.545106666667","24.971845","6500600","新店區"
"231050","KEA-2219","2017/11/30 19:19:43","新北市新店區竹林路151號","121.555268333333","24.9489033333333","6500600","新店區"
"231063","268-BY","2017/11/30 19:19:35","新北市新店區達觀路14巷1號","121.504428333333","24.94168","6500600","新店區"
"231046","278-BY","2017/11/30 19:19:38","新北市新店區華城路36巷1-1號","121.528495","24.95532","6500600","新店區"
"231054","AAD-862","2017/11/30 19:19:41","新北市新店區國校路51巷1號","121.538123333333","24.954705","6500600","新店區"
"231058","3712-VJ","2017/11/30 19:19:33","新北市新店區北新路一段193號","121.540338333333","24.9647566666667","6500600","新店區"
"231064","515-UM","2017/11/30 19:19:51","新北市新店區安忠路61號","121.512073333333","24.9586316666667","6500600","新店區"
"231042","616-UM","2017/11/30 19:19:39","新北市新店區北宜路一段3號","121.538388333333","24.9584566666667","6500600","新店區"
"231040","619-UM","2017/11/30 19:19:29","新北市新店區三民路24號","121.537103333333","24.9709933333333","6500600","新店區"
"231049","719-UM","2017/11/30 19:19:50","新北市新店區明德路64號","121.541563333333","24.9794766666667","6500600","新店區"
"231065","719-UY","2017/11/30 19:19:41","新北市新店區安祥路110巷21號","121.473776666667","24.9561766666667","6500600","新店區"
"231062","720-UM","2017/11/30 19:19:34","新北市新店區莒光路67號","121.52361","24.9565416666667","6500600","新店區"
"231044","897-TW","2017/11/30 19:19:44","新北市新店區中興路三段327號","121.541791666667","24.986375","6500600","新店區"
"231045","898-TW","2017/11/30 19:19:38","新北市新店區北宜路一段260號","121.545696666667","24.9527483333333","6500600","新店區"
"231043","899-TW","2017/11/30 19:19:39","新北市新店區北新路二段141-1號","121.542836666667","24.9756716666667","6500600","新店區"
"231066","AKT-0513","2017/11/30 19:19:49","新北市新店區安康路三段207巷18號","121.488048333333","24.9509383333333","6500600","新店區"
"241009","060-VK","2017/11/30 19:19:39","新北市三重區溪尾街230巷42-2號","121.486095","25.0810933333333","6500200","三重區"
"241031","061-VK","2017/11/30 19:19:40","新北市三重區重新路四段97-1號","121.485848333333","25.0548583333333","6500200","三重區"
"241017","063-VK","2017/11/30 19:19:40","新北市三重區長壽西街212號","121.492106666667","25.066045","6500200","三重區"
"241026","066-VK","2017/11/30 19:19:49","新北市三重區同安東街57號","121.498465","25.0573033333333","6500200","三重區"
"241003","091-VK","2017/11/30 19:19:42","新北市三重區力行路二段182-3號","121.483413333333","25.0773883333333","6500200","三重區"
"241022","267-UM","2017/11/30 19:19:36","新北市三重區中正北路58號","121.486966666667","25.0644066666667","6500200","三重區"
"241032","269-UM","2017/11/30 19:19:47","新北市三重區新生街97號","121.483568333333","25.0593766666667","6500200","三重區"
"241025","271-UM","2017/11/30 19:19:31","新北市三重區中正北路408巷4號","121.475338333333","25.0702766666667","6500200","三重區"
"241007","398-BY","2017/11/30 19:19:45","新北市三重區慈愛街51號","121.486126666667","25.0790883333333","6500200","三重區"
"241020","413-TH","2017/11/30 19:19:35","新北市三重區後竹圍街118號","121.48836","25.0725966666667","6500200","三重區"
"241035","743-BX","2017/11/30 19:18:35","新北市三重區重陽路一段43巷8號","121.487215","25.0580966666667","6500200","三重區"
"235066","003-UY","2017/11/30 19:19:45","新北市中和區中和路102號","121.502673333333","24.9996566666667","6500300","中和區"
"235063","006-UY","2017/11/30 19:19:40","新北市中和區連城路249巷5號","121.493693333333","24.99676","6500300","中和區"
"235047","031-BX","2017/11/30 19:19:45","新北市中和區景平路239巷73號","121.5082","24.99209","6500300","中和區"
"235056","096-UM","2017/11/30 19:19:40","新北市中和區中正路1171號","121.481405","25.0094133333333","6500300","中和區"
"235039","097-UM","2017/11/30 19:19:42","新北市中和區自立路58巷7號","121.52349","24.9914166666667","6500300","中和區"
"235065","098-UM","2017/11/30 19:19:39","新北市中和區中山路二段116巷3弄9號","121.502223333333","25.0040116666667","6500300","中和區"
"235040","150-BY","2017/11/30 19:19:42","新北市中和區保健路50巷1-2號","121.510376666667","24.99683","6500300","中和區"
"235058","151-BY","2017/11/30 19:19:35","新北市中和區連城路477巷6弄1號","121.483076666667","24.9950316666667","6500300","中和區"
"235055","183-VK","2017/11/30 19:19:40","新北市中和區德光路13號","121.471145","25.0044066666667","6500300","中和區"
"235038","185-VK","2017/11/30 19:19:32","新北市中和區大仁街10巷42號","121.519061666667","24.9924516666667","6500300","中和區"
"235049","186-VK","2017/11/30 19:19:31","新北市中和區景新街235號","121.508081666667","24.9945","6500300","中和區"
"235067","255-BX","2017/11/30 19:19:37","新北市中和區新生街177巷2號","121.483968333333","25.0006833333333","6500300","中和區"
"235044","293-VK","2017/11/30 19:19:37","新北市中和區中興街241號","121.500426666667","24.989","6500300","中和區"
"235072","301-VK","2017/11/30 19:19:45","新北市中和區連城路263號","121.491735","24.9963666666667","6500300","中和區"
"235043","352-BY","2017/11/30 19:19:37","新北市中和區景平路426號","121.50742","24.9933333333333","6500300","中和區"
"235068","377-QA","2017/11/30 19:19:40","新北市中和區泰和街37號","121.499381666667","24.9994866666667","6500300","中和區"
"235061","378-QA","2017/11/30 19:15:19","新北市中和區民有街116號","121.476146666667","25.00274","6500300","中和區"
"235071","269-TV","2017/11/30 19:19:31","新北市中和區中正路637巷52弄1號","121.485388333333","24.99364","6500300","中和區"
"235050","4979-A6","2017/11/30 19:19:34","新北市中和區景安路208巷11號","121.503385","24.9912716666667","6500300","中和區"
"235069","4980-A6","2017/11/30 19:19:43","新北市中和區福美路301巷13號","121.497536666667","25.00428","6500300","中和區"
"235042","551-UM","2017/11/30 19:19:30","新北市永和區中正路109號","121.515676666667","24.997475","6500300","中和區"
"235070","558-UM","2017/11/30 19:19:31","新北市中和區中和路115號","121.5015","25.0002866666667","6500300","中和區"
"235045","565-BX","2017/11/30 19:19:43","新北市中和區景新街423巷32號","121.514588333333","24.9897133333333","6500300","中和區"
"235054","640-BX","2017/11/30 19:19:42","新北市中和區國光街107巷2弄2-1號","121.470065","25.0001516666667","6500300","中和區"
"235060","647-TV","2017/11/30 19:19:34","新北市中和區員山路467號","121.48043","25.004595","6500300","中和區"
"235046","733-UM","2017/11/30 19:19:47","新北市中和區忠孝街2巷13弄2號","121.510433333333","24.9818966666667","6500300","中和區"
"235057","801-TS","2017/11/30 19:19:45","新北市中和區員山路220號","121.481338333333","25.001135","6500300","中和區"
"235041","802-TS","2017/11/30 19:19:48","新北市中和區景安路2號","121.507911666667","24.9991683333333","6500300","中和區"
"235052","805-TS","2017/11/30 19:19:46","新北市中和區華新街143巷19號","121.506595","24.9809233333333","6500300","中和區"
"235048","896-TW","2017/11/30 19:19:40","新北市中和區忠孝街104號","121.512103333333","24.9847166666667","6500300","中和區"
"235053","900-TW","2017/11/30 19:19:47","新北市中和區華安街19巷2號","121.466978333333","24.9978133333333","6500300","中和區"
"235064","911-UM","2017/11/30 19:19:38","新北市中和區泰和街38巷36號","121.498423333333","25.0014566666667","6500300","中和區"
"235037","157-BY","2017/11/30 19:19:47","新北市中和區和平街24巷11號","121.50999","24.9906816666667","6500300","中和區"
"235037","AAC-213","2017/11/30 19:19:45","新北市中和區秀朗路三段50巷27號","121.524258333333","24.9950466666667","6500300","中和區"
"235059","AAC-215","2017/11/30 19:19:32","新北市中和區圓通路286巷3號","121.491456666667","24.9912183333333","6500300","中和區"
"220068","013-TV","2017/11/30 19:19:41","新北市板橋區翠華街6巷11號","121.480881666667","25.0240066666667","6500100","板橋區"
"220065","072-UY","2017/11/30 19:19:33","新北市板橋區民族路170巷4號","121.467395","25.0077016666667","6500100","板橋區"
"220086","073-UY","2017/11/30 19:19:34","新北市板橋區中正路216巷74號","121.457938333333","25.0188683333333","6500100","板橋區"
"220106","075-UY","2017/11/30 19:19:36","新北市板橋區長江路二段280-8號","121.47003","25.0328283333333","6500100","板橋區"
"220069","AAD-861","2017/11/30 19:19:31","新北市板橋區大華街69號","121.459501666667","25.003455","6500100","板橋區"
"220102","120-SR","2017/11/30 19:19:33","新北市板橋區文聖街157號","121.478791666667","25.0276716666667","6500100","板橋區"
"247004","336-TH","2017/11/30 19:19:32","新北市蘆洲區長榮路681號","121.460421666667","25.092165","6501400","蘆洲區"
"226004","312-R5","2017/11/30 19:19:41","新北市平溪區十分里十分街207號","121.778718333333","25.0440633333333","6502400","平溪區"
"228003","097-TW","2017/11/30 19:19:31","新北市貢寮區和美里和美街19號","121.912931666667","25.0825583333333","6502600","貢寮區"
"228001","212-TW","2017/11/30 19:19:31","新北市貢寮區真理里新港街10號","121.92548","25.0543666666667","6502600","貢寮區"
"228002","585-TW","2017/11/30 19:19:44","新北市貢寮區龍門里復興街8-2號","121.926766666667","25.026955","6502600","貢寮區"
"224006","676-BX","2017/11/30 19:19:49","新北市瑞芳區中山路225號","121.800548333333","25.1068483333333","6501200","瑞芳區"
"224008","275-VK","2017/11/30 19:19:44","新北市瑞芳區一坑路317-2號","121.801443333333","25.108995","6501200","瑞芳區"
"224005","271-BY","2017/11/30 19:19:47","新北市瑞芳區員山子路3-1號","121.819081666667","25.104745","6501200","瑞芳區"
"227010","642-TC","2017/11/30 19:19:49","新北市雙溪區新基里新基北街40號","121.868513333333","25.038025","6502500","雙溪區"
"227004","400-TW","2017/11/30 19:19:33","新北市雙溪區平林里梅竹蹊66-1號","121.860255","25.0358383333333","6502500","雙溪區"
"253005","032-BX","2017/11/30 19:19:43","新北市石門區阿里荖42-1號","121.603395","25.285505","6502200","石門區"
"253006","295-VK","2017/11/30 19:19:34","新北市石門區楓林23-10號","121.538701666667","25.2911316666667","6502200","石門區"
"222001","KEA-2212","2017/11/30 19:19:47","新北市深坑區文化街84巷29號","121.617681666667","25.003095","6501800","深坑區"
"208002","742-BX","2017/11/30 19:19:34","新北市金山區中正路136號","121.63168","25.2217383333333","6502700","金山區"
"208003","665-BX","2017/11/30 19:19:47","新北市金山區中山路165號","121.638701666667","25.2205733333333","6502700","金山區"
"208001","761-BX","2017/11/30 19:19:48","新北市金山區民生路69號","121.640141666667","25.2196983333333","6502700","金山區"
"251009","008-UM","2017/11/30 19:19:34","新北市淡水區中正路38-1號","121.44374","25.1692483333333","6501000","淡水區"
"251005","010-UM","2017/11/30 19:19:51","新北市淡水區水源街一段31號","121.443216666667","25.17257","6501000","淡水區"
"251007","179-VK","2017/11/30 19:19:48","新北市淡水區民生路117巷12號","121.464933333333","25.1391533333333","6501000","淡水區"
"251014","182-VK","2017/11/30 19:19:33","新北市淡水區小中寮19-7號","121.484721666667","25.2296133333333","6501000","淡水區"
"251010","413-VK","2017/11/30 19:19:38","新北市淡水區沙崙路30號","121.421488333333","25.1814716666667","6501000","淡水區"
"251016","442-VK","2017/11/30 19:19:51","新北市淡水區下圭柔山119-51號","121.450775","25.2084","6501000","淡水區"
"251001","559-UM","2017/11/30 19:19:32","新北市淡水區自強路201巷39號","121.46218","25.1268533333333","6501000","淡水區"
"251006","561-UM","2017/11/30 19:19:40","新北市淡水區大信街33號","121.442041666667","25.1772933333333","6501000","淡水區"
"251003","766-UM","2017/11/30 19:19:35","新北市淡水區中山路159-1號","121.440728333333","25.1730283333333","6501000","淡水區"
"207003","550-UM","2017/11/30 19:19:33","新北市萬里區大鵬里萬里加投79-3號","121.647333333333","25.212345","6502800","萬里區"
"207004","225-TW","2017/11/30 19:19:36","新北市萬里區萬里里成功新村44號","121.687718333333","25.17465","6502800","萬里區"
"252001","292-VK","2017/11/30 19:19:37","新北市三芝區長勤街9巷11弄1號","121.501733333333","25.25483","6502100","三芝區"
"252002","AAC-283","2017/11/30 19:19:32","新北市三芝區淡金路二段18-1號","121.502661666667","25.2594916666667","6502100","三芝區"
"237004","078-UY","2017/11/30 19:19:47","新北市三峽區有木205-1號","121.439035","24.851495","6500900","三峽區"
"237007","153-BY","2017/11/30 19:19:37","新北市三峽區麻園15-1號","121.363046666667","24.9132883333333","6500900","三峽區"
"237009","210-TH","2017/11/30 19:19:37","新北市三峽區和平街3號","121.370416666667","24.9348466666667","6500900","三峽區"
"237013","252-BX","2017/11/30 19:19:34","新北市三峽區光明路75巷21號","121.377365","24.928165","6500900","三峽區"
"237012","275-BY","2017/11/30 19:19:37","新北市三峽區三樹路222巷236弄8-3號","121.39147","24.9428733333333","6500900","三峽區"
"237008","302-VK","2017/11/30 19:19:34","新北市三峽區大同路98-3號","121.375443333333","24.9274966666667","6500900","三峽區"
"237014","433-BY","2017/11/30 19:19:45","新北市三峽區中山路259號","121.362391666667","24.9372816666667","6500900","三峽區"
"237006","5529-G3","2017/11/30 19:19:42","新北市三峽區介壽路一段233號","121.379051666667","24.9303233333333","6500900","三峽區"
"237011","572-TV","2017/11/30 19:16:15","新北市三峽區中正路一段100號","121.374271666667","24.9296233333333","6500900","三峽區"
"237016","649-BX","2017/11/30 19:19:42","新北市三峽區安坑51-2號","121.4638","24.9312783333333","6500900","三峽區"
"237010","706-TV","2017/11/30 19:19:47","新北市三峽區復興路235號","121.368263333333","24.9389083333333","6500900","三峽區"
"237005","AKY-6261","2017/11/30 19:19:39","新北市三峽區中山路459巷36號","121.357276666667","24.93774","6500900","三峽區"
"236071","105-UM","2017/11/30 19:19:44","新北市土城區學成路124號","121.449383333333","24.9894883333333","6501300","土城區"
"236026","269-VK","2017/11/30 19:19:47","新北市土城區中央路二段154號","121.441961666667","24.9766883333333","6501300","土城區"
"236014","270-VK","2017/11/30 19:19:37","新北市土城區學府路一段17-1號","121.458503333333","24.9881166666667","6501300","土城區"
"236021","401-BY","2017/11/30 19:19:49","新北市土城區峰廷街3號","121.46911","24.987335","6501300","土城區"
"236078","752-BX","2017/11/30 19:18:27","新北市土城區龍泉路39號","121.41449","24.9437966666667","6501300","土城區"
"236058","912-UM","2017/11/30 19:19:37","新北市土城區中央路二段318號","121.44041","24.9729616666667","6501300","土城區"
"236051","913-UM","2017/11/30 19:19:32","新北市土城區明德路一段398-1號","121.45365","24.9790816666667","6501300","土城區"
"236062","915-UM","2017/11/30 19:19:41","新北市土城區金城路三段202-3號","121.469438333333","24.9885133333333","6501300","土城區"
"242025","615-BX","2017/11/30 18:39:52","新北市新莊區新泰路255巷83號","121.442265","25.0388433333333","6500500","新莊區"
"242001","233-RS","2017/11/30 09:16:31","新北市新莊區環河路48-7號","121.436893333333","25.0097933333333","6500500","新莊區"
"238015","755-BX","2017/11/30 19:19:38","新北市樹林區光明街42號","121.41221","24.9913","6500700","樹林區"
"238023","601-UM","2017/11/30 19:19:46","新北市樹林區三興路77號","121.392455","25.0143083333333","6500700","樹林區"
"238019","599-UM","2017/11/30 19:19:41","新北市樹林區鎮前街411巷1號","121.4152","24.9831116666667","6500700","樹林區"
"238018","571-TV","2017/11/30 19:19:44","新北市樹林區中華路150-9號","121.416023333333","24.980185","6500700","樹林區"
"238024","5061-A6","2017/11/30 19:19:37","新北市樹林區福德街47號","121.399538333333","24.9748066666667","6500700","樹林區"
"238021","KEA-2217","2017/11/30 19:19:35","新北市樹林區柑園街二段334號","121.372013333333","24.9512966666667","6500700","樹林區"
"238022","KEA-2213","2017/11/30 19:19:50","新北市樹林區中華路190-6號","121.410158333333","24.9805283333333","6500700","樹林區"
"238025","303-VK","2017/11/30 19:19:30","新北市樹林區中山路二段199號","121.404173333333","24.9773233333333","6500700","樹林區"
"238017","283-BY","2017/11/30 19:18:50","新北市樹林區光興街313號","121.406328333333","25.0056066666667","6500700","樹林區"
"238014","282-BY","2017/11/30 19:19:32","新北市樹林區千歲街73號","121.427348333333","24.99905","6500700","樹林區"
"238020","268-VK","2017/11/30 19:19:46","新北市樹林區俊英街133巷17號","121.42337","25.0110333333333","6500700","樹林區"
"238026","172-UY","2017/11/30 19:19:32","新北市樹林區佳園路二段86巷82號","121.390415","24.9588216666667","6500700","樹林區"
"238016","169-UY","2017/11/30 19:19:48","新北市樹林區啟智街187巷24弄14號","121.415933333333","24.9870066666667","6500700","樹林區"
"239007","AAC-297","2017/11/30 19:19:36","新北市鶯歌區中山路138巷13號","121.350896666667","24.9589266666667","6500800","鶯歌區"
"239006","891-R6","2017/11/30 19:19:45","新北市鶯歌區鶯桃路91巷19號","121.337995","24.9525616666667","6500800","鶯歌區"
"239008","527-UM","2017/11/30 19:19:38","新北市鶯歌區國際二路6巷2號","121.338295","24.9735316666667","6500800","鶯歌區"
"239005","526-UM","2017/11/30 19:19:40","新北市鶯歌區東湖路12-1號","121.352465","24.9719783333333","6500800","鶯歌區"
"239001","417-VK","2017/11/30 19:19:45","新北市鶯歌區鶯桃路95巷23號","121.338351666667","24.9533883333333","6500800","鶯歌區"
"239003","360-BY","2017/11/30 19:19:30","新北市鶯歌區中正二路54號","121.350933333333","24.951335","6500800","鶯歌區"
"239002","359-BY","2017/11/30 19:19:47","新北市鶯歌區湖山路63巷2號","121.339626666667","24.9758566666667","6500800","鶯歌區"
"239004","193-VK","2017/11/30 19:19:39","新北市鶯歌區國中街178號","121.33835","24.9392416666667","6500800","鶯歌區"
"221008","489-VK","2017/11/30 19:19:32","新北市汐止區康寧街310號","121.626686666667","25.0672216666667","6501100","汐止區"
"221036","130-UY","2017/11/30 19:19:45","新北市汐止區汐萬路一段256巷3號","121.652528333333","25.0745533333333","6501100","汐止區"
"221010","269-BY","2017/11/30 19:19:40","新北市汐止區康寧街901號","121.651345","25.0750116666667","6501100","汐止區"
"221012","276-VK","2017/11/30 13:12:08","新北市汐止區汐萬路一段256巷3號","121.653465","25.0746316666667","6501100","汐止區"
"221012","278-VK","2017/11/30 19:19:32","新北市汐止區汐萬路一段306號","121.65041","25.0745683333333","6501100","汐止區"
"221023","279-VK","2017/11/30 19:19:44","新北市汐止區康寧街901號","121.651006666667","25.075205","6501100","汐止區"
"221032","280-BY","2017/11/30 19:19:49","新北市汐止區汐萬路一段167號","121.65277","25.0709033333333","6501100","汐止區"
"221027","281-BY","2017/11/30 19:19:35","新北市汐止區汐萬路一段312號","121.650445","25.0752683333333","6501100","汐止區"
"221029","298-VK","2017/11/30 19:19:39","新北市汐止區康寧街901號","121.651583333333","25.07496","6501100","汐止區"
"221021","299-VK","2017/11/30 19:19:47","新北市汐止區康寧街901號","121.651475","25.0750166666667","6501100","汐止區"
"221031","353-TW","2017/11/30 19:19:39","新北市汐止區康寧街708-1號","121.640071666667","25.0728783333333","6501100","汐止區"
"221015","567-BX","2017/11/30 19:19:30","新北市汐止區康寧街901號","121.651638333333","25.074915","6501100","汐止區"
"221025","623-UM","2017/11/30 19:19:39","新北市汐止區汐萬路一段273號","121.650531666667","25.0744183333333","6501100","汐止區"
"221038","646-BX","2017/11/30 19:19:44","新北市汐止區汐萬路一段312號","121.650695","25.0752816666667","6501100","汐止區"
"221033","647-BX","2017/11/30 19:19:50","新北市汐止區南勢街3號","121.62705","25.037345","6501100","汐止區"
"221002","707-TV","2017/11/30 19:19:42","新北市汐止區大同路一段166號","121.634503333333","25.057545","6501100","汐止區"
"221018","753-BX","2017/11/30 19:19:43","新北市汐止區汐萬路一段256巷1號","121.651706666667","25.0748883333333","6501100","汐止區"
"220079","145-BY","2017/11/30 19:19:32","新北市板橋區民權路202巷18弄1-2號","121.460836666667","25.0165566666667","6500100","板橋區"
"220080","200-UY","2017/11/30 19:19:43","新北市板橋區大觀路二段1巷34號","121.449616666667","25.003735","6500100","板橋區"
"220082","610-BX","2017/11/30 19:19:51","新北市板橋區溪崑二街136號","121.425805","24.98766","6500100","板橋區"
"220101","245-BX","2017/11/30 19:19:47","新北市板橋區莊敬路25巷30號","121.474318333333","25.0271033333333","6500100","板橋區"
"220091","267-BY","2017/11/30 19:19:50","新北市板橋區文聖街211號","121.47997","25.0262833333333","6500100","板橋區"
"220056","276-BY","2017/11/30 19:19:47","新北市板橋區干城路155號","121.460591666667","24.9924366666667","6500100","板橋區"
"220072","277-BY","2017/11/30 19:19:37","新北市板橋區金門街337巷9弄1號","121.430415","24.98467","6500100","板橋區"
"220094","283-UM","2017/11/30 19:19:48","新北市板橋區吳鳳路76號","121.467216666667","25.0310433333333","6500100","板橋區"
"220071","283-VK","2017/11/30 19:19:44","新北市板橋區大豐街15號","121.46234","25.0014583333333","6500100","板橋區"
"220053","285-VK","2017/11/30 19:19:43","新北市板橋區富山街27號","121.477818333333","25.0218083333333","6500100","板橋區"
"220083","286-VK","2017/11/30 19:19:48","新北市板橋區大觀路二段174巷166弄4號","121.441995","25.0032483333333","6500100","板橋區"
"220081","287-VK","2017/11/30 19:19:46","新北市板橋區南雅西路一段88號","121.453273333333","25.005845","6500100","板橋區"
"220090","288-VK","2017/11/30 19:19:30","新北市板橋區長江路一段106巷13弄26號","121.461065","25.0295716666667","6500100","板橋區"
"220061","293-UM","2017/11/30 19:19:37","新北市板橋區中山路二段326號","121.480978333333","25.0195433333333","6500100","板橋區"
"220084","296-UM","2017/11/30 19:19:39","新北市板橋區溪北路112號","121.42896","24.9891166666667","6500100","板橋區"
"220075","297-UM","2017/11/30 19:19:38","新北市板橋區南雅西路一段10巷14號","121.45456","25.0048116666667","6500100","板橋區"
"220062","303-R5","2017/11/30 19:19:38","新北市板橋區三民路二段153巷30弄33號","121.48102","25.01472","6500100","板橋區"
"220092","307-R5","2017/11/30 19:19:44","新北市板橋區松江街74號","121.468786666667","25.02786","6500100","板橋區"
"220098","317-R6","2017/11/30 19:19:40","新北市板橋區民有街89巷4號","121.46449","25.027535","6500100","板橋區"
"220064","486-VK","2017/11/30 19:19:42","新北市板橋區板新路219號","121.468286666667","25.01596","6500100","板橋區"
"220089","487-VK","2017/11/30 19:19:43","新北市板橋區文化路一段417號","121.467688333333","25.022455","6500100","板橋區"
"220088","491-VK","2017/11/30 19:19:43","新北市板橋區雙十路二段42-4號","121.475856666667","25.02746","6500100","板橋區"
"220035","560-BX","2017/11/30 19:19:42","新北市板橋區中正路433巷23號","121.453345","25.023575","6500100","板橋區"
"220103","561-BX","2017/11/30 19:19:42","新北市板橋區文化路一段188巷5弄13號","121.467461666667","25.0197866666667","6500100","板橋區"
"220063","609-BX","2017/11/30 19:19:42","新北市板橋區中山路二段268號","121.479206666667","25.0184016666667","6500100","板橋區"
"220057","686-BX","2017/11/30 19:19:34","新北市板橋區重慶路305號","121.463833333333","24.998835","6500100","板橋區"
"220077","687-BX","2017/11/30 19:19:47","新北市板橋區大觀路一段28巷70號","121.449775","25.0106166666667","6500100","板橋區"
"220093","689-BX","2017/11/30 19:19:39","新北市板橋區漢生西路107號","121.46258","25.0199866666667","6500100","板橋區"
"220054","741-BX","2017/11/30 19:19:34","新北市板橋區四川路一段189號","121.460976666667","25.00387","6500100","板橋區"
"220055","827-TW","2017/11/30 19:19:44","新北市板橋區新民街13號","121.464031666667","25.00989","6500100","板橋區"
"220067","829-TW","2017/11/30 19:19:42","新北市板橋區長安街138巷1弄37號","121.47387","25.0101866666667","6500100","板橋區"
"220096","831-TW","2017/11/30 19:19:36","新北市板橋區大同街14-4號","121.477538333333","25.026955","6500100","板橋區"
"220074","895-R6","2017/11/30 19:19:34","新北市板橋區中正路自強新村45-1號","121.454758333333","25.0139333333333","6500100","板橋區"
"220073","985-R7","2017/11/30 19:19:32","新北市板橋區新生街28號","121.456108333333","25.021115","6500100","板橋區"
"220097","AAC-210","2017/11/30 19:19:46","新北市板橋區幸福路60巷27號","121.460665","25.0208916666667","6500100","板橋區"
"220070","AAC-253","2017/11/30 19:19:49","新北市板橋區忠孝路136號","121.463545","25.00236","6500100","板橋區"
