"lineid","car","time","location","longitude","latitude","cityid","cityname"
"234007","207-UY","2017/11/30 20:19:45","新北市永和區環河西路二段229巷5號","121.501603333333","25.0097766666667","6500400","永和區"
"234081","298-R6","2017/11/30 20:19:46","新北市永和區國中路132巷14號","121.52396","25.0075516666667","6500400","永和區"
"234038","336-UY","2017/11/30 20:19:47","新北市永和區成功路一段93巷9號","121.527411666667","25.00276","6500400","永和區"
"234064","337-UY","2017/11/30 20:19:41","新北市永和區得和路119號","121.518603333333","25.0002483333333","6500400","永和區"
"234086","338-UY","2017/11/30 20:19:40","新北市永和區永和路二段190號","121.515526666667","25.013535","6500400","永和區"
"234070","552-UM","2017/11/30 20:19:39","新北市永和區福和路259號","121.517936666667","25.0072733333333","6500400","永和區"
"234054","553-UM","2017/11/30 20:19:44","新北市永和區光復街2巷16弄1號","121.517128333333","25.01636","6500400","永和區"
"234017","745-BX","2017/11/30 20:19:48","新北市永和區仁愛路48號","121.513926666667","25.0134133333333","6500400","永和區"
"234030","746-BX","2017/11/30 20:19:47","新北市永和區民有街25巷2號","121.517165","24.9961483333333","6500400","永和區"
"234061","AAD-866","2017/11/30 20:19:39","新北市永和區安樂路96號","121.514421666667","24.99918","6500400","永和區"
"234042","862-TW","2017/11/30 20:19:43","新北市中和區中和路350巷15弄3號","121.510446666667","25.00112","6500400","永和區"
"234050","863-TW","2017/11/30 20:19:47","新北市永和區文化路185號","121.50972","25.0170016666667","6500400","永和區"
"249005","172-UM","2017/11/30 20:19:39","新北市八里區下罟子2-13號","121.38842","25.1412633333333","6502300","八里區"
"249001","173-UM","2017/11/30 20:19:32","新北市八里區中華路二段488號","121.400188333333","25.1457066666667","6502300","八里區"
"249004","303-UY","2017/11/30 20:19:35","新北市八里區中山路一段326號","121.412843333333","25.1591883333333","6502300","八里區"
"249002","305-UY","2017/11/30 20:19:47","新北市八里區龍米路一段267號","121.449411666667","25.1380516666667","6502300","八里區"
"249003","759-BX","2017/11/30 20:19:37","新北市八里區中山路二段447巷16號","121.396913333333","25.1453816666667","6502300","八里區"
"248016","026-BX","2017/11/30 20:19:35","新北市五股區天乙路34號","121.448446666667","25.1034616666667","6501500","五股區"
"248012","247-BX","2017/11/30 20:19:49","新北市五股區六合街103號","121.430015","25.0898766666667","6501500","五股區"
"248010","272-BY","2017/11/30 20:19:45","新北市五股區成泰路一段6號","121.434536666667","25.0672083333333","6501500","五股區"
"248005","653-BX","2017/11/30 10:37:53","新北市五股區中興路二段83巷26-6號","121.459806666667","25.0750683333333","6501500","五股區"
"248004","677-BX","2017/11/30 20:19:34","新北市五股區成泰路二段3號","121.437005","25.0812183333333","6501500","五股區"
"248002","678-BX","2017/11/30 20:19:48","新北市五股區成泰路三段101-1號","121.444056666667","25.0902316666667","6501500","五股區"
"234023","9380-KE","2017/11/30 20:19:43","新北市永和區復興街2巷2號","121.515668333333","25.0126533333333","6500400","永和區"
"234077","969-R7","2017/11/30 20:19:43","新北市永和區中正路39-1號","121.514378333333","24.99592","6500400","永和區"
"234074","AAC-211","2017/11/30 20:19:47","新北市永和區豫溪街156號","121.522911666667","25.0097883333333","6500400","永和區"
"234067","AAC-212","2017/11/30 20:19:38","新北市永和區保平路236巷7弄16號","121.508253333333","25.0056883333333","6500400","永和區"
"234003","AAC-295","2017/11/30 20:19:47","新北市永和區大新街8號","121.514591666667","25.0084366666667","6500400","永和區"
"244019","403-UM","2017/11/30 20:19:35","新北市林口區太平里180號","121.36658","25.1343","6501700","林口區"
"243011","267-VK","2017/11/30 20:19:33","新北市新莊區壽山路160巷21號","121.417463333333","25.0319033333333","6501600","泰山區"
"243012","AAD-798","2017/11/30 20:19:35","新北市泰山區楓江路47號","121.435396666667","25.0625616666667","6501600","泰山區"
"243009","297-R6","2017/11/30 20:19:48","新北市泰山區泰林路二段292巷5號","121.431221666667","25.063095","6501600","泰山區"
"243015","380-SR","2017/11/30 20:19:37","新北市泰山區泰林路二段37-3號","121.4352","25.0572816666667","6501600","泰山區"
"243014","421-VK","2017/11/30 20:19:45","新北市泰山區泰林路二段410號","121.427293333333","25.064365","6501600","泰山區"
"243010","KEA-2215","2017/11/30 20:19:44","新北市泰山區明志路二段254巷6號","121.42657","25.0476866666667","6501600","泰山區"
"243013","646-TV","2017/11/30 20:19:41","新北市泰山區新民路42號","121.427356666667","25.0442483333333","6501600","泰山區"
"243016","680-BX","2017/11/30 20:19:47","新北市泰山區明志路三段217號","121.423865","25.0382366666667","6501600","泰山區"
"222003","436-BY","2017/11/30 20:19:34","新北市深坑區文化街78號","121.61805","25.0018866666667","6501800","深坑區"
"222002","659-BX","2017/11/30 20:19:50","新北市深坑區萬福路75巷46號","121.598343333333","25.0098666666667","6501800","深坑區"
"231041","001-UM","2017/11/30 20:19:40","新北市新店區民權路46號","121.54015","24.982925","6500600","新店區"
"231059","046-UY","2017/11/30 20:19:40","新北市新店區安德街134號","121.508591666667","24.9602466666667","6500600","新店區"
"231061","047-UY","2017/11/30 20:19:42","新北市新店區安民街133巷26號","121.51544","24.9697133333333","6500600","新店區"
"231060","106-UY","2017/11/30 20:19:49","新北市新店區錦秀路11巷92弄1號","121.48025","24.9427166666667","6500600","新店區"
"231051","110-UY","2017/11/30 20:19:46","新北市新店區中央六街56號","121.527945","24.9758116666667","6500600","新店區"
"231052","187-VK","2017/11/30 20:19:37","新北市新店區松林路10號","121.547195","24.9107666666667","6500600","新店區"
"231047","188-VK","2017/11/30 20:19:41","新北市新店區永華街33巷26號","121.544183333333","24.9766966666667","6500600","新店區"
"231050","KEA-2219","2017/11/30 20:19:43","新北市新店區北新路一段96巷23號","121.542873333333","24.9687416666667","6500600","新店區"
"231057","256-BX","2017/11/30 20:19:45","新北市新店區花園十二路1號","121.554798333333","24.934735","6500600","新店區"
"231063","268-BY","2017/11/30 20:19:35","新北市新店區薏仁坑路自強巷6號","121.496598333333","24.9584666666667","6500600","新店區"
"231054","AAD-862","2017/11/30 20:19:41","新北市新店區檳榔路123號","121.544735","24.9614516666667","6500600","新店區"
"231056","3713-VJ","2017/11/30 20:19:44","新北市新店區中正路255號","121.538893333333","24.973535","6500600","新店區"
"231055","4716-K9","2017/11/30 20:19:46","新北市新店區北新路一段297巷12號","121.540916666667","24.9677383333333","6500600","新店區"
"231067","4772-VM","2017/11/30 20:19:37","新北市新店區溪洲路8巷124號","121.533198333333","24.96306","6500600","新店區"
"231064","515-UM","2017/11/30 20:19:31","新北市新店區安樂街10號","121.520498333333","24.9736133333333","6500600","新店區"
"231042","616-UM","2017/11/30 20:19:39","新北市新店區中興路二段231-2號","121.547631666667","24.9748366666667","6500600","新店區"
"231040","619-UM","2017/11/30 20:19:49","新北市新店區中正路187號","121.540593333333","24.9723133333333","6500600","新店區"
"231068","718-UY","2017/11/30 20:19:47","新北市新店區寶安街16巷1號","121.54213","24.98171","6500600","新店區"
"231049","719-UM","2017/11/30 20:19:50","新北市新店區北新路二段35號","121.542843333333","24.972445","6500600","新店區"
"231065","719-UY","2017/11/30 20:19:41","新北市新店區安祥路106巷12號","121.47844","24.9625","6500600","新店區"
"231062","720-UM","2017/11/30 20:19:34","新北市新店區安泰路7巷16號","121.485666666667","24.9509916666667","6500600","新店區"
"231044","897-TW","2017/11/30 20:19:44","新北市新店區北新路三段118號","121.541646666667","24.9816916666667","6500600","新店區"
"231045","898-TW","2017/11/30 20:19:37","新北市新店區新坡一街101號","121.547778333333","24.9625383333333","6500600","新店區"
"231043","899-TW","2017/11/30 20:19:34","新北市新店區建國路131號","121.539395","24.9781466666667","6500600","新店區"
"231066","AKT-0513","2017/11/30 20:19:49","新北市新店區安興路105-1號","121.514603333333","24.9777016666667","6500600","新店區"
"241028","022-UY","2017/11/30 20:19:50","新北市三重區大同南路111號","121.496286666667","25.0584166666667","6500200","三重區"
"241008","059-VK","2017/11/30 20:19:31","新北市三重區永福街211巷11號","121.479541666667","25.074145","6500200","三重區"
"241009","060-VK","2017/11/30 20:19:39","新北市三重區三和路四段382巷95號","121.480345","25.0782833333333","6500200","三重區"
"241031","061-VK","2017/11/30 20:19:40","新北市三重區三寧街15號","121.489446666667","25.0597666666667","6500200","三重區"
"241015","062-VK","2017/11/30 20:19:34","新北市三重區重新路一段128號","121.50031","25.0628383333333","6500200","三重區"
"241017","063-VK","2017/11/30 20:19:40","新北市三重區自強路一段236號","121.493371666667","25.0670983333333","6500200","三重區"
"241024","065-VK","2017/11/30 20:19:52","新北市三重區忠孝路三段4號","121.481836666667","25.0674883333333","6500200","三重區"
"241026","066-VK","2017/11/30 20:19:49","新北市三重區重新路一段48號","121.502898333333","25.063875","6500200","三重區"
"241002","090-VK","2017/11/30 20:19:42","新北市三重區仁義街128號","121.497371666667","25.0805583333333","6500200","三重區"
"241003","091-VK","2017/11/30 20:19:42","新北市三重區五華街138號","121.491525","25.0838016666667","6500200","三重區"
"241030","156-TC","2017/11/30 20:19:50","新北市三重區成功路145巷9號","121.487326666667","25.0525616666667","6500200","三重區"
"241005","262-UM","2017/11/30 20:19:51","新北市三重區碧華街260號","121.48806","25.0828133333333","6500200","三重區"
"241011","265-UM","2017/11/30 20:19:34","新北市三重區龍門路168號","121.498933333333","25.0731683333333","6500200","三重區"
"241016","266-UM","2017/11/30 20:19:47","新北市三重區大同北路54巷1號","121.494278333333","25.063505","6500200","三重區"
"241022","267-UM","2017/11/30 20:19:51","新北市三重區市前街14號","121.489181666667","25.0623666666667","6500200","三重區"
"241018","268-UM","2017/11/30 20:19:46","新北市三重區自強路一段157號","121.493468333333","25.0671033333333","6500200","三重區"
"241032","269-UM","2017/11/30 20:19:47","新北市三重區捷運路19巷6弄20號","121.484356666667","25.05678","6500200","三重區"
"241013","270-UM","2017/11/30 20:19:43","新北市三重區三和路三段188號","121.491896666667","25.0737166666667","6500200","三重區"
"241025","271-UM","2017/11/30 20:19:31","新北市三重區三民街272巷6-1號","121.47884","25.0677816666667","6500200","三重區"
"241007","398-BY","2017/11/30 20:19:45","新北市三重區溪尾街108巷63號","121.487378333333","25.0782416666667","6500200","三重區"
"241020","413-TH","2017/11/30 20:19:35","新北市三重區三和路三段170巷9號","121.492295","25.073015","6500200","三重區"
"241004","475-VK","2017/11/30 20:19:42","新北市三重區仁政街201巷3號","121.490663333333","25.08037","6500200","三重區"
"241019","478-VK","2017/11/30 20:19:46","新北市三重區大智街141號","121.490595","25.0711583333333","6500200","三重區"
"241014","543-UM","2017/11/30 20:19:36","新北市三重區龍濱路249號","121.501523333333","25.0725516666667","6500200","三重區"
"241023","545-UM","2017/11/30 20:19:41","新北市三重區忠孝路三段84巷1號","121.480243333333","25.0642766666667","6500200","三重區"
"241001","547-UM","2017/11/30 20:19:50","新北市三重區溪尾街46-1號","121.490921666667","25.077245","6500200","三重區"
"241035","743-BX","2017/11/30 20:19:48","新北市三重區重新路二段1-3號","121.499513333333","25.0628333333333","6500200","三重區"
"241012","941-UM","2017/11/30 20:19:30","新北市三重區河邊北街262號","121.501551666667","25.0763566666667","6500200","三重區"
"241033","AAC-255","2017/11/30 20:19:44","新北市三重區五谷王北街50巷26號","121.475425","25.0514016666667","6500200","三重區"
"235066","003-UY","2017/11/30 20:19:44","新北市中和區保平路326巷31號","121.506345","25.0047683333333","6500300","中和區"
"235039","097-UM","2017/11/30 20:19:42","新北市中和區立人街18號","121.519121666667","24.9941666666667","6500300","中和區"
"235065","098-UM","2017/11/30 20:19:39","新北市中和區永和路128巷42號","121.497708333333","25.0067533333333","6500300","中和區"
"235067","255-BX","2017/11/30 20:16:37","新北市板橋區文化路二段656號","121.480491666667","25.03832","6500300","中和區"
"235050","4979-A6","2017/11/30 20:19:34","新北市中和區景平路400號","121.509306666667","24.9931566666667","6500300","中和區"
"235069","4980-A6","2017/11/30 20:19:44","新北市中和區中正路440號","121.491026666667","24.9943616666667","6500300","中和區"
"235070","558-UM","2017/11/30 20:19:31","新北市中和區中正路458號","121.490656666667","24.99425","6500300","中和區"
"235037","AAC-213","2017/11/30 20:19:45","新北市中和區秀朗路三段101號","121.526415","24.9948766666667","6500300","中和區"
"235059","AAC-215","2017/11/30 20:19:39","新北市中和區員山路22-1號","121.483788333333","24.9848966666667","6500300","中和區"
"220068","013-TV","2017/11/30 20:19:41","新北市板橋區光復街234-1號","121.484681666667","25.0214866666667","6500100","板橋區"
"220065","072-UY","2017/11/30 20:19:33","新北市板橋區文化路二段656號","121.481395","25.039195","6500100","板橋區"
"220102","120-SR","2017/11/30 20:19:33","新北市板橋區板新路236號","121.467988333333","25.0164366666667","6500100","板橋區"
"247012","546-UM","2017/11/30 20:19:33","新北市蘆洲區中興街15巷8號","121.480503333333","25.08727","6501400","蘆洲區"
"247020","500-BY","2017/11/30 20:19:39","新北市蘆洲區仁愛街74號","121.470876666667","25.0942666666667","6501400","蘆洲區"
"247008","341-TH","2017/11/30 20:19:41","新北市蘆洲區集賢路226-1號","121.482443333333","25.0863583333333","6501400","蘆洲區"
"247010","339-TH","2017/11/30 20:19:27","新北市蘆洲區信義路188巷25弄1號","121.480378333333","25.0846266666667","6501400","蘆洲區"
"247002","337-TH","2017/11/30 20:19:35","新北市蘆洲區長安街331巷27號","121.455393333333","25.08644","6501400","蘆洲區"
"247004","336-TH","2017/11/30 20:19:32","新北市蘆洲區長安街220巷1號","121.459051666667","25.0849733333333","6501400","蘆洲區"
"247024","335-TH","2017/11/30 20:19:37","新北市蘆洲區光榮路120巷8弄41號","121.464456666667","25.0878716666667","6501400","蘆洲區"
"247016","057-VK","2017/11/30 20:19:46","新北市蘆洲區中正路185巷45弄3號","121.46598","25.083695","6501400","蘆洲區"
"247006","056-VK","2017/11/30 20:19:43","新北市蘆洲區長安街2號","121.46471","25.0786266666667","6501400","蘆洲區"
"247014","007-UY","2017/11/30 20:19:40","新北市蘆洲區成功路60號","121.472508333333","25.0803783333333","6501400","蘆洲區"
"222001","KEA-2212","2017/11/30 20:19:47","新北市深坑區北深路三段257號","121.599151666667","25.0045216666667","6501800","深坑區"
"251008","181-VK","2017/11/30 20:19:51","新北市淡水區淡海路180巷18弄1號","121.421266666667","25.18458","6501000","淡水區"
"251014","182-VK","2017/11/30 20:19:33","新北市淡水區石頭厝3號","121.458708333333","25.2355833333333","6501000","淡水區"
"251010","413-VK","2017/11/30 20:19:38","新北市淡水區中正路二段214號","121.426335","25.1900183333333","6501000","淡水區"
"251012","441-VK","2017/11/30 20:19:36","新北市淡水區下圭柔山431-1號","121.449835","25.2102533333333","6501000","淡水區"
"251016","442-VK","2017/11/30 20:19:31","新北市淡水區淡金路五段20號","121.453223333333","25.232495","6501000","淡水區"
"251006","561-UM","2017/11/30 20:19:40","新北市淡水區北新路218號","121.451971666667","25.1801483333333","6501000","淡水區"
"251002","672-BX","2017/11/30 20:19:44","新北市淡水區中正路83號","121.440483333333","25.1697","6501000","淡水區"
"251003","766-UM","2017/11/30 20:19:35","新北市淡水區中山北路一段217號","121.444385","25.179155","6501000","淡水區"
"207004","225-TW","2017/11/30 20:19:36","新北市萬里區北基里仁四街2號","121.682081666667","25.1754266666667","6502800","萬里區"
"252001","292-VK","2017/11/30 20:19:37","新北市三芝區中山路一段31號","121.500638333333","25.25803","6502100","三芝區"
"252002","AAC-283","2017/11/30 20:19:32","新北市三芝區淡金路二段21號","121.502855","25.2594083333333","6502100","三芝區"
"237007","153-BY","2017/11/30 20:19:37","新北市三峽區麻園9-10號","121.362615","24.9180233333333","6500900","三峽區"
"237012","275-BY","2017/11/30 20:19:37","新北市三峽區光明路5號","121.372538333333","24.931675","6500900","三峽區"
"237008","302-VK","2017/11/30 20:19:34","新北市三峽區中華路74-5號","121.37146","24.9291833333333","6500900","三峽區"
"237006","5529-G3","2017/11/30 20:19:42","新北市三峽區嘉添1-3號","121.367773333333","24.91173","6500900","三峽區"
"237005","AKY-6261","2017/11/30 20:19:39","新北市三峽區三樹路98巷93號","121.381985","24.93994","6500900","三峽區"
"236071","105-UM","2017/11/30 20:19:44","新北市土城區三民路63號","121.419551666667","24.9645433333333","6501300","土城區"
"236030","253-BX","2017/11/30 20:19:48","新北市土城區學成路128巷13弄2號","121.449595","24.9901333333333","6501300","土城區"
"236026","269-VK","2017/11/30 20:19:47","新北市土城區中央路一段211巷6弄4號","121.446273333333","24.9862466666667","6501300","土城區"
"236014","270-VK","2017/11/30 20:19:37","新北市土城區廣明街90巷18號","121.455365","24.99449","6501300","土城區"
"236037","271-VK","2017/11/30 20:19:38","新北市土城區明德路一段193號","121.463813333333","24.9789783333333","6501300","土城區"
"236021","401-BY","2017/11/30 20:19:28","新北市土城區和城路二段255巷140號","121.476128333333","24.9880116666667","6501300","土城區"
"236078","752-BX","2017/11/30 20:19:47","新北市土城區金安街8號","121.421376666667","24.964245","6501300","土城區"
"236058","912-UM","2017/11/30 20:19:37","新北市土城區中央路二段257號","121.439903333333","24.97132","6501300","土城區"
"236053","AAC-216","2017/11/30 20:19:31","新北市土城區城林路6巷80號","121.438588333333","24.9796333333333","6501300","土城區"
"242031","AAC-296","2017/11/30 20:19:32","新北市新莊區中正路418號","121.44103","25.0338683333333","6500500","新莊區"
"242029","986-R7","2017/11/30 20:19:44","新北市新莊區中原路317號","121.447001666667","25.0544783333333","6500500","新莊區"
"242051","751-BX","2017/11/30 20:19:45","新北市新莊區民安西路212巷6號","121.425321666667","25.0149333333333","6500500","新莊區"
"242023","705-TV","2017/11/30 20:19:37","新北市新莊區化成路780號","121.465173333333","25.0590916666667","6500500","新莊區"
"242025","615-BX","2017/11/30 20:19:37","新北市新莊區五工二路70巷19號","121.460803333333","25.0664483333333","6500500","新莊區"
"242027","612-BX","2017/11/30 20:19:38","新北市新莊區幸福路576號","121.454045","25.049355","6500500","新莊區"
"242039","566-BX","2017/11/30 20:19:44","新北市新莊區龍安路457號","121.42462","25.018485","6500500","新莊區"
"242044","497-BY","2017/11/30 20:19:44","新北市新莊區中正路新建巷32號","121.414446666667","25.0217116666667","6500500","新莊區"
"242048","441-UM","2017/11/30 20:19:33","新北市新莊區萬安街149巷23弄1號","121.421341666667","25.02127","6500500","新莊區"
"242053","440-UM","2017/11/30 20:19:34","新北市新莊區民安西路261巷18號","121.426726666667","25.0130633333333","6500500","新莊區"
"242034","415-TV","2017/11/30 20:19:37","新北市新莊區建中街90巷7弄2號","121.446755","25.03782","6500500","新莊區"
"242004","413-TV","2017/11/30 20:19:48","新北市新莊區頭前路15巷2號","121.467863333333","25.05212","6500500","新莊區"
"242042","400-BY","2017/11/30 20:19:41","新北市新莊區天祥街54巷1弄1號","121.416628333333","25.0292266666667","6500500","新莊區"
"242061","362-BY","2017/11/30 20:19:45","新北市新莊區新樹路172-13號","121.434558333333","25.0217066666667","6500500","新莊區"
"242058","353-BY","2017/11/30 20:19:51","新北市新莊區四維路211號","121.421703333333","25.0200716666667","6500500","新莊區"
"242036","133-UY","2017/11/30 20:19:33","新北市新莊區建安街76巷1弄1號","121.426436666667","25.0245733333333","6500500","新莊區"
"242021","135-UY","2017/11/30 20:19:38","新北市新莊區和興街45號","121.446625","25.0405366666667","6500500","新莊區"
"242046","172-VK","2017/11/30 20:19:48","新北市新莊區中正路新生巷56號","121.417461666667","25.023085","6500500","新莊區"
"242009","173-VK","2017/11/30 20:18:52","新北市新莊區昌平街11號","121.454708333333","25.051755","6500500","新莊區"
"242015","175-VK","2017/11/30 20:19:41","新北市新莊區永樂街235巷4號","121.446651666667","25.044285","6500500","新莊區"
"242001","233-RS","2017/11/30 09:16:31","新北市新莊區環河路48-7號","121.436893333333","25.0097933333333","6500500","新莊區"
"242013","346-TH","2017/11/30 20:19:36","新北市新莊區中和街155巷24弄18號","121.446685","25.05038","6500500","新莊區"
"242007","347-TH","2017/11/30 20:19:32","新北市新莊區福壽街124巷34弄3號","121.45932","25.0511683333333","6500500","新莊區"
"242019","348-TH","2017/11/30 20:19:36","新北市新莊區復興路二段196巷1號","121.459526666667","25.04407","6500500","新莊區"
"242056","349-TH","2017/11/30 20:19:51","新北市新莊區豐年街28巷24號","121.445225","25.032385","6500500","新莊區"
"242017","350-TH","2017/11/30 20:19:49","新北市新莊區中港一街67號","121.450088333333","25.04542","6500500","新莊區"
"242011","351-TH","2017/11/30 20:19:32","新北市新莊區中信街21號","121.450993333333","25.050805","6500500","新莊區"
"238021","KEA-2217","2017/11/30 20:19:35","新北市樹林區田尾街179號","121.401368333333","24.9498066666667","6500700","樹林區"
"221008","489-VK","2017/11/30 20:19:52","新北市汐止區康寧街362號","121.628633333333","25.0676583333333","6501100","汐止區"
"221036","130-UY","2017/11/30 20:19:46","新北市汐止區仁愛路152巷27號","121.664843333333","25.0638433333333","6501100","汐止區"
"221010","269-BY","2017/11/30 20:19:40","新北市汐止區八連路二段450號","121.628525","25.10481","6501100","汐止區"
"221012","276-VK","2017/11/30 13:12:08","新北市汐止區汐萬路一段256巷3號","121.653465","25.0746316666667","6501100","汐止區"
"221012","278-VK","2017/11/30 20:19:32","新北市汐止區保新街一段285號","121.692891666667","25.0683416666667","6501100","汐止區"
"221023","279-VK","2017/11/30 20:19:44","新北市汐止區明峰街309號","121.625021666667","25.0673783333333","6501100","汐止區"
"221032","280-BY","2017/11/30 20:19:49","新北市汐止區民權街二段70號","121.619068333333","25.0482216666667","6501100","汐止區"
"221027","281-BY","2017/11/30 20:19:35","新北市汐止區中正路99巷16號","121.66113","25.069","6501100","汐止區"
"221029","298-VK","2017/11/30 20:19:38","新北市汐止區工建路88號","121.639966666667","25.06307","6501100","汐止區"
"221021","299-VK","2017/11/30 20:19:47","新北市汐止區水源路一段249號","121.654248333333","25.0597883333333","6501100","汐止區"
"221031","353-TW","2017/11/30 20:19:39","新北市汐止區原興路60巷8-1號","121.633118333333","25.0657933333333","6501100","汐止區"
"221015","567-BX","2017/11/30 20:19:50","新北市汐止區建成路160巷16號","121.661878333333","25.0740416666667","6501100","汐止區"
"221035","622-UM","2017/11/30 20:19:50","新北市汐止區長江街101-5號","121.65864","25.073225","6501100","汐止區"
"221025","623-UM","2017/11/30 20:19:39","新北市汐止區水源路二段72巷9弄3號","121.655701666667","25.0557066666667","6501100","汐止區"
"221038","646-BX","2017/11/30 20:19:44","新北市汐止區忠孝東路480號","121.66633","25.07378","6501100","汐止區"
"221033","647-BX","2017/11/30 20:19:50","新北市汐止區東勢街201巷34號","121.634966666667","25.04353","6501100","汐止區"
"221002","707-TV","2017/11/30 20:19:42","新北市汐止區福德三路26號","121.636841666667","25.06938","6501100","汐止區"
"221018","753-BX","2017/11/30 20:19:43","新北市汐止區茄興街8號","121.673446666667","25.0673483333333","6501100","汐止區"
"220101","245-BX","2017/11/30 20:19:46","新北市板橋區雙十路二段167號","121.47416","25.0284933333333","6500100","板橋區"
"220083","286-VK","2017/11/30 20:19:48","新北市板橋區僑中二街102巷46號","121.444395","25.0087033333333","6500100","板橋區"
"220081","287-VK","2017/11/30 20:19:46","新北市板橋區僑中一街100號","121.446671666667","25.0117533333333","6500100","板橋區"
"220061","293-UM","2017/11/30 20:19:37","新北市板橋區四川路一段265號","121.459516666667","25.002125","6500100","板橋區"
"220062","303-R5","2017/11/30 20:19:38","新北市板橋區區運路20號","121.465176666667","25.0093233333333","6500100","板橋區"
"220089","487-VK","2017/11/30 20:19:43","新北市板橋區四維路156號","121.464885","25.02587","6500100","板橋區"
"242002","280-VK","2017/11/30 20:19:47","新北市新莊區化成路33號","121.465161666667","25.043995","6500500","新莊區"
"220103","561-BX","2017/11/30 20:19:42","新北市板橋區陽明街259號","121.462628333333","25.0253483333333","6500100","板橋區"
"220055","827-TW","2017/11/30 20:19:40","新北市板橋區重慶路290巷24號","121.462258333333","24.9988183333333","6500100","板橋區"
"220074","895-R6","2017/11/30 20:19:48","新北市板橋區館前西路88號","121.457453333333","25.007135","6500100","板橋區"
"220097","AAC-210","2017/11/30 20:19:45","新北市板橋區公館街23號","121.460701666667","25.01473","6500100","板橋區"
"220070","AAC-253","2017/11/30 20:19:33","新北市板橋區南雅南路二段100號","121.453481666667","25.0011283333333","6500100","板橋區"
