"lineid","car","time","location","longitude","latitude","cityid","cityname"
"232001","291-BY","2017/08/24 09:28:11","新北市坪林區北宜路八段558號","121.718041666667","24.909095","6502000","坪林區"
"244001","483-VK","2017/08/24 10:09:07","新北市林口區粉寮69號","121.405001666667","25.0908483333333","6501700","林口區"
"244025","837-TS","2017/08/24 09:47:11","新北市林口區粉寮路二段160巷28號","121.405206666667","25.0907616666667","6501700","林口區"
"222006","289-BY","2017/08/24 10:49:10","新北市深坑區阿柔洋60號","121.607593333333","24.9966366666667","6501800","深坑區"
"231069","189-VK","2017/08/24 10:49:10","新北市新店區新潭路二段66號","121.521231666667","24.9258966666667","6500600","新店區"
"231008","192-VK","2017/08/24 10:49:08","新北市新店區廣興路15號","121.541543333333","24.9119566666667","6500600","新店區"
"241031","050-UM","2017/08/24 10:49:14","新北市鶯歌區鶯桃路298號","121.334061666667","24.9613466666667","6500200","三重區"
