"lineid","car","time","location","longitude","latitude","cityid","cityname"
"234005","207-UY","2017/08/24 14:39:14","新北市永和區中正路486號","121.517491666667","25.003835","6500400","永和區"
"234062","337-UY","2017/08/24 14:39:15","新北市永和區永貞路387號","121.508058333333","25.0086","6500400","永和區"
"234084","338-UY","2017/08/24 14:39:20","新北市永和區光復街31號","121.516561666667","25.0176283333333","6500400","永和區"
"234052","553-UM","2017/08/24 14:39:15","新北市永和區環河東路一段82號","121.519665","25.0164666666667","6500400","永和區"
"234060","AAD-866","2017/08/24 14:39:10","新北市永和區秀朗路一段175號","121.517046666667","25.00364","6500400","永和區"
"234025","9371-KE","2017/08/24 14:39:17","新北市永和區雙和街4號","121.509788333333","25.0017633333333","6500400","永和區"
"248013","025-BX","2017/08/24 14:39:07","新北市五股區五福路52巷10號","121.434063333333","25.0899266666667","6501500","五股區"
"248015","026-BX","2017/08/24 14:39:23","新北市五股區成泰路四段22巷19號","121.45468","25.1074516666667","6501500","五股區"
"248007","095-VK","2017/08/24 14:39:18","新北市五股區四維路155巷27號","121.466743333333","25.07413","6501500","五股區"
"248017","225-UY","2017/08/24 14:26:15","新北市五股區壟路16號","121.415171666667","25.0854333333333","6501500","五股區"
"248011","261-SL","2017/08/24 14:39:19","新北市五股區民義路一段101號","121.434438333333","25.08583","6501500","五股區"
"248009","272-BY","2017/08/24 14:39:20","新北市五股區自強路184號","121.431443333333","25.0695516666667","6501500","五股區"
"248003","677-BX","2017/08/24 14:39:24","新北市五股區成泰路二段38號","121.437136666667","25.081385","6501500","五股區"
"248001","678-BX","2017/08/24 14:39:07","新北市五股區成泰路三段311-1號","121.447753333333","25.0947766666667","6501500","五股區"
"234072","AAC-211","2017/08/24 14:39:21","新北市永和區環河東路二段52號","121.523183333333","25.0118066666667","6500400","永和區"
"234066","AAC-212","2017/08/24 14:39:12","新北市中和區保平路231號","121.507995","25.0044316666667","6500400","永和區"
"234001","AAC-295","2017/08/24 14:39:22","新北市永和區大新街12號","121.51489","25.0084633333333","6500400","永和區"
"232001","291-BY","2017/08/24 09:28:11","新北市坪林區北宜路八段558號","121.718041666667","24.909095","6502000","坪林區"
"244003","248-BX","2017/08/24 14:39:06","新北市林口區瑞平里33-1號","121.348593333333","25.1286783333333","6501700","林口區"
"244001","483-VK","2017/08/24 14:32:21","新北市林口區粉寮69號","121.405025","25.090955","6501700","林口區"
"244025","837-TS","2017/08/24 09:47:11","新北市林口區粉寮路二段160巷28號","121.405206666667","25.0907616666667","6501700","林口區"
"243005","AAD-798","2017/08/24 14:39:16","新北市泰山區應化街7號","121.423891666667","25.0437516666667","6501600","泰山區"
"243001","297-R6","2017/08/24 14:39:15","新北市泰山區楓江路16巷23號","121.434115","25.0615133333333","6501600","泰山區"
"243007","380-SR","2017/08/24 14:39:20","新北市泰山區明志路二段237巷21號","121.428066666667","25.04807","6501600","泰山區"
"243006","421-VK","2017/08/24 14:39:15","新北市泰山區仁愛路6巷5弄3號","121.43141","25.05412","6501600","泰山區"
"243002","548-UM","2017/08/24 14:39:07","新北市泰山區明志路二段136巷26號","121.426293333333","25.0520816666667","6501600","泰山區"
"243003","549-UM","2017/08/24 14:39:10","新北市泰山區明志路三段182巷11號","121.423521666667","25.03899","6501600","泰山區"
"243004","646-TV","2017/08/24 14:39:11","新北市泰山區仁愛路85號","121.43353","25.0557233333333","6501600","泰山區"
"243008","680-BX","2017/08/24 14:39:12","新北市泰山區明志路三段490號","121.420913333333","25.03133","6501600","泰山區"
"231028","001-UM","2017/08/24 14:39:23","新北市新店區安德街38號","121.511441666667","24.96265","6500600","新店區"
"231002","002-UM","2017/08/24 14:39:21","新北市新店區中正路374號","121.535031666667","24.9764166666667","6500600","新店區"
"231030","047-UY","2017/08/24 14:39:16","新北市新店區安民街200號","121.517155","24.9717466666667","6500600","新店區"
"231029","106-UY","2017/08/24 14:39:10","新北市新店區安康路三段179-1號","121.48821","24.9517766666667","6500600","新店區"
"231018","107-UY","2017/08/24 14:39:16","新北市新店區中央五街5號","121.530176666667","24.974185","6500600","新店區"
"231011","108-UY","2017/08/24 14:39:09","新北市新店區寶橋路103號","121.548121666667","24.976745","6500600","新店區"
"231021","187-VK","2017/08/24 14:39:08","新北市新店區桂山路51巷6-1號","121.563296666667","24.9043766666667","6500600","新店區"
"231007","189-VK","2017/08/24 12:00:22","新北市新店區安華路28-1號","121.519581666667","24.9611483333333","6500600","新店區"
"231017","AAD-862","2017/08/24 14:39:14","新北市新店區北宜路三段144號","121.585216666667","24.95045","6500600","新店區"
"231027","3712-VJ","2017/08/24 14:39:18","新北市新店區中正路76巷11弄12號","121.543935","24.9715316666667","6500600","新店區"
"231025","4716-K9","2017/08/24 14:39:08","新北市新店區民族路161號","121.537761666667","24.9766716666667","6500600","新店區"
"231038","4715-K9","2017/08/24 14:39:12","新北市新店區溪洲路101號","121.532571666667","24.9617983333333","6500600","新店區"
"231036","512-UM","2017/08/24 14:39:17","新北市新店區安祥路106巷244號","121.473415","24.9593966666667","6500600","新店區"
"231023","513-UM","2017/08/24 14:39:13","新北市新店區檳榔路50號","121.54181","24.9636083333333","6500600","新店區"
"231003","616-UM","2017/08/24 14:39:18","新北市新店區中正路5號","121.545835","24.9691583333333","6500600","新店區"
"231001","619-UM","2017/08/24 14:39:05","新北市新店區中正路4號","121.545711666667","24.96941","6500600","新店區"
"231034","645-TV","2017/08/24 14:39:05","新北市新店區黎明路53巷1號","121.502408333333","24.94866","6500600","新店區"
"231013","719-UM","2017/08/24 14:39:26","新北市新店區明德路31號","121.541685","24.9773433333333","6500600","新店區"
"231035","719-UY","2017/08/24 14:39:18","新北市新店區安光路10-1號","121.51386","24.96406","6500600","新店區"
"231005","897-TW","2017/08/24 14:39:17","新北市新店區北新路三段141號","121.541085","24.9831333333333","6500600","新店區"
"231006","898-TW","2017/08/24 14:39:19","新北市新店區北宜路二段153號","121.551935","24.9533333333333","6500600","新店區"
"231004","899-TW","2017/08/24 14:39:18","新北市新店區中正路265巷3號","121.53817","24.9735933333333","6500600","新店區"
"231037","AKT-0513","2017/08/24 14:39:12","新北市新店區柴埕路60巷7-2號","121.508886666667","24.9648183333333","6500600","新店區"
"235030","003-UY","2017/08/24 14:39:05","新北市中和區景新街133號","121.505816666667","24.9972166666667","6500300","中和區"
"235028","005-UY","2017/08/24 14:39:09","新北市中和區南山路81巷68號","121.50414","24.9978216666667","6500300","中和區"
"235027","006-UY","2017/08/24 14:39:18","新北市中和區連城路139巷64號","121.496715","24.9968716666667","6500300","中和區"
"235020","096-UM","2017/08/24 14:39:08","新北市中和區員山路581巷31弄1號","121.477225","25.0101733333333","6500300","中和區"
"235039","097-UM","2017/08/24 14:39:24","新北市永和區中正路34號","121.512881666667","24.9942766666667","6500300","中和區"
"235029","098-UM","2017/08/24 14:39:23","新北市中和區莊敬路33巷14號","121.500196666667","25.0052116666667","6500300","中和區"
"235004","150-BY","2017/08/24 14:39:15","新北市中和區宜安路13號","121.513195","24.99554","6500300","中和區"
"235022","151-BY","2017/08/24 14:39:17","新北市中和區員山路124巷3號","121.481541666667","24.9959816666667","6500300","中和區"
"235019","183-VK","2017/08/24 14:39:17","新北市中和區德光路27巷1弄1號","121.470823333333","25.0040616666667","6500300","中和區"
"235002","185-VK","2017/08/24 14:39:18","新北市中和區立人街11號","121.521631666667","24.9941416666667","6500300","中和區"
"235013","186-VK","2017/08/24 14:39:13","新北市中和區景新街273巷30號","121.510685","24.9940266666667","6500300","中和區"
"235008","293-VK","2017/08/24 14:39:16","新北市中和區捷運路79號","121.50845","24.989955","6500300","中和區"
"235036","301-VK","2017/08/24 14:39:23","新北市中和區中山路二段3巷22弄9號","121.506256666667","25.0050016666667","6500300","中和區"
"235007","352-BY","2017/08/24 14:39:20","新北市中和區景平路526號","121.502875","24.9943016666667","6500300","中和區"
"235015","376-QA","2017/08/24 14:39:28","新北市中和區中興街148號","121.498951666667","24.9916583333333","6500300","中和區"
"235068","377-QA","2017/08/24 14:39:20","新北市中和區福美路299號","121.497258333333","25.0047816666667","6500300","中和區"
"235025","378-QA","2017/08/24 14:39:06","新北市中和區民安街2巷11號","121.480373333333","25.00134","6500300","中和區"
"235014","4979-A6","2017/08/24 14:39:15","新北市中和區景平路241巷82弄41號","121.5062","24.9924283333333","6500300","中和區"
"235006","551-UM","2017/08/24 14:39:17","新北市中和區保健路2巷30號","121.507006666667","24.997435","6500300","中和區"
"235034","558-UM","2017/08/24 14:39:12","新北市中和區中和路143號","121.502165","24.9996733333333","6500300","中和區"
"235009","565-BX","2017/08/24 14:39:12","新北市中和區景新街392-1號","121.51249","24.989755","6500300","中和區"
"235018","640-BX","2017/08/24 14:39:17","新北市中和區國光街102巷11弄32號","121.470636666667","25.00167","6500300","中和區"
"235024","647-TV","2017/08/24 14:39:12","新北市中和區中山路二段523巷41號","121.482261666667","25.0031583333333","6500300","中和區"
"235011","732-UM","2017/08/24 14:39:05","新北市中和區和平街196號","121.504853333333","24.9926016666667","6500300","中和區"
"235010","733-UM","2017/08/24 14:39:21","新北市中和區忠孝街57號","121.511601666667","24.9845583333333","6500300","中和區"
"235026","800-TS","2017/08/24 14:39:09","新北市中和區中山路二段526巷23號","121.48577","25.0056983333333","6500300","中和區"
"235021","801-TS","2017/08/24 14:39:14","新北市中和區員山路320號","121.481398333333","25.0030083333333","6500300","中和區"
"235005","802-TS","2017/08/24 14:39:18","新北市永和區中和路331號","121.507396666667","24.9997566666667","6500300","中和區"
"235016","805-TS","2017/08/24 14:39:18","新北市中和區華新街143巷68號","121.50626","24.9792383333333","6500300","中和區"
"235012","896-TW","2017/08/24 14:39:18","新北市中和區景新街487號","121.513748333333","24.987395","6500300","中和區"
"235017","900-TW","2017/08/24 14:39:11","新北市中和區民德路197號","121.468968333333","24.99854","6500300","中和區"
"235035","911-UM","2017/08/24 14:39:20","新北市中和區連城路467-4號","121.483706666667","24.9961083333333","6500300","中和區"
"235001","AAC-213","2017/08/24 14:39:12","新北市中和區秀朗路三段10巷12弄2號","121.525665","24.9965583333333","6500300","中和區"
"235023","AAC-215","2017/08/24 14:39:11","新北市中和區圓通路262-1號","121.492991666667","24.9909","6500300","中和區"
"220016","013-TV","2017/08/24 14:39:16","新北市板橋區中山路二段416巷36-1號","121.483191666667","25.0198716666667","6500100","板橋區"
"220013","072-UY","2017/08/24 14:39:08","新北市板橋區實踐路93巷101號","121.467363333333","25.005935","6500100","板橋區"
"220034","073-UY","2017/08/24 14:39:16","新北市板橋區幸福路70巷7號","121.460465","25.020225","6500100","板橋區"
"220105","075-UY","2017/08/24 14:39:06","新北市板橋區江寧路三段50號","121.471793333333","25.0320466666667","6500100","板橋區"
"220017","AAD-861","2017/08/24 14:39:25","新北市板橋區貴興路42號","121.45728","25.0034233333333","6500100","板橋區"
"220051","120-SR","2017/08/24 14:39:24","新北市板橋區雙十路二段70巷35號","121.47606","25.02873","6500100","板橋區"
"247019","893-R6","2017/08/24 14:39:14","新北市蘆洲區仁愛街102號","121.470075","25.0946683333333","6501400","蘆洲區"
"247009","546-UM","2017/08/24 14:39:20","新北市蘆洲區信義路222巷39號","121.480178333333","25.0855666666667","6501400","蘆洲區"
"247017","500-BY","2017/08/24 14:39:17","新北市蘆洲區民族路314巷23號","121.478071666667","25.0907316666667","6501400","蘆洲區"
"247007","339-TH","2017/08/24 14:39:16","新北市蘆洲區民生街33號","121.47536","25.0789816666667","6501400","蘆洲區"
"247023","337-TH","2017/08/24 14:39:22","新北市蘆洲區正和街63巷7號","121.46915","25.0808183333333","6501400","蘆洲區"
"247001","336-TH","2017/08/24 14:39:14","新北市蘆洲區永樂街30號","121.458325","25.0881966666667","6501400","蘆洲區"
"247013","057-VK","2017/08/24 14:39:06","新北市蘆洲區中央路54號","121.473398333333","25.083545","6501400","蘆洲區"
"247003","056-VK","2017/08/24 14:39:21","新北市蘆洲區長安街285巷10號","121.45773","25.0842133333333","6501400","蘆洲區"
"247005","053-VK","2017/08/24 14:39:12","新北市蘆洲區長安街68巷18號","121.463665","25.0806516666667","6501400","蘆洲區"
"247011","007-UY","2017/08/24 14:39:14","新北市蘆洲區集賢路224巷64弄1號","121.48083","25.0882466666667","6501400","蘆洲區"
"247021","002-UY","2017/08/24 14:39:06","新北市蘆洲區三民路242號","121.468168333333","25.0898583333333","6501400","蘆洲區"
"247015","001-UY","2017/08/24 14:39:19","新北市蘆洲區正和街25號","121.46981","25.0820633333333","6501400","蘆洲區"
"228005","097-TW","2017/08/24 14:39:06","新北市貢寮區美豐里雞母嶺街6-6號","121.902071666667","25.0642533333333","6502600","貢寮區"
"228004","212-TW","2017/08/24 14:39:19","新北市貢寮區福隆里龜壽谷街30-1號","121.947053333333","25.0131966666667","6502600","貢寮區"
"208004","AAC-292","2017/08/24 14:39:21","新北市金山區兩湖里倒照湖37號","121.590711666667","25.2362833333333","6502700","金山區"
"207002","749-BX","2017/08/24 14:39:14","新北市萬里區崁腳里崁腳路106-4號","121.646143333333","25.158865","6502800","萬里區"
"252005","073-UM","2017/08/24 14:39:10","新北市三芝區埔坪里埔頭坑150號","121.510533333333","25.2495933333333","6502100","三芝區"
"207001","662-BX","2017/08/24 14:39:21","新北市萬里區雙興里豐稟路26號","121.641","25.1876966666667","6502800","萬里區"
"236066","105-UM","2017/08/24 14:39:17","新北市土城區永豐路211-2號","121.474688333333","24.9758483333333","6501300","土城區"
"236040","107-UM","2017/08/24 14:39:12","新北市土城區學成路108巷11號","121.45013","24.9896766666667","6501300","土城區"
"236076","166-UM","2017/08/24 14:39:15","新北市土城區大暖路10號","121.423361666667","24.9605166666667","6501300","土城區"
"236028","253-BX","2017/08/24 14:39:08","新北市土城區中華路二段187號","121.438448333333","24.9746733333333","6501300","土城區"
"236024","269-VK","2017/08/24 14:39:20","新北市土城區忠義路46號","121.440443333333","24.96933","6501300","土城區"
"236033","271-VK","2017/08/24 14:39:21","新北市土城區明德路一段291巷16號","121.460203333333","24.9765116666667","6501300","土城區"
"236018","401-BY","2017/08/24 14:39:19","新北市土城區明德路一段57號","121.465255","24.98458","6501300","土城區"
"236012","752-BX","2017/08/24 14:39:14","新北市土城區清水路228-6號","121.461628333333","24.9817783333333","6501300","土城區"
"236056","912-UM","2017/08/24 14:39:26","新北市土城區中央路四段172號","121.416688333333","24.957985","6501300","土城區"
"236047","913-UM","2017/08/24 14:39:11","新北市土城區明德路一段6-1號","121.464923333333","24.98559","6501300","土城區"
"236060","915-UM","2017/08/24 14:39:18","新北市土城區延壽路55巷7弄4號","121.469588333333","24.9916316666667","6501300","土城區"
"236052","AAC-216","2017/08/24 14:39:23","新北市土城區中華路一段145號","121.444016666667","24.9863866666667","6501300","土城區"
"238018","571-TV","2017/08/24 14:39:12","新北市樹林區育德街78-1號","121.387343333333","24.9682633333333","6500700","樹林區"
"238008","308-TH","2017/08/24 13:35:23","新北市樹林區育德街76巷1號","121.388723333333","24.968365","6500700","樹林區"
"221012","276-VK","2017/08/24 13:24:31","新北市汐止區汐萬路一段256巷3號","121.653465","25.0746233333333","6501100","汐止區"
"221002","753-BX","2017/08/24 14:38:56","新北市深坑區北深路三段286巷41號","121.59655","25.0080333333333","6501100","汐止區"
"220027","145-BY","2017/08/24 14:39:24","新北市板橋區建國街103號","121.46003","25.0175033333333","6500100","板橋區"
"220028","200-UY","2017/08/24 14:39:23","新北市板橋區大觀路二段37巷282號","121.449781666667","25.0012783333333","6500100","板橋區"
"220030","610-BX","2017/08/24 14:39:18","新北市板橋區金門街256號","121.4302","24.9868066666667","6500100","板橋區"
"220050","267-BY","2017/08/24 14:39:19","新北市板橋區莊敬路220巷12號","121.472435","25.02069","6500100","板橋區"
"220004","276-BY","2017/08/24 14:39:24","新北市板橋區四川路二段47巷1弄2號","121.454133333333","24.9948816666667","6500100","板橋區"
"220020","277-BY","2017/08/24 14:39:12","新北市板橋區篤行路二段141巷25號","121.430731666667","24.9877033333333","6500100","板橋區"
"220043","283-UM","2017/08/24 14:39:08","新北市板橋區宏國路97-3號","121.46979","25.0323616666667","6500100","板橋區"
"220019","283-VK","2017/08/24 14:39:11","新北市板橋區四川路一段283巷23號","121.459458333333","25.0006133333333","6500100","板橋區"
"220029","287-VK","2017/08/24 14:38:56","新北市板橋區大觀路一段29巷20號","121.449081666667","25.0054233333333","6500100","板橋區"
"220039","288-VK","2017/08/24 14:39:25","新北市板橋區長江路一段48巷3弄1號","121.459126666667","25.0286366666667","6500100","板橋區"
"220009","293-UM","2017/08/24 14:39:09","新北市板橋區板新路238號","121.468001666667","25.0160983333333","6500100","板橋區"
"220032","296-UM","2017/08/24 14:39:14","新北市板橋區滿平二街10巷2弄13號","121.425476666667","24.9873966666667","6500100","板橋區"
"220023","297-UM","2017/08/24 14:39:20","新北市板橋區中正路253巷39號","121.453823333333","25.017595","6500100","板橋區"
"220010","303-R5","2017/08/24 14:39:10","新北市板橋區三民路二段79號","121.479398333333","25.0167316666667","6500100","板橋區"
"220041","307-R5","2017/08/24 14:39:23","新北市板橋區文化路一段387巷12號","121.466535","25.02207","6500100","板橋區"
"220047","317-R6","2017/08/24 14:39:19","新北市板橋區四維路269巷16號","121.462441666667","25.028085","6500100","板橋區"
"220012","486-VK","2017/08/24 14:39:08","新北市板橋區館前東路56號","121.460941666667","25.007285","6500100","板橋區"
"220038","487-VK","2017/08/24 14:39:13","新北市板橋區建國街125號","121.460851666667","25.017745","6500100","板橋區"
"220037","491-VK","2017/08/24 14:39:26","新北市板橋區雙十路二段151號","121.474575","25.0280766666667","6500100","板橋區"
"220104","560-BX","2017/08/24 14:39:05","新北市板橋區新生街89巷2號","121.458246666667","25.0219783333333","6500100","板橋區"
"220052","561-BX","2017/08/24 14:39:15","新北市板橋區文化路一段220號","121.466556666667","25.0205133333333","6500100","板橋區"
"220001","568-UM","2017/08/24 14:39:18","新北市板橋區富山街62巷18號","121.477303333333","25.0226233333333","6500100","板橋區"
"220011","609-BX","2017/08/24 14:39:19","新北市板橋區三民路二段136-3號","121.479066666667","25.0162283333333","6500100","板橋區"
"220031","630-UY","2017/08/24 14:39:18","新北市板橋區龍興街71巷5號","121.443541666667","25.0018816666667","6500100","板橋區"
"220040","637-BX","2017/08/24 14:39:22","新北市板橋區懷德街203號","121.480438333333","25.0291916666667","6500100","板橋區"
"220005","686-BX","2017/08/24 14:39:20","新北市板橋區和平路165號","121.463761666667","24.9960116666667","6500100","板橋區"
"220025","687-BX","2017/08/24 14:39:16","新北市板橋區僑中二街50號","121.446781666667","25.0104383333333","6500100","板橋區"
"220042","689-BX","2017/08/24 14:39:12","新北市板橋區新海路360號","121.459783333333","25.025085","6500100","板橋區"
"220002","741-BX","2017/08/24 14:39:06","新北市板橋區忠孝路239巷18號","121.466701666667","25.003345","6500100","板橋區"
"220003","827-TW","2017/08/24 14:39:24","新北市板橋區國慶路149巷2弄2號","121.461375","24.996435","6500100","板橋區"
"220014","829-TW","2017/08/24 14:39:14","新北市板橋區長安街255巷39號","121.47232","25.0111866666667","6500100","板橋區"
"220045","831-TW","2017/08/24 14:39:14","新北市板橋區文化路二段2號","121.468568333333","25.0238366666667","6500100","板橋區"
"220022","895-R6","2017/08/24 14:39:19","新北市板橋區府中路38號","121.457558333333","25.0095433333333","6500100","板橋區"
"220021","985-R7","2017/08/24 14:39:21","新北市板橋區新生街37號","121.456691666667","25.0211216666667","6500100","板橋區"
"220046","AAC-210","2017/08/24 14:39:16","新北市板橋區新海路69號","121.461698333333","25.0216533333333","6500100","板橋區"
"220018","AAC-253","2017/08/24 14:39:25","新北市板橋區四川路一段126號","121.45991","25.0039016666667","6500100","板橋區"
