"lineid","car","time","location","longitude","latitude","cityid","cityname"
"234005","207-UY","2017/08/24 14:49:14","新北市永和區安樂路208-1號","121.514996666667","25.002095","6500400","永和區"
"234025","9371-KE","2017/08/24 14:49:17","新北市永和區水源街25號","121.511113333333","25.0044983333333","6500400","永和區"
"248013","025-BX","2017/08/24 14:49:07","新北市五股區五福路52巷25號","121.434453333333","25.09033","6501500","五股區"
"248015","026-BX","2017/08/24 14:49:23","新北市五股區成泰路三段577巷80弄7號","121.449518333333","25.1042883333333","6501500","五股區"
"248007","095-VK","2017/08/24 14:48:58","新北市五股區國道路三段7-1號","121.469488333333","25.07518","6501500","五股區"
"248017","225-UY","2017/08/24 14:26:15","新北市五股區壟路16號","121.415171666667","25.0854333333333","6501500","五股區"
"248011","261-SL","2017/08/24 14:49:19","新北市五股區六合街118號","121.430271666667","25.0908166666667","6501500","五股區"
"248009","272-BY","2017/08/24 14:49:12","新北市五股區登林路36-2號","121.432371666667","25.06872","6501500","五股區"
"248003","677-BX","2017/08/24 14:49:04","新北市五股區成泰路一段103號","121.435768333333","25.070945","6501500","五股區"
"248001","678-BX","2017/08/24 14:49:07","新北市五股區成泰路三段113號","121.444245","25.0905183333333","6501500","五股區"
"234066","AAC-212","2017/08/24 14:49:12","新北市中和區環河西路三段123號","121.489221666667","25.0106983333333","6500400","永和區"
"234001","AAC-295","2017/08/24 14:49:22","新北市永和區中正路636號","121.51715","25.0081583333333","6500400","永和區"
"232001","291-BY","2017/08/24 09:28:11","新北市坪林區北宜路八段558號","121.718041666667","24.909095","6502000","坪林區"
"244003","248-BX","2017/08/24 14:49:06","新北市林口區瑞平里33-1號","121.34881","25.1285216666667","6501700","林口區"
"244001","483-VK","2017/08/24 14:32:21","新北市林口區粉寮69號","121.405025","25.090955","6501700","林口區"
"244025","837-TS","2017/08/24 09:47:11","新北市林口區粉寮路二段160巷28號","121.405206666667","25.0907616666667","6501700","林口區"
"243005","AAD-798","2017/08/24 14:49:17","新北市泰山區應化街7號","121.423876666667","25.04375","6501600","泰山區"
"243001","297-R6","2017/08/24 14:49:15","新北市泰山區泰林路二段116巷3弄1號","121.435041666667","25.0595183333333","6501600","泰山區"
"243007","380-SR","2017/08/24 14:49:20","新北市泰山區明志路二段214巷16弄16號","121.427111666667","25.049685","6501600","泰山區"
"243006","421-VK","2017/08/24 14:49:15","新北市泰山區明志路一段8號","121.433623333333","25.0659416666667","6501600","泰山區"
"243002","548-UM","2017/08/24 14:49:09","新北市泰山區明志路二段273巷14弄2號","121.427496666667","25.0472016666667","6501600","泰山區"
"243003","549-UM","2017/08/24 14:49:10","新北市泰山區明志路三段356號","121.421301666667","25.0342516666667","6501600","泰山區"
"243004","646-TV","2017/08/24 14:49:11","新北市泰山區楓江路58-5號","121.436243333333","25.0628033333333","6501600","泰山區"
"243008","680-BX","2017/08/24 14:49:12","新北市泰山區貴陽街15號","121.421708333333","25.0333383333333","6501600","泰山區"
"231028","001-UM","2017/08/24 14:49:23","新北市新店區安德街148巷1號","121.508288333333","24.9597933333333","6500600","新店區"
"231002","002-UM","2017/08/24 14:49:20","新北市新店區民權路116號","121.535593333333","24.9828633333333","6500600","新店區"
"231030","047-UY","2017/08/24 14:49:16","新北市新店區安民街325號","121.517378333333","24.97461","6500600","新店區"
"231029","106-UY","2017/08/24 14:49:10","新北市新店區錦秀路1-3號","121.479108333333","24.945525","6500600","新店區"
"231018","107-UY","2017/08/24 14:49:16","新北市新店區中央二街5巷3號","121.529081666667","24.9728266666667","6500600","新店區"
"231011","108-UY","2017/08/24 14:49:09","新北市新店區寶橋路66號","121.546608333333","24.9751066666667","6500600","新店區"
"231021","187-VK","2017/08/24 14:49:08","新北市新店區新烏路二段9號","121.544446666667","24.9293516666667","6500600","新店區"
"231007","189-VK","2017/08/24 12:00:22","新北市新店區安華路28-1號","121.519581666667","24.9611483333333","6500600","新店區"
"231026","256-BX","2017/08/24 14:49:21","新北市新店區安康路一段355-3號","121.51984","24.96265","6500600","新店區"
"231017","AAD-862","2017/08/24 14:49:07","新北市新店區北宜路三段187號","121.58728","24.95263","6500600","新店區"
"231024","3713-VJ","2017/08/24 14:49:23","新北市新店區新生街3巷4號","121.540303333333","24.9656433333333","6500600","新店區"
"231025","4716-K9","2017/08/24 14:49:08","新北市新店區建國路133號","121.539326666667","24.9781283333333","6500600","新店區"
"231038","4715-K9","2017/08/24 14:49:12","新北市新店區安康路一段76巷18-1號","121.528781666667","24.9627566666667","6500600","新店區"
"231036","512-UM","2017/08/24 14:49:20","新北市新店區安祥路104巷2號","121.481228333333","24.9627666666667","6500600","新店區"
"231023","513-UM","2017/08/24 14:49:13","新北市新店區檳榔路109號","121.544458333333","24.9617","6500600","新店區"
"231003","616-UM","2017/08/24 14:49:18","新北市新店區中興路二段121巷1號","121.54757","24.9720566666667","6500600","新店區"
"231001","619-UM","2017/08/24 14:49:09","新北市新店區三民路61號","121.536536666667","24.9712233333333","6500600","新店區"
"231034","645-TV","2017/08/24 14:49:05","新北市新店區車子路2-1號","121.504606666667","24.95621","6500600","新店區"
"231013","719-UM","2017/08/24 14:49:06","新北市新店區北新路二段97巷7號","121.542213333333","24.9742233333333","6500600","新店區"
"231035","719-UY","2017/08/24 14:49:18","新北市新店區安樂街16號","121.520853333333","24.9732966666667","6500600","新店區"
"231005","897-TW","2017/08/24 14:49:17","新北市新店區復興路44-2號","121.53853","24.98664","6500600","新店區"
"231006","898-TW","2017/08/24 14:49:19","新北市新店區北宜路一段171號","121.544451666667","24.95326","6500600","新店區"
"231004","899-TW","2017/08/24 14:49:18","新北市新店區民族路81號","121.538963333333","24.9778733333333","6500600","新店區"
"231037","AKT-0513","2017/08/24 14:49:12","新北市新店區安民街365巷7弄2號","121.516018333333","24.9752366666667","6500600","新店區"
"235030","003-UY","2017/08/24 14:49:05","新北市中和區南工路20號","121.505465","25.0004916666667","6500300","中和區"
"235027","006-UY","2017/08/24 14:49:18","新北市中和區連城路263巷7弄1號","121.492158333333","24.9958716666667","6500300","中和區"
"235020","096-UM","2017/08/24 14:49:08","新北市中和區中山路三段114巷67號","121.475788333333","25.0077733333333","6500300","中和區"
"235039","097-UM","2017/08/24 14:48:44","新北市中和區安平路196號","121.513301666667","24.9994733333333","6500300","中和區"
"235029","098-UM","2017/08/24 14:49:03","新北市中和區福祥路68號","121.499365","25.005215","6500300","中和區"
"235004","150-BY","2017/08/24 14:49:15","新北市中和區安平路59號","121.509506666667","24.9951666666667","6500300","中和區"
"235022","151-BY","2017/08/24 14:49:17","新北市中和區員山路146巷6號","121.481713333333","24.9967866666667","6500300","中和區"
"235019","183-VK","2017/08/24 14:49:17","新北市中和區民生街15號","121.471321666667","25.00595","6500300","中和區"
"235002","185-VK","2017/08/24 14:49:18","新北市中和區自立路139巷7號","121.522648333333","24.9939","6500300","中和區"
"235013","186-VK","2017/08/24 14:49:13","新北市中和區景平路395號","121.50258","24.99448","6500300","中和區"
"235008","293-VK","2017/08/24 14:49:16","新北市中和區南山路282號","121.50793","24.9876983333333","6500300","中和區"
"235036","301-VK","2017/08/24 14:49:23","新北市中和區中山路二段3巷22弄19號","121.505978333333","25.00444","6500300","中和區"
"235007","352-BY","2017/08/24 14:49:20","新北市中和區安和路7號","121.511626666667","24.9935533333333","6500300","中和區"
"235015","376-QA","2017/08/24 14:49:08","新北市中和區中興街180巷45號","121.498235","24.9897133333333","6500300","中和區"
"235068","377-QA","2017/08/24 14:49:20","新北市中和區福美路306號","121.496905","25.0048916666667","6500300","中和區"
"235025","378-QA","2017/08/24 14:49:06","新北市中和區員山路174巷11號","121.482071666667","24.999955","6500300","中和區"
"235014","4979-A6","2017/08/24 14:49:15","新北市中和區景平路241巷64弄12號","121.507593333333","24.99251","6500300","中和區"
"235033","4980-A6","2017/08/24 14:49:11","新北市中和區圓通路83號","121.49983","24.9969283333333","6500300","中和區"
"235034","558-UM","2017/08/24 14:49:12","新北市中和區景平路666-1號","121.497541666667","25.0007183333333","6500300","中和區"
"235018","640-BX","2017/08/24 14:49:17","新北市中和區莒光路101號","121.472511666667","25.0029","6500300","中和區"
"235024","647-TV","2017/08/24 14:49:12","新北市中和區新生街16巷9號","121.4827","25.004305","6500300","中和區"
"235011","732-UM","2017/08/24 14:49:05","新北市中和區和平街23號","121.508068333333","24.9908516666667","6500300","中和區"
"235010","733-UM","2017/08/24 14:49:21","新北市中和區仁愛街82號","121.51137","24.9874966666667","6500300","中和區"
"235026","800-TS","2017/08/24 14:49:09","新北市中和區建三路9號","121.486138333333","25.0032383333333","6500300","中和區"
"235021","801-TS","2017/08/24 14:49:14","新北市中和區員山路150-6號","121.481351666667","24.9974766666667","6500300","中和區"
"235016","805-TS","2017/08/24 14:49:18","新北市中和區華新街192巷17號","121.506456666667","24.98279","6500300","中和區"
"235012","896-TW","2017/08/24 14:49:17","新北市中和區忠孝街126-1號","121.51208","24.9862866666667","6500300","中和區"
"235017","900-TW","2017/08/24 14:49:11","新北市中和區民德路143號","121.468773333333","25.0004783333333","6500300","中和區"
"235035","911-UM","2017/08/24 14:49:20","新北市中和區建一路148號","121.487781666667","24.998805","6500300","中和區"
"235001","AAC-213","2017/08/24 14:49:12","新北市中和區秀朗路三段48號","121.526476666667","24.9955616666667","6500300","中和區"
"235023","AAC-215","2017/08/24 14:49:11","新北市中和區圓通路305巷5弄53號","121.495078333333","24.9902683333333","6500300","中和區"
"220016","013-TV","2017/08/24 14:49:16","新北市板橋區中山路二段光榮巷30弄12號","121.48445","25.0204533333333","6500100","板橋區"
"220013","072-UY","2017/08/24 14:49:08","新北市板橋區國泰街29號","121.46882","25.0067433333333","6500100","板橋區"
"220034","073-UY","2017/08/24 14:49:16","新北市板橋區國光路75號","121.459603333333","25.01812","6500100","板橋區"
"220105","075-UY","2017/08/24 14:49:06","新北市板橋區民治街26巷4號","121.477625","25.0339866666667","6500100","板橋區"
"220017","AAD-861","2017/08/24 14:49:15","新北市板橋區縣民大道一段64巷22號","121.455523333333","25.0036716666667","6500100","板橋區"
"220051","120-SR","2017/08/24 14:49:04","新北市板橋區仁化街57號","121.47532","25.0318183333333","6500100","板橋區"
"247019","893-R6","2017/08/24 14:49:14","新北市蘆洲區民義街35巷16號","121.471545","25.0898833333333","6501400","蘆洲區"
"247017","500-BY","2017/08/24 14:49:17","新北市蘆洲區民族路422巷82弄36號","121.474263333333","25.09711","6501400","蘆洲區"
"247007","339-TH","2017/08/24 14:49:16","新北市蘆洲區信義路27巷1號","121.47401","25.0793766666667","6501400","蘆洲區"
"247023","337-TH","2017/08/24 14:49:22","新北市蘆洲區中山二路309號","121.46883","25.0771983333333","6501400","蘆洲區"
"247001","336-TH","2017/08/24 14:49:08","新北市蘆洲區長安街246巷43號","121.45885","25.0866433333333","6501400","蘆洲區"
"247013","057-VK","2017/08/24 14:49:06","新北市蘆洲區成功路156號","121.471668333333","25.0831916666667","6501400","蘆洲區"
"247021","002-UY","2017/08/24 14:49:14","新北市蘆洲區中正路401號","121.463666666667","25.09243","6501400","蘆洲區"
"247015","001-UY","2017/08/24 14:49:19","新北市蘆洲區和平路189號","121.466245","25.0813583333333","6501400","蘆洲區"
"228005","097-TW","2017/08/24 14:49:06","新北市貢寮區美豐里丹裡街69號","121.906066666667","25.056975","6502600","貢寮區"
"228004","212-TW","2017/08/24 14:49:19","新北市貢寮區福隆里裕隆街2號","121.946691666667","25.0154883333333","6502600","貢寮區"
"208004","AAC-292","2017/08/24 14:49:21","新北市金山區兩湖里倒照湖52號","121.596296666667","25.2393033333333","6502700","金山區"
"207002","749-BX","2017/08/24 14:49:14","新北市萬里區崁腳里崁腳路73號","121.64761","25.1596016666667","6502800","萬里區"
"207001","662-BX","2017/08/24 14:41:21","新北市萬里區雙興里豐稟路21-1號","121.640335","25.18559","6502800","萬里區"
"236066","105-UM","2017/08/24 14:49:12","新北市土城區明德路一段233號","121.46288","24.97836","6501300","土城區"
"236040","107-UM","2017/08/24 14:49:12","新北市土城區裕民路92巷25弄5號","121.449813333333","24.9858333333333","6501300","土城區"
"236076","166-UM","2017/08/24 14:49:15","新北市土城區中央路四段196-1號","121.416338333333","24.9577116666667","6501300","土城區"
"236028","253-BX","2017/08/24 14:49:08","新北市土城區忠義路26巷10號","121.439806666667","24.96995","6501300","土城區"
"236024","269-VK","2017/08/24 14:49:15","新北市土城區中央路二段237號","121.440288333333","24.97211","6501300","土城區"
"236033","271-VK","2017/08/24 14:49:21","新北市土城區明德路一段138號","121.463508333333","24.9788433333333","6501300","土城區"
"236018","401-BY","2017/08/24 14:49:20","新北市土城區延吉街253巷1號","121.467756666667","24.9848216666667","6501300","土城區"
"236012","752-BX","2017/08/24 14:49:10","新北市土城區金城路二段354巷4號","121.460838333333","24.9846133333333","6501300","土城區"
"236056","912-UM","2017/08/24 14:49:06","新北市土城區中央路三段155號","121.432025","24.96541","6501300","土城區"
"236047","913-UM","2017/08/24 14:49:11","新北市土城區青雲路95-2號","121.4594","24.9857083333333","6501300","土城區"
"236060","915-UM","2017/08/24 14:49:18","新北市土城區延和路201號","121.469525","24.9901683333333","6501300","土城區"
"236052","AAC-216","2017/08/24 14:49:15","新北市土城區裕民路112號","121.450896666667","24.9866233333333","6501300","土城區"
"238018","571-TV","2017/08/24 14:49:12","新北市樹林區中山路三段204號","121.387313333333","24.9682716666667","6500700","樹林區"
"238008","308-TH","2017/08/24 13:35:23","新北市樹林區育德街76巷1號","121.388723333333","24.968365","6500700","樹林區"
"221012","276-VK","2017/08/24 13:24:31","新北市汐止區汐萬路一段256巷3號","121.653465","25.0746233333333","6501100","汐止區"
"221002","753-BX","2017/08/24 14:49:16","新北市汐止區大同路二段132號","121.651758333333","25.06367","6501100","汐止區"
"220027","145-BY","2017/08/24 14:49:26","新北市板橋區中正路135巷12弄12號","121.455793333333","25.01601","6500100","板橋區"
"220028","200-UY","2017/08/24 14:49:23","新北市板橋區大觀路二段59巷31號","121.447585","25.0026116666667","6500100","板橋區"
"220030","610-BX","2017/08/24 14:49:16","新北市板橋區大觀路三段210號","121.430665","24.9924333333333","6500100","板橋區"
"220050","267-BY","2017/08/24 14:49:16","新北市板橋區莒光路196巷30號","121.472833333333","25.0226033333333","6500100","板橋區"
"220004","276-BY","2017/08/24 14:49:04","新北市板橋區四川路二段99巷4弄2號","121.45284","24.9941916666667","6500100","板橋區"
"220020","277-BY","2017/08/24 14:49:20","新北市板橋區金門街253巷11號","121.432748333333","24.9885866666667","6500100","板橋區"
"220043","283-UM","2017/08/24 14:49:08","新北市板橋區溪頭街2號","121.45739","25.0286983333333","6500100","板橋區"
"220019","283-VK","2017/08/24 14:49:11","新北市板橋區信義路279巷21號","121.464335","24.9902283333333","6500100","板橋區"
"220029","287-VK","2017/08/24 14:48:09","新北市板橋區大觀路一段28巷88號","121.449886666667","25.0110416666667","6500100","板橋區"
"220039","288-VK","2017/08/24 14:49:17","新北市板橋區龍泉街54巷7弄2號","121.456785","25.026605","6500100","板橋區"
"220009","293-UM","2017/08/24 14:49:09","新北市板橋區觀光街30號","121.471368333333","25.0162666666667","6500100","板橋區"
"220032","296-UM","2017/08/24 14:49:20","新北市板橋區溪崑二街124巷22號","121.425406666667","24.988455","6500100","板橋區"
"220023","297-UM","2017/08/24 14:49:20","新北市板橋區大勇街3巷1號","121.45506","25.0174566666667","6500100","板橋區"
"220010","303-R5","2017/08/24 14:49:10","新北市板橋區中山路二段416巷54弄15號","121.482265","25.0192883333333","6500100","板橋區"
"220041","307-R5","2017/08/24 14:49:23","新北市板橋區四維路259巷17號","121.46245","25.0276983333333","6500100","板橋區"
"220047","317-R6","2017/08/24 14:49:19","新北市板橋區裕民街95號","121.46027","25.0280033333333","6500100","板橋區"
"220012","486-VK","2017/08/24 14:49:08","新北市板橋區民權路45號","121.462078333333","25.0113283333333","6500100","板橋區"
"220038","487-VK","2017/08/24 14:49:13","新北市板橋區英士路151號","121.460161666667","25.0240333333333","6500100","板橋區"
"220037","491-VK","2017/08/24 14:49:06","新北市板橋區民治街10號","121.47741","25.0344016666667","6500100","板橋區"
"220104","560-BX","2017/08/24 14:49:24","新北市板橋區新生街29巷7號","121.456423333333","25.02156","6500100","板橋區"
"220052","561-BX","2017/08/24 14:49:15","新北市板橋區陽明街29巷32號","121.463721666667","25.02271","6500100","板橋區"
"220001","568-UM","2017/08/24 14:49:20","新北市板橋區中山路二段275號","121.47775","25.017925","6500100","板橋區"
"220011","609-BX","2017/08/24 14:49:17","新北市板橋區三民路一段31巷89弄18號","121.482","25.0235266666667","6500100","板橋區"
"220031","630-UY","2017/08/24 14:49:18","新北市板橋區大觀路二段22巷37號","121.444623333333","25.0036483333333","6500100","板橋區"
"220040","637-BX","2017/08/24 14:49:17","新北市板橋區懷德街139巷20弄8號","121.480088333333","25.0305116666667","6500100","板橋區"
"220005","686-BX","2017/08/24 14:49:07","新北市板橋區廣和街62號","121.462106666667","24.993875","6500100","板橋區"
"220025","687-BX","2017/08/24 14:49:16","新北市板橋區僑中三街40號","121.44532","25.0050633333333","6500100","板橋區"
"220042","689-BX","2017/08/24 14:49:18","新北市板橋區長江路一段367號","121.461568333333","25.03065","6500100","板橋區"
"220002","741-BX","2017/08/24 14:49:06","新北市板橋區忠孝路忠義巷15弄38號","121.465673333333","25.004445","6500100","板橋區"
"220003","827-TW","2017/08/24 14:49:04","新北市板橋區仁愛路62巷15弄1號","121.45999","24.9985416666667","6500100","板橋區"
"220014","829-TW","2017/08/24 14:49:25","新北市板橋區漢生東路193巷75號","121.472535","25.0118033333333","6500100","板橋區"
"220045","831-TW","2017/08/24 14:49:14","新北市板橋區莊敬路138-1號","121.471078333333","25.0233516666667","6500100","板橋區"
"220022","895-R6","2017/08/24 14:48:59","新北市板橋區文化路一段38號","121.459466666667","25.0118416666667","6500100","板橋區"
"220021","985-R7","2017/08/24 14:49:22","新北市板橋區中正路244號","121.455601666667","25.019095","6500100","板橋區"
"220046","AAC-210","2017/08/24 14:49:16","新北市板橋區漢生西路94號","121.462725","25.01963","6500100","板橋區"
"220018","AAC-253","2017/08/24 14:49:09","新北市板橋區館前東路5號","121.459763333333","25.0071233333333","6500100","板橋區"
