"lineid","car","time","location","longitude","latitude","cityid","cityname"
"248010","272-BY","2017/08/24 15:14:53","新北市五股區中興路二段37巷28號","121.460121666667","25.0749666666667","6501500","五股區"
"232001","291-BY","2017/08/24 09:28:11","新北市坪林區北宜路八段558號","121.718041666667","24.909095","6502000","坪林區"
"244001","483-VK","2017/08/24 14:32:21","新北市林口區粉寮69號","121.405025","25.090955","6501700","林口區"
"244025","837-TS","2017/08/24 09:47:11","新北市林口區粉寮路二段160巷28號","121.405206666667","25.0907616666667","6501700","林口區"
"231030","047-UY","2017/08/24 15:58:56","新北市新店區永平街51巷1號","121.516188333333","24.9840216666667","6500600","新店區"
"231018","107-UY","2017/08/24 15:58:56","新北市新店區中正路663巷7弄15號","121.532923333333","24.9901266666667","6500600","新店區"
"231011","108-UY","2017/08/24 15:58:50","新北市新店區中央六街1號","121.530546666667","24.9743383333333","6500600","新店區"
"231007","189-VK","2017/08/24 12:00:22","新北市新店區安華路28-1號","121.519581666667","24.9611483333333","6500600","新店區"
"231046","278-BY","2017/08/24 15:59:08","新北市新店區安華路28-1號","121.519785","24.9611033333333","6500600","新店區"
"231017","AAD-862","2017/08/24 15:59:06","新北市新店區中正路284巷4弄3-1號","121.538478333333","24.97493","6500600","新店區"
"231038","4715-K9","2017/08/24 15:58:51","新北市新店區安康路二段228巷6號","121.50949","24.95976","6500600","新店區"
"231003","616-UM","2017/08/24 15:58:58","新北市新店區中興路二段187號","121.547653333333","24.972335","6500600","新店區"
"231034","645-TV","2017/08/24 15:59:08","新北市新店區吉祥街7巷2號","121.497385","24.94734","6500600","新店區"
"231013","719-UM","2017/08/24 15:58:49","新北市新店區永業路96-1號","121.530005","24.951365","6500600","新店區"
"231035","719-UY","2017/08/24 15:58:57","新北市新店區安民街322巷12號","121.51828","24.97416","6500600","新店區"
"231037","AKT-0513","2017/08/24 15:58:53","新北市新店區吉安街34號","121.515956666667","24.9660683333333","6500600","新店區"
"241011","013-R5","2017/08/24 15:59:03","新北市三重區雙園街1巷7號","121.497136666667","25.0683133333333","6500200","三重區"
"241028","022-UY","2017/08/24 15:59:02","新北市三重區電信街97號","121.495483333333","25.058315","6500200","三重區"
"241008","059-VK","2017/08/24 15:59:06","新北市三重區重新路四段121號","121.484923333333","25.0519216666667","6500200","三重區"
"241017","063-VK","2017/08/24 15:58:51","新北市三重區大仁街48巷43號","121.490763333333","25.0643966666667","6500200","三重區"
"241024","065-VK","2017/08/24 15:58:58","新北市三重區力行路一段38巷27號","121.4854","25.0670166666667","6500200","三重區"
"241026","066-VK","2017/08/24 15:58:55","新北市三重區正義南路97號","121.49854","25.05947","6500200","三重區"
"241003","091-VK","2017/08/24 15:59:07","新北市三重區自強路五段112號","121.49684","25.0836216666667","6500200","三重區"
"241006","156-TC","2017/08/24 15:59:07","新北市三重區永福街58巷3弄20號","121.480698333333","25.07737","6500200","三重區"
"241005","262-UM","2017/08/24 15:58:54","新北市三重區五華街259號","121.488971666667","25.0869333333333","6500200","三重區"
"241016","266-UM","2017/08/24 15:58:50","新北市三重區重新路四段121號","121.4841","25.0527916666667","6500200","三重區"
"241022","267-UM","2017/08/24 15:58:51","新北市三重區三民街175巷2號","121.483421666667","25.0655366666667","6500200","三重區"
"241018","268-UM","2017/08/24 15:58:51","新北市三重區大仁街1號","121.491646666667","25.0635633333333","6500200","三重區"
"241013","270-UM","2017/08/24 15:58:54","新北市三重區三和路三段16巷37號","121.496013333333","25.069985","6500200","三重區"
"241025","271-UM","2017/08/24 15:58:51","新北市三重區三民街206號","121.48094","25.066175","6500200","三重區"
"241007","398-BY","2017/08/24 15:59:03","新北市三重區忠孝路三段1號","121.481888333333","25.06765","6500200","三重區"
"241020","412-TH","2017/08/24 15:58:58","新北市三重區車路頭街4巷23號","121.48319","25.0702","6500200","三重區"
"241004","475-VK","2017/08/24 15:59:01","新北市三重區自強路五段66-1號","121.495873333333","25.0826483333333","6500200","三重區"
"241014","543-UM","2017/08/24 15:59:01","新北市三重區重新路四段121號","121.485178333333","25.051805","6500200","三重區"
"241023","545-UM","2017/08/24 15:58:58","新北市三重區中正北路174-1號","121.483788333333","25.0666916666667","6500200","三重區"
"241001","887-TS","2017/08/24 15:59:04","新北市三重區忠孝路二段160號","121.48208","25.0678266666667","6500200","三重區"
"241012","941-UM","2017/08/24 15:59:05","新北市三重區正義北路117號","121.496896666667","25.0659583333333","6500200","三重區"
"241029","942-UM","2017/08/24 15:58:49","新北市三重區大同南路218號","121.496811666667","25.05636","6500200","三重區"
"241033","AAC-255","2017/08/24 15:59:01","新北市三重區重新路五段446號","121.474583333333","25.0474216666667","6500200","三重區"
"235036","301-VK","2017/08/24 15:59:03","新北市八里區中山路三段409號","121.368448333333","25.1349583333333","6500300","中和區"
"235033","4980-A6","2017/08/24 15:58:50","新北市中和區中正路637巷32號","121.484918333333","24.9945933333333","6500300","中和區"
"235011","732-UM","2017/08/24 15:59:05","新北市五股區中直路11-21號","121.426735","25.1095783333333","6500300","中和區"
"235026","800-TS","2017/08/24 15:58:49","新北市中和區中山路二段482巷31號","121.489815","25.00684","6500300","中和區"
"220034","073-UY","2017/08/24 15:58:56","新北市五股區成泰路一段98巷2-2號","121.43693","25.0716766666667","6500100","板橋區"
"247002","336-TH","2017/08/24 15:58:48","新北市五股區中興路三段163號","121.449246666667","25.0805933333333","6501400","蘆洲區"
"224007","273-VK","2017/08/24 15:58:59","新北市瑞芳區楓子瀨路66號","121.767688333333","25.0996283333333","6501200","瑞芳區"
"224005","271-BY","2017/08/24 15:59:01","新北市瑞芳區明燈路二段66號","121.809363333333","25.1076283333333","6501200","瑞芳區"
"227004","642-TC","2017/08/24 15:58:57","新北市雙溪區平林里外平林67號","121.843186666667","25.0352","6502500","雙溪區"
"227010","400-TW","2017/08/24 15:51:03","新北市雙溪區新基里朝陽街12號","121.866148333333","25.0387483333333","6502500","雙溪區"
"252005","073-UM","2017/08/24 15:22:08","新北市三芝區埔坪里埔頭坑41號","121.504288333333","25.2645516666667","6502100","三芝區"
"236066","105-UM","2017/08/24 15:58:51","新北市土城區福安街102巷5弄1號","121.417311666667","24.9644533333333","6501300","土城區"
"236076","166-UM","2017/08/24 15:58:55","新北市土城區福安街53號","121.418623333333","24.96443","6501300","土城區"
"236024","269-VK","2017/08/24 15:58:55","新北市土城區裕生路88號","121.447076666667","24.9851183333333","6501300","土城區"
"236018","401-BY","2017/08/24 15:58:47","新北市土城區和城路二段253-2號","121.47314","24.9874016666667","6501300","土城區"
"236056","912-UM","2017/08/24 15:59:06","新北市土城區中央路二段190號","121.441998333333","24.9760166666667","6501300","土城區"
"236052","AAC-216","2017/08/24 15:59:02","新北市土城區中華路一段301號","121.439783333333","24.9797416666667","6501300","土城區"
"238002","755-BX","2017/08/24 15:59:06","新北市樹林區文德街4巷22號","121.419655","24.9918383333333","6500700","樹林區"
"238010","601-UM","2017/08/24 15:58:31","新北市樹林區龍興街46巷26號","121.402145","25.015225","6500700","樹林區"
"238006","599-UM","2017/08/24 15:59:05","新北市樹林區水源街32巷72號","121.425011666667","24.9802166666667","6500700","樹林區"
"238005","571-TV","2017/08/24 15:58:52","新北市樹林區博愛街194號","121.424846666667","24.989645","6500700","樹林區"
"238011","5061-A6","2017/08/24 15:58:50","新北市樹林區山佳街57-1號","121.392963333333","24.9723966666667","6500700","樹林區"
"238009","312-TH","2017/08/24 15:59:00","新北市樹林區福順街59號","121.416113333333","24.9783416666667","6500700","樹林區"
"238008","311-TH","2017/08/24 15:59:00","新北市樹林區柑園街二段109號","121.385551666667","24.9549083333333","6500700","樹林區"
"238008","308-TH","2017/08/24 13:35:23","新北市樹林區育德街76巷1號","121.388723333333","24.968365","6500700","樹林區"
"238012","303-VK","2017/08/24 15:59:00","新北市樹林區保安街一段110號","121.42379","24.9948883333333","6500700","樹林區"
"238004","283-BY","2017/08/24 15:59:02","新北市樹林區中正路433-1號","121.41497","25.0080566666667","6500700","樹林區"
"238001","282-BY","2017/08/24 15:58:58","新北市樹林區千歲街6巷18號","121.425541666667","24.9951533333333","6500700","樹林區"
"238007","268-VK","2017/08/24 15:23:13","新北市板橋區大觀路三段36巷5-2號","121.43319","24.9958616666667","6500700","樹林區"
"238013","172-UY","2017/08/24 15:58:57","新北市樹林區育德街21號","121.392343333333","24.9703783333333","6500700","樹林區"
"238003","169-UY","2017/08/24 15:58:54","新北市樹林區啟智街151巷5-1號","121.416688333333","24.987655","6500700","樹林區"
"221012","276-VK","2017/08/24 13:24:31","新北市汐止區汐萬路一段256巷3號","121.653465","25.0746233333333","6501100","汐止區"
"221018","753-BX","2017/08/24 15:02:22","新北市汐止區汐萬路一段256巷1號","121.651933333333","25.07476","6501100","汐止區"
"220021","985-R7","2017/08/24 15:59:01","新北市八里區下罟子15-9號","121.38029","25.1394983333333","6500100","板橋區"
"220018","AAC-253","2017/08/24 15:59:08","新北市五股區凌雲路二段18巷6號","121.443595","25.1067966666667","6500100","板橋區"
