"lineid","car","time","location","longitude","latitude","cityid","cityname"
"249002","305-UY","2017/08/24 16:28:55","新北市八里區仁愛路10號","121.413581666667","25.1619233333333","6502300","八里區"
"248010","272-BY","2017/08/24 15:14:53","新北市五股區中興路二段37巷28號","121.460121666667","25.0749666666667","6501500","五股區"
"232001","291-BY","2017/08/24 09:28:11","新北市坪林區北宜路八段558號","121.718041666667","24.909095","6502000","坪林區"
"244001","483-VK","2017/08/24 14:32:21","新北市林口區粉寮69號","121.405025","25.090955","6501700","林口區"
"244025","837-TS","2017/08/24 09:47:11","新北市林口區粉寮路二段160巷28號","121.405206666667","25.0907616666667","6501700","林口區"
"243009","297-R6","2017/08/24 16:05:21","新北市泰山區黎明路25號","121.421868333333","25.060905","6501600","泰山區"
"231007","189-VK","2017/08/24 12:00:22","新北市新店區安華路28-1號","121.519581666667","24.9611483333333","6500600","新店區"
"231046","278-BY","2017/08/24 16:28:48","新北市新店區灣潭路3-2號","121.538263333333","24.9507866666667","6500600","新店區"
"241011","013-R5","2017/08/24 16:29:02","新北市三重區龍濱路190號","121.501201666667","25.0732833333333","6500200","三重區"
"241028","022-UY","2017/08/24 16:29:02","新北市三重區重安街140號","121.495358333333","25.0549633333333","6500200","三重區"
"241008","059-VK","2017/08/24 16:28:46","新北市三重區永福街122-2號","121.47914","25.0752333333333","6500200","三重區"
"241009","060-VK","2017/08/24 16:28:44","新北市三重區仁美街96巷8號","121.485426666667","25.08006","6500200","三重區"
"241031","061-VK","2017/08/24 16:28:48","新北市三重區重陽路一段45號","121.486633333333","25.058125","6500200","三重區"
"241015","062-VK","2017/08/24 16:28:51","新北市三重區福德北路36-1號","121.501843333333","25.0651716666667","6500200","三重區"
"241017","063-VK","2017/08/24 16:28:52","新北市三重區大同北路85號","121.494861666667","25.0636483333333","6500200","三重區"
"241024","065-VK","2017/08/24 16:28:58","新北市三重區中正北路269號","121.475285","25.0711316666667","6500200","三重區"
"241026","066-VK","2017/08/24 16:28:59","新北市三重區中央南路141巷32-2號","121.500523333333","25.0591783333333","6500200","三重區"
"241002","090-VK","2017/08/24 16:28:50","新北市三重區仁義街126號","121.497583333333","25.0803216666667","6500200","三重區"
"241003","091-VK","2017/08/24 16:28:47","新北市三重區仁義街220巷10號","121.494988333333","25.0839116666667","6500200","三重區"
"241006","156-TC","2017/08/24 16:28:58","新北市三重區力行路二段184號","121.483358333333","25.0773216666667","6500200","三重區"
"241005","262-UM","2017/08/24 16:28:54","新北市三重區溪尾街300-2號","121.487495","25.08358","6500200","三重區"
"241030","265-UM","2017/08/24 16:28:50","新北市三重區重新路四段121號","121.484445","25.0524083333333","6500200","三重區"
"241016","266-UM","2017/08/24 16:28:50","新北市三重區大智街21號","121.494261666667","25.0657866666667","6500200","三重區"
"241022","267-UM","2017/08/24 16:28:51","新北市三重區新北大道一段50號","121.487603333333","25.061515","6500200","三重區"
"241018","268-UM","2017/08/24 16:28:51","新北市三重區正義北路364巷64號","121.492545","25.07074","6500200","三重區"
"241032","269-UM","2017/08/24 16:28:58","新北市三重區三陽路100巷3弄13號","121.482985","25.05809","6500200","三重區"
"241013","270-UM","2017/08/24 16:28:54","新北市三重區三和路三段91巷131號","121.497861666667","25.07321","6500200","三重區"
"241025","271-UM","2017/08/24 16:28:51","新北市三重區中正北路560巷100弄2號","121.472553333333","25.06824","6500200","三重區"
"241007","398-BY","2017/08/24 16:28:44","新北市三重區三和路四段167巷163號","121.488388333333","25.0804383333333","6500200","三重區"
"241020","412-TH","2017/08/24 16:28:58","新北市三重區車路頭街37巷1號","121.483905","25.071625","6500200","三重區"
"241004","475-VK","2017/08/24 16:29:01","新北市三重區自強路五段35號","121.493683333333","25.0811533333333","6500200","三重區"
"241019","478-VK","2017/08/24 16:28:51","新北市三重區重陽路三段95號","121.490261666667","25.0679066666667","6500200","三重區"
"241014","543-UM","2017/08/24 16:29:01","新北市三重區河邊北街72-6號","121.504405","25.06863","6500200","三重區"
"241023","545-UM","2017/08/24 16:28:58","新北市三重區忠孝路三段50巷80號","121.48295","25.0645316666667","6500200","三重區"
"241001","887-TS","2017/08/24 16:28:44","新北市三重區仁政街155巷3號","121.491723333333","25.0793783333333","6500200","三重區"
"241012","941-UM","2017/08/24 16:28:56","新北市三重區河邊北街347號","121.502125","25.0755433333333","6500200","三重區"
"241029","942-UM","2017/08/24 16:28:47","新北市三重區集美街126巷2號","121.489121666667","25.0536416666667","6500200","三重區"
"241033","AAC-255","2017/08/24 16:29:01","新北市三重區五谷王北街42巷14號","121.475238333333","25.049245","6500200","三重區"
"235064","005-UY","2017/08/24 16:28:49","新北市中和區員山路36巷16-3號","121.484965","24.9913616666667","6500300","中和區"
"235004","150-BY","2017/08/24 15:59:44","新北市中和區和城路一段271巷1號","121.485488333333","24.9917183333333","6500300","中和區"
"235036","301-VK","2017/08/24 16:28:43","新北市三重區頂崁街23號","121.476391666667","25.0568816666667","6500300","中和區"
"235026","800-TS","2017/08/24 16:28:49","新北市中和區建八路155號","121.491201666667","24.998665","6500300","中和區"
"247002","336-TH","2017/08/24 16:04:16","新北市五股區中興路三段163號","121.44925","25.0805416666667","6501400","蘆洲區"
"224008","275-VK","2017/08/24 16:28:55","新北市瑞芳區逢甲路20-1號","121.809363333333","25.10845","6501200","瑞芳區"
"224007","273-VK","2017/08/24 16:28:59","新北市瑞芳區瑞竹路36巷25號","121.764145","25.1043216666667","6501200","瑞芳區"
"224005","271-BY","2017/08/24 16:28:41","新北市瑞芳區豎崎路32-5號","121.823966666667","25.120845","6501200","瑞芳區"
"227004","642-TC","2017/08/24 16:28:57","新北市雙溪區上林里內平林120-2號","121.824385","25.0262083333333","6502500","雙溪區"
"227010","400-TW","2017/08/24 16:28:43","新北市雙溪區三港里雙澳路2號","121.869128333333","25.0462816666667","6502500","雙溪區"
"251008","181-VK","2017/08/24 16:28:46","新北市淡水區樹梅坑45號","121.475078333333","25.1444416666667","6501000","淡水區"
"251014","182-VK","2017/08/24 16:28:56","新北市淡水區新市一路一段107號","121.43126","25.1867516666667","6501000","淡水區"
"251016","442-VK","2017/08/24 16:29:01","新北市淡水區北新路65號","121.446053333333","25.178335","6501000","淡水區"
"252005","073-UM","2017/08/24 15:22:08","新北市三芝區埔坪里埔頭坑41號","121.504288333333","25.2645516666667","6502100","三芝區"
"238002","755-BX","2017/08/24 16:28:46","新北市樹林區中山路三段125-7號","121.398031666667","24.9738566666667","6500700","樹林區"
"238010","601-UM","2017/08/24 16:28:51","新北市樹林區忠信街15號","121.407688333333","25.0149283333333","6500700","樹林區"
"238006","599-UM","2017/08/24 16:28:44","新北市樹林區中華路162號","121.41556","24.9802366666667","6500700","樹林區"
"238008","311-TH","2017/08/24 16:20:09","新北市樹林區佳園路二段91號","121.390633333333","24.9593333333333","6500700","樹林區"
"238008","308-TH","2017/08/24 13:35:23","新北市樹林區育德街76巷1號","121.388723333333","24.968365","6500700","樹林區"
"238004","283-BY","2017/08/24 16:28:42","新北市樹林區中正路433-1號","121.414766666667","25.00804","6500700","樹林區"
"238001","282-BY","2017/08/24 16:28:58","新北市樹林區大慶街99-1號","121.427673333333","24.9996283333333","6500700","樹林區"
"238007","268-VK","2017/08/24 15:23:13","新北市板橋區大觀路三段36巷5-2號","121.43319","24.9958616666667","6500700","樹林區"
"221012","276-VK","2017/08/24 13:24:31","新北市汐止區汐萬路一段256巷3號","121.653465","25.0746233333333","6501100","汐止區"
"221018","753-BX","2017/08/24 15:02:22","新北市汐止區汐萬路一段256巷1號","121.651933333333","25.07476","6501100","汐止區"
"220018","AAC-253","2017/08/24 16:28:48","新北市林口區太平里180號","121.368251666667","25.13452","6500100","板橋區"
