"lineid","car","time","location","longitude","latitude","cityid","cityname"
"249005","172-UM","2017/08/24 16:38:56","新北市八里區挖子尾街16號","121.41529","25.164335","6502300","八里區"
"249002","305-UY","2017/08/24 16:38:55","新北市八里區大堀湖22-9號","121.428195","25.1487583333333","6502300","八里區"
"249003","593-UM","2017/08/24 16:38:44","新北市八里區挖子尾街6號","121.41563","25.1642333333333","6502300","八里區"
"248010","272-BY","2017/08/24 15:14:53","新北市五股區中興路二段37巷28號","121.460121666667","25.0749666666667","6501500","五股區"
"232001","291-BY","2017/08/24 09:28:11","新北市坪林區北宜路八段558號","121.718041666667","24.909095","6502000","坪林區"
"244007","080-UY","2017/08/24 16:38:41","新北市林口區粉寮69號","121.404961666667","25.090945","6501700","林口區"
"244001","483-VK","2017/08/24 14:32:21","新北市林口區粉寮69號","121.405025","25.090955","6501700","林口區"
"244025","837-TS","2017/08/24 16:38:01","新北市林口區粉寮路二段160巷28號","121.405115","25.090775","6501700","林口區"
"243009","297-R6","2017/08/24 16:05:21","新北市泰山區黎明路25號","121.421868333333","25.060905","6501600","泰山區"
"231007","189-VK","2017/08/24 16:33:36","新北市新店區安華路28-1號","121.519551666667","24.9609266666667","6500600","新店區"
"231046","278-BY","2017/08/24 16:38:48","新北市新店區灣潭路15-2號","121.541953333333","24.9432116666667","6500600","新店區"
"241011","013-R5","2017/08/24 16:38:42","新北市三重區秀江街179號","121.498085","25.0719683333333","6500200","三重區"
"241028","022-UY","2017/08/24 16:38:42","新北市三重區中正南路1號","121.493373333333","25.0605133333333","6500200","三重區"
"241008","059-VK","2017/08/24 16:38:46","新北市三重區永安北路一段29號","121.476741666667","25.0755783333333","6500200","三重區"
"241009","060-VK","2017/08/24 16:38:44","新北市三重區三和路四段203巷2號","121.482236666667","25.079505","6500200","三重區"
"241031","061-VK","2017/08/24 16:38:48","新北市三重區重新路四段16號","121.488556666667","25.0576216666667","6500200","三重區"
"241015","062-VK","2017/08/24 16:38:51","新北市三重區文化北路33-8號","121.499215","25.0648316666667","6500200","三重區"
"241017","063-VK","2017/08/24 16:38:51","新北市三重區中正北路25巷5號","121.492628333333","25.0620516666667","6500200","三重區"
"241024","065-VK","2017/08/24 16:38:58","新北市三重區中正北路315巷6弄62號","121.476041666667","25.0725583333333","6500200","三重區"
"241026","066-VK","2017/08/24 16:38:55","新北市三重區福德南路53號","121.503038333333","25.06173","6500200","三重區"
"241002","090-VK","2017/08/24 16:38:50","新北市三重區五華街55巷37號","121.49518","25.081885","6500200","三重區"
"241003","091-VK","2017/08/24 16:38:47","新北市三重區五華街71巷92號","121.494215","25.083855","6500200","三重區"
"241006","156-TC","2017/08/24 16:38:47","新北市三重區力行路二段162巷3號","121.482735","25.07661","6500200","三重區"
"241005","262-UM","2017/08/24 16:38:54","新北市三重區仁華街118巷25號","121.48594","25.0837133333333","6500200","三重區"
"241030","265-UM","2017/08/24 16:38:50","新北市三重區成功路50巷26號","121.488503333333","25.0495583333333","6500200","三重區"
"241016","266-UM","2017/08/24 16:38:50","新北市三重區自強路一段160巷3弄9號","121.49493","25.0655566666667","6500200","三重區"
"241022","267-UM","2017/08/24 16:38:51","新北市三重區新北大道一段100巷29號","121.485418333333","25.0626433333333","6500200","三重區"
"241018","268-UM","2017/08/24 16:38:51","新北市三重區六張街75號","121.493351666667","25.0704133333333","6500200","三重區"
"241032","269-UM","2017/08/24 16:38:58","新北市三重區新北大道一段57巷1號","121.485483333333","25.0612566666667","6500200","三重區"
"241013","270-UM","2017/08/24 16:38:54","新北市三重區仁愛街54號","121.495741666667","25.07274","6500200","三重區"
"241025","271-UM","2017/08/24 16:38:51","新北市三重區中正北路428巷7弄11號","121.474161666667","25.0700183333333","6500200","三重區"
"241007","398-BY","2017/08/24 16:38:44","新北市三重區三和路四段167巷78號","121.484981666667","25.07941","6500200","三重區"
"241020","412-TH","2017/08/24 16:38:58","新北市三重區後竹圍街187號","121.485503333333","25.0715783333333","6500200","三重區"
"241004","475-VK","2017/08/24 16:39:01","新北市三重區五華街70號","121.4933","25.0818283333333","6500200","三重區"
"241019","478-VK","2017/08/24 16:38:51","新北市三重區力行路一段11號","121.488315","25.0667183333333","6500200","三重區"
"241014","543-UM","2017/08/24 16:38:41","新北市三重區龍濱路22號","121.502976666667","25.0677183333333","6500200","三重區"
"241023","545-UM","2017/08/24 16:38:58","新北市三重區忠孝路三段50巷45號","121.482883333333","25.0643716666667","6500200","三重區"
"241001","887-TS","2017/08/24 16:38:52","新北市三重區福隆路56號","121.492761666667","25.0786516666667","6500200","三重區"
"241012","941-UM","2017/08/24 16:38:56","新北市三重區仁興街3巷38號","121.500743333333","25.074105","6500200","三重區"
"241029","942-UM","2017/08/24 16:38:47","新北市三重區集美街140號","121.489438333333","25.0530933333333","6500200","三重區"
"241033","AAC-255","2017/08/24 16:38:40","新北市三重區光復路二段73號","121.472163333333","25.0569133333333","6500200","三重區"
"235064","005-UY","2017/08/24 16:38:49","新北市中和區員山路36巷16-3號","121.485006666667","24.9913583333333","6500300","中和區"
"235004","150-BY","2017/08/24 15:59:44","新北市中和區和城路一段271巷1號","121.485488333333","24.9917183333333","6500300","中和區"
"235067","255-BX","2017/08/24 16:29:42","新北市中和區員山路36巷13號","121.484373333333","24.9913833333333","6500300","中和區"
"235036","301-VK","2017/08/24 16:38:43","新北市中和區中山路二段550號","121.483888333333","25.0054","6500300","中和區"
"235026","800-TS","2017/08/24 16:38:49","新北市中和區連城路220號","121.491266666667","24.9965716666667","6500300","中和區"
"247002","336-TH","2017/08/24 16:38:54","新北市五股區中興路三段163號","121.449186666667","25.0804933333333","6501400","蘆洲區"
"247014","057-VK","2017/08/24 16:38:46","新北市蘆洲區中正路385號","121.463828333333","25.09233","6501400","蘆洲區"
"247004","056-VK","2017/08/24 16:38:41","新北市五股區中興路二段182巷15弄13號","121.457191666667","25.0816466666667","6501400","蘆洲區"
"228002","585-TW","2017/08/24 16:38:41","新北市貢寮區貢寮里朝陽街1-2號","121.912281666667","25.021355","6502600","貢寮區"
"224006","676-BX","2017/08/24 16:38:58","新北市瑞芳區大寮路356-1號","121.784776666667","25.1033166666667","6501200","瑞芳區"
"224008","275-VK","2017/08/24 16:38:55","新北市瑞芳區逢甲路20-1號","121.80939","25.1084983333333","6501200","瑞芳區"
"224007","273-VK","2017/08/24 16:38:59","新北市瑞芳區月眉路51號","121.760385","25.1104","6501200","瑞芳區"
"224005","271-BY","2017/08/24 16:38:41","新北市瑞芳區洞頂路160號","121.861448333333","25.1176666666667","6501200","瑞芳區"
"227004","642-TC","2017/08/24 16:38:57","新北市雙溪區外柑里外柑腳35號","121.810218333333","25.0191016666667","6502500","雙溪區"
"227010","400-TW","2017/08/24 16:38:43","新北市雙溪區牡丹里中正路97號","121.861971666667","25.0471216666667","6502500","雙溪區"
"251008","181-VK","2017/08/24 16:38:46","新北市淡水區樹梅坑45號","121.475063333333","25.1445333333333","6501000","淡水區"
"251014","182-VK","2017/08/24 16:38:56","新北市淡水區淡金路三段21號","121.446068333333","25.1973733333333","6501000","淡水區"
"251016","442-VK","2017/08/24 16:38:41","新北市淡水區北新路三段38巷7號","121.484495","25.1869583333333","6501000","淡水區"
"252005","073-UM","2017/08/24 15:22:08","新北市三芝區埔坪里埔頭坑41號","121.504288333333","25.2645516666667","6502100","三芝區"
"252002","178-VK","2017/08/24 16:38:56","新北市三芝區芝柏路95號","121.510805","25.2575183333333","6502100","三芝區"
"242034","133-UY","2017/08/24 16:38:52","新北市新莊區新泰路255巷83號","121.442121666667","25.0389116666667","6500500","新莊區"
"242017","348-TH","2017/08/24 16:38:54","新北市新莊區新泰路357巷3弄57號","121.442065","25.0395833333333","6500500","新莊區"
"238002","755-BX","2017/08/24 16:38:46","新北市樹林區八德街1166號","121.39045","24.968445","6500700","樹林區"
"238010","601-UM","2017/08/24 16:38:51","新北市樹林區保安街二段22號","121.415568333333","25.001615","6500700","樹林區"
"238008","311-TH","2017/08/24 16:38:55","新北市樹林區西圳街一段165巷3號","121.395301666667","24.9622933333333","6500700","樹林區"
"238008","308-TH","2017/08/24 13:35:23","新北市樹林區育德街76巷1號","121.388723333333","24.968365","6500700","樹林區"
"238004","283-BY","2017/08/24 16:38:42","新北市樹林區光武街28號","121.415855","25.00548","6500700","樹林區"
"238001","282-BY","2017/08/24 16:38:58","新北市樹林區中正路22-1號","121.42777","24.99966","6500700","樹林區"
"238007","268-VK","2017/08/24 15:23:13","新北市板橋區大觀路三段36巷5-2號","121.43319","24.9958616666667","6500700","樹林區"
"239007","AAC-297","2017/08/24 16:38:46","新北市鶯歌區二甲路13-16號","121.344863333333","24.93535","6500800","鶯歌區"
"239003","360-BY","2017/08/24 16:38:42","新北市鶯歌區二甲路12-2號","121.34556","24.9350816666667","6500800","鶯歌區"
"221012","276-VK","2017/08/24 13:24:31","新北市汐止區汐萬路一段256巷3號","121.653465","25.0746233333333","6501100","汐止區"
"221018","753-BX","2017/08/24 15:02:22","新北市汐止區汐萬路一段256巷1號","121.651933333333","25.07476","6501100","汐止區"
"220018","AAC-253","2017/08/24 16:38:48","新北市八里區商港路48號","121.394605","25.1445316666667","6500100","板橋區"
