"lineid","car","time","location","longitude","latitude","cityid","cityname"
"249005","172-UM","2017/08/24 16:56:36","新北市八里區渡船頭8-1號","121.431536666667","25.1526","6502300","八里區"
"249001","173-UM","2017/08/24 16:56:49","新北市八里區商港路48號","121.395655","25.1450166666667","6502300","八里區"
"249004","303-UY","2017/08/24 16:56:43","新北市八里區挖子尾街152號","121.412773333333","25.1660066666667","6502300","八里區"
"249002","305-UY","2017/08/24 16:56:35","新北市八里區牛寮埔19-1號","121.431766666667","25.1428616666667","6502300","八里區"
"249003","593-UM","2017/08/24 16:56:44","新北市八里區中山路二段277號","121.401843333333","25.148725","6502300","八里區"
"248010","272-BY","2017/08/24 15:14:53","新北市五股區中興路二段37巷28號","121.460121666667","25.0749666666667","6501500","五股區"
"232001","291-BY","2017/08/24 09:28:11","新北市坪林區北宜路八段558號","121.718041666667","24.909095","6502000","坪林區"
"244007","080-UY","2017/08/24 16:56:48","新北市林口區林口路151號","121.388236666667","25.0813983333333","6501700","林口區"
"244019","403-UM","2017/08/24 16:56:54","新北市林口區粉寮路23號","121.400253333333","25.082655","6501700","林口區"
"244009","410-SL","2017/08/24 16:56:51","新北市林口區粉寮69號","121.404961666667","25.09087","6501700","林口區"
"244001","483-VK","2017/08/24 14:32:21","新北市林口區粉寮69號","121.405025","25.090955","6501700","林口區"
"244023","657-BX","2017/08/24 16:56:40","新北市林口區粉寮路二段160巷28號","121.405158333333","25.090775","6501700","林口區"
"244011","701-TV","2017/08/24 16:56:23","新北市林口區粉寮路二段160巷28號","121.405171666667","25.090765","6501700","林口區"
"244025","837-TS","2017/08/24 16:49:00","新北市林口區粉寮路二段160巷28號","121.405193333333","25.0907833333333","6501700","林口區"
"244021","838-TS","2017/08/24 16:56:47","新北市林口區粉寮69號","121.404805","25.0908166666667","6501700","林口區"
"243009","297-R6","2017/08/24 16:05:21","新北市泰山區黎明路25號","121.421868333333","25.060905","6501600","泰山區"
"231007","189-VK","2017/08/24 16:33:36","新北市新店區安華路28-1號","121.519551666667","24.9609266666667","6500600","新店區"
"231046","278-BY","2017/08/24 16:56:48","新北市新店區灣潭路48-1號","121.542995","24.9447833333333","6500600","新店區"
"241011","013-R5","2017/08/24 16:56:42","新北市三重區龍濱路174號","121.501326666667","25.0728733333333","6500200","三重區"
"241028","022-UY","2017/08/24 16:56:42","新北市三重區光興街85-1號","121.497511666667","25.06006","6500200","三重區"
"241008","059-VK","2017/08/24 16:56:46","新北市三重區永安北路一段3巷21號","121.476905","25.0745783333333","6500200","三重區"
"241009","060-VK","2017/08/24 16:56:47","新北市三重區溪尾街218巷8號","121.487531666667","25.081345","6500200","三重區"
"241031","061-VK","2017/08/24 16:56:49","新北市三重區三寧街48號","121.489971666667","25.0605016666667","6500200","三重區"
"241015","062-VK","2017/08/24 16:56:51","新北市三重區福德北路82-10號","121.500996666667","25.0662383333333","6500200","三重區"
"241017","063-VK","2017/08/24 16:56:51","新北市三重區大同北路60巷24號","121.493541666667","25.06371","6500200","三重區"
"241024","065-VK","2017/08/24 16:56:38","新北市三重區力行路二段1號","121.482181666667","25.0719033333333","6500200","三重區"
"241026","066-VK","2017/08/24 16:56:35","新北市三重區中央南路37號","121.501293333333","25.062015","6500200","三重區"
"241002","090-VK","2017/08/24 16:56:50","新北市三重區仁義街143巷110號","121.49904","25.0816766666667","6500200","三重區"
"241003","091-VK","2017/08/24 16:56:47","新北市三重區五華街71巷36號","121.493068333333","25.08343","6500200","三重區"
"241006","156-TC","2017/08/24 16:56:47","新北市三重區車路頭街145號","121.483856666667","25.0766883333333","6500200","三重區"
"241005","262-UM","2017/08/24 16:56:54","新北市三重區仁華街65號","121.484286666667","25.0827933333333","6500200","三重區"
"241030","265-UM","2017/08/24 16:56:50","新北市三重區昌隆街3號","121.492235","25.0528666666667","6500200","三重區"
"241016","266-UM","2017/08/24 16:56:50","新北市三重區大同北路167巷41號","121.493733333333","25.065185","6500200","三重區"
"241022","267-UM","2017/08/24 16:56:51","新北市三重區貴陽街25號","121.484348333333","25.06206","6500200","三重區"
"241018","268-UM","2017/08/24 16:56:51","新北市三重區六張街126巷6-1號","121.492383333333","25.068905","6500200","三重區"
"241032","269-UM","2017/08/24 16:56:38","新北市三重區新北大道一段57巷8號","121.485131666667","25.0608783333333","6500200","三重區"
"241013","270-UM","2017/08/24 16:56:54","新北市三重區仁壽街93號","121.498213333333","25.0737016666667","6500200","三重區"
"241025","271-UM","2017/08/24 16:56:51","新北市三重區中正北路510號","121.472645","25.071715","6500200","三重區"
"241007","398-BY","2017/08/24 16:56:44","新北市三重區三和路四段181巷234號","121.487625","25.080495","6500200","三重區"
"241020","412-TH","2017/08/24 16:56:58","新北市三重區後竹圍街175巷18號","121.485706666667","25.0726366666667","6500200","三重區"
"241004","475-VK","2017/08/24 16:56:45","新北市三重區五華街86號","121.49304","25.08231","6500200","三重區"
"241019","478-VK","2017/08/24 16:56:51","新北市三重區三張街104號","121.487848333333","25.0699166666667","6500200","三重區"
"241014","543-UM","2017/08/24 16:56:40","新北市三重區介壽路113號","121.500031666667","25.0704883333333","6500200","三重區"
"241023","545-UM","2017/08/24 16:56:38","新北市三重區中華路48號","121.483328333333","25.06171","6500200","三重區"
"241001","887-TS","2017/08/24 16:56:44","新北市三重區仁政街54巷23號","121.492316666667","25.0768083333333","6500200","三重區"
"241012","941-UM","2017/08/24 16:56:36","新北市三重區仁壽街200號","121.501121666667","25.0749383333333","6500200","三重區"
"241029","942-UM","2017/08/24 16:56:47","新北市三重區集美街228號","121.492245","25.055555","6500200","三重區"
"241033","AAC-255","2017/08/24 16:56:40","新北市三重區中興北街271號","121.469105","25.0606316666667","6500200","三重區"
"235064","005-UY","2017/08/24 16:50:01","新北市中和區員山路36巷16-3號","121.485088333333","24.991395","6500300","中和區"
"235004","150-BY","2017/08/24 15:59:44","新北市中和區和城路一段271巷1號","121.485488333333","24.9917183333333","6500300","中和區"
"235067","255-BX","2017/08/24 16:29:42","新北市中和區員山路36巷13號","121.484373333333","24.9913833333333","6500300","中和區"
"235036","301-VK","2017/08/24 16:44:35","新北市中和區員山路36巷12號","121.483996666667","24.9908016666667","6500300","中和區"
"235062","800-TS","2017/08/24 16:56:49","新北市中和區員山路36巷16-3號","121.485055","24.991285","6500300","中和區"
"247020","893-R6","2017/08/24 16:56:40","新北市蘆洲區民族路426巷40弄11號","121.473498333333","25.093105","6501400","蘆洲區"
"247008","339-TH","2017/08/24 16:56:52","新北市蘆洲區中山一路197巷6弄2號","121.47462","25.080595","6501400","蘆洲區"
"247024","337-TH","2017/08/24 16:56:37","新北市蘆洲區長興路202號","121.460756666667","25.0873783333333","6501400","蘆洲區"
"247002","336-TH","2017/08/24 16:56:54","新北市蘆洲區永平街20號","121.459165","25.0907416666667","6501400","蘆洲區"
"247014","057-VK","2017/08/24 16:56:06","新北市蘆洲區三民路84號","121.474835","25.0842583333333","6501400","蘆洲區"
"247004","056-VK","2017/08/24 16:56:47","新北市蘆洲區中原路35號","121.460028333333","25.0826466666667","6501400","蘆洲區"
"247006","053-VK","2017/08/24 16:56:47","新北市蘆洲區長安街99巷15號","121.461138333333","25.0802083333333","6501400","蘆洲區"
"247012","007-UY","2017/08/24 16:56:54","新北市蘆洲區信義路298號","121.477605","25.0876033333333","6501400","蘆洲區"
"247016","001-UY","2017/08/24 16:56:46","新北市蘆洲區正和街7號","121.470366666667","25.08261","6501400","蘆洲區"
"228003","097-TW","2017/08/24 16:56:36","新北市貢寮區雙玉里田寮洋街22號","121.929703333333","25.021155","6502600","貢寮區"
"228001","212-TW","2017/08/24 16:56:45","新北市貢寮區貢寮里朝陽街1-2號","121.9123","25.021245","6502600","貢寮區"
"228002","585-TW","2017/08/24 16:56:41","新北市貢寮區貢寮里朝陽街142號","121.905945","25.02308","6502600","貢寮區"
"224006","676-BX","2017/08/24 16:56:38","新北市瑞芳區大寮路356-1號","121.784855","25.10329","6501200","瑞芳區"
"224009","285-BY","2017/08/24 16:56:57","新北市瑞芳區明燈路一段21號","121.823005","25.1073483333333","6501200","瑞芳區"
"224008","275-VK","2017/08/24 16:56:55","新北市瑞芳區明燈路一段35號","121.822436666667","25.1073366666667","6501200","瑞芳區"
"224007","273-VK","2017/08/24 16:56:39","新北市瑞芳區瑞竹路46號","121.763551666667","25.1033516666667","6501200","瑞芳區"
"224005","271-BY","2017/08/24 16:56:41","新北市瑞芳區南雅路87-1號","121.887105","25.1212433333333","6501200","瑞芳區"
"227004","642-TC","2017/08/24 16:56:37","新北市雙溪區長源里內柑腳12號","121.803268333333","25.0157383333333","6502500","雙溪區"
"227010","400-TW","2017/08/24 16:56:43","新北市雙溪區牡丹里五分11號","121.865073333333","25.0480616666667","6502500","雙溪區"
"251004","009-UM","2017/08/24 16:56:49","新北市淡水區中正路二段31號","121.419188333333","25.1818083333333","6501000","淡水區"
"251007","179-VK","2017/08/24 16:56:51","新北市淡水區中山路34號","121.444275","25.16982","6501000","淡水區"
"251008","181-VK","2017/08/24 16:56:46","新北市淡水區樹梅坑23號","121.474431666667","25.14298","6501000","淡水區"
"251014","182-VK","2017/08/24 16:56:56","新北市淡水區興仁路162號","121.451541666667","25.2207383333333","6501000","淡水區"
"251010","413-VK","2017/08/24 16:56:40","新北市淡水區新民街一段117號","121.42874","25.187315","6501000","淡水區"
"251012","441-VK","2017/08/24 16:56:35","新北市淡水區中正路二段31號","121.419711666667","25.1815233333333","6501000","淡水區"
"251016","442-VK","2017/08/24 16:56:41","新北市淡水區北新路二段74號","121.479185","25.1850583333333","6501000","淡水區"
"251006","561-UM","2017/08/24 16:56:39","新北市淡水區中正路二段31號","121.419531666667","25.18162","6501000","淡水區"
"251011","650-BX","2017/08/24 16:56:45","新北市淡水區中正路233-2號","121.43544","25.1734533333333","6501000","淡水區"
"252005","073-UM","2017/08/24 15:22:08","新北市三芝區埔坪里埔頭坑41號","121.504288333333","25.2645516666667","6502100","三芝區"
"252002","178-VK","2017/08/24 16:56:56","新北市三芝區忠孝街173號","121.50544","25.2614116666667","6502100","三芝區"
"252001","292-VK","2017/08/24 16:56:37","新北市三芝區淡金路二段89號","121.5039","25.2607966666667","6502100","三芝區"
"242048","751-BX","2017/08/24 16:56:40","新北市新莊區新泰路357巷3弄57號","121.442135","25.0391733333333","6500500","新莊區"
"242025","615-BX","2017/08/24 16:56:51","新北市新莊區新泰路255巷83號","121.442225","25.03881","6500500","新莊區"
"242027","612-BX","2017/08/24 16:56:41","新北市新莊區新泰路357巷3弄57號","121.442151666667","25.0393316666667","6500500","新莊區"
"242036","566-BX","2017/08/24 16:56:38","新北市新莊區新泰路357巷3弄57號","121.442136666667","25.0391383333333","6500500","新莊區"
"242031","415-TV","2017/08/24 16:56:49","新北市新莊區新泰路357巷3弄57號","121.44213","25.039345","6500500","新莊區"
"242061","362-BY","2017/08/24 16:56:54","新北市新莊區三和路12-21號","121.442355","25.0385716666667","6500500","新莊區"
"242034","133-UY","2017/08/24 16:56:52","新北市新莊區新泰路255巷83號","121.442063333333","25.0388716666667","6500500","新莊區"
"242044","347-TH","2017/08/24 16:56:46","新北市新莊區三和路12-21號","121.442088333333","25.038765","6500500","新莊區"
"242017","348-TH","2017/08/24 16:56:53","新北市新莊區新泰路357巷3弄57號","121.442101666667","25.0395583333333","6500500","新莊區"
"242015","350-TH","2017/08/24 15:25:31","新北市新莊區三和路12-21號","121.441741666667","25.03859","6500500","新莊區"
"242009","351-TH","2017/08/24 16:56:42","新北市新莊區新泰路357巷3弄57號","121.442013333333","25.03952","6500500","新莊區"
"238010","601-UM","2017/08/24 16:56:51","新北市樹林區中山路三段214號","121.380041666667","24.967695","6500700","樹林區"
"238019","599-UM","2017/08/24 16:48:36","新北市樹林區育德街78-1號","121.38804","24.968095","6500700","樹林區"
"238008","311-TH","2017/08/24 16:43:31","新北市樹林區西圳街165巷20弄26號","121.395508333333","24.9601583333333","6500700","樹林區"
"238008","308-TH","2017/08/24 13:35:23","新北市樹林區育德街76巷1號","121.388723333333","24.968365","6500700","樹林區"
"238004","283-BY","2017/08/24 16:56:41","新北市樹林區光武街28號","121.415816666667","25.005545","6500700","樹林區"
"238001","282-BY","2017/08/24 16:56:38","新北市樹林區中正路22-1號","121.427661666667","24.9995633333333","6500700","樹林區"
"239007","AAC-297","2017/08/24 16:56:46","新北市鶯歌區二甲路13-16號","121.344976666667","24.93526","6500800","鶯歌區"
"239006","891-R6","2017/08/24 16:56:45","新北市鶯歌區二甲路13-16號","121.344821666667","24.9353133333333","6500800","鶯歌區"
"239008","527-UM","2017/08/24 16:56:39","新北市鶯歌區二甲路13-16號","121.345078333333","24.9352733333333","6500800","鶯歌區"
"239005","526-UM","2017/08/24 16:56:54","新北市鶯歌區二甲路13-16號","121.345161666667","24.935315","6500800","鶯歌區"
"239001","417-VK","2017/08/24 16:54:41","新北市鶯歌區二甲路13-16號","121.34515","24.9352616666667","6500800","鶯歌區"
"239003","360-BY","2017/08/24 16:56:42","新北市鶯歌區二甲路12-2號","121.345508333333","24.9350566666667","6500800","鶯歌區"
"239002","359-BY","2017/08/22 20:35:40","新北市鶯歌區二甲路13號","121.343808333333","24.93548","6500800","鶯歌區"
"221012","276-VK","2017/08/24 13:24:31","新北市汐止區汐萬路一段256巷3號","121.653465","25.0746233333333","6501100","汐止區"
"221018","753-BX","2017/08/24 15:02:22","新北市汐止區汐萬路一段256巷1號","121.651933333333","25.07476","6501100","汐止區"
"220018","AAC-253","2017/08/24 16:56:28","新北市板橋區長江路二段189巷3號","121.466278333333","25.0346333333333","6500100","板橋區"
