"lineid","car","time","location","longitude","latitude","cityid","cityname"
"234026","9371-KE","2017/08/24 17:58:40","新北市永和區永和路一段7-2號","121.512688333333","25.0053083333333","6500400","永和區"
"234011","9373-KE","2017/08/24 17:58:27","新北市永和區福和路1號","121.52557","25.0097133333333","6500400","永和區"
"249005","172-UM","2017/08/24 17:58:36","新北市八里區荖阡坑路22-7號","121.399316666667","25.13609","6502300","八里區"
"249001","173-UM","2017/08/24 17:58:29","新北市八里區龍米路二段35號","121.448405","25.1400216666667","6502300","八里區"
"249004","303-UY","2017/08/24 17:58:24","新北市八里區賢一街59號","121.419763333333","25.1579083333333","6502300","八里區"
"249002","305-UY","2017/08/24 17:58:35","新北市八里區龍米路一段259號","121.450741666667","25.1335783333333","6502300","八里區"
"249003","593-UM","2017/08/24 17:58:44","新北市八里區中山路二段56巷1號","121.40701","25.153995","6502300","八里區"
"248014","025-BX","2017/08/24 17:58:25","新北市五股區更洲路47-1號","121.456645","25.0790783333333","6501500","五股區"
"248016","026-BX","2017/08/24 17:58:43","新北市五股區中興路二段83巷26-6號","121.46006","25.0752483333333","6501500","五股區"
"248006","077-UY","2017/08/24 17:58:38","新北市五股區中興路二段37巷28號","121.460181666667","25.07499","6501500","五股區"
"248008","095-VK","2017/08/24 17:58:40","新北市五股區更洲路10號","121.458311666667","25.0788316666667","6501500","五股區"
"248020","225-UY","2017/08/24 17:58:29","新北市五股區中興路二段83巷26-6號","121.45997","25.0752166666667","6501500","五股區"
"248010","272-BY","2017/08/24 17:58:26","新北市五股區中興路二段161號","121.45787","25.0770016666667","6501500","五股區"
"248004","677-BX","2017/08/24 17:58:31","新北市五股區中興路二段37巷28號","121.460101666667","25.0748266666667","6501500","五股區"
"248002","678-BX","2017/08/24 17:58:36","新北市五股區中興路二段37巷26號","121.460538333333","25.0751566666667","6501500","五股區"
"232001","291-BY","2017/08/24 09:28:11","新北市坪林區北宜路八段558號","121.718041666667","24.909095","6502000","坪林區"
"232011","375-UM","2017/08/24 17:58:26","新北市坪林區水柳腳39號","121.70963","24.9351516666667","6502000","坪林區"
"244007","080-UY","2017/08/24 17:57:21","新北市林口區林口路78號","121.389293333333","25.0806766666667","6501700","林口區"
"244019","403-UM","2017/08/24 17:58:33","新北市林口區忠孝路512巷47號","121.371651666667","25.06831","6501700","林口區"
"244009","410-SL","2017/08/24 17:58:31","新北市林口區竹林路584號","121.386483333333","25.08312","6501700","林口區"
"244001","483-VK","2017/08/24 14:32:21","新北市林口區粉寮69號","121.405025","25.090955","6501700","林口區"
"244017","656-BX","2017/08/24 17:58:34","新北市林口區文化二路一段260巷7-3號","121.371931666667","25.0730983333333","6501700","林口區"
"244023","657-BX","2017/08/24 17:58:41","新北市林口區東湖路77號","121.384783333333","25.0735516666667","6501700","林口區"
"244013","658-BX","2017/08/24 17:58:44","新北市林口區中山路152號","121.391066666667","25.0786583333333","6501700","林口區"
"244011","701-TV","2017/08/24 17:58:43","新北市林口區中正路130號","121.393025","25.0772616666667","6501700","林口區"
"244025","837-TS","2017/08/24 17:58:21","新北市林口區八德路500巷52號","121.35662","25.0671466666667","6501700","林口區"
"244021","838-TS","2017/08/24 17:58:07","新北市林口區新寮44號","121.403975","25.0651166666667","6501700","林口區"
"243013","AAD-798","2017/08/24 17:58:38","新北市泰山區大科路45-17號","121.404425","25.0551716666667","6501600","泰山區"
"243009","297-R6","2017/08/24 16:05:21","新北市泰山區黎明路25號","121.421868333333","25.060905","6501600","泰山區"
"222003","436-BY","2017/08/24 17:58:36","新北市深坑區炮子崙24號","121.604691666667","24.98705","6501800","深坑區"
"222002","659-BX","2017/08/24 17:58:37","新北市深坑區深坑街35號","121.615953333333","25.0018116666667","6501800","深坑區"
"222001","696-SL","2017/08/24 17:58:34","新北市深坑區北深路三段34號","121.60911","25.001","6501800","深坑區"
"231007","189-VK","2017/08/24 16:33:36","新北市新店區安華路28-1號","121.519551666667","24.9609266666667","6500600","新店區"
"231046","278-BY","2017/08/24 17:58:28","新北市新店區康雅崙路31號","121.537558333333","24.925995","6500600","新店區"
"241016","266-UM","2017/08/24 17:58:30","新北市三重區新北大道一段7號","121.489623333333","25.0613433333333","6500200","三重區"
"241024","462-BY","2017/08/24 17:58:32","新北市三重區國道路一段42號","121.483141666667","25.0729566666667","6500200","三重區"
"241033","AAC-255","2017/08/24 17:58:40","新北市三重區重新路五段552號","121.470436666667","25.045905","6500200","三重區"
"235066","003-UY","2017/08/24 17:58:39","新北市中和區中正路571巷1弄4號","121.487015","24.993505","6500300","中和區"
"235064","005-UY","2017/08/24 17:58:26","新北市中和區員山路36巷16-3號","121.485046666667","24.991465","6500300","中和區"
"235063","006-UY","2017/08/24 17:58:37","新北市中和區員山路36巷16-3號","121.48479","24.9910616666667","6500300","中和區"
"235065","098-UM","2017/08/24 17:58:28","新北市中和區中正路637巷52弄1號","121.485491666667","24.9933916666667","6500300","中和區"
"235004","150-BY","2017/08/24 17:09:53","新北市中和區和城路一段271巷1號","121.485466666667","24.9918283333333","6500300","中和區"
"235058","151-BY","2017/08/24 17:58:36","新北市中和區中正路637巷60弄61號","121.485468333333","24.9932016666667","6500300","中和區"
"235038","185-VK","2017/08/24 17:58:27","新北市中和區中正路565號","121.486838333333","24.9942883333333","6500300","中和區"
"235067","255-BX","2017/08/24 17:58:34","新北市中和區和城路一段271巷1號","121.485565","24.9918216666667","6500300","中和區"
"235044","293-VK","2017/08/24 17:58:27","新北市中和區員山路36巷16-3號","121.485011666667","24.9913833333333","6500300","中和區"
"235036","301-VK","2017/08/24 17:53:37","新北市中和區員山路36巷12號","121.484","24.9906683333333","6500300","中和區"
"235062","800-TS","2017/08/24 17:58:36","新北市中和區中正路637巷52弄1號","121.485378333333","24.99337","6500300","中和區"
"235037","AAC-213","2017/08/24 17:58:28","新北市中和區員山路36巷16號","121.48446","24.9912766666667","6500300","中和區"
"247018","500-BY","2017/08/24 17:58:34","新北市蘆洲區復興路300號","121.481236666667","25.0899833333333","6501400","蘆洲區"
"247008","339-TH","2017/08/24 17:58:32","新北市蘆洲區中山一路263號","121.472856666667","25.0800166666667","6501400","蘆洲區"
"247024","337-TH","2017/08/24 17:58:37","新北市蘆洲區長興路158巷13號","121.462468333333","25.0860783333333","6501400","蘆洲區"
"247002","336-TH","2017/08/24 17:58:34","新北市蘆洲區永平街32巷45弄2號","121.459586666667","25.0924416666667","6501400","蘆洲區"
"247006","053-VK","2017/08/24 17:58:27","新北市蘆洲區中華街30號","121.462686666667","25.0811433333333","6501400","蘆洲區"
"247012","007-UY","2017/08/24 17:58:34","新北市蘆洲區民族路167巷6號","121.478445","25.0882216666667","6501400","蘆洲區"
"247022","002-UY","2017/08/24 17:58:29","新北市蘆洲區中正路516巷21號","121.462963333333","25.0981633333333","6501400","蘆洲區"
"247016","001-UY","2017/08/24 17:58:26","新北市蘆洲區中正路185巷78弄48號","121.465585","25.08532","6501400","蘆洲區"
"228003","097-TW","2017/08/24 17:58:36","新北市貢寮區真理里美艷山街6-2號","121.928911666667","25.0607116666667","6502600","貢寮區"
"228001","212-TW","2017/08/24 17:58:24","新北市貢寮區仁理村仁愛路106巷36號","121.92889","25.0534066666667","6502600","貢寮區"
"228002","585-TW","2017/08/24 17:58:41","新北市貢寮區福連里香蘭街2-1號","121.970396666667","25.0239966666667","6502600","貢寮區"
"224006","676-BX","2017/08/24 17:58:38","新北市瑞芳區傑魚坑路183號","121.788446666667","25.10831","6501200","瑞芳區"
"224002","639-TC","2017/08/24 17:58:44","新北市瑞芳區三爪子坑路151號","121.810583333333","25.10619","6501200","瑞芳區"
"224011","420-VK","2017/08/24 17:58:39","新北市瑞芳區中山路205號","121.801373333333","25.1066816666667","6501200","瑞芳區"
"224009","285-BY","2017/08/24 17:58:37","新北市瑞芳區新山路179-1號","121.851638333333","25.1091133333333","6501200","瑞芳區"
"224008","275-VK","2017/08/24 17:58:36","新北市瑞芳區明燈路一段45巷109號","121.821933333333","25.103705","6501200","瑞芳區"
"224005","271-BY","2017/08/24 17:58:41","新北市瑞芳區深澳路12-1號","121.818795","25.13028","6501200","瑞芳區"
"227004","642-TC","2017/08/24 17:58:37","新北市雙溪區共和里東榮街52號","121.866315","25.0337233333333","6502500","雙溪區"
"253006","032-BX","2017/08/24 17:58:32","新北市石門區老梅路52巷25弄6號","121.547035","25.288","6502200","石門區"
"253005","295-VK","2017/08/24 17:58:41","新北市石門區中山路62-12號","121.567485","25.2896833333333","6502200","石門區"
"208002","742-BX","2017/08/24 17:58:35","新北市金山區三界壇路34號","121.625325","25.2285816666667","6502700","金山區"
"208003","665-BX","2017/08/24 17:58:35","新北市金山區磺港里磺港路314號","121.644603333333","25.2278333333333","6502700","金山區"
"208001","761-BX","2017/08/24 17:58:37","新北市金山區磺港里磺港路169號","121.64335","25.2247783333333","6502700","金山區"
"251009","008-UM","2017/08/24 17:58:30","新北市淡水區大仁街8號","121.442363333333","25.17463","6501000","淡水區"
"251004","009-UM","2017/08/24 17:58:29","新北市淡水區民權路22號","121.459883333333","25.1377483333333","6501000","淡水區"
"251008","181-VK","2017/08/24 17:58:27","新北市淡水區八勢一街67號","121.461806666667","25.155225","6501000","淡水區"
"251014","182-VK","2017/08/24 17:58:36","新北市淡水區公埔子16-6號","121.481","25.2245416666667","6501000","淡水區"
"251010","413-VK","2017/08/24 17:58:40","新北市淡水區中正路一段132巷10號","121.42253","25.1795816666667","6501000","淡水區"
"251012","441-VK","2017/08/24 17:58:35","新北市淡水區北新路三段16-7號","121.483596666667","25.18606","6501000","淡水區"
"251016","442-VK","2017/08/24 17:58:41","新北市淡水區埤島35-1號","121.44921","25.1975433333333","6501000","淡水區"
"251005","443-VK","2017/08/24 17:58:36","新北市淡水區英專路116號","121.445885","25.172255","6501000","淡水區"
"251001","559-UM","2017/08/24 17:58:26","新北市淡水區民權路94巷1號","121.463185","25.1249166666667","6501000","淡水區"
"251006","561-UM","2017/08/24 17:58:39","新北市淡水區新生街20-5號","121.438858333333","25.1738783333333","6501000","淡水區"
"251011","650-BX","2017/08/24 17:58:25","新北市淡水區三空泉8-1號","121.475666666667","25.160915","6501000","淡水區"
"251002","672-BX","2017/08/24 17:58:36","新北市淡水區鼻頭街18-1號","121.446738333333","25.166605","6501000","淡水區"
"251003","766-UM","2017/08/24 17:58:26","新北市淡水區大忠街79-6號","121.445728333333","25.1771733333333","6501000","淡水區"
"207003","550-UM","2017/08/24 17:58:35","新北市萬里區港東路野柳風景區攤販66號","121.691321666667","25.20584","6502800","萬里區"
"207004","225-TW","2017/08/24 17:58:34","新北市萬里區中幅里中福路48號","121.683268333333","25.17408","6502800","萬里區"
"252005","073-UM","2017/08/24 15:22:08","新北市三芝區埔坪里埔頭坑41號","121.504288333333","25.2645516666667","6502100","三芝區"
"252002","178-VK","2017/08/24 17:58:36","新北市三芝區中山路一段155號","121.5024","25.2560383333333","6502100","三芝區"
"252001","292-VK","2017/08/24 17:58:36","新北市三芝區中興街一段30號","121.497718333333","25.2578166666667","6502100","三芝區"
"237004","078-UY","2017/08/24 17:58:38","新北市三峽區中園街221號","121.366961666667","24.92015","6500900","三峽區"
"237007","153-BY","2017/08/24 17:58:35","新北市三峽區中園街237-1號","121.366826666667","24.9195533333333","6500900","三峽區"
"237009","210-TH","2017/08/24 17:58:44","新北市三峽區文化路266-7號","121.36641","24.9357366666667","6500900","三峽區"
"237013","252-BX","2017/08/24 17:58:27","新北市三峽區介壽路一段153-1號","121.376655","24.931305","6500900","三峽區"
"237012","275-BY","2017/08/24 17:58:32","新北市三峽區民生街27巷30號","121.37607","24.936015","6500900","三峽區"
"237008","302-VK","2017/08/24 17:58:31","新北市三峽區正義街92號","121.368905","24.9178366666667","6500900","三峽區"
"237014","433-BY","2017/08/24 17:58:36","新北市三峽區復興路141-1號","121.370955","24.9377783333333","6500900","三峽區"
"237006","5529-G3","2017/08/24 17:58:39","新北市三峽區介壽路二段136巷73號","121.39237","24.9325616666667","6500900","三峽區"
"237011","572-TV","2017/08/24 17:58:23","新北市三峽區中正路一段60-1號","121.375065","24.9302533333333","6500900","三峽區"
"237016","649-BX","2017/08/24 17:58:28","新北市三峽區紫微路87號","121.404255","24.909515","6500900","三峽區"
"237010","706-TV","2017/08/24 17:58:41","新北市三峽區仁愛街15號","121.368458333333","24.933585","6500900","三峽區"
"237005","AKY-6261","2017/08/24 17:58:35","新北市三峽區復興路177巷5號","121.36996","24.9380583333333","6500900","三峽區"
"236071","105-UM","2017/08/24 17:58:34","新北市土城區青雲路605巷6號","121.459625","24.9694066666667","6501300","土城區"
"236042","107-UM","2017/08/24 17:58:35","新北市土城區裕生路61號","121.447666666667","24.9863","6501300","土城區"
"236078","166-UM","2017/08/24 17:58:41","新北市土城區永寧路32巷1號","121.429103333333","24.960005","6501300","土城區"
"236030","253-BX","2017/08/24 17:58:37","新北市土城區城林路6巷80號","121.438513333333","24.9795783333333","6501300","土城區"
"236026","269-VK","2017/08/24 17:58:32","新北市土城區承天路18號","121.439223333333","24.9637016666667","6501300","土城區"
"236037","271-VK","2017/08/24 17:58:25","新北市土城區城林路6巷80號","121.4384","24.97975","6501300","土城區"
"236021","401-BY","2017/08/24 17:58:27","新北市土城區城林路6巷80號","121.438713333333","24.9796566666667","6501300","土城區"
"236014","752-BX","2017/08/24 17:58:36","新北市土城區城林路6巷80號","121.438513333333","24.9797283333333","6501300","土城區"
"236058","912-UM","2017/08/24 17:58:40","新北市土城區永寧路7號","121.43052","24.9645066666667","6501300","土城區"
"236051","913-UM","2017/08/24 17:58:41","新北市土城區城林路6巷80號","121.438506666667","24.9795066666667","6501300","土城區"
"236062","915-UM","2017/08/24 17:58:38","新北市土城區城林路6巷80號","121.43844","24.9797216666667","6501300","土城區"
"236053","AAC-216","2017/08/24 17:58:26","新北市土城區城林路6巷80號","121.438508333333","24.979625","6501300","土城區"
"242021","AAC-296","2017/08/24 17:58:36","新北市新莊區中華路一段2號","121.452186666667","25.03635","6500500","新莊區"
"242029","986-R7","2017/08/24 17:58:40","新北市新莊區中平路110巷11號","121.445671666667","25.0460083333333","6500500","新莊區"
"242048","751-BX","2017/08/24 17:58:40","新北市新莊區萬安街75號","121.421208333333","25.02385","6500500","新莊區"
"242025","615-BX","2017/08/24 17:58:31","新北市新莊區五工路58號","121.458685","25.0629533333333","6500500","新莊區"
"242023","613-BX","2017/08/24 17:58:42","新北市新莊區福壽街72號","121.458258333333","25.049295","6500500","新莊區"
"242027","612-BX","2017/08/24 17:58:40","新北市新莊區中原路1號","121.459645","25.0543383333333","6500500","新莊區"
"242036","566-BX","2017/08/24 17:58:38","新北市新莊區建福路5號","121.426055","25.02951","6500500","新莊區"
"242042","497-BY","2017/08/24 17:58:38","新北市新莊區中正路694巷22號","121.418216666667","25.0286383333333","6500500","新莊區"
"242002","442-UM","2017/08/24 17:58:23","新北市新莊區中正路161-1號","121.45537","25.03661","6500500","新莊區"
"242046","441-UM","2017/08/24 17:58:39","新北市新莊區福營路182號","121.431346666667","25.03084","6500500","新莊區"
"242051","440-UM","2017/08/24 17:58:29","新北市新莊區龍安路478號","121.426565","25.0177766666667","6500500","新莊區"
"242031","415-TV","2017/08/24 17:58:29","新北市新莊區新泰路289巷49號","121.443373333333","25.040365","6500500","新莊區"
"242039","400-BY","2017/08/24 17:58:32","新北市新莊區民安西路1號","121.426511666667","25.021915","6500500","新莊區"
"242061","362-BY","2017/08/24 17:58:34","新北市新莊區新樹路399號","121.432781666667","25.015665","6500500","新莊區"
"242058","353-BY","2017/08/24 17:58:27","新北市新莊區雙鳳路134巷32號","121.412416666667","25.0283666666667","6500500","新莊區"
"242004","132-UY","2017/08/24 17:58:37","新北市新莊區福樂街56巷24號","121.458628333333","25.04613","6500500","新莊區"
"242034","133-UY","2017/08/24 17:58:32","新北市新莊區中正路421巷9號","121.444693333333","25.0338333333333","6500500","新莊區"
"242019","135-UY","2017/08/24 17:58:32","新北市新莊區明中街45-2號","121.457483333333","25.0392866666667","6500500","新莊區"
"242007","173-VK","2017/08/24 17:58:40","新北市新莊區自信街65巷7號","121.455406666667","25.0487566666667","6500500","新莊區"
"242013","175-VK","2017/08/24 17:58:36","新北市新莊區中和街125巷20號","121.446701666667","25.0485666666667","6500500","新莊區"
"242056","176-VK","2017/08/24 17:58:36","新北市新莊區瓊林路40巷5號","121.447605","25.030135","6500500","新莊區"
"242011","346-TH","2017/08/24 17:58:37","新北市新莊區中港路中慶巷18號","121.45014","25.0537733333333","6500500","新莊區"
"242044","347-TH","2017/08/24 17:58:26","新北市新莊區雙鳳路109號","121.413975","25.027985","6500500","新莊區"
"242017","348-TH","2017/08/24 17:58:34","新北市新莊區永樂街84號","121.450605","25.045075","6500500","新莊區"
"242053","349-TH","2017/08/24 17:58:25","新北市新莊區光華街6號","121.428693333333","25.0107166666667","6500500","新莊區"
"242015","350-TH","2017/08/24 17:58:37","新北市新莊區中平路87巷5號","121.444186666667","25.0457916666667","6500500","新莊區"
"242009","351-TH","2017/08/24 17:58:42","新北市新莊區中華路二段212號","121.452868333333","25.0525283333333","6500500","新莊區"
"238015","755-BX","2017/08/24 17:58:25","新北市樹林區啟智街80巷18號","121.418743333333","24.9925433333333","6500700","樹林區"
"238023","601-UM","2017/08/24 17:58:36","新北市樹林區龍興街34號","121.402933333333","25.0158033333333","6500700","樹林區"
"238019","599-UM","2017/08/24 17:58:35","新北市樹林區和平街72號","121.425258333333","24.9824766666667","6500700","樹林區"
"238018","571-TV","2017/08/24 17:58:32","新北市樹林區樹新路17號","121.426816666667","24.9942916666667","6500700","樹林區"
"238022","312-TH","2017/08/24 17:58:41","新北市樹林區太順街51巷1號","121.417688333333","24.9790783333333","6500700","樹林區"
"238021","311-TH","2017/08/24 17:58:39","新北市樹林區柑園街一段53號","121.403118333333","24.96026","6500700","樹林區"
"238008","308-TH","2017/08/24 13:35:23","新北市樹林區育德街76巷1號","121.388723333333","24.968365","6500700","樹林區"
"238025","303-VK","2017/08/24 17:58:42","新北市樹林區俊興街232號","121.417818333333","25.0153716666667","6500700","樹林區"
"238017","283-BY","2017/08/24 17:58:22","新北市樹林區俊德街51號","121.415456666667","25.0132633333333","6500700","樹林區"
"238001","282-BY","2017/08/24 17:58:38","新北市樹林區保安街一段306號","121.418821666667","24.9974316666667","6500700","樹林區"
"238020","268-VK","2017/08/24 17:58:33","新北市樹林區三俊街199巷31-2號","121.420471666667","25.01766","6500700","樹林區"
"238026","172-UY","2017/08/24 17:58:32","新北市樹林區中洲街30巷4號","121.397345","24.9715083333333","6500700","樹林區"
"238016","169-UY","2017/08/24 17:58:29","新北市樹林區啟智街137巷10弄2號","121.417146666667","24.98831","6500700","樹林區"
"239007","AAC-297","2017/08/24 17:58:26","新北市鶯歌區鶯桃路40號","121.34174","24.9530116666667","6500800","鶯歌區"
"239006","891-R6","2017/08/24 17:58:25","新北市鶯歌區鶯桃路413巷68弄6號","121.329655","24.96343","6500800","鶯歌區"
"239008","527-UM","2017/08/24 17:58:39","新北市鶯歌區明圓街4號","121.336496666667","24.977545","6500800","鶯歌區"
"239001","417-VK","2017/08/24 17:58:41","新北市鶯歌區中正三路186號","121.333086666667","24.938305","6500800","鶯歌區"
"239003","360-BY","2017/08/24 17:58:42","新北市鶯歌區鶯桃路334號","121.333968333333","24.9621566666667","6500800","鶯歌區"
"239002","359-BY","2017/08/24 17:58:36","新北市鶯歌區中山路249巷4弄69號","121.347826666667","24.9567266666667","6500800","鶯歌區"
"221008","489-VK","2017/08/24 17:58:32","新北市汐止區明峰街4-1號","121.635403333333","25.0712983333333","6501100","汐止區"
"221036","130-UY","2017/08/24 17:58:33","新北市汐止區橋東街16號","121.666361666667","25.075825","6501100","汐止區"
"221015","131-UY","2017/08/24 17:58:37","新北市汐止區長江街338號","121.667031666667","25.0818633333333","6501100","汐止區"
"221010","269-BY","2017/08/24 17:58:39","新北市汐止區汐萬路二段122巷38弄42號","121.648093333333","25.0869783333333","6501100","汐止區"
"221012","276-VK","2017/08/24 13:24:31","新北市汐止區汐萬路一段256巷3號","121.653465","25.0746233333333","6501100","汐止區"
"221031","277-VK","2017/08/24 17:58:41","新北市汐止區中興路96巷1-3號","121.635445","25.0625316666667","6501100","汐止區"
"221012","278-VK","2017/08/24 17:58:41","新北市汐止區長興街二段28號","121.673173333333","25.0813083333333","6501100","汐止區"
"221023","279-VK","2017/08/24 17:58:37","新北市汐止區明峰街145號","121.62959","25.0705683333333","6501100","汐止區"
"221032","280-BY","2017/08/24 17:58:23","新北市汐止區橫科路73巷22號","121.619371666667","25.0516466666667","6501100","汐止區"
"221027","281-BY","2017/08/24 17:58:24","新北市汐止區大同路二段350號","121.65683","25.0670516666667","6501100","汐止區"
"221038","297-VK","2017/08/24 17:58:22","新北市汐止區大同路二段207號","121.65272","25.0643133333333","6501100","汐止區"
"221029","298-VK","2017/08/24 17:58:32","新北市汐止區樟樹二路301號","121.641066666667","25.0700183333333","6501100","汐止區"
"221021","299-VK","2017/08/24 17:58:30","新北市汐止區新興路14號","121.656338333333","25.0647116666667","6501100","汐止區"
"221035","622-UM","2017/08/24 17:58:24","新北市汐止區新江北路30巷15號","121.652818333333","25.06985","6501100","汐止區"
"221025","623-UM","2017/08/24 17:58:40","新北市汐止區仁愛路39號","121.659576666667","25.0634266666667","6501100","汐止區"
"221033","647-BX","2017/08/24 17:58:41","新北市汐止區合順街25號","121.620241666667","25.0431933333333","6501100","汐止區"
"221002","707-TV","2017/08/24 17:58:25","新北市汐止區樟樹二路101號","121.640168333333","25.0663516666667","6501100","汐止區"
"221018","753-BX","2017/08/24 17:58:37","新北市汐止區招商街11巷1號","121.666531666667","25.0689066666667","6501100","汐止區"
