"lineid","car","time","location","longitude","latitude","cityid","cityname"
"234046","148-BY","2017/08/24 18:59:12","新北市永和區得和路373巷16弄11號","121.525613333333","25.0000583333333","6500400","永和區"
"234013","149-BY","2017/08/24 18:59:23","新北市永和區信義路10-1號","121.514531666667","25.01213","6500400","永和區"
"234007","207-UY","2017/08/24 18:59:23","新北市永和區中山路一段95號","121.51139","25.0106316666667","6500400","永和區"
"234081","298-R6","2017/08/24 18:59:33","新北市永和區永亨路70號","121.521116666667","25.00598","6500400","永和區"
"234036","336-UY","2017/08/24 18:59:35","新北市永和區民樂街75巷1號","121.527381666667","24.99695","6500400","永和區"
"234064","337-UY","2017/08/24 18:59:33","新北市永和區秀朗路一段198號","121.519378333333","25.0031866666667","6500400","永和區"
"234086","338-UY","2017/08/24 18:59:40","新北市永和區中正路332號","121.517603333333","24.9998583333333","6500400","永和區"
"234070","552-UM","2017/08/24 18:59:27","新北市永和區豫溪街95巷10弄3號","121.518143333333","25.010845","6500400","永和區"
"234054","553-UM","2017/08/24 18:59:25","新北市永和區竹林路66巷2號","121.518248333333","25.0134016666667","6500400","永和區"
"234017","745-BX","2017/08/24 18:59:28","新北市永和區永和路二段297號","121.516071666667","25.0160366666667","6500400","永和區"
"234030","746-BX","2017/08/24 18:59:36","新北市永和區民生路25巷22號","121.524341666667","24.9984166666667","6500400","永和區"
"234061","AAD-866","2017/08/24 18:59:21","新北市永和區福和路307號","121.516301666667","25.007255","6500400","永和區"
"234042","862-TW","2017/08/24 18:59:36","新北市永和區永貞路271號","121.51174","25.004845","6500400","永和區"
"234050","863-TW","2017/08/24 18:59:25","新北市永和區文化路194號","121.510866666667","25.016285","6500400","永和區"
"234026","9371-KE","2017/08/24 18:59:20","新北市永和區安樂路451號","121.514333333333","25.0049316666667","6500400","永和區"
"234011","9373-KE","2017/08/24 18:59:26","新北市永和區文化路75號","121.513788333333","25.0151466666667","6500400","永和區"
"249005","172-UM","2017/08/24 18:59:36","新北市八里區長道坑6號","121.397453333333","25.1236633333333","6502300","八里區"
"249001","173-UM","2017/08/24 18:59:29","新北市八里區龍米路二段228-1號","121.432695","25.1584383333333","6502300","八里區"
"248016","026-BX","2017/08/24 18:59:23","新北市五股區成泰路三段543巷16號","121.450925","25.1022533333333","6501500","五股區"
"248006","077-UY","2017/08/24 18:59:38","新北市五股區中興路一段73號","121.46754","25.0726366666667","6501500","五股區"
"248008","095-VK","2017/08/24 18:59:20","新北市五股區中興路一段128巷6號","121.4657","25.074035","6501500","五股區"
"248020","225-UY","2017/08/24 18:59:29","新北市五股區凌雲路三段57號","121.425268333333","25.1250066666667","6501500","五股區"
"248010","272-BY","2017/08/24 18:59:26","新北市五股區水碓三路43號","121.430338333333","25.071435","6501500","五股區"
"248004","677-BX","2017/08/24 18:59:31","新北市五股區民義路三段1號","121.402816666667","25.1141866666667","6501500","五股區"
"248002","678-BX","2017/08/24 18:59:35","新北市五股區凌雲路一段157號","121.449013333333","25.1024716666667","6501500","五股區"
"248012","682-TV","2017/08/24 18:59:21","新北市五股區工商路18巷23弄8號","121.440261666667","25.0841983333333","6501500","五股區"
"234023","9380-KE","2017/08/24 18:59:41","新北市永和區竹林路91巷55弄1號","121.521936666667","25.0138633333333","6500400","永和區"
"234077","969-R7","2017/08/24 18:59:23","新北市永和區智光街22號","121.517915","24.9993233333333","6500400","永和區"
"234074","AAC-211","2017/08/24 18:59:40","新北市永和區環河東路二段92號","121.524413333333","25.0106183333333","6500400","永和區"
"234067","AAC-212","2017/08/24 18:59:27","新北市永和區永和路一段22號","121.513085","25.0047966666667","6500400","永和區"
"234003","AAC-295","2017/08/24 18:59:39","新北市永和區和平街38號","121.512956666667","25.00991","6500400","永和區"
"232001","291-BY","2017/08/24 09:28:11","新北市坪林區北宜路八段558號","121.718041666667","24.909095","6502000","坪林區"
"232011","375-UM","2017/08/24 18:59:25","新北市坪林區水聳淒坑27號","121.711386666667","24.9341","6502000","坪林區"
"244019","403-UM","2017/08/24 18:59:33","新北市林口區忠孝路648號","121.379136666667","25.0685583333333","6501700","林口區"
"244009","410-SL","2017/08/24 18:59:30","新北市林口區竹林路410巷1號","121.390108333333","25.084515","6501700","林口區"
"244001","483-VK","2017/08/24 14:32:21","新北市林口區粉寮69號","121.405025","25.090955","6501700","林口區"
"244017","656-BX","2017/08/24 18:59:34","新北市林口區文化二路一段120巷7號","121.367946666667","25.0699","6501700","林口區"
"244023","657-BX","2017/08/24 18:59:40","新北市林口區文林六街13巷24號","121.370008333333","25.081005","6501700","林口區"
"244013","658-BX","2017/08/24 18:59:24","新北市林口區麗園二街1巷2-2號","121.376868333333","25.0699183333333","6501700","林口區"
"244011","701-TV","2017/08/24 18:59:23","新北市林口區仁愛路一段285巷106號","121.395043333333","25.0754433333333","6501700","林口區"
"244025","837-TS","2017/08/24 18:59:41","新北市林口區仁愛二路101-1號","121.3678","25.0751583333333","6501700","林口區"
"243013","AAD-798","2017/08/24 18:59:38","新北市泰山區明志路三段206巷1號","121.423395","25.0378016666667","6501600","泰山區"
"243009","297-R6","2017/08/24 18:59:34","新北市泰山區泰林路二段360號","121.428923333333","25.0635816666667","6501600","泰山區"
"243015","380-SR","2017/08/24 18:59:35","新北市泰山區明志路一段205號","121.43271","25.061305","6501600","泰山區"
"243014","421-VK","2017/08/24 18:59:39","新北市泰山區泰林路二段595號","121.421693333333","25.0635366666667","6501600","泰山區"
"243010","548-UM","2017/08/24 18:59:29","新北市泰山區辭修路24號","121.42904","25.0581633333333","6501600","泰山區"
"243011","549-UM","2017/08/24 18:59:30","新北市泰山區明志路二段298巷2號","121.425838333333","25.046735","6501600","泰山區"
"243012","646-TV","2017/08/24 18:59:24","新北市泰山區仁德路114號","121.432798333333","25.057015","6501600","泰山區"
"243016","680-BX","2017/08/24 18:59:29","新北市泰山區明志路二段183號","121.427791666667","25.04989","6501600","泰山區"
"222003","436-BY","2017/08/24 18:59:15","新北市深坑區深南路51-1號","121.621441666667","25.0101333333333","6501800","深坑區"
"222002","659-BX","2017/08/24 18:59:37","新北市深坑區文山路一段33號","121.6296","25.0040516666667","6501800","深坑區"
"222001","696-SL","2017/08/24 18:59:34","新北市深坑區北深路一段174號","121.633993333333","25.0106833333333","6501800","深坑區"
"231059","001-UM","2017/08/24 18:59:34","新北市新店區安和路一段52巷2號","121.517651666667","24.9661966666667","6500600","新店區"
"231041","002-UM","2017/08/24 18:59:24","新北市新店區環河路62號","121.537043333333","24.9626516666667","6500600","新店區"
"231061","047-UY","2017/08/24 18:59:27","新北市新店區安康路一段355-4號","121.517438333333","24.96393","6500600","新店區"
"231060","106-UY","2017/08/24 18:59:32","新北市新店區安豐路48號","121.500376666667","24.954135","6500600","新店區"
"231051","107-UY","2017/08/24 18:59:29","新北市新店區三民路189號","121.535361666667","24.9754566666667","6500600","新店區"
"231047","108-UY","2017/08/24 18:59:22","新北市新店區德正街27巷29弄28號","121.545765","24.97229","6500600","新店區"
"231052","187-VK","2017/08/24 18:59:24","新北市新店區新烏路二段7號","121.544145","24.9294016666667","6500600","新店區"
"231007","189-VK","2017/08/24 16:33:36","新北市新店區安華路28-1號","121.519551666667","24.9609266666667","6500600","新店區"
"231046","278-BY","2017/08/24 18:59:40","新北市新店區直潭四街46號","121.53312","24.9413916666667","6500600","新店區"
"231050","AAD-862","2017/08/24 18:59:34","新北市新店區北宜路二段30巷5弄2號","121.548008333333","24.9507516666667","6500600","新店區"
"231058","3712-VJ","2017/08/24 18:59:25","新北市新店區中興路一段180號","121.543166666667","24.9647233333333","6500600","新店區"
"231055","3713-VJ","2017/08/24 18:59:31","新北市新店區新生街13巷26號","121.539008333333","24.9665433333333","6500600","新店區"
"231056","4716-K9","2017/08/24 18:59:32","新北市新店區大同街2號","121.539783333333","24.9800233333333","6500600","新店區"
"231067","4772-VM","2017/08/24 18:59:20","新北市新店區安康路一段281巷7號","121.523661666667","24.9630866666667","6500600","新店區"
"231065","512-UM","2017/08/24 18:59:29","新北市新店區安祥路109巷151弄6號","121.479135","24.957425","6500600","新店區"
"231054","513-UM","2017/08/24 18:59:25","新北市新店區新店路13號","121.540281666667","24.9529","6500600","新店區"
"231042","616-UM","2017/08/24 18:59:35","新北市新店區中正路28號","121.545266666667","24.9697816666667","6500600","新店區"
"231040","619-UM","2017/08/24 18:59:31","新北市新店區中正路390號","121.53464","24.97725","6500600","新店區"
"231063","645-TV","2017/08/24 18:59:21","新北市新店區車子路110號","121.505251666667","24.9520783333333","6500600","新店區"
"231049","719-UM","2017/08/24 18:59:33","新北市新店區二十張路137-1號","121.535601666667","24.9791066666667","6500600","新店區"
"231064","719-UY","2017/08/24 18:59:26","新北市新店區安忠路8-1號","121.514748333333","24.9631233333333","6500600","新店區"
"231062","720-UM","2017/08/24 18:59:37","新北市新店區安康路二段330號","121.504073333333","24.9578383333333","6500600","新店區"
"231044","897-TW","2017/08/24 18:59:34","新北市新店區寶中路72號","121.547843333333","24.98059","6500600","新店區"
"231045","898-TW","2017/08/24 18:59:35","新北市新店區光明街51號","121.538491666667","24.960215","6500600","新店區"
"231043","899-TW","2017/08/24 18:59:30","新北市新店區北新路二段18號","121.542768333333","24.971265","6500600","新店區"
"231066","AKT-0513","2017/08/24 18:59:30","新北市新店區安祥路80號","121.489223333333","24.9587783333333","6500600","新店區"
"241020","480-VK","2017/08/24 18:59:23","新北市三重區忠孝路一段179號","121.487436666667","25.0717666666667","6500200","三重區"
"241029","942-UM","2017/08/24 18:59:27","新北市三重區重安街1號","121.489928333333","25.0584283333333","6500200","三重區"
"235066","003-UY","2017/08/24 18:59:39","新北市中和區中山路二段131巷5弄4號","121.502938333333","25.0028383333333","6500300","中和區"
"235064","005-UY","2017/08/24 18:59:26","新北市中和區連勝街2號","121.499085","24.9986366666667","6500300","中和區"
"235063","006-UY","2017/08/24 18:59:37","新北市中和區中正路464號","121.49011","24.99423","6500300","中和區"
"235056","096-UM","2017/08/24 18:59:34","新北市中和區中山路二段568巷36號","121.48235","25.0066833333333","6500300","中和區"
"235039","097-UM","2017/08/24 18:59:29","新北市中和區安樂路217巷56號","121.51308","24.9976633333333","6500300","中和區"
"235065","098-UM","2017/08/24 18:59:28","新北市中和區中山路二段2巷45弄12號","121.501936666667","25.0067416666667","6500300","中和區"
"235040","150-BY","2017/08/24 18:59:32","新北市中和區宜安路28號","121.512901666667","24.9959783333333","6500300","中和區"
"235058","151-BY","2017/08/24 18:59:36","新北市中和區連城路569巷9弄5號","121.479496666667","24.9941066666667","6500300","中和區"
"235055","183-VK","2017/08/24 18:59:34","新北市中和區民德路2號","121.468721666667","25.00337","6500300","中和區"
"235038","185-VK","2017/08/24 18:59:27","新北市中和區大勇街43巷11號","121.5171","24.9945766666667","6500300","中和區"
"235049","186-VK","2017/08/24 18:59:33","新北市中和區景安路177巷33號","121.506921666667","24.9945983333333","6500300","中和區"
"235067","255-BX","2017/08/24 18:59:34","新北市中和區中正路839巷21號","121.483896666667","25.0021366666667","6500300","中和區"
"235044","293-VK","2017/08/24 18:59:27","新北市中和區中興街167號","121.499913333333","24.9905966666667","6500300","中和區"
"235072","301-VK","2017/08/24 18:59:32","新北市永和區中山路一段277號","121.506991666667","25.0071033333333","6500300","中和區"
"235043","352-BY","2017/08/24 18:59:26","新北市中和區成功路5號","121.526435","24.99411","6500300","中和區"
"235051","376-QA","2017/08/24 18:59:34","新北市中和區忠孝街106巷52-1號","121.513748333333","24.984125","6500300","中和區"
"235068","377-QA","2017/08/24 18:59:35","新北市中和區圓通路234號","121.494951666667","24.9927283333333","6500300","中和區"
"235061","378-QA","2017/08/24 18:59:28","新北市中和區民治街134巷6號","121.47507","25.00221","6500300","中和區"
"235050","4979-A6","2017/08/24 18:59:35","新北市中和區華新街50巷7號","121.50764","24.98393","6500300","中和區"
"235069","4980-A6","2017/08/24 18:59:39","新北市中和區圓通路61號","121.500596666667","24.9973033333333","6500300","中和區"
"235042","551-UM","2017/08/24 18:59:25","新北市中和區秀朗路三段128巷29號","121.52468","24.9941533333333","6500300","中和區"
"235070","558-UM","2017/08/24 18:59:33","新北市中和區南山路67號","121.50209","24.9982383333333","6500300","中和區"
"235045","565-BX","2017/08/24 18:59:43","新北市中和區景新街467巷4號","121.513673333333","24.98814","6500300","中和區"
"235054","640-BX","2017/08/24 18:59:34","新北市中和區民享街35巷15號","121.474931666667","25.0040533333333","6500300","中和區"
"235060","647-TV","2017/08/24 18:59:37","新北市中和區民治街3巷2號","121.474956666667","25.0052733333333","6500300","中和區"
"235047","732-UM","2017/08/24 18:59:27","新北市中和區興南路二段34巷24弄2號","121.505728333333","24.9865083333333","6500300","中和區"
"235046","733-UM","2017/08/24 18:59:30","新北市中和區興南路二段5號","121.508121666667","24.9862633333333","6500300","中和區"
"235062","800-TS","2017/08/24 18:59:36","新北市中和區景平路705號","121.496475","25.00354","6500300","中和區"
"235057","801-TS","2017/08/24 18:59:39","新北市中和區民利街14巷3-3號","121.480648333333","24.9995166666667","6500300","中和區"
"235041","802-TS","2017/08/24 18:59:29","新北市中和區中安街192號","121.511381666667","24.9993366666667","6500300","中和區"
"235052","805-TS","2017/08/24 18:59:28","新北市中和區興南路二段345號","121.50124","24.9806416666667","6500300","中和區"
"235048","896-TW","2017/08/24 18:59:31","新北市中和區華新街91號","121.508605","24.9832866666667","6500300","中和區"
"235053","900-TW","2017/08/24 18:59:37","新北市中和區民德路306巷5號","121.466931666667","24.9952666666667","6500300","中和區"
"235037","AAC-213","2017/08/24 18:59:28","新北市中和區秀朗路三段60巷71號","121.523998333333","24.994575","6500300","中和區"
"235059","AAC-215","2017/08/24 18:59:41","新北市中和區圓通路367巷20弄29號","121.491378333333","24.98817","6500300","中和區"
"220068","013-TV","2017/08/24 18:59:36","新北市板橋區中山路二段465巷104號","121.48113","25.0228116666667","6500100","板橋區"
"220065","072-UY","2017/08/24 18:59:40","新北市板橋區民族路247巷9弄4號","121.471301666667","25.0079783333333","6500100","板橋區"
"220086","073-UY","2017/08/24 18:59:22","新北市板橋區大智街20號","121.455725","25.014855","6500100","板橋區"
"220106","075-UY","2017/08/24 18:59:24","新北市板橋區文化路二段124巷28-2號","121.471211666667","25.0256783333333","6500100","板橋區"
"220069","AAD-861","2017/08/24 18:59:27","新北市板橋區四川路一段62號","121.459406666667","25.00547","6500100","板橋區"
"220102","120-SR","2017/08/24 18:59:24","新北市板橋區雙十路一段44巷36號","121.477151666667","25.0248166666667","6500100","板橋區"
"226004","312-R5","2017/08/24 18:59:35","新北市平溪區靜安路二段548號","121.746533333333","25.0256233333333","6502400","平溪區"
"228003","097-TW","2017/08/24 18:59:36","新北市貢寮區和美里龍洞街40號","121.914088333333","25.1114616666667","6502600","貢寮區"
"228001","212-TW","2017/08/24 18:59:24","新北市貢寮區仁理村研海街12-1號","121.923763333333","25.051775","6502600","貢寮區"
"228002","585-TW","2017/08/24 18:59:21","新北市貢寮區福隆里東興街106巷23弄1號","121.946171666667","25.01808","6502600","貢寮區"
"224011","AGQ-8101","2017/08/24 18:59:30","新北市瑞芳區基山街89號","121.844741666667","25.10825","6501200","瑞芳區"
"224006","676-BX","2017/08/24 18:59:38","新北市瑞芳區中正路38號","121.807071666667","25.1072816666667","6501200","瑞芳區"
"224011","420-VK","2017/08/24 18:59:39","新北市瑞芳區崙頂路1-6號","121.847028333333","25.1047133333333","6501200","瑞芳區"
"224009","285-BY","2017/08/24 18:59:37","新北市瑞芳區祈堂路53-1號","121.85957","25.1107983333333","6501200","瑞芳區"
"224008","275-VK","2017/08/24 18:59:34","新北市瑞芳區逢甲路333號","121.801066666667","25.112245","6501200","瑞芳區"
"224007","273-VK","2017/08/24 18:59:41","新北市瑞芳區中央路48巷56-26號","121.759383333333","25.1037733333333","6501200","瑞芳區"
"224005","271-BY","2017/08/24 18:59:41","新北市瑞芳區濱二路40-1號","121.832465","25.11722","6501200","瑞芳區"
"227004","642-TC","2017/08/24 18:59:37","新北市雙溪區平林里康福家園17號","121.858831666667","25.0373433333333","6502500","雙溪區"
"227010","400-TW","2017/08/24 18:58:21","新北市雙溪區牡丹里中正路58巷23號","121.866436666667","25.041605","6502500","雙溪區"
"253006","032-BX","2017/08/24 18:59:34","新北市石門區八甲11號","121.521981666667","25.28138","6502200","石門區"
"253005","295-VK","2017/08/24 18:59:41","新北市石門區中央路10號","121.566658333333","25.2912516666667","6502200","石門區"
"208002","742-BX","2017/08/24 18:59:35","新北市金山區信義路32號","121.63523","25.2196233333333","6502700","金山區"
"208003","665-BX","2017/08/24 18:59:35","新北市金山區中正路32號","121.635338333333","25.222155","6502700","金山區"
"208001","761-BX","2017/08/24 18:59:33","新北市金山區中山路73號","121.640631666667","25.2184","6502700","金山區"
"251009","008-UM","2017/08/24 18:59:30","新北市淡水區重建街36號","121.439923333333","25.1712383333333","6501000","淡水區"
"251004","009-UM","2017/08/24 18:59:29","新北市淡水區中正東路二段143巷2弄1號","121.46079","25.1474","6501000","淡水區"
"251007","179-VK","2017/08/24 18:59:36","新北市淡水區民生路125號","121.465301666667","25.1387716666667","6501000","淡水區"
"251008","181-VK","2017/08/24 18:59:26","新北市淡水區下圭柔山90-8號","121.431588333333","25.2117066666667","6501000","淡水區"
"251014","182-VK","2017/08/24 18:59:36","新北市淡水區小中寮32-1號","121.491341666667","25.2261783333333","6501000","淡水區"
"251010","413-VK","2017/08/24 18:59:40","新北市淡水區淡海路111號","121.422008333333","25.1825533333333","6501000","淡水區"
"251012","441-VK","2017/08/24 18:59:35","新北市淡水區新春街34號","121.436985","25.1814366666667","6501000","淡水區"
"251016","442-VK","2017/08/24 18:59:41","新北市淡水區埤島27號","121.446446666667","25.1996216666667","6501000","淡水區"
"251001","559-UM","2017/08/24 18:59:26","新北市淡水區自強路58-1號","121.463231666667","25.12758","6501000","淡水區"
"251011","650-BX","2017/08/24 18:59:25","新北市淡水區中正東路一段113號","121.454161666667","25.1597083333333","6501000","淡水區"
"251002","672-BX","2017/08/24 18:59:36","新北市淡水區中正東路61號","121.44697","25.16776","6501000","淡水區"
"251003","766-UM","2017/08/24 18:59:26","新北市淡水區中山北路一段149巷27號","121.442988333333","25.1778833333333","6501000","淡水區"
"207003","550-UM","2017/08/24 18:59:35","新北市萬里區大鵬里頂社1-2號","121.657331666667","25.2097083333333","6502800","萬里區"
"207004","225-TW","2017/08/24 18:59:34","新北市萬里區萬里里獅頭路23號","121.6932","25.1782116666667","6502800","萬里區"
"252005","073-UM","2017/08/24 18:17:35","新北市三芝區埔坪里埔頭坑41號","121.504343333333","25.2645766666667","6502100","三芝區"
"252002","178-VK","2017/08/24 18:59:36","新北市三芝區中正路一段82號","121.504118333333","25.2573","6502100","三芝區"
"252003","249-BX","2017/08/24 18:59:28","新北市三芝區後厝里北勢子45-22號","121.468473333333","25.2502883333333","6502100","三芝區"
"252001","292-VK","2017/08/24 18:59:36","新北市三芝區中興街二段260號","121.501741666667","25.2530716666667","6502100","三芝區"
"237004","078-UY","2017/08/24 18:59:38","新北市三峽區有木145號","121.444333333333","24.8493233333333","6500900","三峽區"
"237007","153-BY","2017/08/24 18:59:35","新北市三峽區大埔路161號","121.366645","24.9056183333333","6500900","三峽區"
"237013","252-BX","2017/08/24 18:59:27","新北市三峽區光明路69巷25號","121.376703333333","24.9292166666667","6500900","三峽區"
"237012","275-BY","2017/08/24 18:59:32","新北市三峽區三樹路222巷37號","121.381658333333","24.9423966666667","6500900","三峽區"
"237008","302-VK","2017/08/24 18:59:31","新北市三峽區白雞33-60號","121.370886666667","24.9131166666667","6500900","三峽區"
"237014","433-BY","2017/08/24 18:59:35","新北市三峽區隆恩街236號","121.357763333333","24.9411583333333","6500900","三峽區"
"237006","5529-G3","2017/08/24 18:59:19","新北市三峽區溪東路233巷47弄2號","121.410631666667","24.9346383333333","6500900","三峽區"
"237011","572-TV","2017/08/24 18:59:23","新北市三峽區介壽路三段231-5號","121.40594","24.9469666666667","6500900","三峽區"
"237016","649-BX","2017/08/24 18:59:28","新北市三峽區建安89-2號","121.455463333333","24.920645","6500900","三峽區"
"237010","706-TV","2017/08/24 18:59:26","新北市三峽區國光街350巷14號","121.371733333333","24.9401333333333","6500900","三峽區"
"237005","AKY-6261","2017/08/24 18:59:34","新北市三峽區中山路459巷163-1號","121.34925","24.933475","6500900","三峽區"
"236071","105-UM","2017/08/24 18:59:34","新北市土城區青雲路67號","121.459358333333","24.9863283333333","6501300","土城區"
"236042","107-UM","2017/08/24 18:59:35","新北市土城區學府路一段229巷10號","121.45161","24.98372","6501300","土城區"
"236078","166-UM","2017/08/24 18:59:30","新北市土城區中央路四段125巷9弄8號","121.416735","24.957395","6501300","土城區"
"236030","253-BX","2017/08/24 18:59:37","新北市土城區慶利街9號","121.439528333333","24.973615","6501300","土城區"
"236026","269-VK","2017/08/24 18:59:32","新北市土城區光明街38號","121.442163333333","24.9736116666667","6501300","土城區"
"236037","271-VK","2017/08/24 18:59:25","新北市土城區仁愛路54巷2號","121.46234","24.9785466666667","6501300","土城區"
"236021","401-BY","2017/08/24 18:59:27","新北市土城區明峰街50號","121.467765","24.98646","6501300","土城區"
"236014","752-BX","2017/08/24 18:59:36","新北市土城區立德路107號","121.463996666667","24.9878516666667","6501300","土城區"
"236058","912-UM","2017/08/24 18:59:20","新北市土城區清水路5號","121.453085","24.9803816666667","6501300","土城區"
"236051","913-UM","2017/08/24 18:59:41","新北市土城區青雲路322巷2弄4號","121.458256666667","24.977265","6501300","土城區"
"236062","915-UM","2017/08/24 18:59:38","新北市土城區延和路41巷2弄2號","121.465981666667","24.98971","6501300","土城區"
"236053","AAC-216","2017/08/24 18:59:26","新北市土城區裕民路30號","121.447893333333","24.9884866666667","6501300","土城區"
"242058","353-BY","2017/08/24 18:49:02","新北市新莊區新泰路255巷83號","121.442205","25.0387583333333","6500500","新莊區"
"238023","601-UM","2017/08/24 18:59:31","新北市樹林區工興街14巷1號","121.398828333333","25.013875","6500700","樹林區"
"238019","599-UM","2017/08/24 18:59:26","新北市樹林區東榮街91巷1弄2號","121.416233333333","24.9823066666667","6500700","樹林區"
"238018","571-TV","2017/08/24 18:59:31","新北市樹林區東榮街54號","121.41706","24.9831216666667","6500700","樹林區"
"238022","312-TH","2017/08/24 18:59:40","新北市樹林區東興街8-2號","121.409816666667","24.978895","6500700","樹林區"
"238021","311-TH","2017/08/24 18:48:19","新北市樹林區佳園路二段30號","121.391313333333","24.9627333333333","6500700","樹林區"
"238008","308-TH","2017/08/24 13:35:23","新北市樹林區育德街76巷1號","121.388723333333","24.968365","6500700","樹林區"
"238025","303-VK","2017/08/24 18:59:32","新北市樹林區中山路三段174號","121.388691666667","24.9699466666667","6500700","樹林區"
"238017","283-BY","2017/08/24 18:59:41","新北市樹林區中山路二段125號","121.407848333333","24.9796566666667","6500700","樹林區"
"238014","282-BY","2017/08/24 18:59:38","新北市樹林區潭興街143巷17號","121.425156666667","24.99984","6500700","樹林區"
"238020","268-VK","2017/08/24 18:59:33","新北市樹林區俊英街83巷1號","121.425898333333","25.007765","6500700","樹林區"
"238026","172-UY","2017/08/24 18:59:12","新北市樹林區德和街38號","121.389823333333","24.979195","6500700","樹林區"
"238016","169-UY","2017/08/24 18:59:26","新北市樹林區文化街28-1號","121.419191666667","24.9878","6500700","樹林區"
"239007","AAC-297","2017/08/24 18:59:26","新北市鶯歌區中正一路345巷40號","121.3577","24.9576733333333","6500800","鶯歌區"
"239006","891-R6","2017/08/24 18:59:28","新北市鶯歌區鶯桃路296巷72弄21號","121.33712","24.96129","6500800","鶯歌區"
"239008","527-UM","2017/08/24 18:59:18","新北市鶯歌區國際二路20巷27號","121.337296666667","24.9754333333333","6500800","鶯歌區"
"239005","526-UM","2017/08/24 18:59:21","新北市鶯歌區大湖路361巷24弄14號","121.330048333333","24.9780316666667","6500800","鶯歌區"
"239001","417-VK","2017/08/24 18:59:41","新北市鶯歌區鶯桃路94巷59弄13號","121.341378333333","24.955195","6500800","鶯歌區"
"239003","360-BY","2017/08/24 18:59:41","新北市鶯歌區鶯桃路658巷49-2號","121.330791666667","24.9702833333333","6500800","鶯歌區"
"239004","193-VK","2017/08/24 18:59:33","新北市鶯歌區中正三路237號","121.334236666667","24.9388616666667","6500800","鶯歌區"
"221008","489-VK","2017/08/24 18:59:32","新北市汐止區康寧街753巷2弄8號","121.639346666667","25.07397","6501100","汐止區"
"221036","130-UY","2017/08/24 18:59:33","新北市汐止區南昌街11號","121.663523333333","25.06963","6501100","汐止區"
"221015","131-UY","2017/08/24 18:59:37","新北市汐止區大同路二段605號","121.664016666667","25.070595","6501100","汐止區"
"221010","269-BY","2017/08/24 18:59:38","新北市汐止區康寧街901號","121.651403333333","25.0750433333333","6501100","汐止區"
"221012","276-VK","2017/08/24 13:24:31","新北市汐止區汐萬路一段256巷3號","121.653465","25.0746233333333","6501100","汐止區"
"221031","277-VK","2017/08/24 18:59:40","新北市汐止區福德一路300巷39號","121.630363333333","25.0644066666667","6501100","汐止區"
"221012","278-VK","2017/08/24 18:59:21","新北市汐止區康寧街901號","121.650801666667","25.0752583333333","6501100","汐止區"
"221023","279-VK","2017/08/24 18:59:32","新北市汐止區康寧街901號","121.650998333333","25.0751883333333","6501100","汐止區"
"221032","280-BY","2017/08/24 18:59:23","新北市汐止區橫科路407巷30弄28號","121.627298333333","25.0482783333333","6501100","汐止區"
"221027","281-BY","2017/08/24 18:59:19","新北市汐止區汐萬路一段256巷3號","121.653356666667","25.07467","6501100","汐止區"
"221038","297-VK","2017/08/24 18:59:22","新北市汐止區汐萬路一段312號","121.65067","25.07529","6501100","汐止區"
"221029","298-VK","2017/08/24 18:59:31","新北市汐止區樟樹一路236號","121.642206666667","25.0668366666667","6501100","汐止區"
"221021","299-VK","2017/08/24 18:59:30","新北市汐止區康寧街901號","121.651468333333","25.074945","6501100","汐止區"
"221035","622-UM","2017/08/24 18:59:24","新北市汐止區汐萬路一段39號","121.655306666667","25.0687183333333","6501100","汐止區"
"221025","623-UM","2017/08/24 18:59:40","新北市汐止區汐萬路一段144-1號","121.653088333333","25.0710766666667","6501100","汐止區"
"221033","647-BX","2017/08/24 18:59:35","新北市汐止區南勢街1巷1號","121.627045","25.0373833333333","6501100","汐止區"
"221002","707-TV","2017/08/24 18:59:25","新北市汐止區大同路一段4號","121.621098333333","25.0550216666667","6501100","汐止區"
"221018","753-BX","2017/08/24 18:59:37","新北市汐止區汐萬路一段115巷2號","121.654345","25.0707366666667","6501100","汐止區"
"220079","145-BY","2017/08/24 18:59:41","新北市板橋區民權路202巷14弄2號","121.460593333333","25.015745","6500100","板橋區"
"220080","200-UY","2017/08/24 18:59:41","新北市板橋區大觀路二段265巷1弄50號","121.445011666667","24.997925","6500100","板橋區"
"220082","610-BX","2017/08/24 18:59:24","新北市板橋區滿平街139號","121.428998333333","24.9881266666667","6500100","板橋區"
"220075","256-TC","2017/08/24 18:59:36","新北市板橋區茶館街25號","121.456376666667","25.01054","6500100","板橋區"
"220091","267-BY","2017/08/24 18:59:25","新北市板橋區文化路二段182巷5弄1號","121.471651666667","25.0270516666667","6500100","板橋區"
"220056","276-BY","2017/08/24 18:59:32","新北市板橋區信義路148號","121.458881666667","24.9917083333333","6500100","板橋區"
"220072","277-BY","2017/08/24 18:59:25","新北市樹林區中正路12號","121.429916666667","24.9974783333333","6500100","板橋區"
"220094","283-UM","2017/08/24 18:59:28","新北市板橋區光武街47號","121.46763","25.0254866666667","6500100","板橋區"
"220071","283-VK","2017/08/24 18:59:22","新北市板橋區區運路9號","121.46522","25.0097333333333","6500100","板橋區"
"220081","287-VK","2017/08/24 18:59:32","新北市板橋區南雅西路二段96號","121.452376666667","25.011385","6500100","板橋區"
"220090","288-VK","2017/08/24 18:59:41","新北市板橋區四維路156號","121.464823333333","25.0258466666667","6500100","板橋區"
"220061","293-UM","2017/08/24 18:59:26","新北市板橋區永豐街163號","121.475435","25.02049","6500100","板橋區"
"220084","296-UM","2017/08/24 18:59:35","新北市板橋區大觀路二段156巷63號","121.441233333333","25.000305","6500100","板橋區"
"220062","303-R5","2017/08/24 18:59:39","新北市板橋區民生路一段109號","121.473998333333","25.0143416666667","6500100","板橋區"
"220092","307-R5","2017/08/24 18:59:32","新北市板橋區漢生東路15號","121.464658333333","25.0172666666667","6500100","板橋區"
"220098","317-R6","2017/08/24 18:59:30","新北市板橋區民有街18號","121.46622","25.02496","6500100","板橋區"
"220064","486-VK","2017/08/24 18:59:28","新北市板橋區漢生東路125號","121.467665","25.0144966666667","6500100","板橋區"
"220089","487-VK","2017/08/24 18:59:26","新北市板橋區文化路二段286號","121.471753333333","25.02923","6500100","板橋區"
"220088","491-VK","2017/08/24 18:59:31","新北市板橋區民生路二段216號","121.469346666667","25.02151","6500100","板橋區"
"220035","560-BX","2017/08/24 18:59:21","新北市板橋區中正路273-1號","121.455506666667","25.0188983333333","6500100","板橋區"
"220103","561-BX","2017/08/24 18:59:35","新北市板橋區民生路二段123號","121.470656666667","25.0185416666667","6500100","板橋區"
"220053","568-UM","2017/08/24 18:59:29","新北市板橋區成功路46號","121.475088333333","25.017675","6500100","板橋區"
"220063","609-BX","2017/08/24 18:59:23","新北市板橋區民生路一段68號","121.473903333333","25.0151383333333","6500100","板橋區"
"220083","630-UY","2017/08/24 18:59:35","新北市板橋區大觀路一段38巷156弄142號","121.44365","25.0086266666667","6500100","板橋區"
"220091","637-BX","2017/08/24 18:59:25","新北市板橋區莒光路165巷14-1號","121.474038333333","25.0243433333333","6500100","板橋區"
"220057","686-BX","2017/08/24 18:59:36","新北市板橋區民權路45號","121.462108333333","25.0112083333333","6500100","板橋區"
"220077","687-BX","2017/08/24 18:59:28","新北市板橋區龍興街38號","121.443233333333","25.0005983333333","6500100","板橋區"
"220093","689-BX","2017/08/24 18:59:35","新北市板橋區民生路三段66號","121.466933333333","25.0255933333333","6500100","板橋區"
"220054","741-BX","2017/08/24 18:59:30","新北市板橋區中山路一段2號","121.459665","25.007615","6500100","板橋區"
"220055","827-TW","2017/08/24 18:59:36","新北市板橋區中山路一段158巷10號","121.466145","25.0115133333333","6500100","板橋區"
"220067","829-TW","2017/08/24 18:59:32","新北市板橋區三民路二段正隆巷34號","121.477166666667","25.0135633333333","6500100","板橋區"
"220096","831-TW","2017/08/24 18:59:20","新北市板橋區莒光路58號","121.470905","25.0241966666667","6500100","板橋區"
"220074","895-R6","2017/08/24 18:59:39","新北市板橋區林園街61號","121.45365","25.01036","6500100","板橋區"
"220073","985-R7","2017/08/24 18:59:27","新北市板橋區中正路169號","121.456626666667","25.0163066666667","6500100","板橋區"
"220097","AAC-210","2017/08/24 18:59:22","新北市板橋區四維路134號","121.465178333333","25.0253133333333","6500100","板橋區"
"220070","AAC-253","2017/08/24 18:59:33","新北市板橋區中山路一段3號","121.459895","25.007825","6500100","板橋區"
