"lineid","car","time","location","longitude","latitude","cityid","cityname"
"234046","148-BY","2017/08/24 19:05:11","新北市永和區永元路52巷36號","121.523791666667","25.0008783333333","6500400","永和區"
"234013","149-BY","2017/08/24 19:03:43","新北市永和區永和路二段32號","121.514741666667","25.01064","6500400","永和區"
"234007","207-UY","2017/08/24 19:02:25","新北市永和區中山路一段147號","121.510183333333","25.0096683333333","6500400","永和區"
"234081","298-R6","2017/08/24 19:04:33","新北市永和區福和路152號","121.521758333333","25.0079483333333","6500400","永和區"
"234036","336-UY","2017/08/24 19:04:55","新北市永和區民樂街69巷3號","121.527478333333","24.99779","6500400","永和區"
"234064","337-UY","2017/08/24 19:02:53","新北市永和區秀朗路一段233號","121.520078333333","25.0030783333333","6500400","永和區"
"234086","338-UY","2017/08/24 19:03:01","新北市永和區永利路23號","121.518011666667","25.0060216666667","6500400","永和區"
"234070","552-UM","2017/08/24 19:02:26","新北市永和區豫溪街137巷1弄14號","121.519021666667","25.0104583333333","6500400","永和區"
"234054","553-UM","2017/08/24 19:04:25","新北市永和區勵行街81號","121.517313333333","25.0130183333333","6500400","永和區"
"234017","745-BX","2017/08/24 19:05:42","新北市永和區忠孝街11-1號","121.514781666667","25.0156916666667","6500400","永和區"
"234030","746-BX","2017/08/24 19:03:36","新北市永和區四維街105號","121.52389","24.9981833333333","6500400","永和區"
"234061","AAD-866","2017/08/24 19:04:41","新北市永和區中正路465巷21號","121.516118333333","25.005675","6500400","永和區"
"234042","862-TW","2017/08/24 19:03:56","新北市永和區保平路111巷2弄2號","121.51108","25.00646","6500400","永和區"
"234050","863-TW","2017/08/24 19:04:25","新北市永和區文化路135巷12號","121.510621666667","25.015635","6500400","永和區"
"234026","9371-KE","2017/08/24 19:07:40","新北市永和區安樂路270號","121.514533333333","25.0040716666667","6500400","永和區"
"234011","9373-KE","2017/08/24 19:03:26","新北市永和區仁愛路141巷3弄6號","121.511921666667","25.0124466666667","6500400","永和區"
"249005","172-UM","2017/08/24 19:04:56","新北市八里區長道坑1-3號","121.392855","25.1275083333333","6502300","八里區"
"249001","173-UM","2017/08/24 19:06:29","新北市八里區龍米路二段228-1號","121.43269","25.1584383333333","6502300","八里區"
"248016","026-BX","2017/08/24 19:06:03","新北市五股區凌雲路一段118號","121.450116666667","25.101885","6501500","五股區"
"248006","077-UY","2017/08/24 19:04:38","新北市五股區四維路114號","121.467675","25.0740783333333","6501500","五股區"
"248008","095-VK","2017/08/24 19:03:40","新北市五股區中興路一段118巷6弄27號","121.466325","25.0750983333333","6501500","五股區"
"248020","225-UY","2017/08/24 19:03:38","新北市五股區凌雲路三段57號","121.425273333333","25.1250033333333","6501500","五股區"
"248010","272-BY","2017/08/24 19:05:46","新北市五股區水碓一路23號","121.43063","25.0712966666667","6501500","五股區"
"248004","677-BX","2017/08/24 19:05:11","新北市五股區民義路二段40號","121.417935","25.09829","6501500","五股區"
"248002","678-BX","2017/08/24 19:06:36","新北市五股區凌雲路一段158巷14-1號","121.447871666667","25.1034683333333","6501500","五股區"
"248012","682-TV","2017/08/24 19:03:41","新北市五股區成泰路二段156號","121.438396666667","25.08392","6501500","五股區"
"234023","9380-KE","2017/08/24 19:02:41","新北市永和區竹林路75巷33弄3號","121.52054","25.0142833333333","6500400","永和區"
"234077","969-R7","2017/08/24 19:03:03","新北市永和區得和路129號","121.518985","25.000245","6500400","永和區"
"234074","AAC-211","2017/08/24 19:03:20","新北市永和區豫溪街217巷3號","121.52472","25.0094483333333","6500400","永和區"
"234067","AAC-212","2017/08/24 19:05:07","新北市永和區自由街58號","121.513756666667","25.0058","6500400","永和區"
"234003","AAC-295","2017/08/24 19:04:58","新北市永和區中山路一段125號","121.510746666667","25.0100416666667","6500400","永和區"
"232001","291-BY","2017/08/24 09:28:11","新北市坪林區北宜路八段558號","121.718041666667","24.909095","6502000","坪林區"
"244019","403-UM","2017/08/24 19:07:54","新北市林口區麗園二街47巷47號","121.38254","25.0695416666667","6501700","林口區"
"244009","410-SL","2017/08/24 19:02:30","新北市林口區竹林路446巷2弄16號","121.387855","25.085885","6501700","林口區"
"244001","483-VK","2017/08/24 14:32:21","新北市林口區粉寮69號","121.405025","25.090955","6501700","林口區"
"244017","656-BX","2017/08/24 19:03:14","新北市林口區公園路131巷3號","121.369016666667","25.0704966666667","6501700","林口區"
"244023","657-BX","2017/08/24 19:06:01","新北市林口區文化三路一段617巷126號","121.370785","25.0786516666667","6501700","林口區"
"244013","658-BX","2017/08/24 19:04:44","新北市林口區麗園一街11巷7號","121.377906666667","25.0705366666667","6501700","林口區"
"244011","701-TV","2017/08/24 19:02:23","新北市林口區仁愛路一段302號","121.392318333333","25.07625","6501700","林口區"
"244025","837-TS","2017/08/24 19:03:21","新北市林口區文化北路一段542巷55弄27號","121.369185","25.079335","6501700","林口區"
"243013","AAD-798","2017/08/24 19:04:38","新北市泰山區明志路三段341巷5弄9號","121.423248333333","25.035355","6501600","泰山區"
"243009","297-R6","2017/08/24 19:04:14","新北市泰山區福德街35號","121.432291666667","25.0632733333333","6501600","泰山區"
"243015","380-SR","2017/08/24 19:04:55","新北市泰山區明志路一段332號","121.431096666667","25.0588116666667","6501600","泰山區"
"243014","421-VK","2017/08/24 19:06:31","新北市泰山區泰林路二段416號","121.427225","25.0643316666667","6501600","泰山區"
"243010","548-UM","2017/08/24 19:04:09","新北市泰山區明志路一段352巷28號","121.430068333333","25.0591183333333","6501600","泰山區"
"243011","549-UM","2017/08/24 19:03:50","新北市泰山區明志路二段320巷3弄2號","121.425441666667","25.0463666666667","6501600","泰山區"
"243012","646-TV","2017/08/24 19:03:24","新北市泰山區明志路一段373巷9-1號","121.431301666667","25.0578483333333","6501600","泰山區"
"243016","680-BX","2017/08/24 19:02:29","新北市泰山區明志路二段231號","121.427428333333","25.0484083333333","6501600","泰山區"
"222003","436-BY","2017/08/24 19:02:56","新北市深坑區深南路51-1號","121.621448333333","25.0101216666667","6501800","深坑區"
"222002","659-BX","2017/08/24 19:06:57","新北市深坑區烏月路5號","121.633295","25.008095","6501800","深坑區"
"222001","696-SL","2017/08/24 19:08:54","新北市深坑區北深路一段300號","121.624216666667","25.005775","6501800","深坑區"
"231059","001-UM","2017/08/24 19:05:54","新北市新店區安和路二段138號","121.519538333333","24.9722766666667","6500600","新店區"
"231041","002-UM","2017/08/24 19:07:24","新北市新店區中央一街37號","121.527515","24.9734083333333","6500600","新店區"
"231061","047-UY","2017/08/24 19:06:27","新北市新店區安康路一段231號","121.52543","24.9631366666667","6500600","新店區"
"231060","106-UY","2017/08/24 19:05:12","新北市新店區安康路二段338號","121.50342","24.9577016666667","6500600","新店區"
"231051","107-UY","2017/08/24 19:03:23","新北市新店區百忍街42巷1號","121.533411666667","24.97597","6500600","新店區"
"231047","108-UY","2017/08/24 19:08:22","新北市新店區德正街25巷5號","121.544503333333","24.9717566666667","6500600","新店區"
"231052","187-VK","2017/08/24 19:07:04","新北市新店區屈尺路58號","121.547416666667","24.9228183333333","6500600","新店區"
"231007","189-VK","2017/08/24 16:33:36","新北市新店區安華路28-1號","121.519551666667","24.9609266666667","6500600","新店區"
"231046","278-BY","2017/08/24 19:03:08","新北市新店區直潭八街2號","121.534748333333","24.9399283333333","6500600","新店區"
"231050","AAD-862","2017/08/24 19:03:14","新北市新店區北宜路二段52-1號","121.549196666667","24.9513533333333","6500600","新店區"
"231058","3712-VJ","2017/08/24 19:06:25","新北市新店區中興路一段166號","121.542803333333","24.9643283333333","6500600","新店區"
"231055","3713-VJ","2017/08/24 19:03:11","新北市新店區力行路12號","121.53946","24.9646183333333","6500600","新店區"
"231056","4716-K9","2017/08/24 19:08:12","新北市新店區二十張路46巷37弄39號","121.535713333333","24.9812216666667","6500600","新店區"
"231067","4772-VM","2017/08/24 19:03:20","新北市新店區安康路一段281巷12弄8號","121.523613333333","24.9616516666667","6500600","新店區"
"231065","512-UM","2017/08/24 19:06:29","新北市新店區安祥路147巷50號","121.476461666667","24.956575","6500600","新店區"
"231054","513-UM","2017/08/24 19:08:05","新北市新店區新店路162號","121.537128333333","24.955565","6500600","新店區"
"231042","616-UM","2017/08/24 19:03:15","新北市新店區中興路一段266號","121.544921666667","24.9672666666667","6500600","新店區"
"231040","619-UM","2017/08/24 19:04:31","新北市新店區自由街2號","121.535355","24.9752983333333","6500600","新店區"
"231063","645-TV","2017/08/24 19:07:21","新北市新店區車子路110號","121.50525","24.95207","6500600","新店區"
"231049","719-UM","2017/08/24 19:04:46","新北市新店區二十張路54-1號","121.53712","24.980485","6500600","新店區"
"231064","719-UY","2017/08/24 19:03:26","新北市新店區安忠路21號","121.514633333333","24.9621883333333","6500600","新店區"
"231062","720-UM","2017/08/24 19:07:57","新北市新店區安平路35巷6號","121.521081666667","24.9675866666667","6500600","新店區"
"231044","897-TW","2017/08/24 19:04:34","新北市新店區寶中路89號","121.547996666667","24.9807366666667","6500600","新店區"
"231045","898-TW","2017/08/24 19:03:35","新北市新店區北宜路一段54號","121.538381666667","24.95633","6500600","新店區"
"231043","899-TW","2017/08/24 19:04:10","新北市新店區北新路二段98號","121.543045","24.9731966666667","6500600","新店區"
"231066","AKT-0513","2017/08/24 19:04:50","新北市新店區安康路二段458號","121.49398","24.9541133333333","6500600","新店區"
"241026","066-VK","2017/08/24 19:02:15","新北市三重區泉州街110號","121.494765","25.0535466666667","6500200","三重區"
"241020","480-VK","2017/08/24 19:05:23","新北市三重區忠孝路二段2號","121.487118333333","25.0715033333333","6500200","三重區"
"241029","942-UM","2017/08/24 19:03:47","新北市三重區重安街13巷32號","121.490886666667","25.0560966666667","6500200","三重區"
"235066","003-UY","2017/08/24 19:05:39","新北市中和區光華街33號","121.504991666667","25.0039983333333","6500300","中和區"
"235064","005-UY","2017/08/24 19:02:26","新北市中和區泰和街7號","121.49979","25.0005633333333","6500300","中和區"
"235063","006-UY","2017/08/24 19:08:57","新北市中和區中正路636號","121.48553","24.9963116666667","6500300","中和區"
"235056","096-UM","2017/08/24 19:05:34","新北市中和區中正路1218號","121.479721666667","25.0106683333333","6500300","中和區"
"235039","097-UM","2017/08/24 19:05:09","新北市中和區安平路190號","121.51319","24.9990183333333","6500300","中和區"
"235065","098-UM","2017/08/24 19:04:48","新北市中和區勝利路35巷3弄10號","121.49955","25.00714","6500300","中和區"
"235040","150-BY","2017/08/24 19:06:12","新北市中和區宜安路11巷5號","121.513051666667","24.9953766666667","6500300","中和區"
"235058","151-BY","2017/08/24 19:06:19","新北市中和區連城路428巷13號","121.479803333333","24.995595","6500300","中和區"
"235055","183-VK","2017/08/24 19:04:34","新北市中和區民德路25巷7弄2號","121.469701666667","25.0030566666667","6500300","中和區"
"235038","185-VK","2017/08/24 19:07:48","新北市中和區自強路52號","121.520181666667","24.9948016666667","6500300","中和區"
"235049","186-VK","2017/08/24 19:03:53","新北市中和區景安路167巷2號","121.50552","24.9943916666667","6500300","中和區"
"235067","255-BX","2017/08/24 19:02:14","新北市中和區民樂路81號","121.48481","25.0014433333333","6500300","中和區"
"235044","293-VK","2017/08/24 19:08:47","新北市中和區中興街159號","121.499886666667","24.9909066666667","6500300","中和區"
"235072","301-VK","2017/08/24 19:04:32","新北市中和區中山路二段132號","121.502415","25.0033583333333","6500300","中和區"
"235043","352-BY","2017/08/24 19:05:06","新北市中和區景平路3號","121.52368","24.9904983333333","6500300","中和區"
"235051","376-QA","2017/08/24 19:05:14","新北市中和區忠孝街9號","121.509908333333","24.9829916666667","6500300","中和區"
"235068","377-QA","2017/08/24 19:07:15","新北市中和區圓通路162巷12號","121.496735","24.9955566666667","6500300","中和區"
"235061","378-QA","2017/08/24 19:03:28","新北市中和區民享街89巷9弄3號","121.474806666667","25.0019816666667","6500300","中和區"
"235050","4979-A6","2017/08/24 19:05:15","新北市中和區復興路249巷11弄3號","121.503553333333","24.989735","6500300","中和區"
"235069","4980-A6","2017/08/24 19:06:19","新北市中和區南山路11號","121.502151666667","24.9993166666667","6500300","中和區"
"235042","551-UM","2017/08/24 19:03:45","新北市中和區秀朗路三段24-1號","121.526266666667","24.9963316666667","6500300","中和區"
"235070","558-UM","2017/08/24 19:06:33","新北市中和區中和路174號","121.504615","24.9997183333333","6500300","中和區"
"235045","565-BX","2017/08/24 19:06:03","新北市中和區景新街467巷20弄13號","121.514666666667","24.9874033333333","6500300","中和區"
"235054","640-BX","2017/08/24 19:05:34","新北市中和區民享街6號","121.474038333333","25.0049666666667","6500300","中和區"
"235060","647-TV","2017/08/24 19:04:37","新北市中和區民治街17巷2號","121.47529","25.0028883333333","6500300","中和區"
"235047","732-UM","2017/08/24 19:02:27","新北市中和區興南路二段34巷23號","121.50629","24.9860966666667","6500300","中和區"
"235046","733-UM","2017/08/24 19:08:43","新北市中和區興南路二段31巷17號","121.508068333333","24.9852483333333","6500300","中和區"
"235062","800-TS","2017/08/24 19:07:16","新北市中和區中山路二段356號","121.492825","25.0028783333333","6500300","中和區"
"235057","801-TS","2017/08/24 19:03:59","新北市中和區民安街53號","121.479413333333","24.9999666666667","6500300","中和區"
"235041","802-TS","2017/08/24 19:04:49","新北市中和區安平路133號","121.511603333333","24.9981416666667","6500300","中和區"
"235052","805-TS","2017/08/24 19:07:08","新北市中和區興南路二段142巷12-3號","121.503143333333","24.9838633333333","6500300","中和區"
"235048","896-TW","2017/08/24 19:08:31","新北市中和區工專路147號","121.508448333333","24.97881","6500300","中和區"
"235053","900-TW","2017/08/24 19:04:55","新北市中和區民德路360號","121.466276666667","24.9938183333333","6500300","中和區"
"235071","911-UM","2017/08/24 19:06:20","新北市中和區中正路637巷52弄3號","121.485278333333","24.9938066666667","6500300","中和區"
"235037","AAC-213","2017/08/24 19:07:28","新北市中和區秀朗路三段10巷37弄1號","121.524186666667","24.9960383333333","6500300","中和區"
"235059","AAC-215","2017/08/24 19:05:41","新北市中和區圓通路296巷20號","121.488018333333","24.989645","6500300","中和區"
"220068","013-TV","2017/08/24 19:03:56","新北市板橋區中山路二段465巷3號","121.481721666667","25.020775","6500100","板橋區"
"220065","072-UY","2017/08/24 19:04:40","新北市板橋區民族路271號","121.47078","25.00685","6500100","板橋區"
"220086","073-UY","2017/08/24 19:02:22","新北市板橋區中正路107號","121.456403333333","25.0148266666667","6500100","板橋區"
"220106","075-UY","2017/08/24 19:05:44","新北市板橋區莒光路5號","121.469686666667","25.02484","6500100","板橋區"
"220069","AAD-861","2017/08/24 19:02:28","新北市板橋區華興街63號","121.457331666667","25.004905","6500100","板橋區"
"220102","120-SR","2017/08/24 19:03:44","新北市板橋區田單街2巷1號","121.4818","25.0290816666667","6500100","板橋區"
"226004","312-R5","2017/08/24 19:06:55","新北市平溪區靜安路三段67號","121.766743333333","25.032805","6502400","平溪區"
"228003","097-TW","2017/08/24 19:03:36","新北市貢寮區和美里和美街48號","121.916773333333","25.0983666666667","6502600","貢寮區"
"228001","212-TW","2017/08/24 19:05:05","新北市貢寮區仁理村仁愛路39號","121.924983333333","25.053325","6502600","貢寮區"
"228002","585-TW","2017/08/24 19:05:00","新北市貢寮區福隆里福隆街36號","121.945101666667","25.0174416666667","6502600","貢寮區"
"224011","AGQ-8101","2017/08/24 19:01:50","新北市瑞芳區基山街41號","121.845466666667","25.10916","6501200","瑞芳區"
"224006","676-BX","2017/08/24 19:02:18","新北市瑞芳區明燈路三段1號","121.80914","25.1072266666667","6501200","瑞芳區"
"224011","420-VK","2017/08/24 19:02:19","新北市瑞芳區崙頂路1-6號","121.847028333333","25.1047116666667","6501200","瑞芳區"
"224009","285-BY","2017/08/24 19:02:30","新北市瑞芳區五號路253-1號","121.856003333333","25.1127583333333","6501200","瑞芳區"
"224008","275-VK","2017/08/24 19:02:34","新北市瑞芳區瑞芳街104號","121.801708333333","25.1105366666667","6501200","瑞芳區"
"224007","273-VK","2017/08/24 19:07:43","新北市瑞芳區瑞竹路11號","121.764505","25.1033883333333","6501200","瑞芳區"
"224005","271-BY","2017/08/24 19:02:21","新北市瑞芳區瑞濱路1-8號","121.82841","25.1215316666667","6501200","瑞芳區"
"227004","642-TC","2017/08/24 19:08:37","新北市雙溪區平林里外平林9-5號","121.859151666667","25.0380066666667","6502500","雙溪區"
"227010","400-TW","2017/08/24 19:02:41","新北市雙溪區牡丹里中正路58巷5號","121.866451666667","25.0407366666667","6502500","雙溪區"
"253006","032-BX","2017/08/24 19:07:32","新北市石門區海灣新城1號","121.52313","25.2853433333333","6502200","石門區"
"253005","295-VK","2017/08/24 19:05:41","新北市石門區尖子鹿104-4號","121.578096666667","25.29738","6502200","石門區"
"208002","742-BX","2017/08/24 19:03:15","新北市金山區仁愛路69號","121.63485","25.2210333333333","6502700","金山區"
"208003","665-BX","2017/08/24 19:03:55","新北市金山區中正路131號","121.632643333333","25.2215066666667","6502700","金山區"
"208001","761-BX","2017/08/24 19:03:53","新北市金山區民生路212號","121.640958333333","25.2207166666667","6502700","金山區"
"251009","008-UM","2017/08/24 19:03:10","新北市淡水區重建街58號","121.439895","25.1716783333333","6501000","淡水區"
"251004","009-UM","2017/08/24 19:05:29","新北市淡水區中正東路二段143巷2弄1號","121.46082","25.1473483333333","6501000","淡水區"
"251007","179-VK","2017/08/24 19:05:11","新北市淡水區民生路145巷58號","121.46808","25.1388266666667","6501000","淡水區"
"251008","181-VK","2017/08/24 19:08:06","新北市淡水區下圭柔山91-4號","121.428936666667","25.2079183333333","6501000","淡水區"
"251014","182-VK","2017/08/24 19:02:25","新北市淡水區小中寮22號","121.489381666667","25.2293433333333","6501000","淡水區"
"251010","413-VK","2017/08/24 19:04:19","新北市淡水區中正路一段156巷3號","121.421185","25.1803533333333","6501000","淡水區"
"251012","441-VK","2017/08/24 19:08:55","新北市淡水區下圭柔山91-3號","121.430895","25.2095766666667","6501000","淡水區"
"251016","442-VK","2017/08/24 19:06:41","新北市淡水區淡金路三段70巷1號","121.448295","25.2004016666667","6501000","淡水區"
"251005","443-VK","2017/08/24 19:06:56","新北市淡水區新市一路一段99巷37號","121.430065","25.1890733333333","6501000","淡水區"
"251001","559-UM","2017/08/24 19:05:46","新北市淡水區自強路201號","121.463885","25.1262016666667","6501000","淡水區"
"251011","650-BX","2017/08/24 19:08:25","新北市淡水區中正東路二段143巷2弄1號","121.460585","25.14728","6501000","淡水區"
"251002","672-BX","2017/08/24 19:03:16","新北市淡水區中山路8號","121.444868333333","25.16896","6501000","淡水區"
"251003","766-UM","2017/08/24 19:06:26","新北市淡水區大義街3號","121.443718333333","25.178175","6501000","淡水區"
"207003","550-UM","2017/08/24 19:04:15","新北市萬里區大鵬里萬里加投21-6號","121.647715","25.2114366666667","6502800","萬里區"
"207004","225-TW","2017/08/24 19:02:34","新北市萬里區萬里里獅頭路23號","121.693201666667","25.1782116666667","6502800","萬里區"
"252005","073-UM","2017/08/24 18:17:35","新北市三芝區埔坪里埔頭坑41號","121.504343333333","25.2645766666667","6502100","三芝區"
"252002","178-VK","2017/08/24 19:02:30","新北市三芝區中正路一段74號","121.503958333333","25.2574666666667","6502100","三芝區"
"252003","249-BX","2017/08/24 19:04:28","新北市三芝區後厝里北勢子12號","121.4752","25.2555316666667","6502100","三芝區"
"252001","292-VK","2017/08/24 19:07:17","新北市三芝區長勤街102號","121.500021666667","25.254765","6502100","三芝區"
"237004","078-UY","2017/08/24 19:03:58","新北市三峽區有木179-2號","121.445378333333","24.8326266666667","6500900","三峽區"
"237007","153-BY","2017/08/24 19:06:35","新北市三峽區中正路二段273號","121.366016666667","24.911465","6500900","三峽區"
"237013","252-BX","2017/08/24 19:04:48","新北市三峽區光明路69巷25號","121.376711666667","24.92922","6500900","三峽區"
"237012","275-BY","2017/08/24 19:06:32","新北市三峽區三樹路222巷228弄19-3號","121.391533333333","24.9419316666667","6500900","三峽區"
"237008","302-VK","2017/08/24 19:07:51","新北市三峽區正義街9號","121.370006666667","24.92","6500900","三峽區"
"237014","433-BY","2017/08/24 19:08:56","新北市三峽區大勇路18-1號","121.36704","24.9380616666667","6500900","三峽區"
"237006","5529-G3","2017/08/24 19:02:59","新北市三峽區溪東路233巷4弄29號","121.407615","24.9339116666667","6500900","三峽區"
"237011","572-TV","2017/08/24 19:05:03","新北市三峽區介壽路三段107號","121.395566666667","24.939775","6500900","三峽區"
"237016","649-BX","2017/08/24 19:06:48","新北市三峽區建安80-3號","121.452863333333","24.922005","6500900","三峽區"
"237010","706-TV","2017/08/24 19:02:46","新北市三峽區國光街362號","121.371001666667","24.9397916666667","6500900","三峽區"
"237005","AKY-6261","2017/08/24 19:08:14","新北市三峽區中山路459巷163-3號","121.348666666667","24.932905","6500900","三峽區"
"236071","105-UM","2017/08/24 19:05:14","新北市土城區清水路68號","121.45619","24.9816133333333","6501300","土城區"
"236042","107-UM","2017/08/24 19:03:35","新北市土城區學府路一段189巷7號","121.45247","24.9846733333333","6501300","土城區"
"236078","166-UM","2017/08/24 19:03:41","新北市土城區中央路四段121號","121.416343333333","24.95749","6501300","土城區"
"236026","269-VK","2017/08/24 19:06:12","新北市土城區中正路56巷2號","121.443873333333","24.9752833333333","6501300","土城區"
"236037","271-VK","2017/08/24 19:04:05","新北市土城區青仁路60號","121.461448333333","24.9793766666667","6501300","土城區"
"236021","401-BY","2017/08/24 19:03:07","新北市土城區延吉街168巷3號","121.46824","24.9855816666667","6501300","土城區"
"236014","752-BX","2017/08/24 19:04:36","新北市土城區學府路一段39號","121.457808333333","24.9882966666667","6501300","土城區"
"236058","912-UM","2017/08/24 19:04:20","新北市土城區金城路二段226號","121.456455","24.9827883333333","6501300","土城區"
"236051","913-UM","2017/08/24 19:04:01","新北市土城區明德路一段398-1號","121.453596666667","24.9790616666667","6501300","土城區"
"236062","915-UM","2017/08/24 19:02:18","新北市土城區金城路三段93巷25號","121.466726666667","24.9886","6501300","土城區"
"236053","AAC-216","2017/08/24 19:04:26","新北市土城區學成路91巷2號","121.450811666667","24.9885283333333","6501300","土城區"
"242058","353-BY","2017/08/24 18:49:02","新北市新莊區新泰路255巷83號","121.442205","25.0387583333333","6500500","新莊區"
"238023","601-UM","2017/08/24 19:02:31","新北市樹林區工興街35巷1號","121.401436666667","25.0132216666667","6500700","樹林區"
"238019","599-UM","2017/08/24 19:02:46","新北市樹林區東華街73號","121.415625","24.9808383333333","6500700","樹林區"
"238018","571-TV","2017/08/24 19:02:12","新北市樹林區太元街2巷7號","121.41713","24.9809383333333","6500700","樹林區"
"238022","312-TH","2017/08/24 19:04:00","新北市樹林區中山路二段151巷15弄48號","121.408111666667","24.9769716666667","6500700","樹林區"
"238021","311-TH","2017/08/24 19:06:59","新北市樹林區柑園街二段276巷40號","121.371631666667","24.95436","6500700","樹林區"
"238008","308-TH","2017/08/24 13:35:23","新北市樹林區育德街76巷1號","121.388723333333","24.968365","6500700","樹林區"
"238025","303-VK","2017/08/24 19:07:13","新北市樹林區民和街2號","121.385591666667","24.9685166666667","6500700","樹林區"
"238017","283-BY","2017/08/24 19:08:01","新北市樹林區保安街一段332號","121.418208333333","24.9978533333333","6500700","樹林區"
"238014","282-BY","2017/08/24 19:03:30","新北市樹林區潭興街24號","121.425233333333","24.9990466666667","6500700","樹林區"
"238020","268-VK","2017/08/24 19:02:13","新北市樹林區俊英街190號","121.425968333333","25.008065","6500700","樹林區"
"238026","172-UY","2017/08/24 19:05:52","新北市樹林區佳園路一段46號","121.39297","24.9708216666667","6500700","樹林區"
"238016","169-UY","2017/08/24 19:03:26","新北市樹林區文化街25巷26號","121.418101666667","24.98666","6500700","樹林區"
"239007","AAC-297","2017/08/24 19:07:46","新北市鶯歌區中正一路225號","121.354123333333","24.9574716666667","6500800","鶯歌區"
"239006","891-R6","2017/08/24 19:07:45","新北市鶯歌區鶯桃路296巷94弄17號","121.337446666667","24.961665","6500800","鶯歌區"
"239008","527-UM","2017/08/24 19:04:59","新北市鶯歌區國際二路14巷2號","121.337613333333","24.9746583333333","6500800","鶯歌區"
"239005","526-UM","2017/08/24 19:07:25","新北市鶯歌區中湖街2號","121.346321666667","24.9729","6500800","鶯歌區"
"239001","417-VK","2017/08/24 19:03:01","新北市鶯歌區陽明街7號","121.341166666667","24.9565416666667","6500800","鶯歌區"
"239003","360-BY","2017/08/24 19:07:02","新北市鶯歌區鶯桃路393號","121.333346666667","24.9638683333333","6500800","鶯歌區"
"239004","193-VK","2017/08/24 19:05:13","新北市鶯歌區中正三路194巷2-3號","121.33267","24.938525","6500800","鶯歌區"
"221008","489-VK","2017/08/24 19:04:12","新北市汐止區康寧街504號","121.633071666667","25.0685733333333","6501100","汐止區"
"221036","130-UY","2017/08/24 19:06:13","新北市汐止區忠孝東路314巷19弄4號","121.664565","25.0683666666667","6501100","汐止區"
"221015","131-UY","2017/08/24 19:05:17","新北市汐止區禮門街1號","121.65658","25.067195","6501100","汐止區"
"221010","269-BY","2017/08/24 19:02:18","新北市汐止區康寧街901號","121.651435","25.0750216666667","6501100","汐止區"
"221012","276-VK","2017/08/24 13:24:31","新北市汐止區汐萬路一段256巷3號","121.653465","25.0746233333333","6501100","汐止區"
"221031","277-VK","2017/08/24 19:08:21","新北市汐止區福德二路156巷23號","121.629893333333","25.06574","6501100","汐止區"
"221012","278-VK","2017/08/24 19:07:41","新北市汐止區康寧街901號","121.650858333333","25.075275","6501100","汐止區"
"221023","279-VK","2017/08/24 19:04:13","新北市汐止區康寧街901號","121.651056666667","25.07518","6501100","汐止區"
"221032","280-BY","2017/08/24 19:06:03","新北市汐止區橫科路241-5號","121.622488333333","25.0487","6501100","汐止區"
"221027","281-BY","2017/08/24 19:07:19","新北市汐止區康寧街901號","121.650911666667","25.0752316666667","6501100","汐止區"
"221038","297-VK","2017/08/24 19:08:22","新北市汐止區汐萬路一段312號","121.650693333333","25.075285","6501100","汐止區"
"221029","298-VK","2017/08/24 19:07:51","新北市汐止區汐萬路一段256巷3號","121.652256666667","25.074685","6501100","汐止區"
"221021","299-VK","2017/08/24 19:04:50","新北市汐止區康寧街901號","121.651428333333","25.0749633333333","6501100","汐止區"
"221025","623-UM","2017/08/24 19:06:00","新北市汐止區汐萬路一段256巷3號","121.653306666667","25.074645","6501100","汐止區"
"221033","647-BX","2017/08/24 19:06:35","新北市汐止區南勢街3號","121.627075","25.0373983333333","6501100","汐止區"
"221002","707-TV","2017/08/24 19:05:45","新北市汐止區大同路一段2號","121.621025","25.0549633333333","6501100","汐止區"
"221018","753-BX","2017/08/24 19:05:57","新北市汐止區汐萬路一段256巷3號","121.653473333333","25.07452","6501100","汐止區"
"220079","145-BY","2017/08/24 19:03:21","新北市板橋區公館街27號","121.461063333333","25.0153216666667","6500100","板橋區"
"220080","200-UY","2017/08/24 19:06:20","新北市板橋區大觀路二段153巷46弄10號","121.448996666667","24.9996666666667","6500100","板橋區"
"220082","610-BX","2017/08/24 19:02:24","新北市板橋區溪崑二街89號","121.427326666667","24.98934","6500100","板橋區"
"220075","256-TC","2017/08/24 19:04:55","新北市板橋區館前西路104號","121.457056666667","25.0074083333333","6500100","板橋區"
"220050","267-BY","2017/08/24 19:02:45","新北市板橋區莊敬路151號","121.471706666667","25.0248016666667","6500100","板橋區"
"220056","276-BY","2017/08/24 19:02:32","新北市板橋區信義路150巷51號","121.457163333333","24.9918033333333","6500100","板橋區"
"220072","277-BY","2017/08/24 19:05:45","新北市板橋區溪北路154號","121.430481666667","24.9882433333333","6500100","板橋區"
"220094","283-UM","2017/08/24 19:04:27","新北市板橋區光武街97號","121.466725","25.0272516666667","6500100","板橋區"
"220071","283-VK","2017/08/24 19:04:02","新北市板橋區忠孝路176巷1號","121.464655","25.0021333333333","6500100","板橋區"
"220081","287-VK","2017/08/24 19:08:32","新北市板橋區光華街39巷25號","121.45304","25.0130033333333","6500100","板橋區"
"220090","288-VK","2017/08/24 19:02:22","新北市板橋區四維路177巷4弄10號","121.46363","25.0263366666667","6500100","板橋區"
"220061","293-UM","2017/08/24 19:02:46","新北市板橋區富山街109巷69號","121.475316666667","25.0212616666667","6500100","板橋區"
"220084","296-UM","2017/08/24 19:07:15","新北市板橋區大觀路二段142-1號","121.442646666667","24.999085","6500100","板橋區"
"220062","303-R5","2017/08/24 19:06:39","新北市板橋區民生路二段15-1號","121.472691666667","25.01626","6500100","板橋區"
"220092","307-R5","2017/08/24 19:07:32","新北市板橋區文化路一段419號","121.46775","25.0225816666667","6500100","板橋區"
"220098","317-R6","2017/08/24 19:03:03","新北市板橋區四維路112巷33號","121.465276666667","25.025825","6500100","板橋區"
"220064","486-VK","2017/08/24 19:02:48","新北市板橋區縣民大道二段106號","121.466831666667","25.01533","6500100","板橋區"
"220089","487-VK","2017/08/24 19:05:06","新北市板橋區長江路三段127號","121.475433333333","25.0346383333333","6500100","板橋區"
"220088","491-VK","2017/08/24 19:04:50","新北市板橋區文化路二段182巷7弄10號","121.47231","25.0272633333333","6500100","板橋區"
"220035","560-BX","2017/08/24 19:04:41","新北市板橋區中正路290號","121.454981666667","25.020275","6500100","板橋區"
"220103","561-BX","2017/08/24 19:05:15","新北市板橋區文化路一段188巷11弄14號","121.468861666667","25.01861","6500100","板橋區"
"220053","568-UM","2017/08/24 19:03:30","新北市板橋區永豐街49巷17號","121.47358","25.01758","6500100","板橋區"
"220063","609-BX","2017/08/24 19:02:52","新北市板橋區中山路二段126號","121.476233333333","25.0168683333333","6500100","板橋區"
"220083","630-UY","2017/08/24 19:03:35","新北市板橋區大觀路一段38巷156弄77號","121.443016666667","25.0067966666667","6500100","板橋區"
"220091","637-BX","2017/08/24 19:02:25","新北市板橋區大同街53號","121.47859","25.027545","6500100","板橋區"
"220057","686-BX","2017/08/24 19:02:16","新北市板橋區館前西路47號","121.458003333333","25.0069333333333","6500100","板橋區"
"220077","687-BX","2017/08/24 19:03:48","新北市板橋區大觀路二段142-6號","121.44225","24.99885","6500100","板橋區"
"220093","689-BX","2017/08/24 19:03:03","新北市板橋區民生路三段172號","121.465345","25.0288266666667","6500100","板橋區"
"220054","741-BX","2017/08/24 19:02:30","新北市板橋區後埔街13號","121.46039","25.0067966666667","6500100","板橋區"
"220055","827-TW","2017/08/24 19:02:16","新北市板橋區中山路一段158號","121.46601","25.0117833333333","6500100","板橋區"
"220067","829-TW","2017/08/24 19:03:25","新北市板橋區三民路二段正隆巷12弄23號","121.477385","25.0137883333333","6500100","板橋區"
"220096","831-TW","2017/08/24 19:02:20","新北市板橋區莒光路137號","121.473313333333","25.02407","6500100","板橋區"
"220074","895-R6","2017/08/24 19:05:39","新北市板橋區府中路90號","121.456176666667","25.0096966666667","6500100","板橋區"
"220073","985-R7","2017/08/24 19:02:27","新北市板橋區民權路204號","121.458981666667","25.0139316666667","6500100","板橋區"
"220097","AAC-210","2017/08/24 19:05:22","新北市板橋區國光路196號","121.46156","25.0184383333333","6500100","板橋區"
"220070","AAC-253","2017/08/24 19:02:33","新北市板橋區四川路一段63號","121.459641666667","25.00605","6500100","板橋區"
