"lineid","car","time","location","longitude","latitude","cityid","cityname"
"234046","148-BY","2017/08/24 19:31:31","新北市永和區秀朗路二段190號","121.526451666667","25.0006833333333","6500400","永和區"
"234013","149-BY","2017/08/24 19:33:23","新北市永和區永平路220號","121.509091666667","25.01055","6500400","永和區"
"234007","207-UY","2017/08/24 19:20:43","新北市永和區中山路一段129號","121.510571666667","25.0100116666667","6500400","永和區"
"234081","298-R6","2017/08/24 19:20:53","新北市永和區福和路7巷7號","121.52534","25.0078366666667","6500400","永和區"
"234036","336-UY","2017/08/24 19:22:55","新北市永和區成功路二段47巷11號","121.527438333333","25.0003216666667","6500400","永和區"
"234064","337-UY","2017/08/24 19:22:53","新北市永和區秀朗路二段46號","121.521431666667","25.002345","6500400","永和區"
"234086","338-UY","2017/08/24 19:24:21","新北市永和區永利路72號","121.520255","25.004315","6500400","永和區"
"234070","552-UM","2017/08/24 19:30:27","新北市永和區永和路二段235號","121.515605","25.0143466666667","6500400","永和區"
"234054","553-UM","2017/08/24 19:18:05","新北市永和區中興街58號","121.517006666667","25.0116516666667","6500400","永和區"
"234017","745-BX","2017/08/24 19:27:22","新北市永和區環河西路一段51巷1號","121.514118333333","25.0181866666667","6500400","永和區"
"234030","746-BX","2017/08/24 19:22:56","新北市中和區自立路3號","121.522565","24.99669","6500400","永和區"
"234061","AAD-866","2017/08/24 19:23:41","新北市永和區秀朗路一段97巷1號","121.51552","25.006315","6500400","永和區"
"234042","862-TW","2017/08/24 19:16:36","新北市永和區保平路177巷6弄6號","121.509598333333","25.0046683333333","6500400","永和區"
"234050","863-TW","2017/08/24 19:33:05","新北市永和區保福路二段163巷2號","121.509321666667","25.0149083333333","6500400","永和區"
"234026","9371-KE","2017/08/24 19:36:00","新北市永和區中和路503號","121.510658333333","25.0023066666667","6500400","永和區"
"234011","9373-KE","2017/08/24 19:40:07","新北市永和區保生路55-1號","121.504486666667","25.01094","6500400","永和區"
"249005","172-UM","2017/08/24 19:52:36","新北市八里區中華路三段170-1號","121.392215","25.1304316666667","6502300","八里區"
"249002","305-UY","2017/08/24 19:54:35","新北市八里區頂寮一街52號","121.45038","25.1244583333333","6502300","八里區"
"249003","593-UM","2017/08/24 19:56:29","新北市八里區中華路二段560巷5號","121.39855","25.1449333333333","6502300","八里區"
"248014","025-BX","2017/08/24 19:48:04","新北市五股區五福路52巷25號","121.43451","25.0902783333333","6501500","五股區"
"248016","026-BX","2017/08/24 19:49:03","新北市五股區成泰路四段24-5號","121.453596666667","25.1068766666667","6501500","五股區"
"248006","077-UY","2017/08/24 19:20:32","新北市五股區中興路二段37巷28號","121.460256666667","25.0750183333333","6501500","五股區"
"248008","095-VK","2017/08/24 19:55:59","新北市五股區四維路155巷2號","121.467678333333","25.0745916666667","6501500","五股區"
"248010","272-BY","2017/08/24 19:56:46","新北市五股區登林路90號","121.428908333333","25.0693516666667","6501500","五股區"
"248004","677-BX","2017/08/24 19:37:31","新北市五股區工商路142號","121.434941666667","25.0866066666667","6501500","五股區"
"248002","678-BX","2017/08/24 19:44:16","新北市五股區成泰路三段577巷2號","121.452053333333","25.102745","6501500","五股區"
"248012","682-TV","2017/08/24 19:51:21","新北市五股區蓬萊路1-3號","121.434376666667","25.0796883333333","6501500","五股區"
"234023","9380-KE","2017/08/24 19:25:41","新北市永和區竹林路91巷18號","121.520448333333","25.01229","6500400","永和區"
"234077","969-R7","2017/08/24 19:20:23","新北市永和區民治街70號","121.517788333333","24.9980616666667","6500400","永和區"
"234074","AAC-211","2017/08/24 19:31:40","新北市永和區光復街60巷25號","121.51776","25.01752","6500400","永和區"
"234067","AAC-212","2017/08/24 20:00:47","新北市永和區永貞路404號","121.509205","25.00761","6500400","永和區"
"234003","AAC-295","2017/08/24 19:31:58","新北市永和區自由街15號","121.514875","25.006875","6500400","永和區"
"232001","291-BY","2017/08/24 09:28:11","新北市坪林區北宜路八段558號","121.718041666667","24.909095","6502000","坪林區"
"244001","483-VK","2017/08/24 14:32:21","新北市林口區粉寮69號","121.405025","25.090955","6501700","林口區"
"243013","AAD-798","2017/08/24 19:34:38","新北市泰山區貴子路8號","121.425235","25.0420316666667","6501600","泰山區"
"243009","297-R6","2017/08/24 19:51:34","新北市泰山區美寧街60號","121.430978333333","25.0645966666667","6501600","泰山區"
"243015","380-SR","2017/08/24 19:26:35","新北市泰山區明志路二段81號","121.428883333333","25.0522383333333","6501600","泰山區"
"243014","421-VK","2017/08/24 19:37:18","新北市泰山區泰林路二段33-7號","121.435228333333","25.0564533333333","6501600","泰山區"
"243010","548-UM","2017/08/24 19:29:49","新北市泰山區民權街41號","121.429226666667","25.0508583333333","6501600","泰山區"
"243011","549-UM","2017/08/24 19:39:30","新北市泰山區明志路三段204巷10弄2號","121.423463333333","25.0384616666667","6501600","泰山區"
"243012","646-TV","2017/08/24 19:34:24","新北市泰山區全興路237號","121.435503333333","25.053755","6501600","泰山區"
"243016","680-BX","2017/08/24 19:20:08","新北市泰山區工專路20號","121.423733333333","25.0396883333333","6501600","泰山區"
"222003","436-BY","2017/08/24 19:57:00","新北市深坑區深南路51-1號","121.621173333333","25.009765","6501800","深坑區"
"222002","659-BX","2017/08/24 19:56:37","新北市深坑區北深路二段55巷12弄12號","121.618696666667","25.0032633333333","6501800","深坑區"
"222001","696-SL","2017/08/24 19:47:13","新北市深坑區北深路三段62號","121.608038333333","25.00134","6501800","深坑區"
"231059","001-UM","2017/08/24 19:25:34","新北市新店區安和路三段118號","121.516943333333","24.985565","6500600","新店區"
"231041","002-UM","2017/08/24 19:37:03","新北市新店區中正路485號","121.533791666667","24.9818333333333","6500600","新店區"
"231061","047-UY","2017/08/24 19:32:47","新北市新店區安民街88巷1號","121.516641666667","24.9675816666667","6500600","新店區"
"231060","106-UY","2017/08/24 19:32:52","新北市新店區安康路二段57-1號","121.5141","24.9632483333333","6500600","新店區"
"231051","107-UY","2017/08/24 19:40:43","新北市新店區中央四街81號","121.52636","24.9758666666667","6500600","新店區"
"231047","108-UY","2017/08/24 19:40:42","新北市新店區中興路一段306號","121.546661666667","24.9697383333333","6500600","新店區"
"231052","187-VK","2017/08/24 19:42:44","新北市新店區新烏路二段489號","121.552263333333","24.9086516666667","6500600","新店區"
"231007","189-VK","2017/08/24 16:33:36","新北市新店區安華路28-1號","121.519551666667","24.9609266666667","6500600","新店區"
"231046","278-BY","2017/08/24 19:52:28","新北市新店區福園街8巷16號","121.53247","24.9736133333333","6500600","新店區"
"231050","AAD-862","2017/08/24 19:46:34","新北市新店區北宜路二段579巷4號","121.565291666667","24.9540283333333","6500600","新店區"
"231058","3712-VJ","2017/08/24 19:47:05","新北市新店區中正路129號","121.541946666667","24.971295","6500600","新店區"
"231055","3713-VJ","2017/08/24 19:53:11","新北市新店區力行路14巷16弄6號","121.539408333333","24.9655266666667","6500600","新店區"
"231067","4772-VM","2017/08/24 20:01:00","新北市新店區秀山路11巷12弄15號","121.531468333333","24.9595216666667","6500600","新店區"
"231065","512-UM","2017/08/24 19:47:29","新北市新店區安祥路109巷85弄16號","121.478116666667","24.9597883333333","6500600","新店區"
"231054","513-UM","2017/08/24 19:39:25","新北市新店區北宜路一段41號","121.53829","24.95725","6500600","新店區"
"231042","616-UM","2017/08/24 19:46:55","新北市新店區中興路一段271號","121.544978333333","24.9681366666667","6500600","新店區"
"231040","619-UM","2017/08/24 19:26:51","新北市新店區中華路38號","121.54004","24.9681016666667","6500600","新店區"
"231063","645-TV","2017/08/24 19:46:41","新北市新店區車子路121號","121.50529","24.9504383333333","6500600","新店區"
"231049","719-UM","2017/08/24 19:37:26","新北市新店區大豐路22號","121.540705","24.9800733333333","6500600","新店區"
"231064","719-UY","2017/08/24 19:20:46","新北市新店區安忠路57巷26弄70號","121.51216","24.9573983333333","6500600","新店區"
"231062","720-UM","2017/08/24 19:44:16","新北市新店區碧潭路2號","121.53489","24.9565416666667","6500600","新店區"
"231044","897-TW","2017/08/24 19:32:54","新北市新店區中興路三段133號","121.544518333333","24.9792633333333","6500600","新店區"
"231045","898-TW","2017/08/24 19:37:35","新北市新店區北宜路二段108-1號","121.555786666667","24.9536566666667","6500600","新店區"
"231043","899-TW","2017/08/24 19:40:29","新北市新店區北新路二段102號","121.542981666667","24.9736733333333","6500600","新店區"
"241011","013-R5","2017/08/24 19:49:02","新北市三重區三和路二段173巷43號","121.499278333333","25.070175","6500200","三重區"
"241028","022-UY","2017/08/24 19:55:21","新北市三重區中正南路81號","121.494276666667","25.0585283333333","6500200","三重區"
"241008","059-VK","2017/08/24 19:49:40","新北市三重區永福街80號","121.478823333333","25.076395","6500200","三重區"
"241009","060-VK","2017/08/24 19:48:04","新北市三重區三和路四段394號","121.481606666667","25.0791866666667","6500200","三重區"
"241031","061-VK","2017/08/24 19:54:08","新北市三重區重新路四段184巷25弄7號","121.487378333333","25.0544266666667","6500200","三重區"
"241015","062-VK","2017/08/24 19:56:10","新北市三重區福德北路66號","121.501838333333","25.065895","6500200","三重區"
"241017","063-VK","2017/08/24 20:01:11","新北市三重區重陽路三段115號","121.490746666667","25.0687216666667","6500200","三重區"
"241026","066-VK","2017/08/24 19:54:15","新北市三重區中央南路26號","121.50132","25.0625916666667","6500200","三重區"
"241002","090-VK","2017/08/24 20:01:10","新北市三重區仁忠街101號","121.492336666667","25.079945","6500200","三重區"
"241003","091-VK","2017/08/24 20:00:59","新北市三重區仁愛街445巷47號","121.49113","25.08308","6500200","三重區"
"241006","156-TC","2017/08/24 19:51:27","新北市三重區永福街281號","121.482538333333","25.0743566666667","6500200","三重區"
"241030","265-UM","2017/08/24 19:54:18","新北市三重區環河南路254巷78號","121.489021666667","25.051625","6500200","三重區"
"241016","266-UM","2017/08/24 19:51:50","新北市三重區正義北路48巷47號","121.495988333333","25.0635966666667","6500200","三重區"
"241022","267-UM","2017/08/24 19:42:11","新北市三重區中正北路112號","121.48595","25.0651266666667","6500200","三重區"
"241018","268-UM","2017/08/24 20:01:11","新北市三重區大智街49號","121.492793333333","25.0676333333333","6500200","三重區"
"241032","269-UM","2017/08/24 19:54:52","新北市三重區重陽路一段60巷30弄4號","121.485268333333","25.0577983333333","6500200","三重區"
"241013","270-UM","2017/08/24 19:57:33","新北市三重區三和路三段121號","121.492986666667","25.0730766666667","6500200","三重區"
"241007","398-BY","2017/08/24 19:48:03","新北市三重區三和路四段123號","121.484938333333","25.0777816666667","6500200","三重區"
"241004","475-VK","2017/08/24 20:01:11","新北市三重區仁愛街425巷95號","121.492318333333","25.082685","6500200","三重區"
"241019","478-VK","2017/08/24 19:57:11","新北市三重區大智街123號","121.491245","25.070205","6500200","三重區"
"241020","480-VK","2017/08/24 19:47:03","新北市三重區後竹圍街1號","121.491533333333","25.073675","6500200","三重區"
"241014","543-UM","2017/08/24 19:55:40","新北市三重區長安街82號","121.501458333333","25.06751","6500200","三重區"
"241023","545-UM","2017/08/24 20:00:58","新北市三重區頂崁街187巷10號","121.478038333333","25.066405","6500200","三重區"
"241035","743-BX","2017/08/24 19:48:43","新北市三重區文化北路33-3號","121.499296666667","25.0643566666667","6500200","三重區"
"241001","887-TS","2017/08/24 19:54:02","新北市三重區仁愛街325號","121.492353333333","25.0794966666667","6500200","三重區"
"241012","941-UM","2017/08/24 19:57:56","新北市三重區仁厚街96號","121.501108333333","25.0768916666667","6500200","三重區"
"241029","942-UM","2017/08/24 19:36:47","新北市三重區同安街122號","121.493396666667","25.0560666666667","6500200","三重區"
"241033","AAC-255","2017/08/24 19:54:48","新北市三重區中興南街3號","121.469866666667","25.04528","6500200","三重區"
"235066","003-UY","2017/08/24 19:52:39","新北市中和區南工路70號","121.506511666667","25.00207","6500300","中和區"
"235063","006-UY","2017/08/24 19:54:37","新北市中和區中正路406號","121.492498333333","24.9941616666667","6500300","中和區"
"235056","096-UM","2017/08/24 19:46:54","新北市中和區中山路三段100號","121.477048333333","25.005775","6500300","中和區"
"235039","097-UM","2017/08/24 19:52:29","新北市中和區景平路172號","121.517041666667","24.9926583333333","6500300","中和區"
"235065","098-UM","2017/08/24 19:43:48","新北市中和區永和路66巷1-1號","121.498633333333","25.00465","6500300","中和區"
"235040","150-BY","2017/08/24 19:56:32","新北市中和區保健路10巷12號","121.50758","24.9969383333333","6500300","中和區"
"235058","151-BY","2017/08/24 19:50:16","新北市中和區員山路155號","121.481145","24.9964933333333","6500300","中和區"
"235055","183-VK","2017/08/24 19:38:34","新北市中和區中山路三段179巷23號","121.47361","25.0059466666667","6500300","中和區"
"235038","185-VK","2017/08/24 19:59:07","新北市中和區自強路54號","121.520091666667","24.9947316666667","6500300","中和區"
"235049","186-VK","2017/08/24 19:36:13","新北市中和區安平路31號","121.509398333333","24.9946116666667","6500300","中和區"
"235067","255-BX","2017/08/24 19:43:34","新北市中和區新生街213號","121.483856666667","24.9996866666667","6500300","中和區"
"235044","293-VK","2017/08/24 19:53:07","新北市中和區南山路284號","121.507926666667","24.987645","6500300","中和區"
"235072","301-VK","2017/08/24 19:53:32","新北市中和區連城路275號","121.490585","24.9964266666667","6500300","中和區"
"235043","352-BY","2017/08/24 19:43:46","新北市中和區興南路一段5號","121.511538333333","24.9910416666667","6500300","中和區"
"235051","376-QA","2017/08/24 19:34:34","新北市中和區景新街224-20號","121.508003333333","24.9945666666667","6500300","中和區"
"235068","377-QA","2017/08/24 19:53:15","新北市中和區莊敬路4號","121.499575","25.0042466666667","6500300","中和區"
"235061","378-QA","2017/08/24 19:43:48","新北市中和區民利街56號","121.479108333333","24.9987533333333","6500300","中和區"
"235050","4979-A6","2017/08/24 19:59:15","新北市中和區景平路280號","121.513468333333","24.9926183333333","6500300","中和區"
"235069","4980-A6","2017/08/24 19:45:19","新北市中和區中正路395號","121.49005","24.9938183333333","6500300","中和區"
"235042","551-UM","2017/08/24 19:39:05","新北市中和區中和路262巷43弄6號","121.509766666667","24.9995666666667","6500300","中和區"
"235070","558-UM","2017/08/24 19:53:33","新北市中和區連城路90號","121.496908333333","25.000595","6500300","中和區"
"235045","565-BX","2017/08/24 19:47:43","新北市中和區景新街420號","121.512793333333","24.9889233333333","6500300","中和區"
"235054","640-BX","2017/08/24 19:42:14","新北市中和區國光街102巷11弄22號","121.470661666667","25.001415","6500300","中和區"
"235060","647-TV","2017/08/24 19:40:37","新北市中和區新生街14號","121.48305","25.0043133333333","6500300","中和區"
"235047","732-UM","2017/08/24 19:45:47","新北市中和區南山路263巷7弄6號","121.504108333333","24.9931216666667","6500300","中和區"
"235046","733-UM","2017/08/24 19:50:50","新北市中和區四維街37巷2號","121.512301666667","24.986775","6500300","中和區"
"235057","801-TS","2017/08/24 19:42:39","新北市中和區員山路477巷2號","121.4802","25.005255","6500300","中和區"
"235041","802-TS","2017/08/24 19:41:29","新北市中和區中和路350巷15弄3號","121.510383333333","25.0010633333333","6500300","中和區"
"235052","805-TS","2017/08/24 20:00:28","新北市中和區華新街192巷31號","121.506163333333","24.9833383333333","6500300","中和區"
"235048","896-TW","2017/08/24 19:51:31","新北市中和區興南路二段33號","121.507695","24.9858683333333","6500300","中和區"
"235053","900-TW","2017/08/24 19:44:15","新北市中和區民德路74號","121.46866","25.001505","6500300","中和區"
"235071","911-UM","2017/08/24 20:01:00","新北市中和區立德街60號","121.488275","25.0075516666667","6500300","中和區"
"235037","AAC-213","2017/08/24 19:43:08","新北市中和區秀朗路三段10巷29弄5號","121.525131666667","24.99607","6500300","中和區"
"235059","AAC-215","2017/08/24 19:59:41","新北市中和區圓通路335巷5弄15號","121.493515","24.9901233333333","6500300","中和區"
"220068","013-TV","2017/08/24 19:21:36","新北市板橋區三民路一段1巷49號","121.480741666667","25.02488","6500100","板橋區"
"220065","072-UY","2017/08/24 19:25:00","新北市板橋區國泰街76巷21號","121.46713","25.00708","6500100","板橋區"
"220086","073-UY","2017/08/24 19:14:22","新北市板橋區中正路216巷142號","121.460358333333","25.0193516666667","6500100","板橋區"
"220106","075-UY","2017/08/24 19:28:04","新北市板橋區江寧路三段85巷14號","121.472376666667","25.0331433333333","6500100","板橋區"
"220069","AAD-861","2017/08/24 19:22:03","新北市板橋區大華街69號","121.459535","25.00344","6500100","板橋區"
"220102","120-SR","2017/08/24 19:21:44","新北市板橋區松柏街1巷35號","121.47327","25.030005","6500100","板橋區"
"247020","893-R6","2017/08/24 20:01:09","新北市蘆洲區民義街86巷1號","121.473718333333","25.0902333333333","6501400","蘆洲區"
"247018","500-BY","2017/08/24 20:00:32","新北市蘆洲區民族路290巷13號","121.478485","25.0900483333333","6501400","蘆洲區"
"247008","339-TH","2017/08/24 19:51:04","新北市蘆洲區信義路119巷1號","121.478365","25.080325","6501400","蘆洲區"
"247024","337-TH","2017/08/24 19:58:09","新北市蘆洲區光復路77巷26-5號","121.464413333333","25.0862466666667","6501400","蘆洲區"
"247002","336-TH","2017/08/24 19:57:01","新北市蘆洲區永樂街33號","121.458205","25.0880416666667","6501400","蘆洲區"
"247014","057-VK","2017/08/24 19:47:17","新北市蘆洲區中正路134巷1號","121.469531666667","25.0852383333333","6501400","蘆洲區"
"247004","056-VK","2017/08/24 19:41:02","新北市蘆洲區長安街102巷65號","121.462651666667","25.0822433333333","6501400","蘆洲區"
"247006","053-VK","2017/08/24 19:54:40","新北市蘆洲區九芎街71巷9弄1號","121.466611666667","25.0785233333333","6501400","蘆洲區"
"247012","007-UY","2017/08/24 19:59:58","新北市蘆洲區民族路165號","121.47925","25.088305","6501400","蘆洲區"
"247016","001-UY","2017/08/24 20:00:51","新北市蘆洲區中正路93號","121.46999","25.0839133333333","6501400","蘆洲區"
"226004","312-R5","2017/08/24 19:58:35","新北市平溪區嶺腳里田子1-3號","121.75086","25.0239133333333","6502400","平溪區"
"228003","097-TW","2017/08/24 19:53:36","新北市貢寮區真理里延平街37號","121.924563333333","25.0552333333333","6502600","貢寮區"
"228001","212-TW","2017/08/24 19:45:24","新北市貢寮區真理里新港街82-2號","121.927088333333","25.0562833333333","6502600","貢寮區"
"224006","676-BX","2017/08/24 19:23:18","新北市瑞芳區中山路214號","121.800698333333","25.10687","6501200","瑞芳區"
"224002","639-TC","2017/08/24 19:36:44","新北市瑞芳區三爪子坑路13巷211號","121.815965","25.105945","6501200","瑞芳區"
"224011","420-VK","2017/08/24 20:00:59","新北市瑞芳區崙頂路1-6號","121.847123333333","25.10469","6501200","瑞芳區"
"224009","285-BY","2017/08/24 19:54:37","新北市瑞芳區靜安路四段3號","121.793378333333","25.0818183333333","6501200","瑞芳區"
"224008","275-VK","2017/08/24 19:44:34","新北市平溪區新寮里五分寮10-3號","121.796986666667","25.077655","6501200","瑞芳區"
"224005","271-BY","2017/08/24 19:12:41","新北市瑞芳區阿美家園1號","121.820688333333","25.1149","6501200","瑞芳區"
"227004","642-TC","2017/08/24 19:40:17","新北市雙溪區雙溪里太平路7號","121.864101666667","25.035165","6502500","雙溪區"
"227010","400-TW","2017/08/24 19:50:41","新北市雙溪區新基里自強路2號","121.866235","25.0389266666667","6502500","雙溪區"
"253006","032-BX","2017/08/24 19:49:52","新北市石門區小坑9號","121.594415","25.288355","6502200","石門區"
"253005","295-VK","2017/08/24 19:41:10","新北市石門區小坑9號","121.594115","25.2887283333333","6502200","石門區"
"208002","742-BX","2017/08/24 19:30:35","新北市金山區仁愛路87巷1號","121.634586666667","25.2214466666667","6502700","金山區"
"208003","665-BX","2017/08/24 19:19:55","新北市金山區中山路141號","121.639081666667","25.2200816666667","6502700","金山區"
"208001","761-BX","2017/08/24 19:34:33","新北市金山區六股里下六股35-1號","121.620305","25.220405","6502700","金山區"
"251009","008-UM","2017/08/24 19:54:10","新北市淡水區中正路36號","121.443798333333","25.1692816666667","6501000","淡水區"
"251004","009-UM","2017/08/24 20:00:59","新北市淡水區民族路50巷11號","121.461341666667","25.135765","6501000","淡水區"
"251007","179-VK","2017/08/24 19:44:11","新北市淡水區竿蓁一街123號","121.455981666667","25.165445","6501000","淡水區"
"251008","181-VK","2017/08/24 19:55:46","新北市淡水區中正路一段80號","121.424766666667","25.1774","6501000","淡水區"
"251014","182-VK","2017/08/24 19:55:16","新北市淡水區石頭厝14-59號","121.466233333333","25.2368816666667","6501000","淡水區"
"251010","413-VK","2017/08/24 19:41:00","新北市淡水區崁頂三路135號","121.43145","25.200995","6501000","淡水區"
"251012","441-VK","2017/08/24 19:53:15","新北市淡水區淡金路三段70巷1號","121.448296666667","25.2003683333333","6501000","淡水區"
"251016","442-VK","2017/08/24 20:00:41","新北市淡水區番子田16-13號","121.453706666667","25.2317166666667","6501000","淡水區"
"251005","443-VK","2017/08/24 19:43:56","新北市淡水區原德路106號","121.443331666667","25.1733883333333","6501000","淡水區"
"251001","559-UM","2017/08/24 19:44:46","新北市淡水區中正東路二段153號","121.459721666667","25.14634","6501000","淡水區"
"251006","561-UM","2017/08/24 19:30:39","新北市淡水區大義街27號","121.442613333333","25.1782866666667","6501000","淡水區"
"251011","650-BX","2017/08/24 19:38:45","新北市淡水區八勢路22巷3號","121.461353333333","25.1538616666667","6501000","淡水區"
"251002","672-BX","2017/08/24 19:31:55","新北市淡水區中正路二段31號","121.419186666667","25.1818266666667","6501000","淡水區"
"251003","766-UM","2017/08/24 19:35:26","新北市淡水區中山北路三段159號","121.445313333333","25.1964033333333","6501000","淡水區"
"207003","550-UM","2017/08/24 20:00:55","新北市萬里區磺潭里公館崙5號","121.641893333333","25.214235","6502800","萬里區"
"207004","225-TW","2017/08/24 19:16:14","新北市萬里區萬里里瑪鋉路30巷2弄4號","121.690331666667","25.1760166666667","6502800","萬里區"
"252005","073-UM","2017/08/24 19:43:56","新北市三芝區埔坪里埔頭坑41號","121.504328333333","25.2645216666667","6502100","三芝區"
"252002","178-VK","2017/08/24 19:48:55","新北市三芝區三民街35號","121.504786666667","25.2584683333333","6502100","三芝區"
"252001","292-VK","2017/08/24 19:58:56","新北市三芝區公正街66號","121.49982","25.2574566666667","6502100","三芝區"
"237004","078-UY","2017/08/24 19:58:58","新北市三峽區添福2-5號","121.370736666667","24.9087183333333","6500900","三峽區"
"237007","153-BY","2017/08/24 19:59:55","新北市三峽區二鬮路136巷20弄9號","121.356565","24.9098433333333","6500900","三峽區"
"237009","210-TH","2017/08/24 20:00:59","新北市三峽區民族街78巷2弄12號","121.368188333333","24.930015","6500900","三峽區"
"237013","252-BX","2017/08/24 19:45:47","新北市三峽區介壽路一段556號","121.388003333333","24.93392","6500900","三峽區"
"237012","275-BY","2017/08/24 19:53:32","新北市三峽區光明路1-12號","121.372791666667","24.9321733333333","6500900","三峽區"
"237008","302-VK","2017/08/24 19:53:51","新北市三峽區永安街95巷2號","121.374655","24.9288166666667","6500900","三峽區"
"237014","433-BY","2017/08/24 19:51:56","新北市三峽區添福59-3號","121.374591666667","24.903355","6500900","三峽區"
"237006","5529-G3","2017/08/24 20:00:59","新北市三峽區中正路二段122-1號","121.366425","24.9175166666667","6500900","三峽區"
"237016","649-BX","2017/08/24 20:01:08","新北市三峽區橫溪路99巷30號","121.40005","24.93659","6500900","三峽區"
"237010","706-TV","2017/08/24 19:39:06","新北市三峽區復興路19號","121.37399","24.936335","6500900","三峽區"
"237005","AKY-6261","2017/08/24 19:59:34","新北市三峽區民生街1巷17號","121.380485","24.9356816666667","6500900","三峽區"
"236071","105-UM","2017/08/24 19:29:54","新北市土城區學成路17號","121.453126666667","24.9867133333333","6501300","土城區"
"236078","166-UM","2017/08/24 19:24:22","新北市土城區中央路四段321巷32-2號","121.411825","24.9512183333333","6501300","土城區"
"236030","253-BX","2017/08/24 19:39:16","新北市土城區福祥街26號","121.441028333333","24.9803533333333","6501300","土城區"
"236026","269-VK","2017/08/24 19:25:32","新北市土城區中央路二段149巷2號","121.442271666667","24.9766483333333","6501300","土城區"
"236021","401-BY","2017/08/24 19:34:47","新北市土城區峰廷街3號","121.469178333333","24.9873566666667","6501300","土城區"
"236014","752-BX","2017/08/24 19:27:16","新北市土城區廣明街63巷30號","121.453986666667","24.9932233333333","6501300","土城區"
"236058","912-UM","2017/08/24 19:47:00","新北市土城區中央路二段70號","121.442523333333","24.9790916666667","6501300","土城區"
"236051","913-UM","2017/08/24 19:40:21","新北市土城區明德路一段69巷7號","121.465533333333","24.9837616666667","6501300","土城區"
"236062","915-UM","2017/08/24 19:44:18","新北市土城區延平街69巷3號","121.467485","24.9928016666667","6501300","土城區"
"236053","AAC-216","2017/08/24 19:29:46","新北市土城區學府路一段276號","121.450003333333","24.983065","6501300","土城區"
"242021","AAC-296","2017/08/24 19:55:50","新北市新莊區建中街46號","121.448651666667","25.0372966666667","6500500","新莊區"
"242029","986-R7","2017/08/24 19:57:29","新北市新莊區中平路375號","121.444618333333","25.05241","6500500","新莊區"
"242048","751-BX","2017/08/24 19:53:40","新北市新莊區建安街92巷1號","121.425918333333","25.024075","6500500","新莊區"
"242025","615-BX","2017/08/24 19:55:25","新北市新莊區五工三路86巷29號","121.4594","25.06616","6500500","新莊區"
"242023","613-BX","2017/08/24 19:49:38","新北市新莊區化成路176號","121.465598333333","25.0456916666667","6500500","新莊區"
"242027","612-BX","2017/08/24 19:56:46","新北市新莊區立信三街25號","121.442928333333","25.0505666666667","6500500","新莊區"
"242036","566-BX","2017/08/24 19:47:58","新北市新莊區建安街103號","121.426673333333","25.0242566666667","6500500","新莊區"
"242042","497-BY","2017/08/24 19:54:29","新北市新莊區青山路一段8號","121.411816666667","25.02743","6500500","新莊區"
"242002","442-UM","2017/08/24 20:01:03","新北市新莊區中正路261號","121.449753333333","25.035425","6500500","新莊區"
"242031","415-TV","2017/08/24 19:41:27","新北市新莊區公園一路144號","121.4465","25.0381883333333","6500500","新莊區"
"242039","400-BY","2017/08/24 19:57:11","新北市新莊區民安路285-2號","121.429008333333","25.02246","6500500","新莊區"
"242061","362-BY","2017/08/24 19:54:24","新北市新莊區瓊林路59-28號","121.443795","25.0267883333333","6500500","新莊區"
"242004","132-UY","2017/08/24 19:44:52","新北市新莊區化成路63巷6號","121.464913333333","25.0459183333333","6500500","新莊區"
"242034","133-UY","2017/08/24 19:39:32","新北市新莊區仁愛街16-5號","121.444278333333","25.0355583333333","6500500","新莊區"
"242019","135-UY","2017/08/24 19:55:46","新北市新莊區民生街15巷9號","121.455396666667","25.0425783333333","6500500","新莊區"
"242007","173-VK","2017/08/24 19:54:00","新北市新莊區思源路593巷5弄2號","121.459195","25.0594966666667","6500500","新莊區"
"242013","175-VK","2017/08/24 19:48:15","新北市新莊區中誠街97號","121.450005","25.04771","6500500","新莊區"
"242011","346-TH","2017/08/24 20:01:07","新北市新莊區中港路531巷118號","121.44994","25.0517033333333","6500500","新莊區"
"242044","347-TH","2017/08/24 20:00:59","新北市新莊區中正路746巷25-2號","121.410676666667","25.0240833333333","6500500","新莊區"
"242017","348-TH","2017/08/24 19:48:33","新北市新莊區中港路306號","121.452636666667","25.04497","6500500","新莊區"
"242053","349-TH","2017/08/24 20:00:27","新北市新莊區西盛街406號","121.427478333333","25.012495","6500500","新莊區"
"242015","350-TH","2017/08/24 19:46:37","新北市泰山區磚雅厝3號","121.44237","25.0418683333333","6500500","新莊區"
"238015","755-BX","2017/08/24 19:42:02","新北市樹林區日新街79號","121.421911666667","24.9906383333333","6500700","樹林區"
"238023","601-UM","2017/08/24 19:20:11","新北市樹林區三興路87巷2號","121.392325","25.0136483333333","6500700","樹林區"
"238019","599-UM","2017/08/24 19:49:26","新北市樹林區八德街1156號","121.390645","24.96839","6500700","樹林區"
"238018","571-TV","2017/08/24 19:51:12","新北市樹林區八德街1152號","121.3907","24.96848","6500700","樹林區"
"238024","5061-A6","2017/08/24 19:38:30","新北市樹林區山佳街29號","121.393641666667","24.97278","6500700","樹林區"
"238022","312-TH","2017/08/24 19:39:20","新北市樹林區名園街45號","121.419743333333","24.978655","6500700","樹林區"
"238021","311-TH","2017/08/24 19:06:59","新北市樹林區柑園街二段276巷40號","121.371631666667","24.95436","6500700","樹林區"
"238008","308-TH","2017/08/24 13:35:23","新北市樹林區育德街76巷1號","121.388723333333","24.968365","6500700","樹林區"
"238025","303-VK","2017/08/24 19:30:12","新北市樹林區中山路一段103號","121.42314","24.991045","6500700","樹林區"
"238017","283-BY","2017/08/24 19:40:22","新北市樹林區保安街二段197巷18號","121.413883333333","25.0027483333333","6500700","樹林區"
"238014","282-BY","2017/08/24 19:24:38","新北市樹林區保安二街32號","121.424708333333","24.9947466666667","6500700","樹林區"
"238020","268-VK","2017/08/24 19:28:13","新北市樹林區俊英街133巷25號","121.423006666667","25.0106666666667","6500700","樹林區"
"238026","172-UY","2017/08/24 19:37:12","新北市樹林區佳園路二段169號","121.389845","24.9564783333333","6500700","樹林區"
"238016","169-UY","2017/08/24 19:18:26","新北市樹林區備前街50號","121.416928333333","24.98605","6500700","樹林區"
"239007","AAC-297","2017/08/24 19:43:46","新北市鶯歌區大湖路338巷15號","121.346765","24.9689833333333","6500800","鶯歌區"
"239006","891-R6","2017/08/24 19:51:45","新北市鶯歌區文化路297號","121.352665","24.9525966666667","6500800","鶯歌區"
"239008","527-UM","2017/08/24 19:41:39","新北市樹林區中山路三段210-2號","121.38066","24.9676466666667","6500800","鶯歌區"
"239004","193-VK","2017/08/24 19:52:33","新北市鶯歌區環河路179號","121.343646666667","24.9332883333333","6500800","鶯歌區"
"221008","489-VK","2017/08/24 19:32:32","新北市汐止區康寧街165號","121.622191666667","25.06673","6501100","汐止區"
"221015","131-UY","2017/08/24 20:00:37","新北市汐止區忠孝東路473巷18號","121.665281666667","25.0734583333333","6501100","汐止區"
"221010","269-BY","2017/08/24 19:57:18","新北市汐止區連峰街187號","121.645791666667","25.0806966666667","6501100","汐止區"
"221012","276-VK","2017/08/24 13:24:31","新北市汐止區汐萬路一段256巷3號","121.653465","25.0746233333333","6501100","汐止區"
"221031","277-VK","2017/08/24 19:58:40","新北市汐止區福德一路176巷7弄1號","121.635005","25.0665533333333","6501100","汐止區"
"221012","278-VK","2017/08/24 19:50:41","新北市汐止區汐平路一段1號","121.680593333333","25.0711533333333","6501100","汐止區"
"221023","279-VK","2017/08/24 19:39:52","新北市汐止區中興路201號","121.629323333333","25.06844","6501100","汐止區"
"221027","281-BY","2017/08/24 19:59:04","新北市汐止區中正路70號","121.661635","25.0699616666667","6501100","汐止區"
"221038","297-VK","2017/08/24 19:47:02","新北市汐止區忠孝東路261號","121.663125","25.0678066666667","6501100","汐止區"
"221029","298-VK","2017/08/24 19:56:51","新北市汐止區樟樹一路137巷26號","121.640898333333","25.0659733333333","6501100","汐止區"
"221021","299-VK","2017/08/24 19:54:10","新北市汐止區新興路78號","121.657675","25.0617616666667","6501100","汐止區"
"221035","622-UM","2017/08/24 19:55:04","新北市汐止區長江街13巷12弄4號","121.654908333333","25.0721","6501100","汐止區"
"221025","623-UM","2017/08/24 19:55:39","新北市汐止區福安街20巷21號","121.661675","25.06423","6501100","汐止區"
"221033","647-BX","2017/08/24 20:00:15","新北市汐止區東勢街201巷42號","121.634771666667","25.0437116666667","6501100","汐止區"
"221002","707-TV","2017/08/24 19:44:45","新北市汐止區大同路一段219巷27號","121.633321666667","25.0583466666667","6501100","汐止區"
"221018","753-BX","2017/08/24 20:00:17","新北市汐止區茄福街29號","121.672436666667","25.0669283333333","6501100","汐止區"
"220079","145-BY","2017/08/24 19:13:21","新北市板橋區民權路202巷17弄59號","121.458718333333","25.0164916666667","6500100","板橋區"
"220080","200-UY","2017/08/24 19:15:41","新北市板橋區大觀路二段1巷2號","121.448235","25.0038116666667","6500100","板橋區"
"220082","610-BX","2017/08/24 19:16:43","新北市板橋區溪崑二街136號","121.425856666667","24.98766","6500100","板橋區"
"220075","256-TC","2017/08/24 19:27:15","新北市板橋區中正路289巷23號","121.454743333333","25.0190233333333","6500100","板橋區"
"220050","267-BY","2017/08/24 19:15:45","新北市板橋區莊敬路233號","121.472761666667","25.0215333333333","6500100","板橋區"
"220056","276-BY","2017/08/24 19:15:32","新北市板橋區信義路217號","121.45958","24.99146","6500100","板橋區"
"220072","277-BY","2017/08/24 19:12:25","新北市板橋區金門街369巷81號","121.428593333333","24.982895","6500100","板橋區"
"220094","283-UM","2017/08/24 19:14:08","新北市板橋區光武街136巷7號","121.465726666667","25.0301166666667","6500100","板橋區"
"220071","283-VK","2017/08/24 19:21:02","新北市板橋區重慶路245巷50弄35號","121.465311666667","24.9998666666667","6500100","板橋區"
"220081","287-VK","2017/08/24 20:00:52","新北市板橋區僑中一街80巷10弄2號","121.447991666667","25.012765","6500100","板橋區"
"220090","288-VK","2017/08/24 19:19:21","新北市板橋區四維路349巷16號","121.461561666667","25.0296433333333","6500100","板橋區"
"220061","293-UM","2017/08/24 19:31:46","新北市板橋區中山路二段311號","121.478821666667","25.0186033333333","6500100","板橋區"
"220062","295-UM","2017/08/24 19:32:32","新北市板橋區三民路二段居仁巷2號","121.479425","25.0130783333333","6500100","板橋區"
"220084","296-UM","2017/08/24 19:22:55","新北市板橋區溪崑二街66巷2號","121.427683333333","24.9905766666667","6500100","板橋區"
"220092","307-R5","2017/08/24 19:30:13","新北市板橋區光武街4巷11號","121.468151666667","25.0255116666667","6500100","板橋區"
"220098","317-R6","2017/08/24 19:21:03","新北市板橋區四維路206號","121.464138333333","25.0273183333333","6500100","板橋區"
"220064","486-VK","2017/08/24 19:14:28","新北市板橋區板新路52號","121.473603333333","25.0138366666667","6500100","板橋區"
"220089","487-VK","2017/08/24 19:17:06","新北市板橋區文化路二段1號","121.468591666667","25.0241533333333","6500100","板橋區"
"220088","491-VK","2017/08/24 19:18:10","新北市板橋區雙十路二段108號","121.474531666667","25.0284933333333","6500100","板橋區"
"220035","560-BX","2017/08/24 19:19:41","新北市板橋區中正路360巷50號","121.45624","25.02283","6500100","板橋區"
"220103","561-BX","2017/08/24 19:22:55","新北市板橋區文化路一段188巷23號","121.466993333333","25.019005","6500100","板橋區"
"220053","568-UM","2017/08/24 19:06:10","新北市板橋區永豐街89巷5弄2號","121.473076666667","25.019635","6500100","板橋區"
"220063","609-BX","2017/08/24 19:12:03","新北市板橋區三民路二段204號","121.478751666667","25.012195","6500100","板橋區"
"220083","630-UY","2017/08/24 19:14:35","新北市板橋區大觀路二段174巷176弄16號","121.442795","25.0031966666667","6500100","板橋區"
"220091","637-BX","2017/08/24 19:22:25","新北市板橋區文聖街72-6號","121.477053333333","25.030495","6500100","板橋區"
"220057","686-BX","2017/08/24 19:14:36","新北市板橋區重慶路243號","121.463053333333","25.0006533333333","6500100","板橋區"
"220077","687-BX","2017/08/24 19:12:08","新北市板橋區大觀路二段93號","121.446295","25.0019316666667","6500100","板橋區"
"220093","689-BX","2017/08/24 19:25:43","新北市板橋區新海路43號","121.461976666667","25.0213433333333","6500100","板橋區"
"220054","741-BX","2017/08/24 19:17:10","新北市板橋區重慶路89巷12號","121.463066666667","25.0064566666667","6500100","板橋區"
"220055","827-TW","2017/08/24 19:22:16","新北市板橋區館前東路156巷44號","121.46452","25.0065516666667","6500100","板橋區"
"220067","829-TW","2017/08/24 19:18:05","新北市板橋區長安街263號","121.473765","25.011355","6500100","板橋區"
"220096","831-TW","2017/08/24 19:20:00","新北市板橋區大同街26巷2號","121.478001666667","25.027165","6500100","板橋區"
"220074","895-R6","2017/08/24 19:24:58","新北市板橋區中正路1巷16弄25號","121.454941666667","25.0121483333333","6500100","板橋區"
"220073","985-R7","2017/08/24 19:06:07","新北市板橋區民權路255號","121.457176666667","25.0159333333333","6500100","板橋區"
"220097","AAC-210","2017/08/24 19:21:22","新北市板橋區幸福路60巷31-2號","121.460588333333","25.0209716666667","6500100","板橋區"
"220070","AAC-253","2017/08/24 19:08:33","新北市板橋區四川路一段281號","121.459388333333","25.0017383333333","6500100","板橋區"
