"lineid","car","time","location","longitude","latitude","cityid","cityname"
"234046","148-BY","2017/08/24 19:41:31","新北市永和區永元路68號","121.522558333333","25.0016283333333","6500400","永和區"
"234013","149-BY","2017/08/24 19:45:03","新北市永和區仁愛路211號","121.509696666667","25.0123966666667","6500400","永和區"
"234007","207-UY","2017/08/24 19:44:03","新北市中和區中和路250號","121.507365","24.9995566666667","6500400","永和區"
"234081","298-R6","2017/08/24 19:30:53","新北市永和區福和路5-2號","121.524811666667","25.0086466666667","6500400","永和區"
"234036","336-UY","2017/08/24 19:36:35","新北市永和區民樂街31巷8弄1號","121.528073333333","25.0011183333333","6500400","永和區"
"234064","337-UY","2017/08/24 19:44:33","新北市永和區中正路412巷16號","121.518265","25.00207","6500400","永和區"
"234086","338-UY","2017/08/24 19:43:21","新北市永和區永亨路160號","121.52585","25.0037583333333","6500400","永和區"
"234070","552-UM","2017/08/24 19:39:06","新北市永和區竹林路47號","121.518131666667","25.014005","6500400","永和區"
"234054","553-UM","2017/08/24 19:43:05","新北市永和區竹林路39巷18號","121.518606666667","25.0146366666667","6500400","永和區"
"234017","745-BX","2017/08/24 19:40:03","新北市永和區永和路二段405巷6號","121.515291666667","25.01742","6500400","永和區"
"234030","746-BX","2017/08/24 19:34:35","新北市永和區民生路65號","121.522895","24.99721","6500400","永和區"
"234061","AAD-866","2017/08/24 19:45:02","新北市永和區中正路248號","121.516596666667","24.9983633333333","6500400","永和區"
"234042","862-TW","2017/08/24 19:26:56","新北市永和區中和路601號","121.512331666667","25.004435","6500400","永和區"
"234050","863-TW","2017/08/24 19:46:05","新北市永和區保安路79號","121.508563333333","25.0148333333333","6500400","永和區"
"234026","9371-KE","2017/08/24 20:24:56","新北市永和區福和路1號","121.526425","25.009735","6500400","永和區"
"234011","9373-KE","2017/08/24 20:12:47","新北市永和區仁愛路352巷122弄2號","121.50035","25.0085816666667","6500400","永和區"
"249005","172-UM","2017/08/24 20:14:36","新北市八里區下罟子58-8號","121.387693333333","25.1379766666667","6502300","八里區"
"249001","173-UM","2017/08/24 20:17:12","新北市八里區中華路二段466-1號","121.40077","25.14625","6502300","八里區"
"249004","303-UY","2017/08/24 20:30:21","新北市八里區中山路一段129巷45號","121.413896666667","25.1585816666667","6502300","八里區"
"249002","305-UY","2017/08/24 20:15:35","新北市八里區龍米路一段92號","121.45473","25.123955","6502300","八里區"
"249003","593-UM","2017/08/24 20:16:49","新北市八里區中山路二段447巷16號","121.396883333333","25.145365","6502300","八里區"
"248014","025-BX","2017/08/24 20:04:04","新北市五股區五福路14巷26號","121.435465","25.0888783333333","6501500","五股區"
"248016","026-BX","2017/08/24 20:10:23","新北市五股區成泰路三段577巷80弄75號","121.448535","25.104585","6501500","五股區"
"248006","077-UY","2017/08/24 19:20:32","新北市五股區中興路二段37巷28號","121.460256666667","25.0750183333333","6501500","五股區"
"248008","095-VK","2017/08/24 20:33:22","新北市五股區中興路二段37巷26號","121.46061","25.075035","6501500","五股區"
"248010","272-BY","2017/08/24 20:09:26","新北市五股區成泰路一段7巷50號","121.432376666667","25.0674033333333","6501500","五股區"
"248004","677-BX","2017/08/24 19:55:51","新北市五股區成泰路一段106-1號","121.435686666667","25.071965","6501500","五股區"
"248002","678-BX","2017/08/24 20:04:36","新北市五股區成泰路三段475號","121.450485","25.09855","6501500","五股區"
"248012","682-TV","2017/08/24 20:08:41","新北市五股區民義路一段211號","121.430548333333","25.0889116666667","6501500","五股區"
"234023","9380-KE","2017/08/24 19:53:21","新北市永和區中山路一段76號","121.512258333333","25.0108733333333","6500400","永和區"
"234077","969-R7","2017/08/24 19:28:03","新北市永和區民族街43巷19號","121.5194","24.9983583333333","6500400","永和區"
"234074","AAC-211","2017/08/24 19:51:00","新北市永和區豫溪街136巷5號","121.52138","25.0099933333333","6500400","永和區"
"234067","AAC-212","2017/08/24 20:20:07","新北市永和區保平路236巷12弄4號","121.50874","25.00652","6500400","永和區"
"234003","AAC-295","2017/08/24 19:36:39","新北市永和區福和路352號","121.514885","25.0074066666667","6500400","永和區"
"232001","291-BY","2017/08/24 09:28:11","新北市坪林區北宜路八段558號","121.718041666667","24.909095","6502000","坪林區"
"244001","483-VK","2017/08/24 14:32:21","新北市林口區粉寮69號","121.405025","25.090955","6501700","林口區"
"243013","AAD-798","2017/08/24 20:10:18","新北市泰山區明志路三段74巷5號","121.424515","25.0416716666667","6501600","泰山區"
"243009","297-R6","2017/08/24 20:06:14","新北市泰山區泰林路二段142巷7弄5號","121.434518333333","25.06033","6501600","泰山區"
"243015","380-SR","2017/08/24 19:49:55","新北市泰山區明志路二段214巷11號","121.426648333333","25.048765","6501600","泰山區"
"243014","421-VK","2017/08/24 20:02:59","新北市泰山區明志路一段134號","121.43334","25.0633433333333","6501600","泰山區"
"243010","548-UM","2017/08/24 20:01:49","新北市泰山區中華街16巷1號","121.427508333333","25.0521166666667","6501600","泰山區"
"243011","549-UM","2017/08/24 20:03:10","新北市泰山區明志路三段531巷2號","121.421395","25.0296866666667","6501600","泰山區"
"243012","646-TV","2017/08/24 19:55:44","新北市泰山區全興路5號","121.432325","25.0591683333333","6501600","泰山區"
"243016","680-BX","2017/08/24 19:42:49","新北市泰山區新北大道七段28號","121.420046666667","25.0321916666667","6501600","泰山區"
"222003","436-BY","2017/08/24 20:11:10","新北市深坑區埔新街63號","121.620281666667","25.0024233333333","6501800","深坑區"
"222002","659-BX","2017/08/24 20:19:57","新北市深坑區萬福路75巷8-1號","121.599803333333","25.0096466666667","6501800","深坑區"
"222001","696-SL","2017/08/24 19:58:34","新北市深坑區北深路三段162號","121.60237","25.0033066666667","6501800","深坑區"
"231059","001-UM","2017/08/24 19:42:54","新北市新店區安和路二段32-1號","121.518053333333","24.9675583333333","6500600","新店區"
"231041","002-UM","2017/08/24 19:51:24","新北市新店區中央路113號","121.530905","24.9746066666667","6500600","新店區"
"231061","047-UY","2017/08/24 19:52:27","新北市新店區安民街337號","121.517191666667","24.97484","6500600","新店區"
"231060","106-UY","2017/08/24 19:57:12","新北市新店區安康路二段348-1號","121.50257","24.9575333333333","6500600","新店區"
"231051","107-UY","2017/08/24 20:11:03","新北市新店區中央二街5巷8號","121.528703333333","24.9729066666667","6500600","新店區"
"231047","108-UY","2017/08/24 20:05:02","新北市新店區寶橋路160號","121.54897","24.9771","6500600","新店區"
"231052","187-VK","2017/08/24 20:14:24","新北市新店區新烏路三段103號","121.552435","24.90308","6500600","新店區"
"231007","189-VK","2017/08/24 16:33:36","新北市新店區安華路28-1號","121.519551666667","24.9609266666667","6500600","新店區"
"231057","256-BX","2017/08/24 19:57:33","新北市新店區花園二路一段11號","121.555511666667","24.9324983333333","6500600","新店區"
"231050","AAD-862","2017/08/24 20:23:14","新北市新店區中正路111號","121.542393333333","24.9705283333333","6500600","新店區"
"231055","3713-VJ","2017/08/24 20:09:11","新北市新店區中華路42巷20號","121.54077","24.96875","6500600","新店區"
"231056","4716-K9","2017/08/24 20:22:12","新北市新店區中正路314號","121.537215","24.9746666666667","6500600","新店區"
"231067","4772-VM","2017/08/24 20:23:00","新北市新店區溪洲路85號","121.533258333333","24.9609866666667","6500600","新店區"
"231065","512-UM","2017/08/24 20:13:29","新北市新店區安祥路106巷122號","121.473768333333","24.958605","6500600","新店區"
"231054","513-UM","2017/08/24 19:58:05","新北市新店區光明街31號","121.538373333333","24.9598433333333","6500600","新店區"
"231042","616-UM","2017/08/24 20:05:15","新北市新店區中興路一段294號","121.546208333333","24.9692816666667","6500600","新店區"
"231040","619-UM","2017/08/24 19:54:11","新北市新店區中正路75巷71號","121.543158333333","24.9688533333333","6500600","新店區"
"231063","645-TV","2017/08/24 20:14:21","新北市新店區黎明路52巷11號","121.501986666667","24.9487816666667","6500600","新店區"
"231049","719-UM","2017/08/24 20:03:06","新北市新店區明德路71-1號","121.541386666667","24.9777666666667","6500600","新店區"
"231064","719-UY","2017/08/24 19:50:46","新北市新店區安和路二段113巷1弄2號","121.51832","24.97019","6500600","新店區"
"231062","720-UM","2017/08/24 20:08:37","新北市新店區安康路一段52巷1號","121.529895","24.9612983333333","6500600","新店區"
"231044","897-TW","2017/08/24 19:48:13","新北市新店區復興路38號","121.538878333333","24.986745","6500600","新店區"
"231045","898-TW","2017/08/24 20:02:55","新北市新店區北宜路二段66號","121.55151","24.9530716666667","6500600","新店區"
"231043","899-TW","2017/08/24 20:06:30","新北市新店區中正路303號","121.536988333333","24.9747033333333","6500600","新店區"
"231066","AKT-0513","2017/08/24 20:09:10","新北市新店區安興路110號","121.514783333333","24.976955","6500600","新店區"
"241011","013-R5","2017/08/24 20:08:02","新北市三重區仁愛街30號","121.496481666667","25.071745","6500200","三重區"
"241028","022-UY","2017/08/24 20:15:01","新北市三重區大同南路162號","121.496695","25.05744","6500200","三重區"
"241008","059-VK","2017/08/24 20:14:00","新北市三重區永福街144-1號","121.479881666667","25.0746183333333","6500200","三重區"
"241009","060-VK","2017/08/24 20:15:24","新北市三重區三和路四段382巷94弄1號","121.479411666667","25.07804","6500200","三重區"
"241031","061-VK","2017/08/24 20:20:48","新北市三重區三寧街15號","121.489455","25.0597616666667","6500200","三重區"
"241015","062-VK","2017/08/24 20:19:30","新北市三重區重新路一段96號","121.501433333333","25.0634233333333","6500200","三重區"
"241017","063-VK","2017/08/24 20:19:11","新北市三重區大同北路223號","121.491413333333","25.066155","6500200","三重區"
"241026","066-VK","2017/08/24 20:17:14","新北市三重區福德南路26-1號","121.502776666667","25.0629766666667","6500200","三重區"
"241002","090-VK","2017/08/24 20:20:10","新北市三重區五華街7巷36號","121.496813333333","25.080875","6500200","三重區"
"241003","091-VK","2017/08/24 20:20:20","新北市三重區富華街78號","121.490741666667","25.0832716666667","6500200","三重區"
"241006","156-TC","2017/08/24 20:12:47","新北市三重區車路頭街142號","121.484081666667","25.075755","6500200","三重區"
"241005","262-UM","2017/08/24 20:23:34","新北市三重區仁愛街508號","121.488041666667","25.0820233333333","6500200","三重區"
"241030","265-UM","2017/08/24 20:13:38","新北市三重區集美街77號","121.488436666667","25.0534866666667","6500200","三重區"
"241016","266-UM","2017/08/24 20:20:50","新北市三重區大同北路97-3號","121.494438333333","25.0636116666667","6500200","三重區"
"241022","267-UM","2017/08/24 20:17:51","新北市三重區中正北路18號","121.488798333333","25.0632516666667","6500200","三重區"
"241018","268-UM","2017/08/24 20:23:30","新北市三重區雙園街57巷1號","121.495071666667","25.0676066666667","6500200","三重區"
"241032","269-UM","2017/08/24 20:20:12","新北市三重區捷運路19巷8弄13號","121.484383333333","25.0572616666667","6500200","三重區"
"241013","270-UM","2017/08/24 20:25:33","新北市三重區三和路三段163號","121.491965","25.0740616666667","6500200","三重區"
"241007","398-BY","2017/08/24 20:14:43","新北市三重區三和路四段113-2號","121.485551666667","25.0776316666667","6500200","三重區"
"241004","475-VK","2017/08/24 20:19:51","新北市三重區仁政街190號","121.490956666667","25.0797516666667","6500200","三重區"
"241019","478-VK","2017/08/24 20:22:31","新北市三重區大智街151號","121.490383333333","25.071395","6500200","三重區"
"241020","480-VK","2017/08/24 20:11:42","新北市三重區三和路三段146號","121.493315","25.072625","6500200","三重區"
"241014","543-UM","2017/08/24 20:24:20","新北市三重區龍濱路190號","121.501131666667","25.0732483333333","6500200","三重區"
"241023","545-UM","2017/08/24 20:19:37","新北市三重區頂崁街139號","121.477735","25.0650366666667","6500200","三重區"
"241035","743-BX","2017/08/24 20:13:03","新北市三重區文化北路24號","121.49905","25.0643666666667","6500200","三重區"
"241001","887-TS","2017/08/24 20:12:22","新北市三重區溪尾街26號","121.490923333333","25.0763416666667","6500200","三重區"
"241012","941-UM","2017/08/24 20:22:36","新北市三重區龍門路300號","121.50243","25.0742766666667","6500200","三重區"
"241029","942-UM","2017/08/24 20:05:07","新北市三重區重安街1號","121.489858333333","25.05821","6500200","三重區"
"241033","AAC-255","2017/08/24 20:18:08","新北市三重區五谷王北街50巷1號","121.475873333333","25.0515133333333","6500200","三重區"
"235066","003-UY","2017/08/24 20:17:19","新北市中和區水源路122號","121.507265","25.0033316666667","6500300","中和區"
"235039","097-UM","2017/08/24 20:18:09","新北市中和區大勇街25巷1號","121.517208333333","24.9931266666667","6500300","中和區"
"235065","098-UM","2017/08/24 20:05:48","新北市中和區永和路39巷2號","121.4981","25.00498","6500300","中和區"
"235058","151-BY","2017/08/24 20:10:57","新北市中和區中正路659號","121.484963333333","24.9961783333333","6500300","中和區"
"235055","183-VK","2017/08/24 20:05:13","新北市中和區民生街23巷4弄1號","121.471028333333","25.0048633333333","6500300","中和區"
"235049","186-VK","2017/08/24 20:02:13","新北市中和區景平路419號","121.501888333333","24.9950716666667","6500300","中和區"
"235072","301-VK","2017/08/24 20:23:52","新北市林口區太平里180號","121.368093333333","25.1344333333333","6500300","中和區"
"235051","376-QA","2017/08/24 20:04:34","新北市中和區復興路301巷2弄2號","121.501423333333","24.9900183333333","6500300","中和區"
"235068","377-QA","2017/08/24 20:18:34","新北市中和區勝利路35巷1弄35號","121.500151666667","25.0079483333333","6500300","中和區"
"235061","378-QA","2017/08/24 20:00:29","新北市中和區員山路226巷22弄3號","121.48191","25.0001166666667","6500300","中和區"
"235050","4979-A6","2017/08/24 20:18:15","新北市中和區景平路466號","121.505688333333","24.9937166666667","6500300","中和區"
"235069","4980-A6","2017/08/24 20:15:19","新北市中和區南山路127巷33號","121.503645","24.9975983333333","6500300","中和區"
"235070","558-UM","2017/08/24 20:20:33","新北市中和區中正路266-1號","121.495316666667","24.9939216666667","6500300","中和區"
"235054","640-BX","2017/08/24 20:09:54","新北市中和區莒光路80號","121.472308333333","25.00282","6500300","中和區"
"235046","733-UM","2017/08/24 20:15:10","新北市中和區忠孝街106巷2號","121.512205","24.9844516666667","6500300","中和區"
"235057","801-TS","2017/08/24 19:54:39","新北市中和區員山路150-17號","121.481306666667","24.997835","6500300","中和區"
"235041","802-TS","2017/08/24 20:02:29","新北市中和區中安街32-1號","121.513231666667","25.0029533333333","6500300","中和區"
"235048","896-TW","2017/08/24 20:13:11","新北市中和區景新街359號","121.512056666667","24.9907316666667","6500300","中和區"
"235053","900-TW","2017/08/24 20:04:35","新北市中和區民德路155-2號","121.468656666667","24.9999483333333","6500300","中和區"
"235037","AAC-213","2017/08/24 20:10:28","新北市中和區自立路141巷17號","121.523203333333","24.9938016666667","6500300","中和區"
"235059","AAC-215","2017/08/24 20:18:21","新北市中和區圓通路433巷4號","121.488323333333","24.9886833333333","6500300","中和區"
"220068","013-TV","2017/08/24 19:34:56","新北市板橋區萬安街56號","121.484291666667","25.0233166666667","6500100","板橋區"
"220065","072-UY","2017/08/24 19:28:40","新北市板橋區國泰街75巷2弄1號","121.467573333333","25.0061616666667","6500100","板橋區"
"220086","073-UY","2017/08/24 19:32:22","新北市板橋區中正路236巷32號","121.456965","25.0191816666667","6500100","板橋區"
"220106","075-UY","2017/08/24 19:46:24","新北市板橋區民治街26巷23號","121.47732","25.033575","6500100","板橋區"
"220069","AAD-861","2017/08/24 19:22:03","新北市板橋區大華街69號","121.459535","25.00344","6500100","板橋區"
"220102","120-SR","2017/08/24 19:43:24","新北市板橋區松柏街40號","121.475398333333","25.03013","6500100","板橋區"
"247020","893-R6","2017/08/24 20:21:09","新北市蘆洲區水湳街395號","121.469186666667","25.0943716666667","6501400","蘆洲區"
"247010","546-UM","2017/08/24 20:18:20","新北市蘆洲區信義路188巷16號","121.480316666667","25.0845316666667","6501400","蘆洲區"
"247018","500-BY","2017/08/24 20:13:12","新北市蘆洲區民族路281號","121.475708333333","25.0909016666667","6501400","蘆洲區"
"247008","339-TH","2017/08/24 20:11:04","新北市蘆洲區集賢路237號","121.481676666667","25.0851033333333","6501400","蘆洲區"
"247024","337-TH","2017/08/24 20:20:49","新北市蘆洲區長樂路56巷23號","121.463753333333","25.0867583333333","6501400","蘆洲區"
"247002","336-TH","2017/08/24 20:17:21","新北市蘆洲區環堤大道108號","121.455535","25.0866066666667","6501400","蘆洲區"
"247014","057-VK","2017/08/24 20:07:37","新北市蘆洲區中山二路265巷20號","121.470586666667","25.0795483333333","6501400","蘆洲區"
"247004","056-VK","2017/08/24 19:59:42","新北市蘆洲區長安街307號","121.457931666667","25.0851966666667","6501400","蘆洲區"
"247006","053-VK","2017/08/24 20:14:59","新北市蘆洲區永安南路二段16巷17弄41號","121.466536666667","25.078145","6501400","蘆洲區"
"247012","007-UY","2017/08/24 20:20:58","新北市蘆洲區中興街8號","121.480198333333","25.0868166666667","6501400","蘆洲區"
"247022","002-UY","2017/08/24 20:19:06","新北市蘆洲區民族路455號","121.467551666667","25.0884266666667","6501400","蘆洲區"
"247016","001-UY","2017/08/24 20:21:31","新北市蘆洲區光華路132巷39號","121.465835","25.083745","6501400","蘆洲區"
"226004","312-R5","2017/08/24 20:13:58","新北市平溪區靜安路二段295號","121.733126666667","25.0257066666667","6502400","平溪區"
"224011","AGQ-8101","2017/08/24 20:30:33","新北市瑞芳區民權街3-1號","121.809371666667","25.1083183333333","6501200","瑞芳區"
"224006","676-BX","2017/08/24 20:33:03","新北市瑞芳區中山路164號","121.802063333333","25.1065716666667","6501200","瑞芳區"
"224002","639-TC","2017/08/24 20:10:49","新北市瑞芳區大寮路356-1號","121.785006666667","25.10312","6501200","瑞芳區"
"224011","420-VK","2017/08/24 20:31:10","新北市瑞芳區明燈路二段66號","121.809371666667","25.107495","6501200","瑞芳區"
"224005","271-BY","2017/08/24 19:12:41","新北市瑞芳區阿美家園1號","121.820688333333","25.1149","6501200","瑞芳區"
"227004","642-TC","2017/08/24 20:24:11","新北市雙溪區三貂里政光路3-1號","121.850741666667","25.0630616666667","6502500","雙溪區"
"253005","295-VK","2017/08/24 19:41:10","新北市石門區小坑9號","121.594115","25.2887283333333","6502200","石門區"
"208002","742-BX","2017/08/24 20:19:01","新北市金山區磺清路135號","121.639548333333","25.2276716666667","6502700","金山區"
"208003","665-BX","2017/08/24 19:46:35","新北市金山區中正路20號","121.635973333333","25.2222716666667","6502700","金山區"
"208001","761-BX","2017/08/24 20:06:46","新北市金山區磺清路135號","121.639535","25.227565","6502700","金山區"
"251009","008-UM","2017/08/24 20:17:30","新北市淡水區中山路88號","121.442821666667","25.17056","6501000","淡水區"
"251004","009-UM","2017/08/24 20:11:49","新北市淡水區民族路31巷21-2號","121.462021666667","25.1365033333333","6501000","淡水區"
"251007","179-VK","2017/08/24 20:15:11","新北市淡水區下圭柔山90-8號","121.431591666667","25.2116783333333","6501000","淡水區"
"251008","181-VK","2017/08/24 20:13:46","新北市淡水區淡海路72巷30弄10號","121.42469","25.1824916666667","6501000","淡水區"
"251014","182-VK","2017/08/24 20:21:16","新北市淡水區石頭厝3號","121.458675","25.235545","6501000","淡水區"
"251010","413-VK","2017/08/24 20:06:40","新北市淡水區新市三路一段312號","121.430711666667","25.1970883333333","6501000","淡水區"
"251012","441-VK","2017/08/24 20:09:35","新北市淡水區淡金路三段185號","121.448693333333","25.2044583333333","6501000","淡水區"
"251016","442-VK","2017/08/24 20:19:41","新北市淡水區新埔子11-1號","121.44736","25.2285283333333","6501000","淡水區"
"251005","443-VK","2017/08/24 20:06:56","新北市淡水區學府路123號","121.450471666667","25.17289","6501000","淡水區"
"251001","559-UM","2017/08/24 20:03:26","新北市淡水區淡金路一段160號","121.454518333333","25.1794916666667","6501000","淡水區"
"251006","561-UM","2017/08/24 19:59:59","新北市淡水區水碓街75號","121.444965","25.1774083333333","6501000","淡水區"
"251011","650-BX","2017/08/24 20:03:05","新北市淡水區崁頂61號","121.440558333333","25.2001833333333","6501000","淡水區"
"251002","672-BX","2017/08/24 20:12:02","新北市淡水區中正路233號","121.43578","25.1730783333333","6501000","淡水區"
"251003","766-UM","2017/08/24 20:11:06","新北市淡水區新市一路二段250號","121.443905","25.1828433333333","6501000","淡水區"
"207004","225-TW","2017/08/24 19:49:34","新北市萬里區萬里里瑪鋉路207號","121.690326666667","25.1794016666667","6502800","萬里區"
"252005","073-UM","2017/08/24 19:43:56","新北市三芝區埔坪里埔頭坑41號","121.504328333333","25.2645216666667","6502100","三芝區"
"252002","178-VK","2017/08/24 20:15:55","新北市三芝區中正路一段72號","121.504023333333","25.2576266666667","6502100","三芝區"
"252001","292-VK","2017/08/24 20:29:16","新北市三芝區中山路一段35號","121.50065","25.2579983333333","6502100","三芝區"
"237008","302-VK","2017/08/24 20:21:11","新北市三峽區中華路75巷29號","121.37317","24.9297866666667","6500900","三峽區"
"237006","5529-G3","2017/08/24 20:23:59","新北市三峽區中園街84號","121.36767","24.9248033333333","6500900","三峽區"
"236071","105-UM","2017/08/24 19:49:53","新北市土城區中央路二段192巷1弄1-1號","121.441655","24.97597","6501300","土城區"
"236042","107-UM","2017/08/24 20:03:14","新北市土城區學府路一段98巷11-1號","121.455748333333","24.98847","6501300","土城區"
"236078","166-UM","2017/08/24 19:48:01","新北市土城區中央路四段280號","121.414421666667","24.9563816666667","6501300","土城區"
"236030","253-BX","2017/08/24 19:53:17","新北市土城區中央路一段290號","121.443291666667","24.9824","6501300","土城區"
"236026","269-VK","2017/08/24 19:55:12","新北市土城區員林街71巷2號","121.444453333333","24.9773016666667","6501300","土城區"
"236037","271-VK","2017/08/24 19:58:25","新北市土城區國際路127號","121.46786","24.9760866666667","6501300","土城區"
"236021","401-BY","2017/08/24 19:58:47","新北市土城區延吉街165巷7號","121.47047","24.9853","6501300","土城區"
"236014","752-BX","2017/08/24 19:58:36","新北市土城區廣福街123號","121.456261666667","24.9929566666667","6501300","土城區"
"236058","912-UM","2017/08/24 19:56:40","新北市土城區中央路一段197號","121.445945","24.9869116666667","6501300","土城區"
"236051","913-UM","2017/08/24 19:59:21","新北市土城區金城路三段192號","121.468401666667","24.988065","6501300","土城區"
"236062","915-UM","2017/08/24 19:52:38","新北市土城區延和路103號","121.467586666667","24.9903216666667","6501300","土城區"
"242021","AAC-296","2017/08/24 20:07:11","新北市新莊區建中街38號","121.448815","25.0374866666667","6500500","新莊區"
"242029","986-R7","2017/08/24 20:10:29","新北市新莊區中原路319-1號","121.44661","25.0543016666667","6500500","新莊區"
"242048","751-BX","2017/08/24 20:08:20","新北市新莊區後港二路29號","121.422325","25.0232333333333","6500500","新莊區"
"242025","615-BX","2017/08/24 20:05:45","新北市新莊區五工二路78巷12號","121.460435","25.0664283333333","6500500","新莊區"
"242023","613-BX","2017/08/24 19:59:58","新北市新莊區化成路374號","121.46587","25.0498183333333","6500500","新莊區"
"242027","612-BX","2017/08/24 20:13:26","新北市新莊區幸福路663號","121.450826666667","25.0491483333333","6500500","新莊區"
"242036","566-BX","2017/08/24 19:59:17","新北市新莊區建安街41巷5號","121.429141666667","25.0252233333333","6500500","新莊區"
"242042","497-BY","2017/08/24 20:02:29","新北市新莊區青山路一段226-1號","121.398793333333","25.0311716666667","6500500","新莊區"
"242002","442-UM","2017/08/24 20:12:03","新北市新莊區中正路48-2號","121.463963333333","25.0410066666667","6500500","新莊區"
"242046","441-UM","2017/08/24 20:13:39","新北市新莊區裕民街103巷13號","121.419071666667","25.022865","6500500","新莊區"
"242051","440-UM","2017/08/24 20:08:27","新北市新莊區民安西路172巷6號","121.425273333333","25.016085","6500500","新莊區"
"242031","415-TV","2017/08/24 19:46:47","新北市新莊區公園一路104號","121.443761666667","25.0375066666667","6500500","新莊區"
"242039","400-BY","2017/08/24 20:15:11","新北市新莊區民安西路134號","121.426558333333","25.018055","6500500","新莊區"
"242061","362-BY","2017/08/24 20:07:04","新北市新莊區瓊林路瓊英巷8弄1號","121.44308","25.0278016666667","6500500","新莊區"
"242004","132-UY","2017/08/24 19:51:52","新北市新莊區化成路63巷101號","121.461718333333","25.0458366666667","6500500","新莊區"
"242034","133-UY","2017/08/24 19:50:12","新北市新莊區建中街90巷5弄20號","121.44563","25.0374216666667","6500500","新莊區"
"242019","135-UY","2017/08/24 20:06:46","新北市新莊區民樂街83號","121.457971666667","25.0431883333333","6500500","新莊區"
"242007","173-VK","2017/08/24 20:06:00","新北市新莊區思源路453巷2號","121.459221666667","25.0535516666667","6500500","新莊區"
"242013","175-VK","2017/08/24 20:06:35","新北市新莊區中港路404號","121.452216666667","25.0499966666667","6500500","新莊區"
"242056","176-VK","2017/08/24 20:08:15","新北市新莊區新豐街59號","121.446628333333","25.0337033333333","6500500","新莊區"
"242011","346-TH","2017/08/24 20:11:27","新北市新莊區中信街61號","121.44927","25.05081","6500500","新莊區"
"242044","347-TH","2017/08/24 20:11:26","桃園市龜山區萬壽路一段19號","121.410141666667","25.020785","6500500","新莊區"
"242017","348-TH","2017/08/24 20:02:13","新北市新莊區中港路399號","121.451911666667","25.0470633333333","6500500","新莊區"
"242053","349-TH","2017/08/24 20:15:05","新北市新莊區民安西路314號","121.42651","25.0118716666667","6500500","新莊區"
"242015","350-TH","2017/08/24 20:00:37","新北市新莊區泰安街32號","121.446306666667","25.0420916666667","6500500","新莊區"
"242009","351-TH","2017/08/24 20:04:24","新北市新莊區昌隆街34號","121.454251666667","25.05079","6500500","新莊區"
"238015","755-BX","2017/08/24 20:30:38","新北市樹林區育德街78-1號","121.387895","24.9681216666667","6500700","樹林區"
"238023","601-UM","2017/08/24 19:33:11","新北市樹林區中正路859-1號","121.40892","25.0179766666667","6500700","樹林區"
"238019","599-UM","2017/08/24 20:08:26","新北市樹林區育德街78-1號","121.387993333333","24.9681066666667","6500700","樹林區"
"238024","5061-A6","2017/08/24 20:11:29","新北市樹林區育德街78-1號","121.387756666667","24.9681883333333","6500700","樹林區"
"238021","311-TH","2017/08/24 20:23:59","新北市樹林區佳園路三段101巷60號","121.392776666667","24.950245","6500700","樹林區"
"238008","308-TH","2017/08/24 13:35:23","新北市樹林區育德街76巷1號","121.388723333333","24.968365","6500700","樹林區"
"238025","303-VK","2017/08/24 19:55:12","新北市樹林區中山路二段162號","121.412083333333","24.98287","6500700","樹林區"
"238014","282-BY","2017/08/24 19:36:38","新北市樹林區保安二街64巷2號","121.42457","24.9961383333333","6500700","樹林區"
"238020","268-VK","2017/08/24 19:50:33","新北市樹林區樹新路122號","121.430186666667","24.9984466666667","6500700","樹林區"
"238026","172-UY","2017/08/24 20:19:20","新北市樹林區育德街78-1號","121.387768333333","24.968015","6500700","樹林區"
"238016","169-UY","2017/08/24 20:04:21","新北市樹林區中山路三段204號","121.386933333333","24.9683","6500700","樹林區"
"239008","527-UM","2017/08/24 20:14:18","新北市鶯歌區二甲路13-16號","121.344966666667","24.935285","6500800","鶯歌區"
"221008","489-VK","2017/08/24 20:02:32","新北市汐止區康寧街65號","121.618688333333","25.0667966666667","6501100","汐止區"
"221036","130-UY","2017/08/24 20:14:33","新北市汐止區福安街59巷2號","121.664071666667","25.06356","6501100","汐止區"
"221015","131-UY","2017/08/24 20:21:57","新北市汐止區建成路142巷19弄7號","121.66207","25.07383","6501100","汐止區"
"221010","269-BY","2017/08/24 20:09:58","新北市汐止區八連路一段206號","121.641703333333","25.0808116666667","6501100","汐止區"
"221012","276-VK","2017/08/24 13:24:31","新北市汐止區汐萬路一段256巷3號","121.653465","25.0746233333333","6501100","汐止區"
"221031","277-VK","2017/08/24 20:19:40","新北市汐止區中興路150巷25號","121.633401666667","25.0654116666667","6501100","汐止區"
"221012","278-VK","2017/08/24 20:13:41","新北市汐止區汐平路一段116號","121.685346666667","25.06904","6501100","汐止區"
"221023","279-VK","2017/08/24 20:00:13","新北市汐止區明峰街206號","121.62754","25.0692316666667","6501100","汐止區"
"221032","280-BY","2017/08/24 20:16:02","新北市汐止區橫科路52巷9弄5號","121.619513333333","25.050395","6501100","汐止區"
"221027","281-BY","2017/08/24 20:15:04","新北市汐止區大同路二段503號","121.66104","25.06877","6501100","汐止區"
"221038","297-VK","2017/08/24 20:02:02","新北市汐止區忠孝東路456號","121.666101666667","25.0729033333333","6501100","汐止區"
"221029","298-VK","2017/08/24 20:18:11","新北市汐止區樟樹一路99巷12號","121.64117","25.0637133333333","6501100","汐止區"
"221021","299-VK","2017/08/24 20:12:10","新北市汐止區連興街131號","121.653991666667","25.06175","6501100","汐止區"
"221035","622-UM","2017/08/24 20:19:44","新北市汐止區長江街101-5號","121.658703333333","25.0731466666667","6501100","汐止區"
"221025","623-UM","2017/08/24 20:20:59","新北市汐止區水源路二段72巷6弄1號","121.655653333333","25.0557816666667","6501100","汐止區"
"221033","647-BX","2017/08/24 20:30:15","新北市汐止區林森街73巷15號","121.623871666667","25.0413733333333","6501100","汐止區"
"221002","707-TV","2017/08/24 20:15:25","新北市汐止區福德二路29號","121.635058333333","25.06794","6501100","汐止區"
"221018","753-BX","2017/08/24 20:29:17","新北市汐止區茄苳路225巷13號","121.671463333333","25.0692916666667","6501100","汐止區"
"220079","145-BY","2017/08/24 19:31:21","新北市板橋區復興街60號","121.458883333333","25.0175033333333","6500100","板橋區"
"220080","200-UY","2017/08/24 19:24:20","新北市板橋區大觀路二段19巷14號","121.447411666667","25.003205","6500100","板橋區"
"220082","610-BX","2017/08/24 19:37:04","新北市板橋區大觀路三段162號","121.431355","24.9930533333333","6500100","板橋區"
"220075","256-TC","2017/08/24 19:41:15","新北市板橋區大勇街9巷14號","121.453481666667","25.0166433333333","6500100","板橋區"
"220050","267-BY","2017/08/24 19:27:25","新北市板橋區縣民大道三段133巷1號","121.477648333333","25.0232583333333","6500100","板橋區"
"220056","276-BY","2017/08/24 19:15:32","新北市板橋區信義路217號","121.45958","24.99146","6500100","板橋區"
"220072","277-BY","2017/08/24 19:32:25","新北市板橋區篤行路二段151巷8號","121.430166666667","24.9876483333333","6500100","板橋區"
"220094","283-UM","2017/08/24 19:42:48","新北市板橋區宏國路51號","121.468466666667","25.03188","6500100","板橋區"
"220071","283-VK","2017/08/24 19:28:22","新北市板橋區重慶路269巷47號","121.464658333333","24.9989666666667","6500100","板橋區"
"220090","288-VK","2017/08/24 19:35:01","新北市板橋區裕民街74號","121.46088","25.0283583333333","6500100","板橋區"
"220061","293-UM","2017/08/24 19:44:06","新北市板橋區中山路一段265巷36弄1號","121.469095","25.0151983333333","6500100","板橋區"
"220062","295-UM","2017/08/24 19:38:12","新北市板橋區三民路二段153巷36弄2號","121.48117","25.01411","6500100","板橋區"
"220084","296-UM","2017/08/24 19:33:15","新北市板橋區篤行路三段2號","121.429141666667","24.9879533333333","6500100","板橋區"
"220092","307-R5","2017/08/24 19:37:32","新北市板橋區自由路13號","121.465398333333","25.0227316666667","6500100","板橋區"
"220098","317-R6","2017/08/24 19:37:43","新北市板橋區四維路295號","121.463305","25.028365","6500100","板橋區"
"220064","486-VK","2017/08/24 19:25:28","新北市板橋區中山路一段78號","121.461758333333","25.01007","6500100","板橋區"
"220089","487-VK","2017/08/24 19:37:46","新北市板橋區新生街89巷2號","121.458206666667","25.022225","6500100","板橋區"
"220088","491-VK","2017/08/24 19:29:10","新北市板橋區雙十路二段151號","121.474475","25.028135","6500100","板橋區"
"220035","560-BX","2017/08/24 19:37:01","新北市板橋區中正路415號","121.454065","25.0226666666667","6500100","板橋區"
"220103","561-BX","2017/08/24 19:37:35","新北市板橋區文化路一段288號","121.467473333333","25.0214616666667","6500100","板橋區"
"220053","568-UM","2017/08/24 19:35:10","新北市板橋區富山街53巷1弄112號","121.477731666667","25.019675","6500100","板橋區"
"220063","609-BX","2017/08/24 19:12:03","新北市板橋區三民路二段204號","121.478751666667","25.012195","6500100","板橋區"
"220083","630-UY","2017/08/24 19:29:55","新北市板橋區龍興街95巷5號","121.44376","25.0024516666667","6500100","板橋區"
"220091","637-BX","2017/08/24 19:31:45","新北市板橋區文聖街137號","121.478298333333","25.0284633333333","6500100","板橋區"
"220057","686-BX","2017/08/24 19:30:36","新北市板橋區五權街30巷1號","121.46471","24.99333","6500100","板橋區"
"220077","687-BX","2017/08/24 19:31:08","新北市板橋區僑中二街108巷1號","121.445905","25.0070916666667","6500100","板橋區"
"220093","689-BX","2017/08/24 19:40:23","新北市板橋區長江路一段119號","121.460061666667","25.0298966666667","6500100","板橋區"
"220054","741-BX","2017/08/24 19:37:50","新北市板橋區光明街46號","121.46053","25.0025483333333","6500100","板橋區"
"220055","827-TW","2017/08/24 19:40:56","新北市板橋區國慶路149巷21弄9號","121.460508333333","24.99734","6500100","板橋區"
"220067","829-TW","2017/08/24 19:25:25","新北市板橋區長安街138巷7弄52號","121.474068333333","25.0091416666667","6500100","板橋區"
"220096","831-TW","2017/08/24 19:34:00","新北市板橋區雙十路二段47巷25號","121.47537","25.02554","6500100","板橋區"
"220074","895-R6","2017/08/24 19:39:58","新北市板橋區府中路93號","121.457106666667","25.009515","6500100","板橋區"
"220073","985-R7","2017/08/24 19:24:27","新北市板橋區新生街18號","121.455628333333","25.02114","6500100","板橋區"
"220097","AAC-210","2017/08/24 19:40:22","新北市板橋區幸福路32巷5號","121.461456666667","25.0206783333333","6500100","板橋區"
"220070","AAC-253","2017/08/24 19:35:53","新北市板橋區四川路一段253號","121.459793333333","25.0024366666667","6500100","板橋區"
