"lineid","car","time","location","longitude","latitude","cityid","cityname"
"248005","653-BX","2017/12/07 08:09:57","新北市五股區明德路10號","121.433361666667","25.0717716666667","6501500","五股區"
"232001","290-BY","2017/12/07 08:06:10","新北市坪林區坪雙路一段115號","121.728148333333","24.948245","6502000","坪林區"
"232014","291-BY","2017/12/07 08:09:45","新北市坪林區金瓜寮3-2號","121.681293333333","24.9187016666667","6502000","坪林區"
"232007","758-BX","2017/12/07 08:09:53","新北市坪林區北宜路八段553號","121.717773333333","24.9099283333333","6502000","坪林區"
"244012","069-UM","2017/12/07 08:09:41","新北市林口區粉寮69號","121.405066666667","25.0908933333333","6501700","林口區"
"244006","080-UY","2017/12/07 08:09:39","新北市林口區中湖43-5號","121.38178","25.0923966666667","6501700","林口區"
"244003","248-BX","2017/12/07 08:09:58","新北市林口區下福20號","121.311788333333","25.1112666666667","6501700","林口區"
"244009","410-SL","2017/12/07 08:09:44","新北市林口區中北一街79號","121.385728333333","25.088745","6501700","林口區"
"244022","483-VK","2017/12/07 08:09:42","新北市林口區粉寮路二段1-1號","121.400385","25.083295","6501700","林口區"
"244016","485-VK","2017/12/07 08:09:49","新北市林口區文化一路二段202號","121.383246666667","25.0807033333333","6501700","林口區"
"244010","701-TV","2017/12/07 08:09:48","新北市林口區仁愛路一段619號","121.390051666667","25.0766183333333","6501700","林口區"
"244024","837-TS","2017/12/07 08:09:43","新北市林口區中山路276號","121.382593333333","25.0810566666667","6501700","林口區"
"244020","838-TS","2017/12/07 08:09:36","新北市林口區粉寮路二段350號","121.404701666667","25.0977483333333","6501700","林口區"
"231069","188-VK","2017/12/07 08:09:46","新北市新店區華潭街1巷2號","121.529468333333","24.9502833333333","6500600","新店區"
"231008","192-VK","2017/12/07 08:09:53","新北市新店區環河路2號","121.538396666667","24.9617666666667","6500600","新店區"
"226005","5620-A6","2017/12/07 08:08:40","新北市平溪區嶺腳里嶺腳寮83-2號","121.75117","25.035435","6502400","平溪區"
"226002","7418-A5","2017/12/07 08:09:51","新北市平溪區嶺腳里田子1-3號","121.750878333333","25.02351","6502400","平溪區"
"226003","AGD-0702","2017/12/07 08:09:57","新北市平溪區嶺腳里嶺腳寮111號","121.747058333333","25.0334783333333","6502400","平溪區"
"223006","022-BY","2017/12/07 08:09:41","新北市深坑區昇高坑路43號","121.629131666667","24.9973766666667","6501900","石碇區"
"223002","198-BX","2017/12/07 08:09:52","新北市石碇區小粗坑(格頭里)1號","121.654253333333","24.9550433333333","6501900","石碇區"
"223008","406-TH","2017/12/07 08:09:56","新北市石碇區石碇子埔31號","121.672288333333","25.0067883333333","6501900","石碇區"
"223001","437-BY","2017/12/07 08:09:36","新北市石碇區北宜路六段塗潭巷2號","121.64498","24.9378316666667","6501900","石碇區"
"223004","660-BX","2017/12/07 08:09:48","新北市石碇區外按16-1號","121.6506","24.99783","6501900","石碇區"
"223007","661-BX","2017/12/07 08:09:45","新北市石碇區靜安路一段157號","121.672231666667","25.0066966666667","6501900","石碇區"
"223005","677-TV","2017/12/07 08:09:45","新北市石碇區八分寮55-3號","121.644763333333","25.0122616666667","6501900","石碇區"
"252004","249-BX","2017/12/07 08:09:37","新北市三芝區興華里車埕36-11號","121.504465","25.1940416666667","6502100","三芝區"
"252007","702-TV","2017/12/07 08:09:44","新北市三芝區後厝里大片頭83-1號","121.458631666667","25.2449483333333","6502100","三芝區"
"237001","159-UY","2017/12/07 08:09:37","新北市三峽區學成路285號","121.376211666667","24.9432516666667","6500900","三峽區"
"236009","165-UM","2017/12/07 08:09:44","新北市土城區青雲路322巷12號","121.45754","24.9766433333333","6501300","土城區"
"236003","339-SR","2017/12/07 08:06:31","新北市土城區龍泉路79-1號","121.43002","24.9424983333333","6501300","土城區"
"236005","498-BY","2017/12/07 08:09:44","新北市土城區永平街51號","121.427591666667","24.9592483333333","6501300","土城區"
"242030","AAC-296","2017/12/07 08:09:48","新北市新莊區新泰路321巷3弄4號","121.444416666667","25.041255","6500500","新莊區"
"242028","986-R7","2017/12/07 08:09:49","新北市新莊區復興路二段93號","121.455721666667","25.04425","6500500","新莊區"
"242049","751-BX","2017/12/07 08:09:49","新北市新莊區西盛街223號","121.428143333333","25.0165433333333","6500500","新莊區"
"242024","615-BX","2017/12/07 08:09:54","新北市新莊區思源路226號","121.460118333333","25.0484583333333","6500500","新莊區"
"242022","613-BX","2017/12/07 08:09:58","新北市新莊區民樂街66號","121.457946666667","25.0421583333333","6500500","新莊區"
"242026","612-BX","2017/12/07 08:09:40","新北市新莊區福壽街81號","121.45817","25.04993","6500500","新莊區"
"242038","566-BX","2017/12/07 08:09:39","新北市新莊區民全街2號","121.42903","25.0211383333333","6500500","新莊區"
"242043","497-BY","2017/12/07 08:09:48","新北市新莊區中正路871巷9弄44號","121.41992","25.0266766666667","6500500","新莊區"
"242052","442-UM","2017/12/07 08:09:41","新北市樹林區樹新路120巷13號","121.430411666667","24.9971016666667","6500500","新莊區"
"242047","441-UM","2017/12/07 08:09:54","新北市新莊區萬安街113號","121.420835","25.0227283333333","6500500","新莊區"
"242020","440-UM","2017/12/07 08:09:46","新北市新莊區復興路一段214號","121.452901666667","25.0437166666667","6500500","新莊區"
"242033","415-TV","2017/12/07 08:09:47","新北市新莊區新莊路546號","121.445186666667","25.0329566666667","6500500","新莊區"
"242003","413-TV","2017/12/07 08:09:39","新北市新莊區自立街206號","121.456888333333","25.04552","6500500","新莊區"
"242040","400-BY","2017/12/07 08:09:47","新北市新莊區中正路626號","121.422263333333","25.0288516666667","6500500","新莊區"
"242059","362-BY","2017/12/07 08:09:52","新北市新莊區瓊林南路73號","121.435155","25.0155866666667","6500500","新莊區"
"242057","353-BY","2017/12/07 08:09:45","新北市新莊區中正路730-5號","121.414755","25.02363","6500500","新莊區"
"242035","133-UY","2017/12/07 08:09:47","新北市新莊區建福路59巷38號","121.428445","25.02776","6500500","新莊區"
"242045","172-VK","2017/12/07 08:09:48","新北市新莊區中正路589號","121.434161666667","25.0323566666667","6500500","新莊區"
"242008","173-VK","2017/12/07 00:40:16","新北市新莊區三和路12-21號","121.441961666667","25.0388066666667","6500500","新莊區"
"242014","175-VK","2017/12/07 08:09:43","新北市新莊區中平路37號","121.444696666667","25.0439483333333","6500500","新莊區"
"242001","176-VK","2017/12/07 08:09:51","新北市新莊區新莊路304號","121.451023333333","25.033745","6500500","新莊區"
"242012","346-TH","2017/12/07 08:09:42","新北市新莊區中誠街127號","121.449256666667","25.0474883333333","6500500","新莊區"
"242006","347-TH","2017/12/07 08:09:58","新北市新莊區福樂街108巷15號","121.457661666667","25.0482616666667","6500500","新莊區"
"242018","348-TH","2017/12/07 08:09:51","新北市新莊區中港路180號","121.454913333333","25.0420566666667","6500500","新莊區"
"242055","349-TH","2017/12/07 08:09:48","新北市新莊區瓊林路38-4號","121.448486666667","25.030585","6500500","新莊區"
"242016","350-TH","2017/12/07 08:09:47","新北市新莊區復興路一段89號","121.448645","25.0428016666667","6500500","新莊區"
"242010","351-TH","2017/12/07 08:09:43","新北市新莊區榮華路二段2號","121.450853333333","25.0557916666667","6500500","新莊區"
"220057","282-UM","2017/12/07 08:09:42","新北市新莊區中環路一段30號","121.442541666667","25.0272616666667","6500100","板橋區"
