"lineid","car","time","location","longitude","latitude","cityid","cityname"
"248005","653-BX","2017/12/07 10:09:57","新北市五股區中興路二段37巷24號","121.460738333333","25.075215","6501500","五股區"
"244018","403-UM","2017/12/07 10:09:51","新北市林口區麗園二街3巷2-3號","121.378425","25.06954","6501700","林口區"
"244022","483-VK","2017/12/07 10:09:42","新北市林口區文林六街2-1號","121.370636666667","25.0797833333333","6501700","林口區"
"244025","837-TS","2017/12/07 09:26:41","新北市林口區粉寮路二段160巷28號","121.4052","25.09075","6501700","林口區"
"231069","188-VK","2017/12/07 10:09:46","新北市新店區新潭路三段215巷25號","121.508171666667","24.9040916666667","6500600","新店區"
"231008","192-VK","2017/12/07 10:09:53","新北市新店區平廣路一段22號","121.53743","24.9057883333333","6500600","新店區"
"252004","249-BX","2017/12/07 10:09:57","新北市三芝區福德里埔尾13-1號","121.504325","25.2445433333333","6502100","三芝區"
"252007","702-TV","2017/12/07 10:09:44","新北市三芝區新庄里新庄子61-2號","121.507791666667","25.27406","6502100","三芝區"
"242047","441-UM","2017/12/07 10:09:54","新北市樹林區中山路三段210-2號","121.38206","24.9657166666667","6500500","新莊區"
