"lineid","car","time","location","longitude","latitude","cityid","cityname"
"234078","298-R6","2017/12/07 12:25:46","新北市永和區福和路1號","121.526026666667","25.009185","6500400","永和區"
"234084","338-UY","2017/12/07 12:25:50","新北市永和區福和路1號","121.526528333333","25.009625","6500400","永和區"
"234015","745-BX","2017/12/07 12:25:50","新北市永和區福和路1號","121.526198333333","25.0094866666667","6500400","永和區"
"234040","862-TW","2017/12/07 12:25:53","新北市永和區福和路1號","121.526488333333","25.0096233333333","6500400","永和區"
"234048","863-TW","2017/12/07 12:25:45","新北市永和區福和路1號","121.52659","25.0097066666667","6500400","永和區"
"234076","969-R7","2017/12/07 12:25:46","新北市永和區福和路1號","121.526633333333","25.009755","6500400","永和區"
"244018","403-UM","2017/12/07 11:07:11","新北市林口區粉寮69號","121.405103333333","25.090785","6501700","林口區"
"244025","837-TS","2017/12/07 10:45:15","新北市林口區粉寮路二段160巷28號","121.405208333333","25.0907333333333","6501700","林口區"
"243007","380-SR","2017/12/07 03:22:49","新北市泰山區犁頭窠3-1號","121.422223333333","25.06055","6501600","泰山區"
"235025","378-QA","2017/12/07 03:15:34","新北市中和區員山路36巷13號","121.484063333333","24.991275","6500300","中和區"
"235026","800-TS","2017/12/07 01:28:43","新北市中和區員山路36巷16-3號","121.48487","24.9916633333333","6500300","中和區"
"228005","097-TW","2017/12/07 12:25:54","新北市貢寮區福連里蓬萊街9號","121.996978333333","25.0040383333333","6502600","貢寮區"
"228004","212-TW","2017/12/07 12:25:48","新北市貢寮區貢寮里長泰路1號","121.907276666667","25.018865","6502600","貢寮區"
"207002","749-BX","2017/12/07 12:25:49","新北市萬里區雙興里太和路7-2號","121.658603333333","25.1740933333333","6502800","萬里區"
"221012","276-VK","2017/12/07 12:25:50","新北市汐止區中正路203號","121.658495","25.0689633333333","6501100","汐止區"
