"lineid","car","time","location","longitude","latitude","cityid","cityname"
"234044","148-BY","2017/12/07 12:47:41","新北市永和區得和路373巷31弄12號","121.524376666667","25.0004783333333","6500400","永和區"
"234012","149-BY","2017/12/07 12:47:30","新北市永和區仁愛路202巷24號","121.509021666667","25.01297","6500400","永和區"
"234005","207-UY","2017/12/07 12:47:28","新北市永和區文化路123號","121.512233333333","25.0153316666667","6500400","永和區"
"234078","298-R6","2017/12/07 12:47:25","新北市永和區永利路150號","121.522395","25.0027883333333","6500400","永和區"
"234036","336-UY","2017/12/07 12:47:34","新北市永和區豫溪街217巷21號","121.524743333333","25.0102916666667","6500400","永和區"
"234062","337-UY","2017/12/07 12:47:32","新北市永和區福和路1號","121.526583333333","25.01015","6500400","永和區"
"234084","338-UY","2017/12/07 12:47:38","新北市中和區安樂路101-2號","121.513396666667","24.99499","6500400","永和區"
"234068","552-UM","2017/12/07 12:47:43","新北市永和區竹林路147號","121.520446666667","25.0105616666667","6500400","永和區"
"234052","553-UM","2017/12/07 12:47:35","新北市永和區福和路1號","121.526098333333","25.0094933333333","6500400","永和區"
"234015","745-BX","2017/12/07 12:47:30","新北市永和區忠孝街26巷27弄1號","121.515245","25.0169866666667","6500400","永和區"
"234028","746-BX","2017/12/07 12:47:37","新北市永和區得和路327號","121.523491666667","24.999645","6500400","永和區"
"234060","AAD-866","2017/12/07 12:47:35","新北市永和區福和路307號","121.516238333333","25.007095","6500400","永和區"
"234040","862-TW","2017/12/07 12:47:33","新北市永和區永貞路308號","121.51182","25.00487","6500400","永和區"
"234048","863-TW","2017/12/07 12:47:45","新北市永和區保安路2號","121.510826666667","25.0174966666667","6500400","永和區"
"234025","9371-KE","2017/12/07 12:47:32","新北市永和區中正路696-1號","121.516516666667","25.0098683333333","6500400","永和區"
"234010","9373-KE","2017/12/07 12:47:43","新北市永和區保福路二段158巷1號","121.509146666667","25.0150583333333","6500400","永和區"
"248015","026-BX","2017/12/07 12:47:28","新北市五股區中興路二段83巷26-6號","121.459935","25.0752266666667","6501500","五股區"
"248005","077-UY","2017/12/07 12:47:30","新北市五股區中興路二段37巷28號","121.460166666667","25.0748583333333","6501500","五股區"
"248007","095-VK","2017/12/07 12:47:37","新北市五股區中興路二段37巷28號","121.46026","25.0750466666667","6501500","五股區"
"234022","9380-KE","2017/12/07 12:47:41","新北市永和區竹林路119巷28號","121.521451666667","25.011765","6500400","永和區"
"234076","969-R7","2017/12/07 12:47:26","新北市永和區中正路74號","121.513588333333","24.995085","6500400","永和區"
"234072","AAC-211","2017/12/07 12:47:36","新北市永和區福和路1號","121.526218333333","25.0094766666667","6500400","永和區"
"234066","AAC-212","2017/12/07 12:47:39","新北市永和區中和路625號","121.513013333333","25.004895","6500400","永和區"
"234001","AAC-295","2017/12/07 12:47:29","新北市永和區福和路169號","121.52009","25.0076533333333","6500400","永和區"
"244018","403-UM","2017/12/07 11:07:11","新北市林口區粉寮69號","121.405103333333","25.090785","6501700","林口區"
"244025","837-TS","2017/12/07 10:45:15","新北市林口區粉寮路二段160巷28號","121.405208333333","25.0907333333333","6501700","林口區"
"243007","380-SR","2017/12/07 03:22:49","新北市泰山區犁頭窠3-1號","121.422223333333","25.06055","6501600","泰山區"
"243001","KEA-2216","2017/12/07 12:33:17","新北市泰山區黎明路31號","121.421565","25.06065","6501600","泰山區"
"231030","047-UY","2017/12/07 12:47:38","新北市新店區安華路28-1號","121.519186666667","24.960945","6500600","新店區"
"231029","106-UY","2017/12/07 02:58:14","新北市新店區安華路28-1號","121.519666666667","24.960675","6500600","新店區"
"231018","107-UY","2017/12/07 12:47:29","新北市新店區安華路28-1號","121.519403333333","24.9612983333333","6500600","新店區"
"231011","108-UY","2017/12/07 04:27:09","新北市新店區安華路28-1號","121.51943","24.96085","6500600","新店區"
"231017","KEA-2219","2017/12/07 12:47:41","新北市新店區安華路28-1號","121.52014","24.9613683333333","6500600","新店區"
"231010","278-BY","2017/12/07 00:56:51","新北市新店區安華路28-1號","121.51961","24.961135","6500600","新店區"
"231023","AAD-862","2017/12/07 08:31:58","新北市新店區安華路28-1號","121.519973333333","24.9610516666667","6500600","新店區"
"231036","512-UM","2017/12/07 12:47:42","新北市新店區安華路28-1號","121.519298333333","24.9613633333333","6500600","新店區"
"231001","619-UM","2017/12/07 04:30:55","新北市新店區安華路28-1號","121.519386666667","24.9608483333333","6500600","新店區"
"231013","719-UM","2017/12/07 12:47:29","新北市新店區安華路28-1號","121.519551666667","24.9613633333333","6500600","新店區"
"231031","720-UM","2017/12/07 12:47:35","新北市新店區安華路28-1號","121.519363333333","24.9613316666667","6500600","新店區"
"231004","899-TW","2017/12/07 04:01:06","新北市新店區安華路28-1號","121.519168333333","24.9608416666667","6500600","新店區"
"231037","AKT-0513","2017/12/07 12:47:45","新北市新店區安華路1-1號","121.519636666667","24.9604733333333","6500600","新店區"
"235029","098-UM","2017/12/07 12:47:38","新北市中和區員山路36巷16-3號","121.485095","24.9911766666667","6500300","中和區"
"235002","185-VK","2017/12/07 12:47:42","新北市中和區錦和路350-1號","121.490578333333","24.9935866666667","6500300","中和區"
"235031","255-BX","2017/12/07 12:47:26","新北市中和區中正路1163號","121.481541666667","25.009345","6500300","中和區"
"235025","378-QA","2017/12/07 03:15:34","新北市中和區員山路36巷13號","121.484063333333","24.991275","6500300","中和區"
"235026","800-TS","2017/12/07 01:28:43","新北市中和區員山路36巷16-3號","121.48487","24.9916633333333","6500300","中和區"
"228005","097-TW","2017/12/07 12:47:32","新北市貢寮區福連里福連街34-1號","121.988673333333","25.0110983333333","6502600","貢寮區"
"228004","212-TW","2017/12/07 12:47:27","新北市貢寮區吉林里內寮街20-1號","121.889778333333","24.99481","6502600","貢寮區"
"208004","AAC-292","2017/12/07 12:47:41","新北市金山區磺清路135號","121.639366666667","25.2276933333333","6502700","金山區"
"207002","749-BX","2017/12/07 12:46:48","新北市萬里區雙興里二坪路6號","121.6513","25.1741083333333","6502800","萬里區"
"207001","662-BX","2017/12/07 12:47:32","新北市萬里區萬里里瑪鋉頂街48-1號","121.689421666667","25.1796316666667","6502800","萬里區"
"236005","498-BY","2017/12/07 12:47:39","新北市土城區永平街51號","121.427575","24.9591066666667","6501300","土城區"
"221012","276-VK","2017/12/07 12:47:30","新北市汐止區中正路144號","121.659923333333","25.0693366666667","6501100","汐止區"
"221032","280-BY","2017/12/07 12:47:35","新北市汐止區汐萬路一段310號","121.65031","25.0748766666667","6501100","汐止區"
"221021","299-VK","2017/12/07 12:47:27","新北市汐止區汐萬路一段256巷3號","121.652041666667","25.07492","6501100","汐止區"
