"lineid","car","time","location","longitude","latitude","cityid","cityname"
"234026","9371-KE","2017/12/07 17:49:47","新北市永和區中山路一段19號","121.51374","25.0102766666667","6500400","永和區"
"249005","172-UM","2017/12/07 17:49:52","新北市八里區荖阡里41號","121.402316666667","25.1347","6502300","八里區"
"249001","173-UM","2017/12/07 17:49:53","新北市八里區龍米路二段125巷2號","121.446473333333","25.1450083333333","6502300","八里區"
"249004","303-UY","2017/12/07 17:49:46","新北市八里區中華路一段81巷22號","121.419576666667","25.15552","6502300","八里區"
"249002","305-UY","2017/12/07 17:49:56","新北市八里區龍形五街37巷3-1號","121.448618333333","25.1326066666667","6502300","八里區"
"249003","759-BX","2017/12/07 17:49:48","新北市八里區中山路二段125號","121.405461666667","25.1518116666667","6502300","八里區"
"248016","026-BX","2017/12/07 17:48:29","新北市五股區中興路二段83巷26-6號","121.460045","25.0752483333333","6501500","五股區"
"248006","077-UY","2017/12/07 17:49:37","新北市五股區中興路二段37巷28號","121.460031666667","25.0749066666667","6501500","五股區"
"232011","375-UM","2017/12/07 17:49:48","新北市坪林區北宜路八段22號","121.702861666667","24.9362066666667","6502000","坪林區"
"244013","069-UM","2017/12/07 17:49:36","新北市林口區中正路505巷4號","121.38333","25.077195","6501700","林口區"
"244007","080-UY","2017/12/07 17:49:39","新北市林口區林口路131號","121.388741666667","25.08114","6501700","林口區"
"244019","403-UM","2017/12/07 17:49:49","新北市林口區文化一路一段89-5號","121.371903333333","25.0703966666667","6501700","林口區"
"244009","410-SL","2017/12/07 17:49:47","新北市林口區文化一路二段217-2號","121.384246666667","25.0832566666667","6501700","林口區"
"244023","483-VK","2017/12/07 17:49:49","新北市林口區東湖路12巷54號","121.388851666667","25.0750883333333","6501700","林口區"
"244017","485-VK","2017/12/07 17:49:35","新北市林口區忠孝路377號","121.369266666667","25.0715666666667","6501700","林口區"
"244011","701-TV","2017/12/07 17:49:42","新北市林口區佳林路257號","121.382763333333","25.0761066666667","6501700","林口區"
"244025","837-TS","2017/12/07 17:49:53","新北市林口區文化三路一段165號","121.361825","25.0690516666667","6501700","林口區"
"244021","838-TS","2017/12/07 17:49:37","新北市林口區仁愛路一段139巷15號","121.397875","25.0716483333333","6501700","林口區"
"243015","380-SR","2017/12/07 17:46:24","新北市泰山區犁頭窠3-1號","121.42222","25.06051","6501600","泰山區"
"243013","646-TV","2017/12/07 17:49:49","新北市泰山區自強路39號","121.405473333333","25.0550983333333","6501600","泰山區"
"243016","680-BX","2017/12/07 15:52:25","新北市泰山區黎明路25號","121.42214","25.0607016666667","6501600","泰山區"
"222003","436-BY","2017/12/07 17:49:46","新北市深坑區阿柔洋60-1號","121.608601666667","24.9985233333333","6501800","深坑區"
"222002","659-BX","2017/12/07 17:49:37","新北市深坑區平埔街22巷17弄1號","121.614895","25.0008533333333","6501800","深坑區"
"231046","278-BY","2017/12/07 17:49:44","新北市新店區下石厝路2-1號","121.531616666667","24.9280616666667","6500600","新店區"
"241005","262-UM","2017/12/07 17:49:54","新北市三重區五華街141巷58號","121.493578333333","25.0867116666667","6500200","三重區"
"241016","266-UM","2017/12/07 17:49:43","新北市三重區重新路三段45-1號","121.493268333333","25.0613666666667","6500200","三重區"
"241030","480-VK","2017/12/07 17:49:40","新北市五股區天乙路102-22號","121.448693333333","25.1070616666667","6500200","三重區"
"241024","743-BX","2017/12/07 17:39:59","新北市三重區力行路二段4號","121.481713333333","25.071935","6500200","三重區"
"241012","941-UM","2017/12/07 17:49:43","新北市三重區龍濱路190號","121.501143333333","25.0732783333333","6500200","三重區"
"241033","AAC-255","2017/12/07 17:49:45","新北市三重區光復路一段7號","121.472046666667","25.0471333333333","6500200","三重區"
"235046","031-BX","2017/12/07 15:54:34","新北市中和區員山路36巷16-2號","121.485288333333","24.9916083333333","6500300","中和區"
"235038","185-VK","2017/12/07 17:49:47","新北市中和區員山路36巷16-3號","121.485106666667","24.9915616666667","6500300","中和區"
"235061","378-QA","2017/12/07 15:40:31","新北市中和區員山路36巷13號","121.483943333333","24.9914366666667","6500300","中和區"
"247022","893-R6","2017/12/07 17:49:39","新北市蘆洲區中正路304號","121.464816666667","25.0905183333333","6501400","蘆洲區"
"247012","546-UM","2017/12/07 17:49:49","新北市蘆洲區復興路21號","121.4756","25.086975","6501400","蘆洲區"
"247020","500-BY","2017/12/07 17:49:50","新北市蘆洲區民義街71巷13號","121.47273","25.0904283333333","6501400","蘆洲區"
"247008","341-TH","2017/12/07 17:49:48","新北市蘆洲區中山一路223巷14號","121.474033333333","25.0802866666667","6501400","蘆洲區"
"247010","339-TH","2017/12/07 17:49:40","新北市蘆洲區民族路106號","121.47829","25.085235","6501400","蘆洲區"
"247002","337-TH","2017/12/07 17:49:47","新北市蘆洲區永平街32巷21弄35號","121.457831666667","25.0922516666667","6501400","蘆洲區"
"247004","336-TH","2017/12/07 17:49:49","新北市蘆洲區永安南路二段328巷17弄16號","121.45571","25.0838266666667","6501400","蘆洲區"
"247024","335-TH","2017/12/07 17:49:50","新北市蘆洲區光榮路76號","121.463385","25.08872","6501400","蘆洲區"
"247016","057-VK","2017/12/07 17:49:40","新北市蘆洲區中正路185巷25弄14號","121.467006666667","25.0839066666667","6501400","蘆洲區"
"247006","056-VK","2017/12/07 17:49:43","新北市蘆洲區九芎街115號","121.465538333333","25.0794466666667","6501400","蘆洲區"
"247014","007-UY","2017/12/07 17:49:47","新北市蘆洲區保和街50-8號","121.469998333333","25.0863466666667","6501400","蘆洲區"
"247018","001-UY","2017/12/07 17:49:50","新北市蘆洲區復興路103號","121.47684","25.08772","6501400","蘆洲區"
"228003","097-TW","2017/12/07 17:49:53","新北市貢寮區真理里延平街72-5號","121.925185","25.0581233333333","6502600","貢寮區"
"228001","212-TW","2017/12/07 17:49:44","新北市貢寮區仁理村仁愛路95-1號","121.927673333333","25.0554216666667","6502600","貢寮區"
"228002","585-TW","2017/12/07 17:49:40","新北市貢寮區福隆里龜壽谷街12號","121.955708333333","25.0063833333333","6502600","貢寮區"
"224006","676-BX","2017/12/07 17:49:53","新北市瑞芳區傑魚坑路151號","121.790085","25.109675","6501200","瑞芳區"
"224002","639-TC","2017/12/07 17:49:39","新北市瑞芳區明燈路二段46號","121.809456666667","25.1081333333333","6501200","瑞芳區"
"224009","285-BY","2017/12/07 17:49:47","新北市瑞芳區金光路336號","121.849795","25.1099116666667","6501200","瑞芳區"
"224008","275-VK","2017/12/07 17:49:48","新北市瑞芳區明燈路一段194號","121.818891666667","25.1079366666667","6501200","瑞芳區"
"224007","273-VK","2017/12/07 17:49:52","新北市瑞芳區八分寮路12號","121.796225","25.089245","6501200","瑞芳區"
"224005","271-BY","2017/12/07 17:49:39","新北市瑞芳區建基路一段60號","121.817146666667","25.1275033333333","6501200","瑞芳區"
"253006","295-VK","2017/12/07 17:49:41","新北市石門區中央路5號","121.566351666667","25.2915383333333","6502200","石門區"
"208002","742-BX","2017/12/07 17:49:36","新北市金山區磺清路135號","121.639293333333","25.2275883333333","6502700","金山區"
"208003","665-BX","2017/12/07 17:49:52","新北市金山區磺清路135號","121.639506666667","25.2277616666667","6502700","金山區"
"208001","761-BX","2017/12/07 17:49:44","新北市金山區磺清路135號","121.639358333333","25.22773","6502700","金山區"
"251009","008-UM","2017/12/07 17:49:42","新北市淡水區長興街20-1號","121.444001666667","25.1710716666667","6501000","淡水區"
"251004","009-UM","2017/12/07 17:49:49","新北市淡水區民權一街21號","121.458875","25.1362366666667","6501000","淡水區"
"251007","179-VK","2017/12/07 17:49:54","新北市淡水區民生路18號","121.46099","25.13764","6501000","淡水區"
"251008","181-VK","2017/12/07 17:49:39","新北市淡水區八勢路一段156號","121.468141666667","25.15645","6501000","淡水區"
"251014","182-VK","2017/12/07 17:49:45","新北市淡水區公埔子16-6號","121.481006666667","25.2245466666667","6501000","淡水區"
"251010","413-VK","2017/12/07 17:49:40","新北市淡水區中正路二段96號","121.41792","25.18526","6501000","淡水區"
"251012","441-VK","2017/12/07 17:49:35","新北市淡水區水頭43-1號","121.476893333333","25.1856816666667","6501000","淡水區"
"251016","442-VK","2017/12/07 17:49:53","新北市淡水區埤島39-15號","121.45272","25.1958733333333","6501000","淡水區"
"251005","443-VK","2017/12/07 17:49:50","新北市淡水區學府路102巷15號","121.450956666667","25.171945","6501000","淡水區"
"251001","559-UM","2017/12/07 17:49:46","新北市淡水區民權路92巷35-1號","121.46208","25.1266633333333","6501000","淡水區"
"251006","561-UM","2017/12/07 17:49:49","新北市淡水區新生街51巷32號","121.440908333333","25.17588","6501000","淡水區"
"251011","650-BX","2017/12/07 17:44:09","新北市淡水區吳(仔)厝10-3號","121.48204","25.1494833333333","6501000","淡水區"
"251002","672-BX","2017/12/07 17:49:49","新北市淡水區中山路42號","121.444205","25.1700083333333","6501000","淡水區"
"251003","766-UM","2017/12/07 17:49:41","新北市淡水區大忠街66號","121.444588333333","25.17627","6501000","淡水區"
"207003","550-UM","2017/12/07 17:49:41","新北市萬里區野柳里東澳路66號","121.692695","25.200915","6502800","萬里區"
"207004","225-TW","2017/12/07 17:49:44","新北市萬里區萬里里瑪鋉頂街61號","121.688386666667","25.18047","6502800","萬里區"
"252001","292-VK","2017/12/07 17:49:37","新北市三芝區淡金路一段17號","121.498801666667","25.2596","6502100","三芝區"
"252002","702-TV","2017/12/07 17:49:41","新北市三芝區民生街30號","121.503595","25.2566066666667","6502100","三芝區"
"237009","210-TH","2017/12/07 17:49:54","新北市三峽區大勇路27號","121.367193333333","24.93632","6500900","三峽區"
"237013","252-BX","2017/12/07 17:49:47","新北市三峽區愛國路16巷2號","121.373996666667","24.9335333333333","6500900","三峽區"
"237012","275-BY","2017/12/07 17:49:39","新北市三峽區文化路59號","121.372291666667","24.9361066666667","6500900","三峽區"
"237008","302-VK","2017/12/07 17:49:46","新北市三峽區正義街2號","121.369761666667","24.9201133333333","6500900","三峽區"
"237014","433-BY","2017/12/07 17:49:35","新北市三峽區文化路120巷7號","121.37103","24.9365033333333","6500900","三峽區"
"237006","5529-G3","2017/12/07 17:49:51","新北市三峽區介壽路二段34-2號","121.391293333333","24.9351183333333","6500900","三峽區"
"237011","572-TV","2017/12/07 17:39:11","新北市三峽區中山路100號","121.36641","24.935475","6500900","三峽區"
"237016","649-BX","2017/12/06 10:49:54","新北市三峽區中山路459巷137號","121.349958333333","24.933995","6500900","三峽區"
"237005","AKY-6261","2017/12/07 17:49:43","新北市三峽區中山路321-2號","121.360951666667","24.9379866666667","6500900","三峽區"
"236071","105-UM","2017/12/07 17:49:42","新北市土城區學府路一段294號","121.449501666667","24.9825483333333","6501300","土城區"
"236042","107-UM","2017/12/07 17:49:37","新北市土城區城林路6巷80號","121.438498333333","24.9797133333333","6501300","土城區"
"236078","166-UM","2017/12/07 04:04:07","新北市土城區城林路6巷80號","121.438331666667","24.9797266666667","6501300","土城區"
"236030","253-BX","2017/12/07 17:49:41","新北市土城區城林路6巷80號","121.438526666667","24.97974","6501300","土城區"
"236014","270-VK","2017/12/07 17:49:35","新北市土城區城林路6巷80號","121.438546666667","24.9796083333333","6501300","土城區"
"236037","271-VK","2017/12/07 17:49:41","新北市土城區城林路6巷80號","121.438435","24.9797266666667","6501300","土城區"
"236021","401-BY","2017/12/07 17:49:51","新北市土城區城林路6巷80號","121.438551666667","24.97977","6501300","土城區"
"236058","912-UM","2017/12/07 17:49:38","新北市土城區城林路6巷80號","121.438448333333","24.97964","6501300","土城區"
"236051","913-UM","2017/12/07 17:49:41","新北市土城區城林路6巷80號","121.438513333333","24.9796516666667","6501300","土城區"
"236062","915-UM","2017/12/07 17:49:45","新北市土城區城林路6巷80號","121.438618333333","24.9796533333333","6501300","土城區"
"236053","AAC-216","2017/12/07 17:49:41","新北市土城區城林路6巷80號","121.438458333333","24.9795933333333","6501300","土城區"
"242031","AAC-296","2017/12/07 17:49:35","新北市新莊區新泰路357巷1弄2號","121.442763333333","25.0413283333333","6500500","新莊區"
"242029","986-R7","2017/12/07 17:49:39","新北市新莊區復興路一段63號","121.447655","25.0423966666667","6500500","新莊區"
"242050","751-BX","2017/12/07 17:49:42","新北市新莊區西盛街269巷21號","121.428863333333","25.01557","6500500","新莊區"
"242025","615-BX","2017/12/07 17:49:54","新北市三重區新北大道二段39號","121.470651666667","25.0612783333333","6500500","新莊區"
"242023","613-BX","2017/12/07 17:49:52","新北市新莊區福樂街21號","121.457803333333","25.0451516666667","6500500","新莊區"
"242027","612-BX","2017/12/07 17:49:54","新北市新莊區福壽街153號","121.458013333333","25.0532366666667","6500500","新莊區"
"242039","566-BX","2017/12/07 17:49:53","新北市新莊區民安路172號","121.425078333333","25.024","6500500","新莊區"
"242044","497-BY","2017/12/07 17:49:41","新北市新莊區中正路857-4號","121.419018333333","25.0278816666667","6500500","新莊區"
"242053","442-UM","2017/12/07 17:49:54","新北市新莊區民安西路468-1號","121.431633333333","25.0078316666667","6500500","新莊區"
"242048","441-UM","2017/12/07 17:49:50","新北市新莊區萬安街146巷24號","121.420033333333","25.0220033333333","6500500","新莊區"
"242034","415-TV","2017/12/07 17:49:43","新北市新莊區新莊路682-7號","121.440811666667","25.0326933333333","6500500","新莊區"
"242004","413-TV","2017/12/07 17:49:47","新北市新莊區思源路177巷5弄12號","121.458835","25.0450166666667","6500500","新莊區"
"242042","400-BY","2017/12/07 17:49:45","新北市新莊區中正路612-1號","121.426155","25.030205","6500500","新莊區"
"242061","362-BY","2017/12/07 17:49:41","新北市新莊區新樹路607號","121.43347","25.005555","6500500","新莊區"
"242058","353-BY","2017/12/07 17:49:52","新北市新莊區中正路704-1號","121.417431666667","25.02578","6500500","新莊區"
"242036","133-UY","2017/12/07 17:49:40","新北市新莊區建福路59巷14號","121.42743","25.0274283333333","6500500","新莊區"
"242021","135-UY","2017/12/07 17:49:49","新北市新莊區永寧街35巷1號","121.452855","25.0392366666667","6500500","新莊區"
"242046","172-VK","2017/12/07 17:49:42","新北市新莊區建國一路31巷11號","121.434801666667","25.031675","6500500","新莊區"
"242009","173-VK","2017/12/07 17:49:40","新北市新莊區昌平街6號","121.454923333333","25.052525","6500500","新莊區"
"242015","175-VK","2017/12/07 17:49:44","新北市新莊區新泰路466號","121.443151666667","25.04493","6500500","新莊區"
"242002","176-VK","2017/12/07 17:49:53","新北市新莊區景德路174號","121.45024","25.034115","6500500","新莊區"
"242013","346-TH","2017/12/07 17:49:53","新北市新莊區中誠街167號","121.44822","25.0473616666667","6500500","新莊區"
"242007","347-TH","2017/12/07 17:49:40","新北市新莊區福樂街108巷20號","121.457791666667","25.0481966666667","6500500","新莊區"
"242019","348-TH","2017/12/07 17:49:40","新北市新莊區復興路二段18號","121.454061666667","25.0439666666667","6500500","新莊區"
"242056","349-TH","2017/12/07 17:49:40","新北市新莊區瓊林路40巷29號","121.446605","25.0301533333333","6500500","新莊區"
"242017","350-TH","2017/12/07 17:49:49","新北市新莊區中港路312號","121.452451666667","25.0452583333333","6500500","新莊區"
"242011","351-TH","2017/12/07 17:49:42","新北市新莊區富貴路161號","121.450103333333","25.0569433333333","6500500","新莊區"
"238015","755-BX","2017/12/07 17:49:51","新北市樹林區長壽街19巷2號","121.421738333333","24.9941633333333","6500700","樹林區"
"238023","601-UM","2017/12/07 17:49:39","新北市樹林區福興街3號","121.404321666667","25.0170816666667","6500700","樹林區"
"238019","599-UM","2017/12/07 17:49:36","新北市樹林區太平路148號","121.418523333333","24.9780666666667","6500700","樹林區"
"238018","571-TV","2017/12/07 17:49:47","新北市樹林區保安街一段18號","121.42771","24.9931983333333","6500700","樹林區"
"238021","KEA-2217","2017/12/07 17:49:49","新北市樹林區柑園街一段253巷35號","121.396781666667","24.9536983333333","6500700","樹林區"
"238022","KEA-2213","2017/12/07 17:49:42","新北市樹林區太順街62巷3弄8號","121.417283333333","24.9796","6500700","樹林區"
"238025","303-VK","2017/12/07 17:49:36","新北市樹林區俊興街209-3號","121.417371666667","25.0141283333333","6500700","樹林區"
"238017","283-BY","2017/12/07 17:49:52","新北市樹林區三德街30巷5號","121.414598333333","25.0129166666667","6500700","樹林區"
"238014","282-BY","2017/12/07 17:49:37","新北市樹林區保安街一段289巷56號","121.416975","24.9962566666667","6500700","樹林區"
"238007","268-VK","2017/12/07 17:49:39","新北市樹林區三俊街201號","121.420096666667","25.01568","6500700","樹林區"
"238026","172-UY","2017/12/07 17:49:51","新北市樹林區中洲街51巷4號","121.39671","24.9709883333333","6500700","樹林區"
"238016","169-UY","2017/12/07 17:49:43","新北市樹林區復興路371號","121.416943333333","24.9870866666667","6500700","樹林區"
"239007","AAC-297","2017/12/07 17:49:43","新北市鶯歌區鶯桃路120巷15號","121.33882","24.9551466666667","6500800","鶯歌區"
"239006","891-R6","2017/12/07 17:49:45","新北市鶯歌區鳳鳴路160號","121.334703333333","24.967845","6500800","鶯歌區"
"239008","527-UM","2017/12/07 17:49:38","新北市鶯歌區大湖路700巷14號","121.333673333333","24.9766983333333","6500800","鶯歌區"
"239005","526-UM","2017/12/07 17:49:41","新北市鶯歌區鳳吉四街45號","121.327388333333","24.9731483333333","6500800","鶯歌區"
"239001","417-VK","2017/12/07 17:49:55","新北市鶯歌區中正三路446-3號","121.32353","24.93452","6500800","鶯歌區"
"239003","360-BY","2017/12/07 17:49:53","新北市鶯歌區鶯桃路285巷23號","121.334188333333","24.958885","6500800","鶯歌區"
"239002","359-BY","2017/12/07 17:49:34","新北市鶯歌區光明街93號","121.345026666667","24.9557466666667","6500800","鶯歌區"
"239004","193-VK","2017/12/07 17:49:45","新北市鶯歌區文化路136巷2號","121.351791666667","24.9512483333333","6500800","鶯歌區"
"221008","489-VK","2017/12/07 17:49:34","新北市汐止區康寧街901號","121.651361666667","25.0750233333333","6501100","汐止區"
"221036","130-UY","2017/12/07 17:49:45","新北市汐止區長江街75號","121.65714","25.072105","6501100","汐止區"
"221010","269-BY","2017/12/07 17:49:41","新北市汐止區汐萬路一段403號","121.64934","25.0791416666667","6501100","汐止區"
"221012","276-VK","2017/12/07 13:23:29","新北市汐止區汐萬路一段256巷3號","121.653446666667","25.0746733333333","6501100","汐止區"
"221012","278-VK","2017/12/07 17:49:54","新北市汐止區長江街69號","121.656925","25.07198","6501100","汐止區"
"221023","279-VK","2017/12/07 17:49:56","新北市汐止區民族二街23號","121.634266666667","25.0702416666667","6501100","汐止區"
"221032","280-BY","2017/12/07 17:49:37","新北市汐止區大同路一段148號","121.631528333333","25.0556283333333","6501100","汐止區"
"221027","281-BY","2017/12/07 17:49:37","新北市汐止區汐萬路一段312號","121.650441666667","25.0752333333333","6501100","汐止區"
"221029","298-VK","2017/12/07 17:49:43","新北市汐止區康寧街901號","121.651433333333","25.0748066666667","6501100","汐止區"
"221021","299-VK","2017/12/07 17:49:38","新北市汐止區大同路二段341-1號","121.65618","25.067135","6501100","汐止區"
"221031","353-TW","2017/12/07 17:49:44","新北市汐止區樟樹二路351-1號","121.643756666667","25.0739","6501100","汐止區"
"221015","567-BX","2017/12/07 17:49:52","新北市汐止區長江街213號","121.661195","25.0776166666667","6501100","汐止區"
"221035","622-UM","2017/12/07 17:49:55","新北市汐止區汐萬路一段172號","121.652405","25.071755","6501100","汐止區"
"221025","623-UM","2017/12/07 17:49:43","新北市汐止區仁愛路1號","121.658653333333","25.064285","6501100","汐止區"
"221038","646-BX","2017/12/07 17:49:50","新北市汐止區汐萬路一段273號","121.650491666667","25.0744416666667","6501100","汐止區"
"221033","647-BX","2017/12/07 17:49:39","新北市汐止區林森街78號","121.623991666667","25.0406216666667","6501100","汐止區"
"221002","707-TV","2017/12/07 17:49:41","新北市汐止區康寧街901號","121.651495","25.07499","6501100","汐止區"
"221018","753-BX","2017/12/07 17:49:40","新北市汐止區大同路二段488號","121.66049","25.0680166666667","6501100","汐止區"
"220010","305-R5","2017/12/07 16:11:36","新北市板橋區民生路二段120號","121.470365","25.0196816666667","6500100","板橋區"
