"lineid","car","time","location","longitude","latitude","cityid","cityname"
"234026","9371-KE","2017/12/07 17:59:47","新北市永和區永和路一段42號","121.513056666667","25.0056683333333","6500400","永和區"
"249005","172-UM","2017/12/07 17:59:42","新北市八里區荖阡坑路15-25號","121.400531666667","25.1401733333333","6502300","八里區"
"249001","173-UM","2017/12/07 17:59:33","新北市八里區龍米路二段30號","121.448688333333","25.1401433333333","6502300","八里區"
"249004","303-UY","2017/12/07 17:59:46","新北市八里區龍米路三段49-1號","121.424135","25.15893","6502300","八里區"
"249002","305-UY","2017/12/07 17:59:36","新北市八里區龍米路一段259號","121.450798333333","25.13366","6502300","八里區"
"249003","759-BX","2017/12/07 17:59:48","新北市八里區中山路二段306號","121.404686666667","25.1501483333333","6502300","八里區"
"248016","026-BX","2017/12/07 17:59:46","新北市五股區中興路二段83巷26-6號","121.45991","25.0752366666667","6501500","五股區"
"248006","077-UY","2017/12/07 17:59:37","新北市五股區中興路二段83巷26-6號","121.460005","25.07491","6501500","五股區"
"248008","095-VK","2017/12/07 17:59:53","新北市五股區更洲路24號","121.458016666667","25.0790866666667","6501500","五股區"
"248020","225-UY","2017/12/07 17:59:44","新北市五股區中興路二段83巷26-6號","121.459943333333","25.07527","6501500","五股區"
"248012","247-BX","2017/12/07 17:59:39","新北市五股區中興路二段83巷26-6號","121.46002","25.075075","6501500","五股區"
"248014","261-SL","2017/12/07 17:59:43","新北市五股區中興路二段83巷26-6號","121.459345","25.0753783333333","6501500","五股區"
"248010","272-BY","2017/12/07 17:59:36","新北市五股區中興路二段83巷26-6號","121.459873333333","25.0752233333333","6501500","五股區"
"248004","677-BX","2017/12/07 17:59:33","新北市五股區中興路二段83巷26-6號","121.45938","25.0752716666667","6501500","五股區"
"232011","375-UM","2017/12/07 17:59:48","新北市坪林區北宜路八段296號","121.710641666667","24.9351166666667","6502000","坪林區"
"244013","069-UM","2017/12/07 17:59:36","新北市林口區中山路71-3號","121.391666666667","25.07857","6501700","林口區"
"244007","080-UY","2017/12/07 17:59:38","新北市林口區林口路142號","121.38804","25.08204","6501700","林口區"
"244019","403-UM","2017/12/07 17:59:49","新北市林口區忠孝路552巷11號","121.374068333333","25.0673966666667","6501700","林口區"
"244009","410-SL","2017/12/07 17:59:47","新北市林口區竹林路582巷11號","121.386071666667","25.08331","6501700","林口區"
"244023","483-VK","2017/12/07 17:59:50","新北市林口區東湖一街71號","121.385351666667","25.0724483333333","6501700","林口區"
"244017","485-VK","2017/12/07 17:59:34","新北市林口區文化二路一段230巷22弄6號","121.370028333333","25.0720533333333","6501700","林口區"
"244011","701-TV","2017/12/07 17:59:22","新北市林口區中興街3-1號","121.38902","25.0777","6501700","林口區"
"244025","837-TS","2017/12/07 17:59:53","新北市林口區文化三路一段39巷122號","121.359515","25.0682783333333","6501700","林口區"
"244021","838-TS","2017/12/07 17:58:58","新北市林口區新寮45號","121.404128333333","25.0647583333333","6501700","林口區"
"243015","380-SR","2017/12/07 17:46:24","新北市泰山區犁頭窠3-1號","121.42222","25.06051","6501600","泰山區"
"243013","646-TV","2017/12/07 17:59:49","新北市泰山區南林路99巷19號","121.417056666667","25.0495383333333","6501600","泰山區"
"243016","680-BX","2017/12/07 15:52:25","新北市泰山區黎明路25號","121.42214","25.0607016666667","6501600","泰山區"
"222003","436-BY","2017/12/07 17:59:46","新北市深坑區炮子崙24號","121.605216666667","24.9876666666667","6501800","深坑區"
"222002","659-BX","2017/12/07 17:59:37","新北市深坑區文化街98號","121.617008333333","25.001855","6501800","深坑區"
"231046","278-BY","2017/12/07 17:59:44","新北市新店區康雅崙路3號","121.53938","24.9254983333333","6500600","新店區"
"241016","266-UM","2017/12/07 17:59:43","新北市三重區忠孝路三段125號","121.479466666667","25.0616333333333","6500200","三重區"
"241030","480-VK","2017/12/07 17:59:40","新北市八里區商港路90號","121.394748333333","25.14723","6500200","三重區"
"241024","743-BX","2017/12/07 17:59:39","新北市三重區車路頭街70號","121.484113333333","25.07311","6500200","三重區"
"241033","AAC-255","2017/12/07 17:59:45","新北市三重區重新路五段573號","121.470171666667","25.04591","6500200","三重區"
"235063","006-UY","2017/12/07 17:59:40","新北市中和區員山路36巷16-3號","121.48505","24.991245","6500300","中和區"
"235046","031-BX","2017/12/07 15:54:34","新北市中和區員山路36巷16-2號","121.485288333333","24.9916083333333","6500300","中和區"
"235065","098-UM","2017/12/07 17:59:43","新北市中和區連城路314號","121.483626666667","24.9961933333333","6500300","中和區"
"235038","185-VK","2017/12/07 17:59:47","新北市中和區景平路239號","121.509798333333","24.9928416666667","6500300","中和區"
"235061","378-QA","2017/12/07 15:40:31","新北市中和區員山路36巷13號","121.483943333333","24.9914366666667","6500300","中和區"
"235042","551-UM","2017/12/07 17:59:48","新北市中和區錦和路350-1號","121.490471666667","24.993585","6500300","中和區"
"235062","800-TS","2017/12/07 17:59:46","新北市中和區連城路467-5號","121.483763333333","24.9960216666667","6500300","中和區"
"247012","546-UM","2017/12/07 17:59:47","新北市蘆洲區民族路167巷15號","121.478183333333","25.08831","6501400","蘆洲區"
"247020","500-BY","2017/12/07 17:59:50","新北市蘆洲區水湳街36-10號","121.47149","25.0896233333333","6501400","蘆洲區"
"247010","339-TH","2017/12/07 17:59:53","新北市蘆洲區信義路170號","121.479396666667","25.08389","6501400","蘆洲區"
"247002","337-TH","2017/12/07 17:59:48","新北市蘆洲區永平街32巷57弄33號","121.458605","25.093335","6501400","蘆洲區"
"247024","335-TH","2017/12/07 17:59:50","新北市蘆洲區長興路158巷9號","121.462158333333","25.08599","6501400","蘆洲區"
"247016","057-VK","2017/12/07 17:59:40","新北市蘆洲區中正路185巷78弄16號","121.465953333333","25.0846716666667","6501400","蘆洲區"
"247006","056-VK","2017/12/07 17:59:43","新北市蘆洲區中華街13號","121.463751666667","25.08164","6501400","蘆洲區"
"247014","007-UY","2017/12/07 17:59:47","新北市蘆洲區中正路201號","121.468478333333","25.0859633333333","6501400","蘆洲區"
"247018","001-UY","2017/12/07 17:59:50","新北市蘆洲區復興路342-1號","121.482226666667","25.09042","6501400","蘆洲區"
"228003","097-TW","2017/12/07 17:59:53","新北市貢寮區真理里美艷山街6-2號","121.92882","25.060755","6502600","貢寮區"
"228001","212-TW","2017/12/07 17:59:44","新北市貢寮區真理里新港街26巷49號","121.927773333333","25.053225","6502600","貢寮區"
"228002","585-TW","2017/12/07 17:59:40","新北市貢寮區福隆里桂安街17號","121.966721666667","25.02285","6502600","貢寮區"
"224006","676-BX","2017/12/07 17:59:36","新北市瑞芳區瑞興新村12巷1號","121.788405","25.1082883333333","6501200","瑞芳區"
"224002","639-TC","2017/12/07 17:59:39","新北市瑞芳區三爪子坑路32巷1號","121.810315","25.1060566666667","6501200","瑞芳區"
"224009","285-BY","2017/12/07 17:59:47","新北市瑞芳區山尖路86號","121.853708333333","25.1148916666667","6501200","瑞芳區"
"224008","275-VK","2017/12/07 17:59:38","新北市瑞芳區明燈路一段201巷105-1號","121.818873333333","25.106395","6501200","瑞芳區"
"224007","273-VK","2017/12/07 17:59:52","新北市瑞芳區大寮路84號","121.780411666667","25.1013183333333","6501200","瑞芳區"
"224005","271-BY","2017/12/07 17:59:39","新北市瑞芳區深澳路18-1號","121.820283333333","25.1330633333333","6501200","瑞芳區"
"253005","032-BX","2017/12/07 17:59:49","新北市石門區中山路62-11號","121.567535","25.289685","6502200","石門區"
"253006","295-VK","2017/12/07 17:59:41","新北市石門區大丘田45-2號","121.549851666667","25.2748466666667","6502200","石門區"
"222001","KEA-2212","2017/12/07 17:59:40","新北市深坑區北深路二段193號","121.611995","25.0012033333333","6501800","深坑區"
"208002","742-BX","2017/12/07 17:59:52","新北市金山區三界壇路93-1號","121.624448333333","25.22876","6502700","金山區"
"208003","665-BX","2017/12/07 17:59:52","新北市金山區磺港里磺港路311號","121.644186666667","25.227705","6502700","金山區"
"208001","761-BX","2017/12/07 17:59:44","新北市金山區磺港里磺港路247號","121.643786666667","25.2250283333333","6502700","金山區"
"251009","008-UM","2017/12/07 17:59:42","新北市淡水區大智街13號","121.441936666667","25.1746966666667","6501000","淡水區"
"251004","009-UM","2017/12/07 17:59:49","新北市淡水區民權路185-10號","121.459325","25.1337016666667","6501000","淡水區"
"251008","181-VK","2017/12/07 17:59:40","新北市淡水區八勢一街32巷1號","121.461871666667","25.155715","6501000","淡水區"
"251014","182-VK","2017/12/07 17:59:45","新北市淡水區南平6-1號","121.480563333333","25.223855","6501000","淡水區"
"251010","413-VK","2017/12/07 17:59:50","新北市淡水區中正路一段130-7號","121.422128333333","25.1793666666667","6501000","淡水區"
"251012","441-VK","2017/12/07 17:59:55","新北市淡水區北新路三段38巷7號","121.48455","25.18701","6501000","淡水區"
"251016","442-VK","2017/12/07 17:59:50","新北市淡水區埤島30-13號","121.447905","25.1981916666667","6501000","淡水區"
"251005","443-VK","2017/12/07 17:59:50","新北市淡水區英專路116號","121.445943333333","25.1721933333333","6501000","淡水區"
"251001","559-UM","2017/12/07 17:59:46","新北市淡水區民權路14號","121.46306","25.124505","6501000","淡水區"
"251006","561-UM","2017/12/07 17:59:49","新北市淡水區建設街1巷1號","121.438946666667","25.1729933333333","6501000","淡水區"
"251011","650-BX","2017/12/07 17:59:49","新北市淡水區三空泉6號","121.477781666667","25.1620766666667","6501000","淡水區"
"251002","672-BX","2017/12/07 17:59:49","新北市淡水區鼻頭街18-5號","121.446786666667","25.166695","6501000","淡水區"
"251003","766-UM","2017/12/07 17:59:53","新北市淡水區大忠街113巷10號","121.446936666667","25.1775133333333","6501000","淡水區"
"207003","550-UM","2017/12/07 17:59:41","新北市萬里區港東路野柳風景區攤販66號","121.691331666667","25.205835","6502800","萬里區"
"207004","225-TW","2017/12/07 17:59:44","新北市萬里區中幅里中福路48號","121.683395","25.1740966666667","6502800","萬里區"
"252001","292-VK","2017/12/07 17:59:37","新北市三芝區中興街一段32號","121.497821666667","25.2575333333333","6502100","三芝區"
"252002","702-TV","2017/12/07 17:59:41","新北市三芝區中山路二段49號","121.502826666667","25.2545716666667","6502100","三芝區"
"237007","153-BY","2017/12/07 17:59:34","新北市三峽區中園街122號","121.367123333333","24.92228","6500900","三峽區"
"237009","210-TH","2017/12/07 17:59:34","新北市三峽區文化路185號","121.366923333333","24.93572","6500900","三峽區"
"237013","252-BX","2017/12/07 17:59:48","新北市三峽區介壽路一段131-1號","121.376158333333","24.9317233333333","6500900","三峽區"
"237012","275-BY","2017/12/07 17:59:39","新北市三峽區民生街27巷1號","121.375993333333","24.9362533333333","6500900","三峽區"
"237008","302-VK","2017/12/07 17:59:46","新北市三峽區白雞38-21號","121.373646666667","24.9117216666667","6500900","三峽區"
"237014","433-BY","2017/12/07 17:59:35","新北市三峽區復興路101巷1弄28號","121.371005","24.93773","6500900","三峽區"
"237006","5529-G3","2017/12/07 17:59:41","新北市三峽區介壽路二段138巷28號","121.394888333333","24.93314","6500900","三峽區"
"237011","572-TV","2017/12/07 17:57:29","新北市三峽區大同路50號","121.377108333333","24.92868","6500900","三峽區"
"237016","649-BX","2017/12/06 10:49:54","新北市三峽區中山路459巷137號","121.349958333333","24.933995","6500900","三峽區"
"237005","AKY-6261","2017/12/07 17:59:46","新北市三峽區復興路119-3號","121.36963","24.9386433333333","6500900","三峽區"
"236071","105-UM","2017/12/07 17:59:48","新北市土城區青雲路669-3號","121.467448333333","24.9649516666667","6501300","土城區"
"236042","107-UM","2017/12/07 17:59:37","新北市土城區城林路6巷80號","121.438528333333","24.9796816666667","6501300","土城區"
"236078","166-UM","2017/12/07 17:58:51","新北市土城區永寧路32巷1號","121.429326666667","24.9597766666667","6501300","土城區"
"236030","253-BX","2017/12/07 17:59:41","新北市土城區城林路6巷80號","121.438526666667","24.97974","6501300","土城區"
"236026","269-VK","2017/12/07 17:59:34","新北市土城區中央路三段96-1號","121.435641666667","24.9663916666667","6501300","土城區"
"236014","270-VK","2017/12/07 17:59:55","新北市土城區城林路6巷80號","121.43854","24.9796183333333","6501300","土城區"
"236037","271-VK","2017/12/07 17:59:41","新北市土城區城林路6巷80號","121.438428333333","24.97973","6501300","土城區"
"236021","401-BY","2017/12/07 17:59:51","新北市土城區城林路6巷80號","121.438546666667","24.979775","6501300","土城區"
"236058","912-UM","2017/12/07 17:59:38","新北市土城區中華路二段198號","121.437528333333","24.9701633333333","6501300","土城區"
"236051","913-UM","2017/12/07 17:59:41","新北市土城區城林路6巷80號","121.43852","24.97965","6501300","土城區"
"236062","915-UM","2017/12/07 17:59:45","新北市土城區城林路6巷80號","121.438625","24.979645","6501300","土城區"
"236053","AAC-216","2017/12/07 17:59:41","新北市土城區城林路6巷80號","121.438468333333","24.9795983333333","6501300","土城區"
"242031","AAC-296","2017/12/07 17:59:51","新北市新莊區新泰路305巷9號","121.444901666667","25.04094","6500500","新莊區"
"242029","986-R7","2017/12/07 17:59:39","新北市新莊區中平路50號","121.44482","25.0439733333333","6500500","新莊區"
"242050","751-BX","2017/12/07 17:59:42","新北市新莊區民安西路137號","121.426425","25.0173916666667","6500500","新莊區"
"242025","615-BX","2017/12/07 17:59:54","新北市新莊區化成路531巷50號","121.461413333333","25.063455","6500500","新莊區"
"242023","613-BX","2017/12/07 17:59:52","新北市新莊區福壽街43號","121.458238333333","25.0486983333333","6500500","新莊區"
"242027","612-BX","2017/12/07 17:59:54","新北市新莊區思源路451號","121.459703333333","25.0534","6500500","新莊區"
"242039","566-BX","2017/12/07 17:59:44","新北市新莊區民安西路20號","121.42671","25.0215283333333","6500500","新莊區"
"242044","497-BY","2017/12/07 17:59:41","新北市新莊區雙鳳路42號","121.416255","25.0271516666667","6500500","新莊區"
"242053","442-UM","2017/12/07 17:59:54","新北市新莊區民安西路327巷4弄19號","121.428731666667","25.011225","6500500","新莊區"
"242048","441-UM","2017/12/07 17:59:53","新北市新莊區後港二路18號","121.422321666667","25.0236383333333","6500500","新莊區"
"242034","415-TV","2017/12/07 17:59:56","新北市新莊區福海街22號","121.445268333333","25.0339616666667","6500500","新莊區"
"242004","413-TV","2017/12/07 17:59:53","新北市新莊區思源路177巷25號","121.459238333333","25.0465083333333","6500500","新莊區"
"242042","400-BY","2017/12/07 17:59:51","新北市新莊區壽山路9號","121.420628333333","25.02894","6500500","新莊區"
"242061","362-BY","2017/12/07 17:59:41","新北市新莊區新樹路254-1號","121.432856666667","25.0163366666667","6500500","新莊區"
"242058","353-BY","2017/12/07 17:59:45","新北市新莊區雙鳳路134巷7號","121.412633333333","25.0281566666667","6500500","新莊區"
"242036","133-UY","2017/12/07 17:59:49","新北市新莊區中正路695-1號","121.425918333333","25.0295933333333","6500500","新莊區"
"242021","135-UY","2017/12/07 17:59:49","新北市新莊區建興街32號","121.450076666667","25.037225","6500500","新莊區"
"242046","172-VK","2017/12/07 17:59:42","新北市新莊區福營路197號","121.431083333333","25.0303733333333","6500500","新莊區"
"242009","173-VK","2017/12/07 17:59:40","新北市新莊區中華路二段260號","121.452586666667","25.0531866666667","6500500","新莊區"
"242015","175-VK","2017/12/07 17:59:44","新北市新莊區中平路87巷2號","121.444776666667","25.045845","6500500","新莊區"
"242002","176-VK","2017/12/07 17:59:53","新北市新莊區中正路153-2號","121.455945","25.0367","6500500","新莊區"
"242013","346-TH","2017/12/07 17:59:34","新北市新莊區中和街125巷7號","121.446936666667","25.0485866666667","6500500","新莊區"
"242007","347-TH","2017/12/07 17:59:40","新北市新莊區自信街75巷19號","121.455715","25.049005","6500500","新莊區"
"242019","348-TH","2017/12/07 17:59:41","新北市新莊區明中街51巷3號","121.456731666667","25.0396316666667","6500500","新莊區"
"242056","349-TH","2017/12/07 17:59:40","新北市新莊區豐年街124巷18號","121.445508333333","25.0299016666667","6500500","新莊區"
"242017","350-TH","2017/12/07 17:59:51","新北市新莊區中和街60巷7號","121.448323333333","25.0447766666667","6500500","新莊區"
"242011","351-TH","2017/12/07 17:59:42","新北市新莊區中港路中慶巷37號","121.449265","25.0537316666667","6500500","新莊區"
"238015","755-BX","2017/12/07 17:59:51","新北市樹林區啟智街80巷7號","121.41919","24.9922216666667","6500700","樹林區"
"238023","601-UM","2017/12/07 17:59:39","新北市樹林區龍興街31巷4號","121.403328333333","25.015975","6500700","樹林區"
"238019","599-UM","2017/12/07 17:59:36","新北市樹林區中華路73號","121.42305","24.9830183333333","6500700","樹林區"
"238018","571-TV","2017/12/07 17:59:47","新北市樹林區中正路7-1號","121.43028","24.9975883333333","6500700","樹林區"
"238021","KEA-2217","2017/12/07 17:59:49","新北市樹林區柑園街一段1-8號","121.405945","24.9618383333333","6500700","樹林區"
"238022","KEA-2213","2017/12/07 17:59:42","新北市樹林區太元街53號","121.418768333333","24.9789133333333","6500700","樹林區"
"238025","303-VK","2017/12/07 17:59:37","新北市樹林區三俊街74巷11號","121.4137","25.0156583333333","6500700","樹林區"
"238017","283-BY","2017/12/07 17:59:52","新北市樹林區俊德街42號","121.41533","25.013835","6500700","樹林區"
"238014","282-BY","2017/12/07 17:59:37","新北市樹林區大安路179號","121.421238333333","24.9961916666667","6500700","樹林區"
"238007","268-VK","2017/12/07 17:59:39","新北市樹林區三俊街135巷52號","121.418745","25.017235","6500700","樹林區"
"238026","172-UY","2017/12/07 17:59:51","新北市樹林區佳園路一段27號","121.392846666667","24.9712","6500700","樹林區"
"238016","169-UY","2017/12/07 17:59:39","新北市樹林區文化街45號","121.418168333333","24.98822","6500700","樹林區"
"239007","AAC-297","2017/12/07 17:59:36","新北市鶯歌區鶯桃路94巷33-1號","121.34199","24.954755","6500800","鶯歌區"
"239006","891-R6","2017/12/07 17:59:45","新北市鶯歌區鶯桃路413巷70號","121.330086666667","24.96309","6500800","鶯歌區"
"239008","527-UM","2017/12/07 17:59:38","新北市鶯歌區香賓街13巷16號","121.33644","24.979975","6500800","鶯歌區"
"239005","526-UM","2017/12/07 17:59:41","新北市鶯歌區鶯桃路658巷49-2號","121.33082","24.970545","6500800","鶯歌區"
"239001","417-VK","2017/12/07 17:59:35","新北市鶯歌區中正三路148號","121.336093333333","24.93978","6500800","鶯歌區"
"239003","360-BY","2017/12/07 17:59:34","新北市鶯歌區永吉街7巷1號","121.336721666667","24.9585733333333","6500800","鶯歌區"
"239002","359-BY","2017/12/07 17:59:34","新北市鶯歌區光明街17號","121.348898333333","24.9556916666667","6500800","鶯歌區"
"239004","193-VK","2017/12/07 17:59:06","新北市鶯歌區二甲路13號","121.344266666667","24.9351316666667","6500800","鶯歌區"
"221008","489-VK","2017/12/07 17:59:54","新北市汐止區明峰街16-1號","121.634771666667","25.071485","6501100","汐止區"
"221036","130-UY","2017/12/07 17:59:45","新北市汐止區大同路三段34號","121.66717","25.0765116666667","6501100","汐止區"
"221010","269-BY","2017/12/07 17:59:41","新北市汐止區汐萬路二段122巷38弄42號","121.648118333333","25.086905","6501100","汐止區"
"221012","276-VK","2017/12/07 13:23:29","新北市汐止區汐萬路一段256巷3號","121.653446666667","25.0746733333333","6501100","汐止區"
"221012","278-VK","2017/12/07 17:59:34","新北市汐止區長興街二段32號","121.673323333333","25.0814633333333","6501100","汐止區"
"221023","279-VK","2017/12/07 17:59:36","新北市汐止區民族六街2巷2號","121.628971666667","25.070775","6501100","汐止區"
"221032","280-BY","2017/12/07 17:59:37","新北市汐止區橫科路73巷10號","121.619556666667","25.05099","6501100","汐止區"
"221027","281-BY","2017/12/07 17:59:43","新北市汐止區大同路二段444號","121.659741666667","25.06742","6501100","汐止區"
"221029","298-VK","2017/12/07 17:59:43","新北市汐止區樟樹二路334號","121.641446666667","25.0703883333333","6501100","汐止區"
"221021","299-VK","2017/12/07 17:59:38","新北市汐止區新興路12號","121.656301666667","25.0647633333333","6501100","汐止區"
"221031","353-TW","2017/12/07 17:59:53","新北市汐止區中興路45號","121.634345","25.06238","6501100","汐止區"
"221015","567-BX","2017/12/07 17:59:45","新北市汐止區長江街303號","121.665801666667","25.0813133333333","6501100","汐止區"
"221035","622-UM","2017/12/07 17:59:55","新北市汐止區新江北路30巷22弄7號","121.651296666667","25.0697333333333","6501100","汐止區"
"221025","623-UM","2017/12/07 17:59:54","新北市汐止區仁愛路49號","121.659748333333","25.0631983333333","6501100","汐止區"
"221038","646-BX","2017/12/07 17:59:49","新北市汐止區連興街128巷7弄12號","121.653416666667","25.0611916666667","6501100","汐止區"
"221033","647-BX","2017/12/07 17:59:39","新北市汐止區合順街39巷1號","121.620635","25.0433183333333","6501100","汐止區"
"221002","707-TV","2017/12/07 17:59:42","新北市汐止區中興路62號","121.635436666667","25.061425","6501100","汐止區"
"221018","753-BX","2017/12/07 17:59:40","新北市汐止區招商街4巷1號","121.666488333333","25.068785","6501100","汐止區"
"220010","305-R5","2017/12/07 16:11:36","新北市板橋區民生路二段120號","121.470365","25.0196816666667","6500100","板橋區"
