"lineid","car","time","location","longitude","latitude","cityid","cityname"
"234026","9371-KE","2017/12/07 18:19:47","新北市永和區豫溪街42巷14號","121.515396666667","25.0092083333333","6500400","永和區"
"249005","172-UM","2017/12/07 18:19:42","新北市八里區荖阡坑路15-16號","121.400213333333","25.1404483333333","6502300","八里區"
"249001","173-UM","2017/12/07 18:19:53","新北市八里區龍米路一段135號","121.452061666667","25.1269816666667","6502300","八里區"
"249004","303-UY","2017/12/07 18:19:46","新北市八里區龍米路二段236-2號","121.431508333333","25.1589516666667","6502300","八里區"
"249002","305-UY","2017/12/07 18:19:56","新北市八里區龍形五街21號","121.45007","25.1330766666667","6502300","八里區"
"248016","026-BX","2017/12/07 18:19:46","新北市五股區西雲路293號","121.4494","25.0992066666667","6501500","五股區"
"248006","077-UY","2017/12/07 18:19:37","新北市五股區中興路一段152號","121.464496666667","25.0738966666667","6501500","五股區"
"248008","095-VK","2017/12/07 18:19:52","新北市五股區更洲路32巷8弄17號","121.459276666667","25.0796366666667","6501500","五股區"
"248020","225-UY","2017/12/07 18:19:04","新北市五股區孝義路47巷22號","121.451186666667","25.1091416666667","6501500","五股區"
"248012","247-BX","2017/12/07 18:19:39","新北市五股區御成路35號","121.440963333333","25.091305","6501500","五股區"
"248014","261-SL","2017/12/07 18:19:43","新北市五股區自強路19巷5-1號","121.434641666667","25.0737833333333","6501500","五股區"
"248010","272-BY","2017/12/07 18:19:36","新北市五股區成泰路一段139巷2弄2號","121.435095","25.07299","6501500","五股區"
"248004","677-BX","2017/12/07 18:19:53","新北市五股區成泰路二段121號","121.438568333333","25.0846783333333","6501500","五股區"
"248002","678-BX","2017/12/07 18:19:47","新北市五股區西雲路91號","121.443688333333","25.09222","6501500","五股區"
"232011","375-UM","2017/12/07 18:19:48","新北市坪林區坪雙路一段56號","121.713955","24.9427383333333","6502000","坪林區"
"244013","069-UM","2017/12/07 18:19:57","新北市林口區中山路188-2號","121.389253333333","25.0789483333333","6501700","林口區"
"244007","080-UY","2017/12/07 18:19:38","新北市林口區林口路296號","121.386041666667","25.0854516666667","6501700","林口區"
"244019","403-UM","2017/12/07 18:19:49","新北市林口區文化一路一段100巷8弄6號","121.373341666667","25.0703283333333","6501700","林口區"
"244009","410-SL","2017/12/07 18:19:47","新北市林口區文化二路二段180號","121.380503333333","25.0839866666667","6501700","林口區"
"244023","483-VK","2017/12/07 18:19:50","新北市林口區仁愛路二段14號","121.385745","25.0761633333333","6501700","林口區"
"244017","485-VK","2017/12/07 18:19:54","新北市林口區八德路20巷12號","121.367645","25.0677233333333","6501700","林口區"
"244011","701-TV","2017/12/07 18:19:42","新北市林口區中正路74巷5弄2號","121.394611666667","25.0779916666667","6501700","林口區"
"244025","837-TS","2017/12/07 18:19:53","新北市林口區文化北路一段133號","121.356643333333","25.0694716666667","6501700","林口區"
"244021","838-TS","2017/12/07 18:19:37","新北市林口區自強一街43號","121.399043333333","25.0777383333333","6501700","林口區"
"243015","380-SR","2017/12/07 17:46:24","新北市泰山區犁頭窠3-1號","121.42222","25.06051","6501600","泰山區"
"243013","646-TV","2017/12/07 18:19:49","新北市泰山區南林路100號","121.415488333333","25.0488216666667","6501600","泰山區"
"243016","680-BX","2017/12/07 15:52:25","新北市泰山區黎明路25號","121.42214","25.0607016666667","6501600","泰山區"
"222003","436-BY","2017/12/07 18:19:46","新北市深坑區旺耽路67號","121.626273333333","25.0029983333333","6501800","深坑區"
"222002","659-BX","2017/12/07 18:19:58","新北市深坑區雲鄉路142號","121.623598333333","24.9980916666667","6501800","深坑區"
"231041","001-UM","2017/12/07 18:19:52","新北市新店區安華路28-1號","121.519435","24.96082","6500600","新店區"
"231059","046-UY","2017/12/07 18:19:40","新北市新店區安華路28-1號","121.519576666667","24.96083","6500600","新店區"
"231061","047-UY","2017/12/07 18:19:22","新北市新店區安華路28-1號","121.51902","24.9610933333333","6500600","新店區"
"231060","106-UY","2017/12/07 18:19:53","新北市新店區安華路28-1號","121.519673333333","24.960925","6500600","新店區"
"231051","107-UY","2017/12/07 18:19:57","新北市新店區安華路28-1號","121.51923","24.96126","6500600","新店區"
"231047","108-UY","2017/12/07 16:33:02","新北市新店區安華路28-1號","121.519618333333","24.961055","6500600","新店區"
"231052","187-VK","2017/12/07 18:19:48","新北市新店區安康路一段235-1號","121.52507","24.9632066666667","6500600","新店區"
"231057","256-BX","2017/12/07 18:19:44","新北市新店區安華路28-1號","121.519636666667","24.961115","6500600","新店區"
"231046","278-BY","2017/12/07 18:19:44","新北市新店區直潭七街60號","121.532198333333","24.939795","6500600","新店區"
"231054","AAD-862","2017/12/07 18:19:41","新北市新店區安華路28-1號","121.519991666667","24.961015","6500600","新店區"
"231058","3712-VJ","2017/12/07 18:19:41","新北市新店區安康路一段124-1號","121.526855","24.9627333333333","6500600","新店區"
"231056","3713-VJ","2017/12/07 18:19:53","新北市新店區環河路121號","121.529655","24.971835","6500600","新店區"
"231055","4716-K9","2017/12/07 18:19:50","新北市新店區安康路一段35-1號","121.532081666667","24.96055","6500600","新店區"
"231067","4772-VM","2017/12/07 18:19:51","新北市新店區安華路1-1號","121.519156666667","24.9605816666667","6500600","新店區"
"231065","512-UM","2017/12/07 18:19:44","新北市新店區安華路28-1號","121.519283333333","24.9612866666667","6500600","新店區"
"231064","515-UM","2017/12/07 18:19:46","新北市新店區安華路28-1號","121.519893333333","24.9610183333333","6500600","新店區"
"231042","616-UM","2017/12/07 18:19:44","新北市新店區安華路28-1號","121.519553333333","24.960585","6500600","新店區"
"231040","619-UM","2017/12/07 18:19:41","新北市新店區安華路28-1號","121.519801666667","24.9607166666667","6500600","新店區"
"231063","645-TV","2017/12/07 18:19:58","新北市新店區安華路28-1號","121.519473333333","24.960685","6500600","新店區"
"231049","719-UM","2017/12/07 18:19:49","新北市新店區安華路28-1號","121.519608333333","24.96125","6500600","新店區"
"231062","720-UM","2017/12/07 18:19:39","新北市新店區安華路28-1號","121.519018333333","24.96126","6500600","新店區"
"231044","897-TW","2017/12/07 18:19:52","新北市新店區安華路28-1號","121.519725","24.9609916666667","6500600","新店區"
"231045","898-TW","2017/12/07 18:17:22","新北市新店區安華路28-1號","121.519515","24.96108","6500600","新店區"
"231043","899-TW","2017/12/07 18:19:44","新北市新店區安華路28-1號","121.519175","24.96087","6500600","新店區"
"231066","AKT-0513","2017/12/07 16:18:28","新北市新店區安華路28-1號","121.519375","24.9605583333333","6500600","新店區"
"241030","480-VK","2017/12/07 18:19:40","新北市林口區太平里180號","121.36735","25.1351183333333","6500200","三重區"
"241033","AAC-255","2017/12/07 18:19:45","新北市三重區中興北街42巷31號","121.468206666667","25.04932","6500200","三重區"
"235066","003-UY","2017/12/07 18:19:37","新北市中和區中山路二段120號","121.502805","25.0036833333333","6500300","中和區"
"235063","006-UY","2017/12/07 18:19:40","新北市中和區中正路589巷1號","121.485831666667","24.9944383333333","6500300","中和區"
"235046","031-BX","2017/12/07 15:54:34","新北市中和區員山路36巷16-2號","121.485288333333","24.9916083333333","6500300","中和區"
"235056","096-UM","2017/12/07 18:19:46","新北市中和區新生街24號","121.4832","25.004085","6500300","中和區"
"235039","097-UM","2017/12/07 18:19:48","新北市中和區景平路502號","121.504375","24.9935866666667","6500300","中和區"
"235065","098-UM","2017/12/07 18:19:43","新北市中和區莊敬路49巷27號","121.501576666667","25.006155","6500300","中和區"
"235040","150-BY","2017/12/07 18:19:49","新北市中和區中正路277-5號","121.49528","24.9934716666667","6500300","中和區"
"235058","151-BY","2017/12/07 18:19:40","新北市中和區圓通路367巷50號","121.492335","24.986375","6500300","中和區"
"235055","183-VK","2017/12/07 18:19:46","新北市中和區員山路36巷16-2號","121.48524","24.991675","6500300","中和區"
"235038","185-VK","2017/12/07 18:19:46","新北市中和區大智街106巷1號","121.524293333333","24.9925616666667","6500300","中和區"
"235049","186-VK","2017/12/07 18:19:49","新北市中和區錦和路350-1號","121.490096666667","24.9935583333333","6500300","中和區"
"235072","301-VK","2017/12/07 18:19:43","新北市中和區中正路589巷7號","121.48586","24.9941283333333","6500300","中和區"
"235043","352-BY","2017/12/07 18:19:48","新北市中和區中正路173號","121.497736666667","24.9935733333333","6500300","中和區"
"235068","377-QA","2017/12/07 16:14:11","新北市中和區員山路36巷16-3號","121.485158333333","24.99125","6500300","中和區"
"235061","378-QA","2017/12/07 15:40:31","新北市中和區員山路36巷13號","121.483943333333","24.9914366666667","6500300","中和區"
"235050","4979-A6","2017/12/07 18:19:46","新北市中和區捷運路61巷9號","121.509073333333","24.9894083333333","6500300","中和區"
"235069","4980-A6","2017/12/07 18:19:51","新北市中和區連城路129號","121.49623","24.9990616666667","6500300","中和區"
"235042","551-UM","2017/12/07 18:19:48","新北市中和區大仁街20巷25弄14號","121.519035","24.9934983333333","6500300","中和區"
"235070","558-UM","2017/12/07 18:19:56","新北市中和區圓通路172號","121.497208333333","24.9945683333333","6500300","中和區"
"235045","565-BX","2017/12/07 18:19:45","新北市中和區景安路200巷2弄2號","121.50389","24.99145","6500300","中和區"
"235054","640-BX","2017/12/07 18:19:41","新北市中和區莒光路203號","121.472635","24.9989666666667","6500300","中和區"
"235060","647-TV","2017/12/07 18:19:53","新北市中和區員山路82巷10弄8號","121.481373333333","24.9935416666667","6500300","中和區"
"235047","732-UM","2017/12/07 18:19:31","新北市中和區捷運路58-3號","121.507426666667","24.9907816666667","6500300","中和區"
"235062","800-TS","2017/12/07 18:19:46","新北市中和區景平路997巷2號","121.495688333333","25.0057933333333","6500300","中和區"
"235057","801-TS","2017/12/07 18:19:55","新北市中和區員山路72號","121.481013333333","24.993585","6500300","中和區"
"235041","802-TS","2017/12/07 18:19:47","新北市中和區中正路250號","121.495686666667","24.9939166666667","6500300","中和區"
"235052","805-TS","2017/12/07 18:19:53","新北市中和區捷運路8-5號","121.509618333333","24.9897183333333","6500300","中和區"
"235048","896-TW","2017/12/07 18:19:51","新北市中和區中正路589巷15號","121.485835","24.99364","6500300","中和區"
"235053","900-TW","2017/12/07 18:19:41","新北市中和區員山路36巷16-3號","121.484913333333","24.99131","6500300","中和區"
"235064","911-UM","2017/12/07 18:19:34","新北市中和區中正路91號","121.50037","24.9933166666667","6500300","中和區"
"235051","157-BY","2017/12/07 18:19:42","新北市中和區信義街5號","121.510875","24.98972","6500300","中和區"
"235037","AAC-213","2017/12/07 18:19:31","新北市中和區景平路151巷21號","121.514291666667","24.9913766666667","6500300","中和區"
"235059","AAC-215","2017/12/07 18:19:51","新北市中和區員山路36巷16-3號","121.485023333333","24.9913516666667","6500300","中和區"
"226004","312-R5","2017/12/07 18:16:34","新北市平溪區靜安路二段3巷61號","121.706285","25.0184433333333","6502400","平溪區"
"228003","097-TW","2017/12/07 18:19:53","新北市貢寮區真理里美艷山街61-3號","121.923156666667","25.069755","6502600","貢寮區"
"228001","212-TW","2017/12/07 18:19:44","新北市貢寮區真理里新港街26巷55弄2-1號","121.927381666667","25.0528616666667","6502600","貢寮區"
"228002","585-TW","2017/12/07 18:19:40","新北市貢寮區福連里馬崗街2-1號","122.001151666667","25.0142066666667","6502600","貢寮區"
"224006","676-BX","2017/12/07 18:19:36","新北市瑞芳區民權街3-2號","121.808055","25.107425","6501200","瑞芳區"
"224002","639-TC","2017/12/07 18:19:42","新北市瑞芳區三爪子坑路97號","121.811181666667","25.1073483333333","6501200","瑞芳區"
"224009","285-BY","2017/12/07 18:19:51","新北市瑞芳區金光路170號","121.855725","25.10675","6501200","瑞芳區"
"224008","275-VK","2017/12/07 18:19:40","新北市瑞芳區逢甲路84號","121.80956","25.108725","6501200","瑞芳區"
"224007","273-VK","2017/12/07 18:19:52","新北市瑞芳區大埔路63號","121.764243333333","25.10193","6501200","瑞芳區"
"224005","271-BY","2017/12/07 18:19:39","新北市瑞芳區建基新村25號","121.81231","25.1297666666667","6501200","瑞芳區"
"227010","400-TW","2017/12/07 18:19:38","新北市雙溪區牡丹里牡丹73號","121.851691666667","25.0593416666667","6502500","雙溪區"
"227004","030-BX","2017/12/07 18:19:44","新北市雙溪區共和里中山路2號","121.863815","25.0337666666667","6502500","雙溪區"
"253005","032-BX","2017/12/07 18:19:49","新北市石門區中央路4-3號","121.565568333333","25.2912983333333","6502200","石門區"
"253006","295-VK","2017/12/07 18:19:41","新北市石門區老梅路65號","121.545858333333","25.28922","6502200","石門區"
"222001","KEA-2212","2017/12/07 18:19:39","新北市深坑區北深路二段66號","121.61901","25.004205","6501800","深坑區"
"208002","742-BX","2017/12/07 18:19:56","新北市金山區清泉里清水路16巷12號","121.63342","25.2307083333333","6502700","金山區"
"208003","665-BX","2017/12/07 18:19:51","新北市金山區民生路192號","121.646481666667","25.22251","6502700","金山區"
"208001","761-BX","2017/12/07 18:19:44","新北市金山區環金路19號","121.641065","25.2176766666667","6502700","金山區"
"251009","008-UM","2017/12/07 18:19:41","新北市淡水區中山北路三段136號","121.444553333333","25.1947566666667","6501000","淡水區"
"251004","009-UM","2017/12/07 18:19:49","新北市淡水區民族路85號","121.46287","25.1340566666667","6501000","淡水區"
"251008","181-VK","2017/12/07 18:19:39","新北市淡水區忠愛街12號","121.457566666667","25.1748983333333","6501000","淡水區"
"251014","182-VK","2017/12/07 18:19:45","新北市淡水區崙頂13號","121.492123333333","25.2205166666667","6501000","淡水區"
"251010","413-VK","2017/12/07 18:19:40","新北市淡水區淡海路237號","121.420126666667","25.1858283333333","6501000","淡水區"
"251012","441-VK","2017/12/07 18:19:54","新北市淡水區北新路二段77-5號","121.480553333333","25.1855816666667","6501000","淡水區"
"251016","442-VK","2017/12/07 18:19:53","新北市淡水區淡金路三段228巷22-5號","121.449698333333","25.2049316666667","6501000","淡水區"
"251005","443-VK","2017/12/07 18:19:50","新北市淡水區水源街一段122巷25號","121.447178333333","25.1708916666667","6501000","淡水區"
"251001","559-UM","2017/12/07 18:19:46","新北市淡水區自強路110-8號","121.461611666667","25.13148","6501000","淡水區"
"251006","561-UM","2017/12/07 18:19:49","新北市淡水區新民街76巷34弄1號","121.439245","25.1777416666667","6501000","淡水區"
"251011","650-BX","2017/12/07 18:19:49","新北市淡水區坪頂路55-1號","121.458576666667","25.1627033333333","6501000","淡水區"
"251002","672-BX","2017/12/07 18:19:49","新北市淡水區中正東路一段36號","121.452573333333","25.1623633333333","6501000","淡水區"
"251003","766-UM","2017/12/07 18:19:41","新北市淡水區北新路169巷16號","121.449748333333","25.1801333333333","6501000","淡水區"
"207003","550-UM","2017/12/07 18:19:48","新北市萬里區野柳里港東路6-1號","121.686576666667","25.2031666666667","6502800","萬里區"
"207004","225-TW","2017/12/07 18:19:44","新北市萬里區中幅里中福路125號","121.675988333333","25.1658933333333","6502800","萬里區"
"252003","249-BX","2017/12/07 18:19:43","新北市三芝區錫板里南勢崗5-3號","121.480091666667","25.2626366666667","6502100","三芝區"
"252001","292-VK","2017/12/07 18:19:37","新北市三芝區中興街二段2號","121.498405","25.25665","6502100","三芝區"
"237007","153-BY","2017/12/07 18:19:54","新北市三峽區中正路二段582號","121.359306666667","24.905905","6500900","三峽區"
"237009","210-TH","2017/12/07 18:19:34","新北市三峽區大仁路13巷1號","121.366653333333","24.9371583333333","6500900","三峽區"
"237013","252-BX","2017/12/07 18:19:47","新北市三峽區永安街3號","121.377981666667","24.929945","6500900","三峽區"
"237012","275-BY","2017/12/07 18:19:39","新北市三峽區民生街1巷6-8號","121.37721","24.9358083333333","6500900","三峽區"
"237008","302-VK","2017/12/07 18:19:46","新北市三峽區白雞68-19號","121.39186","24.90926","6500900","三峽區"
"237014","433-BY","2017/12/07 18:19:35","新北市三峽區復興路110巷2弄4號","121.372901666667","24.938055","6500900","三峽區"
"237006","5529-G3","2017/12/07 18:19:41","新北市三峽區溪東路238巷8號","121.40817","24.9314033333333","6500900","三峽區"
"237011","572-TV","2017/12/07 18:06:36","新北市三峽區介壽路三段20號","121.395991666667","24.93621","6500900","三峽區"
"237016","649-BX","2017/12/06 10:49:54","新北市三峽區中山路459巷137號","121.349958333333","24.933995","6500900","三峽區"
"237010","706-TV","2017/12/07 18:18:44","新北市三峽區民族街27號","121.369565","24.9304833333333","6500900","三峽區"
"237005","AKY-6261","2017/12/07 18:19:43","新北市三峽區秀川街72號","121.370928333333","24.9338566666667","6500900","三峽區"
"236071","105-UM","2017/12/07 18:19:42","新北市土城區明德路一段95號","121.465593333333","24.98308","6501300","土城區"
"236042","107-UM","2017/12/07 18:19:37","新北市土城區裕生路21巷6弄21號","121.448771666667","24.9869083333333","6501300","土城區"
"236078","166-UM","2017/12/07 18:19:51","新北市土城區永平街1-1號","121.427548333333","24.963535","6501300","土城區"
"236030","253-BX","2017/12/07 18:19:41","新北市土城區順風路24號","121.440666666667","24.97675","6501300","土城區"
"236026","269-VK","2017/12/07 18:19:54","新北市土城區承天路67號","121.439456666667","24.96364","6501300","土城區"
"236014","270-VK","2017/12/07 18:19:55","新北市土城區青雲路39巷7號","121.460308333333","24.9874066666667","6501300","土城區"
"236037","271-VK","2017/12/07 18:19:41","新北市土城區青雲路451巷8弄6號","121.459546666667","24.9743616666667","6501300","土城區"
"236021","401-BY","2017/12/07 18:19:51","新北市土城區學士路123號","121.446468333333","24.9758666666667","6501300","土城區"
"236058","912-UM","2017/12/07 18:19:38","新北市土城區中央路四段207號","121.414038333333","24.9560166666667","6501300","土城區"
"236051","913-UM","2017/12/07 18:19:41","新北市土城區明德路一段288-1號","121.456878333333","24.9776083333333","6501300","土城區"
"236062","915-UM","2017/12/07 18:19:45","新北市土城區金城路二段376號","121.4631","24.98551","6501300","土城區"
"236053","AAC-216","2017/12/07 18:19:41","新北市土城區中華路二段106號","121.438005","24.97421","6501300","土城區"
"242031","AAC-296","2017/12/07 18:19:55","新北市新莊區新泰路255巷50號","121.444028333333","25.0395383333333","6500500","新莊區"
"242029","986-R7","2017/12/07 18:19:39","新北市新莊區中平路202號","121.444786666667","25.04877","6500500","新莊區"
"242050","751-BX","2017/12/07 18:19:42","新北市新莊區民安西路65號","121.427365","25.0201533333333","6500500","新莊區"
"242025","615-BX","2017/12/07 18:19:54","新北市新莊區五工三路94巷1號","121.458158333333","25.0656066666667","6500500","新莊區"
"242023","613-BX","2017/12/07 18:19:52","新北市新莊區新泰路357巷3弄57號","121.442253333333","25.0392133333333","6500500","新莊區"
"242027","612-BX","2017/12/07 18:19:54","新北市新莊區幸福路763-3號","121.447728333333","25.0490616666667","6500500","新莊區"
"242044","497-BY","2017/12/07 18:19:41","新北市新莊區天泉二街11號","121.415045","25.0249333333333","6500500","新莊區"
"242053","442-UM","2017/12/07 18:19:54","新北市新莊區民安西路407號","121.429988333333","25.00932","6500500","新莊區"
"242048","441-UM","2017/12/07 18:19:51","新北市樹林區中正路280-1號","121.415948333333","25.00964","6500500","新莊區"
"242042","400-BY","2017/12/07 18:19:45","新北市新莊區天祥街120巷6號","121.414751666667","25.0301033333333","6500500","新莊區"
"242061","362-BY","2017/12/07 18:19:41","新北市新莊區後港一路161號","121.431678333333","25.027995","6500500","新莊區"
"242058","353-BY","2017/12/07 18:19:45","新北市新莊區新北大道七段842號","121.413656666667","25.0236433333333","6500500","新莊區"
"242036","133-UY","2017/12/07 18:19:46","新北市新莊區後港一路31巷3弄2號","121.425066666667","25.026675","6500500","新莊區"
"242021","135-UY","2017/12/07 18:19:49","新北市新莊區中正路245號","121.450123333333","25.035625","6500500","新莊區"
"242046","172-VK","2017/12/07 18:19:42","新北市新莊區中正路829巷19號","121.421061666667","25.02759","6500500","新莊區"
"242015","175-VK","2017/12/07 18:19:44","新北市新莊區中平路198巷10號","121.44563","25.04837","6500500","新莊區"
"242002","176-VK","2017/12/07 18:19:53","新北市新莊區環漢路二段385號","121.451178333333","25.032665","6500500","新莊區"
"242007","347-TH","2017/12/07 18:19:40","新北市新莊區自強街37巷4號","121.454398333333","25.0466083333333","6500500","新莊區"
"242056","349-TH","2017/12/07 18:19:40","新北市新莊區瓊林路13-3號","121.448841666667","25.0309266666667","6500500","新莊區"
"242011","351-TH","2017/12/07 18:19:41","新北市新莊區中榮街23號","121.450488333333","25.0527733333333","6500500","新莊區"
"238015","755-BX","2017/12/07 18:19:51","新北市樹林區大安路323巷10弄1號","121.41777","24.9912016666667","6500700","樹林區"
"238023","601-UM","2017/12/07 18:19:50","新北市樹林區忠信街18號","121.40795","25.0154516666667","6500700","樹林區"
"238019","599-UM","2017/12/07 18:19:36","新北市樹林區中華路70號","121.41967","24.9815333333333","6500700","樹林區"
"238018","571-TV","2017/12/07 18:19:49","新北市樹林區保安街一段18-3號","121.42758","24.993495","6500700","樹林區"
"238024","5061-A6","2017/12/07 18:19:46","新北市樹林區中山路一段183-1號","121.421413333333","24.9880683333333","6500700","樹林區"
"238021","KEA-2217","2017/12/07 18:19:49","新北市樹林區柑園街二段95號","121.385803333333","24.9549383333333","6500700","樹林區"
"238025","303-VK","2017/12/07 18:19:57","新北市樹林區保安二街12號","121.424966666667","24.9940583333333","6500700","樹林區"
"238017","283-BY","2017/12/07 18:19:52","新北市樹林區中正路512號","121.411996666667","25.01359","6500700","樹林區"
"238014","282-BY","2017/12/07 18:19:37","新北市樹林區潭興街103號","121.424731666667","24.9985016666667","6500700","樹林區"
"238007","268-VK","2017/12/07 18:19:39","新北市樹林區三俊街21號","121.411805","25.015515","6500700","樹林區"
"238026","172-UY","2017/12/07 18:19:51","新北市樹林區佳園路一段75巷102號","121.396551666667","24.970465","6500700","樹林區"
"238016","169-UY","2017/12/07 18:19:39","新北市樹林區文化街23號","121.419256666667","24.9876566666667","6500700","樹林區"
"239007","AAC-297","2017/12/07 18:19:56","新北市鶯歌區尖山埔路79號","121.34767","24.9508833333333","6500800","鶯歌區"
"239006","891-R6","2017/12/07 18:19:45","新北市鶯歌區鶯桃路365巷120號","121.330311666667","24.9622883333333","6500800","鶯歌區"
"239008","527-UM","2017/12/07 18:19:38","新北市鶯歌區國際一路179號","121.336225","24.9765116666667","6500800","鶯歌區"
"239005","526-UM","2017/12/07 18:19:41","新北市鶯歌區鶯桃路668巷54號","121.329348333333","24.9708283333333","6500800","鶯歌區"
"239001","417-VK","2017/12/07 18:19:35","新北市鶯歌區國中街183號","121.339071666667","24.9396466666667","6500800","鶯歌區"
"239003","360-BY","2017/12/07 18:19:53","新北市鶯歌區福安街58號","121.33559","24.965215","6500800","鶯歌區"
"239002","359-BY","2017/12/07 18:19:34","新北市鶯歌區建國路156號","121.350713333333","24.9537683333333","6500800","鶯歌區"
"239004","193-VK","2017/12/07 18:19:45","新北市鶯歌區尖山路174巷27號","121.344458333333","24.9483466666667","6500800","鶯歌區"
"221008","489-VK","2017/12/07 18:19:54","新北市汐止區康寧街706-2號","121.638555","25.0730966666667","6501100","汐止區"
"221036","130-UY","2017/12/07 18:19:45","新北市汐止區長安路60號","121.668871666667","25.07833","6501100","汐止區"
"221010","269-BY","2017/12/07 18:19:41","新北市汐止區祥雲街12號","121.64615","25.0898683333333","6501100","汐止區"
"221012","276-VK","2017/12/07 13:23:29","新北市汐止區汐萬路一段256巷3號","121.653446666667","25.0746733333333","6501100","汐止區"
"221012","278-VK","2017/12/07 18:19:54","新北市汐止區保長路35巷20號","121.67327","25.0800466666667","6501100","汐止區"
"221023","279-VK","2017/12/07 18:19:36","新北市汐止區康寧街399號","121.629648333333","25.067975","6501100","汐止區"
"221032","280-BY","2017/12/07 18:19:37","新北市汐止區橫科路2巷9號","121.616496666667","25.050865","6501100","汐止區"
"221027","281-BY","2017/12/07 18:19:37","新北市汐止區和平街31號","121.662543333333","25.07072","6501100","汐止區"
"221029","298-VK","2017/12/07 18:19:43","新北市汐止區樟樹二路330巷72-1號","121.643006666667","25.06987","6501100","汐止區"
"221021","299-VK","2017/12/07 18:19:38","新北市汐止區大同路二段184巷8號","121.653261666667","25.063825","6501100","汐止區"
"221031","353-TW","2017/12/07 18:19:44","新北市汐止區中興路158-1號","121.63218","25.0650766666667","6501100","汐止區"
"221015","567-BX","2017/12/07 18:19:45","新北市汐止區長江街365號","121.667866666667","25.0826583333333","6501100","汐止區"
"221035","622-UM","2017/12/07 18:19:54","新北市汐止區大同路二段187巷7號","121.652081666667","25.06473","6501100","汐止區"
"221025","623-UM","2017/12/07 18:19:54","新北市汐止區勤進路12巷23號","121.659238333333","25.06233","6501100","汐止區"
"221038","646-BX","2017/12/07 18:19:49","新北市汐止區仁愛路313號","121.664681666667","25.0675633333333","6501100","汐止區"
"221033","647-BX","2017/12/07 18:19:52","新北市汐止區宜興街35巷1號","121.622265","25.042265","6501100","汐止區"
"221002","707-TV","2017/12/07 18:19:41","新北市汐止區福德一路201巷29號","121.635815","25.064675","6501100","汐止區"
"221018","753-BX","2017/12/07 18:19:40","新北市汐止區茄苳路125號","121.667423333333","25.0705066666667","6501100","汐止區"
"220010","305-R5","2017/12/07 18:19:42","新北市板橋區民生路二段120號","121.470396666667","25.0196916666667","6500100","板橋區"
