"lineid","car","time","location","longitude","latitude","cityid","cityname"
"234046","148-BY","2017/12/07 18:39:52","新北市永和區秀朗路二段66巷9號","121.522645","25.001375","6500400","永和區"
"234007","207-UY","2017/12/07 18:39:37","新北市永和區文化路170號","121.511836666667","25.01554","6500400","永和區"
"234081","298-R6","2017/12/07 18:39:49","新北市永和區林森路81號","121.523915","25.0038683333333","6500400","永和區"
"234086","338-UY","2017/12/07 18:39:47","新北市中和區安平路107號","121.511605","24.9974733333333","6500400","永和區"
"234054","553-UM","2017/12/07 18:39:42","新北市永和區福和路1號","121.526231666667","25.0097466666667","6500400","永和區"
"234017","745-BX","2017/12/07 18:39:52","新北市永和區福和路1號","121.526281666667","25.0096083333333","6500400","永和區"
"234061","AAD-866","2017/12/07 18:39:50","新北市永和區福和路47-1號","121.523371666667","25.0079816666667","6500400","永和區"
"234042","862-TW","2017/12/07 18:39:54","新北市永和區永和路一段116號","121.513671666667","25.0075716666667","6500400","永和區"
"234050","863-TW","2017/12/07 18:39:51","新北市永和區竹林路91巷70號","121.521948333333","25.0136866666667","6500400","永和區"
"234026","9371-KE","2017/12/07 18:39:47","新北市永和區自由街56號","121.513713333333","25.0059633333333","6500400","永和區"
"234011","9373-KE","2017/12/07 18:39:44","新北市永和區文化路9巷22弄48號","121.51405","25.0145316666667","6500400","永和區"
"249005","172-UM","2017/12/07 18:39:42","新北市八里區中華路三段228號","121.388656666667","25.1249533333333","6502300","八里區"
"249001","173-UM","2017/12/07 18:39:53","新北市八里區龍米路一段360號","121.451553333333","25.131375","6502300","八里區"
"249004","303-UY","2017/12/07 18:39:46","新北市八里區龍米路三段60號","121.423648333333","25.158965","6502300","八里區"
"249002","305-UY","2017/12/07 18:39:36","新北市八里區頂寮二街138號","121.449313333333","25.1294566666667","6502300","八里區"
"248016","026-BX","2017/12/07 18:39:46","新北市五股區凌雲路一段149巷13-1號","121.448591666667","25.1008716666667","6501500","五股區"
"248008","095-VK","2017/12/07 18:39:52","新北市五股區中興路一段151巷1弄2號","121.465096666667","25.0731616666667","6501500","五股區"
"248020","225-UY","2017/12/07 18:36:44","新北市五股區凌雲路三段田埔巷35-1號","121.439796666667","25.1224266666667","6501500","五股區"
"248012","247-BX","2017/12/07 18:39:39","新北市五股區成泰路三段2巷1-12號","121.441298333333","25.086785","6501500","五股區"
"248014","261-SL","2017/12/07 18:39:43","新北市五股區蓬萊路24號","121.43418","25.0798033333333","6501500","五股區"
"248010","272-BY","2017/12/07 18:39:56","新北市五股區水碓三路143號","121.431718333333","25.0736366666667","6501500","五股區"
"248004","677-BX","2017/12/07 18:39:53","新北市五股區民義路一段227-1號","121.42961","25.090015","6501500","五股區"
"248002","678-BX","2017/12/07 18:39:48","新北市五股區西雲路207號","121.448603333333","25.096625","6501500","五股區"
"234023","9380-KE","2017/12/07 18:39:39","新北市永和區福和路76巷5弄12號","121.52242","25.0083666666667","6500400","永和區"
"234077","969-R7","2017/12/07 18:39:55","新北市永和區中正路7號","121.514053333333","24.995535","6500400","永和區"
"232011","375-UM","2017/12/07 18:23:56","新北市坪林區坪雙路一段43號","121.711773333333","24.94242","6502000","坪林區"
"244013","069-UM","2017/12/07 18:39:56","新北市林口區中正路514巷17號","121.381805","25.077525","6501700","林口區"
"244007","080-UY","2017/12/07 18:39:38","新北市林口區湖北里55號","121.384735","25.1065083333333","6501700","林口區"
"244019","403-UM","2017/12/07 18:39:49","新北市林口區忠孝路602號","121.37645","25.0683066666667","6501700","林口區"
"244009","410-SL","2017/12/07 18:39:47","新北市林口區民生路128號","121.378348333333","25.0882066666667","6501700","林口區"
"244023","483-VK","2017/12/07 18:39:49","新北市林口區文化二路二段110巷19號","121.38044","25.081285","6501700","林口區"
"244017","485-VK","2017/12/07 18:39:34","新北市林口區文化二路一段138號","121.368226666667","25.07121","6501700","林口區"
"244011","701-TV","2017/12/07 18:39:50","新北市林口區興林路17巷3弄1號","121.390028333333","25.0770083333333","6501700","林口區"
"244025","837-TS","2017/12/07 18:39:53","新北市林口區南勢里53-7號","121.355045","25.07478","6501700","林口區"
"244021","838-TS","2017/12/07 18:39:37","新北市林口區工六路50號","121.399186666667","25.0781783333333","6501700","林口區"
"243012","AAD-798","2017/12/07 18:39:57","新北市泰山區泰林路二段194號","121.433506666667","25.06104","6501600","泰山區"
"243011","297-R6","2017/12/07 18:39:44","新北市泰山區黎明路25號","121.422005","25.0606416666667","6501600","泰山區"
"243015","380-SR","2017/12/07 17:46:24","新北市泰山區犁頭窠3-1號","121.42222","25.06051","6501600","泰山區"
"243013","646-TV","2017/12/07 18:39:49","新北市泰山區明志路三段206巷3號","121.423288333333","25.0378866666667","6501600","泰山區"
"243016","680-BX","2017/12/07 18:39:46","新北市泰山區泰林路二段594號","121.421958333333","25.063555","6501600","泰山區"
"222003","436-BY","2017/12/07 18:39:46","新北市深坑區翠谷街27號","121.62677","25.0089066666667","6501800","深坑區"
"222002","659-BX","2017/12/07 18:39:41","新北市深坑區文山路一段62巷7號","121.622386666667","25.0009666666667","6501800","深坑區"
"231041","001-UM","2017/12/07 18:39:52","新北市新店區安華路28-1號","121.519553333333","24.9609333333333","6500600","新店區"
"231059","046-UY","2017/12/07 18:39:40","新北市新店區安華路28-1號","121.519611666667","24.96087","6500600","新店區"
"231061","047-UY","2017/12/07 18:39:42","新北市新店區安華路28-1號","121.519155","24.960915","6500600","新店區"
"231060","106-UY","2017/12/07 18:39:53","新北市新店區安華路28-1號","121.519728333333","24.960935","6500600","新店區"
"231051","107-UY","2017/12/07 18:39:57","新北市新店區安康路一段235號","121.52526","24.96318","6500600","新店區"
"231047","108-UY","2017/12/07 18:39:44","新北市新店區光明街119號","121.538931666667","24.9617183333333","6500600","新店區"
"231052","187-VK","2017/12/07 18:39:48","新北市新店區新烏路一段65號","121.546181666667","24.9443783333333","6500600","新店區"
"231050","KEA-2219","2017/12/07 18:39:48","新北市新店區安華路28-1號","121.519865","24.961265","6500600","新店區"
"231057","256-BX","2017/12/07 18:39:44","新北市新店區新烏路一段159-1號","121.54717","24.9324133333333","6500600","新店區"
"231046","278-BY","2017/12/07 18:39:44","新北市新店區直潭二街1號","121.535535","24.9432016666667","6500600","新店區"
"231054","AAD-862","2017/12/07 18:39:41","新北市新店區安華路28-1號","121.519865","24.96111","6500600","新店區"
"231058","3712-VJ","2017/12/07 18:39:41","新北市新店區國校路68號","121.538586666667","24.953135","6500600","新店區"
"231056","3713-VJ","2017/12/07 18:39:53","新北市新店區自立街56號","121.537868333333","24.9792866666667","6500600","新店區"
"231055","4716-K9","2017/12/07 18:39:50","新北市新店區中央路185-2號","121.536945","24.9690516666667","6500600","新店區"
"231067","4772-VM","2017/12/07 18:39:51","新北市新店區安康路一段323-1號","121.521566666667","24.9637983333333","6500600","新店區"
"231065","512-UM","2017/12/07 18:39:44","新北市新店區安華路28-1號","121.519361666667","24.9611016666667","6500600","新店區"
"231064","515-UM","2017/12/07 18:39:46","新北市新店區安華路28-1號","121.51979","24.96072","6500600","新店區"
"231042","616-UM","2017/12/07 18:39:44","新北市新店區安華路1-1號","121.51938","24.96018","6500600","新店區"
"231040","619-UM","2017/12/07 18:39:41","新北市新店區安華路28-1號","121.519573333333","24.9607916666667","6500600","新店區"
"231063","645-TV","2017/12/07 18:39:38","新北市新店區安華路1-1號","121.519371666667","24.9604683333333","6500600","新店區"
"231049","719-UM","2017/12/07 18:39:49","新北市新店區安康路一段89號","121.529185","24.9615233333333","6500600","新店區"
"231062","720-UM","2017/12/07 18:39:39","新北市新店區安華路28-1號","121.519338333333","24.961165","6500600","新店區"
"231044","897-TW","2017/12/07 18:39:52","新北市新店區中正路111號","121.54248","24.9704433333333","6500600","新店區"
"231045","898-TW","2017/12/07 18:39:51","新北市新店區安華路28-1號","121.519398333333","24.9609166666667","6500600","新店區"
"231043","899-TW","2017/12/07 18:39:44","新北市新店區安華路28-1號","121.519208333333","24.96077","6500600","新店區"
"231066","AKT-0513","2017/12/07 18:39:35","新北市新店區安華路28-1號","121.519566666667","24.9605683333333","6500600","新店區"
"241030","480-VK","2017/12/07 18:39:40","新北市五股區工商路8號","121.440748333333","25.0828566666667","6500200","三重區"
"235066","003-UY","2017/12/07 18:39:57","新北市中和區水源路28號","121.504521666667","25.00349","6500300","中和區"
"235063","006-UY","2017/12/07 18:39:40","新北市中和區連城路357號","121.487838333333","24.996105","6500300","中和區"
"235046","031-BX","2017/12/07 18:39:45","新北市中和區捷運路12-2號","121.509076666667","24.9898866666667","6500300","中和區"
"235056","096-UM","2017/12/07 18:39:46","新北市中和區員山路611巷5弄1號","121.477961666667","25.0111833333333","6500300","中和區"
"235039","097-UM","2017/12/07 18:39:48","新北市永和區中正路99號","121.514945","24.997685","6500300","中和區"
"235065","098-UM","2017/12/07 18:39:43","新北市中和區莊敬路49巷20弄16號","121.502458333333","25.005865","6500300","中和區"
"235040","150-BY","2017/12/07 18:39:49","新北市中和區宜安路63號","121.511268333333","24.996925","6500300","中和區"
"235058","151-BY","2017/12/07 18:39:39","新北市中和區圓通路320號","121.487236666667","24.9882383333333","6500300","中和區"
"235055","183-VK","2017/12/07 18:39:46","新北市中和區民生街93-2號","121.468546666667","25.00474","6500300","中和區"
"235038","185-VK","2017/12/07 18:39:46","新北市中和區大勇街45巷1號","121.517906666667","24.9949183333333","6500300","中和區"
"235049","186-VK","2017/12/07 18:39:49","新北市中和區景平路506號","121.503935","24.993855","6500300","中和區"
"235067","255-BX","2017/12/07 18:39:47","新北市中和區新生街18號","121.483131666667","25.004265","6500300","中和區"
"235044","293-VK","2017/12/07 18:39:33","新北市中和區復興路280巷5號","121.502213333333","24.9910083333333","6500300","中和區"
"235072","301-VK","2017/12/07 18:39:43","新北市中和區連城路97號","121.496511666667","24.9998683333333","6500300","中和區"
"235043","352-BY","2017/12/07 18:39:48","新北市中和區景平路105號","121.516945","24.9917733333333","6500300","中和區"
"235068","377-QA","2017/12/07 18:39:35","新北市中和區中正路128號","121.499556666667","24.9938383333333","6500300","中和區"
"235061","378-QA","2017/12/07 18:39:50","新北市中和區民享街90巷14號","121.47398","25.0001466666667","6500300","中和區"
"235071","269-TV","2017/12/07 18:39:53","新北市中和區員山路36巷16-2號","121.485146666667","24.9917766666667","6500300","中和區"
"235050","4979-A6","2017/12/07 18:39:46","新北市中和區忠孝街142號","121.512353333333","24.9871083333333","6500300","中和區"
"235069","4980-A6","2017/12/07 18:39:50","新北市中和區連城路65巷12號","121.497961666667","25.0007533333333","6500300","中和區"
"235042","551-UM","2017/12/07 18:39:48","新北市中和區成功路97巷3號","121.526478333333","24.9917466666667","6500300","中和區"
"235070","558-UM","2017/12/07 18:39:56","新北市中和區景新街162號","121.50574","24.9972533333333","6500300","中和區"
"235045","565-BX","2017/12/07 18:39:46","新北市中和區南山路236巷9號","121.505748333333","24.9888616666667","6500300","中和區"
"235054","640-BX","2017/12/07 18:39:41","新北市中和區民享街86巷7號","121.474058333333","25.0008066666667","6500300","中和區"
"235060","647-TV","2017/12/07 18:39:53","新北市中和區員山路491號","121.480016666667","25.0056033333333","6500300","中和區"
"235047","732-UM","2017/12/07 18:39:51","新北市中和區興南路二段45號","121.507453333333","24.9856383333333","6500300","中和區"
"235062","800-TS","2017/12/07 18:39:46","新北市中和區中山路二段312巷33弄25號","121.4947","25.0041566666667","6500300","中和區"
"235057","801-TS","2017/12/07 18:39:35","新北市中和區員山路327巷96號","121.479271666667","25.0023416666667","6500300","中和區"
"235041","802-TS","2017/12/07 18:39:47","新北市中和區景安路1號","121.508121666667","24.99926","6500300","中和區"
"235052","805-TS","2017/12/07 18:39:53","新北市中和區興南路三段20巷4號","121.49703","24.979545","6500300","中和區"
"235048","896-TW","2017/12/07 18:39:51","新北市中和區南山路321號","121.505111666667","24.9913583333333","6500300","中和區"
"235053","900-TW","2017/12/07 18:39:41","新北市土城區延壽路75巷1號","121.469295","24.992575","6500300","中和區"
"235064","911-UM","2017/12/07 18:39:34","新北市中和區連城路133號","121.496006666667","24.999115","6500300","中和區"
"235051","157-BY","2017/12/07 18:39:42","新北市中和區興南路二段114巷10弄12號","121.50396","24.9848616666667","6500300","中和區"
"235037","AAC-213","2017/12/07 18:39:51","新北市中和區景平路111巷21號","121.516123333333","24.9905933333333","6500300","中和區"
"235059","AAC-215","2017/12/07 18:39:51","新北市中和區錦和路350-1號","121.490236666667","24.99353","6500300","中和區"
"220068","013-TV","2017/12/07 18:39:45","新北市板橋區民生路二段120號","121.47034","25.0196083333333","6500100","板橋區"
"220065","072-UY","2017/12/07 18:39:55","新北市板橋區民族路61號","121.464923333333","25.0086383333333","6500100","板橋區"
"220086","073-UY","2017/12/07 18:39:48","新北市板橋區大智街71巷42弄16號","121.452185","25.0146633333333","6500100","板橋區"
"220069","AAD-861","2017/12/07 18:39:45","新北市板橋區華東街1-10號","121.44844","24.995","6500100","板橋區"
"226004","312-R5","2017/12/07 18:39:54","新北市平溪區平溪里三坑路40-2號","121.731003333333","25.034545","6502400","平溪區"
"228003","097-TW","2017/12/07 18:39:53","新北市貢寮區和美里龍洞街34號","121.916208333333","25.1116433333333","6502600","貢寮區"
"228001","212-TW","2017/12/07 18:39:44","新北市貢寮區仁理村研海街12-1號","121.923758333333","25.051665","6502600","貢寮區"
"228002","585-TW","2017/12/07 18:39:39","新北市貢寮區福隆里桂安街1-1號","121.955173333333","25.0205116666667","6502600","貢寮區"
"224006","676-BX","2017/12/07 18:39:56","新北市瑞芳區明燈路三段59-2號","121.805768333333","25.10821","6501200","瑞芳區"
"224002","639-TC","2017/12/07 18:39:39","新北市瑞芳區中山路318號","121.796795","25.11003","6501200","瑞芳區"
"224009","285-BY","2017/12/07 18:39:47","新北市瑞芳區祈堂路8號","121.859151666667","25.11189","6501200","瑞芳區"
"224008","275-VK","2017/12/07 18:39:42","新北市瑞芳區瑞芳街139號","121.805038333333","25.1098816666667","6501200","瑞芳區"
"224007","273-VK","2017/12/07 18:39:52","新北市瑞芳區大埔路83號","121.763821666667","25.101545","6501200","瑞芳區"
"224005","271-BY","2017/12/07 18:39:45","新北市瑞芳區建基路一段8號","121.820371666667","25.120915","6501200","瑞芳區"
"227010","400-TW","2017/12/07 18:39:38","新北市雙溪區牡丹里下坑11號","121.851011666667","25.056175","6502500","雙溪區"
"227004","030-BX","2017/12/07 18:39:44","新北市雙溪區魚行里坤溪3-5號","121.875321666667","25.0214833333333","6502500","雙溪區"
"253005","032-BX","2017/12/07 18:39:49","新北市石門區石門街41號","121.566401666667","25.290475","6502200","石門區"
"253006","295-VK","2017/12/07 18:39:41","新北市石門區楓林37-6號","121.540768333333","25.2897666666667","6502200","石門區"
"222001","KEA-2212","2017/12/07 18:39:39","新北市深坑區北深路一段80號","121.636453333333","25.0106716666667","6501800","深坑區"
"208002","742-BX","2017/12/07 18:39:36","新北市金山區忠孝一路22號","121.638441666667","25.2195133333333","6502700","金山區"
"208003","665-BX","2017/12/07 18:39:51","新北市金山區中山路345號","121.634941666667","25.224325","6502700","金山區"
"208001","761-BX","2017/12/07 18:39:44","新北市金山區文化三路7號","121.635098333333","25.225015","6502700","金山區"
"251004","009-UM","2017/12/07 18:39:49","新北市淡水區民權路41號","121.459811666667","25.140325","6501000","淡水區"
"251008","181-VK","2017/12/07 18:39:39","新北市淡水區北投子73-1號","121.453406666667","25.1826833333333","6501000","淡水區"
"251014","182-VK","2017/12/07 18:39:45","新北市淡水區崙頂12-8號","121.495593333333","25.2172333333333","6501000","淡水區"
"251010","413-VK","2017/12/07 18:39:40","新北市淡水區沙崙路141號","121.423218333333","25.1828933333333","6501000","淡水區"
"251012","441-VK","2017/12/07 18:39:54","新北市淡水區北新路117號","121.448878333333","25.178635","6501000","淡水區"
"251016","442-VK","2017/12/07 18:39:53","新北市淡水區下圭柔山72-3號","121.446086666667","25.20585","6501000","淡水區"
"251001","559-UM","2017/12/07 18:39:46","新北市淡水區自強路415巷2號","121.465461666667","25.1342366666667","6501000","淡水區"
"251006","561-UM","2017/12/07 18:39:49","新北市淡水區中山北路三段71號","121.444493333333","25.1917183333333","6501000","淡水區"
"251011","650-BX","2017/12/07 18:39:49","新北市淡水區鄧公路278巷1號","121.461415","25.1688616666667","6501000","淡水區"
"251002","672-BX","2017/12/07 18:39:49","新北市淡水區中正東路一段3巷14弄1號","121.450836666667","25.1641533333333","6501000","淡水區"
"251003","766-UM","2017/12/07 18:39:41","新北市淡水區中山北路一段212巷38號","121.446108333333","25.1790933333333","6501000","淡水區"
"207003","550-UM","2017/12/07 18:39:41","新北市萬里區野柳里八斗60-1號","121.672141666667","25.2011933333333","6502800","萬里區"
"207004","225-TW","2017/12/07 18:39:44","新北市萬里區萬里里獅頭路10-1號","121.69208","25.1787933333333","6502800","萬里區"
"252003","249-BX","2017/12/07 18:39:43","新北市三芝區後厝里土地公坑57-1號","121.461465","25.2478783333333","6502100","三芝區"
"252001","292-VK","2017/12/07 18:39:38","新北市三芝區埔頭里埔頭14號","121.50039","25.254225","6502100","三芝區"
"252002","AAC-283","2017/12/07 18:39:51","新北市三芝區民生街66號","121.503421666667","25.2554616666667","6502100","三芝區"
"237007","153-BY","2017/12/07 18:39:54","新北市三峽區柑樹路6巷10號","121.361258333333","24.903545","6500900","三峽區"
"237009","210-TH","2017/12/07 18:39:34","新北市三峽區大同路280號","121.364513333333","24.925295","6500900","三峽區"
"237013","252-BX","2017/12/07 18:39:47","新北市三峽區光明路69巷25號","121.376773333333","24.9292433333333","6500900","三峽區"
"237012","275-BY","2017/12/07 18:39:39","新北市三峽區三樹路332-2號","121.382185","24.9440616666667","6500900","三峽區"
"237008","302-VK","2017/12/07 18:39:46","新北市三峽區白雞47號","121.383008333333","24.9123483333333","6500900","三峽區"
"237014","433-BY","2017/12/07 18:39:55","新北市三峽區復興路183號","121.368908333333","24.938905","6500900","三峽區"
"237006","5529-G3","2017/12/07 18:39:41","新北市三峽區溪東路307號","121.409643333333","24.930895","6500900","三峽區"
"237011","572-TV","2017/12/07 18:06:36","新北市三峽區介壽路三段20號","121.395991666667","24.93621","6500900","三峽區"
"237016","649-BX","2017/12/06 10:49:54","新北市三峽區中山路459巷137號","121.349958333333","24.933995","6500900","三峽區"
"237010","706-TV","2017/12/07 18:39:44","新北市三峽區復興路353號","121.363903333333","24.938625","6500900","三峽區"
"237005","AKY-6261","2017/12/07 18:39:43","新北市三峽區復興路34號","121.374143333333","24.936285","6500900","三峽區"
"236071","105-UM","2017/12/07 18:39:42","新北市土城區永豐路157巷29弄6-1號","121.468373333333","24.98147","6501300","土城區"
"236042","107-UM","2017/12/07 18:39:57","新北市土城區學成路137巷8號","121.449188333333","24.9891716666667","6501300","土城區"
"236078","166-UM","2017/12/07 18:39:51","新北市土城區中央路四段68巷11號","121.418873333333","24.960335","6501300","土城區"
"236030","253-BX","2017/12/07 18:39:41","新北市土城區慶利街35號","121.438886666667","24.9744133333333","6501300","土城區"
"236026","269-VK","2017/12/07 18:39:54","新北市土城區忠義路55巷2號","121.441158333333","24.9685283333333","6501300","土城區"
"236014","270-VK","2017/12/07 18:39:35","新北市土城區清水路234巷20弄1號","121.462088333333","24.9818066666667","6501300","土城區"
"236037","271-VK","2017/12/07 18:39:41","新北市土城區明德路一段291巷11弄20號","121.460911666667","24.97602","6501300","土城區"
"236021","401-BY","2017/12/07 18:39:51","新北市土城區延吉街327-1號","121.46557","24.98418","6501300","土城區"
"236058","912-UM","2017/12/07 18:39:38","新北市土城區中央路四段57號","121.417528333333","24.9584566666667","6501300","土城區"
"236051","913-UM","2017/12/07 18:39:41","新北市土城區金城路三段8號","121.464653333333","24.9858883333333","6501300","土城區"
"236062","915-UM","2017/12/07 18:39:50","新北市土城區延壽路13巷2號","121.47098","24.9904333333333","6501300","土城區"
"236053","AAC-216","2017/12/07 18:39:42","新北市土城區裕民路6-3號","121.446875","24.9890833333333","6501300","土城區"
"242050","751-BX","2017/12/07 18:39:42","新北市板橋區大觀路三段59巷17弄5-1號","121.435148333333","24.9953233333333","6500500","新莊區"
"242044","497-BY","2017/12/07 18:39:41","新北市新莊區中正路889-1號","121.415513333333","25.0238833333333","6500500","新莊區"
"242042","400-BY","2017/12/07 18:39:45","新北市新莊區新北大道七段229號","121.413401666667","25.0300516666667","6500500","新莊區"
"242061","362-BY","2017/12/07 18:39:55","新北市新莊區新樹路259-6號","121.434508333333","25.0212233333333","6500500","新莊區"
"242058","353-BY","2017/12/07 18:39:48","新北市新莊區中正路887-13號","121.416348333333","25.0242566666667","6500500","新莊區"
"242046","172-VK","2017/12/07 18:39:42","新北市泰山區新北大道五段152號","121.436815","25.049455","6500500","新莊區"
"238015","755-BX","2017/12/07 18:39:51","新北市樹林區備內街160巷8號","121.40658","24.98954","6500700","樹林區"
"238023","601-UM","2017/12/07 18:39:38","新北市樹林區三福街114號","121.406588333333","25.01627","6500700","樹林區"
"238019","599-UM","2017/12/07 18:39:56","新北市樹林區中華路190-16號","121.411745","24.980595","6500700","樹林區"
"238018","571-TV","2017/12/07 18:39:52","新北市樹林區樹新路135號","121.428388333333","24.9962933333333","6500700","樹林區"
"238024","5061-A6","2017/12/07 18:39:46","新北市樹林區中山路二段105號","121.41065","24.98144","6500700","樹林區"
"238025","303-VK","2017/12/07 18:39:36","新北市樹林區中山路二段237號","121.402218333333","24.97601","6500700","樹林區"
"238007","268-VK","2017/12/07 18:39:39","新北市樹林區俊安街42-1號","121.419341666667","25.01325","6500700","樹林區"
"238026","172-UY","2017/12/07 18:39:51","新北市樹林區信和街3號","121.389795","24.9714583333333","6500700","樹林區"
"238016","169-UY","2017/12/07 18:39:39","新北市樹林區文化街23號","121.419316666667","24.9876566666667","6500700","樹林區"
"239007","AAC-297","2017/12/07 18:39:36","新北市鶯歌區中正一路426號","121.361303333333","24.9570383333333","6500800","鶯歌區"
"239008","527-UM","2017/12/07 18:39:38","新北市鶯歌區國際一路179號","121.336235","24.976535","6500800","鶯歌區"
"239005","526-UM","2017/12/07 18:39:41","新北市鶯歌區鳳吉二街106號","121.327541666667","24.97424","6500800","鶯歌區"
"239001","417-VK","2017/12/07 18:39:35","新北市鶯歌區中正三路193巷57號","121.336906666667","24.93821","6500800","鶯歌區"
"239003","360-BY","2017/12/07 18:39:53","新北市鶯歌區永和街173號","121.335741666667","24.9701533333333","6500800","鶯歌區"
"239002","359-BY","2017/12/07 18:39:54","新北市鶯歌區中正一路350號","121.357885","24.9570466666667","6500800","鶯歌區"
"239004","193-VK","2017/12/07 18:39:45","新北市鶯歌區中正三路156巷31號","121.333445","24.9396633333333","6500800","鶯歌區"
"221008","489-VK","2017/12/07 18:28:49","新北市汐止區康寧街901號","121.651408333333","25.0750833333333","6501100","汐止區"
"221036","130-UY","2017/12/07 18:39:45","新北市汐止區大同路二段557-1號","121.66256","25.069655","6501100","汐止區"
"221010","269-BY","2017/12/07 18:39:41","新北市汐止區瑞松街10號","121.645195","25.104795","6501100","汐止區"
"221012","276-VK","2017/12/07 13:23:29","新北市汐止區汐萬路一段256巷3號","121.653446666667","25.0746733333333","6501100","汐止區"
"221012","278-VK","2017/12/07 18:39:54","新北市汐止區長江街286-1號","121.665756666667","25.08058","6501100","汐止區"
"221023","279-VK","2017/12/07 18:39:36","新北市汐止區翠峰街21巷3弄22號","121.644721666667","25.0757983333333","6501100","汐止區"
"221032","280-BY","2017/12/07 18:39:37","新北市汐止區福山街56巷19號","121.618003333333","25.045635","6501100","汐止區"
"221027","281-BY","2017/12/07 18:39:37","新北市汐止區汐萬路一段142號","121.653221666667","25.07111","6501100","汐止區"
"221029","298-VK","2017/12/07 18:39:43","新北市汐止區樟樹一路131號","121.642195","25.0650183333333","6501100","汐止區"
"221021","299-VK","2017/12/07 18:39:38","新北市汐止區復興路53巷2號","121.656871666667","25.0626033333333","6501100","汐止區"
"221031","353-TW","2017/12/07 18:39:44","新北市汐止區大同路一段296號","121.635345","25.0579716666667","6501100","汐止區"
"221015","567-BX","2017/12/07 18:39:45","新北市汐止區吉祥街26號","121.66773","25.080935","6501100","汐止區"
"221035","622-UM","2017/12/07 18:39:34","新北市汐止區大同路二段112號","121.650491666667","25.0633983333333","6501100","汐止區"
"221025","623-UM","2017/12/07 18:39:54","新北市汐止區仁愛路119巷2號","121.662731666667","25.06371","6501100","汐止區"
"221038","646-BX","2017/12/07 18:39:49","新北市汐止區汐萬路一段256巷3號","121.652495","25.0745783333333","6501100","汐止區"
"221033","647-BX","2017/12/07 18:39:39","新北市汐止區南勢街3號","121.627185","25.0373083333333","6501100","汐止區"
"221002","707-TV","2017/12/07 18:39:41","新北市汐止區中興路66號","121.635191666667","25.06144","6501100","汐止區"
"221018","753-BX","2017/12/07 18:39:48","新北市汐止區茄苳路250巷13號","121.671555","25.0678883333333","6501100","汐止區"
"220079","145-BY","2017/12/07 18:39:37","新北市板橋區大觀路二段107號","121.446265","25.0015933333333","6500100","板橋區"
"220082","610-BX","2017/12/07 18:39:43","新北市板橋區篤行路一段29號","121.432031666667","24.9945383333333","6500100","板橋區"
"220056","276-BY","2017/12/07 18:39:51","新北市板橋區四川路二段113號","121.451513333333","24.9943166666667","6500100","板橋區"
"220072","277-BY","2017/12/07 18:39:42","新北市板橋區華東街1-8號","121.447563333333","24.9949783333333","6500100","板橋區"
"220094","285-UM","2017/12/07 18:39:49","新北市板橋區民生路二段161巷3號","121.470131666667","25.01975","6500100","板橋區"
"220083","286-VK","2017/12/07 18:39:56","新北市板橋區華東街1-8號","121.447676666667","24.9948516666667","6500100","板橋區"
"220081","287-VK","2017/12/07 18:39:35","新北市板橋區大觀路二段11-12號","121.448176666667","24.996655","6500100","板橋區"
"220061","293-UM","2017/12/07 18:39:53","新北市板橋區民生路二段120號","121.470368333333","25.0197833333333","6500100","板橋區"
"220084","296-UM","2017/12/07 18:39:45","新北市板橋區板城路421號","121.448048333333","24.995605","6500100","板橋區"
"220075","297-UM","2017/12/07 18:39:45","新北市板橋區板城路421號","121.44812","24.9956583333333","6500100","板橋區"
"220062","305-R5","2017/12/07 18:39:42","新北市板橋區民生路二段120號","121.470383333333","25.0196883333333","6500100","板橋區"
"220064","486-VK","2017/12/07 18:39:41","新北市板橋區民生路二段36-1號","121.4721","25.01679","6500100","板橋區"
"220035","560-BX","2017/12/07 18:39:40","新北市板橋區南雅西路二段145巷6號","121.451608333333","25.011855","6500100","板橋區"
"220063","609-BX","2017/12/07 18:39:48","新北市板橋區民生路二段161巷1號","121.470096666667","25.0200516666667","6500100","板橋區"
"220057","686-BX","2017/12/07 18:39:54","新北市板橋區華東街1-9號","121.448218333333","24.994915","6500100","板橋區"
"220077","687-BX","2017/12/07 18:39:45","新北市板橋區四川路二段橋頭1巷1號","121.446928333333","24.9940333333333","6500100","板橋區"
"220054","741-BX","2017/12/07 18:39:35","新北市板橋區華東街1-8號","121.447596666667","24.9949333333333","6500100","板橋區"
"220055","827-TW","2017/12/07 18:39:40","新北市板橋區華東街1-9號","121.448125","24.9948833333333","6500100","板橋區"
"220067","829-TW","2017/12/07 18:39:35","新北市板橋區民生路二段120號","121.470336666667","25.0196866666667","6500100","板橋區"
"220074","895-R6","2017/12/07 18:39:35","新北市板橋區華東街1-10號","121.448641666667","24.994845","6500100","板橋區"
"220073","985-R7","2017/12/07 18:39:43","新北市板橋區四川路二段130巷25弄4號","121.4492","24.9944683333333","6500100","板橋區"
"220070","AAC-253","2017/12/07 18:39:52","新北市板橋區華東街1-10號","121.447961666667","24.995555","6500100","板橋區"
