"lineid","car","time","location","longitude","latitude","cityid","cityname"
"234046","148-BY","2017/12/07 19:19:50","新北市永和區永元路33號","121.522166666667","25.0010016666667","6500400","永和區"
"234013","149-BY","2017/12/07 19:19:48","新北市永和區仁愛路151號","121.511208333333","25.0129383333333","6500400","永和區"
"234007","207-UY","2017/12/07 19:19:57","新北市永和區中山路一段322號","121.506453333333","25.0067066666667","6500400","永和區"
"234081","298-R6","2017/12/07 19:19:49","新北市永和區林森路10巷18弄1號","121.52573","25.0065066666667","6500400","永和區"
"234038","336-UY","2017/12/07 19:19:44","新北市永和區民樂街59巷16號","121.527966666667","24.9982633333333","6500400","永和區"
"234064","337-UY","2017/12/07 19:19:44","新北市永和區永元路17巷6弄1號","121.521361666667","25.0007366666667","6500400","永和區"
"234086","338-UY","2017/12/07 19:19:47","新北市永和區永亨路9號","121.519343333333","25.005835","6500400","永和區"
"234070","552-UM","2017/12/07 19:19:42","新北市永和區中正路700號","121.516298333333","25.0098216666667","6500400","永和區"
"234054","553-UM","2017/12/07 19:19:42","新北市永和區中興街37號","121.516245","25.0118116666667","6500400","永和區"
"234017","745-BX","2017/12/07 19:19:52","新北市永和區環河西路一段85巷4弄20號","121.512","25.0169216666667","6500400","永和區"
"234030","746-BX","2017/12/07 19:19:47","新北市永和區厚德街83號","121.524345","24.9987366666667","6500400","永和區"
"234061","AAD-866","2017/12/07 19:19:50","新北市永和區秀朗路一段120號","121.517075","25.0036233333333","6500400","永和區"
"234042","862-TW","2017/12/07 19:19:55","新北市永和區保平路177巷6弄7號","121.509623333333","25.004635","6500400","永和區"
"234050","863-TW","2017/12/07 19:19:51","新北市永和區保福路二段88巷17號","121.511505","25.01374","6500400","永和區"
"234026","9371-KE","2017/12/07 19:19:47","新北市永和區得和路42巷23號","121.515301666667","24.9996516666667","6500400","永和區"
"234011","9373-KE","2017/12/07 19:19:44","新北市永和區永平路218巷23號","121.510038333333","25.0111616666667","6500400","永和區"
"249005","172-UM","2017/12/07 19:19:42","新北市八里區中華路三段170-1號","121.392148333333","25.13037","6502300","八里區"
"249001","173-UM","2017/12/07 19:19:53","新北市八里區中華路二段39號","121.411113333333","25.15365","6502300","八里區"
"249003","759-BX","2017/12/07 19:19:36","新北市八里區中山路二段466巷6號","121.398838333333","25.1474416666667","6502300","八里區"
"248020","225-UY","2017/12/07 19:19:44","新北市五股區凌雲路三段57號","121.42528","25.1250066666667","6501500","五股區"
"248012","247-BX","2017/12/07 19:19:39","新北市五股區中興路四段48巷16號","121.438628333333","25.08344","6501500","五股區"
"248010","272-BY","2017/12/07 19:19:56","新北市五股區自強路90巷72號","121.43076","25.0712816666667","6501500","五股區"
"248004","677-BX","2017/12/07 19:19:53","新北市五股區五福路29號","121.433836666667","25.0892583333333","6501500","五股區"
"248002","678-BX","2017/12/07 19:19:48","新北市五股區凌雲路一段158巷6號","121.447785","25.103005","6501500","五股區"
"234023","9380-KE","2017/12/07 19:19:43","新北市永和區竹林路126號","121.519851666667","25.01137","6500400","永和區"
"234077","969-R7","2017/12/07 19:19:55","新北市永和區民治街95號","121.517128333333","24.998345","6500400","永和區"
"234074","AAC-211","2017/12/07 19:19:51","新北市永和區竹林路90號","121.519463333333","25.0122766666667","6500400","永和區"
"234067","AAC-212","2017/12/07 19:19:43","新北市永和區保平路30巷1號","121.511811666667","25.007415","6500400","永和區"
"234003","AAC-295","2017/12/07 19:19:43","新北市永和區永平路186-1號","121.510408333333","25.0092466666667","6500400","永和區"
"244013","069-UM","2017/12/07 19:19:56","新北市林口區麗園一街4巷2號","121.376265","25.070715","6501700","林口區"
"244019","403-UM","2017/12/07 19:19:49","新北市林口區麗園二街1巷5-1號","121.37766","25.0701066666667","6501700","林口區"
"244023","483-VK","2017/12/07 19:19:49","新北市林口區文化三路一段629-1號","121.372375","25.0777083333333","6501700","林口區"
"244011","701-TV","2017/12/07 19:19:42","新北市林口區中山路256-1號","121.385285","25.07966","6501700","林口區"
"243012","AAD-798","2017/12/07 19:19:36","新北市泰山區仁愛路100巷31號","121.43375","25.0549816666667","6501600","泰山區"
"243011","297-R6","2017/12/07 19:19:44","新北市泰山區中央路22號","121.426381666667","25.0433466666667","6501600","泰山區"
"243015","380-SR","2017/12/07 19:19:43","新北市泰山區公園路54號","121.427795","25.05495","6501600","泰山區"
"243014","421-VK","2017/12/07 19:19:49","新北市泰山區泰林路二段152號","121.434115","25.0600716666667","6501600","泰山區"
"243010","KEA-2215","2017/12/07 19:19:41","新北市泰山區明志路一段492巷6弄2號","121.429913333333","25.054835","6501600","泰山區"
"243009","KEA-2216","2017/12/07 19:19:56","新北市泰山區和平街11號","121.4343","25.0646533333333","6501600","泰山區"
"243013","646-TV","2017/12/07 19:19:49","新北市泰山區明志路三段145巷11弄2號","121.425781666667","25.0397283333333","6501600","泰山區"
"243016","680-BX","2017/12/07 19:19:46","新北市泰山區工專路64號","121.422831666667","25.0402933333333","6501600","泰山區"
"222003","436-BY","2017/12/07 19:19:46","新北市深坑區深南路204號","121.62666","25.016","6501800","深坑區"
"222002","659-BX","2017/12/07 19:19:37","新北市深坑區北深路一段177號","121.632521666667","25.0108916666667","6501800","深坑區"
"231041","001-UM","2017/12/07 19:19:52","新北市新店區溪園路245-6號","121.525463333333","24.983395","6500600","新店區"
"231059","046-UY","2017/12/07 19:19:54","新北市新店區安和路三段29-2號","121.517395","24.9812516666667","6500600","新店區"
"231061","047-UY","2017/12/07 19:19:42","新北市新店區安康路一段138號","121.526586666667","24.9628333333333","6500600","新店區"
"231060","106-UY","2017/12/07 19:19:53","新北市新店區安康路二段130-2號","121.512526666667","24.962295","6500600","新店區"
"231051","107-UY","2017/12/07 19:19:37","新北市新店區中央路68號","121.532396666667","24.9771116666667","6500600","新店區"
"231047","108-UY","2017/12/07 19:19:44","新北市新店區中興路一段280號","121.545565","24.968425","6500600","新店區"
"231052","187-VK","2017/12/07 19:19:48","新北市新店區自強路197號","121.546568333333","24.92045","6500600","新店區"
"231050","KEA-2219","2017/12/07 19:19:48","新北市新店區竹林路90號","121.55413","24.9501183333333","6500600","新店區"
"231046","278-BY","2017/12/07 19:19:44","新北市新店區華城路36巷1-1號","121.528491666667","24.9553","6500600","新店區"
"231054","AAD-862","2017/12/07 19:19:44","新北市新店區文中路54號","121.540181666667","24.9564916666667","6500600","新店區"
"231058","3712-VJ","2017/12/07 19:19:41","新北市新店區光明街286巷16號","121.540913333333","24.9634816666667","6500600","新店區"
"231067","4772-VM","2017/12/07 19:19:51","新北市新店區安康路二段414巷2號","121.495936666667","24.957805","6500600","新店區"
"231065","512-UM","2017/12/07 19:19:44","新北市新店區安祥路108巷53號","121.474355","24.95713","6500600","新店區"
"231064","515-UM","2017/12/07 19:19:46","新北市新店區安忠路57巷26弄3號","121.513033333333","24.958715","6500600","新店區"
"231042","616-UM","2017/12/07 19:19:44","新北市新店區北宜路一段3號","121.53839","24.9585216666667","6500600","新店區"
"231040","619-UM","2017/12/07 19:19:41","新北市新店區三民路20巷2號","121.537535","24.970665","6500600","新店區"
"231063","645-TV","2017/12/07 19:19:38","新北市新店區達觀路14巷8號","121.503198333333","24.9432566666667","6500600","新店區"
"231049","719-UM","2017/12/07 19:19:49","新北市新店區明德路111號","121.541521666667","24.9794416666667","6500600","新店區"
"231062","720-UM","2017/12/07 19:19:39","新北市新店區莒光路85巷2號","121.523158333333","24.95609","6500600","新店區"
"231044","897-TW","2017/12/07 19:19:52","新北市新店區中興路三段327號","121.541831666667","24.98635","6500600","新店區"
"231045","898-TW","2017/12/07 19:19:51","新北市新店區北宜路一段268號","121.546006666667","24.952735","6500600","新店區"
"231043","899-TW","2017/12/07 19:19:44","新北市新店區北新路二段108號","121.54306","24.9743633333333","6500600","新店區"
"231066","AKT-0513","2017/12/07 19:19:56","新北市新店區安康路三段456號","121.484336666667","24.9510566666667","6500600","新店區"
"241009","060-VK","2017/12/07 19:19:49","新北市三重區溪尾街230巷40號","121.486333333333","25.0812016666667","6500200","三重區"
"241031","061-VK","2017/12/07 19:19:49","新北市三重區重新路四段95號","121.48592","25.0551833333333","6500200","三重區"
"241017","063-VK","2017/12/07 19:19:45","新北市三重區長壽西街206號","121.492238333333","25.0661166666667","6500200","三重區"
"241026","066-VK","2017/12/07 19:19:48","新北市三重區中正南路222號","121.493645","25.0549766666667","6500200","三重區"
"241006","265-UM","2017/12/07 19:19:52","新北市三重區車路頭街149-2號","121.483781666667","25.0768333333333","6500200","三重區"
"241022","267-UM","2017/12/07 19:19:43","新北市三重區中正北路58號","121.486921666667","25.0643766666667","6500200","三重區"
"241032","269-UM","2017/12/07 19:19:54","新北市三重區新生街97號","121.483366666667","25.059425","6500200","三重區"
"241025","271-UM","2017/12/07 19:19:48","新北市三重區中正北路408巷5號","121.475246666667","25.0703083333333","6500200","三重區"
"241007","398-BY","2017/12/07 19:19:56","新北市三重區慈愛街49號","121.486053333333","25.0791533333333","6500200","三重區"
"241020","413-TH","2017/12/07 19:19:41","新北市三重區永德街16號","121.488596666667","25.0726783333333","6500200","三重區"
"241035","462-BY","2017/12/07 19:19:45","新北市三重區中正北路27-1號","121.491988333333","25.06223","6500200","三重區"
"241030","480-VK","2017/12/07 19:19:40","新北市三重區新興路42號","121.491425","25.053365","6500200","三重區"
"241029","942-UM","2017/12/07 19:19:42","新北市三重區重安街35號","121.491215","25.0568966666667","6500200","三重區"
"235066","003-UY","2017/12/07 19:19:37","新北市中和區景新街2號","121.50258","24.9996833333333","6500300","中和區"
"235063","006-UY","2017/12/07 19:19:40","新北市中和區連城路249巷26弄12號","121.494035","24.995615","6500300","中和區"
"235046","031-BX","2017/12/07 19:19:45","新北市中和區忠孝街2巷14弄34號","121.5104","24.9813233333333","6500300","中和區"
"235056","096-UM","2017/12/07 19:19:46","新北市中和區員山路529號","121.479731666667","25.0069766666667","6500300","中和區"
"235039","097-UM","2017/12/07 19:19:49","新北市中和區自立路58巷7號","121.523475","24.99146","6500300","中和區"
"235065","098-UM","2017/12/07 19:19:43","新北市中和區中山路二段136巷7號","121.501711666667","25.0038466666667","6500300","中和區"
"235040","150-BY","2017/12/07 19:19:49","新北市中和區保健路48巷43號","121.509525","24.9962983333333","6500300","中和區"
"235058","151-BY","2017/12/07 19:19:39","新北市中和區連城路477巷6弄22號","121.482405","24.995195","6500300","中和區"
"235055","183-VK","2017/12/07 19:19:49","新北市中和區德光路87號","121.469123333333","25.0036233333333","6500300","中和區"
"235038","185-VK","2017/12/07 19:19:47","新北市中和區大智街23巷2弄1號","121.520006666667","24.9924433333333","6500300","中和區"
"235049","186-VK","2017/12/07 19:19:49","新北市中和區景新街237號","121.508183333333","24.994505","6500300","中和區"
"235067","255-BX","2017/12/07 19:19:47","新北市中和區新生街195號","121.483871666667","25.0002266666667","6500300","中和區"
"235044","293-VK","2017/12/07 19:19:53","新北市中和區復興路309號","121.501216666667","24.9902833333333","6500300","中和區"
"235072","301-VK","2017/12/07 19:19:43","新北市中和區景平路670號","121.497158333333","25.000995","6500300","中和區"
"235043","352-BY","2017/12/07 19:19:48","新北市中和區景平路426號","121.507481666667","24.9933166666667","6500300","中和區"
"235068","377-QA","2017/12/07 19:19:55","新北市中和區安邦街95號","121.497223333333","24.996095","6500300","中和區"
"235061","378-QA","2017/12/07 19:19:50","新北市中和區員山路164號","121.48131","24.9997483333333","6500300","中和區"
"235071","269-TV","2017/12/07 19:19:53","新北市中和區中正路637巷52弄9號","121.485028333333","24.9936333333333","6500300","中和區"
"235050","4979-A6","2017/12/07 19:19:46","新北市中和區景安路212號","121.503981666667","24.9907516666667","6500300","中和區"
"235069","4980-A6","2017/12/07 19:19:50","新北市中和區福祥路79號","121.4992","25.0055866666667","6500300","中和區"
"235042","551-UM","2017/12/07 19:19:48","新北市永和區民有街69號","121.517868333333","24.9957866666667","6500300","中和區"
"235070","558-UM","2017/12/07 19:19:36","新北市中和區中和路16號","121.49962","25.00202","6500300","中和區"
"235045","565-BX","2017/12/07 19:19:45","新北市中和區景新街423巷28號","121.514436666667","24.9897033333333","6500300","中和區"
"235054","640-BX","2017/12/07 19:19:41","新北市中和區國光街109巷2弄3號","121.46963","25.0005033333333","6500300","中和區"
"235060","647-TV","2017/12/07 19:19:53","新北市中和區民有街45號","121.475903333333","25.00484","6500300","中和區"
"235047","732-UM","2017/12/07 19:19:51","新北市中和區景平路273號","121.507988333333","24.9930066666667","6500300","中和區"
"235057","801-TS","2017/12/07 19:19:35","新北市中和區員山路200號","121.481271666667","25.0006","6500300","中和區"
"235041","802-TS","2017/12/07 19:19:47","新北市永和區中和路373號","121.50844","24.9998883333333","6500300","中和區"
"235052","805-TS","2017/12/07 19:19:53","新北市中和區興南路二段124號","121.504433333333","24.98356","6500300","中和區"
"235048","896-TW","2017/12/07 19:19:51","新北市中和區忠孝街104號","121.512108333333","24.9847566666667","6500300","中和區"
"235053","900-TW","2017/12/07 19:19:41","新北市中和區華安街30巷1號","121.466963333333","24.9977966666667","6500300","中和區"
"235064","911-UM","2017/12/07 19:19:54","新北市中和區泰和街14號","121.499735","25.0009716666667","6500300","中和區"
"235051","157-BY","2017/12/07 19:19:42","新北市中和區興南路一段56巷9號","121.510343333333","24.9911866666667","6500300","中和區"
"235037","AAC-213","2017/12/07 19:19:51","新北市中和區秀朗路三段10巷37弄6號","121.523933333333","24.9958733333333","6500300","中和區"
"235059","AAC-215","2017/12/07 19:19:51","新北市中和區圓通路286巷16-5號","121.491591666667","24.9914783333333","6500300","中和區"
"220068","013-TV","2017/12/07 19:18:45","新北市板橋區翠華街6巷1弄3號","121.480988333333","25.0240166666667","6500100","板橋區"
"220065","072-UY","2017/12/07 19:19:55","新北市板橋區民族路170巷7號","121.467278333333","25.0073216666667","6500100","板橋區"
"220086","073-UY","2017/12/07 19:19:48","新北市板橋區中正路216巷133號","121.460473333333","25.01957","6500100","板橋區"
"220106","075-UY","2017/12/07 19:19:44","新北市板橋區雙十路三段66巷1號","121.470555","25.031935","6500100","板橋區"
"220069","AAD-861","2017/12/07 19:19:44","新北市板橋區四川路一段133號","121.459856666667","25.0045483333333","6500100","板橋區"
"220102","120-SR","2017/12/07 19:19:37","新北市板橋區文聖街207號","121.479866666667","25.026335","6500100","板橋區"
"247004","336-TH","2017/12/07 19:19:37","新北市五股區凌雲路一段46號","121.451761666667","25.1007833333333","6501400","蘆洲區"
"226004","312-R5","2017/12/07 19:19:54","新北市平溪區十分里十分街236號","121.778143333333","25.0440483333333","6502400","平溪區"
"228003","097-TW","2017/12/07 19:19:53","新北市貢寮區和美里和美街22-1號","121.912801666667","25.082645","6502600","貢寮區"
"228001","212-TW","2017/12/07 19:19:44","新北市貢寮區真理里新港街26巷6-3號","121.92562","25.0545666666667","6502600","貢寮區"
"228002","585-TW","2017/12/07 19:19:39","新北市貢寮區雙玉里田寮洋街21號","121.926348333333","25.0253883333333","6502600","貢寮區"
"224010","AGQ-8101","2017/12/07 19:16:52","新北市瑞芳區基山街80號","121.844535","25.10865","6501200","瑞芳區"
"224006","676-BX","2017/12/07 19:19:56","新北市瑞芳區中山路198號","121.801135","25.106805","6501200","瑞芳區"
"224008","275-VK","2017/12/07 19:19:38","新北市瑞芳區一坑路205號","121.801481666667","25.1090833333333","6501200","瑞芳區"
"224005","271-BY","2017/12/07 19:19:39","新北市瑞芳區蛇子形路6號","121.825903333333","25.1048816666667","6501200","瑞芳區"
"227010","400-TW","2017/12/07 19:19:38","新北市雙溪區新基里新基北街40號","121.8685","25.03804","6502500","雙溪區"
"227004","030-BX","2017/12/07 19:19:44","新北市雙溪區平林里梅竹蹊66-1號","121.860153333333","25.0358183333333","6502500","雙溪區"
"253005","032-BX","2017/12/07 19:19:49","新北市石門區阿里荖6-1號","121.609725","25.2799766666667","6502200","石門區"
"253006","295-VK","2017/12/07 19:19:41","新北市石門區楓林23-2號","121.537998333333","25.2906583333333","6502200","石門區"
"222001","KEA-2212","2017/12/07 19:19:39","新北市深坑區北深路二段97號","121.617593333333","25.0034633333333","6501800","深坑區"
"208002","742-BX","2017/12/07 19:19:56","新北市金山區中華路132-1號","121.633136666667","25.2209666666667","6502700","金山區"
"208003","665-BX","2017/12/07 19:19:52","新北市金山區中山路126號","121.639123333333","25.22009","6502700","金山區"
"208001","761-BX","2017/12/07 19:19:44","新北市金山區民生路69號","121.640103333333","25.2197","6502700","金山區"
"251009","008-UM","2017/12/07 19:19:41","新北市淡水區中正路8巷4號","121.441745","25.1699733333333","6501000","淡水區"
"251004","009-UM","2017/12/07 18:52:43","新北市淡水區中正東路二段143巷2弄1號","121.460646666667","25.1473083333333","6501000","淡水區"
"251007","179-VK","2017/12/07 19:19:54","新北市淡水區民生路184號","121.465515","25.1387483333333","6501000","淡水區"
"251014","182-VK","2017/12/07 19:19:45","新北市淡水區小中寮19-7號","121.484755","25.2296216666667","6501000","淡水區"
"251010","413-VK","2017/12/07 19:19:39","新北市淡水區沙崙路28號","121.421478333333","25.1813716666667","6501000","淡水區"
"251012","441-VK","2017/12/07 19:19:54","新北市淡水區崁頂78-5號","121.429763333333","25.2064016666667","6501000","淡水區"
"251016","442-VK","2017/12/07 19:19:53","新北市淡水區淡金路三段350巷18號","121.450665","25.2083766666667","6501000","淡水區"
"251005","443-VK","2017/12/07 19:19:50","新北市淡水區水源街一段29號","121.44321","25.172345","6501000","淡水區"
"251001","559-UM","2017/12/07 19:19:46","新北市淡水區自強路201巷43號","121.46206","25.12684","6501000","淡水區"
"251006","561-UM","2017/12/07 19:19:49","新北市淡水區大信街33號","121.442008333333","25.17735","6501000","淡水區"
"251003","766-UM","2017/12/07 19:19:41","新北市淡水區中山北路一段168號","121.444378333333","25.1787266666667","6501000","淡水區"
"207003","550-UM","2017/12/07 19:19:41","新北市萬里區大鵬里萬里加投79-3號","121.647335","25.21237","6502800","萬里區"
"207004","225-TW","2017/12/07 19:19:50","新北市萬里區萬里里成功新村57號","121.688168333333","25.174505","6502800","萬里區"
"252003","249-BX","2017/12/07 19:19:43","新北市三芝區埔坪里埔頭坑43號","121.50425","25.2614216666667","6502100","三芝區"
"252001","292-VK","2017/12/07 19:19:37","新北市三芝區長勤街9巷11弄1號","121.50174","25.2548283333333","6502100","三芝區"
"252002","AAC-283","2017/12/07 19:19:51","新北市三芝區淡金路二段18-1號","121.502661666667","25.2594783333333","6502100","三芝區"
"237007","153-BY","2017/12/07 19:19:54","新北市三峽區中正路二段584巷4弄5號","121.359031666667","24.9067","6500900","三峽區"
"237009","210-TH","2017/12/07 19:19:54","新北市三峽區和平街3號","121.370521666667","24.9349316666667","6500900","三峽區"
"237013","252-BX","2017/12/07 19:19:47","新北市三峽區光明路75巷23號","121.377433333333","24.928155","6500900","三峽區"
"237012","275-BY","2017/12/07 19:19:38","新北市三峽區三樹路222巷236弄69-3號","121.39453","24.9434166666667","6500900","三峽區"
"237008","302-VK","2017/12/07 19:19:46","新北市三峽區大同路154號","121.37313","24.9267233333333","6500900","三峽區"
"237014","433-BY","2017/12/07 19:19:35","新北市三峽區中山路257巷18號","121.362133333333","24.93669","6500900","三峽區"
"237006","5529-G3","2017/12/07 19:19:41","新北市三峽區中正路一段330-15號","121.369898333333","24.9242983333333","6500900","三峽區"
"237011","572-TV","2017/12/07 19:14:56","新北市三峽區中正路一段100號","121.374288333333","24.9296333333333","6500900","三峽區"
"237016","649-BX","2017/12/06 10:49:54","新北市三峽區中山路459巷137號","121.349958333333","24.933995","6500900","三峽區"
"237010","706-TV","2017/12/07 19:11:31","新北市三峽區復興路11號","121.374206666667","24.9361083333333","6500900","三峽區"
"237005","AKY-6261","2017/12/07 19:19:43","新北市三峽區中山路459巷50-2號","121.356143333333","24.9375516666667","6500900","三峽區"
"236071","105-UM","2017/12/07 19:19:42","新北市土城區學成路147號","121.448785","24.9895116666667","6501300","土城區"
"236078","166-UM","2017/12/07 19:19:51","新北市土城區中央路四段321巷46號","121.412643333333","24.9509766666667","6501300","土城區"
"236026","269-VK","2017/12/07 19:19:53","新北市土城區員林街12巷12號","121.443156666667","24.9768716666667","6501300","土城區"
"236014","270-VK","2017/12/07 19:19:35","新北市土城區廣福街5號","121.457295","24.9887366666667","6501300","土城區"
"236021","401-BY","2017/12/07 19:19:51","新北市土城區明峰街64號","121.468561666667","24.9868866666667","6501300","土城區"
"236058","912-UM","2017/12/07 19:19:38","新北市土城區金城路一段51號","121.441213333333","24.96969","6501300","土城區"
"236051","913-UM","2017/12/07 19:19:41","新北市土城區明德路一段398-1號","121.453608333333","24.97906","6501300","土城區"
"238015","755-BX","2017/12/07 19:19:40","新北市樹林區備內街19號","121.412675","24.9870333333333","6500700","樹林區"
"238023","601-UM","2017/12/07 19:19:38","新北市樹林區三興路39號","121.39596","25.0146333333333","6500700","樹林區"
"238019","599-UM","2017/12/07 19:19:36","新北市樹林區鎮前街411巷1弄16號","121.415543333333","24.983155","6500700","樹林區"
"238018","571-TV","2017/12/07 19:19:46","新北市樹林區中華路140號","121.416901666667","24.9802183333333","6500700","樹林區"
"238024","5061-A6","2017/12/07 19:19:47","新北市樹林區福德街20號","121.40102","24.9760116666667","6500700","樹林區"
"238021","KEA-2217","2017/12/07 19:19:49","新北市樹林區柑園街二段378巷1號","121.368808333333","24.9497866666667","6500700","樹林區"
"238025","303-VK","2017/12/07 19:19:36","新北市樹林區中山路二段133號","121.406708333333","24.9791","6500700","樹林區"
"238014","282-BY","2017/12/07 19:19:37","新北市樹林區千歲街92巷7弄17號","121.427283333333","24.9980016666667","6500700","樹林區"
"238007","268-VK","2017/12/07 19:19:39","新北市樹林區俊英街133巷25號","121.422966666667","25.0108083333333","6500700","樹林區"
"238026","172-UY","2017/12/07 19:19:51","新北市樹林區佳園路三段6號","121.388208333333","24.9551833333333","6500700","樹林區"
"238016","169-UY","2017/12/07 19:19:39","新北市樹林區中山路二段34-2號","121.41703","24.9853416666667","6500700","樹林區"
"239007","AAC-297","2017/12/07 19:19:16","新北市鶯歌區中山路138巷19號","121.351566666667","24.9600616666667","6500800","鶯歌區"
"239006","891-R6","2017/12/07 19:19:45","新北市鶯歌區鶯桃路242巷4號","121.336453333333","24.9596916666667","6500800","鶯歌區"
"239008","527-UM","2017/12/07 19:19:38","新北市鶯歌區國際二路4巷12號","121.338991666667","24.97341","6500800","鶯歌區"
"239005","526-UM","2017/12/07 19:19:41","新北市鶯歌區東湖路3號","121.350208333333","24.973365","6500800","鶯歌區"
"239001","417-VK","2017/12/07 19:19:35","新北市鶯歌區鶯桃路97-3號","121.339056666667","24.9540166666667","6500800","鶯歌區"
"239003","360-BY","2017/12/07 19:19:53","新北市鶯歌區中正二路36號","121.351246666667","24.951455","6500800","鶯歌區"
"239002","359-BY","2017/12/07 19:19:54","新北市鶯歌區大湖路532號","121.337436666667","24.972445","6500800","鶯歌區"
"239004","193-VK","2017/12/07 19:19:45","新北市鶯歌區中正三路291巷20弄2號","121.329765","24.9355983333333","6500800","鶯歌區"
"221008","489-VK","2017/12/07 19:19:50","新北市汐止區康寧街302-1號","121.62622","25.06713","6501100","汐止區"
"221036","130-UY","2017/12/07 19:19:45","新北市汐止區汐萬路一段300號","121.650553333333","25.0745216666667","6501100","汐止區"
"221010","269-BY","2017/12/07 19:19:41","新北市汐止區康寧街901號","121.651371666667","25.0750116666667","6501100","汐止區"
"221012","276-VK","2017/12/07 13:23:29","新北市汐止區汐萬路一段256巷3號","121.653446666667","25.0746733333333","6501100","汐止區"
"221012","278-VK","2017/12/07 19:19:54","新北市汐止區汐萬路一段265巷2號","121.65071","25.0742016666667","6501100","汐止區"
"221023","279-VK","2017/12/07 19:19:36","新北市汐止區康寧街901號","121.650976666667","25.075225","6501100","汐止區"
"221027","281-BY","2017/12/07 19:19:37","新北市汐止區汐萬路一段160號","121.652543333333","25.0715716666667","6501100","汐止區"
"221029","298-VK","2017/12/07 19:19:43","新北市汐止區康寧街901號","121.651605","25.074955","6501100","汐止區"
"221031","353-TW","2017/12/07 19:19:44","新北市汐止區汐萬路一段301號","121.649583333333","25.0757933333333","6501100","汐止區"
"221015","567-BX","2017/12/07 19:19:45","新北市汐止區汐萬路一段256巷1號","121.651711666667","25.0748766666667","6501100","汐止區"
"221025","623-UM","2017/12/07 19:19:53","新北市汐止區汐萬路一段273號","121.65051","25.0744733333333","6501100","汐止區"
"221038","646-BX","2017/12/07 19:19:49","新北市汐止區汐萬路一段312號","121.65066","25.0752866666667","6501100","汐止區"
"221033","647-BX","2017/12/07 19:19:38","新北市汐止區南勢街1巷1號","121.627023333333","25.0374233333333","6501100","汐止區"
"221002","707-TV","2017/12/07 19:19:52","新北市汐止區大同路一段331號","121.638303333333","25.0593316666667","6501100","汐止區"
"221018","753-BX","2017/12/07 19:19:40","新北市汐止區康寧街901號","121.651558333333","25.0749266666667","6501100","汐止區"
"220079","145-BY","2017/12/07 19:19:57","新北市板橋區民權路202巷17弄8號","121.460428333333","25.0166016666667","6500100","板橋區"
"220082","610-BX","2017/12/07 19:19:43","新北市板橋區溪城路79號","121.426596666667","24.9836366666667","6500100","板橋區"
"220080","256-TC","2017/12/07 19:19:54","新北市板橋區大觀路二段19巷16號","121.447476666667","25.0031783333333","6500100","板橋區"
"220091","267-BY","2017/12/07 19:19:47","新北市板橋區文聖街153號","121.478613333333","25.0278383333333","6500100","板橋區"
"220056","276-BY","2017/12/07 19:19:49","新北市板橋區信義路147號","121.458146666667","24.9928616666667","6500100","板橋區"
"220072","277-BY","2017/12/07 19:19:42","新北市板橋區金門街280巷11號","121.429115","24.9862133333333","6500100","板橋區"
"220101","280-UM","2017/12/07 19:19:53","新北市板橋區莊敬路25巷17號","121.474416666667","25.02703","6500100","板橋區"
"220071","283-VK","2017/12/07 19:19:49","新北市板橋區大豐街21號","121.462226666667","25.00141","6500100","板橋區"
"220094","285-UM","2017/12/07 19:19:48","新北市板橋區吳鳳路82號","121.466955","25.0312666666667","6500100","板橋區"
"220053","285-VK","2017/12/07 19:19:43","新北市板橋區富山街30號","121.478058333333","25.0218816666667","6500100","板橋區"
"220083","286-VK","2017/12/07 19:19:56","新北市板橋區大觀路二段174巷186弄16號","121.442931666667","25.0034233333333","6500100","板橋區"
"220081","287-VK","2017/12/07 19:19:55","新北市板橋區南雅西路一段112號","121.45281","25.0064483333333","6500100","板橋區"
"220090","288-VK","2017/12/07 19:19:40","新北市板橋區長江路一段106巷13弄26號","121.46107","25.029585","6500100","板橋區"
"220061","293-UM","2017/12/07 19:19:53","新北市板橋區中山路二段326號","121.481023333333","25.01956","6500100","板橋區"
"220084","296-UM","2017/12/07 19:19:45","新北市板橋區溪崑二街66巷32號","121.42725","24.9909233333333","6500100","板橋區"
"220075","297-UM","2017/12/07 19:19:45","新北市板橋區僑中一街124巷72-3號","121.449415","25.017485","6500100","板橋區"
"220092","299-UM","2017/12/07 19:19:43","新北市板橋區光武街48巷8-3號","121.467515","25.0266816666667","6500100","板橋區"
"220062","305-R5","2017/12/07 19:19:42","新北市板橋區三民路二段153巷36弄2號","121.481115","25.01414","6500100","板橋區"
"220098","317-R6","2017/12/07 19:19:42","新北市板橋區民有街88號","121.464945","25.0274066666667","6500100","板橋區"
"220064","486-VK","2017/12/07 19:19:44","新北市板橋區板新路219號","121.468263333333","25.0159233333333","6500100","板橋區"
"220089","487-VK","2017/12/07 19:19:43","新北市板橋區文化路二段1號","121.46841","25.0240466666667","6500100","板橋區"
"220088","491-VK","2017/12/07 19:19:50","新北市板橋區雙十路二段79號","121.476053333333","25.0272233333333","6500100","板橋區"
"220035","560-BX","2017/12/07 19:19:40","新北市板橋區中正路360巷6-3號","121.454836666667","25.0237116666667","6500100","板橋區"
"220103","561-BX","2017/12/07 19:19:39","新北市板橋區介壽街20號","121.467646666667","25.0200716666667","6500100","板橋區"
"220063","609-BX","2017/12/07 19:19:48","新北市板橋區三民路二段189號","121.479133333333","25.0141183333333","6500100","板橋區"
"220057","686-BX","2017/12/07 19:19:34","新北市板橋區重慶路307號","121.463825","24.9987133333333","6500100","板橋區"
"220077","687-BX","2017/12/07 19:19:45","新北市板橋區僑中一街80巷6弄12號","121.448046666667","25.0114716666667","6500100","板橋區"
"220093","689-BX","2017/12/07 19:19:46","新北市板橋區文化路一段118號","121.464861666667","25.0185216666667","6500100","板橋區"
"220054","741-BX","2017/12/07 19:19:35","新北市板橋區校前街38號","121.460936666667","25.00319","6500100","板橋區"
"220055","827-TW","2017/12/07 19:19:58","新北市板橋區館前東路156巷18號","121.464248333333","25.0070133333333","6500100","板橋區"
"220067","829-TW","2017/12/07 19:19:54","新北市板橋區長安街138巷5弄62號","121.474003333333","25.0096166666667","6500100","板橋區"
"220096","831-TW","2017/12/07 19:19:48","新北市板橋區大同街8巷17號","121.477288333333","25.0262966666667","6500100","板橋區"
"220074","895-R6","2017/12/07 19:19:55","新北市板橋區中正路自強新村46-1號","121.454521666667","25.0139716666667","6500100","板橋區"
"220073","985-R7","2017/12/07 19:19:54","新北市板橋區新生街96號","121.458376666667","25.0220716666667","6500100","板橋區"
"220097","AAC-210","2017/12/07 19:19:51","新北市板橋區幸福路32巷1弄12號","121.460925","25.0205333333333","6500100","板橋區"
"220070","AAC-253","2017/12/07 19:19:53","新北市板橋區忠孝路120號","121.462998333333","25.0022716666667","6500100","板橋區"
