"lineid","car","time","location","longitude","latitude","cityid","cityname"
"234046","148-BY","2017/12/07 19:59:43","新北市永和區成功路一段71號","121.526955","25.00336","6500400","永和區"
"234013","149-BY","2017/12/07 19:59:48","新北市永和區保生路55號","121.504725","25.0105733333333","6500400","永和區"
"234007","207-UY","2017/12/07 19:59:37","新北市永和區保生路22巷6號","121.507143333333","25.0079583333333","6500400","永和區"
"234081","298-R6","2017/12/07 19:59:49","新北市永和區林森路112巷12弄34號","121.522785","25.0046116666667","6500400","永和區"
"234038","336-UY","2017/12/07 19:59:44","新北市永和區成功路二段177-1號","121.52664","24.9967016666667","6500400","永和區"
"234064","337-UY","2017/12/07 19:59:44","新北市永和區中正路412巷2弄12號","121.518525","25.001865","6500400","永和區"
"234086","338-UY","2017/12/07 19:59:57","新北市永和區福和路232號","121.519","25.007655","6500400","永和區"
"234070","552-UM","2017/12/07 19:59:42","新北市永和區國光路14號","121.51921","25.0083983333333","6500400","永和區"
"234054","553-UM","2017/12/07 19:59:42","新北市永和區環河東路一段122號","121.520633333333","25.0154766666667","6500400","永和區"
"234017","745-BX","2017/12/07 19:59:52","新北市永和區文化路75號","121.513731666667","25.0151066666667","6500400","永和區"
"234030","746-BX","2017/12/07 19:59:47","新北市永和區民生路22巷15號","121.521615","24.997135","6500400","永和區"
"234061","AAD-866","2017/12/07 19:59:50","新北市永和區得和路76號","121.516443333333","25.00008","6500400","永和區"
"234042","862-TW","2017/12/07 19:59:54","新北市永和區中和路335巷14號","121.507511666667","25.00026","6500400","永和區"
"234050","863-TW","2017/12/07 19:59:50","新北市永和區保安路147號","121.507045","25.0131566666667","6500400","永和區"
"234026","9371-KE","2017/12/07 19:59:47","新北市永和區水源街21巷15號","121.511646666667","25.0039866666667","6500400","永和區"
"234011","9373-KE","2017/12/07 19:59:44","新北市永和區仁愛路352巷112弄13號","121.50102","25.008585","6500400","永和區"
"249005","172-UM","2017/12/07 19:59:42","新北市八里區楓林路1-11號","121.385348333333","25.131305","6502300","八里區"
"249001","173-UM","2017/12/07 19:59:50","新北市八里區中華路二段310號","121.403865","25.1483466666667","6502300","八里區"
"249004","303-UY","2017/12/07 19:51:47","新北市八里區觀海大道271號","121.414466666667","25.1614966666667","6502300","八里區"
"249002","305-UY","2017/12/07 19:59:56","新北市八里區龍米路一段87巷35號","121.452178333333","25.1237283333333","6502300","八里區"
"249003","759-BX","2017/12/07 19:59:56","新北市八里區中華路二段562號","121.398856666667","25.144785","6502300","八里區"
"248016","026-BX","2017/12/07 19:59:57","新北市五股區成泰路三段577巷80弄50號","121.449723333333","25.10492","6501500","五股區"
"248008","095-VK","2017/12/07 19:59:53","新北市三重區中正北路592號","121.4697","25.0719616666667","6501500","五股區"
"248020","225-UY","2017/12/07 19:59:44","新北市五股區凌雲路三段1-4號","121.431851666667","25.1054716666667","6501500","五股區"
"248012","247-BX","2017/12/07 19:59:39","新北市五股區民義路一段84號","121.43597","25.08499","6501500","五股區"
"248014","261-SL","2017/12/07 19:59:50","新北市五股區五福路22巷4號","121.434595","25.0890183333333","6501500","五股區"
"248010","272-BY","2017/12/07 19:59:56","新北市五股區登林路79-3號","121.427753333333","25.0704833333333","6501500","五股區"
"248004","677-BX","2017/12/07 19:59:53","新北市五股區成泰路一段8巷2-3號","121.434875","25.06693","6501500","五股區"
"248002","678-BX","2017/12/07 19:59:47","新北市五股區成泰路三段487號","121.450775","25.0992683333333","6501500","五股區"
"234023","9380-KE","2017/12/07 19:59:40","新北市永和區中正路702巷18號","121.516411666667","25.0105066666667","6500400","永和區"
"234077","969-R7","2017/12/07 19:59:34","新北市永和區民權路60號","121.519808333333","24.9982266666667","6500400","永和區"
"234074","AAC-211","2017/12/07 19:59:51","新北市永和區豫溪街207巷1號","121.523515","25.0099233333333","6500400","永和區"
"234067","AAC-212","2017/12/07 19:59:44","新北市永和區中山路一段275號","121.507085","25.0071133333333","6500400","永和區"
"234003","AAC-295","2017/12/07 19:59:47","新北市永和區中正路605號","121.516428333333","25.009705","6500400","永和區"
"243012","AAD-798","2017/12/07 19:59:37","新北市泰山區全興路105號","121.433618333333","25.0568266666667","6501600","泰山區"
"243011","297-R6","2017/12/07 19:59:24","新北市泰山區工專路58號","121.42297","25.040185","6501600","泰山區"
"243015","380-SR","2017/12/07 19:59:43","新北市泰山區明志路二段196號","121.427288333333","25.0495433333333","6501600","泰山區"
"243014","421-VK","2017/12/07 19:59:49","新北市泰山區泰林路二段159號","121.433796666667","25.0604483333333","6501600","泰山區"
"243010","KEA-2215","2017/12/07 19:59:41","新北市泰山區中華街1巷2號","121.428198333333","25.0523116666667","6501600","泰山區"
"243009","KEA-2216","2017/12/07 19:59:36","新北市泰山區泰林路二段142巷7弄10號","121.434585","25.0606333333333","6501600","泰山區"
"243013","646-TV","2017/12/07 19:53:18","新北市泰山區明志路三段6巷16號","121.423883333333","25.0436683333333","6501600","泰山區"
"243016","680-BX","2017/12/07 19:59:46","新北市泰山區明志路三段514號","121.421026666667","25.0306716666667","6501600","泰山區"
"222003","436-BY","2017/12/07 19:59:58","新北市深坑區埔新街14號","121.620726666667","25.003965","6501800","深坑區"
"222002","659-BX","2017/12/07 19:59:58","新北市深坑區埔新街100號","121.618616666667","25.0021783333333","6501800","深坑區"
"231041","001-UM","2017/12/07 19:59:55","新北市新店區中央路3號","121.533495","24.9787183333333","6500600","新店區"
"231059","046-UY","2017/12/07 19:59:40","新北市新店區安康路二段149號","121.511176666667","24.9598383333333","6500600","新店區"
"231061","047-UY","2017/12/07 19:59:42","新北市新店區安民街358號","121.516593333333","24.975965","6500600","新店區"
"231060","106-UY","2017/12/07 19:59:53","新北市新店區安康路二段385-1號","121.494733333333","24.95451","6500600","新店區"
"231051","107-UY","2017/12/07 19:59:57","新北市新店區中央二街3號","121.52919","24.9730316666667","6500600","新店區"
"231047","108-UY","2017/12/07 19:59:44","新北市新店區寶橋路138號","121.547748333333","24.97637","6500600","新店區"
"231052","187-VK","2017/12/07 19:59:48","新北市新店區新烏路三段304號","121.547773333333","24.8969966666667","6500600","新店區"
"231050","KEA-2219","2017/12/07 19:59:48","新北市新店區光明街117號","121.539005","24.961605","6500600","新店區"
"231057","256-BX","2017/12/07 19:59:55","新北市新店區花園二路一段11號","121.55548","24.93254","6500600","新店區"
"231054","AAD-862","2017/12/07 19:59:50","新北市新店區光明街158號","121.539476666667","24.961745","6500600","新店區"
"231056","3713-VJ","2017/12/07 19:59:53","新北市新店區中央路19號","121.533196666667","24.9782283333333","6500600","新店區"
"231055","4716-K9","2017/12/07 19:59:50","新北市新店區力行路80號","121.53854","24.966455","6500600","新店區"
"231067","4772-VM","2017/12/07 19:59:51","新北市新店區秀山路11巷10號","121.53176","24.9594183333333","6500600","新店區"
"231065","512-UM","2017/12/07 19:59:44","新北市新店區安祥路109巷8號","121.475431666667","24.9588566666667","6500600","新店區"
"231064","515-UM","2017/12/07 19:59:46","新北市新店區光華街5巷2號","121.517716666667","24.96899","6500600","新店區"
"231042","616-UM","2017/12/07 19:59:41","新北市新店區中興路二段100巷2號","121.547371666667","24.9714666666667","6500600","新店區"
"231040","619-UM","2017/12/07 19:59:41","新北市新店區中正路64號","121.544206666667","24.970095","6500600","新店區"
"231063","645-TV","2017/12/07 19:59:38","新北市新店區黎明路56巷1號","121.502363333333","24.9476966666667","6500600","新店區"
"231068","718-UY","2017/12/07 19:59:49","新北市新店區安華路28-1號","121.519045","24.9607366666667","6500600","新店區"
"231049","719-UM","2017/12/07 19:59:49","新北市新店區明德路42號","121.541411666667","24.9782116666667","6500600","新店區"
"231062","720-UM","2017/12/07 19:59:39","新北市新店區華城路10巷2-2號","121.529233333333","24.9584033333333","6500600","新店區"
"231044","897-TW","2017/12/07 19:59:52","新北市新店區復興路44-1號","121.538588333333","24.9867316666667","6500600","新店區"
"231045","898-TW","2017/12/07 19:59:51","新北市新店區北宜路二段263號","121.554643333333","24.9535816666667","6500600","新店區"
"231043","899-TW","2017/12/07 19:59:44","新北市新店區中正路263-4號","121.538343333333","24.9739066666667","6500600","新店區"
"231066","AKT-0513","2017/12/07 19:59:45","新北市新店區柴埕路60巷1-1號","121.51015","24.9636466666667","6500600","新店區"
"241011","013-R5","2017/12/07 19:59:53","新北市三重區三和路三段18號","121.496958333333","25.07029","6500200","三重區"
"241028","022-UY","2017/12/07 19:59:50","新北市三重區中正南路54號","121.494006666667","25.0597983333333","6500200","三重區"
"241008","059-VK","2017/12/07 19:59:52","新北市三重區永福街197巷8號","121.478111666667","25.0745266666667","6500200","三重區"
"241009","060-VK","2017/12/07 19:59:49","新北市三重區三和路四段390巷19號","121.480985","25.078825","6500200","三重區"
"241031","061-VK","2017/12/07 19:59:49","新北市三重區重新路四段144巷25號","121.48706","25.0551733333333","6500200","三重區"
"241015","062-VK","2017/12/07 19:59:55","新北市三重區三和路二段17號","121.501206666667","25.06684","6500200","三重區"
"241017","063-VK","2017/12/07 19:59:45","新北市三重區自強路一段306號","121.491295","25.0684583333333","6500200","三重區"
"241024","065-VK","2017/12/07 19:59:53","新北市三重區力行路一段176號","121.482033333333","25.0714883333333","6500200","三重區"
"241026","066-VK","2017/12/07 19:59:48","新北市三重區中央南路4號","121.501341666667","25.063025","6500200","三重區"
"241002","090-VK","2017/12/07 19:59:41","新北市三重區仁愛街284號","121.49239","25.0790616666667","6500200","三重區"
"241003","091-VK","2017/12/07 19:59:49","新北市三重區仁愛街445巷51號","121.491231666667","25.0831633333333","6500200","三重區"
"241005","262-UM","2017/12/07 19:59:54","新北市三重區五華街245號","121.489145","25.08622","6500200","三重區"
"241006","265-UM","2017/12/07 19:59:51","新北市三重區力行路二段33巷8號","121.482428333333","25.0736633333333","6500200","三重區"
"241016","266-UM","2017/12/07 19:59:43","新北市三重區正義北路36巷8號","121.496835","25.0633766666667","6500200","三重區"
"241022","267-UM","2017/12/07 19:59:43","新北市三重區新北大道一段7號","121.489775","25.0616","6500200","三重區"
"241018","268-UM","2017/12/07 19:59:54","新北市三重區雙園街78號","121.495558333333","25.0676283333333","6500200","三重區"
"241032","269-UM","2017/12/07 19:59:54","新北市三重區朝陽街46號","121.483405","25.0570766666667","6500200","三重區"
"241013","270-UM","2017/12/07 19:59:46","新北市三重區三和路三段125巷20號","121.493475","25.0736466666667","6500200","三重區"
"241025","271-UM","2017/12/07 19:59:48","新北市三重區頂崁街210巷9號","121.476578333333","25.067815","6500200","三重區"
"241007","398-BY","2017/12/07 19:59:56","新北市三重區溪尾街121號","121.489531666667","25.0792716666667","6500200","三重區"
"241004","KEA-2210","2017/12/07 19:59:38","新北市三重區仁愛街425巷92號","121.492218333333","25.08268","6500200","三重區"
"241020","413-TH","2017/12/07 19:59:44","新北市三重區忠孝路一段87號","121.489903333333","25.0722266666667","6500200","三重區"
"241035","462-BY","2017/12/07 19:59:45","新北市三重區大榮街7號","121.498203333333","25.0631066666667","6500200","三重區"
"241019","478-VK","2017/12/07 19:59:47","新北市三重區重陽路四段2號","121.490365","25.0687766666667","6500200","三重區"
"241030","480-VK","2017/12/07 19:59:40","新北市三重區成功路173號","121.48598","25.0528183333333","6500200","三重區"
"241014","543-UM","2017/12/07 19:59:57","新北市三重區三和路二段146號","121.499551666667","25.0683666666667","6500200","三重區"
"241023","545-UM","2017/12/07 19:59:40","新北市三重區大有街1-1號","121.477685","25.0656466666667","6500200","三重區"
"241001","547-UM","2017/12/07 19:59:39","新北市三重區仁愛街271號","121.493098333333","25.078835","6500200","三重區"
"241012","941-UM","2017/12/07 19:59:43","新北市三重區仁厚街39號","121.500118333333","25.0764666666667","6500200","三重區"
"241029","942-UM","2017/12/07 19:59:42","新北市三重區重安街1號","121.490045","25.0582966666667","6500200","三重區"
"241033","AAC-255","2017/12/07 19:59:44","新北市三重區中興北街69號","121.4695","25.047595","6500200","三重區"
"235066","003-UY","2017/12/07 19:59:57","新北市中和區中山路二段47號","121.504373333333","25.0048916666667","6500300","中和區"
"235046","031-BX","2017/12/07 19:59:45","新北市中和區興南路一段93巷77號","121.51048","24.9864916666667","6500300","中和區"
"235056","096-UM","2017/12/07 19:59:57","新北市中和區中山路三段170巷2弄1號","121.4729","25.00665","6500300","中和區"
"235039","097-UM","2017/12/07 19:59:48","新北市中和區大勇街27巷27號","121.516293333333","24.99383","6500300","中和區"
"235065","098-UM","2017/12/07 19:59:43","新北市中和區福祥路90巷7弄9號","121.49942","25.006245","6500300","中和區"
"235040","150-BY","2017/12/07 19:59:49","新北市中和區保健路8巷19號","121.50773","24.997725","6500300","中和區"
"235058","151-BY","2017/12/07 19:59:39","新北市中和區員山路150巷2弄35號","121.481723333333","24.9975733333333","6500300","中和區"
"235055","183-VK","2017/12/07 19:59:46","新北市中和區民生街35巷1弄1號","121.470371666667","25.0052066666667","6500300","中和區"
"235038","185-VK","2017/12/07 19:59:46","新北市中和區自強路52號","121.520126666667","24.9947933333333","6500300","中和區"
"235049","186-VK","2017/12/07 19:59:49","新北市中和區中正路4號","121.503148333333","24.993985","6500300","中和區"
"235067","255-BX","2017/12/07 19:59:47","新北市中和區中正路751巷3弄6號","121.484275","24.99953","6500300","中和區"
"235044","293-VK","2017/12/07 19:59:53","新北市中和區板南路172號","121.501246666667","24.9929216666667","6500300","中和區"
"235043","352-BY","2017/12/07 19:59:48","新北市中和區興南路二段159巷7號","121.50529","24.98305","6500300","中和區"
"235068","377-QA","2017/12/07 19:59:55","新北市中和區莊敬路1-6號","121.499465","25.004365","6500300","中和區"
"235050","4979-A6","2017/12/07 19:59:46","新北市中和區景平路153號","121.513473333333","24.9918916666667","6500300","中和區"
"235069","4980-A6","2017/12/07 19:59:50","新北市中和區景新街34巷18弄2號","121.50336","24.998545","6500300","中和區"
"235070","558-UM","2017/12/07 19:59:56","新北市中和區景平路473號","121.50042","24.9971383333333","6500300","中和區"
"235054","640-BX","2017/12/07 19:59:41","新北市中和區莒光路175-4號","121.47277","24.99935","6500300","中和區"
"235060","647-TV","2017/12/07 19:59:53","新北市中和區新生街112-1號","121.483323333333","25.0027316666667","6500300","中和區"
"235047","732-UM","2017/12/07 19:59:51","新北市中和區和平街74號","121.50777","24.9910933333333","6500300","中和區"
"235041","802-TS","2017/12/07 19:59:46","新北市中和區安平路154號","121.512493333333","24.9983083333333","6500300","中和區"
"235052","805-TS","2017/12/07 19:59:53","新北市中和區華新街144巷9號","121.507563333333","24.983065","6500300","中和區"
"235048","896-TW","2017/12/07 19:59:51","新北市中和區興南路一段8號","121.511513333333","24.991375","6500300","中和區"
"235053","900-TW","2017/12/07 19:59:41","新北市中和區民德路216號","121.468205","24.9980333333333","6500300","中和區"
"235051","157-BY","2017/12/07 19:59:42","新北市中和區景安路212號","121.50398","24.9907583333333","6500300","中和區"
"235037","AAC-213","2017/12/07 19:59:51","新北市中和區大智街55巷30弄58-1號","121.522301666667","24.9933966666667","6500300","中和區"
"235059","AAC-215","2017/12/07 19:59:51","新北市中和區圓通路333號","121.49197","24.99048","6500300","中和區"
"220068","013-TV","2017/12/07 19:59:30","新北市板橋區中山路二段412巷29弄6號","121.484055","25.0198083333333","6500100","板橋區"
"220065","072-UY","2017/12/07 19:59:55","新北市板橋區區運路30號","121.465673333333","25.00957","6500100","板橋區"
"220106","075-UY","2017/12/07 19:59:51","新北市板橋區民治街69號","121.479663333333","25.0327433333333","6500100","板橋區"
"220069","AAD-861","2017/12/07 19:59:44","新北市板橋區貴興路119巷1弄1號","121.455746666667","25.00223","6500100","板橋區"
"220102","120-SR","2017/12/07 19:59:37","新北市板橋區仁化街42巷26號","121.475666666667","25.0308816666667","6500100","板橋區"
"247020","500-BY","2017/12/07 19:59:48","新北市蘆洲區民義街70號","121.473091666667","25.0899416666667","6501400","蘆洲區"
"247008","341-TH","2017/12/07 19:59:36","新北市蘆洲區中山一路61巷41號","121.477411666667","25.0805516666667","6501400","蘆洲區"
"247010","339-TH","2017/12/07 19:59:55","新北市蘆洲區集賢路227-1號","121.48232","25.0860933333333","6501400","蘆洲區"
"247002","337-TH","2017/12/07 19:59:47","新北市蘆洲區長安街274巷26號","121.458463333333","25.0870466666667","6501400","蘆洲區"
"247004","336-TH","2017/12/07 19:59:37","新北市蘆洲區環堤大道92號","121.455698333333","25.08536","6501400","蘆洲區"
"247016","057-VK","2017/12/07 19:59:38","新北市蘆洲區中正路89號","121.469841666667","25.0837216666667","6501400","蘆洲區"
"247006","056-VK","2017/12/07 19:59:46","新北市蘆洲區九芎街107號","121.465753333333","25.0796733333333","6501400","蘆洲區"
"247014","007-UY","2017/12/07 19:59:53","新北市蘆洲區中山二路275號","121.469445","25.07932","6501400","蘆洲區"
"247024","002-UY","2017/12/07 19:59:41","新北市蘆洲區光榮路120巷8弄23號","121.465023333333","25.0882583333333","6501400","蘆洲區"
"247018","001-UY","2017/12/07 19:59:48","新北市蘆洲區民族路292號","121.477856666667","25.0896966666667","6501400","蘆洲區"
"226004","312-R5","2017/12/07 19:59:54","新北市平溪區靜安路二段295號","121.733078333333","25.025895","6502400","平溪區"
"228003","097-TW","2017/12/07 19:59:53","新北市貢寮區仁理村仁和路224號","121.923921666667","25.05354","6502600","貢寮區"
"224010","AGQ-8101","2017/12/07 19:59:52","新北市瑞芳區輕便路59-1號","121.844921666667","25.1101433333333","6501200","瑞芳區"
"227010","400-TW","2017/12/07 19:59:38","新北市雙溪區新基里新基南街25號","121.866278333333","25.0381283333333","6502500","雙溪區"
"227004","030-BX","2017/12/07 19:59:44","新北市雙溪區雙溪里長安街16號","121.864976666667","25.03465","6502500","雙溪區"
"222001","KEA-2212","2017/12/07 19:59:39","新北市深坑區北深路三段165-1號","121.602096666667","25.00346","6501800","深坑區"
"208002","742-BX","2017/12/07 19:59:56","新北市金山區中山路16號","121.641635","25.217435","6502700","金山區"
"208003","665-BX","2017/12/07 19:59:51","新北市金山區香園15號","121.634353333333","25.252685","6502700","金山區"
"208001","761-BX","2017/12/07 19:59:44","新北市金山區南勢湖66號","121.616321666667","25.2147066666667","6502700","金山區"
"251009","008-UM","2017/12/07 19:59:41","新北市淡水區英專路21巷13號","121.444983333333","25.1697316666667","6501000","淡水區"
"251004","009-UM","2017/12/07 19:59:21","新北市淡水區民權路173巷5號","121.460325","25.13558","6501000","淡水區"
"251008","181-VK","2017/12/07 19:59:39","新北市淡水區淡海路70號","121.42319","25.1809116666667","6501000","淡水區"
"251014","182-VK","2017/12/07 19:59:45","新北市淡水區石頭厝1號","121.458798333333","25.235425","6501000","淡水區"
"251012","441-VK","2017/12/07 19:59:54","新北市淡水區下圭柔山114-4號","121.446141666667","25.2084533333333","6501000","淡水區"
"251016","442-VK","2017/12/07 19:59:53","新北市淡水區淡金路五段20號","121.45288","25.23216","6501000","淡水區"
"251005","443-VK","2017/12/07 19:59:50","新北市淡水區學府路136巷33號","121.451706666667","25.1727366666667","6501000","淡水區"
"251001","559-UM","2017/12/07 19:59:46","新北市淡水區淡金路二段38號","121.451628333333","25.18169","6501000","淡水區"
"251006","561-UM","2017/12/07 19:59:49","新北市淡水區北新路8號","121.444463333333","25.17735","6501000","淡水區"
"251011","650-BX","2017/12/07 19:59:41","新北市淡水區崁頂55-3號","121.442298333333","25.19666","6501000","淡水區"
"207003","550-UM","2017/12/07 19:59:41","新北市萬里區磺潭里公館崙5號","121.6419","25.2142183333333","6502800","萬里區"
"207004","225-TW","2017/12/07 19:59:44","新北市萬里區北基里忠二街35號","121.685661666667","25.175745","6502800","萬里區"
"252001","292-VK","2017/12/07 19:59:37","新北市三芝區公正街66號","121.499768333333","25.25747","6502100","三芝區"
"252002","AAC-283","2017/12/07 19:59:51","新北市三芝區忠孝街116-3號","121.50549","25.25753","6502100","三芝區"
"237004","078-UY","2017/12/07 19:59:37","新北市三峽區嘉添187號","121.36932","24.911225","6500900","三峽區"
"237007","153-BY","2017/12/07 19:59:53","新北市三峽區二鬮路136巷115號","121.355786666667","24.9102933333333","6500900","三峽區"
"237009","210-TH","2017/12/07 19:59:54","新北市三峽區民族街78巷2弄8號","121.368373333333","24.929955","6500900","三峽區"
"237013","252-BX","2017/12/07 19:59:47","新北市三峽區介壽路二段165號","121.394095","24.9359683333333","6500900","三峽區"
"237012","275-BY","2017/12/07 19:59:38","新北市三峽區愛國路34巷1號","121.37448","24.93276","6500900","三峽區"
"237008","302-VK","2017/12/07 19:59:46","新北市三峽區中正路一段174巷16號","121.37183","24.9289533333333","6500900","三峽區"
"237014","433-BY","2017/12/07 19:59:55","新北市三峽區添福11-10號","121.373635","24.9071483333333","6500900","三峽區"
"237006","5529-G3","2017/12/07 19:59:41","新北市三峽區中正路二段168號","121.366053333333","24.9157433333333","6500900","三峽區"
"237016","649-BX","2017/12/06 10:49:54","新北市三峽區中山路459巷137號","121.349958333333","24.933995","6500900","三峽區"
"237005","AKY-6261","2017/12/07 19:59:43","新北市三峽區三樹路44巷20號","121.378531666667","24.9375316666667","6500900","三峽區"
"236071","105-UM","2017/12/07 19:59:42","新北市土城區忠義路77號","121.443251666667","24.9647633333333","6501300","土城區"
"236042","107-UM","2017/12/07 19:59:57","新北市土城區學府路一段143巷18號","121.45406","24.9855616666667","6501300","土城區"
"236078","166-UM","2017/12/07 19:52:31","新北市土城區中央路四段285號","121.41172","24.952805","6501300","土城區"
"236030","253-BX","2017/12/07 19:59:41","新北市土城區中央路一段250巷15號","121.443595","24.9848566666667","6501300","土城區"
"236026","269-VK","2017/12/07 19:59:53","新北市土城區中央路二段96號","121.442241666667","24.978545","6501300","土城區"
"236014","270-VK","2017/12/07 19:59:55","新北市土城區廣福街128號","121.456306666667","24.99286","6501300","土城區"
"236037","271-VK","2017/12/07 19:59:41","新北市土城區國際路86號","121.467058333333","24.975995","6501300","土城區"
"236021","401-BY","2017/12/07 19:59:51","新北市土城區延吉街137巷8號","121.470911666667","24.985735","6501300","土城區"
"236058","912-UM","2017/12/07 19:59:38","新北市土城區中央路一段104號","121.446725","24.9882566666667","6501300","土城區"
"236051","913-UM","2017/12/07 19:59:41","新北市土城區金城路三段309號","121.474535","24.9909966666667","6501300","土城區"
"236062","915-UM","2017/12/07 19:59:45","新北市土城區金城路三段73巷9弄13號","121.465846666667","24.9874616666667","6501300","土城區"
"236053","AAC-216","2017/12/07 19:59:54","新北市土城區學府路一段8號","121.459466666667","24.9885083333333","6501300","土城區"
"242031","AAC-296","2017/12/07 19:59:41","新北市新莊區公園一路17號","121.443295","25.0350116666667","6500500","新莊區"
"242029","986-R7","2017/12/07 19:59:43","新北市新莊區中平路254號","121.444888333333","25.0493383333333","6500500","新莊區"
"242050","751-BX","2017/12/07 19:59:42","新北市新莊區西盛街149號","121.428143333333","25.0181666666667","6500500","新莊區"
"242023","613-BX","2017/12/07 19:59:50","新北市新莊區化成路406號","121.465961666667","25.05065","6500500","新莊區"
"242027","612-BX","2017/12/07 19:59:45","新北市新莊區幸福路898號","121.44331","25.049315","6500500","新莊區"
"242039","566-BX","2017/12/07 19:59:46","新北市新莊區民安路285-3號","121.42904","25.022435","6500500","新莊區"
"242044","497-BY","2017/12/07 19:59:57","新北市新莊區中正路756號","121.412386666667","25.0221933333333","6500500","新莊區"
"242053","442-UM","2017/12/07 19:59:54","新北市新莊區西盛街416巷2號","121.427265","25.0122916666667","6500500","新莊區"
"242048","441-UM","2017/12/07 19:59:50","新北市新莊區四維路10號","121.423811666667","25.025175","6500500","新莊區"
"242034","415-TV","2017/12/07 19:59:43","新北市新莊區建中街101號","121.446495","25.0364683333333","6500500","新莊區"
"242004","413-TV","2017/12/07 19:59:47","新北市新莊區化成路205-47號","121.465791666667","25.051115","6500500","新莊區"
"242042","400-BY","2017/12/07 19:59:40","新北市新莊區青山路一段200-4號","121.397783333333","25.0317866666667","6500500","新莊區"
"242061","362-BY","2017/12/07 19:59:41","新北市新莊區瓊泰路8號","121.444815","25.0286816666667","6500500","新莊區"
"242058","353-BY","2017/12/07 19:59:44","新北市新莊區八德街115號","121.424066666667","25.0208283333333","6500500","新莊區"
"242036","133-UY","2017/12/07 19:59:39","新北市新莊區建安街57巷3號","121.428663333333","25.0248266666667","6500500","新莊區"
"242021","135-UY","2017/12/07 19:59:43","新北市新莊區建中街48巷10弄12號","121.448541666667","25.0384766666667","6500500","新莊區"
"242009","173-VK","2017/12/07 19:59:40","新北市新莊區幸福路842號","121.444583333333","25.0490683333333","6500500","新莊區"
"242015","175-VK","2017/12/07 19:59:33","新北市新莊區泰安街33號","121.446245","25.0422866666667","6500500","新莊區"
"242002","176-VK","2017/12/07 19:59:37","新北市新莊區中正路219號","121.450881666667","25.035785","6500500","新莊區"
"242013","346-TH","2017/12/07 19:59:40","新北市新莊區中港路438號","121.451846666667","25.0510133333333","6500500","新莊區"
"242007","347-TH","2017/12/07 19:59:40","新北市新莊區思源路587號","121.45969","25.0595","6500500","新莊區"
"242019","348-TH","2017/12/07 19:59:44","新北市新莊區民生街28號","121.456288333333","25.0422816666667","6500500","新莊區"
"242056","349-TH","2017/12/07 19:59:44","新北市新莊區中正路347巷25號","121.447323333333","25.034115","6500500","新莊區"
"242017","350-TH","2017/12/07 19:59:42","新北市新莊區中港路318號","121.452693333333","25.0456716666667","6500500","新莊區"
"242011","351-TH","2017/12/07 19:59:54","新北市新莊區中港路531巷140號","121.449458333333","25.05141","6500500","新莊區"
"238015","755-BX","2017/12/07 19:59:40","新北市樹林區中山路三段22號","121.395613333333","24.972885","6500700","樹林區"
"238023","601-UM","2017/12/07 19:59:38","新北市樹林區中正路251號","121.422255","25.004305","6500700","樹林區"
"238021","KEA-2217","2017/12/07 19:59:48","新北市樹林區佳園路三段113巷19號","121.38772","24.950195","6500700","樹林區"
"238025","303-VK","2017/12/07 19:59:56","新北市樹林區中山路三段204號","121.387225","24.9683216666667","6500700","樹林區"
"239006","891-R6","2017/12/07 19:59:44","新北市鶯歌區文化路233號","121.353996666667","24.9533633333333","6500800","鶯歌區"
"239003","360-BY","2017/12/07 19:59:48","新北市鶯歌區二甲路13號","121.344498333333","24.93525","6500800","鶯歌區"
"239002","359-BY","2017/12/07 19:59:34","新北市鶯歌區環河路85號","121.3475","24.9398433333333","6500800","鶯歌區"
"221008","489-VK","2017/12/07 19:59:50","台北市內湖區康樂街149號","121.619323333333","25.0719333333333","6501100","汐止區"
"221036","130-UY","2017/12/07 19:59:45","新北市汐止區新台五路二段85巷11號","121.66423","25.0672","6501100","汐止區"
"221010","269-BY","2017/12/07 19:59:41","新北市汐止區連峰街227號","121.645013333333","25.0813516666667","6501100","汐止區"
"221012","276-VK","2017/12/07 13:23:29","新北市汐止區汐萬路一段256巷3號","121.653446666667","25.0746733333333","6501100","汐止區"
"221012","278-VK","2017/12/07 19:59:54","新北市汐止區大同路三段279號","121.674195","25.0749766666667","6501100","汐止區"
"221023","279-VK","2017/12/07 19:59:36","新北市汐止區明峰街192號","121.628061666667","25.0696616666667","6501100","汐止區"
"221032","280-BY","2017/12/07 19:59:57","新北市汐止區橫科路18巷32弄10號","121.617391666667","25.049815","6501100","汐止區"
"221027","281-BY","2017/12/07 19:59:56","新北市汐止區中正路49號","121.661808333333","25.07001","6501100","汐止區"
"221029","298-VK","2017/12/07 19:59:43","新北市汐止區樟樹一路137巷24號","121.6411","25.0659466666667","6501100","汐止區"
"221021","299-VK","2017/12/07 19:59:58","新北市汐止區復興路31號","121.656436666667","25.063305","6501100","汐止區"
"221031","353-TW","2017/12/07 19:59:44","新北市汐止區福德一路174號","121.635856666667","25.0660783333333","6501100","汐止區"
"221015","567-BX","2017/12/07 19:59:45","新北市汐止區橋東街3號","121.66666","25.0761216666667","6501100","汐止區"
"221035","622-UM","2017/12/07 19:59:53","新北市汐止區長江街39巷2號","121.655678333333","25.0714816666667","6501100","汐止區"
"221025","623-UM","2017/12/07 19:59:53","新北市汐止區秀峰路109巷13號","121.660605","25.0635133333333","6501100","汐止區"
"221038","646-BX","2017/12/07 19:59:49","新北市汐止區忠孝東路436號","121.666213333333","25.0722916666667","6501100","汐止區"
"221033","647-BX","2017/12/07 19:59:38","新北市汐止區東勢街201巷104號","121.633428333333","25.0430333333333","6501100","汐止區"
"221002","707-TV","2017/12/07 19:59:41","新北市汐止區工建路504號","121.633206666667","25.05835","6501100","汐止區"
"221012","753-BX","2017/12/07 19:59:40","新北市汐止區茄苳路55號","121.66631","25.07082","6501100","汐止區"
"220079","145-BY","2017/12/07 19:59:57","新北市板橋區南雅西路二段245號","121.45069","25.014595","6500100","板橋區"
"220082","610-BX","2017/12/07 19:59:43","新北市板橋區篤行路二段116-3號","121.431351666667","24.9909483333333","6500100","板橋區"
"220080","256-TC","2017/12/07 19:59:54","新北市板橋區大觀路二段179巷25號","121.446","24.9997666666667","6500100","板橋區"
"220091","267-BY","2017/12/07 19:59:37","新北市板橋區文聖街89巷15號","121.478061666667","25.0303283333333","6500100","板橋區"
"220072","277-BY","2017/12/07 19:59:42","新北市板橋區金門街127巷15號","121.43366","24.9911216666667","6500100","板橋區"
"220101","280-UM","2017/12/07 19:59:52","新北市板橋區莒光路180巷23號","121.473238333333","25.0227933333333","6500100","板橋區"
"220071","283-VK","2017/12/07 19:59:49","新北市板橋區五權街30巷12弄24號","121.463985","24.9943083333333","6500100","板橋區"
"220094","285-UM","2017/12/07 19:59:49","新北市板橋區陽明街243號","121.462973333333","25.0245466666667","6500100","板橋區"
"220053","285-VK","2017/12/07 19:59:43","新北市板橋區永豐街155號","121.475385","25.0202616666667","6500100","板橋區"
"220083","286-VK","2017/12/07 19:59:37","新北市板橋區僑中二街10巷14號","121.446426666667","25.01105","6500100","板橋區"
"220081","287-VK","2017/12/07 19:59:55","新北市板橋區僑中一街80巷10弄2號","121.447936666667","25.01268","6500100","板橋區"
"220090","288-VK","2017/12/07 19:59:40","新北市板橋區幸福路32巷2弄31號","121.460935","25.021895","6500100","板橋區"
"220061","293-UM","2017/12/07 19:59:53","新北市板橋區觀光街3巷14號","121.471391666667","25.0155966666667","6500100","板橋區"
"220084","296-UM","2017/12/07 19:59:55","新北市板橋區溪崑二街112巷20號","121.425973333333","24.989105","6500100","板橋區"
"220075","297-UM","2017/12/07 19:59:45","新北市板橋區金華街10巷48弄79-3號","121.459893333333","25.0203916666667","6500100","板橋區"
"220092","299-UM","2017/12/07 19:59:43","新北市板橋區新海路135巷39號","121.459355","25.0224666666667","6500100","板橋區"
"220062","305-R5","2017/12/07 19:59:42","新北市板橋區萬安街85巷1弄11號","121.484396666667","25.024955","6500100","板橋區"
"220098","317-R6","2017/12/07 19:59:51","新北市板橋區新海路72巷61號","121.461613333333","25.0237483333333","6500100","板橋區"
"220064","486-VK","2017/12/07 19:59:21","新北市板橋區實踐路114號","121.464193333333","25.00429","6500100","板橋區"
"220089","487-VK","2017/12/07 19:59:43","新北市板橋區龍泉街112號","121.456916666667","25.02451","6500100","板橋區"
"220088","491-VK","2017/12/07 19:59:41","新北市板橋區懷德街185號","121.479646666667","25.0297916666667","6500100","板橋區"
"220035","560-BX","2017/12/07 19:59:40","新北市板橋區新生街87巷8號","121.457681666667","25.021825","6500100","板橋區"
"220103","561-BX","2017/12/07 19:59:39","新北市板橋區自由路22號","121.465551666667","25.022685","6500100","板橋區"
"220063","609-BX","2017/12/07 19:59:48","新北市板橋區中山路二段307號","121.478813333333","25.018445","6500100","板橋區"
"220057","686-BX","2017/12/07 19:59:34","新北市板橋區信義路29號","121.456988333333","24.9965016666667","6500100","板橋區"
"220093","689-BX","2017/12/07 19:59:46","新北市板橋區文化路二段606號","121.477368333333","25.0351483333333","6500100","板橋區"
"220054","741-BX","2017/12/07 19:59:55","新北市板橋區實踐路93巷10號","121.464525","25.00541","6500100","板橋區"
"220055","827-TW","2017/12/07 19:59:40","新北市板橋區仁愛路62巷17弄1號","121.460063333333","24.9982083333333","6500100","板橋區"
"220067","829-TW","2017/12/07 19:59:34","新北市板橋區漢生東路161巷3號","121.46964","25.012605","6500100","板橋區"
"220096","831-TW","2017/12/07 19:59:48","新北市板橋區文化路二段124巷34弄10號","121.471011666667","25.0253783333333","6500100","板橋區"
"220074","895-R6","2017/12/07 19:59:55","新北市板橋區文化路一段32巷15號","121.459795","25.0111866666667","6500100","板橋區"
"220073","985-R7","2017/12/07 19:59:43","新北市板橋區南雅西路二段198號","121.451761666667","25.014725","6500100","板橋區"
"220097","AAC-210","2017/12/07 19:59:40","新北市板橋區光正街18巷2號","121.46271","25.0171816666667","6500100","板橋區"
"220070","AAC-253","2017/12/07 19:59:48","新北市板橋區成都街22號","121.460918333333","25.0047566666667","6500100","板橋區"
