"lineid","car","time","location","longitude","latitude","cityid","cityname"
"247008","341-TH","2017/12/07 22:07:36","新北市八里區荖阡坑路34號","121.402055","25.1289883333333","6501400","蘆洲區"
"251004","009-UM","2017/12/07 22:09:43","新北市淡水區民族路33號","121.462291666667","25.1357933333333","6501000","淡水區"
"251016","442-VK","2017/12/07 22:09:53","新北市淡水區水碓街7號","121.443135","25.177105","6501000","淡水區"
"251006","561-UM","2017/12/07 22:09:49","新北市淡水區沙崙路200號","121.424733333333","25.1839283333333","6501000","淡水區"
"251003","766-UM","2017/12/07 22:09:40","新北市淡水區崁頂61號","121.440593333333","25.200155","6501000","淡水區"
"221012","276-VK","2017/12/07 13:23:29","新北市汐止區汐萬路一段256巷3號","121.653446666667","25.0746733333333","6501100","汐止區"
"221012","753-BX","2017/12/07 21:22:06","新北市汐止區汐萬路一段256巷1號","121.651923333333","25.0748933333333","6501100","汐止區"
"220062","305-R5","2017/12/07 21:16:34","新北市板橋區民生路二段120號","121.470346666667","25.01964","6500100","板橋區"
