"lineid","car","time","location","longitude","latitude","cityid","cityname"
"232015","291-BY","2017/12/08 06:39:52","新北市坪林區北宜路八段558號","121.71789","24.909175","6502000","坪林區"
"232019","705-BZ","2017/12/08 06:39:42","新北市坪林區北宜路八段558號","121.717958333333","24.9095083333333","6502000","坪林區"
"232008","758-BX","2017/12/08 06:39:43","新北市坪林區北宜路八段558號","121.718175","24.909535","6502000","坪林區"
"244004","248-BX","2017/12/08 06:39:39","新北市林口區粉寮路二段160巷28號","121.405135","25.090805","6501700","林口區"
"223006","022-BY","2017/12/08 06:39:38","新北市石碇區靜安路一段108號","121.648935","25.009245","6501900","石碇區"
"223002","198-BX","2017/12/08 06:39:43","新北市石碇區碇坪路一段107號","121.663341666667","24.9889916666667","6501900","石碇區"
"223008","406-TH","2017/12/08 06:39:34","新北市石碇區碇坪路一段226號","121.67496","24.9807766666667","6501900","石碇區"
"223001","437-BY","2017/12/08 06:39:56","新北市石碇區小粗坑(潭邊里)2號","121.670113333333","24.9826416666667","6501900","石碇區"
"223007","661-BX","2017/12/08 06:39:19","新北市石碇區石崁1號","121.651473333333","25.002215","6501900","石碇區"
"227005","282-VK","2017/12/08 06:39:45","新北市雙溪區牡丹里聖南10-3號","121.861006666667","25.0488233333333","6502500","雙溪區"
"220080","461-BY","2017/12/08 06:39:43","新北市板橋區南雅西路二段7巷22號","121.451803333333","25.0099033333333","6500100","板橋區"
