"lineid","car","time","location","longitude","latitude","cityid","cityname"
"244008","410-SL","2017/10/28 10:29:25","新北市林口區文化一路一段15巷8-1號","121.368746666667","25.0693683333333","6501700","林口區"
"231007","189-VK","2017/10/28 10:29:48","新北市新店區新潭路三段131號","121.51183","24.912105","6500600","新店區"
"231008","192-VK","2017/10/28 10:29:15","新北市新店區小坑一路56-2號","121.527388333333","24.9088983333333","6500600","新店區"
"227006","282-VK","2017/10/28 10:29:53","新北市雙溪區平林里外平林67號","121.843468333333","25.034965","6502500","雙溪區"
"253003","6232-TK","2017/10/28 10:29:55","新北市石門區小坑9號","121.594058333333","25.2886383333333","6502200","石門區"
"253001","6251-TK","2017/10/28 10:29:42","新北市石門區小坑12號","121.593098333333","25.2871483333333","6502200","石門區"
"253002","637-UY","2017/10/28 10:29:42","新北市石門區小坑9號","121.594225","25.288485","6502200","石門區"
"253004","8270-PC","2017/10/28 10:29:42","新北市石門區小坑12-8號","121.59506","25.2857783333333","6502200","石門區"
"252007","AAC-283","2017/10/28 10:29:38","新北市三芝區新庄里番社后18號","121.496306666667","25.2746566666667","6502100","三芝區"
