"lineid","car","time","location","longitude","latitude","cityid","cityname"
"244008","410-SL","2017/10/28 10:59:45","新北市林口區文化一路一段15巷8-1號","121.368675","25.0692316666667","6501700","林口區"
"231007","189-VK","2017/10/28 10:59:48","新北市新店區新潭路一段160巷17號","121.529745","24.931705","6500600","新店區"
"231008","192-VK","2017/10/28 10:59:48","新北市新店區松林路83號","121.547201666667","24.9075816666667","6500600","新店區"
"227006","282-VK","2017/10/28 10:59:53","新北市雙溪區魚行里坤溪35號","121.870248333333","25.0309","6502500","雙溪區"
"252007","AAC-283","2017/10/28 10:47:39","新北市三芝區埔坪里埔頭坑41號","121.504501666667","25.26442","6502100","三芝區"
