"lineid","car","time","location","longitude","latitude","cityid","cityname"
"231008","192-VK","2017/10/28 11:59:49","新北市新店區屈尺路161-1號","121.542398333333","24.9230183333333","6500600","新店區"
"228005","097-TW","2017/10/28 11:59:48","新北市貢寮區貢寮里朝陽街1-2號","121.912343333333","25.02126","6502600","貢寮區"
"228004","212-TW","2017/10/28 11:59:45","新北市貢寮區貢寮里朝陽街1-2號","121.912178333333","25.0212633333333","6502600","貢寮區"
"227006","282-VK","2017/10/28 11:59:53","新北市雙溪區牡丹里中正路78號","121.862393333333","25.0462983333333","6502500","雙溪區"
"252007","AAC-283","2017/10/28 10:47:39","新北市三芝區埔坪里埔頭坑41號","121.504501666667","25.26442","6502100","三芝區"
"221012","276-VK","2017/10/28 11:59:50","新北市汐止區康寧街901號","121.650951666667","25.075145","6501100","汐止區"
