"lineid","car","time","location","longitude","latitude","cityid","cityname"
"234040","862-TW","2017/10/28 12:09:47","新北市永和區福和路1號","121.526523333333","25.0097416666667","6500400","永和區"
"231008","192-VK","2017/10/28 12:09:48","新北市新店區屈尺路161-1號","121.542703333333","24.923715","6500600","新店區"
"228005","097-TW","2017/10/28 12:09:47","新北市貢寮區福隆里東興街88-3號","121.947086666667","25.0170783333333","6502600","貢寮區"
"228004","212-TW","2017/10/28 12:09:45","新北市貢寮區貢寮里長泰路3號","121.90708","25.0205416666667","6502600","貢寮區"
"252007","AAC-283","2017/10/28 10:47:39","新北市三芝區埔坪里埔頭坑41號","121.504501666667","25.26442","6502100","三芝區"
"221012","276-VK","2017/10/28 12:09:29","新北市汐止區康寧街901號","121.65096","25.0751666666667","6501100","汐止區"
