"lineid","car","time","location","longitude","latitude","cityid","cityname"
"234005","207-UY","2017/10/28 14:29:41","新北市永和區安樂路196號","121.51503","25.001485","6500400","永和區"
"234078","298-R6","2017/10/28 14:29:52","新北市永和區永貞路78號","121.520141666667","25.0051566666667","6500400","永和區"
"234036","336-UY","2017/10/28 14:29:52","新北市永和區環河東路四段34號","121.528813333333","24.999045","6500400","永和區"
"234062","337-UY","2017/10/28 14:29:55","新北市永和區中正路417號","121.517106666667","25.0048866666667","6500400","永和區"
"234084","338-UY","2017/10/28 14:29:57","新北市永和區光復街27號","121.516553333333","25.01751","6500400","永和區"
"234068","552-UM","2017/10/28 14:29:44","新北市永和區永亨路7號","121.519376666667","25.0057416666667","6500400","永和區"
"234052","553-UM","2017/10/28 14:29:56","新北市永和區環河東路一段42號","121.518775","25.017085","6500400","永和區"
"234028","746-BX","2017/10/28 14:29:48","新北市永和區中正路83號","121.51511","24.9970066666667","6500400","永和區"
"234060","AAD-866","2017/10/28 14:29:40","新北市永和區秀朗路一段175號","121.516981666667","25.003715","6500400","永和區"
"234040","862-TW","2017/10/28 14:29:47","新北市永和區安樂路435號","121.514346666667","25.0046933333333","6500400","永和區"
"234048","863-TW","2017/10/28 14:29:55","新北市永和區新生路118巷1弄17號","121.506625","25.0144016666667","6500400","永和區"
"234025","9371-KE","2017/10/28 14:29:55","新北市永和區中和路515號","121.510861666667","25.0025583333333","6500400","永和區"
"248017","225-UY","2017/10/28 14:20:38","新北市五股區壟路16號","121.415335","25.0856583333333","6501500","五股區"
"234076","969-R7","2017/10/28 14:29:55","新北市永和區民族街81巷50號","121.51995","24.9964566666667","6500400","永和區"
"234072","AAC-211","2017/10/28 14:29:45","新北市永和區環河東路一段122號","121.520581666667","25.0155316666667","6500400","永和區"
"234066","AAC-212","2017/10/28 14:29:54","新北市中和區勝利路2號","121.497916666667","25.0084816666667","6500400","永和區"
"234001","AAC-295","2017/10/28 14:29:46","新北市永和區大新街47號","121.515616666667","25.0084966666667","6500400","永和區"
"231002","002-UM","2017/10/28 14:29:53","新北市新店區中正路426號","121.534288333333","24.978055","6500600","新店區"
"231028","046-UY","2017/10/28 14:29:54","新北市新店區安康路二段190號","121.511173333333","24.9601933333333","6500600","新店區"
"231030","047-UY","2017/10/28 14:29:39","新北市新店區碧安街9巷22號","121.516325","24.9685","6500600","新店區"
"231029","106-UY","2017/10/28 14:29:37","新北市新店區安康路二段400-1號","121.496881666667","24.9554416666667","6500600","新店區"
"231012","108-UY","2017/10/28 14:29:47","新北市新店區中興路二段202-2號","121.548465","24.9743666666667","6500600","新店區"
"231020","187-VK","2017/10/28 14:29:45","新北市新店區桂山路2-1號","121.556388333333","24.9044716666667","6500600","新店區"
"231017","KEA-2219","2017/10/28 14:29:45","新北市新店區北宜路三段83號","121.577023333333","24.9518633333333","6500600","新店區"
"231023","AAD-862","2017/10/28 14:29:54","新北市新店區中興路一段51號","121.539611666667","24.960265","6500600","新店區"
"231027","3712-VJ","2017/10/28 14:29:41","新北市新店區寶橋路85巷50號","121.545315","24.9763483333333","6500600","新店區"
"231025","4716-K9","2017/10/28 14:29:25","新北市新店區民族路161號","121.537668333333","24.9767783333333","6500600","新店區"
"231038","4715-K9","2017/10/28 14:29:56","新北市新店區溪洲路160號","121.53019","24.9647416666667","6500600","新店區"
"231036","512-UM","2017/10/28 14:29:56","新北市新店區安祥路109巷92號","121.478068333333","24.959375","6500600","新店區"
"231035","515-UM","2017/10/28 14:29:50","新北市新店區安光路10-1號","121.513776666667","24.9641916666667","6500600","新店區"
"231006","617-UM","2017/10/28 14:29:46","新北市新店區北宜路二段417號","121.56013","24.9545066666667","6500600","新店區"
"231001","619-UM","2017/10/28 14:29:44","新北市新店區北新路一段96巷23號","121.543001666667","24.9688033333333","6500600","新店區"
"231003","641-BX","2017/10/28 14:29:47","新北市新店區中興路一段267-4號","121.54494","24.9680016666667","6500600","新店區"
"231034","645-TV","2017/10/28 14:29:48","新北市新店區黎明路64巷2號","121.502453333333","24.9462216666667","6500600","新店區"
"231013","719-UM","2017/10/28 14:29:49","新北市新店區民權路82號","121.537166666667","24.98324","6500600","新店區"
"231018","719-UY","2017/10/28 14:29:51","新北市新店區中央三街36號","121.528065","24.9742816666667","6500600","新店區"
"231033","720-UM","2017/10/28 14:29:42","新北市新店區安興路112號","121.515056666667","24.9773766666667","6500600","新店區"
"231005","897-TW","2017/10/28 14:29:54","新北市新店區北新路三段45號","121.541948333333","24.9804016666667","6500600","新店區"
"231004","899-TW","2017/10/28 14:29:44","新北市新店區中正路263-4號","121.53825","24.9738083333333","6500600","新店區"
"231037","AKT-0513","2017/10/28 14:29:53","新北市新店區安興路20號","121.515151666667","24.9659266666667","6500600","新店區"
"235030","003-UY","2017/10/28 14:29:56","新北市中和區景新街137號","121.506098333333","24.9970216666667","6500300","中和區"
"235028","005-UY","2017/10/28 14:29:47","新北市中和區南山路81巷61-1號","121.5042","24.9978916666667","6500300","中和區"
"235027","006-UY","2017/10/28 14:29:49","新北市中和區連勝街137號","121.494653333333","24.995985","6500300","中和區"
"235020","096-UM","2017/10/28 14:29:42","新北市中和區員山路514巷13號","121.47954","25.00972","6500300","中和區"
"235003","097-UM","2017/10/28 14:29:40","新北市中和區秀峰街103巷7弄4號","121.519436666667","24.9889916666667","6500300","中和區"
"235029","098-UM","2017/10/28 14:29:53","新北市中和區永和路52號","121.499163333333","25.0040666666667","6500300","中和區"
"235004","150-BY","2017/10/28 14:29:53","新北市中和區宜安路1巷29號","121.512513333333","24.9941733333333","6500300","中和區"
"235022","151-BY","2017/10/28 14:29:47","新北市中和區員山路36巷16-2號","121.485363333333","24.9917383333333","6500300","中和區"
"235019","183-VK","2017/10/28 14:29:38","新北市中和區德光路27巷1弄1號","121.470801666667","25.0040483333333","6500300","中和區"
"235002","185-VK","2017/10/28 14:29:54","新北市中和區大仁街10巷65號","121.52012","24.99262","6500300","中和區"
"235013","186-VK","2017/10/28 14:29:51","新北市中和區景新街285巷24號","121.510803333333","24.993695","6500300","中和區"
"235031","255-BX","2017/10/28 14:29:42","新北市中和區連城路334號","121.48311","24.9958733333333","6500300","中和區"
"235008","293-VK","2017/10/28 14:29:53","新北市中和區南山路160號","121.50439","24.9918216666667","6500300","中和區"
"235036","301-VK","2017/10/28 14:29:47","新北市中和區廣福路32號","121.504596666667","25.0024016666667","6500300","中和區"
"235007","352-BY","2017/10/28 14:29:51","新北市中和區景平路300號","121.51261","24.9927316666667","6500300","中和區"
"235015","376-QA","2017/10/28 14:29:58","新北市中和區興南路一段75號","121.510226666667","24.98917","6500300","中和區"
"235032","377-QA","2017/10/28 14:29:48","新北市中和區枋寮街36號","121.501998333333","25.0005266666667","6500300","中和區"
"235025","378-QA","2017/10/28 14:29:51","新北市中和區民利街31巷2弄10號","121.47972","24.9986483333333","6500300","中和區"
"235035","269-TV","2017/10/28 14:29:57","新北市中和區連城路471號","121.483475","24.99594","6500300","中和區"
"235014","4979-A6","2017/10/28 14:29:54","新北市中和區員山路36巷13號","121.484391666667","24.9910933333333","6500300","中和區"
"235033","4980-A6","2017/10/28 14:29:58","新北市中和區連城路134巷16號","121.495506666667","24.99963","6500300","中和區"
"235006","551-UM","2017/10/28 14:29:53","新北市中和區中和路350巷15弄17號","121.510806666667","25.0012933333333","6500300","中和區"
"235034","558-UM","2017/10/28 14:29:54","新北市中和區景平路696號","121.496986666667","25.0019266666667","6500300","中和區"
"235009","565-BX","2017/10/28 14:29:49","新北市中和區景新街423號","121.512961666667","24.9892683333333","6500300","中和區"
"235018","640-BX","2017/10/28 14:29:49","新北市中和區國光街112巷2弄1號","121.469988333333","25.0008133333333","6500300","中和區"
"235011","732-UM","2017/10/28 14:29:46","新北市中和區景平路259巷18號","121.507786666667","24.9926866666667","6500300","中和區"
"235010","733-UM","2017/10/28 14:29:56","新北市中和區忠孝街37巷52號","121.511098333333","24.9849183333333","6500300","中和區"
"235026","800-TS","2017/10/28 14:29:56","新北市中和區中山路二段490號","121.487115","25.0049633333333","6500300","中和區"
"235021","801-TS","2017/10/28 14:29:54","新北市中和區員山路423巷16號","121.48031","25.0027566666667","6500300","中和區"
"235005","802-TS","2017/10/28 14:29:54","新北市中和區中和路232號","121.506646666667","24.9994466666667","6500300","中和區"
"235016","805-TS","2017/10/28 14:29:38","新北市中和區華新街143巷65弄2號","121.506663333333","24.9789833333333","6500300","中和區"
"235012","896-TW","2017/10/28 14:29:57","新北市中和區忠孝街66號","121.511916666667","24.98402","6500300","中和區"
"235017","900-TW","2017/10/28 14:29:56","新北市中和區民德路198號","121.468203333333","24.99878","6500300","中和區"
"235024","911-UM","2017/10/28 14:29:43","新北市中和區員山路266巷9號","121.48177","25.00182","6500300","中和區"
"235001","AAC-213","2017/10/28 14:29:41","新北市中和區秀朗路三段10巷14弄18號","121.524945","24.9966916666667","6500300","中和區"
"235023","AAC-215","2017/10/28 14:29:52","新北市中和區圓通路262-1號","121.493005","24.99088","6500300","中和區"
"220016","013-TV","2017/10/28 14:29:52","新北市板橋區中山路二段531巷35號","121.482373333333","25.0228316666667","6500100","板橋區"
"220013","072-UY","2017/10/28 14:29:48","新北市板橋區實踐路93巷77號","121.467203333333","25.00538","6500100","板橋區"
"220034","073-UY","2017/10/28 14:29:59","新北市板橋區中正路259號","121.455746666667","25.01858","6500100","板橋區"
"220105","075-UY","2017/10/28 14:29:57","新北市板橋區江寧路三段129號","121.4736","25.0333683333333","6500100","板橋區"
"220017","AAD-861","2017/10/28 14:29:44","新北市板橋區貴興路37號","121.457525","25.00379","6500100","板橋區"
"247021","893-R6","2017/10/28 14:29:53","新北市蘆洲區中正路506號","121.461821666667","25.096785","6501400","蘆洲區"
"247011","546-UM","2017/10/28 14:29:52","新北市蘆洲區復興路88號","121.475366666667","25.08679","6501400","蘆洲區"
"247019","500-BY","2017/10/28 14:29:39","新北市蘆洲區水湳街281號","121.469485","25.0929766666667","6501400","蘆洲區"
"247009","339-TH","2017/10/28 14:29:42","新北市蘆洲區信義路132-1號","121.479526666667","25.082895","6501400","蘆洲區"
"247001","337-TH","2017/10/28 14:30:00","新北市蘆洲區永樂街38巷33弄60號","121.456311666667","25.0900266666667","6501400","蘆洲區"
"247003","336-TH","2017/10/28 14:29:49","新北市蘆洲區長安街202號","121.458531666667","25.0841533333333","6501400","蘆洲區"
"247015","057-VK","2017/10/28 14:29:55","新北市蘆洲區中正路185巷68弄21號","121.466313333333","25.0852083333333","6501400","蘆洲區"
"247005","056-VK","2017/10/28 14:29:52","新北市蘆洲區長安街46巷7弄2號","121.4638","25.0801783333333","6501400","蘆洲區"
"247007","053-VK","2017/10/28 14:29:38","新北市蘆洲區中山一路95巷1號","121.477233333333","25.0810216666667","6501400","蘆洲區"
"247013","007-UY","2017/10/28 14:29:44","新北市蘆洲區中山二路212號","121.469913333333","25.0800483333333","6501400","蘆洲區"
"247023","002-UY","2017/10/28 14:29:46","新北市蘆洲區中正路263巷2號","121.467308333333","25.0874283333333","6501400","蘆洲區"
"247017","001-UY","2017/10/28 14:29:41","新北市蘆洲區復興路193號","121.479295","25.0894783333333","6501400","蘆洲區"
"228005","097-TW","2017/10/28 14:29:47","新北市貢寮區美豐里巫里岸9-1號","121.901908333333","25.0701366666667","6502600","貢寮區"
"228004","212-TW","2017/10/28 14:29:45","新北市貢寮區雙玉里田寮洋街33-1號","121.932178333333","25.0135116666667","6502600","貢寮區"
"227010","400-TW","2017/10/28 12:15:39","新北市雙溪區三貂里政光路3-1號","121.850898333333","25.0630433333333","6502500","雙溪區"
"208004","AAC-292","2017/10/28 14:29:55","新北市金山區兩湖里葵扇湖3號","121.59617","25.2274916666667","6502700","金山區"
"207002","749-BX","2017/10/28 14:29:14","新北市萬里區溪底里福德坑路2-2號","121.624688333333","25.1559233333333","6502800","萬里區"
"252005","073-UM","2017/10/28 14:29:43","新北市三芝區橫山里大坑94-1號","121.526245","25.2594533333333","6502100","三芝區"
"207001","662-BX","2017/10/28 14:29:53","新北市萬里區磺潭里清水9號","121.640405","25.200035","6502800","萬里區"
"236068","105-UM","2017/10/28 14:29:55","新北市土城區永豐路205-5號","121.474455","24.9777883333333","6501300","土城區"
"236041","107-UM","2017/10/28 14:30:00","新北市土城區裕民路61巷15號","121.449748333333","24.9887366666667","6501300","土城區"
"236075","166-UM","2017/10/28 14:29:58","新北市土城區中央路四段43號","121.422736666667","24.9620066666667","6501300","土城區"
"236029","253-BX","2017/10/28 14:29:42","新北市土城區水源街50-1號","121.440493333333","24.97598","6501300","土城區"
"236025","269-VK","2017/10/28 14:29:48","新北市土城區承天路81-8號","121.440558333333","24.9627433333333","6501300","土城區"
"236013","270-VK","2017/10/28 14:30:00","新北市土城區青雲路39巷7號","121.460296666667","24.9874566666667","6501300","土城區"
"236035","271-VK","2017/10/28 14:29:54","新北市土城區青雲路451巷11號","121.459423333333","24.9747816666667","6501300","土城區"
"236017","401-BY","2017/10/28 14:29:44","新北市土城區永豐路202巷7-1號","121.466225","24.98326","6501300","土城區"
"236057","912-UM","2017/10/28 14:29:53","新北市土城區中央路四段464號","121.409908333333","24.9504883333333","6501300","土城區"
"236045","913-UM","2017/10/28 14:29:47","新北市土城區明德路一段309號","121.459606666667","24.9771583333333","6501300","土城區"
"236061","915-UM","2017/10/28 14:29:56","新北市土城區延壽路1-9號","121.469205","24.9938116666667","6501300","土城區"
"236054","AAC-216","2017/10/28 14:29:38","新北市土城區中華路二段1號","121.439673333333","24.9791483333333","6501300","土城區"
"221015","131-UY","2017/10/28 14:29:57","新北市新店區安忠路205巷8號","121.510258333333","24.9553","6501100","汐止區"
"221012","276-VK","2017/10/28 13:38:47","新北市汐止區汐萬路一段256巷3號","121.65344","25.0746","6501100","汐止區"
"220027","145-BY","2017/10/28 14:29:59","新北市板橋區民權路202巷15弄1號","121.46063","25.01616","6500100","板橋區"
"220028","200-UY","2017/10/28 14:29:38","新北市板橋區大觀路二段3巷102號","121.450471666667","25.003145","6500100","板橋區"
"220030","610-BX","2017/10/28 14:29:53","新北市板橋區溪城路115號","121.427503333333","24.9826283333333","6500100","板橋區"
"220050","245-BX","2017/10/28 14:29:56","新北市板橋區縣民大道三段149號","121.478221666667","25.0237166666667","6500100","板橋區"
"220014","255-TC","2017/10/27 21:14:56","新北市板橋區民生路二段89-6號","121.470475","25.0190666666667","6500100","板橋區"
"220004","276-BY","2017/10/28 14:29:56","新北市板橋區信義路1巷26弄31號","121.458651666667","24.9966533333333","6500100","板橋區"
"220020","277-BY","2017/10/28 14:29:25","新北市板橋區篤行路二段141巷1號","121.430021666667","24.9882133333333","6500100","板橋區"
"220043","283-UM","2017/10/28 14:29:58","新北市板橋區松江街124巷7號","121.469495","25.0303516666667","6500100","板橋區"
"220019","283-VK","2017/10/28 14:29:50","新北市板橋區忠孝路24巷34號","121.460226666667","25.0007533333333","6500100","板橋區"
"220001","285-VK","2017/10/28 14:29:57","新北市板橋區永豐街205號","121.47652","25.0210433333333","6500100","板橋區"
"220031","286-VK","2017/10/28 14:29:45","新北市板橋區龍興街71巷41號","121.442105","25.0025183333333","6500100","板橋區"
"220029","287-VK","2017/10/28 14:29:47","新北市板橋區南雅西路一段10巷7弄17號","121.453998333333","25.00434","6500100","板橋區"
"220039","288-VK","2017/10/28 14:29:50","新北市板橋區長江路一段109號","121.459628333333","25.0298133333333","6500100","板橋區"
"220009","293-UM","2017/10/28 14:29:40","新北市板橋區中山路一段279號","121.469595","25.0138583333333","6500100","板橋區"
"220032","296-UM","2017/10/28 14:29:47","新北市板橋區篤行路三段玉平巷45號","121.428576666667","24.9868483333333","6500100","板橋區"
"220023","297-UM","2017/10/28 14:29:46","新北市板橋區南雅西路二段301巷41弄33號","121.450338333333","25.0179216666667","6500100","板橋區"
"220010","305-R5","2017/10/28 14:29:57","新北市板橋區三民路二段123巷13號","121.479951666667","25.0156433333333","6500100","板橋區"
"220041","307-R5","2017/10/28 14:29:55","新北市板橋區文化路二段59號","121.469158333333","25.0251083333333","6500100","板橋區"
"220047","317-R6","2017/10/28 14:29:52","新北市板橋區民生路三段281巷2弄8號","121.463501666667","25.0302233333333","6500100","板橋區"
"220012","486-VK","2017/10/28 14:29:53","新北市板橋區民權路2號","121.463208333333","25.0095616666667","6500100","板橋區"
"220038","487-VK","2017/10/28 14:29:53","新北市板橋區文化路一段39號","121.460425","25.0131983333333","6500100","板橋區"
"220037","491-VK","2017/10/28 14:29:51","新北市板橋區雙十路一段25號","121.477531666667","25.0245683333333","6500100","板橋區"
"220104","560-BX","2017/10/28 14:29:59","新北市板橋區中正路379巷1弄34號","121.45308","25.0219983333333","6500100","板橋區"
"220052","561-BX","2017/10/28 14:29:39","新北市板橋區文化路一段268號","121.467371666667","25.0207816666667","6500100","板橋區"
"220011","609-BX","2017/10/28 14:29:56","新北市板橋區三民路二段201號","121.479093333333","25.0137666666667","6500100","板橋區"
"220040","637-BX","2017/10/28 14:29:42","新北市板橋區文聖街135巷25號","121.478925","25.0290533333333","6500100","板橋區"
"220005","686-BX","2017/10/28 14:29:56","新北市板橋區和平路143巷12號","121.463191666667","24.9960033333333","6500100","板橋區"
"220025","687-BX","2017/10/28 14:29:48","新北市板橋區僑中二街52號","121.44664","25.0102183333333","6500100","板橋區"
"220042","689-BX","2017/10/28 14:29:53","新北市板橋區雨農路50號","121.461073333333","25.0242233333333","6500100","板橋區"
"220002","741-BX","2017/10/28 14:29:51","新北市板橋區實踐路124號","121.464116666667","25.0031533333333","6500100","板橋區"
"220003","827-TW","2017/10/28 14:29:53","新北市板橋區重慶路290巷22弄27號","121.462175","24.9994833333333","6500100","板橋區"
"220051","830-TW","2017/10/28 14:29:51","新北市板橋區雙十路二段130巷2弄76號","121.475668333333","25.0291883333333","6500100","板橋區"
"220045","831-TW","2017/10/28 14:29:41","新北市板橋區莒光路165巷22號","121.474101666667","25.0245383333333","6500100","板橋區"
"220022","895-R6","2017/10/28 14:29:52","新北市板橋區福德街2巷16號","121.455615","25.0091666666667","6500100","板橋區"
"220021","985-R7","2017/10/28 14:29:55","新北市板橋區瑞安街56號","121.455343333333","25.021675","6500100","板橋區"
"220046","AAC-210","2017/10/28 14:29:47","新北市板橋區陽明街133號","121.463306666667","25.02399","6500100","板橋區"
"220018","AAC-253","2017/10/28 14:29:40","新北市板橋區四川路一段31號","121.4595","25.0066716666667","6500100","板橋區"
