"lineid","car","time","location","longitude","latitude","cityid","cityname"
"234044","148-BY","2017/10/05 13:29:56","新北市永和區得和路375號","121.524701666667","24.9994516666667","6500400","永和區"
"234012","149-BY","2017/10/05 13:29:46","新北市永和區永和路二段119號","121.51488","25.012055","6500400","永和區"
"234005","207-UY","2017/10/05 13:29:51","新北市永和區中山路一段149號","121.509988333333","25.009515","6500400","永和區"
"234078","298-R6","2017/10/05 13:29:36","新北市永和區福和路7巷5弄1號","121.525313333333","25.007945","6500400","永和區"
"234036","336-UY","2017/10/05 13:29:53","新北市永和區民樂街38號","121.527546666667","25.0007183333333","6500400","永和區"
"234062","337-UY","2017/10/05 13:29:56","新北市永和區得和路243巷16號","121.5207","25.00075","6500400","永和區"
"234084","338-UY","2017/10/05 13:29:53","新北市永和區永亨路9號","121.519293333333","25.0058433333333","6500400","永和區"
"234068","552-UM","2017/10/05 13:29:39","新北市永和區警光街5-1號","121.51974","25.0094683333333","6500400","永和區"
"234052","553-UM","2017/10/05 13:29:48","新北市永和區復興街25號","121.516225","25.0130516666667","6500400","永和區"
"234015","745-BX","2017/10/05 13:29:45","新北市永和區環河西路一段51巷1號","121.514316666667","25.0182083333333","6500400","永和區"
"234028","746-BX","2017/10/05 13:29:48","新北市永和區民生路69號","121.522595","24.9971883333333","6500400","永和區"
"234060","AAD-866","2017/10/05 13:29:54","新北市永和區中正路532號","121.517263333333","25.0052466666667","6500400","永和區"
"234040","862-TW","2017/10/05 13:29:58","新北市永和區中和路573號","121.511808333333","25.0035183333333","6500400","永和區"
"234048","863-TW","2017/10/05 13:29:38","新北市永和區信義路103號","121.51217","25.01443","6500400","永和區"
"234025","9371-KE","2017/10/05 13:29:42","新北市永和區豫溪街52巷17號","121.515763333333","25.0091933333333","6500400","永和區"
"234010","9373-KE","2017/10/05 13:29:57","新北市永和區仁愛路141巷5弄12號","121.512261666667","25.0121766666667","6500400","永和區"
"248015","026-BX","2017/10/05 13:29:52","新北市五股區凌雲路一段83巷34號","121.449288333333","25.101025","6501500","五股區"
"248005","077-UY","2017/10/05 13:29:49","新北市五股區四維路38號","121.467271666667","25.0715283333333","6501500","五股區"
"248007","095-VK","2017/10/05 13:29:52","新北市五股區四維路185巷42弄1號","121.463665","25.0768566666667","6501500","五股區"
"248017","225-UY","2017/10/05 13:29:19","新北市五股區御史路269號","121.421176666667","25.1062566666667","6501500","五股區"
"248011","247-BX","2017/10/05 13:29:50","新北市五股區御成路2號","121.441938333333","25.0908033333333","6501500","五股區"
"248013","261-SL","2017/10/05 13:29:52","新北市五股區成泰路一段114號","121.43548","25.0731283333333","6501500","五股區"
"248009","272-BY","2017/10/05 13:29:50","新北市五股區自強路106號","121.432615","25.0720883333333","6501500","五股區"
"248003","677-BX","2017/10/05 13:29:56","新北市五股區六合街3號","121.431953333333","25.0885416666667","6501500","五股區"
"248001","678-BX","2017/10/05 13:29:58","新北市五股區西雲路165號","121.446445","25.0945116666667","6501500","五股區"
"234022","9380-KE","2017/10/05 13:29:41","新北市永和區竹林路91巷56號","121.521415","25.0128433333333","6500400","永和區"
"234076","969-R7","2017/10/05 13:29:39","新北市永和區民治街82號","121.517388333333","24.998385","6500400","永和區"
"234072","AAC-211","2017/10/05 13:29:54","新北市永和區永和路二段96號","121.51501","25.01172","6500400","永和區"
"234066","AAC-212","2017/10/05 13:29:53","新北市永和區保平路174巷1號","121.5104","25.0071733333333","6500400","永和區"
"234001","AAC-295","2017/10/05 13:29:54","新北市永和區永平路152巷4號","121.511565","25.0087716666667","6500400","永和區"
"244003","657-BX","2017/10/05 13:29:43","新北市林口區嘉寶里42號","121.333326666667","25.1220666666667","6501700","林口區"
"244025","837-TS","2017/10/05 11:04:33","新北市林口區粉寮路二段160巷28號","121.405218333333","25.09076","6501700","林口區"
"243005","AAD-798","2017/10/05 13:29:39","新北市泰山區明志路三段197號","121.424168333333","25.038715","6501600","泰山區"
"243007","380-SR","2017/10/05 12:15:34","新北市泰山區犁頭窠3-1號","121.422201666667","25.0604616666667","6501600","泰山區"
"243008","680-BX","2017/10/05 13:29:49","新北市泰山區明志路二段137號","121.427668333333","25.050725","6501600","泰山區"
"231002","002-UM","2017/10/05 13:29:54","新北市新店區環河路66號","121.537036666667","24.962795","6500600","新店區"
"231028","046-UY","2017/10/05 13:29:55","新北市新店區安康路一段266巷4號","121.519853333333","24.96413","6500600","新店區"
"231030","047-UY","2017/10/05 13:29:47","新北市新店區安康路一段361號","121.518191666667","24.9639516666667","6500600","新店區"
"231029","106-UY","2017/10/05 13:29:56","新北市新店區安豐路49號","121.500141666667","24.9541066666667","6500600","新店區"
"231018","107-UY","2017/10/05 13:29:56","新北市新店區環河路111-10號","121.530686666667","24.9705966666667","6500600","新店區"
"231011","110-UY","2017/10/05 13:29:55","新北市新店區寶橋路6巷4號","121.543403333333","24.9734933333333","6500600","新店區"
"231021","187-VK","2017/10/05 13:29:53","新北市新店區北宜路一段158號","121.54037","24.9535166666667","6500600","新店區"
"231007","189-VK","2017/10/05 11:53:53","新北市新店區安華路28-1號","121.519556666667","24.961125","6500600","新店區"
"231017","215-TC","2017/10/05 13:29:40","新北市新店區新烏路一段8號","121.547195","24.951725","6500600","新店區"
"231026","256-BX","2017/10/05 13:29:50","新北市新店區安康路一段24巷2號","121.532866666667","24.960355","6500600","新店區"
"231010","278-BY","2017/10/05 13:29:44","新北市新店區中正路341號","121.535643333333","24.9753833333333","6500600","新店區"
"231023","AAD-862","2017/10/05 13:29:49","新北市新店區新店路13號","121.540303333333","24.9528583333333","6500600","新店區"
"231027","3712-VJ","2017/10/05 13:29:39","新北市新店區新店後街118號","121.537695","24.9555866666667","6500600","新店區"
"231024","3713-VJ","2017/10/05 13:29:43","新北市新店區北新路二段59巷1號","121.542335","24.973005","6500600","新店區"
"231025","4716-K9","2017/10/05 13:29:45","新北市新店區中央五街27號","121.529143333333","24.9746533333333","6500600","新店區"
"231038","4715-K9","2017/10/05 13:29:56","新北市新店區安華路30巷1號","121.519591666667","24.9592916666667","6500600","新店區"
"231036","512-UM","2017/10/05 13:29:46","新北市新店區安祥路147巷39號","121.477081666667","24.9561116666667","6500600","新店區"
"231035","515-UM","2017/10/05 13:29:38","新北市新店區安華路28-1號","121.519635","24.9611716666667","6500600","新店區"
"231001","619-UM","2017/10/05 13:29:54","新北市新店區中央路173號","121.53437","24.97002","6500600","新店區"
"231003","641-BX","2017/10/05 13:29:58","新北市新店區北新路一段126巷25號","121.54333","24.96972","6500600","新店區"
"231034","645-TV","2017/10/05 13:29:41","新北市新店區車子路114號","121.505336666667","24.9535666666667","6500600","新店區"
"231013","719-UM","2017/10/05 13:29:55","新北市新店區中正路456號","121.534473333333","24.97921","6500600","新店區"
"231031","720-UM","2017/10/05 13:29:54","新北市新店區僑信路2巷6號","121.49959","24.9536133333333","6500600","新店區"
"231005","897-TW","2017/10/05 13:29:38","新北市新店區安康路一段35-1號","121.532153333333","24.9606183333333","6500600","新店區"
"231006","898-TW","2017/10/05 13:29:54","新北市新店區安康路一段134號","121.526746666667","24.9629716666667","6500600","新店區"
"231004","899-TW","2017/10/05 13:29:45","新北市新店區安康路一段134號","121.52673","24.9629366666667","6500600","新店區"
"231037","AKT-0513","2017/10/05 13:29:51","新北市新店區薏仁坑路53-1號","121.49185","24.963955","6500600","新店區"
"235030","003-UY","2017/10/05 13:29:38","新北市中和區中山路二段120號","121.502835","25.00374","6500300","中和區"
"235028","005-UY","2017/10/05 13:29:41","新北市中和區圓通路141巷41號","121.49873","24.99465","6500300","中和區"
"235027","006-UY","2017/10/05 13:29:48","新北市中和區連城路347巷45號","121.488601666667","24.9946816666667","6500300","中和區"
"235020","096-UM","2017/10/05 13:29:55","新北市中和區新民街104號","121.480911666667","25.0084283333333","6500300","中和區"
"235003","097-UM","2017/10/05 13:29:46","新北市中和區景平路170號","121.517008333333","24.99252","6500300","中和區"
"235029","098-UM","2017/10/05 13:29:43","新北市中和區莊敬路38巷1號","121.501651666667","25.0051983333333","6500300","中和區"
"235004","150-BY","2017/10/05 13:29:43","新北市中和區安平路59號","121.50946","24.9952216666667","6500300","中和區"
"235022","151-BY","2017/10/05 13:29:41","新北市中和區圓通路369巷152號","121.488018333333","24.9816266666667","6500300","中和區"
"235019","183-VK","2017/10/05 13:29:49","新北市中和區民享街245號","121.471686666667","24.996195","6500300","中和區"
"235002","185-VK","2017/10/05 13:29:44","新北市中和區秀朗路三段128巷10號","121.524625","24.9927283333333","6500300","中和區"
"235013","186-VK","2017/10/05 13:29:53","新北市中和區景安路130號","121.505176666667","24.994375","6500300","中和區"
"235031","255-BX","2017/10/05 13:29:46","新北市中和區新生街220巷4號","121.482973333333","24.998535","6500300","中和區"
"235036","301-VK","2017/10/05 13:29:42","新北市中和區連城路265巷10弄1號","121.49168","24.995305","6500300","中和區"
"235007","352-BY","2017/10/05 13:29:41","新北市中和區景平路321號","121.505956666667","24.9932183333333","6500300","中和區"
"235032","375-QA","2017/10/05 13:29:46","新北市中和區中正路277號","121.49532","24.9937766666667","6500300","中和區"
"235015","376-QA","2017/10/05 13:29:48","新北市中和區忠孝街2-1號","121.50889","24.9828633333333","6500300","中和區"
"235025","378-QA","2017/10/05 13:29:52","新北市中和區民享街114巷1號","121.474556666667","24.9991466666667","6500300","中和區"
"235035","269-TV","2017/10/05 13:29:39","新北市板橋區光環路二段22-3號","121.482413333333","25.0142116666667","6500300","中和區"
"235014","4979-A6","2017/10/05 13:29:56","新北市中和區景新街418巷18弄1號","121.512305","24.9884783333333","6500300","中和區"
"235033","4980-A6","2017/10/05 13:29:34","新北市中和區連城路99巷53號","121.49722","24.9986233333333","6500300","中和區"
"235006","551-UM","2017/10/05 13:29:51","新北市中和區大智街34巷4號","121.52138","24.9918683333333","6500300","中和區"
"235034","558-UM","2017/10/05 13:29:12","新北市中和區圓通路117號","121.499453333333","24.9963316666667","6500300","中和區"
"235009","565-BX","2017/10/05 13:29:51","新北市中和區復興路38號","121.504876666667","24.990125","6500300","中和區"
"235018","640-BX","2017/10/05 13:29:47","新北市中和區民享街112號","121.474638333333","24.9992433333333","6500300","中和區"
"235024","647-TV","2017/10/05 13:29:56","新北市中和區員山路168號","121.481341666667","24.9998183333333","6500300","中和區"
"235011","732-UM","2017/10/05 13:29:44","新北市中和區圓通路162巷37弄5號","121.496448333333","24.9952866666667","6500300","中和區"
"235010","733-UM","2017/10/05 13:29:38","新北市中和區錦和路350-1號","121.490515","24.9935966666667","6500300","中和區"
"235026","800-TS","2017/10/05 13:29:58","新北市中和區景平路734號","121.496736666667","25.0040183333333","6500300","中和區"
"235021","801-TS","2017/10/05 13:29:54","新北市中和區民安街111巷4弄3號","121.476338333333","24.9990316666667","6500300","中和區"
"235005","802-TS","2017/10/05 13:29:44","新北市中和區中和路326號","121.509706666667","25.0010066666667","6500300","中和區"
"235016","805-TS","2017/10/05 13:29:47","新北市中和區興南路二段116號","121.50465","24.9838683333333","6500300","中和區"
"235012","896-TW","2017/10/05 13:29:54","新北市中和區中正路637巷52弄1號","121.485555","24.9936383333333","6500300","中和區"
"235017","900-TW","2017/10/05 13:29:53","新北市中和區民享街457號","121.47039","24.9932216666667","6500300","中和區"
"235001","AAC-213","2017/10/05 13:29:43","新北市中和區景德街133號","121.514806666667","24.9910233333333","6500300","中和區"
"235023","AAC-215","2017/10/05 13:29:49","新北市中和區員山路36巷16-3號","121.485176666667","24.9912766666667","6500300","中和區"
"220034","073-UY","2017/10/05 13:29:45","新北市板橋區華東街11號","121.450346666667","24.997505","6500100","板橋區"
"220016","120-SR","2017/10/05 13:29:42","新北市板橋區民生路二段120號","121.470378333333","25.0197216666667","6500100","板橋區"
"247009","339-TH","2017/10/05 13:29:55","新北市五股區中興路三段163號","121.449293333333","25.08053","6501400","蘆洲區"
"247005","056-VK","2017/10/05 13:29:54","新北市五股區中興路三段163號","121.449316666667","25.080625","6501400","蘆洲區"
"247007","053-VK","2017/10/05 13:29:51","新北市五股區中興路三段163號","121.449413333333","25.08051","6501400","蘆洲區"
"228005","097-TW","2017/10/05 13:29:56","新北市貢寮區美豐里文秀坑8號","121.902665","25.0505316666667","6502600","貢寮區"
"228004","212-TW","2017/10/05 13:29:31","新北市貢寮區龍崗里石壁坑街17-1號","121.911783333333","24.99241","6502600","貢寮區"
"208004","AAC-292","2017/10/05 13:29:46","新北市金山區南勢湖84號","121.613261666667","25.21221","6502700","金山區"
"207002","749-BX","2017/10/05 13:29:50","新北市萬里區崁腳里崁腳路166號","121.645218333333","25.1560366666667","6502800","萬里區"
"252005","073-UM","2017/10/05 13:29:51","新北市三芝區八賢里八連溪88號","121.520535","25.2290283333333","6502100","三芝區"
"207001","662-BX","2017/10/05 13:29:48","新北市萬里區龜吼里玉田路46-10號","121.683163333333","25.1891683333333","6502800","萬里區"
"236005","498-BY","2017/10/05 13:29:50","新北市土城區慶祥街59巷5號","121.435991666667","24.9728633333333","6501300","土城區"
"242045","172-VK","2017/10/05 13:29:44","新北市新莊區中正路887-15號","121.416243333333","25.0242683333333","6500500","新莊區"
"238020","308-TH","2017/10/05 13:29:50","新北市樹林區中山路三段210-2號","121.38155","24.9655283333333","6500700","樹林區"
"221012","276-VK","2017/10/05 13:01:40","新北市汐止區汐萬路一段256巷3號","121.653453333333","25.0746433333333","6501100","汐止區"
"221032","280-BY","2017/10/05 13:29:40","新北市汐止區水源路一段56號","121.657431666667","25.0655616666667","6501100","汐止區"
"221038","646-BX","2017/10/05 13:14:56","新北市汐止區康寧街901號","121.651723333333","25.0749316666667","6501100","汐止區"
"220027","145-BY","2017/10/05 13:29:55","新北市板橋區大觀路二段101巷2號","121.446705","25.0015533333333","6500100","板橋區"
"220064","282-UM","2017/10/05 11:21:22","新北市板橋區華東街1-9號","121.448168333333","24.9948366666667","6500100","板橋區"
"220009","293-UM","2017/10/05 13:29:48","新北市板橋區民生路二段120號","121.470455","25.019775","6500100","板橋區"
"220023","297-UM","2017/10/05 13:29:38","新北市板橋區華東街1-9號","121.448248333333","24.9949133333333","6500100","板橋區"
"220104","560-BX","2017/10/05 13:29:49","新北市板橋區林園街1號","121.45385","25.0091966666667","6500100","板橋區"
"220011","609-BX","2017/10/05 13:29:39","新北市板橋區民生路二段161巷1號","121.470133333333","25.0200466666667","6500100","板橋區"
"220005","686-BX","2017/10/05 13:29:54","新北市板橋區華東街1-9號","121.448125","24.9949316666667","6500100","板橋區"
"220025","687-BX","2017/10/05 13:29:45","新北市板橋區四川路二段橋頭1號","121.446033333333","24.9941866666667","6500100","板橋區"
"220014","829-TW","2017/10/05 13:29:55","新北市板橋區民生路二段161巷5號","121.470231666667","25.019745","6500100","板橋區"
"220022","895-R6","2017/10/05 13:29:40","新北市板橋區華東街1-9號","121.44822","24.9949316666667","6500100","板橋區"
"220018","AAC-253","2017/10/05 13:29:50","新北市板橋區華東街1-9號","121.448278333333","24.9948766666667","6500100","板橋區"
