"lineid","car","time","location","longitude","latitude","cityid","cityname"
"234044","148-BY","2017/10/05 13:59:36","新北市永和區永亨路207號","121.52607","25.0025933333333","6500400","永和區"
"234012","149-BY","2017/10/05 13:59:46","新北市永和區保安路288號","121.505308333333","25.0119933333333","6500400","永和區"
"234005","207-UY","2017/10/05 13:59:51","新北市中和區中和路302-1號","121.508701666667","24.999885","6500400","永和區"
"234078","298-R6","2017/10/05 13:59:44","新北市永和區永亨路100號","121.523205","25.0048016666667","6500400","永和區"
"234036","336-UY","2017/10/05 13:59:33","新北市永和區成功路二段80號","121.52655","24.99899","6500400","永和區"
"234062","337-UY","2017/10/05 13:59:36","新北市永和區中正路368巷1弄47號","121.519261666667","25.00128","6500400","永和區"
"234084","338-UY","2017/10/05 13:59:33","新北市永和區永利路37號","121.518781666667","25.0056716666667","6500400","永和區"
"234068","552-UM","2017/10/05 13:59:39","新北市永和區國光路14號","121.519085","25.00834","6500400","永和區"
"234052","553-UM","2017/10/05 13:59:48","新北市永和區竹林路73-1號","121.518541666667","25.013315","6500400","永和區"
"234015","745-BX","2017/10/05 13:59:43","新北市永和區文化路154號","121.512445","25.0154116666667","6500400","永和區"
"234028","746-BX","2017/10/05 13:59:32","新北市永和區民生路67巷47號","121.525238333333","24.9975283333333","6500400","永和區"
"234060","AAD-866","2017/10/05 13:59:45","新北市永和區中正路151巷14號","121.51557","24.99884","6500400","永和區"
"234040","862-TW","2017/10/05 13:59:38","新北市永和區中和路305巷2弄29號","121.507481666667","25.0000083333333","6500400","永和區"
"234048","863-TW","2017/10/05 13:59:38","新北市永和區保安路262巷2號","121.505878333333","25.0124683333333","6500400","永和區"
"234010","9373-KE","2017/10/05 13:59:37","新北市永和區保順路11號","121.504793333333","25.009565","6500400","永和區"
"248015","026-BX","2017/10/05 13:59:52","新北市五股區成泰路三段559巷14弄2號","121.451348333333","25.102415","6501500","五股區"
"248007","095-VK","2017/10/05 13:59:32","新北市五股區中興路一段128巷33號","121.46563","25.0748716666667","6501500","五股區"
"248017","225-UY","2017/10/05 13:59:39","新北市五股區民義路一段293號","121.425048333333","25.0933683333333","6501500","五股區"
"248011","247-BX","2017/10/05 13:59:30","新北市五股區成泰路二段195巷1號","121.44047","25.08743","6501500","五股區"
"248009","272-BY","2017/10/05 13:59:42","新北市五股區水碓一路23號","121.430598333333","25.0713316666667","6501500","五股區"
"248003","677-BX","2017/10/05 13:59:36","新北市五股區民義路二段29號","121.414111666667","25.1011683333333","6501500","五股區"
"248001","678-BX","2017/10/05 13:42:58","新北市五股區西雲路247號","121.449236666667","25.097995","6501500","五股區"
"234022","9380-KE","2017/10/05 13:59:41","新北市永和區永和路二段253號","121.515861666667","25.0151866666667","6500400","永和區"
"234076","969-R7","2017/10/05 13:59:39","新北市永和區民權路58巷3號","121.51962","24.998285","6500400","永和區"
"234072","AAC-211","2017/10/05 13:59:34","新北市永和區豫溪街207巷1號","121.523515","25.0099283333333","6500400","永和區"
"234066","AAC-212","2017/10/05 13:59:45","新北市永和區永貞路358號","121.510283333333","25.006605","6500400","永和區"
"234001","AAC-295","2017/10/05 13:59:34","新北市永和區福和路310-1號","121.516218333333","25.0073816666667","6500400","永和區"
"244025","837-TS","2017/10/05 11:04:33","新北市林口區粉寮路二段160巷28號","121.405218333333","25.09076","6501700","林口區"
"243005","AAD-798","2017/10/05 13:59:39","新北市泰山區明志路三段349號","121.422018333333","25.03523","6501600","泰山區"
"243001","297-R6","2017/10/05 13:59:46","新北市泰山區泰林路二段234號","121.432393333333","25.0621","6501600","泰山區"
"243007","380-SR","2017/10/05 13:59:43","新北市泰山區泰林路二段307號","121.429898333333","25.0631","6501600","泰山區"
"243006","421-VK","2017/10/05 13:59:47","新北市泰山區黎明路23-1號","121.421326666667","25.0612366666667","6501600","泰山區"
"243002","KEA-2215","2017/10/05 13:59:36","新北市泰山區辭修路28號","121.429051666667","25.05838","6501600","泰山區"
"243003","KEA-2216","2017/10/05 13:59:46","新北市泰山區明志路二段298巷10號","121.426193333333","25.046675","6501600","泰山區"
"243004","646-TV","2017/10/05 13:59:50","新北市泰山區仁德路114號","121.432783333333","25.05704","6501600","泰山區"
"243008","680-BX","2017/10/05 13:59:29","新北市泰山區明志路二段152-1號","121.427578333333","25.05068","6501600","泰山區"
"231002","002-UM","2017/10/05 13:59:34","新北市新店區中正路695巷2號","121.533996666667","24.990625","6500600","新店區"
"231028","046-UY","2017/10/05 13:59:35","新北市新店區安和路三段110巷5號","121.517576666667","24.985395","6500600","新店區"
"231030","047-UY","2017/10/05 13:59:47","新北市新店區安興路7-1號","121.514985","24.9685233333333","6500600","新店區"
"231029","106-UY","2017/10/05 13:59:36","新北市新店區安康路二段1-5號","121.517025","24.9639416666667","6500600","新店區"
"231018","107-UY","2017/10/05 13:59:36","新北市新店區中央路68號","121.532428333333","24.9771266666667","6500600","新店區"
"231011","110-UY","2017/10/05 13:59:41","新北市新店區中興路二段59號","121.546525","24.9704466666667","6500600","新店區"
"231021","187-VK","2017/10/05 13:59:33","新北市新店區湖子內路22號","121.542338333333","24.93084","6500600","新店區"
"231007","189-VK","2017/10/05 11:53:53","新北市新店區安華路28-1號","121.519556666667","24.961125","6500600","新店區"
"231017","215-TC","2017/10/05 13:59:40","新北市新店區竹林路82號","121.55438","24.9505566666667","6500600","新店區"
"231026","256-BX","2017/10/05 13:59:30","新北市新店區環河路182-3號","121.533715","24.9700933333333","6500600","新店區"
"231023","AAD-862","2017/10/05 13:59:49","新北市新店區文中路53巷4號","121.540513333333","24.95683","6500600","新店區"
"231027","3712-VJ","2017/10/05 13:59:39","新北市新店區中興路一段24號","121.538648333333","24.9583783333333","6500600","新店區"
"231024","3713-VJ","2017/10/05 13:59:43","新北市新店區新生街13巷10號","121.539521666667","24.96599","6500600","新店區"
"231025","4716-K9","2017/10/05 13:59:48","新北市新店區中正路320號","121.537165","24.974865","6500600","新店區"
"231038","4715-K9","2017/10/05 13:59:36","新北市新店區溪洲路121號","121.531456666667","24.9626233333333","6500600","新店區"
"231036","512-UM","2017/10/05 13:59:46","新北市新店區安祥路109巷3弄1號","121.477941666667","24.9613183333333","6500600","新店區"
"231035","515-UM","2017/10/05 13:59:38","新北市新店區安忠路57巷7弄2號","121.513336666667","24.9583666666667","6500600","新店區"
"231001","619-UM","2017/10/05 13:59:34","新北市新店區三民路22巷1號","121.537288333333","24.97111","6500600","新店區"
"231003","641-BX","2017/10/05 13:59:38","新北市新店區北宜路一段3號","121.538608333333","24.9584883333333","6500600","新店區"
"231034","645-TV","2017/10/05 13:59:41","新北市新店區達觀路41號","121.502841666667","24.9382433333333","6500600","新店區"
"231013","719-UM","2017/10/05 13:59:35","新北市新店區明德路111號","121.541481666667","24.9794883333333","6500600","新店區"
"231031","720-UM","2017/10/05 13:59:34","新北市新店區華城路18-1號","121.529021666667","24.9567683333333","6500600","新店區"
"231005","897-TW","2017/10/05 13:59:38","新北市新店區中興路三段160號","121.544323333333","24.9808","6500600","新店區"
"231006","898-TW","2017/10/05 13:59:34","新北市新店區北宜路二段209號","121.553153333333","24.9532566666667","6500600","新店區"
"231004","899-TW","2017/10/05 13:59:45","新北市新店區北新路二段167號","121.542808333333","24.9763366666667","6500600","新店區"
"235030","003-UY","2017/10/05 13:59:38","新北市中和區廣福路56巷1弄12號","121.502875","25.002005","6500300","中和區"
"235028","005-UY","2017/10/05 13:59:41","新北市中和區泰和街36號","121.499355","25.00017","6500300","中和區"
"235027","006-UY","2017/10/05 13:59:48","新北市中和區中正路462號","121.490185","24.9943266666667","6500300","中和區"
"235020","096-UM","2017/10/05 13:59:35","新北市板橋區三民路二段204-3號","121.478933333333","25.0123516666667","6500300","中和區"
"235003","097-UM","2017/10/05 13:59:46","新北市中和區景平路64巷14弄22號","121.52278","24.9912683333333","6500300","中和區"
"235029","098-UM","2017/10/05 13:59:50","新北市中和區福祥路158號","121.49845","25.0077133333333","6500300","中和區"
"235004","150-BY","2017/10/05 13:59:43","新北市中和區景安路79巷35號","121.50732","24.9962433333333","6500300","中和區"
"235022","151-BY","2017/10/05 13:59:41","新北市中和區連城路569巷9弄7號","121.479576666667","24.994125","6500300","中和區"
"235019","183-VK","2017/10/05 13:59:49","新北市板橋區民族路276巷48號","121.469086666667","25.005445","6500300","中和區"
"235002","185-VK","2017/10/05 13:59:44","新北市中和區大勇街43巷13號","121.517055","24.9945866666667","6500300","中和區"
"235013","186-VK","2017/10/05 13:59:33","新北市中和區景安路167巷17號","121.506418333333","24.9948983333333","6500300","中和區"
"235031","255-BX","2017/10/05 13:59:46","新北市中和區新生街168號","121.483576666667","25.0001416666667","6500300","中和區"
"235008","293-VK","2017/10/05 13:59:39","新北市中和區中興街135巷7號","121.500398333333","24.9914933333333","6500300","中和區"
"235036","301-VK","2017/10/05 13:59:42","新北市中和區中山路二段21號","121.505056666667","25.0053716666667","6500300","中和區"
"235007","352-BY","2017/10/05 13:59:41","新北市中和區秀朗路三段107號","121.526408333333","24.9947","6500300","中和區"
"235032","375-QA","2017/10/05 13:59:46","新北市中和區中正路211巷36弄4號","121.497226666667","24.9928616666667","6500300","中和區"
"235015","376-QA","2017/10/05 13:59:48","新北市中和區忠孝街106巷29號","121.513196666667","24.9843916666667","6500300","中和區"
"235025","378-QA","2017/10/05 13:59:32","新北市中和區民治街130巷6號","121.474945","25.0026416666667","6500300","中和區"
"235035","269-TV","2017/10/05 13:59:39","新北市中和區立德街26巷6號","121.489951666667","25.0069916666667","6500300","中和區"
"235014","4979-A6","2017/10/05 13:59:36","新北市中和區南山路409號","121.506995","24.9898083333333","6500300","中和區"
"235033","4980-A6","2017/10/05 13:59:34","新北市中和區圓通路109號","121.499443333333","24.99661","6500300","中和區"
"235006","551-UM","2017/10/05 13:59:31","新北市中和區秀朗路三段100巷2弄5號","121.525076666667","24.9935516666667","6500300","中和區"
"235034","558-UM","2017/10/05 13:59:12","新北市中和區南山路37巷3弄11號","121.502453333333","24.9990233333333","6500300","中和區"
"235009","565-BX","2017/10/05 13:59:51","新北市中和區景新街467巷11號","121.513693333333","24.98825","6500300","中和區"
"235018","640-BX","2017/10/05 13:59:47","新北市中和區民享街6號","121.473991666667","25.0048416666667","6500300","中和區"
"235024","647-TV","2017/10/05 13:59:36","新北市中和區中山路三段204號","121.471681666667","25.0064833333333","6500300","中和區"
"235011","732-UM","2017/10/05 13:59:44","新北市中和區興南路二段34巷26弄2號","121.505416666667","24.9864533333333","6500300","中和區"
"235010","733-UM","2017/10/05 13:59:38","新北市中和區興南路一段135巷17號","121.509391666667","24.9869866666667","6500300","中和區"
"235026","800-TS","2017/10/05 13:59:38","新北市中和區中山路二段340巷57-1號","121.492995","25.0045283333333","6500300","中和區"
"235021","801-TS","2017/10/05 13:59:34","新北市中和區民利街28號","121.479948333333","24.9991566666667","6500300","中和區"
"235005","802-TS","2017/10/05 13:59:44","新北市中和區中安街32號","121.513195","25.0027766666667","6500300","中和區"
"235016","805-TS","2017/10/05 13:59:46","新北市中和區興南路二段131-10號","121.504028333333","24.9808616666667","6500300","中和區"
"235012","896-TW","2017/10/05 13:59:34","新北市中和區華新街57號","121.507963333333","24.9842983333333","6500300","中和區"
"235017","900-TW","2017/10/05 13:59:40","新北市中和區民德路306巷8號","121.466928333333","24.9953833333333","6500300","中和區"
"235001","AAC-213","2017/10/05 13:59:43","新北市中和區自立路99巷34號","121.523888333333","24.9944283333333","6500300","中和區"
"235023","AAC-215","2017/10/05 13:59:30","新北市中和區圓通路367巷20弄21號","121.491508333333","24.9884333333333","6500300","中和區"
"220013","072-UY","2017/10/05 13:59:43","新北市板橋區漢生東路324號","121.471706666667","25.007925","6500100","板橋區"
"220034","073-UY","2017/10/05 13:59:45","新北市板橋區中正路80巷5號","121.45701","25.0146566666667","6500100","板橋區"
"220105","075-UY","2017/10/05 13:59:42","新北市板橋區文化路二段124巷28-2號","121.471256666667","25.0257083333333","6500100","板橋區"
"220017","AAD-861","2017/10/05 13:59:41","新北市板橋區大華街132號","121.45892","25.0049333333333","6500100","板橋區"
"220016","120-SR","2017/10/05 13:59:42","新北市板橋區中山路二段465巷54號","121.481168333333","25.0217","6500100","板橋區"
"247019","500-BY","2017/10/05 13:59:50","新北市蘆洲區民族路426巷40弄9號","121.47341","25.0933","6501400","蘆洲區"
"247009","339-TH","2017/10/05 13:59:35","新北市蘆洲區集賢路224巷12號","121.481915","25.0869383333333","6501400","蘆洲區"
"247001","337-TH","2017/10/05 13:59:45","新北市蘆洲區永平街32巷74號","121.460546666667","25.0936183333333","6501400","蘆洲區"
"247003","336-TH","2017/10/05 13:59:33","新北市蘆洲區長安街101號","121.461638333333","25.0807933333333","6501400","蘆洲區"
"247015","057-VK","2017/10/05 13:59:32","新北市蘆洲區光華路40號","121.46896","25.0832383333333","6501400","蘆洲區"
"247005","056-VK","2017/10/05 13:59:34","新北市蘆洲區永安南路二段76號","121.46472","25.078275","6501400","蘆洲區"
"247007","053-VK","2017/10/05 13:59:31","新北市三重區三和路四段400巷27號","121.47991","25.079325","6501400","蘆洲區"
"247013","007-UY","2017/10/05 13:59:33","新北市蘆洲區中正路168號","121.468695","25.08596","6501400","蘆洲區"
"247017","001-UY","2017/10/05 13:59:42","新北市蘆洲區仁愛街35巷26號","121.475508333333","25.0889366666667","6501400","蘆洲區"
"228005","097-TW","2017/10/05 13:57:56","新北市貢寮區美豐里雞母嶺街52-1號","121.888521666667","25.0685","6502600","貢寮區"
"228004","212-TW","2017/10/05 13:59:50","新北市貢寮區龍崗里嵩陽街35-5號","121.907065","25.0176066666667","6502600","貢寮區"
"208004","AAC-292","2017/10/05 13:59:46","新北市金山區山城路29號","121.598321666667","25.2019633333333","6502700","金山區"
"207002","749-BX","2017/10/05 13:59:30","新北市萬里區溪底里烏塗炭9號","121.637725","25.1515083333333","6502800","萬里區"
"252005","073-UM","2017/10/05 13:59:38","新北市三芝區圓山里內柑宅25-2號","121.537851666667","25.2245766666667","6502100","三芝區"
"207001","662-BX","2017/10/05 13:59:48","新北市萬里區磺潭里清水18號","121.637805","25.197875","6502800","萬里區"
"236066","105-UM","2017/10/05 13:59:47","新北市土城區員林街5號","121.442553333333","24.97815","6501300","土城區"
"236040","107-UM","2017/10/05 13:59:29","新北市土城區裕生路61號","121.44761","24.9861333333333","6501300","土城區"
"236028","253-BX","2017/10/05 13:59:44","新北市土城區城林路6巷80號","121.438428333333","24.9799033333333","6501300","土城區"
"236024","269-VK","2017/10/05 13:59:50","新北市土城區中華路二段107號","121.439096666667","24.9771716666667","6501300","土城區"
"236012","270-VK","2017/10/05 13:59:45","新北市土城區城林路6巷80號","121.4384","24.9797866666667","6501300","土城區"
"236033","271-VK","2017/10/05 13:59:46","新北市土城區城林路6巷80號","121.43863","24.979685","6501300","土城區"
"236018","401-BY","2017/10/05 13:59:33","新北市土城區城林路6巷80號","121.438596666667","24.9797483333333","6501300","土城區"
"236005","498-BY","2017/10/05 13:59:41","新北市土城區中央路一段258號","121.444226666667","24.9842833333333","6501300","土城區"
"236076","752-BX","2017/10/05 13:59:46","新北市土城區永寧路32巷8號","121.428986666667","24.960655","6501300","土城區"
"236056","912-UM","2017/10/05 13:59:47","新北市土城區永寧路1號","121.430683333333","24.9648133333333","6501300","土城區"
"236047","913-UM","2017/10/05 13:59:33","新北市土城區城林路6巷80號","121.438671666667","24.97988","6501300","土城區"
"236060","915-UM","2017/10/05 13:59:34","新北市土城區城林路6巷80號","121.438441666667","24.9798483333333","6501300","土城區"
"236052","AAC-216","2017/10/05 13:59:43","新北市土城區城林路6巷80號","121.438378333333","24.9796283333333","6501300","土城區"
"242045","172-VK","2017/10/05 13:59:44","新北市樹林區環河路110號","121.426491666667","24.9776566666667","6500500","新莊區"
"221012","276-VK","2017/10/05 13:01:40","新北市汐止區汐萬路一段256巷3號","121.653453333333","25.0746433333333","6501100","汐止區"
"221032","280-BY","2017/10/05 13:59:40","新北市汐止區水源路一段279號","121.654278333333","25.05871","6501100","汐止區"
"220027","145-BY","2017/10/05 13:59:35","新北市板橋區民權路260巷1弄8號","121.458201666667","25.0158366666667","6500100","板橋區"
"220030","610-BX","2017/10/05 13:59:47","新北市板橋區篤行路三段66號","121.42708","24.9856","6500100","板橋區"
"220050","245-BX","2017/10/05 13:59:49","新北市板橋區文化路二段182巷3弄4號","121.471586666667","25.0272366666667","6500100","板橋區"
"220040","267-BY","2017/10/05 13:59:35","新北市板橋區莒光路165巷42-1號","121.474408333333","25.0250866666667","6500100","板橋區"
"220004","276-BY","2017/10/05 13:59:36","新北市板橋區信義路111號","121.457708333333","24.99349","6500100","板橋區"
"220012","280-UM","2017/10/05 13:59:43","新北市板橋區縣民大道二段112號","121.467248333333","25.015645","6500100","板橋區"
"220064","282-UM","2017/10/05 11:21:22","新北市板橋區華東街1-9號","121.448168333333","24.9948366666667","6500100","板橋區"
"220019","283-VK","2017/10/05 13:59:52","新北市板橋區重慶路221號","121.463001666667","25.001045","6500100","板橋區"
"220043","285-UM","2017/10/05 13:59:37","新北市板橋區文化路二段59號","121.469138333333","25.0251483333333","6500100","板橋區"
"220001","285-VK","2017/10/05 13:59:36","新北市板橋區永豐街99號","121.473836666667","25.0192316666667","6500100","板橋區"
"220031","286-VK","2017/10/05 13:59:49","新北市板橋區大觀路一段38巷156弄51號","121.442756666667","25.0062333333333","6500100","板橋區"
"220029","287-VK","2017/10/05 13:59:46","新北市板橋區光華街15巷45號","121.452643333333","25.0114683333333","6500100","板橋區"
"220039","288-VK","2017/10/05 13:59:49","新北市板橋區四維路177巷1弄2號","121.464061666667","25.02624","6500100","板橋區"
"220009","293-UM","2017/10/05 13:59:48","新北市板橋區永豐街120巷2弄2號","121.476563333333","25.0205183333333","6500100","板橋區"
"220032","296-UM","2017/10/05 13:59:33","新北市板橋區大觀路二段174巷116弄49號","121.44243","25.001225","6500100","板橋區"
"220023","297-UM","2017/10/05 13:59:38","新北市板橋區南興路53號","121.454423333333","25.00734","6500100","板橋區"
"242001","281-VK","2017/10/05 13:59:34","新北市新莊區中華路一段226號","121.452648333333","25.0430066666667","6500500","新莊區"
"220010","305-R5","2017/10/05 13:59:38","新北市板橋區三民路二段245巷51號","121.480666666667","25.0126033333333","6500100","板橋區"
"220041","307-R5","2017/10/05 13:59:43","新北市板橋區文化路一段102號","121.464718333333","25.01809","6500100","板橋區"
"220047","317-R6","2017/10/05 13:59:36","新北市板橋區民有街18號","121.466263333333","25.0250016666667","6500100","板橋區"
"220028","461-BY","2017/10/05 13:59:42","新北市板橋區大觀路二段265巷3弄51號","121.444966666667","24.9977366666667","6500100","板橋區"
"220038","487-VK","2017/10/05 13:59:48","新北市板橋區文化路二段19號","121.468838333333","25.0246166666667","6500100","板橋區"
"220037","491-VK","2017/10/05 13:59:45","新北市板橋區民生路二段210號","121.469568333333","25.02123","6500100","板橋區"
"220104","560-BX","2017/10/05 13:59:49","新北市板橋區中正路341巷8號","121.454506666667","25.0203616666667","6500100","板橋區"
"220052","561-BX","2017/10/05 13:59:40","新北市板橋區縣民大道二段279號","121.469906666667","25.01782","6500100","板橋區"
"220011","609-BX","2017/10/05 13:59:47","新北市板橋區中山路二段213號","121.476541666667","25.017175","6500100","板橋區"
"220002","630-UY","2017/10/05 13:59:46","新北市板橋區後埔街46號","121.460493333333","25.0060833333333","6500100","板橋區"
"220005","686-BX","2017/10/05 13:59:34","新北市板橋區館前東路47號","121.461106666667","25.007445","6500100","板橋區"
"220025","687-BX","2017/10/05 13:59:45","新北市板橋區大觀路三段59巷17弄6-1號","121.437951666667","24.9951566666667","6500100","板橋區"
"220042","689-BX","2017/10/05 13:59:48","新北市板橋區民生路三段50號","121.467246666667","25.0251316666667","6500100","板橋區"
"220003","827-TW","2017/10/05 13:59:52","新北市板橋區中山路一段158巷33號","121.466701666667","25.011035","6500100","板橋區"
"220014","829-TW","2017/10/05 13:59:35","新北市板橋區三民路二段正隆巷12弄13號","121.477805","25.01335","6500100","板橋區"
"220051","830-TW","2017/10/05 13:59:37","新北市板橋區田單街2巷26號","121.481545","25.0277983333333","6500100","板橋區"
"220045","831-TW","2017/10/05 13:59:39","新北市板橋區莒光路74號","121.471451666667","25.0241466666667","6500100","板橋區"
"220022","895-R6","2017/10/05 13:59:42","新北市板橋區南雅南路一段53號","121.455988333333","25.0060166666667","6500100","板橋區"
"220021","985-R7","2017/10/05 13:59:36","新北市板橋區館前西路154-3號","121.455215","25.00848","6500100","板橋區"
"220046","AAC-210","2017/10/05 13:59:45","新北市板橋區新海路2號","121.462863333333","25.0207233333333","6500100","板橋區"
"220018","AAC-253","2017/10/05 13:59:33","新北市板橋區四川路一段287號","121.45882","25.0007083333333","6500100","板橋區"
