"lineid","car","time","location","longitude","latitude","cityid","cityname"
"234044","148-BY","2017/10/05 14:03:37","新北市永和區永利路163號","121.524988333333","25.00345","6500400","永和區"
"234012","149-BY","2017/10/05 14:03:46","新北市永和區保生路55號","121.504763333333","25.0106733333333","6500400","永和區"
"234005","207-UY","2017/10/05 14:03:31","新北市中和區中和路262號","121.50849","24.99947","6500400","永和區"
"234078","298-R6","2017/10/05 14:03:42","新北市永和區國中路31號","121.524576666667","25.00545","6500400","永和區"
"234036","336-UY","2017/10/05 14:03:38","新北市永和區成功路二段177-1號","121.52657","24.9967466666667","6500400","永和區"
"234062","337-UY","2017/10/05 14:03:36","新北市永和區秀朗路一段192巷3號","121.519508333333","25.00248","6500400","永和區"
"234084","338-UY","2017/10/05 14:03:33","新北市永和區中正路576號","121.51708","25.00643","6500400","永和區"
"234068","552-UM","2017/10/05 14:03:39","新北市永和區福和路234號","121.519036666667","25.0078183333333","6500400","永和區"
"234052","553-UM","2017/10/05 14:03:48","新北市永和區竹林路43號","121.518051666667","25.01411","6500400","永和區"
"234015","745-BX","2017/10/05 14:03:37","新北市永和區文化路40號","121.514868333333","25.0151","6500400","永和區"
"234028","746-BX","2017/10/05 14:03:48","新北市永和區民生路47巷23號","121.524588333333","24.9977333333333","6500400","永和區"
"234060","AAD-866","2017/10/05 14:03:34","新北市永和區中正路165巷1號","121.516288333333","24.998565","6500400","永和區"
"234040","862-TW","2017/10/05 14:03:38","新北市永和區中和路421巷16弄1號","121.508616666667","25.0010566666667","6500400","永和區"
"234048","863-TW","2017/10/05 14:03:38","新北市永和區新生路259號","121.505676666667","25.0131733333333","6500400","永和區"
"234025","9371-KE","2017/10/05 14:03:39","新北市永和區安樂路300號","121.514406666667","25.0049016666667","6500400","永和區"
"234010","9373-KE","2017/10/05 14:03:37","新北市永和區仁愛路352巷94號","121.501156666667","25.007985","6500400","永和區"
"248015","026-BX","2017/10/05 14:03:31","新北市五股區凌雲路一段116巷6號","121.45038","25.1022466666667","6501500","五股區"
"248007","095-VK","2017/10/05 14:03:32","新北市五股區中興路一段128巷38號","121.465825","25.0753466666667","6501500","五股區"
"248017","225-UY","2017/10/05 14:03:39","新北市五股區民義路一段236-6號","121.427428333333","25.09124","6501500","五股區"
"248011","247-BX","2017/10/05 14:03:44","新北市五股區工商路66號","121.438828333333","25.0845966666667","6501500","五股區"
"248009","272-BY","2017/10/05 14:03:42","新北市五股區水碓一路23號","121.430596666667","25.0713116666667","6501500","五股區"
"248003","677-BX","2017/10/05 14:03:36","新北市五股區民義路一段218號","121.429373333333","25.0902583333333","6501500","五股區"
"248001","678-BX","2017/10/05 13:42:58","新北市五股區西雲路247號","121.449236666667","25.097995","6501500","五股區"
"234022","9380-KE","2017/10/05 14:03:41","新北市永和區光復街2巷16弄27號","121.518036666667","25.0163316666667","6500400","永和區"
"234076","969-R7","2017/10/05 14:03:39","新北市永和區民族街55號","121.51833","24.9981233333333","6500400","永和區"
"234072","AAC-211","2017/10/05 14:03:34","新北市永和區豫溪街163號","121.52163","25.0104783333333","6500400","永和區"
"234066","AAC-212","2017/10/05 14:03:33","新北市永和區保平路214巷1弄1號","121.50959","25.0061133333333","6500400","永和區"
"234001","AAC-295","2017/10/05 14:03:34","新北市永和區福和路378號","121.514178333333","25.0077866666667","6500400","永和區"
"244025","837-TS","2017/10/05 11:04:33","新北市林口區粉寮路二段160巷28號","121.405218333333","25.09076","6501700","林口區"
"243005","AAD-798","2017/10/05 14:03:39","新北市泰山區漢口街20號","121.423886666667","25.0363066666667","6501600","泰山區"
"243001","297-R6","2017/10/05 14:03:46","新北市泰山區明志路一段122巷31號","121.432493333333","25.0636416666667","6501600","泰山區"
"243007","380-SR","2017/10/05 14:03:43","新北市泰山區明志路一段286號","121.432036666667","25.0598966666667","6501600","泰山區"
"243006","421-VK","2017/10/05 14:03:47","新北市泰山區黎明路15號","121.42093","25.0631533333333","6501600","泰山區"
"243002","KEA-2215","2017/10/05 14:03:36","新北市泰山區明志路一段352巷32弄5號","121.429978333333","25.0593583333333","6501600","泰山區"
"243003","KEA-2216","2017/10/05 14:03:46","新北市泰山區明志路二段320巷6弄2號","121.425608333333","25.0463233333333","6501600","泰山區"
"243004","646-TV","2017/10/05 14:03:50","新北市泰山區明志路一段373巷9-1號","121.431305","25.0578583333333","6501600","泰山區"
"243008","680-BX","2017/10/05 14:03:40","新北市泰山區明志路二段277號","121.426805","25.0471766666667","6501600","泰山區"
"231002","002-UM","2017/10/05 14:03:34","新北市新店區中正路606號","121.534036666667","24.9883483333333","6500600","新店區"
"231028","046-UY","2017/10/05 14:03:36","新北市新店區安和路三段47-1號","121.518075","24.9821383333333","6500600","新店區"
"231030","047-UY","2017/10/05 14:03:47","新北市新店區安民街65巷21-2號","121.515241666667","24.9673583333333","6500600","新店區"
"231029","106-UY","2017/10/05 14:03:36","新北市新店區安忠路2號","121.514455","24.9634883333333","6500600","新店區"
"231018","107-UY","2017/10/05 14:03:36","新北市新店區中央路133巷27弄13號","121.531983333333","24.9736083333333","6500600","新店區"
"231011","110-UY","2017/10/05 14:03:35","新北市新店區中興路二段83號","121.546931666667","24.9711633333333","6500600","新店區"
"231021","187-VK","2017/10/05 14:03:33","新北市新店區新烏路二段40號","121.54484","24.9283683333333","6500600","新店區"
"231007","189-VK","2017/10/05 11:53:53","新北市新店區安華路28-1號","121.519556666667","24.961125","6500600","新店區"
"231017","215-TC","2017/10/05 14:03:40","新北市新店區北宜路二段82-1號","121.55355","24.9532616666667","6500600","新店區"
"231026","256-BX","2017/10/05 14:03:50","新北市新店區安康路一段355-10號","121.520733333333","24.963915","6500600","新店區"
"231023","AAD-862","2017/10/05 14:03:49","新北市新店區文中路51號","121.539801666667","24.9565916666667","6500600","新店區"
"231027","3712-VJ","2017/10/05 14:03:39","新北市新店區北宜路一段39巷20號","121.538738333333","24.9584066666667","6500600","新店區"
"231024","3713-VJ","2017/10/05 14:03:43","新北市新店區新生街13巷42-1號","121.538925","24.96651","6500600","新店區"
"231025","4716-K9","2017/10/05 14:03:45","新北市新店區中正路275巷35號","121.536705","24.97272","6500600","新店區"
"231038","4715-K9","2017/10/05 14:03:36","新北市新店區溪洲路121號","121.531461666667","24.962625","6500600","新店區"
"231036","512-UM","2017/10/05 14:03:46","新北市新店區安祥路109巷1弄100號","121.477875","24.9609316666667","6500600","新店區"
"231035","515-UM","2017/10/05 14:03:38","新北市新店區安康路二段85巷42號","121.51398","24.961825","6500600","新店區"
"231001","619-UM","2017/10/05 14:03:34","新北市新店區三民路22巷1號","121.537268333333","24.9712533333333","6500600","新店區"
"231003","641-BX","2017/10/05 14:03:38","新北市新店區中興路一段34號","121.538773333333","24.9586383333333","6500600","新店區"
"231034","645-TV","2017/10/05 14:03:41","新北市新店區達觀路12號","121.505658333333","24.9405633333333","6500600","新店區"
"231013","719-UM","2017/10/05 14:03:35","新北市新店區大豐路16巷16號","121.540796666667","24.9807483333333","6500600","新店區"
"231031","720-UM","2017/10/05 14:03:34","新北市新店區秀山路66號","121.530706666667","24.9608516666667","6500600","新店區"
"231005","897-TW","2017/10/05 14:03:38","新北市新店區中興路三段232號","121.543386666667","24.983485","6500600","新店區"
"231006","898-TW","2017/10/05 14:03:34","新北市新店區北宜路二段211號","121.55319","24.953355","6500600","新店區"
"231004","899-TW","2017/10/05 14:03:45","新北市新店區北新路二段183號","121.542813333333","24.977445","6500600","新店區"
"235030","003-UY","2017/10/05 14:03:38","新北市中和區中山路二段131巷5弄4號","121.502896666667","25.0028483333333","6500300","中和區"
"235028","005-UY","2017/10/05 14:03:41","新北市中和區泰和街44巷5號","121.498693333333","25.0003066666667","6500300","中和區"
"235027","006-UY","2017/10/05 14:03:48","新北市中和區中正路524號","121.488046666667","24.99461","6500300","中和區"
"235020","096-UM","2017/10/05 14:03:35","新北市中和區中正路1213號","121.480246666667","25.0094383333333","6500300","中和區"
"235003","097-UM","2017/10/05 14:03:46","新北市中和區秀朗路三段179號","121.524288333333","24.9908916666667","6500300","中和區"
"235029","098-UM","2017/10/05 14:03:43","新北市中和區莊敬路33號","121.500886666667","25.0049616666667","6500300","中和區"
"235004","150-BY","2017/10/05 14:03:43","新北市中和區保健路44巷7號","121.50922","24.996875","6500300","中和區"
"235022","151-BY","2017/10/05 14:03:43","新北市中和區連城路539號","121.480333333333","24.9949066666667","6500300","中和區"
"235019","183-VK","2017/10/05 14:03:49","新北市板橋區民族路276巷1弄25號","121.47064","25.006445","6500300","中和區"
"235002","185-VK","2017/10/05 14:03:44","新北市中和區立人街24-5號","121.518891666667","24.99413","6500300","中和區"
"235013","186-VK","2017/10/05 14:03:33","新北市中和區景新街175號","121.506721666667","24.9954933333333","6500300","中和區"
"235031","255-BX","2017/10/05 14:03:46","新北市中和區新生街168號","121.48358","25.0001566666667","6500300","中和區"
"235008","293-VK","2017/10/05 14:03:39","新北市中和區中興街161巷5弄1號","121.50073","24.9909366666667","6500300","中和區"
"235036","301-VK","2017/10/05 14:03:42","新北市中和區中山路二段65號","121.504145","25.0046683333333","6500300","中和區"
"235007","352-BY","2017/10/05 14:03:41","新北市中和區秀朗路三段175巷23號","121.525825","24.99097","6500300","中和區"
"235032","375-QA","2017/10/05 14:03:46","新北市中和區圓通路289號","121.495206666667","24.99271","6500300","中和區"
"235015","376-QA","2017/10/05 14:03:48","新北市中和區忠孝街11巷8號","121.510046666667","24.98316","6500300","中和區"
"235025","378-QA","2017/10/05 14:03:32","新北市中和區民有街3號","121.475596666667","25.0057383333333","6500300","中和區"
"235035","269-TV","2017/10/05 14:03:39","新北市中和區立德街32號","121.488901666667","25.0071716666667","6500300","中和區"
"235014","4979-A6","2017/10/05 14:03:36","新北市中和區復興路249巷11弄3號","121.503558333333","24.9897133333333","6500300","中和區"
"235033","4980-A6","2017/10/05 14:03:44","新北市中和區中和路219-3號","121.504208333333","25.00014","6500300","中和區"
"235006","551-UM","2017/10/05 14:03:36","新北市中和區秀朗路三段22巷6號","121.52604","24.9963383333333","6500300","中和區"
"235034","558-UM","2017/10/05 14:03:33","新北市中和區中和路192號","121.50515","24.9994066666667","6500300","中和區"
"235009","565-BX","2017/10/05 14:03:31","新北市中和區景新街467巷20弄84號","121.514493333333","24.9875866666667","6500300","中和區"
"235018","640-BX","2017/10/05 14:03:47","新北市中和區民享街30巷1號","121.47401","25.0034633333333","6500300","中和區"
"235024","647-TV","2017/10/05 14:03:36","新北市中和區中山路三段111號","121.47484","25.0060216666667","6500300","中和區"
"235011","732-UM","2017/10/05 14:03:44","新北市中和區興南路二段54巷2-4號","121.506078333333","24.9855066666667","6500300","中和區"
"235010","733-UM","2017/10/05 14:03:50","新北市中和區興南路二段33號","121.507868333333","24.9856133333333","6500300","中和區"
"235026","800-TS","2017/10/05 14:03:38","新北市中和區中山路二段340巷21-1號","121.493476666667","25.0032066666667","6500300","中和區"
"235021","801-TS","2017/10/05 14:03:34","新北市中和區民安街65巷5號","121.478815","24.99935","6500300","中和區"
"235005","802-TS","2017/10/05 14:03:45","新北市中和區中安街58號","121.51278","25.0022966666667","6500300","中和區"
"235016","805-TS","2017/10/05 14:03:46","新北市中和區興南路二段261巷6-5號","121.5022","24.9793483333333","6500300","中和區"
"235012","896-TW","2017/10/05 14:03:34","新北市中和區華新街93號","121.508586666667","24.9831816666667","6500300","中和區"
"235017","900-TW","2017/10/05 14:03:33","新北市中和區壽德街26號","121.466683333333","24.9943483333333","6500300","中和區"
"235001","AAC-213","2017/10/05 14:03:43","新北市中和區自立路99巷34號","121.523888333333","24.9944433333333","6500300","中和區"
"235023","AAC-215","2017/10/05 14:03:38","新北市中和區圓通路296-2號","121.487951666667","24.9891333333333","6500300","中和區"
"220013","072-UY","2017/10/05 14:03:43","新北市板橋區民族路273巷1號","121.470723333333","25.0071283333333","6500100","板橋區"
"220034","073-UY","2017/10/05 14:03:45","新北市板橋區中正路271號","121.455608333333","25.01874","6500100","板橋區"
"220105","075-UY","2017/10/05 14:03:45","新北市板橋區莒光路48-1號","121.470606666667","25.0243933333333","6500100","板橋區"
"220017","AAD-861","2017/10/05 14:03:47","新北市板橋區華興街72號","121.457326666667","25.0050133333333","6500100","板橋區"
"220016","120-SR","2017/10/05 14:03:44","新北市板橋區中山路二段443巷2號","121.480993333333","25.0205633333333","6500100","板橋區"
"247021","893-R6","2017/10/05 14:03:44","新北市蘆洲區民族路451號","121.467441666667","25.08867","6501400","蘆洲區"
"247019","500-BY","2017/10/05 14:03:30","新北市蘆洲區民族路422巷116號","121.472671666667","25.0942866666667","6501400","蘆洲區"
"247009","339-TH","2017/10/05 14:03:34","新北市蘆洲區三民路22號","121.47583","25.0824766666667","6501400","蘆洲區"
"247001","337-TH","2017/10/05 14:03:45","新北市蘆洲區永平街32巷37號","121.459456666667","25.0921916666667","6501400","蘆洲區"
"247003","336-TH","2017/10/05 14:03:34","新北市蘆洲區中華街6巷40號","121.462615","25.0824116666667","6501400","蘆洲區"
"247015","057-VK","2017/10/05 14:03:12","新北市蘆洲區光華路22巷19號","121.46875","25.084115","6501400","蘆洲區"
"247005","056-VK","2017/10/05 14:03:34","新北市蘆洲區九芎街109號","121.465685","25.0796516666667","6501400","蘆洲區"
"247007","053-VK","2017/10/05 14:03:31","新北市蘆洲區國道路二段88號","121.471476666667","25.0747816666667","6501400","蘆洲區"
"247013","007-UY","2017/10/05 14:03:33","新北市蘆洲區保和街69巷16號","121.46959","25.08543","6501400","蘆洲區"
"247017","001-UY","2017/10/05 14:03:42","新北市蘆洲區民族路319號","121.474311666667","25.0912533333333","6501400","蘆洲區"
"228005","097-TW","2017/10/05 14:02:56","新北市貢寮區美豐里雞母嶺街52-1號","121.888525","25.0684883333333","6502600","貢寮區"
"228004","212-TW","2017/10/05 14:03:50","新北市貢寮區雙玉里下雙溪街5號","121.913461666667","25.0173983333333","6502600","貢寮區"
"208004","AAC-292","2017/10/05 14:03:46","新北市金山區山城路10巷24弄10號","121.59444","25.201225","6502700","金山區"
"207002","749-BX","2017/10/05 14:03:41","新北市萬里區溪底里富士坪路21號","121.627381666667","25.1491383333333","6502800","萬里區"
"252005","073-UM","2017/10/05 14:03:38","新北市三芝區圓山里內柑宅25-2號","121.53912","25.2273516666667","6502100","三芝區"
"207001","662-BX","2017/10/05 14:03:48","新北市萬里區磺潭里清水18號","121.637783333333","25.1978716666667","6502800","萬里區"
"236066","105-UM","2017/10/05 14:03:47","新北市土城區金城路一段105號","121.4444","24.9730416666667","6501300","土城區"
"236040","107-UM","2017/10/05 14:03:49","新北市土城區裕生路64號","121.447575","24.98613","6501300","土城區"
"236028","253-BX","2017/10/05 14:03:44","新北市土城區城林路6巷80號","121.438428333333","24.9799033333333","6501300","土城區"
"236024","269-VK","2017/10/05 14:03:30","新北市土城區承天路1號","121.435773333333","24.9665233333333","6501300","土城區"
"236012","270-VK","2017/10/05 14:03:45","新北市土城區城林路6巷80號","121.4384","24.9797733333333","6501300","土城區"
"236033","271-VK","2017/10/05 14:03:46","新北市土城區中華路二段2號","121.439435","24.9796033333333","6501300","土城區"
"236018","401-BY","2017/10/05 14:03:33","新北市土城區城林路6巷80號","121.4386","24.9797516666667","6501300","土城區"
"236005","498-BY","2017/10/05 14:03:45","新北市土城區中央路一段48號","121.447725","24.989995","6501300","土城區"
"236076","752-BX","2017/10/05 14:03:46","新北市土城區永寧路32巷10弄75號","121.428585","24.96145","6501300","土城區"
"236056","912-UM","2017/10/05 14:03:47","新北市土城區中央路三段260號","121.427208333333","24.96398","6501300","土城區"
"236047","913-UM","2017/10/05 14:03:33","新北市土城區學士路123號","121.446556666667","24.9758933333333","6501300","土城區"
"236060","915-UM","2017/10/05 14:03:34","新北市土城區員林街65號","121.444073333333","24.9774216666667","6501300","土城區"
"236052","AAC-216","2017/10/05 14:03:43","新北市土城區中華路二段80號","121.438736666667","24.975835","6501300","土城區"
"242045","172-VK","2017/10/05 14:03:44","新北市樹林區八德街65-2號","121.400666666667","24.9693866666667","6500500","新莊區"
"221012","276-VK","2017/10/05 13:01:40","新北市汐止區汐萬路一段256巷3號","121.653453333333","25.0746433333333","6501100","汐止區"
"221032","280-BY","2017/10/05 14:03:40","新北市汐止區新興路63-1號","121.657293333333","25.0628266666667","6501100","汐止區"
"220027","145-BY","2017/10/05 14:03:43","新北市板橋區民權路202巷9弄29號","121.459431666667","25.015665","6500100","板橋區"
"220030","610-BX","2017/10/05 14:03:47","新北市板橋區篤行路二段136號","121.42976","24.9883516666667","6500100","板橋區"
"220050","245-BX","2017/10/05 14:03:49","新北市板橋區莊敬路123號","121.47192","25.0254016666667","6500100","板橋區"
"220040","267-BY","2017/10/05 14:03:35","新北市板橋區萬板路318號","121.477951666667","25.02524","6500100","板橋區"
"220004","276-BY","2017/10/05 14:03:48","新北市板橋區信義路150巷38號","121.457381666667","24.9918433333333","6500100","板橋區"
"220012","280-UM","2017/10/05 14:03:43","新北市板橋區中山路一段317號","121.471683333333","25.0149433333333","6500100","板橋區"
"220064","282-UM","2017/10/05 11:21:22","新北市板橋區華東街1-9號","121.448168333333","24.9948366666667","6500100","板橋區"
"220019","283-VK","2017/10/05 14:03:48","新北市板橋區忠孝路154巷42號","121.464185","25.00148","6500100","板橋區"
"220043","285-UM","2017/10/05 14:03:40","新北市板橋區光武街24-1號","121.467805","25.0256083333333","6500100","板橋區"
"220001","285-VK","2017/10/05 14:03:36","新北市板橋區懷仁街10巷18號","121.475336666667","25.0197216666667","6500100","板橋區"
"220031","286-VK","2017/10/05 14:03:41","新北市板橋區大觀路一段38巷158號","121.442295","25.0045716666667","6500100","板橋區"
"220029","287-VK","2017/10/05 14:03:39","新北市板橋區光華街19巷36號","121.453266666667","25.0120366666667","6500100","板橋區"
"220039","288-VK","2017/10/05 14:03:50","新北市板橋區互助街25巷9號","121.463151666667","25.0269966666667","6500100","板橋區"
"220009","293-UM","2017/10/05 14:03:28","新北市板橋區懷仁街85巷6號","121.477713333333","25.0185816666667","6500100","板橋區"
"220032","296-UM","2017/10/05 14:03:33","新北市板橋區大觀路二段279號","121.442573333333","24.9989633333333","6500100","板橋區"
"220023","297-UM","2017/10/05 14:03:38","新北市板橋區南雅西路二段103號","121.452575","25.0107183333333","6500100","板橋區"
"242001","281-VK","2017/10/05 14:03:34","新北市新莊區中港路255巷6號","121.453471666667","25.043115","6500500","新莊區"
"220010","305-R5","2017/10/05 14:03:38","新北市中和區永和路522號","121.482135","25.0123466666667","6500100","板橋區"
"220041","307-R5","2017/10/05 14:03:37","新北市板橋區文化路一段140號","121.465406666667","25.0188383333333","6500100","板橋區"
"220047","317-R6","2017/10/05 14:03:38","新北市板橋區四維路152號","121.465071666667","25.025785","6500100","板橋區"
"220028","461-BY","2017/10/05 14:03:42","新北市板橋區大觀路二段265巷1弄14號","121.44349","24.9984833333333","6500100","板橋區"
"220038","487-VK","2017/10/05 14:03:48","新北市板橋區長江路三段132號","121.475553333333","25.0346333333333","6500100","板橋區"
"220037","491-VK","2017/10/05 14:03:45","新北市板橋區文化路二段126號","121.469961666667","25.02646","6500100","板橋區"
"220104","560-BX","2017/10/05 14:03:29","新北市板橋區中正路379巷3弄6號","121.453325","25.0213983333333","6500100","板橋區"
"220052","561-BX","2017/10/05 14:03:40","新北市板橋區介壽街70號","121.46974","25.01901","6500100","板橋區"
"220011","609-BX","2017/10/05 14:03:46","新北市板橋區中山路二段260號","121.47889","25.0184166666667","6500100","板橋區"
"220002","630-UY","2017/10/05 14:03:46","新北市板橋區後埔街79號","121.460713333333","25.005435","6500100","板橋區"
"220005","686-BX","2017/10/05 14:03:45","新北市板橋區重慶路103號","121.462086666667","25.0054083333333","6500100","板橋區"
"220025","687-BX","2017/10/05 14:03:45","新北市板橋區大觀路二段156巷49號","121.441043333333","24.99995","6500100","板橋區"
"220042","689-BX","2017/10/05 14:03:48","新北市板橋區光武街125巷12號","121.465396666667","25.0282733333333","6500100","板橋區"
"220003","827-TW","2017/10/05 14:03:40","新北市板橋區中山路一段156號","121.46508","25.0116216666667","6500100","板橋區"
"220014","829-TW","2017/10/05 14:03:35","新北市板橋區三民路二段138巷1弄3號","121.4788","25.0153016666667","6500100","板橋區"
"220051","830-TW","2017/10/05 14:03:36","新北市板橋區田單街2巷15號","121.481941666667","25.0285483333333","6500100","板橋區"
"220045","831-TW","2017/10/05 14:03:32","新北市板橋區莒光路139號","121.473366666667","25.0241083333333","6500100","板橋區"
"220022","895-R6","2017/10/05 14:03:40","新北市板橋區南雅南路一段131號","121.455096666667","25.0042066666667","6500100","板橋區"
"220021","985-R7","2017/10/05 14:03:35","新北市板橋區西門街59號","121.454435","25.0092066666667","6500100","板橋區"
"220046","AAC-210","2017/10/05 14:03:45","新北市板橋區幸福路70巷3號","121.460556666667","25.020165","6500100","板橋區"
"220018","AAC-253","2017/10/05 14:03:50","新北市板橋區四川路一段338號","121.456861666667","24.9968366666667","6500100","板橋區"
