"lineid","car","time","location","longitude","latitude","cityid","cityname"
"234028","746-BX","2017/10/05 15:06:28","新北市樹林區民和街1號","121.385433333333","24.9682433333333","6500400","永和區"
"234048","863-TW","2017/10/05 15:06:18","新北市樹林區育德街45號","121.391606666667","24.9702883333333","6500400","永和區"
"234025","9371-KE","2017/10/05 15:06:19","新北市永和區保生路64號","121.505151666667","25.0090533333333","6500400","永和區"
"248015","026-BX","2017/10/05 15:06:38","新北市五股區凌雲路一段158巷48弄1號","121.44708","25.10426","6501500","五股區"
"248007","095-VK","2017/10/05 15:06:32","新北市五股區四維路153號","121.467671666667","25.0745583333333","6501500","五股區"
"248017","225-UY","2017/10/05 15:05:39","新北市五股區登林路126-2號","121.410988333333","25.078075","6501500","五股區"
"248011","247-BX","2017/10/05 15:06:30","新北市五股區工商路82-1號","121.438156666667","25.0850533333333","6501500","五股區"
"248013","261-SL","2017/10/05 15:06:22","新北市五股區成泰路三段83號","121.443913333333","25.0901016666667","6501500","五股區"
"248003","677-BX","2017/10/05 15:06:36","新北市五股區成泰路一段173-1號","121.435171666667","25.0748733333333","6501500","五股區"
"244003","657-BX","2017/10/05 15:06:29","新北市林口區竹林路265號","121.389653333333","25.0807333333333","6501700","林口區"
"244025","837-TS","2017/10/05 11:04:33","新北市林口區粉寮路二段160巷28號","121.405218333333","25.09076","6501700","林口區"
"243005","AAD-798","2017/10/05 15:06:19","新北市泰山區明志路二段228號","121.427088333333","25.048385","6501600","泰山區"
"243001","297-R6","2017/10/05 15:06:26","新北市泰山區泰林路二段292巷13號","121.431256666667","25.06368","6501600","泰山區"
"243007","380-SR","2017/10/05 15:06:23","新北市泰山區仁德路135號","121.432286666667","25.05596","6501600","泰山區"
"243006","421-VK","2017/10/05 15:06:27","新北市泰山區泰林路三段17巷3號","121.420548333333","25.0644083333333","6501600","泰山區"
"243002","KEA-2215","2017/10/05 15:06:36","新北市泰山區公園路23號","121.429086666667","25.054315","6501600","泰山區"
"243003","KEA-2216","2017/10/05 15:06:25","新北市泰山區新北大道六段313巷13弄11號","121.424595","25.0339866666667","6501600","泰山區"
"243004","646-TV","2017/10/05 15:06:30","新北市泰山區美寧街104號","121.432381666667","25.0644833333333","6501600","泰山區"
"243008","680-BX","2017/10/05 15:06:29","新北市泰山區新生路28號","121.429126666667","25.0445116666667","6501600","泰山區"
"231002","002-UM","2017/10/05 15:06:34","新北市新店區中正路501-2號","121.533708333333","24.9837016666667","6500600","新店區"
"231028","046-UY","2017/10/05 15:06:35","新北市新店區僑信路66號","121.499395","24.9491133333333","6500600","新店區"
"231030","047-UY","2017/10/05 15:06:27","新北市新店區安民街339號","121.516896666667","24.9748933333333","6500600","新店區"
"231029","106-UY","2017/10/05 15:06:36","新北市新店區安康路三段740號","121.473836666667","24.9419066666667","6500600","新店區"
"231018","107-UY","2017/10/05 15:06:36","新北市新店區中央路200號","121.530621666667","24.97425","6500600","新店區"
"231011","110-UY","2017/10/05 15:06:35","新北市新店區寶元路一段61號","121.542153333333","24.985885","6500600","新店區"
"231021","187-VK","2017/10/05 15:06:33","新北市新店區永福路38-1號","121.552973333333","24.929335","6500600","新店區"
"231007","189-VK","2017/10/05 11:53:53","新北市新店區安華路28-1號","121.519556666667","24.961125","6500600","新店區"
"231017","215-TC","2017/10/05 15:06:20","新北市新店區明山路28號","121.562575","24.954525","6500600","新店區"
"231026","256-BX","2017/10/05 15:06:28","新北市新店區建國路60巷5號","121.541303333333","24.975755","6500600","新店區"
"231023","AAD-862","2017/10/05 15:06:29","新北市新店區檳榔路109號","121.544453333333","24.96174","6500600","新店區"
"231024","3713-VJ","2017/10/05 15:06:23","新北市新店區中華路50號","121.539786666667","24.9684716666667","6500600","新店區"
"231025","4716-K9","2017/10/05 15:06:25","新北市新店區大同街8巷2號","121.53975","24.98009","6500600","新店區"
"231036","512-UM","2017/10/05 15:06:29","新北市新店區安祥路102巷113號","121.486501666667","24.9642116666667","6500600","新店區"
"231035","515-UM","2017/10/05 15:06:38","新北市新店區永安街56巷16號","121.518716666667","24.985925","6500600","新店區"
"231001","619-UM","2017/10/05 15:06:34","新北市新店區中正路261號","121.53875","24.97364","6500600","新店區"
"231003","641-BX","2017/10/05 15:06:18","新北市新店區中興路二段233號","121.547563333333","24.9749916666667","6500600","新店區"
"231034","645-TV","2017/10/05 15:06:21","新北市新店區玫瑰路4-1號","121.493585","24.9513816666667","6500600","新店區"
"231039","718-UY","2017/10/05 15:06:32","新北市新店區民權路19號","121.54199","24.982875","6500600","新店區"
"231005","897-TW","2017/10/05 15:06:38","新北市新店區寶慶街58巷21-1號","121.54201","24.9873166666667","6500600","新店區"
"231006","898-TW","2017/10/05 15:06:34","新北市新店區北宜路一段109巷2-1號","121.539785","24.9548283333333","6500600","新店區"
"231004","899-TW","2017/10/05 15:06:25","新北市新店區民族路65號","121.539705","24.9783183333333","6500600","新店區"
"231037","AKT-0513","2017/10/05 15:06:31","新北市新店區柴埕路47號","121.514308333333","24.9651733333333","6500600","新店區"
"241026","156-TC","2017/10/05 15:06:29","新北市三重區重新路四段121號","121.484918333333","25.05239","6500200","三重區"
"235030","003-UY","2017/10/05 15:06:35","新北市中和區水源路120號","121.507126666667","25.0033716666667","6500300","中和區"
"235020","096-UM","2017/10/05 15:06:34","新北市中和區中山路三段170巷2弄17號","121.473356666667","25.0067633333333","6500300","中和區"
"235003","097-UM","2017/10/05 15:06:25","新北市中和區安樂路145號","121.514421666667","24.996955","6500300","中和區"
"235029","098-UM","2017/10/05 15:06:23","新北市中和區永和路128巷8號","121.496976666667","25.0067933333333","6500300","中和區"
"235004","150-BY","2017/10/05 15:06:23","新北市中和區保健路50巷1-2號","121.510418333333","24.9968083333333","6500300","中和區"
"235022","151-BY","2017/10/05 15:06:21","新北市中和區中正路752號","121.485478333333","24.998785","6500300","中和區"
"235036","301-VK","2017/10/05 15:06:22","新北市樹林區佳園路三段95號","121.387846666667","24.952095","6500300","中和區"
"235007","352-BY","2017/10/05 15:06:21","新北市中和區興南路二段159巷7號","121.505305","24.9830733333333","6500300","中和區"
"235032","375-QA","2017/10/05 15:06:26","新北市中和區景平路719號","121.496503333333","25.0039533333333","6500300","中和區"
"235015","376-QA","2017/10/05 15:06:34","新北市中和區景安路225號","121.504303333333","24.99131","6500300","中和區"
"235035","269-TV","2017/10/05 15:06:19","新北市中和區中正路908號","121.483721666667","25.007155","6500300","中和區"
"235014","4979-A6","2017/10/05 15:06:16","新北市中和區景新街272號","121.510678333333","24.9923466666667","6500300","中和區"
"235033","4980-A6","2017/10/05 15:06:34","新北市中和區中和路137號","121.501783333333","24.99985","6500300","中和區"
"235034","558-UM","2017/10/05 15:06:32","新北市中和區連勝街24號","121.49842","24.9980016666667","6500300","中和區"
"235018","640-BX","2017/10/05 15:06:27","新北市中和區莒光路11號","121.471931666667","25.0058","6500300","中和區"
"235011","732-UM","2017/10/05 15:06:24","新北市板橋區民生路一段81號","121.474976666667","25.0137216666667","6500300","中和區"
"235010","733-UM","2017/10/05 15:06:19","新北市中和區興南路一段93巷42號","121.510488333333","24.9864183333333","6500300","中和區"
"235026","800-TS","2017/10/05 15:06:18","新北市中和區中山路二段321-1號","121.49368","25.0020283333333","6500300","中和區"
"235021","801-TS","2017/10/05 15:06:34","新北市板橋區長江路二段311巷18-1號","121.469976666667","25.0359733333333","6500300","中和區"
"235012","896-TW","2017/10/05 15:06:34","新北市中和區興南路二段49號","121.507326666667","24.9854233333333","6500300","中和區"
"235017","900-TW","2017/10/05 15:06:33","新北市中和區國光街140號","121.468433333333","25.0012966666667","6500300","中和區"
"235001","AAC-213","2017/10/05 15:06:23","新北市中和區立人街1號","121.521961666667","24.99392","6500300","中和區"
"235023","AAC-215","2017/10/05 15:06:29","新北市中和區圓通路335巷3弄2號","121.492575","24.9901066666667","6500300","中和區"
"220034","015-TV","2017/10/05 15:06:28","新北市板橋區西門街18-3號","121.454515","25.0112133333333","6500100","板橋區"
"220013","072-UY","2017/10/05 15:06:29","新北市板橋區海山路41號","121.467133333333","25.009815","6500100","板橋區"
"220105","075-UY","2017/10/05 15:06:22","新北市板橋區民治街71巷1弄5號","121.480136666667","25.0327833333333","6500100","板橋區"
"220017","AAD-861","2017/10/05 15:06:30","新北市板橋區大明街28號","121.458358333333","25.002615","6500100","板橋區"
"220016","120-SR","2017/10/05 15:06:23","新北市板橋區中山路二段371號","121.479923333333","25.0191766666667","6500100","板橋區"
"247007","053-VK","2017/10/05 15:05:51","新北市五股區中直路31號","121.419413333333","25.1129083333333","6501400","蘆洲區"
"228004","212-TW","2017/10/05 15:06:30","新北市貢寮區雙玉里田寮洋街6號","121.926423333333","25.0223066666667","6502600","貢寮區"
"208004","AAC-292","2017/10/05 15:06:25","新北市金山區半嶺7-6號","121.613928333333","25.236425","6502700","金山區"
"207002","749-BX","2017/10/05 15:06:30","新北市萬里區崁腳里內中福路97號","121.6538","25.1640233333333","6502800","萬里區"
"252005","073-UM","2017/10/05 15:06:37","新北市三芝區中正路三段9號","121.502908333333","25.2539066666667","6502100","三芝區"
"207001","662-BX","2017/10/05 15:06:28","新北市萬里區雙興里豐稟路4-1號","121.648301666667","25.1856133333333","6502800","萬里區"
"236066","105-UM","2017/10/05 15:06:27","新北市土城區裕民路41號","121.448486666667","24.9882633333333","6501300","土城區"
"236040","107-UM","2017/10/05 15:06:29","新北市土城區學士路13號","121.453611666667","24.9829416666667","6501300","土城區"
"236028","253-BX","2017/10/05 15:06:36","新北市土城區中央路二段14巷15-1號","121.442185","24.9807433333333","6501300","土城區"
"236024","269-VK","2017/10/05 15:06:30","新北市土城區中正路56巷2號","121.443783333333","24.9753466666667","6501300","土城區"
"236012","270-VK","2017/10/05 15:06:25","新北市土城區學府路一段37巷21號","121.457758333333","24.9877583333333","6501300","土城區"
"236033","271-VK","2017/10/05 15:06:27","新北市土城區清水路98巷3弄5號","121.457735","24.9810816666667","6501300","土城區"
"236018","401-BY","2017/10/05 15:06:33","新北市土城區延吉街217巷1弄2號","121.468643333333","24.9849516666667","6501300","土城區"
"236076","752-BX","2017/10/05 15:06:06","新北市土城區大暖坑11-2號","121.418683333333","24.95375","6501300","土城區"
"236056","912-UM","2017/10/05 15:06:27","新北市土城區金城路二段235號","121.45567","24.982445","6501300","土城區"
"236047","913-UM","2017/10/05 15:06:32","新北市土城區明德路一段398-1號","121.453653333333","24.97907","6501300","土城區"
"236052","AAC-216","2017/10/05 15:06:23","新北市土城區學成路10號","121.45336","24.9866216666667","6501300","土城區"
"238002","755-BX","2017/10/05 15:06:31","新北市樹林區育德街78-1號","121.388091666667","24.9680983333333","6500700","樹林區"
"238010","601-UM","2017/10/05 15:06:28","新北市樹林區育德街78號","121.387563333333","24.9683333333333","6500700","樹林區"
"238006","599-UM","2017/10/05 15:06:12","新北市樹林區中山路三段204號","121.387231666667","24.96817","6500700","樹林區"
"238011","5061-A6","2017/10/05 15:06:24","新北市樹林區育德街78-1號","121.388351666667","24.9681883333333","6500700","樹林區"
"238008","KEA-2217","2017/10/05 15:06:31","新北市樹林區育德街78-1號","121.387865","24.9683","6500700","樹林區"
"238009","KEA-2213","2017/10/05 15:06:21","新北市樹林區育德街78-1號","121.387371666667","24.9680316666667","6500700","樹林區"
"238005","308-TH","2017/10/05 15:06:23","新北市樹林區環河路10-1號","121.424628333333","24.9762183333333","6500700","樹林區"
"238012","303-VK","2017/10/05 15:06:16","新北市樹林區中山路三段204號","121.387235","24.9682533333333","6500700","樹林區"
"238004","283-BY","2017/10/05 15:06:21","新北市樹林區中山路三段204號","121.387271666667","24.9681516666667","6500700","樹林區"
"238001","282-BY","2017/10/05 15:06:20","新北市樹林區育德街78-1號","121.387731666667","24.9680033333333","6500700","樹林區"
"238007","268-VK","2017/10/05 15:06:22","新北市樹林區育德街78-1號","121.387423333333","24.9682833333333","6500700","樹林區"
"238013","172-UY","2017/10/05 15:06:25","新北市樹林區育德街78-1號","121.387685","24.96807","6500700","樹林區"
"238003","169-UY","2017/10/05 15:06:22","新北市樹林區大安路616號","121.411406666667","24.98291","6500700","樹林區"
"221012","276-VK","2017/10/05 13:01:40","新北市汐止區汐萬路一段256巷3號","121.653453333333","25.0746433333333","6501100","汐止區"
"220030","610-BX","2017/10/05 15:06:27","新北市板橋區溪北路72號","121.427981666667","24.9896566666667","6500100","板橋區"
"220050","245-BX","2017/10/05 15:06:29","新北市板橋區莒光路176號","121.473943333333","25.0229516666667","6500100","板橋區"
"220040","267-BY","2017/10/05 15:06:35","新北市板橋區懷德街174巷18弄5號","121.478615","25.029855","6500100","板橋區"
"220012","280-UM","2017/10/05 15:06:23","新北市板橋區館前東路63-9號","121.463973333333","25.0079433333333","6500100","板橋區"
"220064","282-UM","2017/10/05 11:21:22","新北市板橋區華東街1-9號","121.448168333333","24.9948366666667","6500100","板橋區"
"220019","283-VK","2017/10/05 15:06:28","新北市板橋區和平路174巷49號","121.465563333333","24.99363","6500100","板橋區"
"220043","285-UM","2017/10/05 15:06:37","新北市板橋區陽明街239號","121.462971666667","25.0244916666667","6500100","板橋區"
"220001","285-VK","2017/10/05 15:06:36","新北市板橋區永豐街155號","121.475371666667","25.0202716666667","6500100","板橋區"
"220031","286-VK","2017/10/05 15:06:34","新北市板橋區僑中二街50號","121.446755","25.0104083333333","6500100","板橋區"
"220029","287-VK","2017/10/05 15:00:39","新北市板橋區僑中一街80巷5弄1號","121.447661666667","25.0122716666667","6500100","板橋區"
"220039","288-VK","2017/10/05 15:06:29","新北市板橋區新海路135巷25號","121.46024","25.0231166666667","6500100","板橋區"
"220009","293-UM","2017/10/05 15:06:28","新北市板橋區中山路一段156號","121.465201666667","25.0116516666667","6500100","板橋區"
"220032","296-UM","2017/10/05 15:06:33","新北市樹林區博愛街187號","121.424773333333","24.9888866666667","6500100","板橋區"
"220023","297-UM","2017/10/05 15:06:29","新北市板橋區金華街10巷48弄79-3號","121.459845","25.02039","6500100","板橋區"
"242001","281-VK","2017/10/05 15:06:34","新北市新莊區碧江街27號","121.453738333333","25.0337116666667","6500500","新莊區"
"220010","305-R5","2017/10/05 15:06:38","新北市板橋區懷德街139巷20弄25-15號","121.482153333333","25.0313766666667","6500100","板橋區"
"220041","307-R5","2017/10/05 15:06:33","新北市板橋區裕民街131號","121.459108333333","25.02733","6500100","板橋區"
"220047","317-R6","2017/10/05 15:06:36","新北市板橋區新海路72巷14號","121.462521666667","25.02211","6500100","板橋區"
"220028","461-BY","2017/10/05 15:06:22","新北市板橋區大觀路二段179巷25號","121.44591","24.9997083333333","6500100","板橋區"
"220038","487-VK","2017/10/05 15:06:37","新北市板橋區新海路403巷3號","121.458356666667","25.0266016666667","6500100","板橋區"
"220037","491-VK","2017/10/05 15:06:25","新北市板橋區懷德街172巷1號","121.479331666667","25.030045","6500100","板橋區"
"220052","561-BX","2017/10/05 15:06:37","新北市板橋區自由路48號","121.465926666667","25.023365","6500100","板橋區"
"220011","609-BX","2017/10/05 15:06:19","新北市板橋區中山路二段318巷4號","121.480191666667","25.0191983333333","6500100","板橋區"
"220002","630-UY","2017/10/05 15:06:36","新北市板橋區忠孝路忠義巷24弄2號","121.467161666667","25.004005","6500100","板橋區"
"220005","686-BX","2017/10/05 15:06:34","新北市板橋區四川路二段59號","121.453598333333","24.9950383333333","6500100","板橋區"
"220025","687-BX","2017/10/05 15:06:25","新北市板橋區僑中一街150號","121.444786666667","25.0120966666667","6500100","板橋區"
"220042","689-BX","2017/10/05 15:06:28","新北市板橋區長江路二段205號","121.467681666667","25.032345","6500100","板橋區"
"220003","827-TW","2017/10/05 15:06:30","新北市板橋區國慶路149巷38弄2號","121.461236666667","24.9980366666667","6500100","板橋區"
"220014","829-TW","2017/10/05 15:06:35","新北市板橋區中山路一段256號","121.471683333333","25.014695","6500100","板橋區"
"220051","830-TW","2017/10/05 15:06:17","新北市板橋區懷德街76巷7號","121.477786666667","25.0317266666667","6500100","板橋區"
"220045","831-TW","2017/10/05 15:06:32","新北市板橋區莒光路40巷18號","121.470163333333","25.0235533333333","6500100","板橋區"
"220022","895-R6","2017/10/05 15:06:19","新北市板橋區南雅南路一段3巷25-15號","121.456646666667","25.0055166666667","6500100","板橋區"
"220046","AAC-210","2017/10/05 15:06:25","新北市板橋區光正街9巷22弄2號","121.46262","25.0165366666667","6500100","板橋區"
"220018","AAC-253","2017/10/05 15:06:30","新北市板橋區成都街18號","121.46063","25.0048416666667","6500100","板橋區"
