"lineid","car","time","location","longitude","latitude","cityid","cityname"
"234046","148-BY","2017/10/05 18:50:03","新北市永和區永元路40巷44弄1號","121.52355","25.00058","6500400","永和區"
"234013","149-BY","2017/10/05 18:50:00","新北市永和區保福路二段133巷34號","121.508843333333","25.013375","6500400","永和區"
"234007","207-UY","2017/10/05 18:49:49","新北市永和區永和路二段243號","121.515776666667","25.014825","6500400","永和區"
"234081","298-R6","2017/10/05 18:49:42","新北市永和區永利路108號","121.521253333333","25.0034216666667","6500400","永和區"
"234038","336-UY","2017/10/05 18:49:53","新北市永和區成功路二段75號","121.526818333333","24.9996266666667","6500400","永和區"
"234064","337-UY","2017/10/05 18:50:02","新北市永和區環河東路二段90號","121.524335","25.0108183333333","6500400","永和區"
"234086","338-UY","2017/10/05 18:49:47","新北市中和區安樂路99號","121.513208333333","24.99492","6500400","永和區"
"234070","552-UM","2017/10/05 18:49:46","新北市永和區中興街100號","121.519053333333","25.0120716666667","6500400","永和區"
"234054","553-UM","2017/10/05 18:49:47","新北市永和區竹林路66巷2號","121.518171666667","25.0134583333333","6500400","永和區"
"234017","745-BX","2017/10/05 18:49:46","新北市永和區永和路二段299號","121.515978333333","25.01626","6500400","永和區"
"234030","746-BX","2017/10/05 18:50:01","新北市永和區得和路345號","121.523905","24.9995316666667","6500400","永和區"
"234061","AAD-866","2017/10/05 18:50:00","新北市永和區福和路315號","121.516026666667","25.00712","6500400","永和區"
"234042","862-TW","2017/10/05 18:49:55","新北市永和區永貞路261號","121.51206","25.004655","6500400","永和區"
"234050","863-TW","2017/10/05 18:49:53","新北市永和區保安路2號","121.510823333333","25.01752","6500400","永和區"
"234026","9371-KE","2017/10/05 18:49:56","新北市永和區自由街58號","121.51375","25.0059333333333","6500400","永和區"
"234011","9373-KE","2017/10/05 18:50:01","新北市永和區仁愛路31巷2弄2號","121.514221666667","25.0129683333333","6500400","永和區"
"249005","172-UM","2017/10/05 18:49:57","新北市八里區長道坑16-3號","121.39531","25.1154366666667","6502300","八里區"
"249001","173-UM","2017/10/05 18:49:52","新北市八里區龍米路二段16號","121.448946666667","25.13903","6502300","八里區"
"249004","303-UY","2017/10/05 18:49:40","新北市八里區忠孝路423號","121.414571666667","25.1614416666667","6502300","八里區"
"248016","026-BX","2017/10/05 18:49:59","新北市五股區凌雲路一段136號","121.449615","25.1021966666667","6501500","五股區"
"248006","077-UY","2017/10/05 18:49:46","新北市五股區四維路1巷3-1號","121.466","25.0703483333333","6501500","五股區"
"248008","095-VK","2017/10/05 18:50:04","新北市五股區中興路一段149號","121.465155","25.073615","6501500","五股區"
"248020","225-UY","2017/10/05 18:49:42","新北市五股區凌雲路三段86號","121.43031","25.1183216666667","6501500","五股區"
"248012","247-BX","2017/10/05 18:49:47","新北市五股區成泰路二段147巷5-17號","121.437153333333","25.0881183333333","6501500","五股區"
"248014","261-SL","2017/10/05 18:49:57","新北市五股區成泰路二段250號","121.440418333333","25.0872266666667","6501500","五股區"
"248010","272-BY","2017/10/05 18:49:50","新北市五股區水碓九路33號","121.428753333333","25.0719816666667","6501500","五股區"
"248004","677-BX","2017/10/05 18:49:48","新北市五股區民義路二段50-16號","121.413095","25.10205","6501500","五股區"
"248002","678-BX","2017/10/05 17:52:25","新北市五股區中興路二段37巷28號","121.460155","25.0748916666667","6501500","五股區"
"234023","9380-KE","2017/10/05 18:49:50","新北市永和區竹林路119巷45號","121.52187","25.0118083333333","6500400","永和區"
"234077","969-R7","2017/10/05 18:50:00","新北市永和區中正路42巷12號","121.513418333333","24.994105","6500400","永和區"
"234074","AAC-211","2017/10/05 18:49:47","新北市永和區福和路1號","121.526448333333","25.0098166666667","6500400","永和區"
"234067","AAC-212","2017/10/05 18:49:53","新北市永和區中和路625號","121.513028333333","25.0049316666667","6500400","永和區"
"234003","AAC-295","2017/10/05 18:49:48","新北市永和區中正路637號","121.515366666667","25.01011","6500400","永和區"
"232011","375-UM","2017/10/05 18:49:50","新北市坪林區坪碇路83號","121.711823333333","24.938515","6502000","坪林區"
"244013","069-UM","2017/10/05 18:49:58","新北市林口區文化一路一段133號","121.373901666667","25.07168","6501700","林口區"
"244007","080-UY","2017/10/05 18:49:46","新北市林口區後湖47號","121.386266666667","25.0998733333333","6501700","林口區"
"244019","403-UM","2017/10/05 18:49:53","新北市林口區忠孝路622巷2號","121.377773333333","25.0682533333333","6501700","林口區"
"244009","410-SL","2017/10/05 18:49:47","新北市林口區竹林路320巷15號","121.391313333333","25.08209","6501700","林口區"
"244023","483-VK","2017/10/05 18:49:47","新北市林口區民權路110號","121.373686666667","25.083","6501700","林口區"
"244017","485-VK","2017/10/05 18:49:57","新北市林口區文化二路一段68巷12-1號","121.366128333333","25.068055","6501700","林口區"
"244011","656-BX","2017/10/05 18:49:52","新北市林口區新寮2號","121.392568333333","25.0762283333333","6501700","林口區"
"244025","837-TS","2017/10/05 18:49:49","新北市林口區忠孝一路158號","121.359578333333","25.0738933333333","6501700","林口區"
"243013","AAD-798","2017/10/05 18:49:57","新北市泰山區明志路三段206巷1號","121.42332","25.037905","6501600","泰山區"
"243009","297-R6","2017/10/05 18:49:46","新北市泰山區黎明路23-1號","121.421586666667","25.0611966666667","6501600","泰山區"
"243015","380-SR","2017/10/05 18:50:01","新北市泰山區憲訓路3號","121.428903333333","25.06409","6501600","泰山區"
"243010","KEA-2215","2017/10/05 18:49:58","新北市泰山區泰林路二段286號","121.431171666667","25.0625","6501600","泰山區"
"243012","646-TV","2017/10/05 18:49:55","新北市泰山區福興三街13號","121.434456666667","25.0577416666667","6501600","泰山區"
"243016","680-BX","2017/10/05 18:49:45","新北市泰山區明志路二段135號","121.427753333333","25.050795","6501600","泰山區"
"222003","436-BY","2017/10/05 18:49:54","新北市深坑區翠谷街17巷20號","121.626025","25.0095033333333","6501800","深坑區"
"222002","659-BX","2017/10/05 18:49:42","新北市深坑區文山路一段69號","121.627008333333","25.0018616666667","6501800","深坑區"
"222001","696-SL","2017/10/05 18:49:50","新北市深坑區松柏街42號","121.638768333333","25.0115616666667","6501800","深坑區"
"231041","002-UM","2017/10/05 18:49:47","新北市新店區安華路28-1號","121.519653333333","24.9608633333333","6500600","新店區"
"231059","046-UY","2017/10/05 18:49:56","新北市新店區安華路28-1號","121.5196","24.96083","6500600","新店區"
"231061","047-UY","2017/10/05 18:49:49","新北市新店區安華路28-1號","121.519275","24.9608716666667","6500600","新店區"
"231060","106-UY","2017/10/05 18:49:48","新北市新店區安華路28-1號","121.519666666667","24.96079","6500600","新店區"
"231051","107-UY","2017/10/05 18:50:00","新北市新店區中央路63號","121.53265","24.9770133333333","6500600","新店區"
"231047","110-UY","2017/10/05 18:49:47","新北市新店區德正街21巷2號","121.543946666667","24.9720633333333","6500600","新店區"
"231052","187-VK","2017/10/05 18:49:52","新北市新店區長興路21號","121.54649","24.9398883333333","6500600","新店區"
"231007","189-VK","2017/10/05 11:53:53","新北市新店區安華路28-1號","121.519556666667","24.961125","6500600","新店區"
"231050","215-TC","2017/10/05 18:49:59","新北市新店區安康路一段355-3號","121.519828333333","24.962265","6500600","新店區"
"231057","256-BX","2017/10/05 18:49:56","新北市新店區金興路36號","121.553005","24.93055","6500600","新店區"
"231046","278-BY","2017/10/05 18:49:49","新北市新店區直潭路71號","121.532395","24.9422283333333","6500600","新店區"
"231054","AAD-862","2017/10/05 18:49:45","新北市新店區秀山路72號","121.531376666667","24.9608566666667","6500600","新店區"
"231044","355-BY","2017/10/05 18:49:53","新北市新店區中正路9號","121.545568333333","24.9694316666667","6500600","新店區"
"231058","3712-VJ","2017/10/05 18:49:58","新北市新店區北宜路一段105巷4弄3-1號","121.539995","24.9556283333333","6500600","新店區"
"231055","3713-VJ","2017/10/05 18:49:47","新北市新店區新生街55號","121.538793333333","24.9669566666667","6500600","新店區"
"231056","4716-K9","2017/10/05 18:50:02","新北市新店區大豐路68巷24號","121.53868","24.9802183333333","6500600","新店區"
"231067","4772-VM","2017/10/05 18:49:50","新北市新店區安康路一段106巷14號","121.5278","24.962955","6500600","新店區"
"231065","512-UM","2017/10/05 18:50:01","新北市新店區安豐路49號","121.500095","24.95408","6500600","新店區"
"231064","515-UM","2017/10/05 18:49:56","新北市新店區安華路28-1號","121.519468333333","24.9612416666667","6500600","新店區"
"231040","619-UM","2017/10/05 18:49:42","新北市新店區中央路59號","121.53273","24.9773283333333","6500600","新店區"
"231042","641-BX","2017/10/05 18:49:56","新北市新店區光明街187號","121.539791666667","24.9634116666667","6500600","新店區"
"231063","645-TV","2017/10/05 18:49:53","新北市新店區車子路20號","121.505286666667","24.9545516666667","6500600","新店區"
"231049","719-UM","2017/10/05 18:49:52","新北市新店區中正路454-5號","121.534428333333","24.97904","6500600","新店區"
"231062","720-UM","2017/10/05 18:49:56","新北市新店區安華路30巷3號","121.518798333333","24.958605","6500600","新店區"
"231045","898-TW","2017/10/05 18:49:57","新北市新店區安康路一段164-1號","121.525971666667","24.963015","6500600","新店區"
"231043","899-TW","2017/10/05 18:49:43","新北市新店區安康路一段113號","121.528575","24.9617416666667","6500600","新店區"
"231066","AKT-0513","2017/10/05 18:50:00","新北市新店區安豐路22巷5-4號","121.501766666667","24.9560016666667","6500600","新店區"
"241032","269-UM","2017/10/05 18:49:58","新北市三重區新生街36號","121.48506","25.0593516666667","6500200","三重區"
"241013","270-UM","2017/10/05 18:49:52","新北市三重區仁愛街84號","121.495426666667","25.07356","6500200","三重區"
"235066","003-UY","2017/10/05 18:49:58","新北市中和區水源路16號","121.50408","25.00345","6500300","中和區"
"235064","005-UY","2017/10/05 18:49:46","新北市中和區連城路109巷21號","121.496775","24.99888","6500300","中和區"
"235063","006-UY","2017/10/05 18:49:58","新北市中和區連城路347巷4弄19號","121.487473333333","24.995565","6500300","中和區"
"235056","096-UM","2017/10/05 18:49:55","新北市中和區員山路611巷1號","121.47792","25.0113133333333","6500300","中和區"
"235039","097-UM","2017/10/05 18:49:45","新北市中和區宜安路18巷17號","121.514181666667","24.9964433333333","6500300","中和區"
"235065","098-UM","2017/10/05 18:49:46","新北市中和區中山路二段2巷83號","121.500826666667","25.007415","6500300","中和區"
"235040","150-BY","2017/10/05 18:49:49","新北市中和區安平路36巷7號","121.510298333333","24.99477","6500300","中和區"
"235058","151-BY","2017/10/05 18:49:43","新北市中和區連城路533號","121.480601666667","24.994975","6500300","中和區"
"235055","183-VK","2017/10/05 18:49:54","新北市中和區民生街51號","121.469701666667","25.0051283333333","6500300","中和區"
"235038","185-VK","2017/10/05 18:49:51","新北市中和區自強路62巷6-1號","121.519565","24.9946033333333","6500300","中和區"
"235049","186-VK","2017/10/05 18:49:53","新北市中和區景安路132巷16號","121.50415","24.9942233333333","6500300","中和區"
"235067","255-BX","2017/10/05 18:49:54","新北市中和區中山路二段552號","121.483561666667","25.00505","6500300","中和區"
"235044","293-VK","2017/10/05 18:49:57","新北市中和區中興街156號","121.499875","24.9918066666667","6500300","中和區"
"235072","301-VK","2017/10/05 18:49:57","新北市中和區中山路二段108號","121.502991666667","25.004055","6500300","中和區"
"235043","352-BY","2017/10/05 18:49:45","新北市中和區成功路139號","121.525885","24.9901083333333","6500300","中和區"
"235068","375-QA","2017/10/05 18:49:40","新北市中和區中正路211巷24號","121.49693","24.9929966666667","6500300","中和區"
"235051","376-QA","2017/10/05 18:49:51","新北市中和區華新街143巷106弄32號","121.506271666667","24.9786966666667","6500300","中和區"
"235061","378-QA","2017/10/05 18:49:57","新北市中和區民享街114巷2號","121.47435","24.9993133333333","6500300","中和區"
"235071","269-TV","2017/10/05 18:49:47","新北市中和區員山路36巷16-2號","121.485243333333","24.9917466666667","6500300","中和區"
"235050","4979-A6","2017/10/05 18:49:50","新北市中和區忠孝街62巷40號","121.512978333333","24.9836666666667","6500300","中和區"
"235069","4980-A6","2017/10/05 18:49:52","新北市中和區南山路107號","121.502031666667","24.9975016666667","6500300","中和區"
"235042","551-UM","2017/10/05 18:50:00","新北市中和區秀朗路三段135巷1號","121.525308333333","24.9925133333333","6500300","中和區"
"235070","558-UM","2017/10/05 18:49:46","新北市中和區南華路44號","121.503815","24.99656","6500300","中和區"
"235045","565-BX","2017/10/05 18:49:53","新北市中和區復興路40號","121.504743333333","24.9900566666667","6500300","中和區"
"235054","640-BX","2017/10/05 18:49:55","新北市中和區莒光路129巷2弄7號","121.473265","25.0017383333333","6500300","中和區"
"235060","647-TV","2017/10/05 18:49:53","新北市中和區中山路三段35號","121.478928333333","25.0058033333333","6500300","中和區"
"235047","732-UM","2017/10/05 18:49:46","新北市中和區興南路二段34巷57弄1號","121.50482","24.9858433333333","6500300","中和區"
"235046","733-UM","2017/10/05 18:49:51","新北市中和區興南路一段85巷33號","121.510343333333","24.988185","6500300","中和區"
"235062","800-TS","2017/10/05 18:49:45","新北市中和區景平路722-2號","121.496643333333","25.0030833333333","6500300","中和區"
"235057","801-TS","2017/10/05 18:49:44","新北市中和區員山路327巷10號","121.480856666667","25.00123","6500300","中和區"
"235041","802-TS","2017/10/05 18:49:46","新北市中和區中安街192號","121.511335","24.999155","6500300","中和區"
"235052","805-TS","2017/10/05 18:49:45","新北市中和區興南路二段399巷98弄8號","121.500035","24.9775966666667","6500300","中和區"
"235048","896-TW","2017/10/05 18:50:02","新北市中和區南山路515號","121.507933333333","24.9874316666667","6500300","中和區"
"235053","900-TW","2017/10/05 18:49:44","新北市中和區華福街40號","121.466411666667","24.9965566666667","6500300","中和區"
"235037","AAC-213","2017/10/05 18:49:50","新北市中和區秀朗路三段175巷10號","121.524985","24.9914483333333","6500300","中和區"
"235059","AAC-215","2017/10/05 18:49:56","新北市中和區圓通路393巷18號","121.489838333333","24.9886","6500300","中和區"
"220065","072-UY","2017/10/05 18:49:49","新北市板橋區縣民大道一段300號","121.461281666667","25.0105916666667","6500100","板橋區"
"220086","073-UY","2017/10/05 18:49:57","新北市板橋區南雅西路二段172號","121.451753333333","25.0139166666667","6500100","板橋區"
"220106","075-UY","2017/10/05 18:50:03","新北市板橋區民生路二段120號","121.470545","25.0195","6500100","板橋區"
"220069","AAD-861","2017/10/05 18:49:48","新北市板橋區南雅南路二段4巷12號","121.453825","25.0036983333333","6500100","板橋區"
"220068","120-SR","2017/10/05 18:49:54","新北市板橋區民生路二段89-4號","121.47112","25.0181366666667","6500100","板橋區"
"247008","053-VK","2017/10/05 18:49:40","新北市五股區新五路三段222號","121.446461666667","25.0905","6501400","蘆洲區"
"226004","312-R5","2017/10/05 18:49:45","新北市平溪區平溪里平溪街55號","121.73675","25.0270333333333","6502400","平溪區"
"228003","097-TW","2017/10/05 18:49:57","新北市瑞芳區鼻頭路127號","121.916891666667","25.1215966666667","6502600","貢寮區"
"228001","212-TW","2017/10/05 18:49:52","新北市貢寮區仁理村保健街71號","121.923723333333","25.051645","6502600","貢寮區"
"228002","585-TW","2017/10/05 18:49:30","新北市貢寮區福隆里東興街6-11號","121.95072","25.0210716666667","6502600","貢寮區"
"224006","676-BX","2017/10/05 18:49:44","新北市瑞芳區中正路100號","121.805063333333","25.10769","6501200","瑞芳區"
"224002","639-TC","2017/10/05 18:49:56","新北市瑞芳區頂坪路工業區20號","121.79356","25.099785","6501200","瑞芳區"
"224009","285-BY","2017/10/05 18:49:59","新北市瑞芳區五號路114號","121.854713333333","25.1110333333333","6501200","瑞芳區"
"224008","275-VK","2017/10/05 18:49:57","新北市瑞芳區逢甲路151號","121.806666666667","25.1100916666667","6501200","瑞芳區"
"224007","273-VK","2017/10/05 18:49:50","新北市瑞芳區大埔路74號","121.76241","25.101495","6501200","瑞芳區"
"224005","271-BY","2017/10/05 18:49:41","新北市瑞芳區建基路一段6號","121.820395","25.1209033333333","6501200","瑞芳區"
"227004","642-TC","2017/10/05 18:49:56","新北市雙溪區平林里梅竹蹊23號","121.861626666667","25.0358616666667","6502500","雙溪區"
"227010","400-TW","2017/10/05 18:49:50","新北市雙溪區牡丹里聖南1-1號","121.860496666667","25.05006","6502500","雙溪區"
"253005","032-BX","2017/10/05 18:49:47","新北市石門區中山路9號","121.565438333333","25.2905783333333","6502200","石門區"
"253006","295-VK","2017/10/05 18:49:43","新北市石門區下員坑16號","121.510656666667","25.283875","6502200","石門區"
"208002","742-BX","2017/10/05 18:49:57","新北市金山區信義路66號","121.63568","25.218955","6502700","金山區"
"208003","665-BX","2017/10/05 18:49:51","新北市金山區中山路393號","121.6334","25.2252216666667","6502700","金山區"
"208001","761-BX","2017/10/05 18:49:57","新北市金山區文化三路66巷2弄1號","121.634311666667","25.2257","6502700","金山區"
"251009","008-UM","2017/10/05 18:49:43","新北市淡水區重建街187號","121.440903333333","25.1743583333333","6501000","淡水區"
"251001","011-UM","2017/10/05 18:49:58","新北市淡水區自強路88號","121.462661666667","25.1283816666667","6501000","淡水區"
"251014","182-VK","2017/10/05 18:49:45","新北市淡水區崙頂32號","121.487441666667","25.2222416666667","6501000","淡水區"
"251010","413-VK","2017/10/05 18:49:47","新北市淡水區沙崙路11號","121.421083333333","25.18131","6501000","淡水區"
"251012","441-VK","2017/10/05 18:49:46","新北市淡水區中山北路一段156號","121.443955","25.1780166666667","6501000","淡水區"
"251016","442-VK","2017/10/05 18:49:50","新北市淡水區下圭柔山71-3號","121.447066666667","25.2061666666667","6501000","淡水區"
"251011","650-BX","2017/10/05 18:49:58","新北市淡水區學府路55號","121.448148333333","25.16938","6501000","淡水區"
"251002","672-BX","2017/10/05 18:49:47","新北市淡水區學府路87號","121.448698333333","25.17039","6501000","淡水區"
"251003","673-BX","2017/10/05 18:49:51","新北市淡水區中山北路一段149巷17號","121.442871666667","25.1777466666667","6501000","淡水區"
"207003","550-UM","2017/10/05 18:49:57","新北市萬里區大鵬里頂社1號","121.657013333333","25.2097","6502800","萬里區"
"207004","225-TW","2017/10/05 18:49:55","新北市萬里區萬里里獅頭路23號","121.693231666667","25.1782233333333","6502800","萬里區"
"252002","178-VK","2017/10/05 18:49:51","新北市三芝區中正路一段89號","121.504398333333","25.25677","6502100","三芝區"
"252003","249-BX","2017/10/05 18:49:55","新北市三芝區後厝里大片頭108號","121.458555","25.242955","6502100","三芝區"
"252001","292-VK","2017/10/05 18:49:52","新北市三芝區中正路三段9號","121.502893333333","25.2540283333333","6502100","三芝區"
"237007","153-BY","2017/10/05 18:49:44","新北市三峽區柑樹路2巷98號","121.361736666667","24.9043416666667","6500900","三峽區"
"237009","210-TH","2017/10/05 18:49:51","新北市三峽區大同路286巷3號","121.364158333333","24.92529","6500900","三峽區"
"237013","252-BX","2017/10/05 18:49:46","新北市三峽區光明路69巷25號","121.37675","24.9292216666667","6500900","三峽區"
"237012","275-BY","2017/10/05 18:50:00","新北市三峽區三樹路340號","121.38395","24.943335","6500900","三峽區"
"237008","302-VK","2017/10/05 18:49:51","新北市三峽區白雞33-23號","121.371133333333","24.912275","6500900","三峽區"
"237014","433-BY","2017/10/05 18:49:43","新北市三峽區復興路465-1號","121.361705","24.9385783333333","6500900","三峽區"
"237006","5529-G3","2017/10/05 18:49:47","新北市三峽區溪東路211巷10號","121.405996666667","24.9342516666667","6500900","三峽區"
"237011","572-TV","2017/10/05 18:07:13","新北市三峽區溪北街2號","121.396005","24.93623","6500900","三峽區"
"237016","649-BX","2017/10/05 18:49:53","新北市三峽區安坑13-3號","121.443278333333","24.9264733333333","6500900","三峽區"
"237010","706-TV","2017/10/05 18:48:30","新北市三峽區復興路317號","121.364871666667","24.9388016666667","6500900","三峽區"
"237005","AKY-6261","2017/10/05 18:49:46","新北市三峽區新興街10號","121.37263","24.93578","6500900","三峽區"
"236071","105-UM","2017/10/05 18:49:50","新北市土城區延和路21巷45號","121.463513333333","24.9893566666667","6501300","土城區"
"236042","107-UM","2017/10/05 18:49:53","新北市土城區裕民路92巷22弄1號","121.449631666667","24.9861866666667","6501300","土城區"
"236078","166-UM","2017/10/05 18:49:59","新北市土城區中央路四段185巷30弄2號","121.415575","24.9557533333333","6501300","土城區"
"236030","253-BX","2017/10/05 18:49:56","新北市土城區忠義路36巷24號","121.43966","24.96953","6501300","土城區"
"236026","269-VK","2017/10/05 18:49:51","新北市土城區興城路20號","121.442278333333","24.9730133333333","6501300","土城區"
"236014","270-VK","2017/10/05 18:49:47","新北市土城區清水路259號","121.462946666667","24.9844316666667","6501300","土城區"
"236037","271-VK","2017/10/05 18:49:57","新北市土城區明德路一段180號","121.46236","24.9781433333333","6501300","土城區"
"236021","401-BY","2017/10/05 18:49:56","新北市土城區延吉街253巷17號","121.468011666667","24.9841466666667","6501300","土城區"
"236058","912-UM","2017/10/05 18:49:52","新北市土城區中央路三段121號","121.433976666667","24.96555","6501300","土城區"
"236051","913-UM","2017/10/05 18:49:04","新北市土城區青雲路64號","121.45962","24.9877066666667","6501300","土城區"
"236062","915-UM","2017/10/05 18:49:54","新北市土城區金城路三段147號","121.46846","24.9883233333333","6501300","土城區"
"236053","AAC-216","2017/10/05 18:49:52","新北市土城區裕民路179號","121.453368333333","24.984745","6501300","土城區"
"242051","751-BX","2017/10/05 18:50:00","新北市樹林區中山路三段214號","121.380048333333","24.9678383333333","6500500","新莊區"
"238023","601-UM","2017/10/05 18:49:47","新北市樹林區三福街114號","121.406348333333","25.0163283333333","6500700","樹林區"
"238019","599-UM","2017/10/05 18:49:51","新北市樹林區東榮街147巷27弄1號","121.414723333333","24.980735","6500700","樹林區"
"238024","5061-A6","2017/10/05 18:49:45","新北市樹林區太平路270-1號","121.41774","24.9732083333333","6500700","樹林區"
"238022","KEA-2213","2017/10/05 18:50:01","新北市樹林區中華路379巷5號","121.41274","24.9792883333333","6500700","樹林區"
"238018","308-TH","2017/10/05 18:49:43","新北市樹林區樹新路135號","121.42838","24.9963","6500700","樹林區"
"238025","303-VK","2017/10/05 18:49:59","新北市樹林區中山路三段214號","121.379886666667","24.9676266666667","6500700","樹林區"
"238020","268-VK","2017/10/05 18:49:42","新北市樹林區俊安街29號","121.42017","25.01326","6500700","樹林區"
"238016","169-UY","2017/10/05 18:50:02","新北市樹林區文化街28號","121.419255","24.9877683333333","6500700","樹林區"
"239008","527-UM","2017/10/05 18:49:44","新北市鶯歌區國際一路179號","121.33623","24.9764783333333","6500800","鶯歌區"
"239005","526-UM","2017/10/05 18:49:50","新北市鶯歌區鳳吉一街18號","121.325321666667","24.9733916666667","6500800","鶯歌區"
"239001","417-VK","2017/10/05 18:49:52","新北市鶯歌區中正三路191號","121.33571","24.9395083333333","6500800","鶯歌區"
"239003","360-BY","2017/10/05 18:49:54","新北市鶯歌區鶯桃路559號","121.330265","24.96826","6500800","鶯歌區"
"239004","193-VK","2017/10/05 18:49:50","新北市鶯歌區尖山路386號","121.342025","24.9434083333333","6500800","鶯歌區"
"221008","489-VK","2017/10/05 18:49:42","新北市汐止區康寧街901號","121.651393333333","25.0750866666667","6501100","汐止區"
"221036","130-UY","2017/10/05 18:49:49","新北市汐止區南昌街13號","121.663486666667","25.06948","6501100","汐止區"
"221015","131-UY","2017/10/05 18:49:50","新北市汐止區鄉長路一段55巷5號","121.665488333333","25.0760616666667","6501100","汐止區"
"221010","269-BY","2017/10/05 18:49:39","新北市汐止區夢湖路2巷5號","121.642693333333","25.1063616666667","6501100","汐止區"
"221012","276-VK","2017/10/05 13:01:40","新北市汐止區汐萬路一段256巷3號","121.653453333333","25.0746433333333","6501100","汐止區"
"221012","278-VK","2017/10/05 18:49:50","新北市汐止區汐萬路一段256巷3號","121.652445","25.0745816666667","6501100","汐止區"
"221023","279-VK","2017/10/05 18:49:41","新北市汐止區汐萬路一段256巷3號","121.652531666667","25.07455","6501100","汐止區"
"221032","280-BY","2017/10/05 18:49:59","新北市汐止區民權街二段28號","121.619503333333","25.0499716666667","6501100","汐止區"
"221027","281-BY","2017/10/05 18:49:44","新北市汐止區汐萬路一段256巷3號","121.653343333333","25.07467","6501100","汐止區"
"221029","298-VK","2017/10/05 18:49:58","新北市汐止區工建路58號","121.64075","25.0628333333333","6501100","汐止區"
"221021","299-VK","2017/10/05 18:49:50","新北市汐止區新台五路一段129號","121.652235","25.0618416666667","6501100","汐止區"
"221031","353-TW","2017/10/05 18:49:49","新北市汐止區福德一路274號","121.632145","25.063995","6501100","汐止區"
"221035","622-UM","2017/10/05 18:49:57","新北市汐止區汐萬路一段10號","121.656085","25.0673366666667","6501100","汐止區"
"221025","623-UM","2017/10/05 18:49:54","新北市汐止區仁愛路34號","121.66047","25.062795","6501100","汐止區"
"221038","646-BX","2017/10/05 18:49:58","新北市汐止區汐萬路一段256巷3號","121.652301666667","25.0746616666667","6501100","汐止區"
"221033","647-BX","2017/10/05 18:49:47","新北市汐止區南勢街3號","121.62705","25.0373766666667","6501100","汐止區"
"221002","707-TV","2017/10/05 18:49:57","新北市汐止區大同路一段161號","121.632483333333","25.0565266666667","6501100","汐止區"
"221018","753-BX","2017/10/05 18:49:58","新北市汐止區茄苳路66號","121.66661","25.07068","6501100","汐止區"
"220079","145-BY","2017/10/05 18:49:56","新北市板橋區大觀路一段61號","121.447405","25.005725","6500100","板橋區"
"220082","610-BX","2017/10/05 18:49:55","新北市板橋區篤行路三段20-1號","121.42876","24.9871633333333","6500100","板橋區"
"220101","245-BX","2017/10/05 17:09:12","新北市板橋區民生路二段120號","121.47033","25.01986","6500100","板橋區"
"220091","267-BY","2017/10/05 18:49:56","新北市板橋區民生路二段188號","121.47015","25.0204033333333","6500100","板橋區"
"220056","276-BY","2017/10/05 18:49:51","新北市土城區四川路10號","121.455578333333","24.9961066666667","6500100","板橋區"
"220072","277-BY","2017/10/05 18:49:42","新北市板橋區金門街12號","121.433308333333","24.9946483333333","6500100","板橋區"
"220064","282-UM","2017/10/05 11:21:22","新北市板橋區華東街1-9號","121.448168333333","24.9948366666667","6500100","板橋區"
"220071","283-VK","2017/10/05 18:49:50","新北市板橋區四川路一段277號","121.459718333333","25.0018283333333","6500100","板橋區"
"220094","285-UM","2017/10/05 18:49:59","新北市板橋區民生路二段161巷1號","121.469948333333","25.0199116666667","6500100","板橋區"
"220053","285-VK","2017/10/05 18:49:45","新北市板橋區民生路二段121號","121.470893333333","25.0183483333333","6500100","板橋區"
"220083","286-VK","2017/10/05 18:49:46","新北市板橋區大觀路二段22巷35號","121.444916666667","25.0036083333333","6500100","板橋區"
"220081","287-VK","2017/10/05 18:49:46","新北市板橋區大觀路一段21號","121.450253333333","25.00847","6500100","板橋區"
"220090","288-VK","2017/10/05 18:49:46","新北市板橋區民生路二段161巷1號","121.470098333333","25.0198416666667","6500100","板橋區"
"220061","293-UM","2017/10/05 18:49:53","新北市板橋區民生路二段89-4號","121.471065","25.0183416666667","6500100","板橋區"
"220084","296-UM","2017/10/05 18:49:51","新北市板橋區大觀路二段150巷72號","121.441453333333","25.0011383333333","6500100","板橋區"
"220075","297-UM","2017/10/05 18:49:55","新北市板橋區館前西路195號","121.455326666667","25.0083483333333","6500100","板橋區"
"220062","303-R5","2017/10/05 18:49:47","新北市板橋區民生路二段36-1號","121.472111666667","25.0168116666667","6500100","板橋區"
"220098","317-R6","2017/10/05 18:49:47","新北市板橋區民生路二段161巷1號","121.46992","25.0197933333333","6500100","板橋區"
"220080","461-BY","2017/10/05 18:49:43","新北市板橋區大觀路二段265巷66弄26號","121.441601666667","24.997045","6500100","板橋區"
"220089","487-VK","2017/10/05 18:49:59","新北市板橋區民生路二段120號","121.470533333333","25.0195666666667","6500100","板橋區"
"220088","491-VK","2017/10/05 18:49:45","新北市板橋區民生路二段175號","121.469751666667","25.0202133333333","6500100","板橋區"
"220035","560-BX","2017/10/05 18:49:53","新北市板橋區中正路275巷62弄2號","121.45303","25.018025","6500100","板橋區"
"220103","561-BX","2017/10/05 18:49:56","新北市板橋區民生路二段161巷9號","121.470298333333","25.0196866666667","6500100","板橋區"
"220063","609-BX","2017/10/05 18:49:54","新北市板橋區民生路二段89-1號","121.471278333333","25.0180083333333","6500100","板橋區"
"220054","630-UY","2017/10/05 18:49:57","新北市板橋區南雅南路二段120-2號","121.452313333333","24.9998066666667","6500100","板橋區"
"220057","686-BX","2017/10/05 18:49:51","新北市板橋區南雅南路二段120-2號","121.452311666667","24.99975","6500100","板橋區"
"220077","687-BX","2017/10/05 18:49:43","新北市板橋區大觀路二段174巷182號","121.442085","25.00366","6500100","板橋區"
"220055","827-TW","2017/10/05 18:49:44","新北市板橋區南雅南路二段4巷18號","121.453613333333","25.003715","6500100","板橋區"
"220067","829-TW","2017/10/05 18:50:00","新北市板橋區民生路二段56-3號","121.471951666667","25.0171366666667","6500100","板橋區"
"220102","830-TW","2017/10/05 17:08:26","新北市板橋區民生路二段161巷3號","121.47016","25.019775","6500100","板橋區"
"220074","895-R6","2017/10/05 18:49:59","新北市板橋區南門街30號","121.45717","25.0086116666667","6500100","板橋區"
"220073","985-R7","2017/10/05 18:50:01","新北市板橋區館前西路118號","121.456843333333","25.007595","6500100","板橋區"
"220097","AAC-210","2017/10/05 17:05:41","新北市板橋區民生路二段161巷9號","121.4701","25.0195283333333","6500100","板橋區"
"220070","AAC-253","2017/10/05 18:49:49","新北市板橋區館前西路19號","121.458635","25.006915","6500100","板橋區"
