"lineid","car","time","location","longitude","latitude","cityid","cityname"
"234046","148-BY","2017/10/05 19:09:43","新北市永和區得和路373巷31弄9號","121.524613333333","25.000655","6500400","永和區"
"234013","149-BY","2017/10/05 19:09:40","新北市永和區保福路二段2號","121.511336666667","25.0106666666667","6500400","永和區"
"234007","207-UY","2017/10/05 19:09:49","新北市永和區中山路一段269號","121.507341666667","25.0070883333333","6500400","永和區"
"234081","298-R6","2017/10/05 19:09:52","新北市永和區永貞路39巷5號","121.52142","25.00657","6500400","永和區"
"234038","336-UY","2017/10/05 19:09:53","新北市永和區民樂街73巷1號","121.527346666667","24.9972616666667","6500400","永和區"
"234064","337-UY","2017/10/05 19:09:41","新北市永和區秀朗路二段32號","121.521041666667","25.0025766666667","6500400","永和區"
"234086","338-UY","2017/10/05 19:09:47","新北市永和區永貞路57號","121.519296666667","25.0043566666667","6500400","永和區"
"234070","552-UM","2017/10/05 19:09:46","新北市永和區豫溪街137巷1弄17號","121.51886","25.0104183333333","6500400","永和區"
"234054","553-UM","2017/10/05 19:09:59","新北市永和區中興街133巷6號","121.518735","25.012645","6500400","永和區"
"234017","745-BX","2017/10/05 19:09:46","新北市永和區文化路90巷9弄2號","121.513803333333","25.01582","6500400","永和區"
"234030","746-BX","2017/10/05 19:09:46","新北市永和區四維街80號","121.523271666667","24.9983416666667","6500400","永和區"
"234061","AAD-866","2017/10/05 19:09:40","新北市永和區安樂路304巷7號","121.51449","25.0050983333333","6500400","永和區"
"234042","862-TW","2017/10/05 19:09:55","新北市永和區永和路一段49巷3弄32號","121.511783333333","25.0061116666667","6500400","永和區"
"234050","863-TW","2017/10/05 19:09:53","新北市永和區仁愛路104巷7弄62號","121.510908333333","25.014155","6500400","永和區"
"234026","9371-KE","2017/10/05 19:09:56","新北市永和區安樂路270號","121.514523333333","25.0040216666667","6500400","永和區"
"234011","9373-KE","2017/10/05 19:09:40","新北市永和區忠孝街11-1號","121.514783333333","25.0157083333333","6500400","永和區"
"249005","172-UM","2017/10/05 19:09:57","新北市八里區中華路三段145巷9號","121.392316666667","25.1331766666667","6502300","八里區"
"249001","173-UM","2017/10/05 19:09:52","新北市八里區龍米路二段246號","121.430341666667","25.15879","6502300","八里區"
"249003","593-UM","2017/10/05 19:09:45","新北市八里區博物館路10-1號","121.414958333333","25.1640333333333","6502300","八里區"
"248016","026-BX","2017/10/05 19:09:47","新北市五股區成泰路三段577巷45號","121.450815","25.10297","6501500","五股區"
"248020","225-UY","2017/10/05 19:00:59","新北市五股區凌雲路三段57號","121.425276666667","25.12501","6501500","五股區"
"248012","247-BX","2017/10/05 19:09:47","新北市五股區中興路四段48巷16號","121.438606666667","25.08344","6501500","五股區"
"248010","272-BY","2017/10/05 19:09:50","新北市五股區水碓一路23號","121.430588333333","25.071275","6501500","五股區"
"248004","677-BX","2017/10/05 19:09:48","新北市五股區六合街3號","121.431851666667","25.0884716666667","6501500","五股區"
"248002","678-BX","2017/10/05 17:52:25","新北市五股區中興路二段37巷28號","121.460155","25.0748916666667","6501500","五股區"
"234023","9380-KE","2017/10/05 19:09:50","新北市永和區勵行街72巷21號","121.516356666667","25.012495","6500400","永和區"
"234077","969-R7","2017/10/05 19:09:50","新北市永和區民族街27巷1號","121.518991666667","24.999575","6500400","永和區"
"234074","AAC-211","2017/10/05 19:09:47","新北市永和區竹林路198號","121.520516666667","25.0095583333333","6500400","永和區"
"234067","AAC-212","2017/10/05 19:09:53","新北市永和區保平路22號","121.512301666667","25.0074366666667","6500400","永和區"
"234003","AAC-295","2017/10/05 19:09:48","新北市永和區中山路一段105號","121.510995","25.010305","6500400","永和區"
"244013","069-UM","2017/10/05 19:09:58","新北市林口區麗園二街1巷3-1號","121.37712","25.0703316666667","6501700","林口區"
"244007","080-UY","2017/10/05 19:09:46","新北市林口區太平嶺26-5號","121.376558333333","25.11698","6501700","林口區"
"244019","403-UM","2017/10/05 19:09:53","新北市林口區麗園二街60巷76號","121.38122","25.067415","6501700","林口區"
"244009","410-SL","2017/10/05 19:09:47","新北市林口區台電新村4號","121.388228333333","25.08658","6501700","林口區"
"244023","483-VK","2017/10/05 19:09:47","新北市林口區民富街198號","121.370781666667","25.07547","6501700","林口區"
"244011","656-BX","2017/10/05 19:09:52","新北市林口區中山路97巷12號","121.389513333333","25.0782466666667","6501700","林口區"
"244025","837-TS","2017/10/05 19:09:49","新北市林口區文化北路一段542巷60號","121.36884","25.0790583333333","6501700","林口區"
"243013","AAD-798","2017/10/05 19:09:57","新北市泰山區明志路三段267號","121.423196666667","25.0371666666667","6501600","泰山區"
"243009","297-R6","2017/10/05 19:09:46","新北市泰山區明志路一段117巷24號","121.434171666667","25.0634183333333","6501600","泰山區"
"243015","380-SR","2017/10/05 19:09:57","新北市泰山區明志路一段453-1號","121.430691666667","25.0563783333333","6501600","泰山區"
"243014","421-VK","2017/10/05 19:09:43","新北市泰山區泰林路二段328號","121.430233333333","25.0630133333333","6501600","泰山區"
"243010","KEA-2215","2017/10/05 19:09:58","新北市泰山區明志路一段481號","121.431093333333","25.0553766666667","6501600","泰山區"
"243011","KEA-2216","2017/10/05 19:09:46","新北市泰山區明志路二段372巷2號","121.425395","25.0450066666667","6501600","泰山區"
"243012","646-TV","2017/10/05 19:09:55","新北市泰山區辭修路36巷8弄5-1號","121.427763333333","25.0587","6501600","泰山區"
"243016","680-BX","2017/10/05 19:09:52","新北市泰山區明志路三段16號","121.424788333333","25.0432383333333","6501600","泰山區"
"222003","436-BY","2017/10/05 19:09:54","新北市深坑區深南路158號","121.626066666667","25.014545","6501800","深坑區"
"222002","659-BX","2017/10/05 19:09:42","新北市深坑區北深路一段175號","121.633105","25.01095","6501800","深坑區"
"222001","696-SL","2017/10/05 19:09:50","新北市深坑區北深路一段300號","121.624123333333","25.005785","6501800","深坑區"
"231041","002-UM","2017/10/05 19:09:47","新北市新店區溪園路393號","121.524068333333","24.9790733333333","6500600","新店區"
"231059","046-UY","2017/10/05 19:09:56","新北市新店區安和路二段166號","121.519593333333","24.9736666666667","6500600","新店區"
"231061","047-UY","2017/10/05 19:09:49","新北市新店區安康路一段111-1號","121.528591666667","24.9616683333333","6500600","新店區"
"231060","106-UY","2017/10/05 19:09:48","新北市新店區安康路二段212-1號","121.509908333333","24.95947","6500600","新店區"
"231051","107-UY","2017/10/05 19:09:48","新北市新店區中正路380號","121.534936666667","24.97706","6500600","新店區"
"231047","110-UY","2017/10/05 19:09:47","新北市新店區德正街25巷1號","121.544315","24.9716033333333","6500600","新店區"
"231052","187-VK","2017/10/05 19:09:50","新北市新店區屈尺路48號","121.547756666667","24.9226583333333","6500600","新店區"
"231007","189-VK","2017/10/05 11:53:53","新北市新店區安華路28-1號","121.519556666667","24.961125","6500600","新店區"
"231050","215-TC","2017/10/05 19:09:59","新北市新店區竹林路2巷27弄1號","121.550165","24.9508483333333","6500600","新店區"
"231046","278-BY","2017/10/05 19:09:49","新北市新店區新潭路一段1-1號","121.523271666667","24.944195","6500600","新店區"
"231054","AAD-862","2017/10/05 19:09:45","新北市新店區新店路162-1號","121.537141666667","24.955635","6500600","新店區"
"231044","355-BY","2017/10/05 19:09:53","新北市新店區中興路三段188號","121.544011666667","24.981625","6500600","新店區"
"231058","3712-VJ","2017/10/05 19:09:57","新北市新店區光明街138巷11號","121.540101666667","24.9612266666667","6500600","新店區"
"231056","4716-K9","2017/10/05 19:09:42","新北市新店區二十張路46巷37弄21-1號","121.535786666667","24.9814583333333","6500600","新店區"
"231067","4772-VM","2017/10/05 19:09:50","新北市新店區安康路一段195巷7號","121.52644","24.9623516666667","6500600","新店區"
"231065","512-UM","2017/10/05 19:09:55","新北市新店區安祥路145巷25號","121.47525","24.9564133333333","6500600","新店區"
"231064","515-UM","2017/10/05 19:09:56","新北市新店區安忠路90號","121.511513333333","24.958045","6500600","新店區"
"231040","619-UM","2017/10/05 19:09:42","新北市新店區三民路98-3號","121.533955","24.973415","6500600","新店區"
"231042","641-BX","2017/10/05 19:09:56","新北市新店區中興路一段113號","121.541316666667","24.96275","6500600","新店區"
"231063","645-TV","2017/10/05 19:09:53","新北市新店區車子路137號","121.505166666667","24.9480383333333","6500600","新店區"
"231049","719-UM","2017/10/05 19:09:52","新北市新店區二十張路25巷18弄16號","121.539166666667","24.98168","6500600","新店區"
"231062","720-UM","2017/10/05 19:09:56","新北市新店區安平路24-6號","121.524483333333","24.9663116666667","6500600","新店區"
"231045","898-TW","2017/10/05 19:09:57","新北市新店區北宜路一段194號","121.542805","24.95286","6500600","新店區"
"231043","899-TW","2017/10/05 19:09:43","新北市新店區寶橋路98號","121.54679","24.975975","6500600","新店區"
"231066","AKT-0513","2017/10/05 19:09:40","新北市新店區安康路三段359巷16號","121.484581666667","24.94959","6500600","新店區"
"241026","156-TC","2017/10/05 19:09:49","新北市三重區泉州街57號","121.494638333333","25.0547966666667","6500200","三重區"
"241013","270-UM","2017/10/05 19:09:56","新北市三重區仁愛街125巷26號","121.497216666667","25.0757183333333","6500200","三重區"
"241029","942-UM","2017/10/05 19:09:54","新北市三重區集美街263號","121.492473333333","25.0557166666667","6500200","三重區"
"235066","003-UY","2017/10/05 19:09:38","新北市中和區廣福路2號","121.506098333333","25.0031516666667","6500300","中和區"
"235064","005-UY","2017/10/05 19:09:46","新北市中和區泰和街44巷29號","121.498123333333","25.0010483333333","6500300","中和區"
"235063","006-UY","2017/10/05 19:09:38","新北市中和區錦和路117號","121.49053","24.994315","6500300","中和區"
"235056","096-UM","2017/10/05 19:09:55","新北市中和區員山路548號","121.47869","25.0102583333333","6500300","中和區"
"235039","097-UM","2017/10/05 19:09:45","新北市永和區民有街28號","121.516941666667","24.996305","6500300","中和區"
"235065","098-UM","2017/10/05 19:09:46","新北市中和區中山路二段2巷45弄1號","121.502296666667","25.0068866666667","6500300","中和區"
"235040","150-BY","2017/10/05 19:09:49","新北市中和區宜安路22號","121.513096666667","24.995865","6500300","中和區"
"235058","151-BY","2017/10/05 19:09:43","新北市中和區員山路143巷21號","121.479888333333","24.995785","6500300","中和區"
"235055","183-VK","2017/10/05 19:09:58","新北市中和區德光路32號","121.47053","25.004275","6500300","中和區"
"235038","185-VK","2017/10/05 19:09:51","新北市中和區大智街55巷31號","121.520486666667","24.9926983333333","6500300","中和區"
"235049","186-VK","2017/10/05 19:09:53","新北市中和區明禮街21號","121.50471","24.9959466666667","6500300","中和區"
"235067","255-BX","2017/10/05 19:09:55","新北市中和區新生街166巷10號","121.483145","25.000215","6500300","中和區"
"235044","293-VK","2017/10/05 19:09:57","新北市中和區中興街222-6號","121.50062","24.9896666666667","6500300","中和區"
"235072","301-VK","2017/10/05 19:09:57","新北市中和區連城路144巷4弄11號","121.495613333333","24.9988366666667","6500300","中和區"
"235043","352-BY","2017/10/05 19:09:45","新北市中和區景平路38號","121.523063333333","24.9907","6500300","中和區"
"235068","375-QA","2017/10/05 19:09:40","新北市中和區圓通路227號","121.496426666667","24.9943116666667","6500300","中和區"
"235051","376-QA","2017/10/05 19:09:51","新北市中和區忠孝街19巷9號","121.509823333333","24.98383","6500300","中和區"
"235061","378-QA","2017/10/05 19:09:57","新北市中和區民享街2巷2號","121.473838333333","25.005885","6500300","中和區"
"235071","269-TV","2017/10/05 19:09:47","新北市中和區連城路360號","121.48198","24.995435","6500300","中和區"
"235050","4979-A6","2017/10/05 19:09:50","新北市中和區復興路249巷11弄3號","121.503523333333","24.98972","6500300","中和區"
"235069","4980-A6","2017/10/05 19:09:52","新北市中和區中和路165巷21號","121.503091666667","25.0005483333333","6500300","中和區"
"235042","551-UM","2017/10/05 19:09:40","新北市中和區秀朗路三段22巷22號","121.525446666667","24.9961183333333","6500300","中和區"
"235070","558-UM","2017/10/05 19:09:46","新北市中和區安和路216號","121.506115","24.9991066666667","6500300","中和區"
"235045","565-BX","2017/10/05 19:09:53","新北市中和區景新街467巷26號","121.514376666667","24.988525","6500300","中和區"
"235054","640-BX","2017/10/05 19:09:55","新北市中和區國光街8巷1號","121.471631666667","25.0001866666667","6500300","中和區"
"235060","647-TV","2017/10/05 19:09:53","新北市中和區民治街120號","121.475181666667","25.0033366666667","6500300","中和區"
"235047","732-UM","2017/10/05 19:09:46","新北市中和區興南路二段2號","121.507936666667","24.9863133333333","6500300","中和區"
"235046","733-UM","2017/10/05 19:09:51","新北市中和區忠孝街1巷5號","121.508688333333","24.983425","6500300","中和區"
"235062","800-TS","2017/10/05 19:09:45","新北市中和區中山路二段544巷12號","121.485413333333","25.005675","6500300","中和區"
"235057","801-TS","2017/10/05 19:09:44","新北市中和區民利街102號","121.477551666667","24.997705","6500300","中和區"
"235041","802-TS","2017/10/05 19:09:46","新北市中和區安平路108號","121.511618333333","24.9974466666667","6500300","中和區"
"235052","805-TS","2017/10/05 19:09:45","新北市中和區興南路二段142巷19弄38號","121.50257","24.98346","6500300","中和區"
"235048","896-TW","2017/10/05 19:09:42","新北市中和區工專路147號","121.508438333333","24.9788866666667","6500300","中和區"
"235053","900-TW","2017/10/05 19:09:44","新北市板橋區和平路213號","121.464401666667","24.9966533333333","6500300","中和區"
"235037","AAC-213","2017/10/05 19:09:50","新北市中和區秀朗路三段60巷42號","121.524928333333","24.99499","6500300","中和區"
"235059","AAC-215","2017/10/05 19:09:56","新北市中和區圓通路296巷31弄1號","121.488591666667","24.99045","6500300","中和區"
"220065","072-UY","2017/10/05 19:09:58","新北市板橋區民族路219巷1號","121.46946","25.007605","6500100","板橋區"
"220086","073-UY","2017/10/05 19:09:57","新北市板橋區中正路250巷21號","121.456573333333","25.01945","6500100","板橋區"
"220106","075-UY","2017/10/05 19:09:43","新北市板橋區文化路二段317號","121.472175","25.0298666666667","6500100","板橋區"
"220069","AAD-861","2017/10/05 19:09:49","新北市板橋區東興街93-2號","121.45752","25.0052183333333","6500100","板橋區"
"220068","120-SR","2017/10/05 19:09:54","新北市板橋區三民路一段1巷3號","121.479438333333","25.0242983333333","6500100","板橋區"
"247008","053-VK","2017/10/05 19:09:41","新北市五股區中興路三段163號","121.449115","25.0806583333333","6501400","蘆洲區"
"226004","312-R5","2017/10/05 19:09:45","新北市平溪區靜安路三段51號","121.764395","25.033335","6502400","平溪區"
"228003","097-TW","2017/10/05 19:09:58","新北市貢寮區和美里和美街29號","121.913701666667","25.0828633333333","6502600","貢寮區"
"228001","212-TW","2017/10/05 19:09:52","新北市貢寮區真理里新港街10號","121.925501666667","25.0543733333333","6502600","貢寮區"
"228002","585-TW","2017/10/05 19:09:51","新北市貢寮區福隆里福隆街32-1號","121.94508","25.017435","6502600","貢寮區"
"224010","AGQ-8101","2017/10/05 19:09:08","新北市瑞芳區金光路372號","121.848545","25.110305","6501200","瑞芳區"
"224006","676-BX","2017/10/05 19:09:44","新北市瑞芳區三爪子坑路106巷1-2號","121.808051666667","25.1048483333333","6501200","瑞芳區"
"224009","285-BY","2017/10/05 19:09:39","新北市瑞芳區祈堂路8號","121.858971666667","25.11235","6501200","瑞芳區"
"224008","275-VK","2017/10/05 19:09:37","新北市瑞芳區逢甲路343號","121.800525","25.1122133333333","6501200","瑞芳區"
"224007","273-VK","2017/10/05 19:09:40","新北市瑞芳區瑞竹路103號","121.763003333333","25.10353","6501200","瑞芳區"
"224005","271-BY","2017/10/05 19:09:39","新北市瑞芳區海濱路38-1號","121.83119","25.1234716666667","6501200","瑞芳區"
"227004","642-TC","2017/10/05 19:09:56","新北市雙溪區平林里外平林8號","121.8597","25.038005","6502500","雙溪區"
"227010","400-TW","2017/10/05 19:09:50","新北市雙溪區牡丹里中正路46-1號","121.864968333333","25.0388783333333","6502500","雙溪區"
"253005","032-BX","2017/10/05 19:09:47","新北市石門區阿里荖47-3號","121.602308333333","25.2859","6502200","石門區"
"253006","295-VK","2017/10/05 19:09:43","新北市石門區海灣新城40號","121.528276666667","25.2854566666667","6502200","石門區"
"208002","742-BX","2017/10/05 19:09:37","新北市金山區仁愛路67巷28號","121.634125","25.22086","6502700","金山區"
"208003","665-BX","2017/10/05 19:09:51","新北市金山區中正路135號","121.632426666667","25.2215333333333","6502700","金山區"
"208001","761-BX","2017/10/05 19:09:57","新北市金山區福德街18號","121.639085","25.22157","6502700","金山區"
"251009","008-UM","2017/10/05 19:09:42","新北市淡水區清水街194號","121.440451666667","25.170985","6501000","淡水區"
"251001","011-UM","2017/10/05 19:09:54","新北市淡水區民權路94巷1號","121.463206666667","25.1248166666667","6501000","淡水區"
"251007","179-VK","2017/10/05 19:09:41","新北市淡水區民生路145巷54號","121.46777","25.1388533333333","6501000","淡水區"
"251014","182-VK","2017/10/05 19:09:45","新北市淡水區小中寮19-2號","121.484455","25.2295433333333","6501000","淡水區"
"251010","413-VK","2017/10/05 19:09:47","新北市淡水區中正路一段156巷1號","121.421083333333","25.180265","6501000","淡水區"
"251012","441-VK","2017/10/05 19:09:46","新北市淡水區下圭柔山91-3號","121.430968333333","25.2098433333333","6501000","淡水區"
"251016","442-VK","2017/10/05 19:09:49","新北市淡水區淡金路三段66號","121.448253333333","25.2","6501000","淡水區"
"251005","443-VK","2017/10/05 19:09:48","新北市淡水區濱海路三段148巷50弄76號","121.430673333333","25.1903983333333","6501000","淡水區"
"251011","650-BX","2017/10/05 19:09:58","新北市淡水區中正東路二段143巷2弄1號","121.460693333333","25.1473766666667","6501000","淡水區"
"251002","672-BX","2017/10/05 19:09:47","新北市淡水區中山路87巷1號","121.442495","25.1704633333333","6501000","淡水區"
"251003","673-BX","2017/10/05 19:09:51","新北市淡水區中山北路一段89號","121.44235","25.176225","6501000","淡水區"
"207003","550-UM","2017/10/05 19:09:56","新北市萬里區大鵬里萬里加投24號","121.649511666667","25.20837","6502800","萬里區"
"207004","225-TW","2017/10/05 19:09:55","新北市萬里區萬里里瑪鋉下街2號","121.691006666667","25.1781066666667","6502800","萬里區"
"252002","178-VK","2017/10/05 19:09:51","新北市三芝區智成街83號","121.505026666667","25.255655","6502100","三芝區"
"252003","249-BX","2017/10/05 19:09:55","新北市三芝區錫板里南勢崗6號","121.47955","25.2619583333333","6502100","三芝區"
"252001","292-VK","2017/10/05 19:09:52","新北市三芝區長勤街80號","121.50027","25.2551166666667","6502100","三芝區"
"237004","078-UY","2017/10/05 19:09:53","新北市三峽區有木188號","121.44809","24.83892","6500900","三峽區"
"237007","153-BY","2017/10/05 19:09:44","新北市三峽區中正路二段295號","121.365956666667","24.9108666666667","6500900","三峽區"
"237013","252-BX","2017/10/05 19:09:59","新北市三峽區光明路69巷22號","121.376426666667","24.92899","6500900","三峽區"
"237012","275-BY","2017/10/05 19:10:00","新北市三峽區三樹路222巷254弄68-22號","121.39405","24.94452","6500900","三峽區"
"237008","302-VK","2017/10/05 19:09:50","新北市三峽區大同路100號","121.374601666667","24.927085","6500900","三峽區"
"237006","5529-G3","2017/10/05 19:09:47","新北市三峽區溪東路233巷4弄29號","121.407483333333","24.933955","6500900","三峽區"
"237011","572-TV","2017/10/05 18:07:13","新北市三峽區溪北街2號","121.396005","24.93623","6500900","三峽區"
"237016","649-BX","2017/10/05 19:09:53","新北市三峽區建安22號","121.44609","24.9274566666667","6500900","三峽區"
"237010","706-TV","2017/10/05 19:09:50","新北市三峽區國光街41號","121.374805","24.9376666666667","6500900","三峽區"
"237005","AKY-6261","2017/10/05 19:09:46","新北市三峽區中山路459巷163-3號","121.348698333333","24.93293","6500900","三峽區"
"236071","105-UM","2017/10/05 19:09:50","新北市土城區裕生路84巷12號","121.446686666667","24.98562","6501300","土城區"
"236042","107-UM","2017/10/05 19:09:47","新北市土城區學府路一段189巷1號","121.452363333333","24.9847883333333","6501300","土城區"
"236078","166-UM","2017/10/05 19:09:39","新北市土城區龍泉路10-1號","121.409586666667","24.9492266666667","6501300","土城區"
"236026","269-VK","2017/10/05 19:09:59","新北市土城區中正路66號","121.444316666667","24.975435","6501300","土城區"
"236014","270-VK","2017/10/05 19:09:47","新北市土城區學府路一段37巷30號","121.45734","24.987555","6501300","土城區"
"236037","271-VK","2017/10/05 19:09:57","新北市土城區清水路145號","121.458366666667","24.9817783333333","6501300","土城區"
"236021","401-BY","2017/10/05 19:09:56","新北市土城區延吉街217巷7號","121.468875","24.984585","6501300","土城區"
"236058","912-UM","2017/10/05 19:09:51","新北市土城區金城路二段266號","121.458013333333","24.9840316666667","6501300","土城區"
"236051","913-UM","2017/10/05 19:09:24","新北市土城區明德路一段398-1號","121.453721666667","24.9790833333333","6501300","土城區"
"236053","AAC-216","2017/10/05 19:09:52","新北市土城區學府路一段214號","121.452308333333","24.9852633333333","6501300","土城區"
"242051","751-BX","2017/10/05 19:09:40","新北市新莊區環河路636-7號","121.43718","25.0108066666667","6500500","新莊區"
"238015","755-BX","2017/10/05 19:10:00","新北市樹林區備內街158巷56號","121.408276666667","24.98992","6500700","樹林區"
"238023","601-UM","2017/10/05 19:09:47","新北市樹林區大慶街57號","121.39612","25.0139316666667","6500700","樹林區"
"238019","599-UM","2017/10/05 19:09:51","新北市樹林區東榮街56號","121.4169","24.9830516666667","6500700","樹林區"
"238021","KEA-2217","2017/10/05 19:09:45","新北市樹林區柑園街二段328巷6弄29號","121.373255","24.9527266666667","6500700","樹林區"
"238022","KEA-2213","2017/10/05 19:09:41","新北市樹林區中山路二段151巷15弄5號","121.408116666667","24.97705","6500700","樹林區"
"238018","308-TH","2017/10/05 19:09:43","新北市樹林區中山路三段125-9號","121.397856666667","24.9738","6500700","樹林區"
"238025","303-VK","2017/10/05 19:09:39","新北市樹林區民和街24號","121.385215","24.968615","6500700","樹林區"
"238014","282-BY","2017/10/05 19:09:39","新北市樹林區潭興街6-1號","121.423888333333","24.9971733333333","6500700","樹林區"
"238020","268-VK","2017/10/05 19:09:42","新北市樹林區俊英街210號","121.425166666667","25.0093866666667","6500700","樹林區"
"238026","172-UY","2017/10/05 19:09:55","新北市樹林區佳園路一段41巷30號","121.394573333333","24.9709183333333","6500700","樹林區"
"238016","169-UY","2017/10/05 19:09:42","新北市樹林區復興路373巷3弄1號","121.417356666667","24.9868016666667","6500700","樹林區"
"239007","AAC-297","2017/10/05 19:09:45","新北市鶯歌區成功街6巷6號","121.358801666667","24.9573083333333","6500800","鶯歌區"
"239006","891-R6","2017/10/05 19:09:58","新北市鶯歌區鶯桃路296巷84弄26號","121.33729","24.96138","6500800","鶯歌區"
"239008","527-UM","2017/10/05 19:09:44","新北市鶯歌區國際二路14巷16號","121.33813","24.9750533333333","6500800","鶯歌區"
"239005","526-UM","2017/10/05 19:09:50","新北市鶯歌區大湖路530巷2-2號","121.338063333333","24.9721566666667","6500800","鶯歌區"
"239001","417-VK","2017/10/05 19:09:52","新北市鶯歌區陽明街8號","121.340828333333","24.956645","6500800","鶯歌區"
"239003","360-BY","2017/10/05 19:09:54","新北市鶯歌區德昌街50號","121.333335","24.9599633333333","6500800","鶯歌區"
"239004","193-VK","2017/10/05 19:09:50","新北市鶯歌區中正三路230巷26號","121.329885","24.9399733333333","6500800","鶯歌區"
"221008","489-VK","2017/10/05 19:09:43","新北市汐止區康寧街462號","121.63174","25.0681766666667","6501100","汐止區"
"221036","130-UY","2017/10/05 19:09:50","新北市汐止區忠孝東路314巷15號","121.66447","25.0686466666667","6501100","汐止區"
"221015","131-UY","2017/10/05 19:09:49","新北市汐止區汐萬路一段39-3號","121.654848333333","25.069725","6501100","汐止區"
"221010","269-BY","2017/10/05 19:09:59","新北市汐止區康寧街901號","121.651413333333","25.0750566666667","6501100","汐止區"
"221012","276-VK","2017/10/05 13:01:40","新北市汐止區汐萬路一段256巷3號","121.653453333333","25.0746433333333","6501100","汐止區"
"221012","278-VK","2017/10/05 19:09:50","新北市汐止區康寧街901號","121.650823333333","25.075265","6501100","汐止區"
"221023","279-VK","2017/10/05 19:09:41","新北市汐止區康寧街901號","121.65097","25.0751966666667","6501100","汐止區"
"221032","280-BY","2017/10/05 19:09:38","新北市汐止區橫科路407巷21號","121.625615","25.047935","6501100","汐止區"
"221027","281-BY","2017/10/05 19:09:44","新北市汐止區康寧街901號","121.650916666667","25.075235","6501100","汐止區"
"221029","298-VK","2017/10/05 19:09:58","新北市汐止區康寧街901號","121.651436666667","25.075005","6501100","汐止區"
"221021","299-VK","2017/10/05 19:09:42","新北市汐止區康寧街901號","121.651438333333","25.0749633333333","6501100","汐止區"
"221031","353-TW","2017/10/05 19:09:49","新北市汐止區福德二路156巷27號","121.629826666667","25.0654933333333","6501100","汐止區"
"221025","623-UM","2017/10/05 19:09:54","新北市汐止區康寧街901號","121.651566666667","25.075015","6501100","汐止區"
"221038","646-BX","2017/10/05 19:09:58","新北市汐止區汐萬路一段312號","121.650678333333","25.0752933333333","6501100","汐止區"
"221033","647-BX","2017/10/05 19:09:47","新北市汐止區南勢街1巷1號","121.627038333333","25.0373783333333","6501100","汐止區"
"221002","707-TV","2017/10/05 19:09:37","新北市汐止區大同路一段89號","121.624035","25.0547116666667","6501100","汐止區"
"220079","145-BY","2017/10/05 19:09:56","新北市板橋區民權路202巷9弄29號","121.459431666667","25.015665","6500100","板橋區"
"220082","610-BX","2017/10/05 19:09:47","新北市板橋區溪崑二街27號","121.428573333333","24.9912733333333","6500100","板橋區"
"220101","245-BX","2017/10/05 19:09:59","新北市板橋區萬板路13號","121.470576666667","25.0209183333333","6500100","板橋區"
"220091","267-BY","2017/10/05 19:09:56","新北市板橋區萬板路558號","121.480888333333","25.02661","6500100","板橋區"
"220056","276-BY","2017/10/05 19:09:51","新北市板橋區信義路110巷2弄12號","121.457693333333","24.9926266666667","6500100","板橋區"
"220072","277-BY","2017/10/05 19:09:42","新北市板橋區金門街369巷57弄7號","121.429325","24.984045","6500100","板橋區"
"220064","282-UM","2017/10/05 11:21:22","新北市板橋區華東街1-9號","121.448168333333","24.9948366666667","6500100","板橋區"
"220071","283-VK","2017/10/05 19:09:50","新北市板橋區重慶路245巷50弄35號","121.465285","24.9999433333333","6500100","板橋區"
"220094","285-UM","2017/10/05 19:09:51","新北市板橋區光武街127巷1號","121.465963333333","25.02872","6500100","板橋區"
"220053","285-VK","2017/10/05 19:09:45","新北市板橋區懷仁街10巷6號","121.475731666667","25.0199316666667","6500100","板橋區"
"220083","286-VK","2017/10/05 19:09:58","新北市板橋區龍興街97巷2號","121.444221666667","25.002715","6500100","板橋區"
"220081","287-VK","2017/10/05 18:57:16","新北市板橋區光華街13巷6號","121.453928333333","25.0115233333333","6500100","板橋區"
"220090","288-VK","2017/10/05 19:09:47","新北市板橋區裕民街58號","121.461355","25.02867","6500100","板橋區"
"220061","293-UM","2017/10/05 19:09:53","新北市板橋區懷仁街77巷2號","121.47761","25.01849","6500100","板橋區"
"220084","296-UM","2017/10/05 19:09:51","新北市板橋區篤行路二段103號","121.431563333333","24.9913966666667","6500100","板橋區"
"220075","297-UM","2017/10/05 19:09:55","新北市板橋區南雅南路一段5巷19號","121.456375","25.005415","6500100","板橋區"
"220092","299-UM","2017/10/05 19:09:51","新北市板橋區文化路二段102-1號","121.46992","25.02625","6500100","板橋區"
"220062","303-R5","2017/10/05 19:09:47","新北市板橋區三民路二段245巷4弄8號","121.480993333333","25.0121","6500100","板橋區"
"220098","317-R6","2017/10/05 19:09:47","新北市板橋區自由路51巷14弄10號","121.464663333333","25.0238183333333","6500100","板橋區"
"220080","461-BY","2017/10/05 19:09:44","新北市板橋區大觀路二段7巷82號","121.449665","25.003055","6500100","板橋區"
"220089","487-VK","2017/10/05 19:09:54","新北市板橋區文化路二段367號","121.473215","25.0310716666667","6500100","板橋區"
"220088","491-VK","2017/10/05 19:09:45","新北市板橋區文化路二段182巷1弄15號","121.471326666667","25.02792","6500100","板橋區"
"220035","560-BX","2017/10/05 19:09:53","新北市板橋區中正路413巷11號","121.453921666667","25.0223466666667","6500100","板橋區"
"220103","561-BX","2017/10/05 19:09:56","新北市板橋區文化路一段188巷9弄21號","121.468491666667","25.0194633333333","6500100","板橋區"
"220063","609-BX","2017/10/05 19:09:54","新北市板橋區三民路二段144號","121.479035","25.0154566666667","6500100","板橋區"
"220054","630-UY","2017/10/05 19:09:57","新北市板橋區重慶路93巷47號","121.463371666667","25.0059716666667","6500100","板橋區"
"220057","686-BX","2017/10/05 19:09:51","新北市板橋區重慶路246號","121.462945","25.0010833333333","6500100","板橋區"
"220077","687-BX","2017/10/05 19:09:57","新北市板橋區大觀路二段125-1號","121.445863333333","25.0013","6500100","板橋區"
"220093","689-BX","2017/10/05 19:09:56","新北市板橋區民生路三段251號","121.46444","25.0290533333333","6500100","板橋區"
"220055","827-TW","2017/10/05 19:09:43","新北市板橋區新民街7巷25號","121.463551666667","25.010435","6500100","板橋區"
"220067","829-TW","2017/10/05 19:09:40","新北市板橋區民享街116巷6號","121.47817","25.015625","6500100","板橋區"
"220102","830-TW","2017/10/05 19:09:36","新北市板橋區萬板路818巷20號","121.482893333333","25.0268083333333","6500100","板橋區"
"220096","831-TW","2017/10/05 19:09:49","新北市板橋區雙十路二段47巷3號","121.476228333333","25.0260516666667","6500100","板橋區"
"220074","895-R6","2017/10/05 19:09:59","新北市板橋區中正路69巷1弄7號","121.455878333333","25.0136333333333","6500100","板橋區"
"220073","985-R7","2017/10/05 19:09:41","新北市板橋區中正路249號","121.455771666667","25.018275","6500100","板橋區"
"220097","AAC-210","2017/10/05 19:09:53","新北市板橋區幸福路60巷81號","121.459705","25.0218216666667","6500100","板橋區"
"220070","AAC-253","2017/10/05 19:09:49","新北市板橋區忠孝路21號","121.460426666667","25.00205","6500100","板橋區"
