"lineid","car","time","location","longitude","latitude","cityid","cityname"
"234046","148-BY","2017/10/05 19:19:43","新北市永和區永元路18巷37號","121.52403","25.0002916666667","6500400","永和區"
"234013","149-BY","2017/10/05 19:19:39","新北市永和區信義路77號","121.512425","25.0132683333333","6500400","永和區"
"234007","207-UY","2017/10/05 19:19:49","新北市永和區中山路一段232號","121.507816666667","25.00816","6500400","永和區"
"234081","298-R6","2017/10/05 19:19:52","新北市永和區福和路7巷12弄1號","121.525441666667","25.00749","6500400","永和區"
"234038","336-UY","2017/10/05 19:19:53","新北市永和區民樂街59巷24號","121.528376666667","24.998245","6500400","永和區"
"234064","337-UY","2017/10/05 19:19:41","新北市永和區永元路17巷6弄1號","121.521381666667","25.0007433333333","6500400","永和區"
"234086","338-UY","2017/10/05 19:19:47","新北市永和區永利路62號","121.519336666667","25.0050383333333","6500400","永和區"
"234070","552-UM","2017/10/05 19:19:52","新北市永和區中正路696號","121.516663333333","25.00983","6500400","永和區"
"234054","553-UM","2017/10/05 19:19:47","新北市永和區中興街61號","121.516663333333","25.0117033333333","6500400","永和區"
"234017","745-BX","2017/10/05 19:19:46","新北市永和區文化路144巷31弄6號","121.512455","25.0167633333333","6500400","永和區"
"234030","746-BX","2017/10/05 19:19:54","新北市永和區厚德街67號","121.525033333333","24.9986716666667","6500400","永和區"
"234061","AAD-866","2017/10/05 19:19:40","新北市永和區中正路381號","121.5172","25.0036516666667","6500400","永和區"
"234042","862-TW","2017/10/05 19:19:55","新北市永和區保平路151巷6弄11號","121.509855","25.004965","6500400","永和區"
"234050","863-TW","2017/10/05 19:19:53","新北市永和區保福路二段88巷27號","121.511843333333","25.0136766666667","6500400","永和區"
"234026","9371-KE","2017/10/05 19:19:56","新北市中和區安樂路161-1號","121.514771666667","24.9974433333333","6500400","永和區"
"234011","9373-KE","2017/10/05 19:19:42","新北市永和區仁愛路141巷5弄8號","121.51209","25.0120083333333","6500400","永和區"
"249005","172-UM","2017/10/05 19:19:57","新北市八里區中華路三段98號","121.392805","25.1381133333333","6502300","八里區"
"249001","173-UM","2017/10/05 19:19:52","新北市八里區中華路一段298號","121.414888333333","25.1548283333333","6502300","八里區"
"249003","593-UM","2017/10/05 19:19:45","新北市八里區中山路二段466巷3號","121.398788333333","25.1473883333333","6502300","八里區"
"248020","225-UY","2017/10/05 19:00:59","新北市五股區凌雲路三段57號","121.425276666667","25.12501","6501500","五股區"
"248012","247-BX","2017/10/05 19:19:47","新北市五股區中興路四段48巷16號","121.438608333333","25.0834283333333","6501500","五股區"
"248010","272-BY","2017/10/05 19:19:50","新北市五股區水碓一路23號","121.430585","25.0712566666667","6501500","五股區"
"248004","677-BX","2017/10/05 19:19:48","新北市五股區五福路45號","121.433115","25.0895766666667","6501500","五股區"
"248002","678-BX","2017/10/05 17:52:25","新北市五股區中興路二段37巷28號","121.460155","25.0748916666667","6501500","五股區"
"234023","9380-KE","2017/10/05 19:19:50","新北市永和區竹林路124巷12號","121.519163333333","25.0112666666667","6500400","永和區"
"234077","969-R7","2017/10/05 19:19:48","新北市永和區民治街68號","121.517818333333","24.9980116666667","6500400","永和區"
"234074","AAC-211","2017/10/05 19:19:47","新北市永和區竹林路90號","121.51951","25.0123066666667","6500400","永和區"
"234067","AAC-212","2017/10/05 19:19:53","新北市永和區保平路95號","121.511481666667","25.006945","6500400","永和區"
"234003","AAC-295","2017/10/05 19:19:48","新北市永和區永平路152巷4號","121.511531666667","25.0088933333333","6500400","永和區"
"244013","069-UM","2017/10/05 19:19:58","新北市林口區麗園一街4巷2號","121.37657","25.0706066666667","6501700","林口區"
"244019","403-UM","2017/10/05 19:19:53","新北市林口區麗園二街15號","121.379176666667","25.0695933333333","6501700","林口區"
"244023","483-VK","2017/10/05 19:19:47","新北市林口區文化三路一段575號","121.371095","25.0763166666667","6501700","林口區"
"244011","656-BX","2017/10/05 19:19:52","新北市林口區湖南里70-9號","121.375945","25.0897083333333","6501700","林口區"
"243013","AAD-798","2017/10/05 19:19:37","新北市泰山區明志路三段145巷2弄1號","121.42545","25.03989","6501600","泰山區"
"243009","297-R6","2017/10/05 19:19:46","新北市泰山區和平街11號","121.43433","25.0646216666667","6501600","泰山區"
"243015","380-SR","2017/10/05 19:19:41","新北市泰山區公園路71號","121.426316666667","25.0554183333333","6501600","泰山區"
"243014","421-VK","2017/10/05 19:19:43","新北市泰山區泰林路二段81號","121.434975","25.05858","6501600","泰山區"
"243010","KEA-2215","2017/10/05 19:19:38","新北市泰山區明志路一段509號","121.430585","25.0543916666667","6501600","泰山區"
"243011","KEA-2216","2017/10/05 19:19:46","新北市泰山區貴子路15巷1弄2號","121.42644","25.0421016666667","6501600","泰山區"
"243012","646-TV","2017/10/05 19:19:55","新北市泰山區仁愛路100巷31號","121.4336","25.0548333333333","6501600","泰山區"
"243016","680-BX","2017/10/05 19:19:45","新北市泰山區工專路74號","121.422495","25.0405466666667","6501600","泰山區"
"222003","436-BY","2017/10/05 19:19:59","新北市深坑區深南路204號","121.626626666667","25.0159916666667","6501800","深坑區"
"222002","659-BX","2017/10/05 19:19:42","新北市深坑區北深路一段177號","121.63256","25.0109183333333","6501800","深坑區"
"222001","696-SL","2017/10/05 19:19:50","新北市深坑區北深路二段82號","121.617541666667","25.0034983333333","6501800","深坑區"
"231041","002-UM","2017/10/05 19:19:47","新北市新店區溪園路245-6號","121.525323333333","24.983215","6500600","新店區"
"231059","046-UY","2017/10/05 19:19:36","新北市新店區安和路三段22-4號","121.517951666667","24.98163","6500600","新店區"
"231061","047-UY","2017/10/05 19:19:49","新北市新店區安康路一段124號","121.52693","24.9627333333333","6500600","新店區"
"231060","106-UY","2017/10/05 19:19:48","新北市新店區安康路二段105-1號","121.512751666667","24.9624383333333","6500600","新店區"
"231051","107-UY","2017/10/05 19:19:40","新北市新店區百忍街50巷2弄2號","121.533551666667","24.97629","6500600","新店區"
"231047","110-UY","2017/10/05 19:19:47","新北市新店區中興路二段81號","121.546938333333","24.9710683333333","6500600","新店區"
"231052","187-VK","2017/10/05 19:19:50","新北市新店區自強路115號","121.54614","24.9231783333333","6500600","新店區"
"231007","189-VK","2017/10/05 11:53:53","新北市新店區安華路28-1號","121.519556666667","24.961125","6500600","新店區"
"231050","215-TC","2017/10/05 19:19:59","新北市新店區竹林路75號","121.553743333333","24.9511133333333","6500600","新店區"
"231046","278-BY","2017/10/05 19:19:49","新北市新店區安康路一段35號","121.531741666667","24.9607066666667","6500600","新店區"
"231054","AAD-862","2017/10/05 19:19:45","新北市新店區國校路20-1號","121.53788","24.955055","6500600","新店區"
"231044","355-BY","2017/10/05 19:19:56","新北市新店區中興路三段313號","121.541901666667","24.9860833333333","6500600","新店區"
"231058","3712-VJ","2017/10/05 19:19:38","新北市新店區光明街286巷4號","121.540545","24.963775","6500600","新店區"
"231067","4772-VM","2017/10/05 19:19:50","新北市新店區安康路二段414巷2號","121.49584","24.95779","6500600","新店區"
"231065","512-UM","2017/10/05 19:19:41","新北市新店區安祥路110巷51-1號","121.473551666667","24.9566816666667","6500600","新店區"
"231064","515-UM","2017/10/05 19:19:56","新北市新店區安忠路57巷26弄3號","121.513015","24.9586616666667","6500600","新店區"
"231040","619-UM","2017/10/05 19:19:46","新北市新店區三民路20巷4號","121.53795","24.9705483333333","6500600","新店區"
"231042","641-BX","2017/10/05 19:19:36","新北市新店區中興路一段39號","121.539168333333","24.95969","6500600","新店區"
"231063","645-TV","2017/10/05 19:19:53","新北市新店區達觀路14巷1-3號","121.503991666667","24.9421933333333","6500600","新店區"
"231049","719-UM","2017/10/05 19:19:52","新北市新店區明德路119號","121.541195","24.9798183333333","6500600","新店區"
"231062","720-UM","2017/10/05 19:19:56","新北市新店區莒光路38巷3號","121.52218","24.9588433333333","6500600","新店區"
"231045","898-TW","2017/10/05 19:19:57","新北市新店區北宜路一段278號","121.546383333333","24.952675","6500600","新店區"
"231043","899-TW","2017/10/05 19:19:43","新北市新店區北新路二段107號","121.542958333333","24.97449","6500600","新店區"
"231066","AKT-0513","2017/10/05 19:19:40","新北市新店區安康路三段355巷8號","121.484748333333","24.9502783333333","6500600","新店區"
"241009","060-VK","2017/10/05 19:19:39","新北市三重區溪尾街230巷42-1號","121.486188333333","25.0811666666667","6500200","三重區"
"241017","063-VK","2017/10/05 19:19:47","新北市三重區大同北路217號","121.491571666667","25.0660216666667","6500200","三重區"
"241026","156-TC","2017/10/05 19:19:49","新北市三重區中正南路187號","121.493658333333","25.0551116666667","6500200","三重區"
"241022","267-UM","2017/10/05 19:19:42","新北市三重區中正北路48號","121.487096666667","25.0641883333333","6500200","三重區"
"241013","270-UM","2017/10/05 19:19:52","新北市三重區仁賢街36-8號","121.496931666667","25.0750633333333","6500200","三重區"
"241025","271-UM","2017/10/05 19:19:48","新北市三重區中正北路408巷2號","121.475333333333","25.0703116666667","6500200","三重區"
"241031","KEA-2210","2017/10/05 19:19:46","新北市三重區重新路四段172號","121.48638","25.055415","6500200","三重區"
"241020","413-TH","2017/10/05 19:19:45","新北市三重區後竹圍街101號","121.489193333333","25.072925","6500200","三重區"
"241030","480-VK","2017/10/05 19:19:45","新北市三重區成功路41巷72號","121.491346666667","25.053355","6500200","三重區"
"241006","887-TS","2017/10/05 19:19:54","新北市三重區車路頭街182號","121.483618333333","25.0772116666667","6500200","三重區"
"241029","942-UM","2017/10/05 19:19:54","新北市三重區重安街33號","121.491148333333","25.05691","6500200","三重區"
"235066","003-UY","2017/10/05 19:19:58","新北市中和區景新街2號","121.502615","24.99966","6500300","中和區"
"235064","005-UY","2017/10/05 19:19:46","新北市中和區連城路21號","121.49886","25.0020283333333","6500300","中和區"
"235063","006-UY","2017/10/05 19:19:58","新北市中和區中正路596號","121.48586","24.99525","6500300","中和區"
"235056","096-UM","2017/10/05 19:19:55","新北市中和區員山路531號","121.479613333333","25.0069866666667","6500300","中和區"
"235039","097-UM","2017/10/05 19:19:45","新北市中和區自立路58巷12號","121.523123333333","24.99144","6500300","中和區"
"235065","098-UM","2017/10/05 19:19:46","新北市中和區中山路二段64巷3號","121.503635","25.00493","6500300","中和區"
"235040","150-BY","2017/10/05 19:19:49","新北市中和區保健路50巷54號","121.509451666667","24.99581","6500300","中和區"
"235058","151-BY","2017/10/05 19:19:43","新北市中和區連城路523巷9弄2號","121.481728333333","24.9945383333333","6500300","中和區"
"235055","183-VK","2017/10/05 19:19:54","新北市中和區德光路56號","121.469825","25.004015","6500300","中和區"
"235038","185-VK","2017/10/05 19:19:51","新北市中和區大仁街10巷27弄4號","121.519205","24.9927433333333","6500300","中和區"
"235049","186-VK","2017/10/05 19:19:53","新北市中和區景新街241號","121.508183333333","24.9944316666667","6500300","中和區"
"235067","255-BX","2017/10/05 19:19:54","新北市中和區新生街177巷3號","121.484023333333","25.00077","6500300","中和區"
"235044","293-VK","2017/10/05 19:19:37","新北市中和區中興街241號","121.500331666667","24.989105","6500300","中和區"
"235072","301-VK","2017/10/05 19:19:37","新北市中和區連城路265巷12弄2號","121.49174","24.9952083333333","6500300","中和區"
"235043","352-BY","2017/10/05 19:19:45","新北市中和區景平路217號","121.510478333333","24.9927216666667","6500300","中和區"
"235068","375-QA","2017/10/05 19:19:40","新北市中和區圓通路158巷1弄3號","121.497403333333","24.9957416666667","6500300","中和區"
"235051","376-QA","2017/10/05 19:19:51","新北市中和區興南路一段75號","121.510148333333","24.9891666666667","6500300","中和區"
"235061","378-QA","2017/10/05 19:19:57","新北市中和區員山路394巷12弄10號","121.481335","25.00411","6500300","中和區"
"235071","269-TV","2017/10/05 19:19:47","新北市中和區連城路469巷54號","121.483451666667","24.9942616666667","6500300","中和區"
"235050","4979-A6","2017/10/05 19:19:50","新北市中和區景安路208巷7號","121.503561666667","24.9911583333333","6500300","中和區"
"235069","4980-A6","2017/10/05 19:19:52","新北市中和區福祥路77號","121.49915","25.0055416666667","6500300","中和區"
"235042","551-UM","2017/10/05 19:19:40","新北市中和區大勇街60巷14弄1號","121.518706666667","24.9945183333333","6500300","中和區"
"235070","558-UM","2017/10/05 19:19:26","新北市中和區景新街43號","121.504011666667","24.9992883333333","6500300","中和區"
"235045","565-BX","2017/10/05 19:19:53","新北市中和區景新街437巷23號","121.514391666667","24.9893933333333","6500300","中和區"
"235054","640-BX","2017/10/05 19:19:55","新北市中和區國光街109巷2弄10號","121.469253333333","25.0006833333333","6500300","中和區"
"235060","647-TV","2017/10/05 19:19:53","新北市中和區民有街25號","121.475758333333","25.0051033333333","6500300","中和區"
"235047","732-UM","2017/10/05 19:19:46","新北市中和區和平街38巷3號","121.509196666667","24.990725","6500300","中和區"
"235046","733-UM","2017/10/05 19:19:51","新北市中和區忠孝街2巷14弄10號","121.510713333333","24.98138","6500300","中和區"
"235062","800-TS","2017/10/05 19:19:45","新北市中和區中正路637巷2弄6號","121.484951666667","24.9956683333333","6500300","中和區"
"235057","801-TS","2017/10/05 19:19:44","新北市中和區民利街87號","121.478171666667","24.9981066666667","6500300","中和區"
"235041","802-TS","2017/10/05 19:19:46","新北市中和區景安路57號","121.507165","24.9981","6500300","中和區"
"235052","805-TS","2017/10/05 19:19:45","新北市中和區興南路二段128巷4號","121.5041","24.98366","6500300","中和區"
"235048","896-TW","2017/10/05 19:19:42","新北市中和區忠孝街60巷7號","121.511693333333","24.9838333333333","6500300","中和區"
"235053","900-TW","2017/10/05 19:19:45","新北市中和區華福街57巷6號","121.466828333333","24.996945","6500300","中和區"
"235037","AAC-213","2017/10/05 19:19:50","新北市中和區秀朗路三段50巷12弄6號","121.524051666667","24.9952933333333","6500300","中和區"
"235059","AAC-215","2017/10/05 19:19:56","新北市中和區錦和路195巷3弄1號","121.491305","24.9909883333333","6500300","中和區"
"220065","072-UY","2017/10/05 19:19:49","新北市板橋區民族路129巷10號","121.467621666667","25.0084833333333","6500100","板橋區"
"220086","073-UY","2017/10/05 19:19:57","新北市板橋區國光路189號","121.461171666667","25.0186166666667","6500100","板橋區"
"220106","075-UY","2017/10/05 19:19:43","新北市板橋區雙十路三段15號","121.471006666667","25.031135","6500100","板橋區"
"220069","AAD-861","2017/10/05 19:19:49","新北市板橋區大華街71號","121.459433333333","25.00349","6500100","板橋區"
"220068","120-SR","2017/10/05 19:19:54","新北市板橋區三民路一段1巷39號","121.480258333333","25.024925","6500100","板橋區"
"247008","053-VK","2017/10/05 19:19:54","新北市五股區中興路三段163號","121.449111666667","25.0807166666667","6501400","蘆洲區"
"226004","312-R5","2017/10/05 19:19:45","新北市平溪區十分里十分街112號","121.776865","25.0429616666667","6502400","平溪區"
"228003","097-TW","2017/10/05 19:19:37","新北市貢寮區和美里和美街22-1號","121.912801666667","25.08262","6502600","貢寮區"
"228001","212-TW","2017/10/05 19:19:51","新北市貢寮區真理里新港街10號","121.92557","25.0544533333333","6502600","貢寮區"
"228002","585-TW","2017/10/05 19:19:51","新北市貢寮區龍門里復興街29-3號","121.9275","25.0281583333333","6502600","貢寮區"
"224010","AGQ-8101","2017/10/05 19:18:08","新北市瑞芳區基山街31巷10號","121.845433333333","25.1095233333333","6501200","瑞芳區"
"224006","676-BX","2017/10/05 19:19:44","新北市瑞芳區中山路154號","121.80228","25.1065283333333","6501200","瑞芳區"
"224009","285-BY","2017/10/05 19:19:39","新北市瑞芳區洞頂路148號","121.859715","25.1184516666667","6501200","瑞芳區"
"224008","275-VK","2017/10/05 19:19:57","新北市瑞芳區瑞芳街118號","121.801491666667","25.1109383333333","6501200","瑞芳區"
"224005","271-BY","2017/10/05 19:19:39","新北市瑞芳區三爪子坑路89-17號","121.812211666667","25.107345","6501200","瑞芳區"
"227004","642-TC","2017/10/05 19:19:56","新北市雙溪區平林里梅竹蹊66-1號","121.860128333333","25.0358233333333","6502500","雙溪區"
"227010","400-TW","2017/10/05 19:19:58","新北市雙溪區新基里新基北街33號","121.869103333333","25.03832","6502500","雙溪區"
"253005","032-BX","2017/10/05 19:19:47","新北市石門區阿里荖6-2號","121.609921666667","25.279955","6502200","石門區"
"253006","295-VK","2017/10/05 19:19:43","新北市石門區崁子腳26號","121.53544","25.29079","6502200","石門區"
"208002","742-BX","2017/10/05 19:19:57","新北市金山區環金路376巷1號","121.632023333333","25.2222266666667","6502700","金山區"
"208003","665-BX","2017/10/05 19:19:51","新北市金山區中山路119巷13號","121.639031666667","25.2189316666667","6502700","金山區"
"208001","761-BX","2017/10/05 19:19:57","新北市金山區民生路69號","121.640131666667","25.2197","6502700","金山區"
"251009","008-UM","2017/10/05 19:19:42","新北市淡水區中山路135號","121.441078333333","25.1715766666667","6501000","淡水區"
"251001","011-UM","2017/10/05 19:19:54","新北市淡水區自強路201巷39號","121.462075","25.1268066666667","6501000","淡水區"
"251007","179-VK","2017/10/05 19:19:41","新北市淡水區大同路113巷6號","121.463555","25.1414566666667","6501000","淡水區"
"251014","182-VK","2017/10/05 19:19:45","新北市淡水區小中寮19-7號","121.484753333333","25.2296483333333","6501000","淡水區"
"251010","413-VK","2017/10/05 19:19:47","新北市淡水區沙崙路30號","121.421513333333","25.1814466666667","6501000","淡水區"
"251016","442-VK","2017/10/05 19:19:49","新北市淡水區淡金路三段350巷18號","121.450816666667","25.2083816666667","6501000","淡水區"
"251005","443-VK","2017/10/05 19:19:48","新北市淡水區建設街1巷1號","121.438888333333","25.1728333333333","6501000","淡水區"
"251011","650-BX","2017/10/05 19:19:38","新北市淡水區中正東路二段143巷2弄1號","121.460696666667","25.1473933333333","6501000","淡水區"
"251002","672-BX","2017/10/05 19:19:47","新北市淡水區中正路32巷7號","121.430518333333","25.1753916666667","6501000","淡水區"
"251003","673-BX","2017/10/05 19:19:58","新北市淡水區中山路170號","121.441161666667","25.173945","6501000","淡水區"
"207003","550-UM","2017/10/05 19:19:57","新北市萬里區大鵬里萬里加投79-3號","121.647325","25.2123466666667","6502800","萬里區"
"207004","225-TW","2017/10/05 19:19:55","新北市萬里區萬里里成功新村44號","121.687716666667","25.1746283333333","6502800","萬里區"
"252002","178-VK","2017/10/05 19:19:51","新北市三芝區淡金路二段18-1號","121.50268","25.2595366666667","6502100","三芝區"
"252003","249-BX","2017/10/05 19:19:55","新北市三芝區埔坪里埔頭坑107號","121.504436666667","25.2614866666667","6502100","三芝區"
"252001","292-VK","2017/10/05 19:19:52","新北市三芝區長勤街9巷9弄2號","121.50177","25.2549983333333","6502100","三芝區"
"237004","078-UY","2017/10/05 19:19:53","新北市三峽區有木205號","121.439013333333","24.8517866666667","6500900","三峽區"
"237007","153-BY","2017/10/05 19:19:44","新北市三峽區中正路二段42巷84號","121.364445","24.9203866666667","6500900","三峽區"
"237013","252-BX","2017/10/05 19:19:46","新北市三峽區光明路75巷20號","121.377521666667","24.9281283333333","6500900","三峽區"
"237012","275-BY","2017/10/05 19:19:40","新北市三峽區三樹路222巷236弄8-3號","121.39141","24.9430016666667","6500900","三峽區"
"237008","302-VK","2017/10/05 19:19:51","新北市三峽區光明路106巷73號","121.37489","24.9265983333333","6500900","三峽區"
"237006","5529-G3","2017/10/05 19:19:47","新北市三峽區溪東路1號","121.39928","24.9355433333333","6500900","三峽區"
"237011","572-TV","2017/10/05 18:07:13","新北市三峽區溪北街2號","121.396005","24.93623","6500900","三峽區"
"237016","649-BX","2017/10/05 19:19:53","新北市三峽區安坑49號","121.46012","24.9322216666667","6500900","三峽區"
"237010","706-TV","2017/10/05 19:17:30","新北市三峽區民生街72號","121.37458","24.9358533333333","6500900","三峽區"
"237005","AKY-6261","2017/10/05 19:19:46","新北市三峽區中山路459巷24號","121.3575","24.939","6500900","三峽區"
"236071","105-UM","2017/10/05 19:19:50","新北市土城區學成路120號","121.44949","24.9894816666667","6501300","土城區"
"236042","107-UM","2017/10/05 19:19:40","新北市土城區學府路一段276號","121.450073333333","24.9830033333333","6501300","土城區"
"236078","166-UM","2017/10/05 19:19:39","新北市土城區龍泉路32號","121.411326666667","24.9471666666667","6501300","土城區"
"236026","269-VK","2017/10/05 19:19:51","新北市土城區中央路二段177巷3弄2號","121.442985","24.97613","6501300","土城區"
"236014","270-VK","2017/10/05 19:19:47","新北市土城區學府路一段23巷25弄2號","121.457741666667","24.9867266666667","6501300","土城區"
"236021","401-BY","2017/10/05 19:19:42","新北市土城區延峰街18號","121.468738333333","24.9862366666667","6501300","土城區"
"236058","912-UM","2017/10/05 19:19:51","新北市土城區千歲路3巷6弄26號","121.442136666667","24.9704033333333","6501300","土城區"
"236051","913-UM","2017/10/05 19:09:24","新北市土城區明德路一段398-1號","121.453721666667","24.9790833333333","6501300","土城區"
"236053","AAC-216","2017/10/05 19:19:52","新北市土城區學府路一段276號","121.449941666667","24.9830166666667","6501300","土城區"
"238015","755-BX","2017/10/05 19:19:40","新北市樹林區備內街1巷21號","121.413186666667","24.9867","6500700","樹林區"
"238023","601-UM","2017/10/05 19:19:47","新北市樹林區三興路41號","121.395953333333","25.0145383333333","6500700","樹林區"
"238019","599-UM","2017/10/05 19:19:51","新北市樹林區東榮街90號","121.415936666667","24.98265","6500700","樹林區"
"238024","5061-A6","2017/10/05 19:19:45","新北市樹林區福德街48-4號","121.399043333333","24.9749","6500700","樹林區"
"238021","KEA-2217","2017/10/05 19:19:45","新北市樹林區柑園街二段342巷37號","121.3712","24.9521166666667","6500700","樹林區"
"238022","KEA-2213","2017/10/05 19:19:41","新北市樹林區中山路二段151巷6弄1號","121.406693333333","24.9784366666667","6500700","樹林區"
"238018","308-TH","2017/10/05 19:19:43","新北市樹林區中山路三段214號","121.379743333333","24.9677266666667","6500700","樹林區"
"238025","303-VK","2017/10/05 19:19:39","新北市樹林區中山路三段107-1號","121.399916666667","24.9747066666667","6500700","樹林區"
"238017","283-BY","2017/10/05 19:19:40","新北市樹林區大安路455號","121.414955","24.9879183333333","6500700","樹林區"
"238014","282-BY","2017/10/05 19:19:39","新北市樹林區中正路22-1號","121.427733333333","24.99936","6500700","樹林區"
"238020","268-VK","2017/10/05 19:19:42","新北市樹林區俊英街135巷73弄8號","121.424273333333","25.0114133333333","6500700","樹林區"
"238026","172-UY","2017/10/05 19:19:55","新北市樹林區佳園路二段13號","121.393406666667","24.96416","6500700","樹林區"
"238016","169-UY","2017/10/05 19:19:42","新北市樹林區備前街56巷2-2號","121.416665","24.9862433333333","6500700","樹林區"
"239007","AAC-297","2017/10/05 19:19:45","新北市鶯歌區中正一路223巷1號","121.35404","24.9574583333333","6500800","鶯歌區"
"239006","891-R6","2017/10/05 19:19:37","新北市鶯歌區鶯桃路296巷46-1號","121.335761666667","24.9613483333333","6500800","鶯歌區"
"239008","527-UM","2017/10/05 19:19:44","新北市鶯歌區國際二路2巷7號","121.339148333333","24.973035","6500800","鶯歌區"
"239005","526-UM","2017/10/05 19:19:50","新北市鶯歌區東湖路13-1號","121.353025","24.971925","6500800","鶯歌區"
"239001","417-VK","2017/10/05 19:19:52","新北市鶯歌區永智街41號","121.336726666667","24.9541383333333","6500800","鶯歌區"
"239003","360-BY","2017/10/05 19:19:54","新北市鶯歌區重慶街49號","121.351513333333","24.9524366666667","6500800","鶯歌區"
"239004","193-VK","2017/10/05 19:19:50","新北市鶯歌區中正三路388巷1弄2號","121.326515","24.93499","6500800","鶯歌區"
"221008","489-VK","2017/10/05 19:19:42","新北市汐止區康寧街349號","121.628165","25.0675733333333","6501100","汐止區"
"221036","130-UY","2017/10/05 19:19:49","新北市汐止區大同路二段339號","121.65645","25.0671616666667","6501100","汐止區"
"221015","131-UY","2017/10/05 19:19:49","新北市汐止區康寧街901號","121.651663333333","25.074895","6501100","汐止區"
"221010","269-BY","2017/10/05 19:19:39","新北市汐止區康寧街901號","121.651458333333","25.0750183333333","6501100","汐止區"
"221012","276-VK","2017/10/05 13:01:40","新北市汐止區汐萬路一段256巷3號","121.653453333333","25.0746433333333","6501100","汐止區"
"221012","278-VK","2017/10/05 19:19:50","新北市汐止區汐萬路一段242號","121.65153","25.073105","6501100","汐止區"
"221023","279-VK","2017/10/05 19:19:41","新北市汐止區康寧街901號","121.650986666667","25.0752066666667","6501100","汐止區"
"221027","281-BY","2017/10/05 19:19:44","新北市汐止區汐萬路一段310號","121.650323333333","25.074675","6501100","汐止區"
"221029","298-VK","2017/10/05 19:19:38","新北市汐止區康寧街901號","121.651536666667","25.0749833333333","6501100","汐止區"
"221021","299-VK","2017/10/05 19:19:42","新北市汐止區康寧街901號","121.651423333333","25.0749933333333","6501100","汐止區"
"221031","353-TW","2017/10/05 19:19:49","新北市汐止區福德二路54巷2弄11號","121.634148333333","25.0678833333333","6501100","汐止區"
"221025","623-UM","2017/10/05 19:19:54","新北市汐止區汐萬路一段273號","121.650483333333","25.0744883333333","6501100","汐止區"
"221038","646-BX","2017/10/05 19:19:38","新北市汐止區汐萬路一段312號","121.650686666667","25.07529","6501100","汐止區"
"221033","647-BX","2017/10/05 19:19:47","新北市汐止區南勢街3號","121.627071666667","25.0373933333333","6501100","汐止區"
"221002","707-TV","2017/10/05 19:19:37","新北市汐止區大同路一段317號","121.63791","25.0591433333333","6501100","汐止區"
"220079","145-BY","2017/10/05 19:19:56","新北市板橋區民權路260巷32號","121.45893","25.0152683333333","6500100","板橋區"
"220082","610-BX","2017/10/05 19:19:58","新北市板橋區滿平街84巷118號","121.427001666667","24.98633","6500100","板橋區"
"220101","245-BX","2017/10/05 19:19:50","新北市板橋區莊敬路71號","121.474351666667","25.0268083333333","6500100","板橋區"
"220091","267-BY","2017/10/05 19:19:36","新北市板橋區縣民大道三段187巷9弄2號","121.478996666667","25.0251233333333","6500100","板橋區"
"220056","276-BY","2017/10/05 19:19:53","新北市板橋區國慶路8號","121.458181666667","24.9944483333333","6500100","板橋區"
"220072","277-BY","2017/10/05 19:19:42","新北市板橋區金門街337巷7弄23號","121.430613333333","24.9851983333333","6500100","板橋區"
"220064","280-UM","2017/10/05 19:19:57","新北市板橋區板新路238號","121.468208333333","25.01606","6500100","板橋區"
"220064","282-UM","2017/10/05 11:21:22","新北市板橋區華東街1-9號","121.448168333333","24.9948366666667","6500100","板橋區"
"220071","283-VK","2017/10/05 19:19:50","新北市板橋區大豐街15號","121.46242","25.0014233333333","6500100","板橋區"
"220094","285-UM","2017/10/05 19:19:39","新北市板橋區光武街110巷45號","121.466986666667","25.0302433333333","6500100","板橋區"
"220053","285-VK","2017/10/05 19:19:56","新北市板橋區富山街7巷5號","121.4786","25.0215083333333","6500100","板橋區"
"220083","286-VK","2017/10/05 19:19:46","新北市板橋區大觀路二段174巷186弄8號","121.442615","25.003545","6500100","板橋區"
"220081","287-VK","2017/10/05 18:57:16","新北市板橋區光華街13巷6號","121.453928333333","25.0115233333333","6500100","板橋區"
"220090","288-VK","2017/10/05 19:19:46","新北市板橋區長江路一段106巷13弄33號","121.461316666667","25.0297416666667","6500100","板橋區"
"220061","293-UM","2017/10/05 19:19:53","新北市板橋區中山路二段318巷20弄2號","121.480506666667","25.01876","6500100","板橋區"
"220084","296-UM","2017/10/05 19:19:51","新北市板橋區溪崑二街66巷6號","121.427613333333","24.9905816666667","6500100","板橋區"
"220075","297-UM","2017/10/05 19:19:55","新北市板橋區僑中一街124巷70-5號","121.449423333333","25.0174066666667","6500100","板橋區"
"220092","299-UM","2017/10/05 19:19:53","新北市板橋區光武街48巷6-1號","121.467426666667","25.026595","6500100","板橋區"
"220062","303-R5","2017/10/05 19:19:56","新北市板橋區三民路二段居仁巷2弄17號","121.479733333333","25.0128983333333","6500100","板橋區"
"220098","317-R6","2017/10/05 19:19:47","新北市板橋區民有街87號","121.464721666667","25.0275816666667","6500100","板橋區"
"220080","461-BY","2017/10/05 19:19:44","新北市板橋區大觀路二段19巷113號","121.450328333333","25.0026683333333","6500100","板橋區"
"220089","487-VK","2017/10/05 19:19:52","新北市板橋區文化路一段379號","121.467035","25.021535","6500100","板橋區"
"220088","491-VK","2017/10/05 19:19:57","新北市板橋區雙十路二段69號","121.476306666667","25.026755","6500100","板橋區"
"220035","560-BX","2017/10/05 19:19:53","新北市板橋區新生街89巷36號","121.456595","25.0225283333333","6500100","板橋區"
"220103","561-BX","2017/10/05 19:19:56","新北市板橋區介壽街34號","121.468131666667","25.01999","6500100","板橋區"
"220063","609-BX","2017/10/05 19:19:54","新北市板橋區三民路二段40號","121.47915","25.0176883333333","6500100","板橋區"
"220054","630-UY","2017/10/05 19:19:57","新北市板橋區重慶路76巷27號","121.461138333333","25.0061966666667","6500100","板橋區"
"220057","686-BX","2017/10/05 19:19:51","新北市板橋區重慶路344號","121.464178333333","24.9972433333333","6500100","板橋區"
"220077","687-BX","2017/10/05 19:19:43","新北市板橋區大觀路一段28巷72號","121.449805","25.0106833333333","6500100","板橋區"
"220093","689-BX","2017/10/05 19:19:56","新北市板橋區文化路一段247號","121.464483333333","25.0180816666667","6500100","板橋區"
"220055","827-TW","2017/10/05 19:19:51","新北市板橋區館前東路156巷44號","121.464521666667","25.0065666666667","6500100","板橋區"
"220067","829-TW","2017/10/05 19:19:43","新北市板橋區長安街232-3號","121.475145","25.0124866666667","6500100","板橋區"
"220102","830-TW","2017/10/05 19:19:56","新北市板橋區文聖街178號","121.479201666667","25.0268766666667","6500100","板橋區"
"220096","831-TW","2017/10/05 19:19:54","新北市板橋區大同街14-4號","121.477563333333","25.02681","6500100","板橋區"
"220074","895-R6","2017/10/05 19:19:52","新北市板橋區中正路自強新村56-1號","121.454701666667","25.0134383333333","6500100","板橋區"
"220073","985-R7","2017/10/05 19:19:41","新北市板橋區新生街89巷1號","121.458141666667","25.0217883333333","6500100","板橋區"
"220097","AAC-210","2017/10/05 19:19:52","新北市板橋區幸福路60巷27號","121.46059","25.0208866666667","6500100","板橋區"
"220070","AAC-253","2017/10/05 19:19:49","新北市板橋區忠孝路142號","121.463765","25.0023733333333","6500100","板橋區"
