"lineid","car","time","location","longitude","latitude","cityid","cityname"
"234030","746-BX","2017/10/05 20:59:41","新北市五股區中直路21號","121.421801666667","25.11171","6500400","永和區"
"234074","AAC-211","2017/10/05 20:59:27","新北市永和區環河東路二段54-1號","121.523323333333","25.011505","6500400","永和區"
"231059","046-UY","2017/10/05 20:59:36","新北市新店區僑信路86號","121.499775","24.9480516666667","6500600","新店區"
"231061","047-UY","2017/10/05 20:59:29","新北市新店區永安街58-2號","121.518751666667","24.9868783333333","6500600","新店區"
"231060","106-UY","2017/10/05 20:59:28","新北市新店區安康路三段525巷39號","121.481713333333","24.9445466666667","6500600","新店區"
"231051","107-UY","2017/10/05 20:59:40","新北市新店區民生路156巷96號","121.527213333333","24.9821483333333","6500600","新店區"
"231047","110-UY","2017/10/05 20:59:27","新北市新店區寶元路二段1巷2號","121.550513333333","24.9842166666667","6500600","新店區"
"231007","189-VK","2017/10/05 11:53:53","新北市新店區安華路28-1號","121.519556666667","24.961125","6500600","新店區"
"231050","215-TC","2017/10/05 20:59:39","新北市新店區三民路117巷2弄1號","121.534621666667","24.9718133333333","6500600","新店區"
"231057","256-BX","2017/10/05 20:59:28","新北市新店區新烏路一段73號","121.546251666667","24.9429866666667","6500600","新店區"
"231054","AAD-862","2017/10/05 20:59:25","新北市新店區北新路一段96巷27號","121.543131666667","24.9693566666667","6500600","新店區"
"231058","3712-VJ","2017/10/05 20:59:38","新北市新店區平等街85號","121.535543333333","24.9723133333333","6500600","新店區"
"231067","4772-VM","2017/10/05 20:59:30","新北市新店區車子路115-11號","121.507936666667","24.9547","6500600","新店區"
"231065","512-UM","2017/10/05 20:59:41","新北市新店區安祥路69巷90號","121.482781666667","24.9591933333333","6500600","新店區"
"231064","515-UM","2017/10/05 20:59:36","新北市新店區安和路二段173號","121.518553333333","24.97459","6500600","新店區"
"231040","619-UM","2017/10/05 20:59:42","新北市新店區中正路118號","121.542296666667","24.9711333333333","6500600","新店區"
"231042","641-BX","2017/10/05 20:59:36","新北市新店區中興路二段199號","121.54824","24.9739633333333","6500600","新店區"
"231063","645-TV","2017/10/05 20:59:32","新北市新店區富貴街10巷1號","121.494128333333","24.94953","6500600","新店區"
"231068","718-UY","2017/10/05 20:59:37","新北市新店區寶元路二段21號","121.546495","24.98195","6500600","新店區"
"231062","720-UM","2017/10/05 20:59:36","新北市新店區裕合街5號","121.489708333333","24.94995","6500600","新店區"
"231043","899-TW","2017/10/05 20:59:43","新北市新店區民族路213號","121.536915","24.9759933333333","6500600","新店區"
"231066","AKT-0513","2017/10/05 20:59:40","新北市新店區吉安街9號","121.516758333333","24.965695","6500600","新店區"
"241011","013-R5","2017/10/05 20:59:31","新北市三重區秀江街119號","121.499676666667","25.0721866666667","6500200","三重區"
"241028","022-UY","2017/10/05 20:59:27","新北市三重區新北大道一段1號","121.491431666667","25.0612766666667","6500200","三重區"
"241008","059-VK","2017/10/05 20:59:24","新北市三重區力行路二段136巷1弄15號","121.482136666667","25.0765383333333","6500200","三重區"
"241009","060-VK","2017/10/05 20:59:39","新北市三重區三和路四段388-2號","121.48206","25.079055","6500200","三重區"
"241015","062-VK","2017/10/05 20:59:37","新北市三重區福德北路46號","121.50203","25.0654616666667","6500200","三重區"
"241017","063-VK","2017/10/05 20:59:26","新北市三重區大智街106號","121.493271666667","25.0666983333333","6500200","三重區"
"241024","065-VK","2017/10/05 20:59:34","新北市三重區大勇街51號","121.481281666667","25.0719416666667","6500200","三重區"
"241002","090-VK","2017/10/05 20:59:41","新北市三重區仁義街157巷67號","121.49861","25.0817633333333","6500200","三重區"
"241003","091-VK","2017/10/05 20:59:42","新北市三重區五華街141巷58號","121.493551666667","25.0867816666667","6500200","三重區"
"241026","156-TC","2017/10/05 20:59:29","新北市三重區文化南路45號","121.50025","25.061415","6500200","三重區"
"241005","262-UM","2017/10/05 20:59:27","新北市三重區五華街141巷1號","121.491075","25.0847033333333","6500200","三重區"
"241016","266-UM","2017/10/05 20:59:36","新北市三重區自強路一段103號","121.495533333333","25.06649","6500200","三重區"
"241022","267-UM","2017/10/05 20:59:21","新北市三重區中正北路20巷12號","121.488015","25.062455","6500200","三重區"
"241018","268-UM","2017/10/05 20:59:27","新北市三重區自強路一段236號","121.49338","25.0670716666667","6500200","三重區"
"241032","269-UM","2017/10/05 20:59:38","新北市三重區三陽路127號","121.483325","25.0591416666667","6500200","三重區"
"241025","271-UM","2017/10/05 20:59:27","新北市三重區貴陽街18-1號","121.484151666667","25.0618966666667","6500200","三重區"
"241007","398-BY","2017/10/05 20:59:28","新北市三重區慈愛街10號","121.484568333333","25.078445","6500200","三重區"
"241031","KEA-2210","2017/10/05 20:59:26","新北市三重區重陽路一段113巷2弄2號","121.487531666667","25.0599833333333","6500200","三重區"
"241020","413-TH","2017/10/05 20:59:44","新北市三重區忠孝路二段35號","121.485901666667","25.071065","6500200","三重區"
"241004","475-VK","2017/10/05 20:59:42","新北市三重區仁愛街423-1號","121.490386666667","25.0814383333333","6500200","三重區"
"241019","478-VK","2017/10/05 20:59:35","新北市三重區自強路二段74巷23號","121.48802","25.06975","6500200","三重區"
"241030","480-VK","2017/10/05 20:59:44","新北市三重區中正南路293號","121.492743333333","25.051935","6500200","三重區"
"241014","543-UM","2017/10/05 20:59:29","新北市三重區長壽街120巷11號","121.502443333333","25.06906","6500200","三重區"
"241023","545-UM","2017/10/05 20:59:43","新北市三重區忠孝路三段50巷41弄64號","121.482371666667","25.0637316666667","6500200","三重區"
"241001","547-UM","2017/10/05 20:59:30","新北市三重區三和路四段83號","121.489153333333","25.0752983333333","6500200","三重區"
"241033","557-UM","2017/10/05 20:59:42","新北市三重區光復路二段164號","121.472136666667","25.0607416666667","6500200","三重區"
"241006","887-TS","2017/10/05 20:59:35","新北市三重區永福街101號","121.479348333333","25.0772933333333","6500200","三重區"
"241012","941-UM","2017/10/05 20:59:29","新北市三重區仁信街27號","121.501298333333","25.0755516666667","6500200","三重區"
"241029","942-UM","2017/10/05 20:59:38","新北市三重區正義南路107號","121.498013333333","25.058535","6500200","三重區"
"235069","4980-A6","2017/10/05 20:59:32","新北市中和區連城路469巷44弄20號","121.482728333333","24.9940316666667","6500300","中和區"
"235026","800-TS","2017/10/05 20:17:14","新北市中和區員山路36巷16-3號","121.484811666667","24.9915816666667","6500300","中和區"
"247022","893-R6","2017/10/05 20:59:24","新北市蘆洲區三民路128巷94號","121.46957","25.0902616666667","6501400","蘆洲區"
"247012","546-UM","2017/10/05 20:59:30","新北市蘆洲區民權路8-1號","121.476673333333","25.08587","6501400","蘆洲區"
"247010","339-TH","2017/10/05 20:59:32","新北市蘆洲區鷺江街95號","121.476755","25.083915","6501400","蘆洲區"
"247002","337-TH","2017/10/05 20:59:29","新北市蘆洲區永平街30號","121.458805","25.0909416666667","6501400","蘆洲區"
"247004","336-TH","2017/10/05 20:59:35","新北市蘆洲區永安南路二段268號","121.458636666667","25.0807483333333","6501400","蘆洲區"
"247016","057-VK","2017/10/05 20:59:26","新北市蘆洲區正和街58號","121.469001666667","25.0814033333333","6501400","蘆洲區"
"247006","056-VK","2017/10/05 20:59:41","新北市蘆洲區永安南路二段16巷8號","121.467753333333","25.0772866666667","6501400","蘆洲區"
"247008","053-VK","2017/10/05 20:59:35","新北市蘆洲區民生街51-1號","121.47484","25.0786016666667","6501400","蘆洲區"
"247014","007-UY","2017/10/05 20:59:40","新北市蘆洲區中山二路36巷9號","121.474363333333","25.0826816666667","6501400","蘆洲區"
"247024","002-UY","2017/10/05 20:59:33","新北市蘆洲區長興路200號","121.460808333333","25.0869733333333","6501400","蘆洲區"
"247018","001-UY","2017/10/05 20:59:34","新北市蘆洲區民權路136-2號","121.47312","25.0888716666667","6501400","蘆洲區"
"227004","642-TC","2017/10/05 20:17:15","新北市雙溪區三貂里定福路1-2號","121.849966666667","25.0636283333333","6502500","雙溪區"
"251004","009-UM","2017/10/05 20:58:46","新北市淡水區新市一路三段101巷16弄36號","121.447055","25.1847883333333","6501000","淡水區"
"251001","011-UM","2017/10/05 20:59:34","新北市淡水區北新路一段2號","121.45336","25.1805733333333","6501000","淡水區"
"251007","179-VK","2017/10/05 20:59:41","新北市淡水區仁愛街2巷14號","121.446423333333","25.1709966666667","6501000","淡水區"
"251014","182-VK","2017/10/05 20:59:25","新北市淡水區淡金路五段72號","121.454968333333","25.2335266666667","6501000","淡水區"
"251010","413-VK","2017/10/05 20:59:27","新北市淡水區淡海路27號","121.423673333333","25.1791266666667","6501000","淡水區"
"251012","441-VK","2017/10/05 20:59:26","新北市淡水區淡金路五段108號","121.456496666667","25.23663","6501000","淡水區"
"251016","442-VK","2017/10/05 20:59:29","新北市淡水區興仁路165號","121.451525","25.2200333333333","6501000","淡水區"
"251005","443-VK","2017/10/05 20:59:27","新北市淡水區學府路88號","121.449186666667","25.1710266666667","6501000","淡水區"
"251011","650-BX","2017/10/05 20:59:38","新北市淡水區新民街302-1號","121.435133333333","25.1829683333333","6501000","淡水區"
"251002","672-BX","2017/10/05 20:59:27","新北市淡水區英專路92號","121.445753333333","25.1717033333333","6501000","淡水區"
"251003","673-BX","2017/10/05 20:59:33","新北市淡水區新春街163號","121.44288","25.1812766666667","6501000","淡水區"
"252002","178-VK","2017/10/05 20:59:31","新北市三芝區淡金路二段91號","121.50406","25.2608983333333","6502100","三芝區"
"237004","078-UY","2017/10/05 20:59:33","新北市樹林區中山路三段214號","121.38035","24.96801","6500900","三峽區"
"236078","166-UM","2017/10/05 20:59:39","新北市土城區城林路6巷80號","121.438578333333","24.9798183333333","6501300","土城區"
"242029","986-R7","2017/10/05 20:59:31","新北市新莊區中華路二段83-1號","121.452618333333","25.0486933333333","6500500","新莊區"
"242048","441-UM","2017/10/05 20:59:36","新北市新莊區建國一路138號","121.434896666667","25.026895","6500500","新莊區"
"242036","133-UY","2017/10/05 20:59:29","新北市新莊區後港一路203號","121.43447","25.0283783333333","6500500","新莊區"
"221012","276-VK","2017/10/05 13:01:40","新北市汐止區汐萬路一段256巷3號","121.653453333333","25.0746433333333","6501100","汐止區"
"221029","298-VK","2017/10/05 20:59:38","新北市汐止區汐萬路一段256巷3號","121.653086666667","25.07443","6501100","汐止區"
"221031","353-TW","2017/10/05 20:59:28","新北市汐止區汐萬路一段256巷1號","121.651723333333","25.07485","6501100","汐止區"
"221038","646-BX","2017/10/05 20:59:37","新北市汐止區汐萬路一段256巷1號","121.652","25.07474","6501100","汐止區"
"220101","245-BX","2017/10/05 20:59:30","新北市八里區下罟子30-35號","121.36781","25.1351733333333","6500100","板橋區"
"220064","282-UM","2017/10/05 11:21:22","新北市板橋區華東街1-9號","121.448168333333","24.9948366666667","6500100","板橋區"
"220062","303-R5","2017/10/05 20:59:26","新北市板橋區長江路二段189巷3號","121.466336666667","25.0346216666667","6500100","板橋區"
"220070","AAC-253","2017/10/05 20:59:28","新北市林口區太平里180號","121.366411666667","25.1345866666667","6500100","板橋區"
