"lineid","car","time","location","longitude","latitude","cityid","cityname"
"232019","758-BX","2017/07/07 08:18:10","新北市坪林區水聳淒坑19-1號","121.712941666667","24.9352616666667","6502000","坪林區"
"244004","248-BX","2017/07/07 08:18:04","新北市林口區嘉寶里6鄰47號","121.314923333333","25.1213566666667","6501700","林口區"
"222005","289-BY","2017/07/07 08:18:03","新北市深坑區深南路158號","121.625601666667","25.01437","6501800","深坑區"
"231007","189-VK","2017/07/07 08:18:01","新北市新店區新潭路一段22巷10號","121.522545","24.9430166666667","6500600","新店區"
"231009","260-TV","2017/07/07 08:17:58","新北市新店區新烏路一段12號","121.546768333333","24.951315","6500600","新店區"
"247002","402-BY","2017/07/07 08:17:56","新北市蘆洲區集賢路372號","121.48053","25.0831616666667","6501400","蘆洲區"
"226005","5620-A6","2017/07/07 08:17:55","新北市平溪區十分里十分街76號","121.776393333333","25.0417983333333","6502400","平溪區"
"226001","7418-A5","2017/07/07 08:18:02","新北市平溪區靜安路三段10號","121.751423333333","25.026505","6502400","平溪區"
"226003","AGD-0702","2017/07/07 08:18:07","新北市平溪區靜安路三段392巷3號","121.783573333333","25.0491916666667","6502400","平溪區"
"223006","022-BY","2017/07/07 08:15:54","新北市坪林區上坑子口19-1號","121.704328333333","24.94827","6501900","石碇區"
"223002","198-BX","2017/07/07 08:17:52","新北市石碇區碇格路二段8號","121.644973333333","24.9617616666667","6501900","石碇區"
"223003","205-TH","2017/07/07 08:18:03","新北市石碇區北宜路六段水底寮巷18號","121.661661666667","24.9405916666667","6501900","石碇區"
"223008","406-TH","2017/07/07 08:18:03","新北市石碇區靜安路一段253號","121.692785","25.0066283333333","6501900","石碇區"
"223001","592-UM","2017/07/07 08:17:49","新北市石碇區北宜路六段柑腳巷3-1號","121.658998333333","24.937825","6501900","石碇區"
"223004","660-BX","2017/07/07 08:17:57","新北市石碇區外按18-2號","121.651533333333","25.000175","6501900","石碇區"
"223007","661-BX","2017/07/07 08:17:49","新北市石碇區靜安路一段253號","121.692686666667","25.006595","6501900","石碇區"
"223005","677-TV","2017/07/07 08:18:03","新北市石碇區外按11-5號","121.651675","24.9995816666667","6501900","石碇區"
"224010","AGQ-8101","2017/07/07 08:15:05","新北市瑞芳區柴寮路31-3號","121.82453","25.0821666666667","6501200","瑞芳區"
"227005","282-VK","2017/07/07 08:17:39","新北市雙溪區上林里大瀨10號","121.822303333333","25.0222033333333","6502500","雙溪區"
"252003","249-BX","2017/07/07 08:18:05","新北市三芝區中山路二段53號","121.503106666667","25.2544","6502100","三芝區"
"237001","159-UY","2017/07/07 08:18:07","新北市三峽區大德路38號","121.377556666667","24.942935","6500900","三峽區"
"236010","165-UM","2017/07/07 08:13:14","新北市土城區石門路100-3號","121.459116666667","24.9519916666667","6501300","土城區"
"236004","339-SR","2017/07/07 08:17:57","新北市土城區中州路76號","121.411981666667","24.9583566666667","6501300","土城區"
"236006","498-BY","2017/07/07 08:18:01","新北市土城區永平街2巷1號","121.427563333333","24.96333","6501300","土城區"
"242003","233-RS","2017/07/07 08:17:52","新北市新莊區環漢路三段525號","121.43549","25.00235","6500500","新莊區"
"220021","282-UM","2017/07/07 08:18:01","新北市樹林區八德街437-1號","121.405455","24.9693716666667","6500100","板橋區"
