"lineid","car","time","location","longitude","latitude","cityid","cityname"
"222005","289-BY","2017/07/07 09:55:46","新北市深坑區深坑街75號","121.61465","25.0013166666667","6501800","深坑區"
"231007","189-VK","2017/07/07 09:58:01","新北市新店區新潭路三段215巷25號","121.50814","24.90406","6500600","新店區"
"231009","260-TV","2017/07/07 09:43:01","新北市新店區平廣路一段256號","121.507875","24.8883233333333","6500600","新店區"
"247002","402-BY","2017/07/07 09:57:55","新北市蘆洲區信義路292巷2號","121.477915","25.0875266666667","6501400","蘆洲區"
"223007","661-BX","2017/07/07 09:39:49","新北市石碇區南勢坑4-1號","121.697666666667","24.983225","6501900","石碇區"
"224010","AGQ-8101","2017/07/07 09:57:59","新北市瑞芳區明燈路二段46號","121.809513333333","25.10817","6501200","瑞芳區"
"227005","282-VK","2017/07/07 09:55:39","新北市雙溪區泰平里灣潭路36號","121.811741666667","24.9288383333333","6502500","雙溪區"
"252002","178-VK","2017/07/07 09:57:59","新北市三芝區埔坪里埔頭坑41號","121.504631666667","25.2645833333333","6502100","三芝區"
"242003","233-RS","2017/07/07 08:59:40","新北市新莊區環河路48-7號","121.436931666667","25.0098466666667","6500500","新莊區"
