"lineid","car","time","location","longitude","latitude","cityid","cityname"
"222005","289-BY","2017/07/07 09:55:46","新北市深坑區深坑街75號","121.61465","25.0013166666667","6501800","深坑區"
"231007","189-VK","2017/07/07 11:18:01","新北市新店區新潭路一段120巷21號","121.527065","24.9356566666667","6500600","新店區"
"231009","260-TV","2017/07/07 11:17:37","新北市新店區松林路81號","121.545643333333","24.9049266666667","6500600","新店區"
"247002","402-BY","2017/07/07 10:41:55","新北市五股區中興路三段3-6號","121.449548333333","25.0787716666667","6501400","蘆洲區"
"227005","282-VK","2017/07/07 11:17:19","新北市雙溪區魚行里丁子蘭坑17號","121.865658333333","25.017245","6502500","雙溪區"
"252002","178-VK","2017/07/07 10:06:09","新北市三芝區埔坪里埔頭坑41號","121.504633333333","25.2645783333333","6502100","三芝區"
"242003","233-RS","2017/07/07 08:59:40","新北市新莊區環河路48-7號","121.436931666667","25.0098466666667","6500500","新莊區"
