"lineid","car","time","location","longitude","latitude","cityid","cityname"
"234044","148-BY","2017/07/07 12:47:49","新北市永和區得和路373巷31弄8號","121.524648333333","25.0007816666667","6500400","永和區"
"234012","149-BY","2017/07/07 12:48:05","新北市永和區保福路二段70號","121.510556666667","25.0129833333333","6500400","永和區"
"234005","207-UY","2017/07/07 12:48:05","新北市永和區文化路178號","121.511321666667","25.0158566666667","6500400","永和區"
"234078","298-R6","2017/07/07 12:47:55","新北市永和區林森路107號","121.523063333333","25.0033683333333","6500400","永和區"
"234036","336-UY","2017/07/07 12:48:01","新北市永和區成功路二段152-2號","121.52655","24.99657","6500400","永和區"
"234062","337-UY","2017/07/07 12:48:01","新北市永和區福和路1號","121.526066666667","25.009625","6500400","永和區"
"234084","338-UY","2017/07/07 12:47:57","新北市中和區安樂路99號","121.513263333333","24.994865","6500400","永和區"
"234068","552-UM","2017/07/07 12:47:56","新北市永和區中興街100號","121.519071666667","25.0121233333333","6500400","永和區"
"234052","553-UM","2017/07/07 12:48:03","新北市永和區竹林路66巷2號","121.518225","25.0134616666667","6500400","永和區"
"234015","745-BX","2017/07/07 12:47:48","新北市永和區忠孝街26巷8號","121.515376666667","25.01674","6500400","永和區"
"234028","746-BX","2017/07/07 12:47:56","新北市永和區得和路321號","121.523435","24.9996066666667","6500400","永和區"
"234040","840-RS","2017/07/07 12:48:04","新北市永和區永貞路308號","121.511856666667","25.0048766666667","6500400","永和區"
"234060","AAD-866","2017/07/07 12:47:57","新北市永和區福和路303號","121.516361666667","25.00717","6500400","永和區"
"234048","863-TW","2017/07/07 12:48:07","新北市永和區保安路2號","121.510798333333","25.0175033333333","6500400","永和區"
"234025","9372-KE","2017/07/07 12:47:56","新北市永和區豫溪街123號","121.519323333333","25.0101516666667","6500400","永和區"
"234010","9373-KE","2017/07/07 12:47:50","新北市永和區保福路二段158巷1號","121.509101666667","25.01502","6500400","永和區"
"248019","225-UY","2017/07/07 12:47:50","新北市五股區中興路二段83巷26-6號","121.459938333333","25.0752133333333","6501500","五股區"
"234022","9380-KE","2017/07/07 12:48:08","新北市永和區竹林路119巷53弄1號","121.522201666667","25.0119016666667","6500400","永和區"
"234076","969-R7","2017/07/07 12:48:04","新北市永和區中正路2巷1號","121.5127","24.9934566666667","6500400","永和區"
"234066","AAC-212","2017/07/07 12:47:57","新北市永和區永和路一段22號","121.512946666667","25.0047833333333","6500400","永和區"
"234001","AAC-295","2017/07/07 12:46:05","新北市永和區福和路242號","121.518763333333","25.0076233333333","6500400","永和區"
"222005","289-BY","2017/07/07 09:55:46","新北市深坑區深坑街75號","121.61465","25.0013166666667","6501800","深坑區"
"231030","001-UM","2017/07/07 12:47:53","新北市新店區安華路28-1號","121.519435","24.9609016666667","6500600","新店區"
"231002","002-UM","2017/07/07 12:47:59","新北市新店區安華路28-1號","121.519656666667","24.960825","6500600","新店區"
"231028","046-UY","2017/07/07 12:47:51","新北市新店區安華路28-1號","121.519598333333","24.96073","6500600","新店區"
"231018","107-UY","2017/07/07 12:47:49","新北市新店區安華路28-1號","121.519488333333","24.96117","6500600","新店區"
"231009","260-TV","2017/07/07 11:24:17","新北市新店區成功路80巷1號","121.538241666667","24.8952833333333","6500600","新店區"
"231010","278-BY","2017/07/07 12:48:00","新北市新店區安華路28-1號","121.519635","24.9611033333333","6500600","新店區"
"231016","AAD-862","2017/07/07 12:47:56","新北市新店區安華路28-1號","121.519531666667","24.9611583333333","6500600","新店區"
"231038","4715-K9","2017/07/07 12:48:00","新北市新店區安華路28-1號","121.519415","24.9605533333333","6500600","新店區"
"231036","512-UM","2017/07/07 12:47:49","新北市新店區安康路一段355-3號","121.519336666667","24.96148","6500600","新店區"
"231035","515-UM","2017/07/07 12:47:58","新北市新店區安華路28-1號","121.519733333333","24.9613333333333","6500600","新店區"
"231006","617-UM","2017/07/07 12:47:57","新北市新店區安華路28-1號","121.51948","24.9608466666667","6500600","新店區"
"231001","619-UM","2017/07/07 12:48:08","新北市新店區安華路28-1號","121.519575","24.9610133333333","6500600","新店區"
"231013","719-UM","2017/07/07 12:47:59","新北市新店區安華路28-1號","121.519626666667","24.961345","6500600","新店區"
"231032","720-UM","2017/07/07 12:48:02","新北市新店區安華路28-1號","121.519016666667","24.961245","6500600","新店區"
"231005","897-TW","2017/07/07 12:47:48","新北市新店區安華路28-1號","121.519606666667","24.9608583333333","6500600","新店區"
"235002","185-VK","2017/07/07 12:47:54","新北市中和區員山路36巷13號","121.484173333333","24.99091","6500300","中和區"
"235031","255-BX","2017/07/07 12:48:00","新北市中和區新民街94巷15號","121.481316666667","25.0090016666667","6500300","中和區"
"235025","378-QA","2017/07/07 12:30:48","新北市中和區員山路36巷16-2號","121.485331666667","24.9916866666667","6500300","中和區"
"247002","402-BY","2017/07/07 12:48:03","新北市五股區中興路三段3-6號","121.449461666667","25.0785883333333","6501400","蘆洲區"
"208003","665-BX","2017/07/07 12:47:57","新北市萬里區大鵬里萬里加投178號","121.643085","25.2158216666667","6502700","金山區"
"207002","749-BX","2017/07/07 12:48:04","新北市萬里區雙興里二坪路32號","121.644733333333","25.168715","6502800","萬里區"
"207001","463-BY","2017/07/07 12:48:04","新北市萬里區萬里里瑪鋉頂街32號","121.689786666667","25.1794166666667","6502800","萬里區"
"252002","178-VK","2017/07/07 10:06:09","新北市三芝區埔坪里埔頭坑41號","121.504633333333","25.2645783333333","6502100","三芝區"
"236006","498-BY","2017/07/07 12:48:03","新北市土城區永平街51號","121.42768","24.9590833333333","6501300","土城區"
"242003","233-RS","2017/07/07 08:59:40","新北市新莊區環河路48-7號","121.436931666667","25.0098466666667","6500500","新莊區"
"221032","280-BY","2017/07/07 12:48:02","新北市汐止區汐萬路一段160號","121.65257","25.0715183333333","6501100","汐止區"
