"lineid","car","time","location","longitude","latitude","cityid","cityname"
"234044","148-BY","2017/07/07 13:20:10","新北市永和區得和路293號","121.522761666667","24.9996183333333","6500400","永和區"
"234012","149-BY","2017/07/07 13:20:05","新北市永和區中山路一段100巷6號","121.511438333333","25.01087","6500400","永和區"
"234005","207-UY","2017/07/07 13:20:05","新北市永和區中山路一段320號","121.506581666667","25.0068916666667","6500400","永和區"
"234078","298-R6","2017/07/07 13:19:56","新北市永和區林森路10巷18弄1號","121.525751666667","25.0065133333333","6500400","永和區"
"234036","336-UY","2017/07/07 13:20:01","新北市永和區成功路一段127號","121.526973333333","25.0018566666667","6500400","永和區"
"234062","337-UY","2017/07/07 13:20:04","新北市永和區永元路17巷6弄1號","121.521396666667","25.0007833333333","6500400","永和區"
"234084","338-UY","2017/07/07 13:19:57","新北市永和區永貞路45號","121.519825","25.0046616666667","6500400","永和區"
"234068","552-UM","2017/07/07 13:19:55","新北市永和區警光街5-1號","121.519763333333","25.0094833333333","6500400","永和區"
"234052","553-UM","2017/07/07 13:20:03","新北市永和區中興街17號","121.51598","25.0119166666667","6500400","永和區"
"234015","745-BX","2017/07/07 13:20:08","新北市永和區環河西路一段95巷2-2號","121.511928333333","25.0176383333333","6500400","永和區"
"234028","746-BX","2017/07/07 13:19:56","新北市永和區民生路69號","121.522686666667","24.9972466666667","6500400","永和區"
"234040","840-RS","2017/07/07 13:20:05","新北市永和區保平路151巷17號","121.510606666667","25.0050983333333","6500400","永和區"
"234060","AAD-866","2017/07/07 13:19:56","新北市永和區秀朗路一段175號","121.517076666667","25.0036383333333","6500400","永和區"
"234048","863-TW","2017/07/07 13:20:07","新北市永和區保福路二段88巷29號","121.51198","25.0138333333333","6500400","永和區"
"234025","9372-KE","2017/07/07 13:19:56","新北市永和區豫溪街52巷20號","121.5157","25.00909","6500400","永和區"
"234010","9373-KE","2017/07/07 13:19:50","新北市永和區文化路91號","121.513356666667","25.0151683333333","6500400","永和區"
"248019","225-UY","2017/07/07 13:20:05","新北市五股區孝義路47巷23號","121.449723333333","25.1096816666667","6501500","五股區"
"234022","9380-KE","2017/07/07 13:19:48","新北市永和區竹林路91巷18號","121.520355","25.0122966666667","6500400","永和區"
"234076","969-R7","2017/07/07 13:20:04","新北市永和區民有街21巷9弄2號","121.517453333333","24.9977833333333","6500400","永和區"
"234072","AAC-211","2017/07/07 13:20:01","新北市永和區竹林路10號","121.516338333333","25.0148466666667","6500400","永和區"
"234066","AAC-212","2017/07/07 13:19:57","新北市永和區保平路50巷8弄1號","121.51106","25.0075316666667","6500400","永和區"
"234001","AAC-295","2017/07/07 13:17:45","新北市永和區和平街84號","121.511466666667","25.0099216666667","6500400","永和區"
"244004","248-BX","2017/07/07 13:19:55","新北市林口區頂福里16-16號","121.357625","25.0898216666667","6501700","林口區"
"222005","289-BY","2017/07/07 09:55:46","新北市深坑區深坑街75號","121.61465","25.0013166666667","6501800","深坑區"
"231030","001-UM","2017/07/07 13:19:58","新北市新店區安康路一段355-4號","121.517348333333","24.9638766666667","6500600","新店區"
"231002","002-UM","2017/07/07 13:19:58","新北市新店區安華路28-1號","121.51982","24.96077","6500600","新店區"
"231025","0291-UT","2017/07/07 13:20:04","新北市新店區安康路一段235號","121.525175","24.9631583333333","6500600","新店區"
"231028","046-UY","2017/07/07 13:19:51","新北市新店區安華路28-1號","121.519666666667","24.96086","6500600","新店區"
"231029","106-UY","2017/07/07 13:19:55","新北市新店區安華路28-1號","121.51966","24.960705","6500600","新店區"
"231018","107-UY","2017/07/07 13:20:04","新北市新店區安康路一段3-1號","121.535281666667","24.9609233333333","6500600","新店區"
"231012","108-UY","2017/07/07 13:20:02","新北市新店區安康路一段98號","121.52749","24.9622883333333","6500600","新店區"
"231022","110-UY","2017/07/07 13:20:08","新北市新店區安康路一段105號","121.528896666667","24.961605","6500600","新店區"
"231026","256-BX","2017/07/07 13:20:00","新北市新店區安華路28-1號","121.519631666667","24.9610833333333","6500600","新店區"
"231009","260-TV","2017/07/07 13:19:58","新北市新店區新烏路一段245號","121.54777","24.9304583333333","6500600","新店區"
"231034","268-BY","2017/07/07 13:20:04","新北市新店區安華路28-1號","121.519398333333","24.9606716666667","6500600","新店區"
"231010","278-BY","2017/07/07 13:20:00","新北市新店區安康路一段52巷2號","121.530113333333","24.9611733333333","6500600","新店區"
"231016","AAD-862","2017/07/07 13:19:56","新北市新店區安康路一段17號","121.533055","24.9603616666667","6500600","新店區"
"231027","3712-VJ","2017/07/07 13:20:04","新北市新店區環河路27號","121.537276666667","24.9612983333333","6500600","新店區"
"231024","3713-VJ","2017/07/07 13:20:05","新北市新店區安康路一段279號","121.52369","24.9635283333333","6500600","新店區"
"231038","4715-K9","2017/07/07 13:19:59","新北市新店區安華路1-1號","121.519261666667","24.9605633333333","6500600","新店區"
"231036","512-UM","2017/07/07 13:19:49","新北市新店區安豐路58-1號","121.498985","24.9536966666667","6500600","新店區"
"231023","513-UM","2017/07/07 13:19:59","新北市新店區安康路一段285號","121.523306666667","24.96359","6500600","新店區"
"231035","515-UM","2017/07/07 13:19:58","新北市新店區安華路28-1號","121.519728333333","24.9612733333333","6500600","新店區"
"231003","616-UM","2017/07/07 13:19:48","新北市新店區安康路一段355-3號","121.519766666667","24.9620116666667","6500600","新店區"
"231006","617-UM","2017/07/07 13:19:57","新北市新店區安華路28-1號","121.519433333333","24.961025","6500600","新店區"
"231001","619-UM","2017/07/07 13:20:08","新北市新店區安華路28-1號","121.519578333333","24.9609316666667","6500600","新店區"
"231013","719-UM","2017/07/07 13:19:59","新北市新店區安康路一段231號","121.52541","24.9631266666667","6500600","新店區"
"231032","720-UM","2017/07/07 13:20:02","新北市新店區安華路1-1號","121.519551666667","24.9601","6500600","新店區"
"231005","897-TW","2017/07/07 13:20:08","新北市新店區安華路28-1號","121.519756666667","24.9606733333333","6500600","新店區"
"231004","899-TW","2017/07/07 13:20:00","新北市新店區安康路一段359-27號","121.518593333333","24.9608816666667","6500600","新店區"
"231037","AKT-0513","2017/07/07 13:19:59","新北市新店區安豐路22巷20號","121.503615","24.954525","6500600","新店區"
"235030","003-UY","2017/07/07 13:19:57","新北市中和區中山路二段120號","121.502776666667","25.0037333333333","6500300","中和區"
"235062","031-BX","2017/07/07 13:19:54","新北市中和區圓通路167巷3號","121.497895","24.995275","6500300","中和區"
"235003","097-UM","2017/07/07 13:20:00","新北市中和區安平路59號","121.50975","24.995085","6500300","中和區"
"235029","098-UM","2017/07/07 13:20:08","新北市中和區中山路二段64巷20號","121.503118333333","25.00596","6500300","中和區"
"235004","150-BY","2017/07/07 13:20:09","新北市中和區景安路72號","121.50583","24.9966116666667","6500300","中和區"
"235022","151-BY","2017/07/07 13:20:00","新北市中和區圓通路367巷55弄4號","121.492091666667","24.9842866666667","6500300","中和區"
"235019","183-VK","2017/07/07 13:19:52","新北市中和區中正路752號","121.48534","24.9985733333333","6500300","中和區"
"235002","185-VK","2017/07/07 13:19:54","新北市中和區大智街24號","121.520771666667","24.99196","6500300","中和區"
"235013","186-VK","2017/07/07 13:19:48","新北市中和區員山路36巷16-3號","121.484653333333","24.99131","6500300","中和區"
"235031","255-BX","2017/07/07 13:19:59","新北市中和區中正路803號","121.484816666667","25.0012316666667","6500300","中和區"
"235007","352-BY","2017/07/07 13:19:55","新北市中和區中正路271號","121.495773333333","24.9937266666667","6500300","中和區"
"235015","376-QA","2017/07/07 13:19:51","新北市中和區景新街418巷20弄11號","121.511928333333","24.9880333333333","6500300","中和區"
"235032","377-QA","2017/07/07 13:20:00","新北市中和區員山路36巷16-3號","121.485073333333","24.9912266666667","6500300","中和區"
"235025","378-QA","2017/07/07 13:20:01","新北市中和區連城路518巷1號","121.476523333333","24.9918433333333","6500300","中和區"
"235014","4979-A6","2017/07/07 13:19:51","新北市中和區興南路一段71號","121.510095","24.9893433333333","6500300","中和區"
"235033","4980-A6","2017/07/07 13:20:07","新北市中和區連城路125號","121.496173333333","24.999145","6500300","中和區"
"235006","551-UM","2017/07/07 13:20:06","新北市中和區大仁街27號","121.517723333333","24.9937816666667","6500300","中和區"
"235034","558-UM","2017/07/07 13:19:51","新北市中和區中正路358號","121.493651666667","24.9939583333333","6500300","中和區"
"235009","565-BX","2017/07/07 13:19:53","新北市中和區中正路271號","121.49591","24.9937466666667","6500300","中和區"
"235018","640-BX","2017/07/07 13:19:52","新北市中和區國光街6巷2號","121.47199","25.0001783333333","6500300","中和區"
"235024","647-TV","2017/07/07 03:04:55","新北市中和區員山路36巷16-3號","121.485126666667","24.9914966666667","6500300","中和區"
"235011","732-UM","2017/07/07 13:19:49","新北市中和區中正路637巷52弄1號","121.485596666667","24.99356","6500300","中和區"
"235035","783-BX","2017/07/07 13:20:09","新北市中和區永和路458巷1弄1號","121.48379","25.012365","6500300","中和區"
"235026","800-TS","2017/07/07 13:19:50","新北市中和區橋和路156號","121.494078333333","25.0062366666667","6500300","中和區"
"235005","802-TS","2017/07/07 13:19:53","新北市中和區景安路40號","121.507041666667","24.9982466666667","6500300","中和區"
"235016","805-TS","2017/07/07 13:20:01","新北市中和區中正路283號","121.493721666667","24.993725","6500300","中和區"
"235017","900-TW","2017/07/07 13:19:55","新北市中和區員山路36巷16-2號","121.485303333333","24.9915933333333","6500300","中和區"
"235027","911-UM","2017/07/07 13:20:06","新北市中和區員山路36巷16-3號","121.485081666667","24.9913183333333","6500300","中和區"
"235001","AAC-213","2017/07/07 13:19:49","新北市中和區景平路149號","121.513865","24.9921916666667","6500300","中和區"
"235023","AAC-215","2017/07/07 13:20:02","新北市中和區員山路36巷16-3號","121.485046666667","24.99132","6500300","中和區"
"220016","013-TV","2017/07/07 13:20:06","新北市板橋區民生路二段36-1號","121.472623333333","25.016785","6500100","板橋區"
"220013","072-UY","2017/07/07 13:20:05","新北市板橋區民生路二段36-1號","121.47264","25.0168","6500100","板橋區"
"247002","402-BY","2017/07/07 13:20:03","新北市蘆洲區中正路172號","121.46859","25.08627","6501400","蘆洲區"
"208004","AAC-292","2017/07/07 13:19:48","新北市金山區南勢湖27號","121.618098333333","25.2163616666667","6502700","金山區"
"208003","665-BX","2017/07/07 13:19:57","新北市汐止區光復街8巷50-1號","121.638313333333","25.05613","6502700","金山區"
"207002","749-BX","2017/07/07 13:20:04","新北市萬里區崁腳里崁腳路166號","121.645148333333","25.1560183333333","6502800","萬里區"
"207001","463-BY","2017/07/07 13:20:04","新北市萬里區龜吼里玉田路43號","121.680996666667","25.18866","6502800","萬里區"
"252002","178-VK","2017/07/07 10:06:09","新北市三芝區埔坪里埔頭坑41號","121.504633333333","25.2645783333333","6502100","三芝區"
"236006","498-BY","2017/07/07 13:20:03","新北市土城區大安路138巷8號","121.43385","24.9710383333333","6501300","土城區"
"242044","172-VK","2017/07/07 13:19:55","新北市新莊區裕民街56號","121.418723333333","25.0246033333333","6500500","新莊區"
"242003","233-RS","2017/07/07 08:59:40","新北市新莊區環河路48-7號","121.436931666667","25.0098466666667","6500500","新莊區"
"238021","311-TH","2017/07/07 13:18:57","新北市樹林區太平路235-1號","121.418873333333","24.9740516666667","6500700","樹林區"
"221032","280-BY","2017/07/07 13:20:02","新北市汐止區龍安路28巷14號","121.65471","25.06427","6501100","汐止區"
"220030","610-BX","2017/07/07 13:19:49","新北市板橋區華東街1-10號","121.448673333333","24.99499","6500100","板橋區"
"220011","609-BX","2017/07/07 13:20:04","新北市板橋區民生路二段22號","121.47281","25.0165683333333","6500100","板橋區"
"220005","686-BX","2017/07/07 13:19:55","新北市板橋區民生路二段36-1號","121.472598333333","25.0166033333333","6500100","板橋區"
"220022","895-R6","2017/07/07 13:19:57","新北市板橋區華東街1-9號","121.448183333333","24.9949583333333","6500100","板橋區"
