"lineid","car","time","location","longitude","latitude","cityid","cityname"
"234044","148-BY","2017/07/07 13:29:49","新北市永和區秀朗路二段247號","121.526288333333","24.999565","6500400","永和區"
"234012","149-BY","2017/07/07 13:30:05","新北市永和區永平路238巷1弄2號","121.50901","25.01131","6500400","永和區"
"234005","207-UY","2017/07/07 13:30:05","新北市永和區中山路一段62號","121.512816666667","25.0107533333333","6500400","永和區"
"234078","298-R6","2017/07/07 13:29:55","新北市永和區環河東路三段34號","121.526476666667","25.006855","6500400","永和區"
"234036","336-UY","2017/07/07 13:30:03","新北市永和區民樂街39巷18弄44號","121.528463333333","24.9989783333333","6500400","永和區"
"234062","337-UY","2017/07/07 13:30:01","新北市永和區中正路368巷1弄88號","121.520471666667","25.0007166666667","6500400","永和區"
"234084","338-UY","2017/07/07 13:29:57","新北市永和區林森路39巷1號","121.52555","25.0048333333333","6500400","永和區"
"234068","552-UM","2017/07/07 13:29:55","新北市永和區永和路二段234號","121.515831666667","25.0145333333333","6500400","永和區"
"234052","553-UM","2017/07/07 13:30:03","新北市永和區永和路二段170號","121.515428333333","25.01314","6500400","永和區"
"234015","745-BX","2017/07/07 13:30:08","新北市永和區永和路二段425巷75弄5號","121.513436666667","25.01707","6500400","永和區"
"234028","746-BX","2017/07/07 13:29:56","新北市永和區民權路1巷38號","121.522105","24.9981083333333","6500400","永和區"
"234040","840-RS","2017/07/07 13:30:04","新北市永和區水源街30巷2號","121.511461666667","25.004675","6500400","永和區"
"234060","AAD-866","2017/07/07 13:30:00","新北市永和區中正路532號","121.517213333333","25.005175","6500400","永和區"
"234048","863-TW","2017/07/07 13:29:47","新北市永和區仁愛路150號","121.51087","25.0129666666667","6500400","永和區"
"234025","9372-KE","2017/07/07 13:29:56","新北市永和區永平路154號","121.511263333333","25.0085866666667","6500400","永和區"
"234010","9373-KE","2017/07/07 13:30:10","新北市永和區保福路二段5號","121.511016666667","25.010945","6500400","永和區"
"248019","225-UY","2017/07/07 13:30:10","新北市五股區天乙路112號","121.447091666667","25.1124566666667","6501500","五股區"
"234022","9380-KE","2017/07/07 13:29:48","新北市永和區豫溪街128號","121.519965","25.0101016666667","6500400","永和區"
"234076","969-R7","2017/07/07 13:30:04","新北市永和區得和路219號","121.51957","25.0001883333333","6500400","永和區"
"234072","AAC-211","2017/07/07 13:30:01","新北市永和區環河東路一段122號","121.520568333333","25.015625","6500400","永和區"
"234066","AAC-212","2017/07/07 13:29:58","新北市永和區永貞路404號","121.509143333333","25.0077416666667","6500400","永和區"
"234001","AAC-295","2017/07/07 13:28:45","新北市永和區保平路19號","121.512731666667","25.0075116666667","6500400","永和區"
"244004","248-BX","2017/07/07 13:29:55","新北市林口區南勢71-117號","121.351276666667","25.0807583333333","6501700","林口區"
"222005","289-BY","2017/07/07 09:55:46","新北市深坑區深坑街75號","121.61465","25.0013166666667","6501800","深坑區"
"231030","001-UM","2017/07/07 13:29:58","新北市新店區安康路一段323-3號","121.521063333333","24.963785","6500600","新店區"
"231002","002-UM","2017/07/07 13:29:59","新北市新店區環河路66號","121.53702","24.96278","6500600","新店區"
"231025","0291-UT","2017/07/07 13:29:44","新北市新店區中央五街25號","121.529235","24.9746416666667","6500600","新店區"
"231028","046-UY","2017/07/07 13:29:51","新北市新店區安和路一段6-6號","121.51728","24.965405","6500600","新店區"
"231029","106-UY","2017/07/07 13:29:55","新北市新店區安豐路48號","121.500593333333","24.954185","6500600","新店區"
"231018","107-UY","2017/07/07 13:30:04","新北市新店區中央路155號","121.529816666667","24.9728666666667","6500600","新店區"
"231012","108-UY","2017/07/07 13:30:02","新北市新店區德正街17巷1號","121.543621666667","24.97306","6500600","新店區"
"231022","110-UY","2017/07/07 13:30:08","新北市新店區北宜路一段192巷4號","121.542646666667","24.9528533333333","6500600","新店區"
"231026","256-BX","2017/07/07 13:30:00","新北市新店區光明街31號","121.538283333333","24.9596916666667","6500600","新店區"
"231034","268-BY","2017/07/07 13:30:04","新北市新店區車子路110號","121.505245","24.95209","6500600","新店區"
"231010","278-BY","2017/07/07 13:30:00","新北市新店區中正路448-1號","121.533973333333","24.978715","6500600","新店區"
"231016","AAD-862","2017/07/07 13:29:56","新北市新店區北宜路二段30巷5弄10號","121.548335","24.9507333333333","6500600","新店區"
"231027","3712-VJ","2017/07/07 13:30:04","新北市新店區新店後街106號","121.537636666667","24.955315","6500600","新店區"
"231024","3713-VJ","2017/07/07 13:30:05","新北市新店區中正路128巷11號","121.54252","24.9720866666667","6500600","新店區"
"231038","4715-K9","2017/07/07 13:29:59","新北市新店區安華路30巷1號","121.519591666667","24.9592466666667","6500600","新店區"
"231036","512-UM","2017/07/07 13:30:09","新北市新店區安祥路147巷88號","121.475673333333","24.954645","6500600","新店區"
"231023","513-UM","2017/07/07 13:29:59","新北市新店區新店路13號","121.540331666667","24.952875","6500600","新店區"
"231035","515-UM","2017/07/07 13:29:58","新北市新店區安忠路8-1號","121.514755","24.963115","6500600","新店區"
"231003","616-UM","2017/07/07 13:29:48","新北市新店區中正路75巷61號","121.543281666667","24.9693416666667","6500600","新店區"
"231006","617-UM","2017/07/07 13:29:57","新北市新店區安康路一段81號","121.52973","24.9612583333333","6500600","新店區"
"231001","619-UM","2017/07/07 13:30:08","新北市新店區中央路167-1號","121.533298333333","24.9703933333333","6500600","新店區"
"231013","719-UM","2017/07/07 13:29:59","新北市新店區中央路17號","121.53323","24.97829","6500600","新店區"
"231032","720-UM","2017/07/07 13:30:03","新北市新店區安豐路63號","121.498078333333","24.9526716666667","6500600","新店區"
"231005","897-TW","2017/07/07 13:30:07","新北市新店區光明街213號","121.540096666667","24.9638633333333","6500600","新店區"
"231004","899-TW","2017/07/07 13:30:00","新北市新店區安康路一段17號","121.533058333333","24.960365","6500600","新店區"
"231037","AKT-0513","2017/07/07 13:29:59","新北市新店區薏仁坑路45號","121.493241666667","24.96373","6500600","新店區"
"235030","003-UY","2017/07/07 13:29:57","新北市中和區中山路二段122號","121.502555","25.0037333333333","6500300","中和區"
"235062","031-BX","2017/07/07 13:29:54","新北市中和區連城路139巷50號","121.49671","24.9974233333333","6500300","中和區"
"235020","096-UM","2017/07/07 13:29:56","新北市中和區新生街2號","121.483098333333","25.0047666666667","6500300","中和區"
"235003","097-UM","2017/07/07 13:30:00","新北市中和區景平路105號","121.517018333333","24.9920483333333","6500300","中和區"
"235029","098-UM","2017/07/07 13:29:48","新北市中和區莊敬路49巷7號","121.501305","25.0053866666667","6500300","中和區"
"235004","150-BY","2017/07/07 13:29:49","新北市中和區保健路50巷68號","121.50918","24.995145","6500300","中和區"
"235022","151-BY","2017/07/07 13:30:00","新北市中和區圓通路369巷156弄18號","121.488541666667","24.9819283333333","6500300","中和區"
"235019","183-VK","2017/07/07 13:29:53","新北市中和區莒光路200-3號","121.472285","24.99873","6500300","中和區"
"235002","185-VK","2017/07/07 13:29:54","新北市中和區秀朗路三段128巷17弄6號","121.524198333333","24.99347","6500300","中和區"
"235013","186-VK","2017/07/07 13:30:08","新北市中和區景安路130號","121.505176666667","24.9944966666667","6500300","中和區"
"235031","255-BX","2017/07/07 13:29:59","新北市中和區員山路148巷42號","121.482531666667","24.99713","6500300","中和區"
"235007","352-BY","2017/07/07 13:29:55","新北市中和區景平路301號","121.506683333333","24.9930916666667","6500300","中和區"
"235015","376-QA","2017/07/07 13:29:51","新北市中和區興南路二段142巷18-6號","121.502953333333","24.9843116666667","6500300","中和區"
"235032","377-QA","2017/07/07 13:30:00","新北市中和區錦和路350-1號","121.490841666667","24.99364","6500300","中和區"
"235025","378-QA","2017/07/07 13:30:01","新北市中和區莒光路175-3號","121.472791666667","24.99947","6500300","中和區"
"235014","4979-A6","2017/07/07 13:29:53","新北市中和區景新街418巷35號","121.512416666667","24.9883433333333","6500300","中和區"
"235033","4980-A6","2017/07/07 13:29:47","新北市中和區連勝街38巷28號","121.497536666667","24.998225","6500300","中和區"
"235006","551-UM","2017/07/07 13:30:06","新北市中和區自立路56巷17號","121.522705","24.991635","6500300","中和區"
"235034","558-UM","2017/07/07 13:29:51","新北市中和區圓通路132號","121.498475","24.9958216666667","6500300","中和區"
"235009","565-BX","2017/07/07 13:29:53","新北市中和區復興路32號","121.50509","24.9900566666667","6500300","中和區"
"235018","640-BX","2017/07/07 13:29:52","新北市中和區民享街108號","121.474683333333","24.9993733333333","6500300","中和區"
"235024","647-TV","2017/07/07 13:29:58","新北市中和區員山路287號","121.481225","24.9998033333333","6500300","中和區"
"235011","732-UM","2017/07/07 13:29:49","新北市中和區南山路523-1號","121.507918333333","24.9872566666667","6500300","中和區"
"235010","733-UM","2017/07/07 13:30:04","新北市中和區中正路589巷15號","121.485751666667","24.99358","6500300","中和區"
"235035","783-BX","2017/07/07 13:30:09","新北市中和區環中路120號","121.481925","25.01233","6500300","中和區"
"235026","800-TS","2017/07/07 13:30:10","新北市中和區景平路759號","121.496206666667","25.0047616666667","6500300","中和區"
"235021","801-TS","2017/07/07 13:30:04","新北市中和區民安街178號","121.476476666667","24.999805","6500300","中和區"
"235005","802-TS","2017/07/07 13:29:53","新北市中和區中和路318號","121.509623333333","25.0004883333333","6500300","中和區"
"235016","805-TS","2017/07/07 13:30:01","新北市中和區興南路二段45號","121.507481666667","24.98563","6500300","中和區"
"235012","896-TW","2017/07/07 13:29:56","新北市中和區錦和路350-1號","121.49023","24.9935366666667","6500300","中和區"
"235017","900-TW","2017/07/07 13:29:55","新北市土城區延壽路55巷1號","121.469861666667","24.9921483333333","6500300","中和區"
"235027","911-UM","2017/07/07 13:30:06","新北市中和區中正路505號","121.488683333333","24.9941583333333","6500300","中和區"
"235001","AAC-213","2017/07/07 13:30:09","新北市中和區景平路93號","121.517348333333","24.9918033333333","6500300","中和區"
"235023","AAC-215","2017/07/07 13:30:02","新北市中和區員山路36巷16-2號","121.48526","24.9913583333333","6500300","中和區"
"220016","013-TV","2017/07/07 13:30:06","新北市板橋區民生路二段15-1號","121.472778333333","25.01645","6500100","板橋區"
"220013","072-UY","2017/07/07 13:30:05","新北市板橋區民生路二段36-1號","121.472526666667","25.0165983333333","6500100","板橋區"
"220034","073-UY","2017/07/07 13:30:07","新北市板橋區華東街268號","121.452566666667","25.00088","6500100","板橋區"
"247002","402-BY","2017/07/07 13:30:03","新北市蘆洲區水湳街115-2號","121.469581666667","25.0915933333333","6501400","蘆洲區"
"247001","336-TH","2017/07/07 13:30:06","新北市五股區中興路三段163號","121.449156666667","25.0809716666667","6501400","蘆洲區"
"247013","057-VK","2017/07/07 13:30:04","新北市五股區中興路三段163號","121.449226666667","25.0806383333333","6501400","蘆洲區"
"208004","AAC-292","2017/07/07 13:30:09","新北市金山區南勢湖83號","121.613206666667","25.2120933333333","6502700","金山區"
"208003","665-BX","2017/07/07 13:29:57","台北市文山區老泉街4-3號","121.556891666667","24.9756483333333","6502700","金山區"
"207002","749-BX","2017/07/07 13:30:04","新北市萬里區崁腳里崁腳路166號","121.64517","25.1560183333333","6502800","萬里區"
"207001","463-BY","2017/07/07 13:29:44","新北市萬里區龜吼里玉田路2-5號","121.68127","25.18857","6502800","萬里區"
"252002","178-VK","2017/07/07 10:06:09","新北市三芝區埔坪里埔頭坑41號","121.504633333333","25.2645783333333","6502100","三芝區"
"236006","498-BY","2017/07/07 13:30:03","新北市土城區亞洲路11巷1弄5號","121.435138333333","24.9716866666667","6501300","土城區"
"242044","172-VK","2017/07/07 13:30:08","新北市新莊區富國路80號","121.420143333333","25.0258783333333","6500500","新莊區"
"242003","233-RS","2017/07/07 08:59:40","新北市新莊區環河路48-7號","121.436931666667","25.0098466666667","6500500","新莊區"
"238021","311-TH","2017/07/07 13:29:57","新北市樹林區中山路三段210-2號","121.38066","24.96675","6500700","樹林區"
"221032","280-BY","2017/07/07 13:30:02","新北市汐止區水源路一段56號","121.65742","25.0655983333333","6501100","汐止區"
"220027","145-BY","2017/07/07 13:29:52","新北市板橋區華東街1-9號","121.448195","24.994825","6500100","板橋區"
"220030","610-BX","2017/07/07 13:29:49","新北市板橋區華東街1-9號","121.448263333333","24.9948933333333","6500100","板橋區"
"220004","276-BY","2017/07/07 13:30:01","新北市板橋區中山路一段156號","121.46494","25.01163","6500100","板橋區"
"220043","283-UM","2017/07/07 13:29:52","新北市板橋區民生路二段161巷1號","121.470133333333","25.020175","6500100","板橋區"
"220019","283-VK","2017/07/07 13:29:51","新北市板橋區民生路二段17號","121.472625","25.01647","6500100","板橋區"
"220001","285-VK","2017/07/07 13:30:01","新北市板橋區民生路二段36-1號","121.47264","25.01681","6500100","板橋區"
"220029","287-VK","2017/07/07 13:29:58","新北市板橋區華東街1-10號","121.448283333333","24.995015","6500100","板橋區"
"220009","293-UM","2017/07/07 13:30:03","新北市板橋區民生路二段36-1號","121.4725","25.016665","6500100","板橋區"
"220032","296-UM","2017/07/07 13:30:06","新北市板橋區華東街1-9號","121.44814","24.9949316666667","6500100","板橋區"
"220023","297-UM","2017/07/07 13:30:03","新北市板橋區華東街1-9號","121.44814","24.9949716666667","6500100","板橋區"
"220010","303-R5","2017/07/07 13:30:01","新北市板橋區民生路二段17號","121.47258","25.0165116666667","6500100","板橋區"
"220028","461-BY","2017/07/07 13:29:56","新北市板橋區華東街1-9號","121.448236666667","24.994855","6500100","板橋區"
"220067","568-UM","2017/07/07 13:30:02","新北市板橋區民生路二段15-1號","121.47279","25.0162983333333","6500100","板橋區"
"220011","609-BX","2017/07/07 13:30:04","新北市板橋區民生路二段17號","121.47252","25.0164916666667","6500100","板橋區"
"220005","686-BX","2017/07/07 13:29:55","新北市板橋區民生路二段36-1號","121.472601666667","25.0165516666667","6500100","板橋區"
"220025","687-BX","2017/07/07 13:29:58","新北市板橋區大觀路二段435-1號","121.446448333333","24.9945083333333","6500100","板橋區"
"220002","741-BX","2017/07/07 13:30:05","新北市板橋區民生路二段36-1號","121.472485","25.01678","6500100","板橋區"
"220022","895-R6","2017/07/07 13:29:57","新北市板橋區南雅南路二段140號","121.451721666667","24.9962766666667","6500100","板橋區"
