"lineid","car","time","location","longitude","latitude","cityid","cityname"
"234044","148-BY","2017/07/07 13:57:52","新北市永和區成功路一段14號","121.52707","25.0052483333333","6500400","永和區"
"234012","149-BY","2017/07/07 13:58:05","新北市永和區保生路55號","121.504713333333","25.01059","6500400","永和區"
"234005","207-UY","2017/07/07 13:58:05","新北市中和區中和路260-1號","121.508173333333","24.9995083333333","6500400","永和區"
"234078","298-R6","2017/07/07 13:57:55","新北市永和區國中路12號","121.524331666667","25.0049683333333","6500400","永和區"
"234036","336-UY","2017/07/07 13:58:01","新北市永和區成功路一段122號","121.526671666667","25.0023283333333","6500400","永和區"
"234062","337-UY","2017/07/07 13:58:01","新北市永和區中正路412巷20弄32號","121.519126666667","25.001225","6500400","永和區"
"234084","338-UY","2017/07/07 13:57:57","新北市永和區福和路82-1號","121.522906666667","25.0080616666667","6500400","永和區"
"234068","552-UM","2017/07/07 13:58:03","新北市永和區大新街109巷2號","121.518463333333","25.0079866666667","6500400","永和區"
"234052","553-UM","2017/07/07 13:58:03","新北市永和區竹林路39巷42弄1號","121.520156666667","25.015255","6500400","永和區"
"234015","745-BX","2017/07/07 13:57:48","新北市永和區文化路36號","121.514995","25.015125","6500400","永和區"
"234028","746-BX","2017/07/07 13:57:56","新北市永和區民權路49巷5弄30號","121.521993333333","24.997865","6500400","永和區"
"234040","840-RS","2017/07/07 13:58:04","新北市永和區中和路421巷5弄14號","121.508413333333","25.0007816666667","6500400","永和區"
"234060","AAD-866","2017/07/07 13:57:56","新北市永和區中正路283巷7號","121.517033333333","25.0007016666667","6500400","永和區"
"234048","863-TW","2017/07/07 13:58:07","新北市永和區保安路264號","121.505936666667","25.0123666666667","6500400","永和區"
"234025","9372-KE","2017/07/07 13:57:56","新北市永和區自由街58號","121.513893333333","25.0059266666667","6500400","永和區"
"234010","9373-KE","2017/07/07 13:57:50","新北市永和區仁愛路352巷124號","121.500286666667","25.0085833333333","6500400","永和區"
"248019","225-UY","2017/07/07 13:57:50","新北市五股區凌雲路三段59-6號","121.425156666667","25.1249883333333","6501500","五股區"
"234022","9380-KE","2017/07/07 13:58:07","新北市永和區永和路二段298號","121.516208333333","25.0158433333333","6500400","永和區"
"234076","969-R7","2017/07/07 13:58:04","新北市永和區民有街75巷10弄18號","121.51905","24.9961233333333","6500400","永和區"
"234072","AAC-211","2017/07/07 13:58:01","新北市永和區竹林路201巷26弄1號","121.522263333333","25.0099666666667","6500400","永和區"
"234066","AAC-212","2017/07/07 13:57:57","新北市永和區中山路一段224號","121.508078333333","25.008255","6500400","永和區"
"234001","AAC-295","2017/07/07 13:56:25","新北市永和區福和路352號","121.514735","25.0073783333333","6500400","永和區"
"222005","289-BY","2017/07/07 09:55:46","新北市深坑區深坑街75號","121.61465","25.0013166666667","6501800","深坑區"
"231030","001-UM","2017/07/07 13:57:58","新北市新店區安興路7-1號","121.515003333333","24.968525","6500600","新店區"
"231002","002-UM","2017/07/07 13:57:58","新北市新店區中正路632號","121.534113333333","24.98903","6500600","新店區"
"231025","0291-UT","2017/07/07 13:58:04","新北市新店區中正路441號","121.533888333333","24.978725","6500600","新店區"
"231028","046-UY","2017/07/07 13:57:51","新北市新店區安和路三段125號","121.517235","24.9851566666667","6500600","新店區"
"231029","106-UY","2017/07/07 13:57:55","新北市新店區安康路二段2號","121.516463333333","24.963755","6500600","新店區"
"231018","107-UY","2017/07/07 13:58:04","新北市新店區中央路97號","121.531135","24.9750933333333","6500600","新店區"
"231012","108-UY","2017/07/07 13:58:02","新北市新店區中興路二段25號","121.546065","24.9694783333333","6500600","新店區"
"231022","110-UY","2017/07/07 13:58:08","新北市新店區新烏路二段126號","121.549451666667","24.9203416666667","6500600","新店區"
"231026","256-BX","2017/07/07 13:58:00","新北市新店區環河路116號","121.53691","24.9667316666667","6500600","新店區"
"231034","268-BY","2017/07/07 13:58:04","新北市新店區達觀路12號","121.505618333333","24.9403733333333","6500600","新店區"
"231016","AAD-862","2017/07/07 13:57:56","新北市新店區北宜路二段118號","121.556661666667","24.95379","6500600","新店區"
"231027","3712-VJ","2017/07/07 13:58:04","新北市新店區中興路一段24號","121.538746666667","24.9583683333333","6500600","新店區"
"231024","3713-VJ","2017/07/07 13:58:08","新北市新店區新生街13巷17號","121.53925","24.96584","6500600","新店區"
"231038","4715-K9","2017/07/07 13:57:59","新北市新店區溪洲路121號","121.531221666667","24.9629966666667","6500600","新店區"
"231036","512-UM","2017/07/07 13:58:10","新北市新店區安祥路109巷1弄21號","121.47632","24.959905","6500600","新店區"
"231023","513-UM","2017/07/07 13:57:59","新北市新店區文中路40號","121.539768333333","24.9565866666667","6500600","新店區"
"231035","515-UM","2017/07/07 13:57:58","新北市新店區安和路一段52巷2-1號","121.517638333333","24.9662916666667","6500600","新店區"
"231003","616-UM","2017/07/07 13:58:08","新北市新店區北宜路一段3號","121.538456666667","24.958395","6500600","新店區"
"231006","617-UM","2017/07/07 13:57:57","新北市新店區北宜路二段207號","121.55313","24.95329","6500600","新店區"
"231001","619-UM","2017/07/07 13:57:48","新北市新店區三民路47號","121.537095","24.9709566666667","6500600","新店區"
"231013","719-UM","2017/07/07 13:57:59","新北市新店區明德路111號","121.541535","24.979385","6500600","新店區"
"231032","720-UM","2017/07/07 13:58:02","新北市新店區華城路5-3號","121.529238333333","24.9580216666667","6500600","新店區"
"231005","897-TW","2017/07/07 13:58:07","新北市新店區中興路三段138號","121.54441","24.9803033333333","6500600","新店區"
"231004","899-TW","2017/07/07 13:58:00","新北市新店區北新路二段101號","121.542923333333","24.9743983333333","6500600","新店區"
"231037","AKT-0513","2017/07/07 13:57:59","新北市新店區安康路三段207巷3號","121.487893333333","24.9511316666667","6500600","新店區"
"235030","003-UY","2017/07/07 13:57:57","新北市中和區中山路二段131巷5弄3號","121.502885","25.002855","6500300","中和區"
"235062","031-BX","2017/07/07 13:57:54","新北市中和區泰和街44巷11號","121.49854","25.0004916666667","6500300","中和區"
"235020","096-UM","2017/07/07 13:57:56","新北市中和區中正路1206巷9號","121.480206666667","25.0111366666667","6500300","中和區"
"235003","097-UM","2017/07/07 13:58:00","新北市中和區景平路92巷6號","121.521536666667","24.9914283333333","6500300","中和區"
"235029","098-UM","2017/07/07 13:58:08","新北市中和區勝利路35巷2號","121.498841666667","25.0077183333333","6500300","中和區"
"235004","150-BY","2017/07/07 13:57:49","新北市中和區安平路82號","121.511206666667","24.99684","6500300","中和區"
"235022","151-BY","2017/07/07 13:58:00","新北市土城區金城路三段287巷32號","121.474863333333","24.9923566666667","6500300","中和區"
"235019","183-VK","2017/07/07 13:57:53","新北市中和區民生街93-2號","121.468546666667","25.0047266666667","6500300","中和區"
"235002","185-VK","2017/07/07 13:57:54","新北市中和區大勇街43巷6號","121.517576666667","24.9947283333333","6500300","中和區"
"235013","186-VK","2017/07/07 13:57:48","新北市中和區景新街183號","121.507258333333","24.9952283333333","6500300","中和區"
"235031","255-BX","2017/07/07 13:57:59","新北市中和區新生街242巷1弄8號","121.483353333333","24.9974316666667","6500300","中和區"
"235001","293-VK","2017/07/07 13:57:55","新北市中和區中興街121號","121.499948333333","24.9918816666667","6500300","中和區"
"235007","352-BY","2017/07/07 13:57:55","新北市中和區秀朗路三段93號","121.526546666667","24.995465","6500300","中和區"
"235015","376-QA","2017/07/07 13:57:51","新北市中和區忠孝街11巷1號","121.509876666667","24.9831633333333","6500300","中和區"
"235032","377-QA","2017/07/07 13:58:00","新北市中和區圓通路234號","121.494916666667","24.992785","6500300","中和區"
"235025","378-QA","2017/07/07 13:58:01","新北市中和區民治街130巷7號","121.474898333333","25.0026","6500300","中和區"
"235014","4979-A6","2017/07/07 13:57:51","新北市中和區華新街34號","121.507865","24.984365","6500300","中和區"
"235033","4980-A6","2017/07/07 13:57:47","新北市中和區中和路217巷18弄1號","121.50474","25.0003583333333","6500300","中和區"
"235006","551-UM","2017/07/07 13:58:06","新北市中和區秀朗路三段22巷11號","121.525733333333","24.9962066666667","6500300","中和區"
"235034","558-UM","2017/07/07 13:57:51","新北市中和區圓通路10號","121.501666666667","24.9979966666667","6500300","中和區"
"235009","565-BX","2017/07/07 13:57:53","新北市中和區興南路一段8號","121.511513333333","24.9913366666667","6500300","中和區"
"235018","640-BX","2017/07/07 13:57:52","新北市中和區民享街33-2號","121.47416","25.0039283333333","6500300","中和區"
"235024","647-TV","2017/07/07 13:58:02","新北市中和區中山路三段192號","121.472078333333","25.0065","6500300","中和區"
"235011","732-UM","2017/07/07 13:58:09","新北市中和區興南路二段54巷11弄2號","121.505663333333","24.9855583333333","6500300","中和區"
"235010","733-UM","2017/07/07 13:58:06","新北市中和區興南路一段129號","121.508993333333","24.9877183333333","6500300","中和區"
"235035","783-BX","2017/07/07 13:58:09","新北市中和區立德街32號","121.488935","25.00717","6500300","中和區"
"235026","800-TS","2017/07/07 13:57:50","新北市中和區中山路二段340巷60號","121.493105","25.00463","6500300","中和區"
"235021","801-TS","2017/07/07 13:58:04","新北市中和區民利街14巷3-3號","121.480636666667","24.999535","6500300","中和區"
"235005","802-TS","2017/07/07 13:57:53","新北市中和區中安街32號","121.513151666667","25.0028066666667","6500300","中和區"
"235016","805-TS","2017/07/07 13:58:00","新北市中和區興南路二段347-2號","121.50115","24.980565","6500300","中和區"
"235012","896-TW","2017/07/07 13:57:56","新北市中和區華新街47號","121.507813333333","24.9845533333333","6500300","中和區"
"235017","900-TW","2017/07/07 13:57:55","新北市中和區華順街133號","121.465221666667","24.9962866666667","6500300","中和區"
"235027","911-UM","2017/07/07 13:58:06","新北市中和區錦和路216號","121.490443333333","24.9944183333333","6500300","中和區"
"235001","AAC-213","2017/07/07 13:57:49","新北市中和區大智街35號","121.52058","24.9920416666667","6500300","中和區"
"235023","AAC-215","2017/07/07 13:58:02","新北市中和區圓通路369巷2號","121.491161666667","24.9894816666667","6500300","中和區"
"220016","013-TV","2017/07/07 13:58:06","新北市板橋區中山路二段465巷96號","121.481198333333","25.0226466666667","6500100","板橋區"
"220013","072-UY","2017/07/07 13:58:05","新北市板橋區板新路115號","121.472323333333","25.014285","6500100","板橋區"
"220034","073-UY","2017/07/07 13:58:07","新北市板橋區民權路316號","121.456978333333","25.01629","6500100","板橋區"
"220017","AAD-861","2017/07/07 13:58:04","新北市板橋區中山路一段69號","121.461343333333","25.0099366666667","6500100","板橋區"
"220105","120-SR","2017/07/07 13:57:52","新北市板橋區民生路二段188號","121.470125","25.0203916666667","6500100","板橋區"
"247019","893-R6","2017/07/07 13:58:00","新北市蘆洲區民族路426巷40弄11號","121.473456666667","25.0930933333333","6501400","蘆洲區"
"247009","546-UM","2017/07/07 13:57:49","新北市蘆洲區集賢路224巷27號","121.481681666667","25.0870666666667","6501400","蘆洲區"
"247017","500-BY","2017/07/07 13:58:07","新北市蘆洲區仁愛街35巷26號","121.475605","25.0889583333333","6501400","蘆洲區"
"247002","402-BY","2017/07/07 13:58:03","新北市三重區集賢路207號","121.48396","25.0870183333333","6501400","蘆洲區"
"247007","339-TH","2017/07/07 13:57:57","新北市蘆洲區永安北路一段76號","121.477323333333","25.0773183333333","6501400","蘆洲區"
"247023","337-TH","2017/07/07 13:58:01","新北市蘆洲區光榮路120巷9號","121.465198333333","25.0887833333333","6501400","蘆洲區"
"247001","336-TH","2017/07/07 13:57:46","新北市蘆洲區永平街32巷22弄2號","121.459841666667","25.0922416666667","6501400","蘆洲區"
"247013","057-VK","2017/07/07 13:58:04","新北市蘆洲區中正路189號","121.468428333333","25.0855333333333","6501400","蘆洲區"
"247003","056-VK","2017/07/07 13:58:04","新北市蘆洲區長榮路1號","121.46381","25.0819816666667","6501400","蘆洲區"
"247005","053-VK","2017/07/07 13:56:43","新北市蘆洲區永安南路二段44-1號","121.46648","25.0774566666667","6501400","蘆洲區"
"247011","007-UY","2017/07/07 13:57:48","新北市蘆洲區民族路156號","121.4796","25.0861666666667","6501400","蘆洲區"
"247021","002-UY","2017/07/07 13:57:48","新北市蘆洲區中正路263巷2號","121.467296666667","25.0873883333333","6501400","蘆洲區"
"247015","001-UY","2017/07/07 13:57:51","新北市蘆洲區光華路44號","121.468841666667","25.0830683333333","6501400","蘆洲區"
"208004","AAC-292","2017/07/07 13:58:09","新北市金山區山城路10巷24弄46號","121.5933","25.2001766666667","6502700","金山區"
"208003","665-BX","2017/07/07 13:57:57","新北市樹林區中山路三段214號","121.38008","24.967865","6502700","金山區"
"207002","749-BX","2017/07/07 13:57:24","新北市萬里區溪底里富士坪路19號","121.624335","25.1484816666667","6502800","萬里區"
"207001","463-BY","2017/07/07 13:58:04","新北市萬里區磺潭里清水18號","121.637831666667","25.197735","6502800","萬里區"
"252002","178-VK","2017/07/07 10:06:09","新北市三芝區埔坪里埔頭坑41號","121.504633333333","25.2645783333333","6502100","三芝區"
"236067","105-UM","2017/07/07 13:57:59","新北市土城區城林路6巷80號","121.438316666667","24.9797483333333","6501300","土城區"
"236041","107-UM","2017/07/07 13:58:07","新北市土城區裕生路61號","121.447655","24.9861083333333","6501300","土城區"
"236077","166-UM","2017/07/07 13:57:57","新北市土城區永寧路20-1號","121.429793333333","24.9615633333333","6501300","土城區"
"236029","253-BX","2017/07/07 13:58:03","新北市土城區城林路6巷80號","121.438426666667","24.97986","6501300","土城區"
"236025","269-VK","2017/07/07 13:58:00","新北市土城區承天路18號","121.439493333333","24.9634283333333","6501300","土城區"
"236013","270-VK","2017/07/07 13:57:59","新北市土城區中央路二段280號","121.440876666667","24.9741033333333","6501300","土城區"
"236035","271-VK","2017/07/07 13:57:51","新北市土城區員福街50號","121.440436666667","24.9791216666667","6501300","土城區"
"236019","401-BY","2017/07/07 13:57:48","新北市土城區城林路6巷80號","121.438583333333","24.9797633333333","6501300","土城區"
"236006","498-BY","2017/07/07 13:58:03","新北市土城區中央路二段51號","121.442608333333","24.9794783333333","6501300","土城區"
"236057","912-UM","2017/07/07 13:58:00","新北市土城區中央路三段188號","121.430438333333","24.9648716666667","6501300","土城區"
"236046","913-UM","2017/07/07 13:57:53","新北市土城區城林路6巷80號","121.438626666667","24.9798016666667","6501300","土城區"
"236061","915-UM","2017/07/07 13:57:58","新北市土城區城林路6巷80號","121.438355","24.97972","6501300","土城區"
"236054","AAC-216","2017/07/07 13:58:06","新北市土城區城林路6巷80號","121.438403333333","24.9797433333333","6501300","土城區"
"242044","172-VK","2017/07/07 13:57:55","新北市新莊區四維路119巷7-1號","121.423663333333","25.0229683333333","6500500","新莊區"
"242003","233-RS","2017/07/07 08:59:40","新北市新莊區環河路48-7號","121.436931666667","25.0098466666667","6500500","新莊區"
"221002","753-BX","2017/07/07 13:58:10","台北市南港區研究院路二段213巷5號","121.619233333333","25.0348733333333","6501100","汐止區"
"220027","145-BY","2017/07/07 13:57:52","新北市板橋區民權路182號","121.459208333333","25.0134566666667","6500100","板橋區"
"220030","610-BX","2017/07/07 13:58:09","新北市板橋區篤行路三段64號","121.427985","24.9863283333333","6500100","板橋區"
"220040","267-BY","2017/07/07 13:57:51","新北市板橋區莊敬路208巷8弄9號","121.470833333333","25.0206683333333","6500100","板橋區"
"220004","276-BY","2017/07/07 13:58:01","新北市板橋區信義路107-1號","121.457598333333","24.9934966666667","6500100","板橋區"
"220020","277-BY","2017/07/07 13:57:51","新北市板橋區大觀路三段50巷103號","121.431","24.99662","6500100","板橋區"
"220043","283-UM","2017/07/07 13:57:52","新北市板橋區莒光路16巷34號","121.46935","25.023815","6500100","板橋區"
"220019","283-VK","2017/07/07 13:57:51","新北市板橋區民族路69巷18弄2號","121.465896666667","25.0100083333333","6500100","板橋區"
"220050","285-UM","2017/07/07 13:57:48","新北市板橋區民生路二段188號","121.470253333333","25.0201766666667","6500100","板橋區"
"220001","285-VK","2017/07/07 13:58:08","新北市板橋區成功路28號","121.475276666667","25.0173933333333","6500100","板橋區"
"220031","286-VK","2017/07/07 13:57:59","新北市板橋區大觀路一段38巷156弄61-1號","121.442298333333","25.0069683333333","6500100","板橋區"
"220029","287-VK","2017/07/07 13:57:59","新北市板橋區光華街15巷1號","121.453966666667","25.01178","6500100","板橋區"
"220039","288-VK","2017/07/07 13:58:07","新北市板橋區四維路141號","121.464995","25.0255133333333","6500100","板橋區"
"220009","293-UM","2017/07/07 13:58:03","新北市板橋區永豐街155號","121.475383333333","25.0202033333333","6500100","板橋區"
"220032","296-UM","2017/07/07 13:58:06","新北市板橋區大觀路二段174巷116弄49號","121.442461666667","25.0012816666667","6500100","板橋區"
"220023","297-UM","2017/07/07 13:58:03","新北市板橋區南興路56-2號","121.454386666667","25.0073183333333","6500100","板橋區"
"220041","299-UM","2017/07/07 13:57:53","新北市板橋區漢生東路83巷14號","121.467648333333","25.016155","6500100","板橋區"
"220010","303-R5","2017/07/07 13:58:01","新北市板橋區民生路一段111號","121.474011666667","25.0144433333333","6500100","板橋區"
"220047","317-R6","2017/07/07 13:58:00","新北市板橋區民生路二段236號","121.468263333333","25.0230433333333","6500100","板橋區"
"220028","461-BY","2017/07/07 13:58:03","新北市板橋區大觀路二段265巷1弄52號","121.445153333333","24.9979083333333","6500100","板橋區"
"220012","486-VK","2017/07/07 13:58:06","新北市板橋區漢生東路266號","121.468215","25.0134066666667","6500100","板橋區"
"220038","487-VK","2017/07/07 13:57:48","新北市板橋區民生路二段120號","121.470905","25.0193433333333","6500100","板橋區"
"220037","491-VK","2017/07/07 13:58:04","新北市板橋區民生路二段188號","121.470308333333","25.0202366666667","6500100","板橋區"
"220104","560-BX","2017/07/07 13:57:51","新北市板橋區中正路294號","121.454951666667","25.0203166666667","6500100","板橋區"
"220052","561-BX","2017/07/07 13:57:51","新北市板橋區民生路二段121號","121.470708333333","25.0185","6500100","板橋區"
"220014","568-UM","2017/07/07 13:58:06","新北市板橋區三民路二段正隆巷58號","121.476645","25.0142033333333","6500100","板橋區"
"220011","609-BX","2017/07/07 13:58:04","新北市板橋區民享街1號","121.47482","25.0143366666667","6500100","板橋區"
"220005","686-BX","2017/07/07 13:57:55","新北市板橋區縣民大道一段306號","121.461263333333","25.010675","6500100","板橋區"
"220025","687-BX","2017/07/07 13:57:58","新北市板橋區大觀路二段174巷137號","121.441161666667","25.00202","6500100","板橋區"
"220042","689-BX","2017/07/07 13:57:59","新北市板橋區民生路二段188號","121.470306666667","25.02018","6500100","板橋區"
"220002","741-BX","2017/07/07 13:57:45","新北市板橋區中山路一段137號","121.462676666667","25.0105783333333","6500100","板橋區"
"220003","827-TW","2017/07/07 13:57:58","新北市板橋區中山路一段263號","121.468768333333","25.01337","6500100","板橋區"
"220051","830-TW","2017/07/07 13:57:56","新北市板橋區雙十路二段2巷19號","121.478173333333","25.025595","6500100","板橋區"
"220045","831-TW","2017/07/07 13:58:07","新北市板橋區莊敬路229號","121.47173","25.021765","6500100","板橋區"
"220022","895-R6","2017/07/07 13:57:57","新北市板橋區南雅西路二段4號","121.453698333333","25.0090416666667","6500100","板橋區"
"220021","985-R7","2017/07/07 13:58:02","新北市板橋區館前西路122號","121.456618333333","25.0077183333333","6500100","板橋區"
"220046","AAC-210","2017/07/07 13:57:57","新北市板橋區民生路三段12號","121.467718333333","25.0242333333333","6500100","板橋區"
"220018","AAC-253","2017/07/07 13:57:49","新北市板橋區中山路一段146號","121.463771666667","25.011035","6500100","板橋區"
