"lineid","car","time","location","longitude","latitude","cityid","cityname"
"248019","225-UY","2017/07/07 15:07:50","新北市五股區凌雲路三段24巷20-3號","121.434868333333","25.1062083333333","6501500","五股區"
"244004","248-BX","2017/07/07 15:07:55","新北市林口區後坑7鄰5-1號","121.363825","25.1178366666667","6501700","林口區"
"222005","289-BY","2017/07/07 09:55:46","新北市深坑區深坑街75號","121.61465","25.0013166666667","6501800","深坑區"
"231030","001-UM","2017/07/07 15:07:58","新北市新店區安民街339號","121.516935","24.9748933333333","6500600","新店區"
"231002","002-UM","2017/07/07 15:07:58","新北市新店區中正路523號","121.533515","24.9852866666667","6500600","新店區"
"231025","0291-UT","2017/07/07 15:08:04","新北市新店區民權路109號","121.536191666667","24.9819416666667","6500600","新店區"
"231028","046-UY","2017/07/07 15:08:10","新北市新店區僑愛一路1號","121.49985","24.944955","6500600","新店區"
"231029","106-UY","2017/07/07 15:07:55","新北市新店區安康路三段744號","121.473606666667","24.9420316666667","6500600","新店區"
"231018","107-UY","2017/07/07 15:08:04","新北市新店區中央六街113號","121.525298333333","24.97743","6500600","新店區"
"231012","108-UY","2017/07/07 15:08:02","新北市新店區中興路三段309-1號","121.541898333333","24.9858733333333","6500600","新店區"
"231022","110-UY","2017/07/07 15:08:08","新北市新店區永福路54-2號","121.558141666667","24.9287583333333","6500600","新店區"
"231026","256-BX","2017/07/07 15:07:59","新北市新店區建興街9巷2號","121.53984","24.9763316666667","6500600","新店區"
"231034","268-BY","2017/07/07 15:08:04","新北市新店區玫瑰路4-1號","121.493635","24.9513483333333","6500600","新店區"
"231016","AAD-862","2017/07/07 15:07:56","新北市新店區銀河路30號","121.574168333333","24.957395","6500600","新店區"
"231024","3713-VJ","2017/07/07 15:07:48","新北市新店區中華路48巷21號","121.540575","24.9690633333333","6500600","新店區"
"231036","512-UM","2017/07/07 15:08:09","新北市新店區安祥路104巷29號","121.481931666667","24.9632783333333","6500600","新店區"
"231023","513-UM","2017/07/07 15:07:58","新北市新店區檳榔路174號","121.54404","24.961875","6500600","新店區"
"231035","515-UM","2017/07/07 15:07:57","新北市新店區永安街56巷8弄2號","121.5181","24.98594","6500600","新店區"
"231003","616-UM","2017/07/07 15:07:48","新北市新店區中興路二段233號","121.547701666667","24.9751583333333","6500600","新店區"
"231006","617-UM","2017/07/07 15:07:57","新北市新店區新坡一街72號","121.548975","24.96456","6500600","新店區"
"231001","619-UM","2017/07/07 15:08:08","新北市新店區中正路278號","121.538791666667","24.9737","6500600","新店區"
"231039","718-UY","2017/07/07 15:07:49","新北市新店區北新路三段116號","121.54198","24.9816366666667","6500600","新店區"
"231032","720-UM","2017/07/07 15:07:43","新北市新店區安泰路177號","121.490886666667","24.9321166666667","6500600","新店區"
"231005","897-TW","2017/07/07 15:08:08","新北市新店區北新路三段173-3號","121.541053333333","24.9839316666667","6500600","新店區"
"231004","899-TW","2017/07/07 15:08:00","新北市新店區建國路90號","121.540378333333","24.97729","6500600","新店區"
"231037","AKT-0513","2017/07/07 15:07:59","新北市新店區安興路56號","121.516531666667","24.9749916666667","6500600","新店區"
"235030","003-UY","2017/07/07 15:07:56","新北市中和區水源路111號","121.50777","25.003185","6500300","中和區"
"235020","096-UM","2017/07/07 15:07:56","新北市中和區中山路三段170巷8弄19號","121.473086666667","25.0077583333333","6500300","中和區"
"235003","097-UM","2017/07/07 15:08:00","新北市中和區安樂路217巷60號","121.512761666667","24.9976066666667","6500300","中和區"
"235029","098-UM","2017/07/07 15:08:07","新北市中和區景平路784號","121.496176666667","25.005675","6500300","中和區"
"235004","150-BY","2017/07/07 15:07:49","新北市中和區景安路79巷23號","121.50703","24.9966966666667","6500300","中和區"
"235022","151-BY","2017/07/07 15:08:00","新北市中和區連城路469巷91號","121.483953333333","24.9934966666667","6500300","中和區"
"235019","183-VK","2017/07/07 15:07:53","新北市中和區連城路469巷79弄2號","121.483455","24.9937616666667","6500300","中和區"
"235001","293-VK","2017/07/07 15:07:55","新北市中和區中正路65巷1弄2號","121.50127","24.9930516666667","6500300","中和區"
"235007","352-BY","2017/07/07 15:07:55","新北市中和區興南路二段159巷1-2號","121.505221666667","24.9834433333333","6500300","中和區"
"235032","377-QA","2017/07/07 15:08:00","新北市中和區福美路230號","121.49906","25.005265","6500300","中和區"
"235014","4979-A6","2017/07/07 15:08:01","新北市中和區景新街274巷8號","121.510611666667","24.992295","6500300","中和區"
"235033","4980-A6","2017/07/07 15:08:07","新北市中和區圓通路170號","121.49743","24.9947383333333","6500300","中和區"
"235034","558-UM","2017/07/07 15:07:51","新北市中和區連勝街47號","121.498183333333","24.9973983333333","6500300","中和區"
"235018","640-BX","2017/07/07 15:07:52","新北市中和區中山路三段209號","121.471816666667","25.0063333333333","6500300","中和區"
"235010","733-UM","2017/07/07 15:08:04","新北市中和區忠孝街31巷33弄1號","121.509945","24.9845","6500300","中和區"
"235035","783-BX","2017/07/07 15:07:49","新北市中和區中正路998號","121.482521666667","25.00862","6500300","中和區"
"235012","896-TW","2017/07/07 15:07:56","新北市中和區興南路二段14號","121.50768","24.9860283333333","6500300","中和區"
"235001","AAC-213","2017/07/07 15:08:05","新北市中和區秀朗路三段10巷21弄8號","121.525183333333","24.9960483333333","6500300","中和區"
"235023","AAC-215","2017/07/07 15:08:02","新北市中和區圓通路367巷13弄29號","121.492991666667","24.9883883333333","6500300","中和區"
"220016","013-TV","2017/07/07 15:07:46","新北市板橋區光復街230號","121.484756666667","25.0213533333333","6500100","板橋區"
"220013","072-UY","2017/07/07 15:08:05","新北市板橋區民生路二段36-1號","121.472585","25.0168616666667","6500100","板橋區"
"220017","AAD-861","2017/07/07 15:08:04","新北市板橋區貴興路67號","121.457078333333","25.0030983333333","6500100","板橋區"
"220105","120-SR","2017/07/07 15:07:52","新北市板橋區文聖街13號","121.475556666667","25.032325","6500100","板橋區"
"247002","402-BY","2017/07/07 15:08:03","新北市八里區商港路48號","121.393953333333","25.1443216666667","6501400","蘆洲區"
"208004","AAC-292","2017/07/07 15:08:09","新北市金山區六股里下六股33號","121.621448333333","25.2216666666667","6502700","金山區"
"208003","665-BX","2017/07/07 15:07:57","新北市萬里區龜吼里玉田路46-4號","121.68315","25.1896983333333","6502700","金山區"
"207002","749-BX","2017/07/07 15:08:04","新北市萬里區崁腳里內中福路14-2號","121.662821666667","25.1654133333333","6502800","萬里區"
"207001","463-BY","2017/07/07 15:07:44","新北市萬里區雙興里麗水路8-1號","121.649883333333","25.1872383333333","6502800","萬里區"
"252002","178-VK","2017/07/07 10:06:09","新北市三芝區埔坪里埔頭坑41號","121.504633333333","25.2645783333333","6502100","三芝區"
"236067","105-UM","2017/07/07 15:07:59","新北市土城區裕民路54號","121.448568333333","24.9879083333333","6501300","土城區"
"236041","107-UM","2017/07/07 15:08:07","新北市土城區裕民路263-1號","121.455146666667","24.9825216666667","6501300","土城區"
"236077","166-UM","2017/07/07 15:07:57","新北市土城區中州路27巷6號","121.413511666667","24.9575533333333","6501300","土城區"
"236029","253-BX","2017/07/07 15:08:03","新北市土城區中央路二段50巷3號","121.442093333333","24.9796916666667","6501300","土城區"
"236025","269-VK","2017/07/07 15:07:59","新北市土城區中正路54號","121.443751666667","24.97527","6501300","土城區"
"236013","270-VK","2017/07/07 15:07:59","新北市土城區學府路一段37巷8號","121.457836666667","24.9880516666667","6501300","土城區"
"236035","271-VK","2017/07/07 15:07:51","新北市土城區仁愛路16巷22號","121.460005","24.9798083333333","6501300","土城區"
"236019","401-BY","2017/07/07 15:08:08","新北市土城區延峰街20號","121.468845","24.9861633333333","6501300","土城區"
"236057","912-UM","2017/07/07 15:08:00","新北市土城區金城路二段218-1號","121.456118333333","24.9826433333333","6501300","土城區"
"236046","913-UM","2017/07/07 15:07:53","新北市土城區裕民路285號","121.45614","24.9816966666667","6501300","土城區"
"236054","AAC-216","2017/07/07 15:08:06","新北市土城區學府路一段179號","121.45234","24.9852083333333","6501300","土城區"
"242044","172-VK","2017/07/07 15:07:55","新北市樹林區環河路10號","121.42709","24.9781116666667","6500500","新莊區"
"242003","233-RS","2017/07/07 08:59:40","新北市新莊區環河路48-7號","121.436931666667","25.0098466666667","6500500","新莊區"
"221002","707-TV","2017/07/07 15:07:54","新北市汐止區新興路122號","121.658105","25.0608483333333","6501100","汐止區"
"221002","753-BX","2017/07/07 15:08:10","新北市汐止區仁愛路215號","121.664825","25.0667816666667","6501100","汐止區"
"220027","145-BY","2017/07/07 15:03:12","新北市板橋區華東街1-9號","121.44821","24.9948433333333","6500100","板橋區"
"220020","277-BY","2017/07/07 15:07:51","新北市板橋區金門街45號","121.433263333333","24.9934466666667","6500100","板橋區"
"220043","283-UM","2017/07/07 15:07:52","新北市板橋區陽明街6號","121.466821666667","25.0217183333333","6500100","板橋區"
"220019","283-VK","2017/07/07 15:07:51","新北市板橋區和平路174巷41-2號","121.465305","24.99395","6500100","板橋區"
"220050","285-UM","2017/07/07 15:08:08","新北市板橋區雙十路二段47巷2弄18號","121.475676666667","25.02665","6500100","板橋區"
"220001","285-VK","2017/07/07 15:08:01","新北市板橋區中山路一段272巷18-1號","121.469278333333","25.0136816666667","6500100","板橋區"
"220031","286-VK","2017/07/07 15:08:04","新北市板橋區僑中二街90巷34號","121.444631666667","25.0094466666667","6500100","板橋區"
"220029","287-VK","2017/07/07 15:07:58","新北市板橋區僑中一街102巷5弄4號","121.446646666667","25.012655","6500100","板橋區"
"220009","293-UM","2017/07/07 15:08:03","新北市板橋區四川路一段131號","121.459823333333","25.0046666666667","6500100","板橋區"
"220041","299-UM","2017/07/07 15:07:53","新北市板橋區新海路396號","121.458776666667","25.0266266666667","6500100","板橋區"
"220010","303-R5","2017/07/07 15:08:01","新北市板橋區光復街8號","121.481215","25.0192216666667","6500100","板橋區"
"220047","317-R6","2017/07/07 15:08:02","新北市板橋區新海路72巷5弄11號","121.461898333333","25.02248","6500100","板橋區"
"220012","486-VK","2017/07/07 15:08:04","新北市板橋區長安街331巷14號","121.474123333333","25.0123566666667","6500100","板橋區"
"220038","487-VK","2017/07/07 15:08:08","新北市板橋區新海路385巷34弄4號","121.457415","25.0256133333333","6500100","板橋區"
"220037","491-VK","2017/07/07 15:06:44","新北市板橋區懷德街59號","121.47739","25.0325833333333","6500100","板橋區"
"220052","561-BX","2017/07/07 15:08:07","新北市板橋區陽明街279巷42-4號","121.460783333333","25.0256","6500100","板橋區"
"220014","568-UM","2017/07/07 15:08:02","新北市板橋區南雅南路二段170號","121.45124","24.994775","6500100","板橋區"
"220011","609-BX","2017/07/07 15:08:04","新北市板橋區中山路二段84-7號","121.475008333333","25.0162866666667","6500100","板橋區"
"220005","686-BX","2017/07/07 15:07:55","新北市板橋區南雅南路二段18號","121.454585","25.0035233333333","6500100","板橋區"
"220025","687-BX","2017/07/07 15:07:58","新北市板橋區大觀路一段28巷1弄102號","121.451536666667","25.0064416666667","6500100","板橋區"
"220042","689-BX","2017/07/07 15:07:59","新北市板橋區長江路二段228號","121.468325","25.032455","6500100","板橋區"
"220003","827-TW","2017/07/07 15:07:58","新北市板橋區國慶路167巷35-4號","121.461648333333","24.998155","6500100","板橋區"
"220051","830-TW","2017/07/07 15:07:56","新北市板橋區縣民大道三段201號","121.479838333333","25.0248633333333","6500100","板橋區"
"220045","831-TW","2017/07/07 15:08:07","新北市板橋區莒光路79巷2-1號","121.471886666667","25.024415","6500100","板橋區"
"220046","AAC-210","2017/07/07 15:08:03","新北市板橋區光正街24號","121.462335","25.017245","6500100","板橋區"
"220018","AAC-253","2017/07/07 15:08:09","新北市板橋區四川路一段312號","121.458486666667","25.0002816666667","6500100","板橋區"
