"lineid","car","time","location","longitude","latitude","cityid","cityname"
"244004","248-BX","2017/07/07 15:25:55","新北市林口區粉寮69號","121.405075","25.090915","6501700","林口區"
"222005","289-BY","2017/07/07 09:55:46","新北市深坑區深坑街75號","121.61465","25.0013166666667","6501800","深坑區"
"231030","001-UM","2017/07/07 15:28:03","新北市新店區新和街54號","121.519786666667","24.9853433333333","6500600","新店區"
"231002","002-UM","2017/07/07 15:27:58","新北市新店區環河路114巷2號","121.536395","24.9644283333333","6500600","新店區"
"231025","0291-UT","2017/07/07 15:28:04","新北市新店區中央路151號","121.529261666667","24.9720466666667","6500600","新店區"
"231028","046-UY","2017/07/07 15:27:51","新北市新店區僑信路52號","121.499338333333","24.9502833333333","6500600","新店區"
"231029","106-UY","2017/07/07 15:27:55","新北市新店區安康路三段662號","121.476395","24.944375","6500600","新店區"
"231018","107-UY","2017/07/07 15:28:04","新北市新店區中央五街40號","121.52838","24.9750233333333","6500600","新店區"
"231012","108-UY","2017/07/07 15:28:02","新北市新店區寶元路一段63巷50號","121.542271666667","24.9866133333333","6500600","新店區"
"231022","110-UY","2017/07/07 15:28:08","新北市新店區金興路20號","121.550678333333","24.9299466666667","6500600","新店區"
"231026","256-BX","2017/07/07 15:27:59","新北市新店區三民路119號","121.534788333333","24.9720733333333","6500600","新店區"
"231034","268-BY","2017/07/07 15:28:04","新北市新店區富貴街10巷2號","121.494188333333","24.9496683333333","6500600","新店區"
"231016","AAD-862","2017/07/07 15:27:36","新北市新店區明山路45號","121.563833333333","24.95584","6500600","新店區"
"231036","512-UM","2017/07/07 15:28:09","新北市新店區安祥路69巷89弄29號","121.482521666667","24.9607533333333","6500600","新店區"
"231023","513-UM","2017/07/07 15:27:58","新北市新店區北新路一段96巷23號","121.542796666667","24.9688","6500600","新店區"
"231035","515-UM","2017/07/07 15:27:57","新北市新店區安興路94號","121.515161666667","24.9763383333333","6500600","新店區"
"231003","616-UM","2017/07/07 15:28:08","新北市新店區寶高路116號","121.554528333333","24.976105","6500600","新店區"
"231039","718-UY","2017/07/07 15:28:09","新北市新店區寶元路一段85號","121.542943333333","24.9854916666667","6500600","新店區"
"231032","720-UM","2017/07/07 15:28:02","新北市新店區雙城路4巷1號","121.49116","24.95078","6500600","新店區"
"231005","897-TW","2017/07/07 15:28:07","新北市新店區建國路293巷2號","121.537018333333","24.9859433333333","6500600","新店區"
"231004","899-TW","2017/07/07 15:28:00","新北市新店區民族路163號","121.537575","24.9766766666667","6500600","新店區"
"231037","AKT-0513","2017/07/07 15:27:59","新北市新店區安興路91巷16號","121.512896666667","24.9753933333333","6500600","新店區"
"241017","063-VK","2017/07/07 15:27:56","新北市三重區重新路四段121號","121.484811666667","25.0519783333333","6500200","三重區"
"241007","398-BY","2017/07/07 15:28:00","新北市三重區重新路四段121號","121.48524","25.0520016666667","6500200","三重區"
"241033","AAC-255","2017/07/07 15:28:10","新北市三重區成功路173號","121.485453333333","25.05229","6500200","三重區"
"235014","4979-A6","2017/07/07 15:27:51","新北市中和區景平路572號","121.501745","24.9953016666667","6500300","中和區"
"235033","4980-A6","2017/07/07 15:27:47","新北市中和區員山路359巷2號","121.4809","25.0021383333333","6500300","中和區"
"235034","558-UM","2017/07/07 15:27:51","新北市中和區中正路352號","121.493733333333","24.994175","6500300","中和區"
"235012","896-TW","2017/07/07 15:27:56","新北市中和區忠孝街37巷4號","121.511266666667","24.9835916666667","6500300","中和區"
"235001","AAC-213","2017/07/07 15:28:09","新北市中和區自立路175號","121.523213333333","24.9921316666667","6500300","中和區"
"235023","AAC-215","2017/07/07 15:28:02","新北市中和區員山路24-1號","121.483966666667","24.9852966666667","6500300","中和區"
"247002","402-BY","2017/07/07 15:28:03","新北市林口區太平里180號","121.36813","25.1345216666667","6501400","蘆洲區"
"208003","665-BX","2017/07/07 15:27:57","新北市金山區磺清路121號","121.639728333333","25.228045","6502700","金山區"
"252002","178-VK","2017/07/07 10:06:09","新北市三芝區埔坪里埔頭坑41號","121.504633333333","25.2645783333333","6502100","三芝區"
"236067","105-UM","2017/07/07 15:27:59","新北市土城區學士路81-5號","121.450448333333","24.979965","6501300","土城區"
"236041","107-UM","2017/07/07 15:28:07","新北市土城區學府路一段164巷21號","121.453493333333","24.9875016666667","6501300","土城區"
"236077","166-UM","2017/07/07 15:27:57","新北市土城區民生街6-1號","121.41342","24.9632933333333","6501300","土城區"
"236029","253-BX","2017/07/07 15:28:02","新北市土城區中央路一段172號","121.4457","24.9867316666667","6501300","土城區"
"236025","269-VK","2017/07/07 15:27:59","新北市土城區中央路二段94號","121.442285","24.9785866666667","6501300","土城區"
"236013","270-VK","2017/07/07 15:27:59","新北市土城區廣明街39號","121.455345","24.9930766666667","6501300","土城區"
"236035","271-VK","2017/07/07 15:28:10","新北市土城區明德路一段20巷2弄1號","121.46457","24.98486","6501300","土城區"
"236019","401-BY","2017/07/07 15:28:07","新北市土城區峰廷街3號","121.469185","24.9874866666667","6501300","土城區"
"236057","912-UM","2017/07/07 15:28:00","新北市土城區中央路三段38號","121.438283333333","24.968485","6501300","土城區"
"236046","913-UM","2017/07/07 15:27:53","新北市土城區明德路一段319號","121.459201666667","24.9771333333333","6501300","土城區"
"236061","915-UM","2017/07/07 15:27:58","新北市土城區延和路166號","121.468493333333","24.9904016666667","6501300","土城區"
"236054","AAC-216","2017/07/07 15:28:08","新北市土城區延和路18巷2號","121.46424","24.9881416666667","6501300","土城區"
"242003","233-RS","2017/07/07 08:59:40","新北市新莊區環河路48-7號","121.436931666667","25.0098466666667","6500500","新莊區"
"220027","145-BY","2017/07/07 15:03:12","新北市板橋區華東街1-9號","121.44821","24.9948433333333","6500100","板橋區"
"220050","285-UM","2017/07/07 15:28:07","新北市板橋區漢生東路73巷2號","121.466181666667","25.0160416666667","6500100","板橋區"
"220031","286-VK","2017/07/07 15:27:56","新北市板橋區僑中二街106巷27號","121.444651666667","25.00775","6500100","板橋區"
"220010","303-R5","2017/07/07 15:28:01","新北市板橋區萬安街85巷1弄12號","121.484406666667","25.02511","6500100","板橋區"
"220038","487-VK","2017/07/07 15:28:08","新北市板橋區四維路133號","121.464973333333","25.02524","6500100","板橋區"
"220052","561-BX","2017/07/07 15:27:51","新北市板橋區漢生東路41-1號","121.465561666667","25.016875","6500100","板橋區"
