"lineid","car","time","location","longitude","latitude","cityid","cityname"
"222005","289-BY","2017/07/07 09:55:46","新北市深坑區深坑街75號","121.61465","25.0013166666667","6501800","深坑區"
"231030","001-UM","2017/07/07 15:39:58","新北市新店區永安街86號","121.520703333333","24.98565","6500600","新店區"
"231025","0291-UT","2017/07/07 15:40:04","新北市新店區薏仁坑路自強巷2號","121.497453333333","24.95889","6500600","新店區"
"231029","106-UY","2017/07/07 15:39:55","新北市新店區安康路三段2號","121.493793333333","24.95374","6500600","新店區"
"231018","107-UY","2017/07/07 15:40:04","新北市新店區民生路156巷16號","121.528533333333","24.98118","6500600","新店區"
"231012","108-UY","2017/07/07 15:40:02","新北市新店區文化路73巷1號","121.544886666667","24.982595","6500600","新店區"
"231022","110-UY","2017/07/07 15:39:48","新北市新店區新烏路一段87巷19-2號","121.547536666667","24.942045","6500600","新店區"
"231026","256-BX","2017/07/07 15:39:59","新北市新店區三民路75巷5弄1號","121.535573333333","24.9707833333333","6500600","新店區"
"231034","268-BY","2017/07/07 15:40:04","新北市新店區玫瑰路58巷37號","121.493551666667","24.9467533333333","6500600","新店區"
"231046","278-BY","2017/07/07 15:39:57","新北市新店區安華路28-1號","121.519788333333","24.961345","6500600","新店區"
"231016","AAD-862","2017/07/07 15:39:56","新北市新店區北宜路二段92-1號","121.555086666667","24.953585","6500600","新店區"
"231038","4715-K9","2017/07/07 15:39:59","新北市新店區安康路一段258-1號","121.520515","24.96444","6500600","新店區"
"231023","513-UM","2017/07/07 15:39:58","新北市新店區中興路一段267-2號","121.54491","24.9678083333333","6500600","新店區"
"231035","515-UM","2017/07/07 15:39:57","新北市新店區安興路102號","121.51544","24.976735","6500600","新店區"
"231003","616-UM","2017/07/07 15:39:48","新北市新店區寶興路42巷1號","121.549196666667","24.9730166666667","6500600","新店區"
"231039","718-UY","2017/07/07 15:40:09","新北市新店區寶元路二段64巷1號","121.5472","24.9810916666667","6500600","新店區"
"231013","719-UM","2017/07/07 15:39:55","新北市新店區永業路81巷12號","121.531406666667","24.9480966666667","6500600","新店區"
"231032","720-UM","2017/07/07 15:40:02","新北市新店區雙城路175-2號","121.494458333333","24.9449033333333","6500600","新店區"
"231005","897-TW","2017/07/07 15:39:48","新北市新店區建國路137號","121.539178333333","24.9784383333333","6500600","新店區"
"231037","AKT-0513","2017/07/07 15:39:59","新北市新店區安興路112號","121.514633333333","24.9775516666667","6500600","新店區"
"241011","013-R5","2017/07/07 15:39:52","新北市三重區三和路三段5號","121.497126666667","25.0705583333333","6500200","三重區"
"241028","022-UY","2017/07/07 15:39:51","新北市三重區重新路四段121號","121.48479","25.0525266666667","6500200","三重區"
"241015","062-VK","2017/07/07 15:40:02","新北市三重區重新路四段121號","121.48514","25.051965","6500200","三重區"
"241017","063-VK","2017/07/07 15:39:56","新北市三重區大仁街1號","121.49166","25.06359","6500200","三重區"
"241026","066-VK","2017/07/07 15:40:02","新北市三重區環河南路243號","121.491781666667","25.0510316666667","6500200","三重區"
"241032","265-UM","2017/07/07 15:40:03","新北市三重區重新路四段121號","121.485348333333","25.0521383333333","6500200","三重區"
"241016","266-UM","2017/07/07 15:39:52","新北市三重區重新路四段121號","121.485108333333","25.052015","6500200","三重區"
"241013","270-UM","2017/07/07 15:40:06","新北市三重區忠孝路二段102號","121.483406666667","25.0692366666667","6500200","三重區"
"241007","398-BY","2017/07/07 15:40:00","新北市三重區重新路四段121號","121.485188333333","25.051965","6500200","三重區"
"241014","543-UM","2017/07/07 15:40:01","新北市三重區重新路四段121號","121.4851","25.0519666666667","6500200","三重區"
"241023","545-UM","2017/07/07 15:39:52","新北市三重區重新路四段121號","121.48468","25.0525566666667","6500200","三重區"
"241006","AAD-863","2017/07/07 15:39:56","新北市三重區重新路四段121號","121.484618333333","25.0521616666667","6500200","三重區"
"241029","942-UM","2017/07/07 15:40:07","新北市三重區大同南路153-2號","121.496666666667","25.056725","6500200","三重區"
"241033","AAC-255","2017/07/07 15:39:50","新北市三重區中興南街76號","121.471233333333","25.0432733333333","6500200","三重區"
"235033","4980-A6","2017/07/07 15:40:07","新北市中和區中正路637巷17號","121.48488","24.9945866666667","6500300","中和區"
"235001","AAC-213","2017/07/07 15:39:49","新北市中和區自立路147號","121.522588333333","24.9930383333333","6500300","中和區"
"235023","AAC-215","2017/07/07 15:40:02","新北市中和區員山路31-4號","121.48048","24.987615","6500300","中和區"
"247002","402-BY","2017/07/07 15:40:03","新北市八里區中山路三段331號","121.377533333333","25.138805","6501400","蘆洲區"
"227003","400-TW","2017/07/07 15:39:59","新北市雙溪區牡丹里中正路103號","121.861583333333","25.0475516666667","6502500","雙溪區"
"252002","178-VK","2017/07/07 10:06:09","新北市三芝區埔坪里埔頭坑41號","121.504633333333","25.2645783333333","6502100","三芝區"
"236067","105-UM","2017/07/07 15:39:59","新北市土城區中央路三段30號","121.438601666667","24.9691866666667","6501300","土城區"
"236077","166-UM","2017/07/07 15:39:57","新北市土城區民族街42號","121.418518333333","24.963545","6501300","土城區"
"236029","253-BX","2017/07/07 15:40:02","新北市土城區中央路一段47號","121.448188333333","24.990385","6501300","土城區"
"236025","269-VK","2017/07/07 15:39:59","新北市土城區裕生路83巷16弄2號","121.447236666667","24.9840266666667","6501300","土城區"
"236013","270-VK","2017/07/07 15:39:59","新北市土城區廣明街92號","121.45475","24.9942816666667","6501300","土城區"
"236019","401-BY","2017/07/07 15:40:07","新北市土城區延吉街137巷6號","121.470915","24.9857983333333","6501300","土城區"
"236057","912-UM","2017/07/07 15:40:00","新北市土城區中央路二段6-3號","121.442986666667","24.9808466666667","6501300","土城區"
"236046","913-UM","2017/07/07 15:39:53","新北市土城區金城路三段137號","121.468286666667","24.9880816666667","6501300","土城區"
"236061","915-UM","2017/07/07 15:39:58","新北市土城區立德路135巷5弄1號","121.464846666667","24.9869283333333","6501300","土城區"
"236054","AAC-216","2017/07/07 15:39:46","新北市土城區延和路7號","121.46383","24.9878183333333","6501300","土城區"
"242003","233-RS","2017/07/07 08:59:40","新北市新莊區環河路48-7號","121.436931666667","25.0098466666667","6500500","新莊區"
"220027","145-BY","2017/07/07 15:03:12","新北市板橋區華東街1-9號","121.44821","24.9948433333333","6500100","板橋區"
"220038","487-VK","2017/07/07 15:40:08","新北市板橋區長江路一段156巷9弄19號","121.462051666667","25.03037","6500100","板橋區"
