"lineid","car","time","location","longitude","latitude","cityid","cityname"
"249005","172-UM","2017/07/07 16:38:02","新北市八里區博物館路15號","121.415241666667","25.1638","6502300","八里區"
"249002","305-UY","2017/07/07 16:38:08","新北市八里區大堀湖22-9號","121.429476666667","25.14829","6502300","八里區"
"222005","289-BY","2017/07/07 09:55:46","新北市深坑區深坑街75號","121.61465","25.0013166666667","6501800","深坑區"
"231046","278-BY","2017/07/07 16:37:57","新北市新店區灣潭路55號","121.541815","24.943115","6500600","新店區"
"241011","013-R5","2017/07/07 16:37:52","新北市三重區仁愛街43巷12號","121.49729","25.0718766666667","6500200","三重區"
"241028","022-UY","2017/07/07 16:37:51","新北市三重區中正南路22號","121.493626666667","25.0603783333333","6500200","三重區"
"241008","059-VK","2017/07/07 16:37:53","新北市三重區永安北路一段27巷10號","121.476948333333","25.0755683333333","6500200","三重區"
"241009","060-VK","2017/07/07 16:38:08","新北市三重區三和路四段203巷26號","121.48272","25.0796133333333","6500200","三重區"
"241031","061-VK","2017/07/07 16:38:09","新北市三重區重新路四段41巷2弄1號","121.487786666667","25.0576466666667","6500200","三重區"
"241015","062-VK","2017/07/07 16:38:02","新北市三重區文化北路37號","121.498993333333","25.0649766666667","6500200","三重區"
"241017","063-VK","2017/07/07 16:38:02","新北市三重區中正北路25巷25弄2號","121.493243333333","25.0626233333333","6500200","三重區"
"241024","065-VK","2017/07/07 16:38:08","新北市三重區中正北路315巷6弄58號","121.475681666667","25.0723833333333","6500200","三重區"
"241026","066-VK","2017/07/07 16:38:02","新北市三重區福德南路29號","121.50275","25.062755","6500200","三重區"
"241003","091-VK","2017/07/07 16:38:06","新北市三重區五華街71巷90號","121.494205","25.08385","6500200","三重區"
"241002","156-TC","2017/07/07 16:37:47","新北市三重區自強路五段71號","121.495008333333","25.0820483333333","6500200","三重區"
"241005","262-UM","2017/07/07 16:38:01","新北市三重區仁華街146-1號","121.487386666667","25.08306","6500200","三重區"
"241032","265-UM","2017/07/07 16:38:03","新北市三重區新北大道一段91號","121.484768333333","25.0613466666667","6500200","三重區"
"241016","266-UM","2017/07/07 16:37:55","新北市三重區自強路一段160巷3弄13號","121.494863333333","25.0655483333333","6500200","三重區"
"241022","267-UM","2017/07/07 16:38:01","新北市三重區新北大道一段100巷28號","121.485408333333","25.06237","6500200","三重區"
"241018","268-UM","2017/07/07 16:37:58","新北市三重區正義北路338巷24號","121.493696666667","25.0705016666667","6500200","三重區"
"241013","270-UM","2017/07/07 16:38:06","新北市三重區仁愛街73號","121.496168333333","25.0729283333333","6500200","三重區"
"241025","271-UM","2017/07/07 16:38:01","新北市三重區中正北路428巷15號","121.47451","25.070055","6500200","三重區"
"241007","398-BY","2017/07/07 16:38:00","新北市三重區三和路四段167巷84號","121.48519","25.0794833333333","6500200","三重區"
"241020","413-TH","2017/07/07 16:37:52","新北市三重區後竹圍街205巷34號","121.484588333333","25.0726816666667","6500200","三重區"
"241004","475-VK","2017/07/07 16:37:54","新北市三重區五福街20號","121.4927","25.0813583333333","6500200","三重區"
"241019","478-VK","2017/07/07 16:38:05","新北市三重區安慶街297巷1弄4號","121.48878","25.067625","6500200","三重區"
"241030","480-VK","2017/07/07 16:37:54","新北市三重區成功路50巷43號","121.487888333333","25.0496083333333","6500200","三重區"
"241014","543-UM","2017/07/07 16:38:01","新北市三重區龍濱路16號","121.502978333333","25.0674983333333","6500200","三重區"
"241023","545-UM","2017/07/07 16:37:52","新北市三重區忠孝路三段50巷47號","121.48296","25.0644183333333","6500200","三重區"
"241001","547-UM","2017/07/07 16:37:52","新北市三重區福隆路87號","121.492018333333","25.0781633333333","6500200","三重區"
"241006","AAD-863","2017/07/07 16:37:55","新北市三重區車路頭街142號","121.484116666667","25.0757816666667","6500200","三重區"
"241012","941-UM","2017/07/07 16:37:47","新北市三重區仁興街3巷49號","121.501286666667","25.07426","6500200","三重區"
"241029","942-UM","2017/07/07 16:37:47","新北市三重區集美街150號","121.489646666667","25.05316","6500200","三重區"
"241033","AAC-255","2017/07/07 16:37:50","新北市三重區光復路二段73號","121.472151666667","25.057005","6500200","三重區"
"235026","800-TS","2017/07/07 16:37:49","新北市中和區中正路368-6號","121.493476666667","24.9947983333333","6500300","中和區"
"247008","339-TH","2017/07/07 16:37:51","新北市五股區中興路二段182巷50號","121.455298333333","25.08143","6501400","蘆洲區"
"247014","057-VK","2017/07/07 16:38:02","新北市蘆洲區環堤大道365號","121.457286666667","25.0973716666667","6501400","蘆洲區"
"247004","056-VK","2017/07/07 16:37:55","新北市五股區中興路二段182巷50號","121.455411666667","25.0815066666667","6501400","蘆洲區"
"247016","001-UY","2017/07/07 16:37:51","新北市蘆洲區環堤大道365號","121.457288333333","25.0973983333333","6501400","蘆洲區"
"224010","AGQ-8101","2017/07/07 09:58:19","新北市瑞芳區民權街3-1號","121.809398333333","25.1081833333333","6501200","瑞芳區"
"224006","676-BX","2017/07/07 16:38:01","新北市瑞芳區大寮路356-1號","121.784778333333","25.103165","6501200","瑞芳區"
"224008","275-VK","2017/07/07 16:38:06","新北市瑞芳區逢甲路20-1號","121.809291666667","25.1085316666667","6501200","瑞芳區"
"224007","273-VK","2017/07/07 16:38:03","新北市瑞芳區中央路48巷50號","121.760451666667","25.1034483333333","6501200","瑞芳區"
"224005","271-BY","2017/07/07 16:38:01","新北市瑞芳區洞頂路210-4號","121.861303333333","25.1246066666667","6501200","瑞芳區"
"227011","642-TC","2017/07/07 16:37:53","新北市雙溪區牡丹里中正路56號","121.865621666667","25.0405566666667","6502500","雙溪區"
"227003","400-TW","2017/07/07 16:37:59","新北市雙溪區外柑里土地公後2-3號","121.81809","25.0215866666667","6502500","雙溪區"
"251013","180-VK","2017/07/07 16:37:56","新北市淡水區楓樹湖2-2號","121.49656","25.1865683333333","6501000","淡水區"
"251008","181-VK","2017/07/07 16:37:57","新北市淡水區樹梅坑14號","121.471246666667","25.1434166666667","6501000","淡水區"
"252002","178-VK","2017/07/07 16:38:07","新北市三芝區晴光街6號","121.510811666667","25.25757","6502100","三芝區"
"252001","292-VK","2017/07/07 16:38:02","新北市三芝區埔坪里埔頭坑41號","121.504543333333","25.2645383333333","6502100","三芝區"
"242003","233-RS","2017/07/07 08:59:40","新北市新莊區環河路48-7號","121.436931666667","25.0098466666667","6500500","新莊區"
"238018","571-TV","2017/07/07 13:29:24","新北市樹林區育德街78-1號","121.388065","24.9680516666667","6500700","樹林區"
"220027","145-BY","2017/07/07 15:03:12","新北市板橋區華東街1-9號","121.44821","24.9948433333333","6500100","板橋區"
