"lineid","car","time","location","longitude","latitude","cityid","cityname"
"234026","9372-KE","2017/07/07 17:38:01","新北市永和區中正路659號","121.514748333333","25.010135","6500400","永和區"
"249005","172-UM","2017/07/07 17:38:02","新北市八里區荖阡坑路28-5號","121.402843333333","25.12974","6502300","八里區"
"249001","173-UM","2017/07/07 17:37:52","新北市八里區龍米路二段160號","121.435065","25.1578266666667","6502300","八里區"
"249004","303-UY","2017/07/07 17:38:01","新北市八里區賢三街96號","121.417111666667","25.1577983333333","6502300","八里區"
"249002","305-UY","2017/07/07 17:38:08","新北市八里區頂寮二街121巷22號","121.446648333333","25.128115","6502300","八里區"
"249003","593-UM","2017/07/07 17:37:57","新北市八里區中山路二段233號","121.403286666667","25.1491983333333","6502300","八里區"
"248006","077-UY","2017/07/07 17:38:09","新北市五股區中興路二段37巷28號","121.460013333333","25.074885","6501500","五股區"
"232011","375-UM","2017/07/07 17:37:54","新北市坪林區北宜路八段462號","121.705713333333","24.9220233333333","6502000","坪林區"
"244013","069-UM","2017/07/07 17:37:53","新北市林口區中正路555號","121.381128333333","25.0768866666667","6501700","林口區"
"244007","080-UY","2017/07/07 17:36:52","新北市林口區中湖48-8號","121.383271666667","25.0928033333333","6501700","林口區"
"244019","403-UM","2017/07/07 17:38:03","新北市林口區文化一路一段111號","121.373086666667","25.0711066666667","6501700","林口區"
"244009","410-SL","2017/07/07 17:37:50","新北市林口區寶林路93號","121.38411","25.0846133333333","6501700","林口區"
"244023","483-VK","2017/07/07 17:38:00","新北市林口區東明三街360號","121.39152","25.0703983333333","6501700","林口區"
"244017","485-VK","2017/07/07 17:38:10","新北市林口區中山路202-1號","121.387561666667","25.0791916666667","6501700","林口區"
"244011","701-TV","2017/07/07 17:37:48","新北市林口區竹林路10號","121.386746666667","25.07725","6501700","林口區"
"244025","837-TS","2017/07/07 17:38:06","新北市林口區文化二路一段289-5號","121.36746","25.0718016666667","6501700","林口區"
"244021","838-TS","2017/07/07 17:37:54","新北市林口區東林街14號","121.3962","25.0788716666667","6501700","林口區"
"243016","680-BX","2017/07/07 17:38:11","新北市泰山區大科一路271號","121.407108333333","25.055665","6501600","泰山區"
"222005","289-BY","2017/07/07 09:55:46","新北市深坑區深坑街75號","121.61465","25.0013166666667","6501800","深坑區"
"231046","278-BY","2017/07/07 17:37:57","新北市新店區直潭路92號","121.530915","24.937625","6500600","新店區"
"241008","059-VK","2017/07/07 17:37:53","新北市三重區仁美街2號","121.488525","25.0770033333333","6500200","三重區"
"241024","065-VK","2017/07/07 17:38:08","新北市三重區力行路一段273號","121.482411666667","25.0716466666667","6500200","三重區"
"241003","091-VK","2017/07/07 17:38:06","新北市三重區仁政街159號","121.491305","25.0796233333333","6500200","三重區"
"241002","156-TC","2017/07/07 17:38:08","新北市三重區仁義街229號","121.496508333333","25.0822216666667","6500200","三重區"
"241005","262-UM","2017/07/07 17:38:00","新北市三重區碧華街1號","121.483495","25.081115","6500200","三重區"
"241032","265-UM","2017/07/07 17:38:03","新北市三重區頂崁街189號","121.477585","25.0662433333333","6500200","三重區"
"241016","266-UM","2017/07/07 17:38:09","新北市三重區正義北路68號","121.497293333333","25.0642583333333","6500200","三重區"
"241007","398-BY","2017/07/07 17:38:00","新北市三重區車路頭街135-1號","121.484261666667","25.0760316666667","6500200","三重區"
"241020","413-TH","2017/07/07 17:37:51","新北市三重區忠孝路二段34號","121.48565","25.0709533333333","6500200","三重區"
"241019","478-VK","2017/07/07 17:38:05","新北市三重區六張街255巷12號","121.487166666667","25.0686566666667","6500200","三重區"
"241014","543-UM","2017/07/07 17:38:01","新北市三重區河邊北街80號","121.504298333333","25.0688583333333","6500200","三重區"
"241023","545-UM","2017/07/07 17:37:52","新北市三重區中華路128號","121.483558333333","25.06388","6500200","三重區"
"241012","941-UM","2017/07/07 17:37:47","新北市三重區仁興街39巷97號","121.501156666667","25.076465","6500200","三重區"
"241033","AAC-255","2017/07/07 17:37:50","新北市三重區光復路一段115號","121.472105","25.052015","6500200","三重區"
"235062","800-TS","2017/07/07 17:32:29","新北市中和區員山路36巷16-3號","121.485053333333","24.9913016666667","6500300","中和區"
"247020","893-R6","2017/07/07 17:38:05","新北市蘆洲區民族路331-17號","121.473185","25.0919316666667","6501400","蘆洲區"
"247010","546-UM","2017/07/07 17:38:05","新北市蘆洲區三民路6號","121.475965","25.0820683333333","6501400","蘆洲區"
"247018","500-BY","2017/07/07 17:38:03","新北市蘆洲區三民路147號","121.471665","25.0867","6501400","蘆洲區"
"247008","339-TH","2017/07/07 17:37:51","新北市蘆洲區民生街131巷2號","121.472618333333","25.0790783333333","6501400","蘆洲區"
"247024","337-TH","2017/07/07 17:37:57","新北市蘆洲區長樂路159號","121.462033333333","25.0881333333333","6501400","蘆洲區"
"247002","336-TH","2017/07/07 17:38:01","新北市蘆洲區永平街32巷11弄19號","121.45816","25.0914816666667","6501400","蘆洲區"
"247014","057-VK","2017/07/07 17:38:02","新北市蘆洲區中正路14-1號","121.471675","25.0821783333333","6501400","蘆洲區"
"247004","056-VK","2017/07/07 17:37:55","新北市蘆洲區長安街172巷35弄15號","121.460161666667","25.084635","6501400","蘆洲區"
"247006","053-VK","2017/07/07 17:37:05","新北市蘆洲區長安街13號","121.463928333333","25.0789866666667","6501400","蘆洲區"
"247012","007-UY","2017/07/07 17:38:06","新北市蘆洲區復興路62號","121.474538333333","25.0862083333333","6501400","蘆洲區"
"247022","002-UY","2017/07/07 17:37:53","新北市蘆洲區三民路289號","121.466773333333","25.0903783333333","6501400","蘆洲區"
"247016","001-UY","2017/07/07 17:37:51","新北市蘆洲區中正路243巷19號","121.466463333333","25.0854566666667","6501400","蘆洲區"
"228002","663-BX","2017/07/07 17:37:57","新北市貢寮區福隆里龜壽谷街27號","121.952386666667","25.012325","6502600","貢寮區"
"228001","670-TC","2017/07/07 17:37:59","新北市貢寮區仁理村仁愛路95-1號","121.927691666667","25.0554533333333","6502600","貢寮區"
"228003","828-UM","2017/07/07 17:37:53","新北市貢寮區仁理村仁和路19號","121.923515","25.05335","6502600","貢寮區"
"224010","AGQ-8101","2017/07/07 17:34:42","新北市瑞芳區逢甲路126號","121.808938333333","25.1092616666667","6501200","瑞芳區"
"224006","676-BX","2017/07/07 17:38:01","新北市瑞芳區中山路375號","121.795958333333","25.1100383333333","6501200","瑞芳區"
"224002","639-TC","2017/07/07 17:38:04","新北市瑞芳區逢甲路17號","121.809618333333","25.1084733333333","6501200","瑞芳區"
"224009","285-BY","2017/07/07 17:37:54","新北市瑞芳區烏勢巷137號","121.846785","25.1075883333333","6501200","瑞芳區"
"224008","275-VK","2017/07/07 17:38:06","新北市瑞芳區明燈路一段18巷30號","121.822366666667","25.1085016666667","6501200","瑞芳區"
"224005","271-BY","2017/07/07 17:38:01","新北市瑞芳區海濱路8-6號","121.831566666667","25.1260633333333","6501200","瑞芳區"
"208003","665-BX","2017/07/07 17:38:08","新北市金山區磺清路135號","121.639438333333","25.227795","6502700","金山區"
"251004","009-UM","2017/07/07 17:37:58","新北市淡水區中正東路二段163號","121.459321666667","25.1453683333333","6501000","淡水區"
"251002","012-UM","2017/07/07 17:37:58","新北市淡水區文化路63號","121.438161666667","25.1728266666667","6501000","淡水區"
"251013","180-VK","2017/07/07 17:37:56","新北市淡水區演戲埔腳12號","121.469423333333","25.1942333333333","6501000","淡水區"
"251008","181-VK","2017/07/07 17:37:57","新北市淡水區八勢二街53巷10號","121.462016666667","25.1483483333333","6501000","淡水區"
"251015","182-VK","2017/07/07 17:36:00","新北市淡水區樹林口8號","121.479415","25.167725","6501000","淡水區"
"251010","413-VK","2017/07/07 17:37:51","新北市淡水區淡海路280巷16號","121.41984","25.18962","6501000","淡水區"
"251012","441-VK","2017/07/07 17:37:58","新北市淡水區北新路200巷8號","121.451776666667","25.1797","6501000","淡水區"
"251005","443-VK","2017/07/07 17:38:02","新北市淡水區鄧公路35巷4號","121.45163","25.171315","6501000","淡水區"
"251006","561-UM","2017/07/07 17:38:10","新北市淡水區大信街24巷2號","121.441956666667","25.1767716666667","6501000","淡水區"
"251009","575-R6","2017/07/07 17:37:58","新北市淡水區中正路38-1號","121.443715","25.169305","6501000","淡水區"
"251007","577-R6","2017/07/07 17:37:58","新北市淡水區民生路116號","121.463636666667","25.1382883333333","6501000","淡水區"
"251011","650-BX","2017/07/07 17:38:03","新北市淡水區小坪頂74號","121.484716666667","25.1591183333333","6501000","淡水區"
"251003","673-BX","2017/07/07 17:37:51","新北市淡水區中山北路一段93號","121.44231","25.1763333333333","6501000","淡水區"
"207003","550-UM","2017/07/07 17:37:58","新北市萬里區龜吼里漁澳路26-1號","121.685846666667","25.1952483333333","6502800","萬里區"
"207004","225-TW","2017/07/07 17:37:48","新北市萬里區中幅里中福路26號","121.680875","25.1662216666667","6502800","萬里區"
"252002","178-VK","2017/07/07 17:38:07","新北市三芝區忠孝街1-14號","121.50548","25.2539933333333","6502100","三芝區"
"252001","292-VK","2017/07/07 17:38:01","新北市三芝區育英街1號","121.501698333333","25.2587783333333","6502100","三芝區"
"237011","572-TV","2017/07/07 17:38:07","新北市三峽區文化路288號","121.364938333333","24.9355166666667","6500900","三峽區"
"237015","649-BX","2017/07/07 17:38:07","新北市三峽區民權街132號","121.36863","24.9319316666667","6500900","三峽區"
"236063","915-UM","2017/07/07 17:37:58","新北市土城區城林路6巷80號","121.438708333333","24.9796783333333","6501300","土城區"
"242021","AAC-296","2017/07/07 17:38:10","新北市新莊區中華路一段82號","121.452023333333","25.03933","6500500","新莊區"
"242029","986-R7","2017/07/07 17:38:04","新北市新莊區復興路二段122號","121.456658333333","25.0442816666667","6500500","新莊區"
"242048","751-BX","2017/07/07 17:38:08","新北市新莊區萬安街133號","121.420578333333","25.0221933333333","6500500","新莊區"
"242025","615-BX","2017/07/07 17:38:06","新北市新莊區思源路157號","121.459505","25.044525","6500500","新莊區"
"242023","613-BX","2017/07/07 17:37:50","新北市新莊區中港路132巷26號","121.456478333333","25.040685","6500500","新莊區"
"242027","612-BX","2017/07/07 17:38:07","新北市新莊區福壽街87號","121.458161666667","25.0500933333333","6500500","新莊區"
"242037","566-BX","2017/07/07 17:38:00","新北市新莊區新樹路110巷2號","121.434968333333","25.0261833333333","6500500","新莊區"
"242041","497-BY","2017/07/07 17:38:01","新北市泰山區中山路二段841號","121.425828333333","25.0354483333333","6500500","新莊區"
"242005","442-UM","2017/07/07 17:37:52","新北市新莊區自立街180號","121.456031666667","25.0454383333333","6500500","新莊區"
"242046","441-UM","2017/07/07 17:38:08","新北市新莊區福營路92號","121.437085","25.0325666666667","6500500","新莊區"
"242050","440-UM","2017/07/07 17:37:51","新北市新莊區西盛街201巷1號","121.428408333333","25.0171083333333","6500500","新莊區"
"242032","415-TV","2017/07/07 17:37:49","新北市新莊區三和路12-17號","121.441976666667","25.0375666666667","6500500","新莊區"
"242002","413-TV","2017/07/07 17:38:01","新北市新莊區新莊路286號","121.451363333333","25.03383","6500500","新莊區"
"242039","400-BY","2017/07/07 17:37:52","新北市新莊區民安路322號","121.428981666667","25.0219866666667","6500500","新莊區"
"242060","362-BY","2017/07/07 17:37:56","新北市新莊區瓊林南路79-3號","121.434396666667","25.012755","6500500","新莊區"
"242058","353-BY","2017/07/07 17:38:03","新北市新莊區中正路652號","121.421668333333","25.0286166666667","6500500","新莊區"
"242011","132-UY","2017/07/07 17:37:53","新北市新莊區中華路二段235號","121.451505","25.0531266666667","6500500","新莊區"
"242034","133-UY","2017/07/07 17:38:03","新北市新莊區新莊路595號","121.446236666667","25.0332466666667","6500500","新莊區"
"242019","135-UY","2017/07/07 17:38:04","新北市新莊區中港路160號","121.455065","25.0414116666667","6500500","新莊區"
"242044","172-VK","2017/07/07 17:37:55","新北市新莊區中正路871巷10號","121.418871666667","25.0265533333333","6500500","新莊區"
"242013","173-VK","2017/07/07 17:37:55","新北市新莊區中誠街59號","121.45094","25.0479266666667","6500500","新莊區"
"242056","176-VK","2017/07/07 17:38:07","新北市新莊區泰豐街22號","121.448466666667","25.03157","6500500","新莊區"
"242003","233-RS","2017/07/07 08:59:40","新北市新莊區環河路48-7號","121.436931666667","25.0098466666667","6500500","新莊區"
"242007","346-TH","2017/07/07 17:38:05","新北市新莊區自信街59號","121.455188333333","25.0482333333333","6500500","新莊區"
"242017","348-TH","2017/07/07 17:38:00","新北市新莊區中和街26巷5號","121.448856666667","25.0437316666667","6500500","新莊區"
"242054","349-TH","2017/07/07 17:37:51","新北市新莊區新樹路454號","121.431465","25.00107","6500500","新莊區"
"242015","350-TH","2017/07/07 17:38:08","新北市新莊區新泰路343號","121.444648333333","25.041975","6500500","新莊區"
"242009","351-TH","2017/07/07 17:38:00","新北市新莊區福壽街169巷14號","121.457183333333","25.05378","6500500","新莊區"
"238015","755-BX","2017/07/07 17:37:58","新北市樹林區復興路29號","121.422375","24.9942366666667","6500700","樹林區"
"238019","599-UM","2017/07/07 17:37:58","新北市樹林區太平路125號","121.419231666667","24.980585","6500700","樹林區"
"238018","571-TV","2017/07/07 17:37:59","新北市樹林區博愛街206號","121.424686666667","24.9892483333333","6500700","樹林區"
"238024","5061-A6","2017/07/07 17:38:04","新北市樹林區忠孝街67巷4號","121.424485","24.9813983333333","6500700","樹林區"
"238022","312-TH","2017/07/07 17:38:05","新北市樹林區和平街6巷1號","121.421623333333","24.98121","6500700","樹林區"
"238021","311-TH","2017/07/07 17:18:58","新北市樹林區西圳街一段183巷16-1號","121.39542","24.960265","6500700","樹林區"
"238025","303-VK","2017/07/07 17:37:52","新北市樹林區保安街二段24號","121.415446666667","25.0018","6500700","樹林區"
"238017","283-BY","2017/07/07 17:38:05","新北市樹林區中正路248巷1-7號","121.41822","25.0080033333333","6500700","樹林區"
"238014","282-BY","2017/07/07 17:38:06","新北市樹林區保安街一段292號","121.419253333333","24.9974833333333","6500700","樹林區"
"238020","268-VK","2017/07/07 17:38:00","新北市樹林區俊英街160巷12號","121.427911666667","25.007115","6500700","樹林區"
"238026","172-UY","2017/07/07 17:37:57","新北市樹林區新興街19巷36弄14號","121.402411666667","24.973045","6500700","樹林區"
"238016","169-UY","2017/07/07 17:37:49","新北市樹林區樹德街38巷10號","121.422621666667","24.992135","6500700","樹林區"
"239007","AAC-297","2017/07/07 17:38:06","新北市鶯歌區國光街62號","121.341151666667","24.958155","6500800","鶯歌區"
"239006","891-R6","2017/07/07 17:37:54","新北市鶯歌區鶯桃路483號","121.331896666667","24.9661416666667","6500800","鶯歌區"
"239008","527-UM","2017/07/07 17:38:05","新北市鶯歌區大湖路734號","121.332418333333","24.9770866666667","6500800","鶯歌區"
"239005","526-UM","2017/07/07 17:38:01","新北市鶯歌區福隆二街69巷1弄1號","121.323891666667","24.9718016666667","6500800","鶯歌區"
"239001","417-VK","2017/07/07 17:38:05","新北市鶯歌區中正三路313號","121.328911666667","24.9358383333333","6500800","鶯歌區"
"239003","360-BY","2017/07/07 17:38:02","新北市鶯歌區鶯桃路297-4號","121.334273333333","24.9606266666667","6500800","鶯歌區"
"239002","359-BY","2017/07/07 17:38:04","新北市鶯歌區育才街80號","121.34785","24.95469","6500800","鶯歌區"
"239004","193-VK","2017/07/07 17:38:09","新北市鶯歌區三鶯路104號","121.359153333333","24.94383","6500800","鶯歌區"
"221008","489-VK","2017/07/07 17:37:53","新北市汐止區康寧街901號","121.65141","25.074965","6501100","汐止區"
"221010","269-BY","2017/07/07 17:37:59","新北市汐止區汐萬路一段418巷30號","121.650035","25.0788566666667","6501100","汐止區"
"221032","280-BY","2017/07/07 17:38:09","新北市汐止區大同路一段215號","121.63381","25.057675","6501100","汐止區"
"221033","647-BX","2017/07/07 17:38:01","新北市汐止區工建路201號","121.635963333333","25.0618566666667","6501100","汐止區"
"220027","145-BY","2017/07/07 15:03:12","新北市板橋區華東街1-9號","121.44821","24.9948433333333","6500100","板橋區"
