"lineid","car","time","location","longitude","latitude","cityid","cityname"
"234046","148-BY","2017/07/07 18:49:55","新北市永和區秀朗路二段126巷28號","121.524663333333","25.0009416666667","6500400","永和區"
"234013","149-BY","2017/07/07 18:50:06","新北市永和區保福路二段118號","121.509838333333","25.01401","6500400","永和區"
"234007","207-UY","2017/07/07 18:50:07","新北市永和區復興街16巷2號","121.515501666667","25.0126916666667","6500400","永和區"
"234081","298-R6","2017/07/07 18:50:08","新北市永和區永亨路98號","121.52304","25.0047283333333","6500400","永和區"
"234038","336-UY","2017/07/07 18:49:50","新北市永和區成功路二段207號","121.526615","24.9959083333333","6500400","永和區"
"234064","337-UY","2017/07/07 18:50:00","新北市永和區福和路8巷1號","121.525016666667","25.009035","6500400","永和區"
"234086","338-UY","2017/07/07 18:49:55","新北市永和區中正路87號","121.515263333333","24.9970266666667","6500400","永和區"
"234070","552-UM","2017/07/07 18:50:03","新北市永和區中興街68巷5弄4號","121.518283333333","25.011595","6500400","永和區"
"234054","553-UM","2017/07/07 18:50:04","新北市永和區竹林路64號","121.518265","25.0134983333333","6500400","永和區"
"234017","745-BX","2017/07/07 18:49:49","新北市永和區永和路二段299號","121.516011666667","25.01632","6500400","永和區"
"234030","746-BX","2017/07/07 18:50:05","新北市永和區得和路327號","121.523476666667","24.9996316666667","6500400","永和區"
"234042","840-RS","2017/07/07 18:49:56","新北市永和區永貞路304號","121.511903333333","25.0048083333333","6500400","永和區"
"234061","AAD-866","2017/07/07 18:50:01","新北市永和區福和路309巷1號","121.5164","25.0070666666667","6500400","永和區"
"234050","863-TW","2017/07/07 18:49:56","新北市永和區保安路2號","121.510916666667","25.0175883333333","6500400","永和區"
"234026","9371-KE","2017/07/07 18:49:49","新北市永和區永貞路417巷32號","121.50562","25.00901","6500400","永和區"
"234011","9373-KE","2017/07/07 18:50:07","新北市永和區文化路126巷15弄2號","121.513091666667","25.0158533333333","6500400","永和區"
"249005","172-UM","2017/07/07 18:50:01","新北市八里區長道坑17號","121.396233333333","25.11553","6502300","八里區"
"249001","173-UM","2017/07/07 18:49:52","新北市八里區龍米路二段56號","121.448188333333","25.14079","6502300","八里區"
"249004","303-UY","2017/07/07 18:50:00","新北市八里區挖子尾街16號","121.41535","25.1644016666667","6502300","八里區"
"248014","025-BX","2017/07/07 18:50:00","新北市五股區中興路四段70號","121.436961666667","25.083405","6501500","五股區"
"248016","026-BX","2017/07/07 18:49:59","新北市五股區凌雲路一段131號","121.449588333333","25.1020583333333","6501500","五股區"
"248006","077-UY","2017/07/07 18:49:49","新北市五股區中興路一段171巷63號","121.465615","25.0705783333333","6501500","五股區"
"248008","095-VK","2017/07/07 18:49:59","新北市五股區中興路一段151巷1弄2號","121.465036666667","25.0730466666667","6501500","五股區"
"248018","225-UY","2017/07/07 18:49:47","新北市五股區民義路二段37號","121.41322","25.100335","6501500","五股區"
"248012","247-BX","2017/07/06 21:15:19","新北市五股區中興路二段103巷14號","121.458508333333","25.076185","6501500","五股區"
"248010","272-BY","2017/07/07 18:50:09","新北市五股區水碓七路168號","121.430766666667","25.07402","6501500","五股區"
"248004","677-BX","2017/07/07 18:49:56","新北市五股區民義路二段26號","121.419703333333","25.0971716666667","6501500","五股區"
"248002","678-BX","2017/07/07 18:50:01","新北市五股區成泰路三段454號","121.451448333333","25.1004033333333","6501500","五股區"
"234023","9380-KE","2017/07/07 18:49:58","新北市永和區竹林路91巷60弄12號","121.52203","25.0126916666667","6500400","永和區"
"234077","969-R7","2017/07/07 18:49:56","新北市永和區中正路78號","121.513725","24.9951833333333","6500400","永和區"
"234074","AAC-211","2017/07/07 18:50:07","新北市永和區福和路1號","121.526458333333","25.0099033333333","6500400","永和區"
"234067","AAC-212","2017/07/07 18:49:57","新北市中和區永貞路264號","121.513768333333","25.0036016666667","6500400","永和區"
"234003","AAC-295","2017/07/07 18:47:33","新北市永和區福和路232號","121.519068333333","25.0075916666667","6500400","永和區"
"232011","375-UM","2017/07/07 18:49:53","新北市坪林區坪林街38號","121.711678333333","24.937075","6502000","坪林區"
"244013","069-UM","2017/07/07 18:49:53","新北市林口區文化一路一段120號","121.374186666667","25.071955","6501700","林口區"
"244007","080-UY","2017/07/07 18:49:12","新北市林口區太平嶺10-1號","121.379546666667","25.1143083333333","6501700","林口區"
"244019","403-UM","2017/07/07 18:50:03","新北市林口區麗園二街23巷15號","121.380071666667","25.0704083333333","6501700","林口區"
"244009","410-SL","2017/07/07 18:50:03","新北市林口區竹林路320巷6號","121.390836666667","25.0821316666667","6501700","林口區"
"244023","483-VK","2017/07/07 18:50:00","新北市林口區民權路66號","121.372623333333","25.0814433333333","6501700","林口區"
"244017","485-VK","2017/07/07 18:49:50","新北市林口區文化二路一段68號","121.366136666667","25.0688533333333","6501700","林口區"
"244011","701-TV","2017/07/07 18:50:08","新北市林口區仁愛路一段285巷32號","121.39563","25.07545","6501700","林口區"
"244025","837-TS","2017/07/07 18:50:06","新北市林口區文化北路一段370號","121.362511666667","25.0744433333333","6501700","林口區"
"244021","838-TS","2017/07/07 18:49:54","新北市林口區工六路98號","121.40116","25.07671","6501700","林口區"
"243013","AAD-798","2017/07/07 18:50:01","新北市泰山區明志路三段206巷1號","121.423361666667","25.0379216666667","6501600","泰山區"
"243015","380-SR","2017/07/07 18:49:56","新北市泰山區泰林路二段510號","121.424266666667","25.06411","6501600","泰山區"
"243010","548-UM","2017/07/07 18:49:54","新北市泰山區辭修路24號","121.429033333333","25.05817","6501600","泰山區"
"243016","680-BX","2017/07/07 18:49:51","新北市泰山區泰林路二段280巷2號","121.431566666667","25.0623783333333","6501600","泰山區"
"222005","289-BY","2017/07/07 09:55:46","新北市深坑區深坑街75號","121.61465","25.0013166666667","6501800","深坑區"
"222003","436-BY","2017/07/07 18:50:04","新北市深坑區北深路一段300號","121.623838333333","25.0055866666667","6501800","深坑區"
"222002","659-BX","2017/07/07 18:50:08","新北市深坑區文山路一段62巷3號","121.622936666667","25.0008516666667","6501800","深坑區"
"222001","696-SL","2017/07/07 18:50:01","新北市深坑區北深路一段32-50號","121.638586666667","25.011075","6501800","深坑區"
"231061","001-UM","2017/07/07 18:50:03","新北市新店區安和路一段1號","121.516521666667","24.963785","6500600","新店區"
"231041","002-UM","2017/07/07 18:49:52","新北市新店區安華路28-1號","121.519801666667","24.9608433333333","6500600","新店區"
"231056","0291-UT","2017/07/07 18:50:06","新北市新店區建國路198巷4號","121.538115","24.9802633333333","6500600","新店區"
"231059","046-UY","2017/07/07 18:49:56","新北市新店區安華路28-1號","121.519556666667","24.9608733333333","6500600","新店區"
"231060","106-UY","2017/07/07 18:50:00","新北市新店區安華路28-1號","121.519628333333","24.9608416666667","6500600","新店區"
"231051","107-UY","2017/07/07 18:50:10","新北市新店區環河路103-5號","121.531605","24.9711483333333","6500600","新店區"
"231048","108-UY","2017/07/07 18:50:02","新北市新店區德正街23巷2號","121.544201666667","24.97191","6500600","新店區"
"231053","110-UY","2017/07/07 18:49:54","新北市新店區永興路12號","121.545026666667","24.939665","6500600","新店區"
"231063","268-BY","2017/07/07 18:50:05","新北市新店區車子路109號","121.50525","24.95209","6500600","新店區"
"231046","278-BY","2017/07/07 18:49:57","新北市新店區直潭路47號","121.533141666667","24.9424183333333","6500600","新店區"
"231050","AAD-862","2017/07/07 18:49:53","新北市新店區安康路一段35-1號","121.531993333333","24.9606","6500600","新店區"
"231058","3712-VJ","2017/07/07 18:49:56","新北市新店區北宜路一段105巷4弄1號","121.539905","24.95564","6500600","新店區"
"231055","3713-VJ","2017/07/07 18:49:59","新北市新店區新生街18巷1號","121.539906666667","24.9663683333333","6500600","新店區"
"231067","4772-VM","2017/07/07 18:50:07","新北市新店區安康路一段76巷26號","121.528353333333","24.9633783333333","6500600","新店區"
"231065","512-UM","2017/07/07 18:50:02","新北市新店區安豐路49號","121.500091666667","24.9540833333333","6500600","新店區"
"231054","513-UM","2017/07/07 18:50:07","新北市新店區安康路一段148號","121.526386666667","24.962895","6500600","新店區"
"231064","515-UM","2017/07/07 18:49:56","新北市新店區安華路28-1號","121.519366666667","24.9609083333333","6500600","新店區"
"231042","616-UM","2017/07/07 18:49:54","新北市新店區北新路一段96巷27號","121.542941666667","24.9694333333333","6500600","新店區"
"231045","617-UM","2017/07/07 18:49:52","新北市新店區安康路一段323-3號","121.52132","24.96384","6500600","新店區"
"231040","619-UM","2017/07/07 18:49:58","新北市新店區中央路175-1號","121.534611666667","24.9698283333333","6500600","新店區"
"231049","719-UM","2017/07/07 18:50:04","新北市新店區中正路454-5號","121.53451","24.9791433333333","6500600","新店區"
"231062","720-UM","2017/07/07 18:49:57","新北市新店區車子路12號","121.505223333333","24.9545816666667","6500600","新店區"
"231044","897-TW","2017/07/07 18:50:05","新北市新店區寶中路72號","121.547838333333","24.9806183333333","6500600","新店區"
"231043","899-TW","2017/07/07 18:49:57","新北市新店區安康路一段24巷4號","121.532551666667","24.9604566666667","6500600","新店區"
"231066","AKT-0513","2017/07/07 18:49:54","新北市新店區安豐路22巷8號","121.501295","24.95516","6500600","新店區"
"241002","156-TC","2017/07/07 18:50:07","新北市三重區仁義街101巷2號","121.497828333333","25.0800366666667","6500200","三重區"
"241035","462-BY","2017/07/07 18:49:49","新北市三重區重新路四段121號","121.48473","25.0520283333333","6500200","三重區"
"235066","003-UY","2017/07/07 18:49:56","新北市中和區水源路18巷3號","121.504108333333","25.0032016666667","6500300","中和區"
"235056","096-UM","2017/07/07 18:50:03","新北市中和區員山路506巷2號","121.479255","25.00857","6500300","中和區"
"235039","097-UM","2017/07/07 18:49:55","新北市中和區宜安路18巷13號","121.514076666667","24.9963366666667","6500300","中和區"
"235065","098-UM","2017/07/07 18:50:02","新北市中和區莊敬路49巷27號","121.50149","25.006185","6500300","中和區"
"235040","150-BY","2017/07/07 18:50:00","新北市中和區保健路74號","121.511566666667","24.9964116666667","6500300","中和區"
"235058","151-BY","2017/07/07 18:50:07","新北市中和區連城路537號","121.480463333333","24.9949566666667","6500300","中和區"
"235055","183-VK","2017/07/07 18:50:00","新北市板橋區民族路276巷11號","121.469815","25.006025","6500300","中和區"
"235038","185-VK","2017/07/07 18:49:55","新北市中和區立人街14巷40弄1號","121.518918333333","24.995605","6500300","中和區"
"235049","186-VK","2017/07/07 18:49:59","新北市中和區景安路177巷1號","121.50545","24.9942466666667","6500300","中和區"
"235067","255-BX","2017/07/07 18:49:50","新北市中和區中山路二段552號","121.483515","25.0051433333333","6500300","中和區"
"235044","293-VK","2017/07/07 18:50:00","新北市中和區復興路280巷15號","121.502265","24.9913116666667","6500300","中和區"
"235072","301-VK","2017/07/07 18:50:03","新北市中和區中山路二段82號","121.503486666667","25.00441","6500300","中和區"
"235043","352-BY","2017/07/07 18:49:52","新北市中和區成功路139號","121.526005","24.990615","6500300","中和區"
"235051","376-QA","2017/07/07 18:49:56","新北市中和區忠孝街46號","121.511005","24.9834683333333","6500300","中和區"
"235068","377-QA","2017/07/07 18:50:02","新北市中和區中正路216-1號","121.496705","24.9938283333333","6500300","中和區"
"235061","378-QA","2017/07/07 18:49:43","新北市中和區民享街101號","121.474898333333","24.999785","6500300","中和區"
"235050","4979-A6","2017/07/07 18:49:59","新北市中和區忠孝街58巷28號","121.512453333333","24.9826516666667","6500300","中和區"
"235069","4980-A6","2017/07/07 18:49:49","新北市中和區南山路81巷19號","121.502506666667","24.9980983333333","6500300","中和區"
"235042","551-UM","2017/07/07 18:50:03","新北市中和區秀朗路三段121巷2號","121.525666666667","24.9932416666667","6500300","中和區"
"235070","558-UM","2017/07/07 18:49:56","新北市中和區景新街162號","121.50573","24.9971783333333","6500300","中和區"
"235045","565-BX","2017/07/07 18:50:03","新北市中和區復興路6號","121.506151666667","24.9898283333333","6500300","中和區"
"235054","640-BX","2017/07/07 18:49:50","新北市中和區莒光路129巷1弄10號","121.473138333333","25.0023233333333","6500300","中和區"
"235060","647-TV","2017/07/07 18:49:49","新北市中和區中山路三段33號","121.479078333333","25.0059","6500300","中和區"
"235047","732-UM","2017/07/07 18:49:57","新北市中和區興南路二段34巷57弄2號","121.504955","24.9857366666667","6500300","中和區"
"235046","733-UM","2017/07/07 18:50:02","新北市中和區忠孝街101巷1號","121.511788333333","24.9860666666667","6500300","中和區"
"235071","783-BX","2017/07/07 18:49:57","新北市中和區員山路36巷16-2號","121.485393333333","24.9912033333333","6500300","中和區"
"235062","800-TS","2017/07/07 18:50:01","新北市中和區景平路703巷8-3號","121.495868333333","25.0035016666667","6500300","中和區"
"235057","801-TS","2017/07/07 18:50:00","新北市中和區民安街18號","121.480455","25.0008466666667","6500300","中和區"
"235041","802-TS","2017/07/07 18:49:59","新北市中和區中安街192號","121.511368333333","24.9991933333333","6500300","中和區"
"235052","805-TS","2017/07/07 18:50:06","新北市中和區興南路二段399巷86號","121.49999","24.978365","6500300","中和區"
"235048","896-TW","2017/07/07 18:49:51","新北市中和區華新街2-6號","121.507491666667","24.985135","6500300","中和區"
"235053","900-TW","2017/07/07 18:50:00","新北市中和區華福街6號","121.465421666667","24.9968","6500300","中和區"
"235063","911-UM","2017/07/07 18:50:05","新北市中和區連城路226號","121.489748333333","24.996475","6500300","中和區"
"235037","AAC-213","2017/07/07 18:50:03","新北市中和區景平路111巷53號","121.51544","24.9903466666667","6500300","中和區"
"235059","AAC-215","2017/07/07 18:50:10","新北市中和區圓通路369巷8-1號","121.490753333333","24.9884233333333","6500300","中和區"
"220068","013-TV","2017/07/07 18:49:49","新北市板橋區民生路二段80號","121.471718333333","25.018385","6500100","板橋區"
"220065","072-UY","2017/07/07 18:49:51","新北市板橋區觀光街2-5號","121.472146666667","25.0155483333333","6500100","板橋區"
"220086","073-UY","2017/07/07 18:50:03","新北市板橋區大智街71巷40號","121.452936666667","25.0143616666667","6500100","板橋區"
"220069","AAD-861","2017/07/07 18:49:50","新北市板橋區中山路二段23號","121.472368333333","25.0153383333333","6500100","板橋區"
"220106","120-SR","2017/07/07 18:49:53","新北市板橋區民生路二段120號","121.470341666667","25.0196783333333","6500100","板橋區"
"247002","336-TH","2017/07/07 18:50:01","新北市五股區中興路二段182巷50號","121.45536","25.08132","6501400","蘆洲區"
"247014","057-VK","2017/07/07 18:42:52","新北市五股區中興路三段163號","121.449243333333","25.0807533333333","6501400","蘆洲區"
"247006","053-VK","2017/07/07 18:49:45","新北市五股區天乙路102-18號","121.446498333333","25.1070233333333","6501400","蘆洲區"
"226004","312-R5","2017/07/07 18:50:05","新北市平溪區靜安路二段482號","121.743086666667","25.0259483333333","6502400","平溪區"
"228002","663-BX","2017/07/07 18:49:57","新北市貢寮區福隆里東興街6-11號","121.950756666667","25.02106","6502600","貢寮區"
"228001","670-TC","2017/07/07 18:49:58","新北市貢寮區仁理村保健街73號","121.923726666667","25.0517083333333","6502600","貢寮區"
"228003","828-UM","2017/07/07 18:49:13","新北市貢寮區和美里龍洞街40號","121.914585","25.111985","6502600","貢寮區"
"224006","676-BX","2017/07/07 18:50:00","新北市瑞芳區中正路48號","121.806643333333","25.1074116666667","6501200","瑞芳區"
"224011","420-VK","2017/07/07 18:49:51","新北市瑞芳區崙頂路3-1號","121.847033333333","25.1046916666667","6501200","瑞芳區"
"224009","285-BY","2017/07/07 18:49:54","新北市瑞芳區祈堂路53-1號","121.859546666667","25.1104966666667","6501200","瑞芳區"
"224008","275-VK","2017/07/07 18:50:06","新北市瑞芳區逢甲路343-8號","121.799741666667","25.11242","6501200","瑞芳區"
"224007","273-VK","2017/07/07 18:49:49","新北市瑞芳區大埔路261號","121.76223","25.1010183333333","6501200","瑞芳區"
"224005","271-BY","2017/07/07 18:50:02","新北市瑞芳區瑞濱路18號","121.826106666667","25.121285","6501200","瑞芳區"
"227011","642-TC","2017/07/07 18:49:53","新北市雙溪區牡丹里聖南19號","121.857878333333","25.052615","6502500","雙溪區"
"227003","400-TW","2017/07/07 18:49:55","新北市雙溪區平林里梅竹蹊26號","121.861688333333","25.0359933333333","6502500","雙溪區"
"253001","032-BX","2017/07/07 18:50:07","新北市石門區下員坑33-6號","121.518675","25.2829183333333","6502200","石門區"
"253005","295-VK","2017/07/07 18:50:02","新北市石門區中山路28-1號","121.565885","25.2899716666667","6502200","石門區"
"208003","665-BX","2017/07/07 18:49:48","新北市金山區中山路393號","121.633453333333","25.22527","6502700","金山區"
"208001","761-BX","2017/07/07 18:49:53","新北市金山區文化三路66巷2弄1號","121.634316666667","25.2257016666667","6502700","金山區"
"251002","012-UM","2017/07/07 18:49:58","新北市淡水區學府路88號","121.449186666667","25.1708566666667","6501000","淡水區"
"251013","180-VK","2017/07/07 18:49:56","新北市淡水區安子內5號","121.483206666667","25.2145116666667","6501000","淡水區"
"251008","181-VK","2017/07/07 18:49:56","新北市淡水區中山北路三段165-1號","121.444561666667","25.1970183333333","6501000","淡水區"
"251015","182-VK","2017/07/07 18:50:04","新北市淡水區糞箕湖20號","121.485703333333","25.1709233333333","6501000","淡水區"
"251010","413-VK","2017/07/07 18:49:51","新北市淡水區沙崙路24號","121.421333333333","25.1813","6501000","淡水區"
"251012","441-VK","2017/07/07 18:49:58","新北市淡水區中山北路一段166號","121.444283333333","25.1785216666667","6501000","淡水區"
"251001","559-UM","2017/07/07 18:49:54","新北市淡水區自立路6-2號","121.462585","25.1293883333333","6501000","淡水區"
"251009","575-R6","2017/07/07 18:49:58","新北市淡水區重建街170號","121.440725","25.1738866666667","6501000","淡水區"
"251007","577-R6","2017/07/07 18:49:58","新北市淡水區民生路113巷1弄1-1號","121.464181666667","25.1387183333333","6501000","淡水區"
"251011","650-BX","2017/07/07 18:50:03","新北市淡水區中正東路71號","121.447333333333","25.167675","6501000","淡水區"
"251003","673-BX","2017/07/07 18:49:51","新北市淡水區中山北路一段149巷33號","121.443056666667","25.1779883333333","6501000","淡水區"
"207003","550-UM","2017/07/07 18:49:58","新北市萬里區大鵬里頂社1號","121.657035","25.20971","6502800","萬里區"
"207004","225-TW","2017/07/07 18:49:47","新北市萬里區萬里里獅頭路23號","121.693288333333","25.1782516666667","6502800","萬里區"
"252002","178-VK","2017/07/07 18:50:07","新北市三芝區中正路一段112號","121.504861666667","25.2563566666667","6502100","三芝區"
"252003","249-BX","2017/07/07 18:50:03","新北市三芝區後厝里土地公坑55-10號","121.459638333333","25.2466883333333","6502100","三芝區"
"252001","292-VK","2017/07/07 18:50:01","新北市三芝區中正路三段9號","121.50298","25.2540216666667","6502100","三芝區"
"208002","170-UY","2017/07/07 18:49:59","新北市金山區忠孝一路21號","121.638341666667","25.2190216666667","6502700","金山區"
"237004","078-UY","2017/07/07 18:49:58","新北市三峽區有木228-1號","121.435396666667","24.8478516666667","6500900","三峽區"
"237013","252-BX","2017/07/07 18:49:54","新北市三峽區光明路69巷33號","121.37703","24.92933","6500900","三峽區"
"237012","275-BY","2017/07/07 18:49:52","新北市三峽區三樹路358號","121.383971666667","24.9433616666667","6500900","三峽區"
"237008","302-VK","2017/07/07 18:50:01","新北市三峽區白雞33-48號","121.370853333333","24.9124516666667","6500900","三峽區"
"237014","433-BY","2017/07/07 18:49:52","新北市三峽區隆恩街250號","121.357011666667","24.94066","6500900","三峽區"
"237006","5529-G3","2017/07/07 18:50:04","新北市三峽區溪東路233巷4弄17號","121.407171666667","24.9339383333333","6500900","三峽區"
"237011","572-TV","2017/07/07 18:50:06","新北市三峽區介壽路三段65號","121.39551","24.937805","6500900","三峽區"
"237015","649-BX","2017/07/07 18:50:07","新北市三峽區建安112-1號","121.459588333333","24.9200016666667","6500900","三峽區"
"237010","706-TV","2017/07/07 18:49:52","新北市三峽區國光街52號","121.374553333333","24.9380383333333","6500900","三峽區"
"237005","AKY-6261","2017/07/07 18:49:52","新北市三峽區文化路312號","121.364301666667","24.935465","6500900","三峽區"
"236072","105-UM","2017/07/07 18:49:56","新北市土城區明德路一段51號","121.465231666667","24.9849116666667","6501300","土城區"
"236043","107-UM","2017/07/07 18:50:01","新北市土城區裕民路114巷11號","121.450666666667","24.9859883333333","6501300","土城區"
"236079","166-UM","2017/07/07 18:50:09","新北市土城區中央路四段67巷26號","121.417681666667","24.95739","6501300","土城區"
"236031","253-BX","2017/07/07 18:49:55","新北市土城區千歲路7號","121.440726666667","24.969985","6501300","土城區"
"236027","269-VK","2017/07/07 18:50:05","新北市土城區興城路76號","121.441116666667","24.9720133333333","6501300","土城區"
"236015","270-VK","2017/07/07 18:50:03","新北市土城區金城路二段354巷4號","121.460863333333","24.984865","6501300","土城區"
"236039","271-VK","2017/07/07 18:49:51","新北市土城區明德路一段221巷9號","121.463731666667","24.9780366666667","6501300","土城區"
"236022","401-BY","2017/07/07 18:50:09","新北市土城區延安街37巷1號","121.468106666667","24.984145","6501300","土城區"
"236059","912-UM","2017/07/07 18:50:09","新北市土城區中央路三段153號","121.432108333333","24.9654183333333","6501300","土城區"
"236050","913-UM","2017/07/07 18:50:05","新北市土城區青雲路51號","121.459465","24.986645","6501300","土城區"
"236063","915-UM","2017/07/07 18:49:58","新北市土城區金城路三段153號","121.468695","24.9883466666667","6501300","土城區"
"236055","AAC-216","2017/07/07 18:50:09","新北市土城區裕民路170號","121.452446666667","24.9856333333333","6501300","土城區"
"242060","362-BY","2017/07/07 18:49:56","新北市新莊區新莊路805號","121.440541666667","25.0325933333333","6500500","新莊區"
"242003","233-RS","2017/07/07 08:59:40","新北市新莊區環河路48-7號","121.436931666667","25.0098466666667","6500500","新莊區"
"242054","349-TH","2017/07/07 18:49:51","新北市板橋區大觀路三段54號","121.433425","24.9955083333333","6500500","新莊區"
"238023","601-UM","2017/07/07 18:50:08","新北市樹林區三福街114號","121.406451666667","25.01628","6500700","樹林區"
"238019","599-UM","2017/07/07 18:49:57","新北市樹林區中華路190-16號","121.411728333333","24.9805583333333","6500700","樹林區"
"238018","571-TV","2017/07/07 18:49:56","新北市樹林區鎮前街146號","121.42465","24.9903683333333","6500700","樹林區"
"238024","5061-A6","2017/07/07 18:50:03","新北市樹林區太平路96號","121.418651666667","24.97942","6500700","樹林區"
"238022","312-TH","2017/07/07 18:50:04","新北市樹林區中華路379巷21號","121.413411666667","24.978335","6500700","樹林區"
"238025","303-VK","2017/07/07 18:49:52","新北市樹林區中山路三段22號","121.395613333333","24.9729833333333","6500700","樹林區"
"238017","283-BY","2017/07/07 18:50:05","新北市樹林區光興街44號","121.409893333333","25.0027383333333","6500700","樹林區"
"238014","282-BY","2017/07/07 18:50:06","新北市樹林區大安路111巷11號","121.423095","24.9975633333333","6500700","樹林區"
"238020","268-VK","2017/07/07 18:50:00","新北市樹林區俊英街280號","121.423781666667","25.0132916666667","6500700","樹林區"
"238026","172-UY","2017/07/07 18:49:57","新北市樹林區中和街22號","121.390436666667","24.97355","6500700","樹林區"
"238016","169-UY","2017/07/07 18:50:09","新北市樹林區文化街28號","121.4194","24.9877783333333","6500700","樹林區"
"239007","AAC-297","2017/07/07 18:50:06","新北市鶯歌區中正一路345巷22號","121.357813333333","24.9577366666667","6500800","鶯歌區"
"239006","891-R6","2017/07/07 18:49:54","新北市鶯歌區鶯桃路242巷10號","121.336576666667","24.9599016666667","6500800","鶯歌區"
"239008","527-UM","2017/07/07 18:50:08","新北市鶯歌區國際二路20巷4號","121.336923333333","24.975075","6500800","鶯歌區"
"239005","526-UM","2017/07/07 18:49:52","新北市鶯歌區鳳吉一街144號","121.328318333333","24.97528","6500800","鶯歌區"
"239001","417-VK","2017/07/07 18:50:05","新北市鶯歌區鶯桃路170巷21號","121.337665","24.9558733333333","6500800","鶯歌區"
"239003","360-BY","2017/07/07 18:50:02","新北市鶯歌區永和街43號","121.332545","24.9673533333333","6500800","鶯歌區"
"239002","359-BY","2017/07/07 18:50:04","新北市鶯歌區中正一路213號","121.35368","24.9570166666667","6500800","鶯歌區"
"239004","193-VK","2017/07/07 18:50:09","新北市鶯歌區中正三路190號","121.332818333333","24.938375","6500800","鶯歌區"
"221008","489-VK","2017/07/07 18:49:52","新北市汐止區康寧街901號","121.651341666667","25.0749733333333","6501100","汐止區"
"221036","130-UY","2017/07/07 18:49:51","新北市汐止區水碓街63號","121.665086666667","25.0684766666667","6501100","汐止區"
"221015","131-UY","2017/07/07 18:49:53","新北市汐止區鄉長路一段43號","121.665398333333","25.0751566666667","6501100","汐止區"
"221010","269-BY","2017/07/07 18:49:59","新北市汐止區康寧街901號","121.651673333333","25.0748933333333","6501100","汐止區"
"221031","277-VK","2017/07/07 00:10:23","新北市汐止區汐萬路一段256巷3號","121.652555","25.0746116666667","6501100","汐止區"
"221012","278-VK","2017/07/07 18:49:58","新北市汐止區康寧街901號","121.650808333333","25.0752533333333","6501100","汐止區"
"221023","279-VK","2017/07/07 18:48:21","新北市汐止區汐萬路一段333巷23號","121.64801","25.076145","6501100","汐止區"
"221032","280-BY","2017/07/07 18:49:49","新北市汐止區橫科路407巷81弄5號","121.628955","25.0479583333333","6501100","汐止區"
"221027","281-BY","2017/07/07 18:49:56","新北市汐止區康寧街901號","121.65083","25.07528","6501100","汐止區"
"221038","297-VK","2017/07/07 18:49:55","新北市汐止區汐萬路一段256巷1號","121.651703333333","25.0748716666667","6501100","汐止區"
"221029","298-VK","2017/07/07 18:49:58","新北市汐止區工建路66號","121.640486666667","25.06304","6501100","汐止區"
"221021","299-VK","2017/07/07 18:50:07","新北市汐止區汐萬路一段282號","121.650851666667","25.0742466666667","6501100","汐止區"
"221035","622-UM","2017/07/07 18:49:48","新北市汐止區大同路二段276號","121.65488","25.0661433333333","6501100","汐止區"
"221025","623-UM","2017/07/07 18:50:07","新北市汐止區秀峰路60號","121.659708333333","25.0647933333333","6501100","汐止區"
"221002","646-BX","2017/07/07 18:49:54","新北市汐止區樟樹二路251巷46號","121.640476666667","25.06704","6501100","汐止區"
"221033","647-BX","2017/07/07 18:50:01","新北市汐止區南勢街1巷1號","121.62701","25.0374066666667","6501100","汐止區"
"221018","753-BX","2017/07/07 18:50:04","新北市汐止區茄苳路28號","121.665143333333","25.07084","6501100","汐止區"
"220079","145-BY","2017/07/07 18:49:49","新北市板橋區府中路5號","121.46009","25.00925","6500100","板橋區"
"220082","610-BX","2017/07/07 18:50:02","新北市板橋區篤行路一段10號","121.432093333333","24.9952066666667","6500100","板橋區"
"220091","267-BY","2017/07/07 18:50:02","新北市板橋區民生路二段120號","121.470386666667","25.0195516666667","6500100","板橋區"
"220056","276-BY","2017/07/07 18:50:01","新北市板橋區四川路二段52號","121.45336","24.9953016666667","6500100","板橋區"
"220072","277-BY","2017/07/07 18:50:04","新北市板橋區金門街31巷24號","121.43407","24.99384","6500100","板橋區"
"220094","283-UM","2017/07/07 18:50:05","新北市板橋區民生路二段161巷3號","121.470278333333","25.0198233333333","6500100","板橋區"
"220071","283-VK","2017/07/07 18:50:02","新北市板橋區中山路二段23號","121.472401666667","25.015235","6500100","板橋區"
"220101","285-UM","2017/07/07 18:50:05","新北市板橋區民生路二段188號","121.469943333333","25.0204216666667","6500100","板橋區"
"220053","285-VK","2017/07/07 18:50:05","新北市板橋區民生路二段80號","121.471851666667","25.0184183333333","6500100","板橋區"
"220083","286-VK","2017/07/07 18:50:06","新北市板橋區大觀路二段22巷21號","121.445541666667","25.0035133333333","6500100","板橋區"
"220081","287-VK","2017/07/07 18:50:02","新北市板橋區南雅西路二段123巷10號","121.451816666667","25.0109533333333","6500100","板橋區"
"220090","288-VK","2017/07/07 18:49:58","新北市板橋區民生路二段161巷9號","121.47017","25.0194883333333","6500100","板橋區"
"220061","293-UM","2017/07/07 18:49:55","新北市板橋區縣民大道三段32號","121.471843333333","25.0188833333333","6500100","板橋區"
"220084","296-UM","2017/07/07 18:50:08","新北市板橋區大觀路二段148巷64號","121.441816666667","25.0006666666667","6500100","板橋區"
"220075","297-UM","2017/07/07 18:49:53","新北市板橋區大觀路一段28巷90號","121.450068333333","25.0110716666667","6500100","板橋區"
"220092","299-UM","2017/07/07 18:50:05","新北市板橋區民生路二段161巷1號","121.470106666667","25.0200716666667","6500100","板橋區"
"220062","303-R5","2017/07/07 18:49:59","新北市板橋區中山路二段32號","121.472736666667","25.0151566666667","6500100","板橋區"
"220098","317-R6","2017/07/07 15:37:06","新北市板橋區民生路二段120號","121.470321666667","25.0197","6500100","板橋區"
"220080","461-BY","2017/07/07 18:49:56","新北市板橋區大觀路二段265巷72弄1號","121.442485","24.9967733333333","6500100","板橋區"
"220064","486-VK","2017/07/07 18:50:04","新北市板橋區中山路二段50-1號","121.473241666667","25.0156116666667","6500100","板橋區"
"220089","487-VK","2017/07/07 18:50:05","新北市板橋區民生路二段120號","121.470436666667","25.0199833333333","6500100","板橋區"
"220088","491-VK","2017/07/07 18:49:25","新北市板橋區民生路二段161巷1號","121.470045","25.02005","6500100","板橋區"
"220035","560-BX","2017/07/07 18:49:46","新北市板橋區中正路275巷59-4號","121.453003333333","25.0179983333333","6500100","板橋區"
"220103","561-BX","2017/07/07 18:50:02","新北市板橋區民生路二段161巷1號","121.47021","25.019965","6500100","板橋區"
"220067","568-UM","2017/07/07 18:50:07","新北市板橋區民生路一段121號","121.473895","25.014745","6500100","板橋區"
"220063","609-BX","2017/07/07 18:49:53","新北市板橋區民生路二段15-1號","121.472958333333","25.0159233333333","6500100","板橋區"
"220057","686-BX","2017/07/07 18:50:00","新北市板橋區中山路二段35號","121.472936666667","25.0153366666667","6500100","板橋區"
"220077","687-BX","2017/07/07 18:49:57","新北市板橋區大觀路二段174巷184號","121.442116666667","25.0037083333333","6500100","板橋區"
"220093","689-BX","2017/07/07 18:49:54","新北市板橋區民生路二段120號","121.470433333333","25.0198","6500100","板橋區"
"220054","741-BX","2017/07/07 18:50:02","新北市板橋區中山路二段18號","121.472226666667","25.0149316666667","6500100","板橋區"
"220055","827-TW","2017/07/07 18:50:04","新北市板橋區民生路二段56-1號","121.472393333333","25.0169583333333","6500100","板橋區"
"220102","830-TW","2017/07/07 15:46:25","新北市板橋區民生路二段120號","121.470546666667","25.02001","6500100","板橋區"
"220096","831-TW","2017/07/07 15:26:54","新北市板橋區民生路二段120號","121.47046","25.0197033333333","6500100","板橋區"
"220074","895-R6","2017/07/07 18:49:55","新北市板橋區南門街36號","121.457108333333","25.00838","6500100","板橋區"
"220073","985-R7","2017/07/07 18:50:04","新北市板橋區館前西路97號","121.45707","25.0073","6500100","板橋區"
"220097","AAC-210","2017/07/07 18:49:51","新北市板橋區民生路二段161巷1號","121.470098333333","25.02013","6500100","板橋區"
"220070","AAC-253","2017/07/07 18:49:55","新北市板橋區中山路二段37號","121.473066666667","25.01556","6500100","板橋區"
