"lineid","car","time","location","longitude","latitude","cityid","cityname"
"234046","148-BY","2017/07/07 20:19:55","新北市永和區永元路99號","121.522526666667","25.0022116666667","6500400","永和區"
"234013","149-BY","2017/07/07 20:20:06","新北市永和區仁愛路284號","121.503135","25.0086166666667","6500400","永和區"
"234007","207-UY","2017/07/07 20:20:07","新北市永和區環河西路二段229巷1號","121.501381666667","25.0099783333333","6500400","永和區"
"234081","298-R6","2017/07/07 20:20:06","新北市永和區國中路130號","121.523638333333","25.007065","6500400","永和區"
"234038","336-UY","2017/07/07 20:20:10","新北市永和區民樂街31巷19弄7號","121.52833","25.002135","6500400","永和區"
"234064","337-UY","2017/07/07 20:20:00","新北市永和區得和路124號","121.518726666667","25.0002083333333","6500400","永和區"
"234086","338-UY","2017/07/07 20:19:55","新北市永和區中正路660-1號","121.51695","25.00871","6500400","永和區"
"234070","552-UM","2017/07/07 20:20:04","新北市永和區永寧街46號","121.51993","25.0069166666667","6500400","永和區"
"234054","553-UM","2017/07/07 20:20:04","新北市永和區光復街27號","121.516545","25.017485","6500400","永和區"
"234017","745-BX","2017/07/07 20:19:49","新北市永和區仁愛路68號","121.5132","25.0133083333333","6500400","永和區"
"234030","746-BX","2017/07/07 20:20:04","新北市永和區民族街79號","121.518385","24.996675","6500400","永和區"
"234042","840-RS","2017/07/07 20:19:55","新北市中和區中安街220號","121.512085","24.9988066666667","6500400","永和區"
"234061","AAD-866","2017/07/07 20:20:01","新北市永和區得和路94號","121.517156666667","25.0000483333333","6500400","永和區"
"234050","863-TW","2017/07/07 20:20:01","新北市永和區新生路17號","121.509413333333","25.0167366666667","6500400","永和區"
"234011","9373-KE","2017/07/07 20:20:07","新北市永和區保生路55-1號","121.50456","25.0109166666667","6500400","永和區"
"249005","172-UM","2017/07/07 20:20:01","新北市八里區中山路三段133號","121.388323333333","25.142475","6502300","八里區"
"249001","173-UM","2017/07/07 20:19:53","新北市八里區中華路二段538號","121.399013333333","25.145105","6502300","八里區"
"249004","303-UY","2017/07/07 20:20:05","新北市八里區中山路一段370號","121.412265","25.1586916666667","6502300","八里區"
"249002","305-UY","2017/07/07 20:19:53","新北市八里區龍米路一段100巷17號","121.453828333333","25.12515","6502300","八里區"
"249003","593-UM","2017/07/07 20:19:56","新北市八里區中山路二段447巷7號","121.397008333333","25.1455066666667","6502300","八里區"
"248016","026-BX","2017/07/07 20:19:59","新北市五股區凌雲路一段158巷44號","121.44712","25.10381","6501500","五股區"
"248012","247-BX","2017/07/06 21:15:19","新北市五股區中興路二段103巷14號","121.458508333333","25.076185","6501500","五股區"
"248004","677-BX","2017/07/07 20:19:56","新北市五股區中興路四段23號","121.438843333333","25.0826816666667","6501500","五股區"
"248002","678-BX","2017/07/07 20:20:01","新北市五股區成泰路三段71號","121.443506666667","25.0897266666667","6501500","五股區"
"234023","9380-KE","2017/07/07 20:20:02","新北市永和區永和路二段276巷1號","121.516395","25.01534","6500400","永和區"
"234077","969-R7","2017/07/07 20:19:55","新北市永和區中正路102號","121.514346666667","24.9958616666667","6500400","永和區"
"234074","AAC-211","2017/07/07 20:20:07","新北市永和區豫溪街207巷1號","121.523391666667","25.0097816666667","6500400","永和區"
"234067","AAC-212","2017/07/07 20:19:57","新北市永和區保平路214巷11弄1號","121.508776666667","25.0065483333333","6500400","永和區"
"234003","AAC-295","2017/07/07 20:18:13","新北市永和區大新街9號","121.514676666667","25.0086366666667","6500400","永和區"
"243013","AAD-798","2017/07/07 20:20:01","新北市泰山區新民路14巷2弄2號","121.426336666667","25.0445116666667","6501600","泰山區"
"243009","297-R6","2017/07/07 20:20:00","新北市泰山區福泰街24巷4號","121.433373333333","25.0598566666667","6501600","泰山區"
"243015","380-SR","2017/07/07 20:19:56","新北市泰山區全興路111號","121.433646666667","25.05651","6501600","泰山區"
"243014","421-VK","2017/07/07 20:19:58","新北市泰山區泰林路二段455號","121.425643333333","25.0640533333333","6501600","泰山區"
"243010","548-UM","2017/07/07 20:19:54","新北市泰山區明志路二段259號","121.427063333333","25.0475966666667","6501600","泰山區"
"243011","549-UM","2017/07/07 20:19:57","新北市泰山區壽山路134巷18號","121.418311666667","25.0309816666667","6501600","泰山區"
"243016","680-BX","2017/07/07 20:19:51","新北市泰山區新生路28號","121.429185","25.0445066666667","6501600","泰山區"
"222005","289-BY","2017/07/07 09:55:46","新北市深坑區深坑街75號","121.61465","25.0013166666667","6501800","深坑區"
"222003","436-BY","2017/07/07 20:20:04","新北市深坑區文化街43號","121.617773333333","25.0018033333333","6501800","深坑區"
"222002","659-BX","2017/07/07 20:19:48","新北市深坑區萬福路75巷48號","121.598291666667","25.0099833333333","6501800","深坑區"
"222001","696-SL","2017/07/07 20:20:01","新北市深坑區北深路三段213號","121.60039","25.0040233333333","6501800","深坑區"
"231061","001-UM","2017/07/07 20:20:03","新北市新店區安興路35號","121.516328333333","24.9706616666667","6500600","新店區"
"231041","002-UM","2017/07/07 20:19:57","新北市新店區民權路42-1號","121.540266666667","24.9828916666667","6500600","新店區"
"231056","0291-UT","2017/07/07 20:20:06","新北市新店區中正路275巷36號","121.536665","24.9728533333333","6500600","新店區"
"231059","046-UY","2017/07/07 20:19:56","新北市新店區安德街158號","121.508375","24.9593266666667","6500600","新店區"
"231060","106-UY","2017/07/07 20:20:00","新北市新店區錦秀路11巷88號","121.480493333333","24.9433083333333","6500600","新店區"
"231051","107-UY","2017/07/07 20:19:50","新北市新店區中央六街67號","121.527425","24.9761783333333","6500600","新店區"
"231048","108-UY","2017/07/07 20:20:01","新北市新店區中興路三段258號","121.542768333333","24.9842833333333","6500600","新店區"
"231053","110-UY","2017/07/07 20:19:54","新北市新店區松林路2號","121.546706666667","24.9109366666667","6500600","新店區"
"231057","256-BX","2017/07/07 20:20:07","新北市新店區花園十路二段7號","121.554356666667","24.934515","6500600","新店區"
"231063","268-BY","2017/07/07 20:20:05","新北市新店區安康路二段452-1號","121.495216666667","24.9547016666667","6500600","新店區"
"231050","AAD-862","2017/07/07 20:19:53","新北市新店區光明街87號","121.538738333333","24.9609966666667","6500600","新店區"
"231058","3712-VJ","2017/07/07 20:19:54","新北市新店區薏仁坑路6號","121.50002","24.9583116666667","6500600","新店區"
"231055","3713-VJ","2017/07/07 20:20:00","新北市新店區新明街26巷4號","121.540978333333","24.9686466666667","6500600","新店區"
"231067","4772-VM","2017/07/07 20:20:07","新北市新店區溪洲路8巷3號","121.53348","24.9613933333333","6500600","新店區"
"231065","512-UM","2017/07/07 20:20:01","新北市新店區安祥路104巷6弄24號","121.482403333333","24.96231","6500600","新店區"
"231054","513-UM","2017/07/07 20:20:07","新北市新店區檳榔路109號","121.54447","24.9616833333333","6500600","新店區"
"231064","515-UM","2017/07/07 20:19:56","新北市新店區安興路141號","121.516673333333","24.97932","6500600","新店區"
"231042","616-UM","2017/07/07 20:19:54","新北市新店區中興路二段233號","121.547708333333","24.9751933333333","6500600","新店區"
"231045","617-UM","2017/07/07 20:19:52","新北市新店區新坡一街85號","121.548936666667","24.964525","6500600","新店區"
"231040","619-UM","2017/07/07 20:19:58","新北市新店區三民路21巷1號","121.539245","24.9715716666667","6500600","新店區"
"231068","718-UY","2017/07/07 20:20:03","新北市新店區寶安街16巷2號","121.542126666667","24.9816483333333","6500600","新店區"
"231049","719-UM","2017/07/07 20:20:04","新北市新店區北新路一段319號","121.541551666667","24.968085","6500600","新店區"
"231062","720-UM","2017/07/07 20:19:57","新北市新店區安泰路7巷16號","121.485658333333","24.9509583333333","6500600","新店區"
"231044","897-TW","2017/07/07 20:20:05","新北市新店區北新路三段50號","121.5422","24.9799116666667","6500600","新店區"
"231043","899-TW","2017/07/07 20:19:57","新北市新店區建國路133號","121.539416666667","24.9782516666667","6500600","新店區"
"231066","AKT-0513","2017/07/07 20:19:54","新北市新店區安民街332號","121.51728","24.9749116666667","6500600","新店區"
"241011","013-R5","2017/07/07 20:19:53","新北市三重區龍門路145號","121.498426666667","25.0729716666667","6500200","三重區"
"241028","022-UY","2017/07/07 20:19:51","新北市三重區大同南路83-4號","121.49606","25.0593283333333","6500200","三重區"
"241008","059-VK","2017/07/07 20:20:01","新北市三重區永福街213號","121.479951666667","25.0742366666667","6500200","三重區"
"241009","060-VK","2017/07/07 20:19:48","新北市三重區三和路四段382巷48號","121.480908333333","25.0784016666667","6500200","三重區"
"241031","061-VK","2017/07/07 20:20:05","新北市三重區三寧街22號","121.489485","25.0599966666667","6500200","三重區"
"241015","062-VK","2017/07/07 20:20:02","新北市三重區重新路一段126號","121.500293333333","25.0629566666667","6500200","三重區"
"241017","063-VK","2017/07/07 20:19:55","新北市三重區民生街76號","121.490183333333","25.0646916666667","6500200","三重區"
"241024","065-VK","2017/07/07 20:20:08","新北市三重區忠孝路三段15巷20號","121.480868333333","25.06765","6500200","三重區"
"241026","066-VK","2017/07/07 20:20:01","新北市三重區重新路一段46號","121.502955","25.0639016666667","6500200","三重區"
"241003","091-VK","2017/07/07 20:20:06","新北市三重區富華街69-2號","121.491341666667","25.0836516666667","6500200","三重區"
"241002","156-TC","2017/07/07 20:20:07","新北市三重區五華街1巷2號","121.495578333333","25.0797433333333","6500200","三重區"
"241005","262-UM","2017/07/07 20:20:00","新北市三重區仁愛街517號","121.48758","25.082255","6500200","三重區"
"241032","265-UM","2017/07/07 20:20:02","新北市三重區捷運路19巷8弄10號","121.484508333333","25.05726","6500200","三重區"
"241016","266-UM","2017/07/07 20:19:51","新北市三重區大同北路97號","121.494565","25.0635883333333","6500200","三重區"
"241022","267-UM","2017/07/07 20:20:00","新北市三重區市前街2號","121.488945","25.0619183333333","6500200","三重區"
"241018","268-UM","2017/07/07 20:19:57","新北市三重區雙園街93號","121.493908333333","25.0673966666667","6500200","三重區"
"241013","270-UM","2017/07/07 20:20:06","新北市三重區三和路三段167巷7號","121.492246666667","25.0741666666667","6500200","三重區"
"241025","271-UM","2017/07/07 20:20:02","新北市三重區頂崁街196號","121.477403333333","25.0666116666667","6500200","三重區"
"241007","398-BY","2017/07/07 20:20:05","新北市三重區溪尾街108巷65號","121.487356666667","25.0781983333333","6500200","三重區"
"241020","413-TH","2017/07/07 20:19:51","新北市三重區三和路三段170巷8弄2號","121.492468333333","25.0728833333333","6500200","三重區"
"241035","462-BY","2017/07/07 20:20:09","新北市三重區文化北路20號","121.499178333333","25.0640066666667","6500200","三重區"
"241004","475-VK","2017/07/07 20:19:54","新北市三重區仁愛街370號","121.491356666667","25.0805833333333","6500200","三重區"
"241019","478-VK","2017/07/07 20:20:07","新北市三重區忠孝路一段24號","121.491783333333","25.07177","6500200","三重區"
"241030","480-VK","2017/07/07 20:19:53","新北市三重區環河南路254巷61號","121.487905","25.05235","6500200","三重區"
"241014","543-UM","2017/07/07 20:20:00","新北市三重區龍濱路196號","121.50102","25.0733183333333","6500200","三重區"
"241023","545-UM","2017/07/07 20:19:51","新北市三重區忠孝路三段99巷11號","121.480105","25.0645683333333","6500200","三重區"
"241001","547-UM","2017/07/07 20:19:57","新北市三重區溪尾街36號","121.490695","25.0767716666667","6500200","三重區"
"241006","AAD-863","2017/07/07 20:19:55","新北市三重區車路頭街139巷12號","121.484238333333","25.07622","6500200","三重區"
"241012","941-UM","2017/07/07 20:20:07","新北市三重區河邊北街375號","121.501725","25.076395","6500200","三重區"
"241029","942-UM","2017/07/07 20:19:53","新北市三重區光明路96巷5號","121.492675","25.05651","6500200","三重區"
"241033","AAC-255","2017/07/07 20:19:49","新北市三重區五谷王北街50巷53號","121.474903333333","25.05144","6500200","三重區"
"235066","003-UY","2017/07/07 20:19:56","新北市中和區保平路326巷18號","121.5066","25.0047433333333","6500300","中和區"
"235039","097-UM","2017/07/07 20:19:54","新北市中和區大勇街25巷15弄1號","121.515921666667","24.9936116666667","6500300","中和區"
"235065","098-UM","2017/07/07 20:20:02","新北市中和區永和路128巷28號","121.497628333333","25.0068433333333","6500300","中和區"
"235044","293-VK","2017/07/07 20:20:00","新北市中和區復興路336號","121.500396666667","24.99026","6500300","中和區"
"235072","301-VK","2017/07/07 20:19:57","新北市新店區薏仁坑路自強巷1號","121.496911666667","24.9580816666667","6500300","中和區"
"235068","377-QA","2017/07/07 20:20:02","新北市中和區景平路707號","121.496585","25.003665","6500300","中和區"
"235050","4979-A6","2017/07/07 20:19:39","新北市中和區景平路408-1號","121.508536666667","24.9931666666667","6500300","中和區"
"235069","4980-A6","2017/07/07 20:19:49","新北市中和區圓通路123號","121.499186666667","24.9960233333333","6500300","中和區"
"235042","551-UM","2017/07/07 20:20:03","新北市新店區薏仁坑路自強巷1號","121.497855","24.95788","6500300","中和區"
"235070","558-UM","2017/07/07 20:20:08","新北市中和區圓通路227號","121.496408333333","24.9942816666667","6500300","中和區"
"235041","802-TS","2017/07/07 20:19:39","新北市中和區景新街269號","121.509116666667","24.9939366666667","6500300","中和區"
"235037","AAC-213","2017/07/07 20:20:03","新北市中和區秀朗路三段132號","121.5245","24.99186","6500300","中和區"
"235059","AAC-215","2017/07/07 20:19:49","新北市中和區員山路8-8號","121.484196666667","24.9826616666667","6500300","中和區"
"220069","AAD-861","2017/07/07 20:19:50","新北市板橋區大明街25巷2弄26號","121.457378333333","25.00271","6500100","板橋區"
"247020","893-R6","2017/07/07 20:19:56","新北市蘆洲區仁愛街145巷3-1號","121.469693333333","25.0946966666667","6501400","蘆洲區"
"247010","546-UM","2017/07/07 20:19:59","新北市蘆洲區信義路192號","121.479133333333","25.0844666666667","6501400","蘆洲區"
"247018","500-BY","2017/07/07 20:20:05","新北市蘆洲區民族路255巷8號","121.476378333333","25.0898466666667","6501400","蘆洲區"
"247008","339-TH","2017/07/07 20:19:58","新北市蘆洲區集賢路213號","121.483361666667","25.0870266666667","6501400","蘆洲區"
"247024","337-TH","2017/07/07 20:20:06","新北市蘆洲區長興路62號","121.463238333333","25.083895","6501400","蘆洲區"
"247002","336-TH","2017/07/07 20:20:09","新北市蘆洲區長安街272號","121.457368333333","25.0869733333333","6501400","蘆洲區"
"247014","057-VK","2017/07/07 20:19:54","新北市蘆洲區中山一路238號","121.472471666667","25.0801783333333","6501400","蘆洲區"
"247004","056-VK","2017/07/07 20:20:03","新北市蘆洲區長安街220巷9號","121.459325","25.0850166666667","6501400","蘆洲區"
"247006","053-VK","2017/07/07 20:19:29","新北市蘆洲區九芎街167巷40號","121.465711666667","25.078185","6501400","蘆洲區"
"247012","007-UY","2017/07/07 20:20:01","新北市蘆洲區民族路137號","121.479701666667","25.0875016666667","6501400","蘆洲區"
"247022","002-UY","2017/07/07 20:20:04","新北市蘆洲區民族路435號","121.467866666667","25.0890716666667","6501400","蘆洲區"
"247016","001-UY","2017/07/07 20:19:57","新北市蘆洲區光華路164號","121.46538","25.0824066666667","6501400","蘆洲區"
"224011","420-VK","2017/07/07 20:19:51","新北市瑞芳區烏勢巷145號","121.84778","25.1090633333333","6501200","瑞芳區"
"208001","761-BX","2017/07/07 20:20:03","新北市金山區磺清路135號","121.639376666667","25.2276316666667","6502700","金山區"
"251002","012-UM","2017/07/07 20:19:57","新北市淡水區中正路14巷2號","121.439253333333","25.170635","6501000","淡水區"
"251013","180-VK","2017/07/07 20:19:56","新北市淡水區奎柔山路752巷31號","121.474673333333","25.2057716666667","6501000","淡水區"
"251008","181-VK","2017/07/07 20:19:56","新北市淡水區淡海路180巷13號","121.421125","25.1846933333333","6501000","淡水區"
"251015","182-VK","2017/07/07 20:20:00","新北市淡水區淡金路三段33號","121.446763333333","25.197735","6501000","淡水區"
"251010","413-VK","2017/07/07 20:19:55","新北市淡水區新民街一段127號","121.427851666667","25.1883316666667","6501000","淡水區"
"251012","441-VK","2017/07/07 20:19:48","新北市淡水區下圭柔山431-1號","121.449761666667","25.2102083333333","6501000","淡水區"
"251001","559-UM","2017/07/07 20:19:54","新北市淡水區新市二路四段265號","121.4457","25.19247","6501000","淡水區"
"251006","561-UM","2017/07/07 20:19:49","新北市淡水區淡金路一段571號","121.452685","25.180535","6501000","淡水區"
"251009","575-R6","2017/07/07 20:19:58","新北市淡水區中正路49號","121.441926666667","25.16952","6501000","淡水區"
"251003","673-BX","2017/07/07 20:19:50","新北市淡水區中山北路一段166號","121.444143333333","25.1784483333333","6501000","淡水區"
"207004","225-TW","2017/07/07 20:20:07","新北市萬里區北基里孝七街6號","121.683143333333","25.1758233333333","6502800","萬里區"
"252002","178-VK","2017/07/07 20:20:07","新北市三芝區中正路一段1號","121.502535","25.2590483333333","6502100","三芝區"
"252001","292-VK","2017/07/07 20:20:01","新北市三芝區中山路一段14號","121.500698333333","25.2580966666667","6502100","三芝區"
"237006","5529-G3","2017/07/07 20:20:04","新北市三峽區中正路二段41號","121.366718333333","24.9188183333333","6500900","三峽區"
"237005","AKY-6261","2017/07/07 20:19:51","新北市三峽區三樹路98巷91號","121.38198","24.9399516666667","6500900","三峽區"
"236072","105-UM","2017/07/07 20:19:56","新北市土城區大安路18號","121.432858333333","24.96617","6501300","土城區"
"236043","107-UM","2017/07/07 20:20:01","新北市土城區中華路一段50號","121.445923333333","24.9888383333333","6501300","土城區"
"236079","166-UM","2017/07/07 20:19:48","新北市土城區金安街61號","121.420586666667","24.96491","6501300","土城區"
"236031","253-BX","2017/07/07 20:19:54","新北市土城區學成路128巷11號","121.44951","24.9900216666667","6501300","土城區"
"236027","269-VK","2017/07/07 20:20:08","新北市土城區中央路一段249巷12號","121.44581","24.985455","6501300","土城區"
"236015","270-VK","2017/07/07 20:20:02","新北市土城區廣明街90巷24號","121.455673333333","24.9946033333333","6501300","土城區"
"236039","271-VK","2017/07/07 20:19:51","新北市土城區明德路一段40號","121.465131666667","24.9843933333333","6501300","土城區"
"236022","401-BY","2017/07/07 20:20:09","新北市土城區延吉街111巷1弄1號","121.471445","24.9865466666667","6501300","土城區"
"236059","912-UM","2017/07/07 20:19:49","新北市土城區中央路三段73-2號","121.438621666667","24.9691366666667","6501300","土城區"
"236055","AAC-216","2017/07/07 20:20:02","新北市土城區城林路6巷72-2號","121.437853333333","24.978205","6501300","土城區"
"242021","AAC-296","2017/07/07 20:20:10","新北市新莊區中興街1號","121.449221666667","25.0357816666667","6500500","新莊區"
"242029","986-R7","2017/07/07 20:19:59","新北市新莊區中華路二段187號","121.452423333333","25.0525033333333","6500500","新莊區"
"242048","751-BX","2017/07/07 20:20:08","新北市新莊區龍安路279號","121.420521666667","25.0199183333333","6500500","新莊區"
"242025","615-BX","2017/07/07 20:19:58","新北市新莊區五工二路62巷24號","121.46131","25.0662616666667","6500500","新莊區"
"242023","613-BX","2017/07/07 20:19:52","新北市新莊區化成路413號","121.465025","25.0591866666667","6500500","新莊區"
"242027","612-BX","2017/07/07 20:20:06","新北市新莊區中港路471號","121.452381666667","25.0492316666667","6500500","新莊區"
"242037","566-BX","2017/07/07 20:20:00","新北市新莊區後港一路56巷22號","121.426755","25.0253533333333","6500500","新莊區"
"242041","497-BY","2017/07/07 20:20:01","新北市新莊區天祥街56號","121.416515","25.0291016666667","6500500","新莊區"
"242005","442-UM","2017/07/07 20:19:52","新北市新莊區頭興街1-8號","121.46359","25.053625","6500500","新莊區"
"242046","441-UM","2017/07/07 20:19:50","新北市新莊區中正路新生巷54號","121.417471666667","25.023295","6500500","新莊區"
"242050","440-UM","2017/07/07 20:19:51","新北市新莊區民安西路231號","121.426018333333","25.0141866666667","6500500","新莊區"
"242002","413-TV","2017/07/07 20:20:01","新北市新莊區化成路35號","121.465111666667","25.0440916666667","6500500","新莊區"
"242039","400-BY","2017/07/07 20:20:01","新北市新莊區成功街28號","121.424853333333","25.0203033333333","6500500","新莊區"
"242060","362-BY","2017/07/07 20:20:04","新北市新莊區新樹路172-13號","121.434505","25.0216216666667","6500500","新莊區"
"242058","353-BY","2017/07/07 20:20:03","新北市新莊區四維路215號","121.421626666667","25.019925","6500500","新莊區"
"242011","132-UY","2017/07/07 20:19:52","新北市新莊區中信街17號","121.451131666667","25.0508066666667","6500500","新莊區"
"242034","133-UY","2017/07/07 20:20:03","新北市新莊區仁愛街42號","121.444368333333","25.03671","6500500","新莊區"
"242019","135-UY","2017/07/07 20:19:50","新北市新莊區復興路二段147號","121.457801666667","25.044475","6500500","新莊區"
"242044","172-VK","2017/07/07 20:20:06","新北市新莊區中正路新建巷28弄63號","121.413745","25.0211616666667","6500500","新莊區"
"242013","173-VK","2017/07/07 20:19:55","新北市新莊區中信街63巷2弄7號","121.448681666667","25.050375","6500500","新莊區"
"242056","176-VK","2017/07/07 20:20:02","新北市新莊區豐年街28巷25號","121.445385","25.03233","6500500","新莊區"
"242003","233-RS","2017/07/07 08:59:40","新北市新莊區環河路48-7號","121.436931666667","25.0098466666667","6500500","新莊區"
"242007","346-TH","2017/07/07 20:20:03","新北市新莊區福壽街94巷5號","121.458663333333","25.0500866666667","6500500","新莊區"
"242032","347-TH","2017/07/07 20:19:54","新北市新莊區三和路13-6號","121.43904","25.0360816666667","6500500","新莊區"
"242017","348-TH","2017/07/07 20:20:03","新北市新莊區中港一街70號","121.449876666667","25.0453983333333","6500500","新莊區"
"242054","349-TH","2017/07/07 20:19:51","新北市新莊區西盛街397號","121.427856666667","25.0128016666667","6500500","新莊區"
"242015","350-TH","2017/07/07 20:19:49","新北市新莊區永樂街237巷2號","121.44633","25.0443683333333","6500500","新莊區"
"242009","351-TH","2017/07/07 20:19:58","新北市新莊區昌盛街65巷2弄11號","121.455378333333","25.0501333333333","6500500","新莊區"
"238023","601-UM","2017/07/07 20:20:08","新北市樹林區民和街1號","121.38526","24.967995","6500700","樹林區"
"238021","311-TH","2017/07/07 20:20:01","新北市樹林區佳園路三段99巷33-1號","121.391441666667","24.9519866666667","6500700","樹林區"
"238025","303-VK","2017/07/07 20:19:52","新北市樹林區育德街78-1號","121.387745","24.9680483333333","6500700","樹林區"
"221008","489-VK","2017/07/07 20:19:52","新北市汐止區康寧街75號","121.619376666667","25.0664266666667","6501100","汐止區"
"221036","130-UY","2017/07/07 20:19:53","新北市汐止區福安街55巷10號","121.664183333333","25.0644383333333","6501100","汐止區"
"221015","131-UY","2017/07/07 20:19:53","新北市汐止區建成路142巷19弄11號","121.661966666667","25.0739266666667","6501100","汐止區"
"221010","269-BY","2017/07/07 20:19:59","新北市汐止區八連路二段333號","121.629711666667","25.1001233333333","6501100","汐止區"
"221031","277-VK","2017/07/07 00:10:23","新北市汐止區汐萬路一段256巷3號","121.652555","25.0746116666667","6501100","汐止區"
"221012","278-VK","2017/07/07 20:19:58","新北市汐止區保新街133-1號","121.687961666667","25.0704916666667","6501100","汐止區"
"221023","279-VK","2017/07/07 19:48:01","新北市汐止區民族六街4巷2號","121.629431666667","25.0701633333333","6501100","汐止區"
"221032","280-BY","2017/07/07 20:19:49","新北市汐止區民權街二段36號","121.619405","25.0495833333333","6501100","汐止區"
"221027","281-BY","2017/07/07 20:19:59","新北市汐止區禮門街14號","121.656613333333","25.0676416666667","6501100","汐止區"
"221038","297-VK","2017/07/07 20:20:10","新北市汐止區忠孝東路478號","121.666186666667","25.0736833333333","6501100","汐止區"
"221029","298-VK","2017/07/07 20:19:58","新北市汐止區樟樹一路99巷7弄10號","121.641083333333","25.0633283333333","6501100","汐止區"
"221021","299-VK","2017/07/07 20:01:07","新北市汐止區復興路39號","121.656686666667","25.0631533333333","6501100","汐止區"
"221035","622-UM","2017/07/07 20:19:54","新北市汐止區長江街101-5號","121.658708333333","25.0732266666667","6501100","汐止區"
"221025","623-UM","2017/07/07 20:20:06","新北市汐止區水源路二段72巷9弄3號","121.655743333333","25.0556633333333","6501100","汐止區"
"221002","646-BX","2017/07/07 20:19:54","新北市汐止區福德一路86巷10號","121.637841666667","25.0689066666667","6501100","汐止區"
"221033","647-BX","2017/07/07 20:20:01","新北市汐止區東勢街215巷16號","121.63491","25.043325","6501100","汐止區"
"221018","753-BX","2017/07/07 20:20:04","新北市汐止區茄苳路256號","121.671685","25.0682816666667","6501100","汐止區"
"220101","285-UM","2017/07/07 20:20:05","新北市板橋區文化路二段126號","121.47016","25.0262066666667","6500100","板橋區"
"220053","285-VK","2017/07/07 20:20:05","新北市板橋區南雅南路一段1巷1弄15號","121.457161666667","25.006045","6500100","板橋區"
"220083","286-VK","2017/07/07 20:20:06","新北市板橋區僑中二街90巷13號","121.445711666667","25.009245","6500100","板橋區"
"220081","287-VK","2017/07/07 20:20:01","新北市板橋區僑中一街102巷5弄4號","121.446663333333","25.01264","6500100","板橋區"
"220061","293-UM","2017/07/07 20:19:55","新北市板橋區中山路一段2號","121.45976","25.0074066666667","6500100","板橋區"
"220092","299-UM","2017/07/07 20:20:05","新北市板橋區民權路174號","121.45957","25.0132983333333","6500100","板橋區"
"220080","461-BY","2017/07/07 20:19:56","新北市土城區自強街33號","121.432663333333","24.9731316666667","6500100","板橋區"
"220089","487-VK","2017/07/07 20:20:05","新北市板橋區四維路156號","121.464851666667","25.0259166666667","6500100","板橋區"
"220103","561-BX","2017/07/07 20:20:02","新北市板橋區新海路45號","121.462211666667","25.0211266666667","6500100","板橋區"
"220067","568-UM","2017/07/07 20:20:07","新北市樹林區中華路1-1號","121.425133333333","24.9841883333333","6500100","板橋區"
"220057","686-BX","2017/07/07 20:20:00","新北市樹林區中山路三段210-2號","121.380676666667","24.9665416666667","6500100","板橋區"
"220055","827-TW","2017/07/07 20:20:04","新北市板橋區仁愛路25號","121.45896","24.9994383333333","6500100","板橋區"
"220102","830-TW","2017/07/07 20:19:58","新北市板橋區板新路238號","121.467861666667","25.016245","6500100","板橋區"
"220097","AAC-210","2017/07/07 20:20:11","新北市板橋區光正街45巷2弄3號","121.461746666667","25.0172766666667","6500100","板橋區"
"220070","AAC-253","2017/07/07 20:19:55","新北市板橋區四川路一段469號","121.457181666667","24.9975533333333","6500100","板橋區"
