"lineid","car","time","location","longitude","latitude","cityid","cityname"
"234050","863-TW","2017/07/07 20:59:56","新北市八里區商港路120號","121.392911666667","25.1499583333333","6500400","永和區"
"222005","289-BY","2017/07/07 09:55:46","新北市深坑區深坑街75號","121.61465","25.0013166666667","6501800","深坑區"
"222002","659-BX","2017/07/07 21:00:05","新北市深坑區北深路二段204號","121.612878333333","25.0014216666667","6501800","深坑區"
"231061","001-UM","2017/07/07 21:00:03","新北市新店區永安街28-2號","121.517441666667","24.986525","6500600","新店區"
"231059","046-UY","2017/07/07 20:59:56","新北市新店區僑信路45號","121.499313333333","24.9499016666667","6500600","新店區"
"231060","106-UY","2017/07/07 21:00:00","新北市新店區安康路三段525巷1號","121.481978333333","24.9451383333333","6500600","新店區"
"231051","107-UY","2017/07/07 20:59:50","新北市新店區中正路485號","121.53384","24.9818716666667","6500600","新店區"
"231048","108-UY","2017/07/07 21:00:01","新北市新店區文化路71巷2號","121.544793333333","24.9823016666667","6500600","新店區"
"231063","268-BY","2017/07/07 21:00:05","新北市新店區玫瑰路30號","121.495403333333","24.9500716666667","6500600","新店區"
"231050","AAD-862","2017/07/07 20:59:53","新北市新店區三民路115號","121.53485","24.9720616666667","6500600","新店區"
"231058","3712-VJ","2017/07/07 20:59:54","新北市新店區三民路60巷18號","121.53577","24.97298","6500600","新店區"
"231067","4772-VM","2017/07/07 21:00:07","新北市新店區安業街67巷22號","121.519101666667","24.9761866666667","6500600","新店區"
"231065","512-UM","2017/07/07 21:00:01","新北市新店區安祥路69巷54弄12號","121.482336666667","24.9591183333333","6500600","新店區"
"231054","513-UM","2017/07/07 21:00:07","新北市新店區北新路一段96巷23號","121.543006666667","24.9688583333333","6500600","新店區"
"231064","515-UM","2017/07/07 20:59:56","新北市新店區安民街301號","121.517541666667","24.9737583333333","6500600","新店區"
"231042","616-UM","2017/07/07 20:59:54","新北市新店區寶興路60巷3號","121.54989","24.971855","6500600","新店區"
"231040","619-UM","2017/07/07 20:59:58","新北市新店區中正路114號","121.542533333333","24.9708366666667","6500600","新店區"
"231062","720-UM","2017/07/07 20:59:57","新北市新店區雙城路115號","121.492428333333","24.9475066666667","6500600","新店區"
"231043","899-TW","2017/07/07 20:59:57","新北市新店區民族路241號","121.536535","24.9755","6500600","新店區"
"231066","AKT-0513","2017/07/07 20:59:54","新北市新店區吉安街35號","121.515845","24.9660266666667","6500600","新店區"
"241011","013-R5","2017/07/07 20:59:53","新北市三重區秀江街113號","121.499798333333","25.07223","6500200","三重區"
"241028","022-UY","2017/07/07 20:59:51","新北市三重區新北大道一段7號","121.489806666667","25.0613816666667","6500200","三重區"
"241008","059-VK","2017/07/07 21:00:01","新北市三重區力行路二段162巷5號","121.482671666667","25.0766266666667","6500200","三重區"
"241009","060-VK","2017/07/07 21:00:08","新北市三重區三和路四段386號","121.48237","25.0790633333333","6500200","三重區"
"241031","061-VK","2017/07/07 20:59:48","新北市三重區重陽路一段113巷2弄2號","121.48747","25.0598833333333","6500200","三重區"
"241015","062-VK","2017/07/07 21:00:01","新北市三重區福德北路65號","121.502081666667","25.0655666666667","6500200","三重區"
"241017","063-VK","2017/07/07 20:59:55","新北市三重區國隆路30號","121.492263333333","25.0643416666667","6500200","三重區"
"241024","065-VK","2017/07/07 20:59:48","新北市三重區大勇街82巷15弄30號","121.481283333333","25.0719733333333","6500200","三重區"
"241026","066-VK","2017/07/07 21:00:01","新北市三重區文化南路43號","121.500206666667","25.0614983333333","6500200","三重區"
"241003","091-VK","2017/07/07 21:00:06","新北市三重區進安街196號","121.493726666667","25.0861333333333","6500200","三重區"
"241002","156-TC","2017/07/07 21:00:07","新北市三重區五華街11號","121.494966666667","25.0803366666667","6500200","三重區"
"241005","262-UM","2017/07/07 21:00:00","新北市三重區三信路186號","121.48791","25.0861133333333","6500200","三重區"
"241032","265-UM","2017/07/07 21:00:02","新北市三重區三陽路139號","121.48299","25.0588516666667","6500200","三重區"
"241016","266-UM","2017/07/07 20:59:51","新北市三重區正義北路113號","121.497036666667","25.0657066666667","6500200","三重區"
"241022","267-UM","2017/07/07 21:00:00","新北市三重區中正北路20巷12號","121.488061666667","25.0625366666667","6500200","三重區"
"241018","268-UM","2017/07/07 20:59:57","新北市三重區自強路一段232號","121.493346666667","25.0669333333333","6500200","三重區"
"241013","270-UM","2017/07/07 21:00:06","新北市三重區仁賢街12-1號","121.49571","25.0748766666667","6500200","三重區"
"241025","271-UM","2017/07/07 21:00:02","新北市三重區新北大道一段156號","121.484206666667","25.0616316666667","6500200","三重區"
"241007","398-BY","2017/07/07 21:00:00","新北市三重區慈愛街11號","121.485193333333","25.07874","6500200","三重區"
"241020","413-TH","2017/07/07 20:59:51","新北市三重區忠孝路二段35號","121.485943333333","25.071085","6500200","三重區"
"241004","475-VK","2017/07/07 20:59:54","新北市三重區仁愛街418號","121.49045","25.08141","6500200","三重區"
"241019","478-VK","2017/07/07 21:00:07","新北市三重區三張街104號","121.487876666667","25.0699433333333","6500200","三重區"
"241030","480-VK","2017/07/07 20:59:53","新北市三重區中正南路287號","121.492846666667","25.0519333333333","6500200","三重區"
"241014","543-UM","2017/07/07 21:00:00","新北市三重區長榮路75號","121.502628333333","25.0691433333333","6500200","三重區"
"241023","545-UM","2017/07/07 20:59:51","新北市三重區忠孝路三段50巷41弄66號","121.482233333333","25.0637183333333","6500200","三重區"
"241001","547-UM","2017/07/07 20:59:57","新北市三重區三和路四段136號","121.48853","25.07533","6500200","三重區"
"241006","AAD-863","2017/07/07 20:59:55","新北市三重區永福街70號","121.479188333333","25.0768733333333","6500200","三重區"
"241012","941-UM","2017/07/07 21:00:06","新北市三重區仁信街27號","121.50127","25.0755833333333","6500200","三重區"
"241029","942-UM","2017/07/07 20:59:53","新北市三重區電信街48-2號","121.496651666667","25.0583416666667","6500200","三重區"
"241033","AAC-255","2017/07/07 21:00:09","新北市三重區光復路二段170號","121.472256666667","25.0611016666667","6500200","三重區"
"235069","4980-A6","2017/07/07 20:59:49","新北市中和區連城路469-1號","121.4836","24.9957783333333","6500300","中和區"
"235042","551-UM","2017/07/07 21:00:03","新北市中和區員山路36巷13號","121.484351666667","24.99072","6500300","中和區"
"235026","800-TS","2017/07/07 20:59:51","新北市中和區員山路36巷16-2號","121.485128333333","24.991535","6500300","中和區"
"247020","893-R6","2017/07/07 20:59:56","新北市蘆洲區民族路484號","121.471048333333","25.0913033333333","6501400","蘆洲區"
"247010","546-UM","2017/07/07 20:59:59","新北市蘆洲區鷺江街76號","121.476941666667","25.0839133333333","6501400","蘆洲區"
"247018","500-BY","2017/07/07 21:00:05","新北市蘆洲區民權路144號","121.47278","25.0892166666667","6501400","蘆洲區"
"247008","339-TH","2017/07/07 20:59:58","新北市蘆洲區民生街121號","121.4729","25.07899","6501400","蘆洲區"
"247024","337-TH","2017/07/07 21:00:08","新北市蘆洲區長興路198號","121.460948333333","25.0868133333333","6501400","蘆洲區"
"247002","336-TH","2017/07/07 20:59:48","新北市蘆洲區長安街282號","121.457386666667","25.0875116666667","6501400","蘆洲區"
"247014","057-VK","2017/07/07 20:59:54","新北市蘆洲區得勝街50號","121.473158333333","25.083815","6501400","蘆洲區"
"247004","056-VK","2017/07/07 21:00:03","新北市蘆洲區永安南路二段268號","121.458671666667","25.0807433333333","6501400","蘆洲區"
"247006","053-VK","2017/07/07 20:59:09","新北市蘆洲區九芎街15巷10號","121.467955","25.077945","6501400","蘆洲區"
"247012","007-UY","2017/07/07 21:00:01","新北市蘆洲區民權路5號","121.476583333333","25.08579","6501400","蘆洲區"
"247022","002-UY","2017/07/07 21:00:04","新北市蘆洲區中正路261號","121.467375","25.0873566666667","6501400","蘆洲區"
"247016","001-UY","2017/07/07 20:59:57","新北市蘆洲區正和街87號","121.468151666667","25.0805633333333","6501400","蘆洲區"
"224011","420-VK","2017/07/07 20:33:11","新北市瑞芳區明燈路二段66號","121.809306666667","25.107635","6501200","瑞芳區"
"251002","012-UM","2017/07/07 20:59:57","新北市淡水區水源街一段84號","121.445781666667","25.1719783333333","6501000","淡水區"
"251013","180-VK","2017/07/07 20:59:56","新北市淡水區行忠路330號","121.460893333333","25.2005466666667","6501000","淡水區"
"251015","182-VK","2017/07/07 21:00:00","新北市淡水區淡金路四段542巷17號","121.452656666667","25.2270883333333","6501000","淡水區"
"251010","413-VK","2017/07/07 20:59:51","新北市淡水區中正路一段116-3號","121.423915","25.1787616666667","6501000","淡水區"
"251012","441-VK","2017/07/07 21:00:08","新北市淡水區淡金路五段168號","121.457033333333","25.23929","6501000","淡水區"
"251005","443-VK","2017/07/07 21:00:02","新北市淡水區學府路73巷2弄1號","121.447916666667","25.1700683333333","6501000","淡水區"
"251001","559-UM","2017/07/07 20:59:54","新北市淡水區淡金路一段158號","121.454795","25.1790883333333","6501000","淡水區"
"251007","577-R6","2017/07/07 20:59:58","新北市淡水區英專路42-1號","121.445731666667","25.1703866666667","6501000","淡水區"
"251003","673-BX","2017/07/07 20:59:50","新北市淡水區新春街119號","121.441556666667","25.182115","6501000","淡水區"
"236043","107-UM","2017/07/07 21:00:01","新北市土城區自強街11巷4號","121.429593333333","24.970885","6501300","土城區"
"242048","751-BX","2017/07/07 21:00:08","新北市新莊區新樹路110巷2號","121.434878333333","25.02627","6500500","新莊區"
"242023","613-BX","2017/07/07 20:59:52","新北市樹林區環河路10-1號","121.424651666667","24.9762716666667","6500500","新莊區"
"242034","133-UY","2017/07/07 21:00:03","新北市新莊區瓊林路46-9號","121.44708","25.0292716666667","6500500","新莊區"
"242056","176-VK","2017/07/07 21:00:02","新北市板橋區金門街215巷88號","121.432493333333","24.9836833333333","6500500","新莊區"
"242003","233-RS","2017/07/07 08:59:40","新北市新莊區環河路48-7號","121.436931666667","25.0098466666667","6500500","新莊區"
"242032","347-TH","2017/07/07 21:00:09","新北市新莊區新樹路110巷4號","121.434855","25.0263916666667","6500500","新莊區"
"221031","277-VK","2017/07/07 00:10:23","新北市汐止區汐萬路一段256巷3號","121.652555","25.0746116666667","6501100","汐止區"
"221029","298-VK","2017/07/07 20:59:58","新北市汐止區康寧街901號","121.651686666667","25.0749416666667","6501100","汐止區"
"221035","622-UM","2017/07/07 20:59:54","新北市汐止區汐萬路一段256巷1號","121.652015","25.0747066666667","6501100","汐止區"
"221018","753-BX","2017/07/07 21:00:04","新北市汐止區汐萬路一段256巷3號","121.65345","25.0747316666667","6501100","汐止區"
"220101","285-UM","2017/07/07 21:00:05","新北市樹林區中山路三段214號","121.380153333333","24.9679366666667","6500100","板橋區"
"220070","AAC-253","2017/07/07 20:59:55","新北市樹林區中山路三段210-2號","121.380708333333","24.9666433333333","6500100","板橋區"
