"lineid","car","time","location","longitude","latitude","cityid","cityname"
"234050","863-TW","2017/07/07 21:07:36","新北市八里區中山路三段409號","121.368328333333","25.13498","6500400","永和區"
"222005","289-BY","2017/07/07 09:55:46","新北市深坑區深坑街75號","121.61465","25.0013166666667","6501800","深坑區"
"231061","001-UM","2017/07/07 21:10:03","新北市新店區安興路109-7號","121.515166666667","24.978535","6500600","新店區"
"231059","046-UY","2017/07/07 21:09:56","新北市新店區僑信路2巷2號","121.499771666667","24.9535316666667","6500600","新店區"
"231060","106-UY","2017/07/07 21:10:00","新北市新店區安康路二段458號","121.494105","24.9539266666667","6500600","新店區"
"231051","107-UY","2017/07/07 21:09:50","新北市新店區中正路663巷1弄2號","121.532886666667","24.98995","6500600","新店區"
"231048","108-UY","2017/07/07 21:10:01","新北市新店區民族路1號","121.542178333333","24.9787983333333","6500600","新店區"
"231063","268-BY","2017/07/07 21:10:05","新北市新店區玫瑰路55巷2號","121.495605","24.9465483333333","6500600","新店區"
"231050","AAD-862","2017/07/07 21:09:53","新北市新店區華興街10號","121.537793333333","24.9698616666667","6500600","新店區"
"231067","4772-VM","2017/07/07 21:10:07","新北市新店區安德街148巷15號","121.507716666667","24.9601533333333","6500600","新店區"
"231065","512-UM","2017/07/07 21:10:01","新北市新店區安康路二段458號","121.494006666667","24.9541433333333","6500600","新店區"
"231054","513-UM","2017/07/07 21:10:07","新北市新店區大新街7巷13號","121.543878333333","24.9681216666667","6500600","新店區"
"231042","616-UM","2017/07/07 21:09:54","新北市新店區寶興路60巷4號","121.549835","24.971915","6500600","新店區"
"231040","619-UM","2017/07/07 21:09:58","新北市新店區北新路一段128-3號","121.542185","24.9698283333333","6500600","新店區"
"231066","AKT-0513","2017/07/07 21:09:54","新北市新店區薏仁坑路6號","121.50039","24.9579783333333","6500600","新店區"
"241011","013-R5","2017/07/07 21:09:55","新北市三重區龍濱路80號","121.502423333333","25.0696816666667","6500200","三重區"
"241028","022-UY","2017/07/07 21:09:51","新北市三重區正義南路50號","121.498301666667","25.06082","6500200","三重區"
"241008","059-VK","2017/07/07 21:10:02","新北市三重區自強路一段62號","121.497305","25.066625","6500200","三重區"
"241009","060-VK","2017/07/07 21:10:08","新北市三重區忠孝路二段122號","121.483","25.06881","6500200","三重區"
"241031","061-VK","2017/07/07 21:10:08","新北市三重區重新路五段426號","121.475245","25.0475483333333","6500200","三重區"
"241015","062-VK","2017/07/07 21:10:01","新北市三重區長元街63-1號","121.502716666667","25.0665466666667","6500200","三重區"
"241017","063-VK","2017/07/07 21:09:55","新北市三重區國隆路30號","121.492273333333","25.06432","6500200","三重區"
"241024","065-VK","2017/07/07 21:09:48","新北市三重區大勇街82巷15弄30號","121.481266666667","25.0719783333333","6500200","三重區"
"241026","066-VK","2017/07/07 21:10:01","新北市三重區中央南路141巷31弄12號","121.50038","25.059445","6500200","三重區"
"241003","091-VK","2017/07/07 21:10:06","新北市三重區仁義街395號","121.494393333333","25.08549","6500200","三重區"
"241002","156-TC","2017/07/07 21:10:08","新北市三重區五華街16號","121.494898333333","25.0803233333333","6500200","三重區"
"241005","262-UM","2017/07/07 21:10:00","新北市三重區三信路186號","121.487826666667","25.086095","6500200","三重區"
"241032","265-UM","2017/07/07 21:10:02","新北市三重區忠孝路三段127巷5號","121.478496666667","25.0616166666667","6500200","三重區"
"241016","266-UM","2017/07/07 21:09:51","新北市三重區信義西街138號","121.495583333333","25.0643083333333","6500200","三重區"
"241022","267-UM","2017/07/07 21:10:00","新北市三重區中正北路64巷24號","121.486021666667","25.0636783333333","6500200","三重區"
"241018","268-UM","2017/07/07 21:09:57","新北市三重區正義北路332-1號","121.494366666667","25.0705116666667","6500200","三重區"
"241013","270-UM","2017/07/07 21:10:06","新北市三重區仁愛街141巷20號","121.496423333333","25.0755733333333","6500200","三重區"
"241025","271-UM","2017/07/07 21:10:02","新北市三重區新北大道一段7號","121.489615","25.0611866666667","6500200","三重區"
"241007","398-BY","2017/07/07 21:10:00","新北市三重區三和路四段145巷85號","121.486456666667","25.0787783333333","6500200","三重區"
"241020","413-TH","2017/07/07 21:09:51","新北市三重區忠孝路二段35號","121.485936666667","25.0710983333333","6500200","三重區"
"241004","475-VK","2017/07/07 21:09:53","新北市三重區仁愛街418號","121.490456666667","25.0813983333333","6500200","三重區"
"241019","478-VK","2017/07/07 21:10:07","新北市三重區自強路二段50巷31號","121.4881","25.0697616666667","6500200","三重區"
"241030","480-VK","2017/07/07 21:09:53","新北市三重區五谷王北街20巷15弄1號","121.475063333333","25.048485","6500200","三重區"
"241014","543-UM","2017/07/07 21:10:00","新北市三重區長安街82-1號","121.501445","25.0676833333333","6500200","三重區"
"241023","545-UM","2017/07/07 21:09:51","新北市三重區忠孝路三段50巷41弄70號","121.482193333333","25.0637233333333","6500200","三重區"
"241001","547-UM","2017/07/07 21:09:57","新北市三重區福隆路101號","121.492433333333","25.078335","6500200","三重區"
"241006","AAD-863","2017/07/07 21:09:55","新北市三重區中正北路2號","121.48933","25.0630616666667","6500200","三重區"
"241012","941-UM","2017/07/07 21:10:07","新北市三重區河邊北街319號","121.502346666667","25.0749883333333","6500200","三重區"
"241029","942-UM","2017/07/07 21:09:53","新北市三重區正義南路107號","121.49823","25.0585566666667","6500200","三重區"
"241033","AAC-255","2017/07/07 21:09:49","新北市三重區新北大道二段65號","121.469246666667","25.0615133333333","6500200","三重區"
"235026","800-TS","2017/07/07 21:08:03","新北市中和區員山路36巷16-2號","121.485225","24.9915383333333","6500300","中和區"
"247020","893-R6","2017/07/07 21:09:56","新北市蘆洲區民族路436巷7號","121.472753333333","25.0929033333333","6501400","蘆洲區"
"247010","546-UM","2017/07/07 21:09:58","新北市蘆洲區鷺江街48號","121.477346666667","25.0832466666667","6501400","蘆洲區"
"247018","500-BY","2017/07/07 21:10:05","新北市蘆洲區民族路408巷13號","121.474918333333","25.092165","6501400","蘆洲區"
"247008","339-TH","2017/07/07 21:09:58","新北市蘆洲區民生街45號","121.475005","25.0788566666667","6501400","蘆洲區"
"247024","337-TH","2017/07/07 21:10:06","新北市蘆洲區長興路52號","121.4637","25.0837666666667","6501400","蘆洲區"
"247002","336-TH","2017/07/07 21:09:49","新北市蘆洲區永平街12號","121.459333333333","25.09061","6501400","蘆洲區"
"247014","057-VK","2017/07/07 21:09:54","新北市蘆洲區中央路155號","121.47266","25.0846366666667","6501400","蘆洲區"
"247004","056-VK","2017/07/07 21:10:03","新北市蘆洲區永安南路二段296號","121.457246666667","25.08193","6501400","蘆洲區"
"247006","053-VK","2017/07/07 21:09:49","新北市蘆洲區九芎街15巷6號","121.46803","25.0782","6501400","蘆洲區"
"247012","007-UY","2017/07/07 21:10:05","新北市蘆洲區復興路51號","121.475721666667","25.086985","6501400","蘆洲區"
"247022","002-UY","2017/07/07 21:10:04","新北市蘆洲區中正路261號","121.467476666667","25.087245","6501400","蘆洲區"
"247016","001-UY","2017/07/07 21:09:57","新北市蘆洲區和平路146號","121.466785","25.0809016666667","6501400","蘆洲區"
"224011","420-VK","2017/07/07 20:33:11","新北市瑞芳區明燈路二段66號","121.809306666667","25.107635","6501200","瑞芳區"
"251004","009-UM","2017/07/07 21:09:58","新北市淡水區民生路117巷52弄1號","121.464706666667","25.1403683333333","6501000","淡水區"
"251002","012-UM","2017/07/07 21:09:57","新北市淡水區學府路96號","121.4494","25.171125","6501000","淡水區"
"251013","180-VK","2017/07/07 21:09:56","新北市淡水區行忠路330號","121.460541666667","25.1998183333333","6501000","淡水區"
"251015","182-VK","2017/07/07 21:10:00","新北市淡水區淡金路四段542巷52-2號","121.455606666667","25.2258966666667","6501000","淡水區"
"251010","413-VK","2017/07/07 21:09:51","新北市淡水區中正路一段63巷11號","121.422235","25.1769933333333","6501000","淡水區"
"251012","441-VK","2017/07/07 21:10:08","新北市淡水區淡金路五段57號","121.454653333333","25.2338","6501000","淡水區"
"251005","443-VK","2017/07/07 21:10:02","新北市淡水區博愛街22號","121.446153333333","25.169665","6501000","淡水區"
"251001","559-UM","2017/07/07 21:09:54","新北市淡水區新市一路三段59號","121.446126666667","25.18352","6501000","淡水區"
"251009","575-R6","2017/07/07 21:09:58","新北市淡水區民權路187巷74弄9號","121.462123333333","25.1344833333333","6501000","淡水區"
"251007","577-R6","2017/07/07 21:09:58","新北市淡水區水源街二段194號","121.45702","25.17612","6501000","淡水區"
"251003","673-BX","2017/07/07 21:09:50","新北市淡水區新春街96號","121.439078333333","25.1823966666667","6501000","淡水區"
"242023","613-BX","2017/07/07 21:09:52","新北市樹林區中山路三段210-2號","121.38075","24.96737","6500500","新莊區"
"242056","176-VK","2017/07/07 21:09:42","新北市樹林區中山路三段210-2號","121.381001666667","24.9659683333333","6500500","新莊區"
"242003","233-RS","2017/07/07 08:59:40","新北市新莊區環河路48-7號","121.436931666667","25.0098466666667","6500500","新莊區"
"221018","753-BX","2017/07/07 21:10:04","新北市汐止區汐萬路一段256巷1號","121.65195","25.0747933333333","6501100","汐止區"
"220101","285-UM","2017/07/07 21:10:05","新北市樹林區八德街642號","121.396883333333","24.969145","6500100","板橋區"
"220070","AAC-253","2017/07/07 21:07:15","新北市樹林區中山路三段214號","121.380048333333","24.9678683333333","6500100","板橋區"
