"lineid","car","time","location","longitude","latitude","cityid","cityname"
"234050","863-TW","2017/07/07 21:17:56","新北市八里區中山路三段106號","121.391858333333","25.1426233333333","6500400","永和區"
"222005","289-BY","2017/07/07 09:55:46","新北市深坑區深坑街75號","121.61465","25.0013166666667","6501800","深坑區"
"231061","001-UM","2017/07/07 21:18:03","新北市新店區薏仁坑路自強巷6號","121.49677","24.958335","6500600","新店區"
"231059","046-UY","2017/07/07 21:17:56","新北市新店區薏仁坑路6號","121.50027","24.9579966666667","6500600","新店區"
"231051","107-UY","2017/07/07 21:17:50","新北市新店區中正路694巷15號","121.535335","24.990575","6500600","新店區"
"231048","108-UY","2017/07/07 21:18:01","新北市新店區溪園路395號","121.523603333333","24.977275","6500600","新店區"
"231063","268-BY","2017/07/07 21:18:05","新北市新店區玫瑰路57巷26號","121.49661","24.946295","6500600","新店區"
"231050","AAD-862","2017/07/07 21:17:53","新北市新店區中華路117巷3號","121.537898333333","24.96875","6500600","新店區"
"231067","4772-VM","2017/07/07 21:17:46","新北市新店區安康路二段268號","121.508435","24.9587483333333","6500600","新店區"
"231040","619-UM","2017/07/07 21:17:58","新北市新店區北新路一段251號","121.540901666667","24.9661266666667","6500600","新店區"
"231066","AKT-0513","2017/07/07 21:17:54","新北市新店區薏仁坑路自強巷1號","121.497888333333","24.9575166666667","6500600","新店區"
"241011","013-R5","2017/07/07 21:17:53","新北市三重區河邊北街110巷66號","121.502216666667","25.0702416666667","6500200","三重區"
"241028","022-UY","2017/07/07 21:17:51","新北市三重區正義南路169號","121.498965","25.0575516666667","6500200","三重區"
"241008","059-VK","2017/07/07 21:18:01","新北市三重區文化北路132巷51號","121.497265","25.066405","6500200","三重區"
"241009","060-VK","2017/07/07 21:17:48","新北市三重區忠孝路二段122號","121.482988333333","25.0688066666667","6500200","三重區"
"241031","061-VK","2017/07/07 21:18:08","新北市三重區重新路五段408巷19號","121.475731666667","25.045555","6500200","三重區"
"241017","063-VK","2017/07/07 21:18:02","新北市三重區中正北路25巷14號","121.493488333333","25.062935","6500200","三重區"
"241024","065-VK","2017/07/07 21:17:48","新北市三重區中正北路115巷6號","121.484108333333","25.0677483333333","6500200","三重區"
"241026","066-VK","2017/07/07 21:18:01","新北市三重區大同南路218號","121.496776666667","25.0562566666667","6500200","三重區"
"241003","091-VK","2017/07/07 21:18:06","新北市三重區仁義街335號","121.495085","25.0847516666667","6500200","三重區"
"241002","156-TC","2017/07/07 21:18:07","新北市三重區五華街16號","121.494898333333","25.0803233333333","6500200","三重區"
"241005","262-UM","2017/07/07 21:18:00","新北市三重區三信路186號","121.487803333333","25.0860833333333","6500200","三重區"
"241032","265-UM","2017/07/07 21:18:02","新北市三重區中興北街136號","121.468915","25.056015","6500200","三重區"
"241016","266-UM","2017/07/07 21:17:51","新北市三重區自強路一段236號","121.493146666667","25.0669283333333","6500200","三重區"
"241022","267-UM","2017/07/07 21:18:00","新北市三重區新北大道一段7號","121.489638333333","25.061245","6500200","三重區"
"241018","268-UM","2017/07/07 21:17:57","新北市三重區忠孝路一段101號","121.489538333333","25.07219","6500200","三重區"
"241013","270-UM","2017/07/07 21:18:06","新北市三重區仁愛街66號","121.495823333333","25.07319","6500200","三重區"
"241025","271-UM","2017/07/07 21:18:02","新北市三重區中正北路208巷10弄4號","121.482381666667","25.0669233333333","6500200","三重區"
"241007","398-BY","2017/07/07 21:18:00","新北市三重區後竹圍街205巷50號","121.484501666667","25.0730383333333","6500200","三重區"
"241004","475-VK","2017/07/07 21:17:53","新北市三重區仁愛街418號","121.49049","25.0814283333333","6500200","三重區"
"241019","478-VK","2017/07/07 21:18:07","新北市三重區重陽路三段37號","121.489425","25.0669483333333","6500200","三重區"
"241030","480-VK","2017/07/07 21:17:53","新北市三重區五谷王南街1號","121.474731666667","25.0468133333333","6500200","三重區"
"241014","543-UM","2017/07/07 21:18:00","新北市三重區安和路40號","121.500875","25.06946","6500200","三重區"
"241023","545-UM","2017/07/07 21:17:51","新北市三重區中正北路176巷27號","121.482601666667","25.0660016666667","6500200","三重區"
"241001","547-UM","2017/07/07 21:17:57","新北市三重區仁愛街299號","121.492528333333","25.0791266666667","6500200","三重區"
"241006","AAD-863","2017/07/07 21:17:55","新北市三重區新北大道一段9號","121.489068333333","25.0612883333333","6500200","三重區"
"241012","941-UM","2017/07/07 21:18:06","新北市三重區龍門路239號","121.501983333333","25.074025","6500200","三重區"
"241033","AAC-255","2017/07/07 21:18:09","新北市三重區光復路二段170號","121.472106666667","25.061265","6500200","三重區"
"235026","800-TS","2017/07/07 21:08:03","新北市中和區員山路36巷16-2號","121.485225","24.9915383333333","6500300","中和區"
"247020","893-R6","2017/07/07 21:17:56","新北市蘆洲區民族路422巷84-1號","121.473605","25.0938283333333","6501400","蘆洲區"
"247010","546-UM","2017/07/07 21:17:58","新北市蘆洲區鷺江街23號","121.478825","25.0824566666667","6501400","蘆洲區"
"247018","500-BY","2017/07/07 21:18:05","新北市蘆洲區復興路105巷11號","121.476385","25.08839","6501400","蘆洲區"
"247008","339-TH","2017/07/07 21:17:58","新北市蘆洲區民生街47號","121.474998333333","25.0788266666667","6501400","蘆洲區"
"247024","337-TH","2017/07/07 21:18:06","新北市蘆洲區光榮路120巷31號","121.465778333333","25.0881016666667","6501400","蘆洲區"
"247002","336-TH","2017/07/07 21:18:09","新北市蘆洲區永樂街38巷40號","121.458576666667","25.0900033333333","6501400","蘆洲區"
"247014","057-VK","2017/07/07 21:17:54","新北市蘆洲區保和街31號","121.470518333333","25.086465","6501400","蘆洲區"
"247004","056-VK","2017/07/07 21:18:03","新北市蘆洲區永安南路二段320號","121.456981666667","25.082655","6501400","蘆洲區"
"247006","053-VK","2017/07/07 21:17:49","新北市蘆洲區長安街40號","121.463545","25.0794633333333","6501400","蘆洲區"
"247012","007-UY","2017/07/07 21:18:01","新北市蘆洲區中興街114號","121.482318333333","25.0888133333333","6501400","蘆洲區"
"247022","002-UY","2017/07/07 21:18:04","新北市蘆洲區三民路204號","121.46916","25.089","6501400","蘆洲區"
"247016","001-UY","2017/07/07 21:17:57","新北市蘆洲區中正路185巷19號","121.467393333333","25.084795","6501400","蘆洲區"
"224011","420-VK","2017/07/07 20:33:11","新北市瑞芳區明燈路二段66號","121.809306666667","25.107635","6501200","瑞芳區"
"251004","009-UM","2017/07/07 21:17:58","新北市淡水區民族路33號","121.462286666667","25.13584","6501000","淡水區"
"251002","012-UM","2017/07/07 21:16:52","新北市淡水區學府路172巷21號","121.448301666667","25.1749666666667","6501000","淡水區"
"251013","180-VK","2017/07/07 21:17:56","新北市淡水區行忠路330號","121.460521666667","25.1997533333333","6501000","淡水區"
"251008","181-VK","2017/07/07 21:18:04","新北市淡水區水源街二段238號","121.461025","25.1763066666667","6501000","淡水區"
"251015","182-VK","2017/07/07 21:18:03","新北市淡水區淡金路四段542巷83弄12號","121.456133333333","25.2269333333333","6501000","淡水區"
"251010","413-VK","2017/07/07 21:17:51","新北市淡水區中正路一段156巷12號","121.421823333333","25.1808233333333","6501000","淡水區"
"251012","441-VK","2017/07/07 21:17:48","新北市淡水區石頭埔8號","121.452583333333","25.2345933333333","6501000","淡水區"
"251005","443-VK","2017/07/07 21:18:02","新北市淡水區仁愛街18巷10號","121.447041666667","25.17033","6501000","淡水區"
"251001","559-UM","2017/07/07 21:18:03","新北市淡水區中山北路二段381巷122號","121.443256666667","25.1859816666667","6501000","淡水區"
"251009","575-R6","2017/07/07 21:17:58","新北市淡水區民族路112巷9號","121.46215","25.1350183333333","6501000","淡水區"
"251007","577-R6","2017/07/07 21:17:58","新北市淡水區水源街二段194號","121.456993333333","25.17612","6501000","淡水區"
"251003","673-BX","2017/07/07 21:17:50","新北市淡水區崁頂15-5號","121.43897","25.185885","6501000","淡水區"
"242056","176-VK","2017/07/07 21:17:42","新北市樹林區中山路三段214號","121.380345","24.9679616666667","6500500","新莊區"
"242003","233-RS","2017/07/07 08:59:40","新北市新莊區環河路48-7號","121.436931666667","25.0098466666667","6500500","新莊區"
"221018","753-BX","2017/07/07 21:14:59","新北市汐止區汐萬路一段256巷1號","121.651951666667","25.0748316666667","6501100","汐止區"
"220101","285-UM","2017/07/07 21:18:05","新北市板橋區溪城路90-2號","121.430733333333","24.9791133333333","6500100","板橋區"
"220070","AAC-253","2017/07/07 21:17:55","新北市樹林區太平路247巷30號","121.42187","24.9744633333333","6500100","板橋區"
