"lineid","car","time","location","longitude","latitude","cityid","cityname"
"232009","290-BY","2017/07/08 07:07:52","新北市坪林區魚堀55-2號","121.706566666667","24.9289183333333","6502000","坪林區"
"232004","291-BY","2017/07/08 07:08:00","新北市坪林區坪雙路一段67號","121.715023333333","24.9434366666667","6502000","坪林區"
"232010","375-UM","2017/07/08 07:07:59","新北市坪林區水聳淒坑1號","121.726231666667","24.9254033333333","6502000","坪林區"
"232016","705-BZ","2017/07/08 07:08:07","新北市坪林區金瓜寮3號","121.680943333333","24.9183933333333","6502000","坪林區"
"244005","248-BX","2017/07/08 07:08:05","新北市林口區南勢街256號","121.35836","25.0758233333333","6501700","林口區"
"235001","783-BX","2017/07/08 07:08:00","新北市中和區中和路57號","121.500651666667","25.0014133333333","6500300","中和區"
"247002","402-BY","2017/07/08 07:07:47","新北市五股區中興路二段182巷3號","121.455421666667","25.07804","6501400","蘆洲區"
"226005","5620-A6","2017/07/08 07:07:55","新北市平溪區石底里石筍尖24號","121.729606666667","25.02554","6502400","平溪區"
"226003","AGD-0702","2017/07/08 07:07:51","新北市平溪區石底里石筍尖24號","121.729321666667","25.0255","6502400","平溪區"
"223006","022-BY","2017/07/08 07:08:00","新北市石碇區新興坑22號","121.650658333333","25.02188","6501900","石碇區"
"223002","198-BX","2017/07/08 07:08:06","新北市石碇區四分子路小粗坑巷5-1號","121.652771666667","24.9598416666667","6501900","石碇區"
"223003","205-TH","2017/07/08 07:07:58","新北市石碇區烏塗窟14號","121.655938333333","24.9750766666667","6501900","石碇區"
"223008","406-TH","2017/07/08 07:08:03","新北市石碇區十八重溪90-3號","121.669663333333","25.0085316666667","6501900","石碇區"
"223001","592-UM","2017/07/08 07:07:50","新北市石碇區烏塗窟4號","121.653465","24.9775833333333","6501900","石碇區"
"223004","660-BX","2017/07/08 07:08:01","新北市石碇區碇坪路一段11號","121.652965","24.9981716666667","6501900","石碇區"
"223007","661-BX","2017/07/08 07:08:05","新北市石碇區十八重溪90-2號","121.669865","25.0087766666667","6501900","石碇區"
"227006","282-VK","2017/07/08 07:07:52","新北市雙溪區新基里自強路5號","121.866303333333","25.039055","6502500","雙溪區"
"252004","249-BX","2017/07/08 07:08:07","新北市淡水區小中寮29-2號","121.497141666667","25.229915","6502100","三芝區"
"252007","AAC-283","2017/07/08 00:27:08","新北市三芝區埔坪里埔頭坑41號","121.504463333333","25.2644833333333","6502100","三芝區"
"236011","165-UM","2017/07/08 07:07:52","新北市土城區中華路二段133號","121.438985","24.97642","6501300","土城區"
"236002","339-SR","2017/07/08 07:07:54","新北市土城區永寧路35號","121.43024","24.962305","6501300","土城區"
