"lineid","car","time","location","longitude","latitude","cityid","cityname"
"234076","969-R7","2017/09/28 12:09:44","新北市永和區福和路1號","121.526571666667","25.009835","6500400","永和區"
"244025","837-TS","2017/09/28 10:39:22","新北市林口區粉寮路二段160巷28號","121.40518","25.090805","6501700","林口區"
"231007","189-VK","2017/09/28 12:02:08","新北市新店區安華路28-1號","121.519581666667","24.9610383333333","6500600","新店區"
"231008","192-VK","2017/09/28 12:09:51","新北市新店區櫻花街55巷18號","121.548928333333","24.92509","6500600","新店區"
"228005","097-TW","2017/09/28 12:09:52","新北市貢寮區福隆里東興街31-1號","121.952976666667","25.020835","6502600","貢寮區"
"228004","212-TW","2017/09/28 12:09:44","新北市貢寮區貢寮里長泰路3號","121.907135","25.0205383333333","6502600","貢寮區"
"221012","276-VK","2017/09/28 12:09:49","新北市汐止區康寧街901號","121.651","25.0751816666667","6501100","汐止區"
