"lineid","car","time","location","longitude","latitude","cityid","cityname"
"234044","148-BY","2017/09/28 12:29:53","新北市永和區福和路1號","121.526346666667","25.00987","6500400","永和區"
"234012","149-BY","2017/09/28 12:29:40","新北市永和區福和路1號","121.526313333333","25.0095433333333","6500400","永和區"
"234078","298-R6","2017/09/28 12:29:53","新北市永和區福和路1號","121.525048333333","25.0090516666667","6500400","永和區"
"234062","337-UY","2017/09/28 12:29:58","新北市永和區福和路1號","121.52659","25.0102683333333","6500400","永和區"
"234015","745-BX","2017/09/28 12:29:44","新北市永和區福和路1號","121.526425","25.0099083333333","6500400","永和區"
"234040","862-TW","2017/09/28 12:29:53","新北市永和區福和路1號","121.526535","25.009635","6500400","永和區"
"234048","863-TW","2017/09/28 12:29:40","新北市永和區福和路1號","121.526631666667","25.009865","6500400","永和區"
"234025","9371-KE","2017/09/28 12:29:52","新北市永和區福和路1號","121.526458333333","25.0097733333333","6500400","永和區"
"234076","969-R7","2017/09/28 12:29:44","新北市永和區福和路1號","121.526396666667","25.00965","6500400","永和區"
"244025","837-TS","2017/09/28 10:39:22","新北市林口區粉寮路二段160巷28號","121.40518","25.090805","6501700","林口區"
"243004","646-TV","2017/09/28 03:25:48","新北市泰山區黎明路25號","121.421905","25.06094","6501600","泰山區"
"231007","189-VK","2017/09/28 12:02:08","新北市新店區安華路28-1號","121.519581666667","24.9610383333333","6500600","新店區"
"235025","378-QA","2017/09/28 12:23:50","新北市中和區員山路36巷16-2號","121.485145","24.9919366666667","6500300","中和區"
"228005","097-TW","2017/09/28 12:29:52","新北市貢寮區福連里蓬萊街16號","121.983461666667","24.993685","6502600","貢寮區"
"228004","212-TW","2017/09/28 12:29:04","新北市貢寮區龍崗里嵩陽街33號","121.904003333333","25.0179683333333","6502600","貢寮區"
"221012","276-VK","2017/09/28 12:29:49","新北市汐止區中正路205號","121.658451666667","25.0689466666667","6501100","汐止區"
