"lineid","car","time","location","longitude","latitude","cityid","cityname"
"234044","148-BY","2017/09/28 13:29:53","新北市永和區得和路355號","121.524368333333","24.99946","6500400","永和區"
"234012","149-BY","2017/09/28 13:29:49","新北市永和區信義路16號","121.514258333333","25.0123083333333","6500400","永和區"
"234005","208-UY","2017/09/28 13:29:27","新北市永和區中山路一段322-1號","121.506493333333","25.0067766666667","6500400","永和區"
"234078","298-R6","2017/09/28 13:29:52","新北市永和區環河東路三段52巷8號","121.526348333333","25.00596","6500400","永和區"
"234036","336-UY","2017/09/28 13:29:51","新北市永和區民樂街28號","121.527528333333","25.001605","6500400","永和區"
"234062","337-UY","2017/09/28 13:29:58","新北市永和區中正路368巷1弄75號","121.520475","25.000815","6500400","永和區"
"234084","338-UY","2017/09/28 13:29:37","新北市永和區永利路86號","121.520673333333","25.004025","6500400","永和區"
"234068","552-UM","2017/09/28 13:29:47","新北市永和區警光街14號","121.519691666667","25.0095266666667","6500400","永和區"
"234052","553-UM","2017/09/28 13:29:51","新北市永和區復興街19巷4號","121.516215","25.0131633333333","6500400","永和區"
"234015","745-BX","2017/09/28 13:29:44","新北市永和區環河西路一段1號","121.51528","25.018065","6500400","永和區"
"234028","746-BX","2017/09/28 13:29:43","新北市永和區民生路34號","121.522546666667","24.9970083333333","6500400","永和區"
"234060","AAD-866","2017/09/28 13:29:53","新北市永和區永貞路184號","121.51618","25.0042333333333","6500400","永和區"
"234040","862-TW","2017/09/28 13:29:53","新北市永和區水源街39巷25號","121.510816666667","25.0034016666667","6500400","永和區"
"234048","863-TW","2017/09/28 13:29:40","新北市永和區信義路102號","121.512393333333","25.0139316666667","6500400","永和區"
"234025","9371-KE","2017/09/28 13:29:52","新北市永和區永和路一段157號","121.514288333333","25.0095316666667","6500400","永和區"
"234010","9373-KE","2017/09/28 13:29:43","新北市永和區信義路25巷53號","121.512301666667","25.0116016666667","6500400","永和區"
"248013","025-BX","2017/09/28 13:29:48","新北市五股區成泰路一段114號","121.435473333333","25.0730433333333","6501500","五股區"
"248015","026-BX","2017/09/28 13:29:57","新北市五股區凌雲路一段109巷17號","121.449726666667","25.100805","6501500","五股區"
"248005","077-UY","2017/09/28 13:29:48","新北市五股區四維路25號","121.467071666667","25.07063","6501500","五股區"
"248008","095-VK","2017/09/28 13:29:54","新北市五股區四維路185巷42弄1號","121.463641666667","25.0768666666667","6501500","五股區"
"248017","225-UY","2017/09/28 13:29:41","新北市五股區御史路277-1號","121.420616666667","25.1061616666667","6501500","五股區"
"248011","247-BX","2017/09/28 13:29:43","新北市五股區御成路45號","121.441658333333","25.0918233333333","6501500","五股區"
"248009","272-BY","2017/09/28 13:29:54","新北市五股區自強路93號","121.432443333333","25.0715116666667","6501500","五股區"
"248003","677-BX","2017/09/28 13:29:47","新北市五股區工商路150號","121.43314","25.0873783333333","6501500","五股區"
"248001","678-BX","2017/09/28 13:29:58","新北市五股區西雲路169-1號","121.446933333333","25.0949266666667","6501500","五股區"
"234022","9380-KE","2017/09/28 13:29:39","新北市永和區竹林路91巷47弄3號","121.521183333333","25.01292","6500400","永和區"
"234076","969-R7","2017/09/28 13:29:44","新北市永和區智光街42號","121.51718","24.9980633333333","6500400","永和區"
"234072","AAC-211","2017/09/28 13:29:53","新北市永和區永和路二段100號","121.51504","25.011865","6500400","永和區"
"234066","AAC-212","2017/09/28 13:29:50","新北市永和區永貞路360巷8號","121.510591666667","25.0068433333333","6500400","永和區"
"234001","AAC-295","2017/09/28 13:29:55","新北市永和區永和路一段107號","121.513961666667","25.0079683333333","6500400","永和區"
"244003","657-BX","2017/09/28 13:28:59","新北市林口區瑞樹坑53-1號","121.342076666667","25.123425","6501700","林口區"
"244025","837-TS","2017/09/28 10:39:22","新北市林口區粉寮路二段160巷28號","121.40518","25.090805","6501700","林口區"
"243005","AAD-798","2017/09/28 13:29:47","新北市泰山區明志路三段206巷3號","121.423313333333","25.0379616666667","6501600","泰山區"
"243004","646-TV","2017/09/28 03:25:48","新北市泰山區黎明路25號","121.421905","25.06094","6501600","泰山區"
"231002","002-UM","2017/09/28 13:29:42","新北市新店區環河路64號","121.537041666667","24.9627083333333","6500600","新店區"
"231024","0293-UT","2017/09/28 13:29:47","新北市新店區中正路154巷12號","121.542048333333","24.9722633333333","6500600","新店區"
"231028","046-UY","2017/09/28 13:29:44","新北市新店區安康路一段266巷4號","121.519911666667","24.96407","6500600","新店區"
"231030","047-UY","2017/09/28 13:29:42","新北市新店區安康路一段361號","121.51814","24.9640083333333","6500600","新店區"
"231029","106-UY","2017/09/28 13:29:40","新北市新店區安豐路45號","121.500321666667","24.9553733333333","6500600","新店區"
"231018","107-UY","2017/09/28 13:29:55","新北市新店區環河路119號","121.532173333333","24.9708333333333","6500600","新店區"
"231011","108-UY","2017/09/28 13:29:47","新北市新店區德正街12號","121.543721666667","24.9725383333333","6500600","新店區"
"231021","187-VK","2017/09/28 13:29:47","新北市新店區北宜路一段124號","121.539376666667","24.955015","6500600","新店區"
"231007","189-VK","2017/09/28 12:02:08","新北市新店區安華路28-1號","121.519581666667","24.9610383333333","6500600","新店區"
"231017","215-TC","2017/09/28 13:29:48","新北市新店區新烏路一段9-1號","121.547308333333","24.9514233333333","6500600","新店區"
"231026","256-BX","2017/09/28 13:29:54","新北市新店區光明街31號","121.538321666667","24.95968","6500600","新店區"
"231010","278-BY","2017/09/28 13:29:37","新北市新店區自由街2號","121.535385","24.9752266666667","6500600","新店區"
"231023","AAD-862","2017/09/28 13:29:57","新北市新店區新店路13號","121.540275","24.9529333333333","6500600","新店區"
"231027","3712-VJ","2017/09/28 13:29:47","新北市新店區新店後街84號","121.537653333333","24.9547383333333","6500600","新店區"
"231025","4716-K9","2017/09/28 13:29:58","新北市新店區中央路175-1號","121.534568333333","24.96985","6500600","新店區"
"231038","4715-K9","2017/09/28 13:29:55","新北市新店區安華路30巷1號","121.519568333333","24.9592916666667","6500600","新店區"
"231036","512-UM","2017/09/28 13:25:43","新北市新店區安康路二段362號","121.501773333333","24.9574566666667","6500600","新店區"
"231035","515-UM","2017/09/28 13:29:55","新北市新店區安康路一段266巷4號","121.51986","24.9641016666667","6500600","新店區"
"231001","619-UM","2017/09/28 13:29:31","新北市新店區力行路15號","121.537065","24.9660183333333","6500600","新店區"
"231003","641-BX","2017/09/28 13:29:42","新北市新店區中正路84號","121.543658333333","24.9703016666667","6500600","新店區"
"231034","645-TV","2017/09/28 13:29:49","新北市新店區車子路109號","121.505198333333","24.95212","6500600","新店區"
"231013","719-UM","2017/09/28 13:29:52","新北市新店區中正路456號","121.534428333333","24.9791766666667","6500600","新店區"
"231031","720-UM","2017/09/28 13:29:38","新北市新店區安豐路22巷20號","121.502991666667","24.9543166666667","6500600","新店區"
"231005","897-TW","2017/09/28 13:29:41","新北市新店區北新路一段128-3號","121.542246666667","24.97009","6500600","新店區"
"231006","898-TW","2017/09/28 13:29:46","新北市新店區安康路一段17號","121.533143333333","24.9603683333333","6500600","新店區"
"231004","899-TW","2017/09/28 13:29:48","新北市新店區安康路一段9-2號","121.533666666667","24.960585","6500600","新店區"
"231037","AKT-0513","2017/09/28 13:29:44","新北市新店區薏仁坑路53-1號","121.491701666667","24.9639883333333","6500600","新店區"
"235030","003-UY","2017/09/28 13:29:42","新北市中和區中山路二段120號","121.50286","25.00382","6500300","中和區"
"235028","005-UY","2017/09/28 13:29:42","新北市中和區圓通路141巷48弄17號","121.498216666667","24.9943883333333","6500300","中和區"
"235027","006-UY","2017/09/28 13:29:57","新北市中和區連城路347巷1弄2號","121.488295","24.9956116666667","6500300","中和區"
"235020","096-UM","2017/09/28 13:29:53","新北市中和區新生街277號","121.483771666667","24.9978283333333","6500300","中和區"
"235003","097-UM","2017/09/28 13:29:48","新北市中和區景平路172號","121.51699","24.9926033333333","6500300","中和區"
"235029","098-UM","2017/09/28 13:29:48","新北市中和區莊敬路38巷1號","121.501688333333","25.0052666666667","6500300","中和區"
"235004","150-BY","2017/09/28 13:29:53","新北市中和區安平路59號","121.509493333333","24.9951933333333","6500300","中和區"
"235022","151-BY","2017/09/28 13:29:51","新北市中和區圓通路369巷140號","121.488403333333","24.9815533333333","6500300","中和區"
"235019","183-VK","2017/09/28 13:29:57","新北市中和區莒光路207-8號","121.470376666667","24.99636","6500300","中和區"
"235002","185-VK","2017/09/28 13:29:41","新北市中和區秀朗路三段128巷16弄2號","121.524595","24.9929566666667","6500300","中和區"
"235013","186-VK","2017/09/28 13:29:42","新北市中和區景安路138號","121.505011666667","24.9942166666667","6500300","中和區"
"235001","255-BX","2017/09/28 13:29:51","新北市中和區新生街220巷15弄11號","121.483028333333","24.9979116666667","6500300","中和區"
"235036","301-VK","2017/09/28 13:29:49","新北市中和區連城路301號","121.489835","24.9960633333333","6500300","中和區"
"235007","352-BY","2017/09/28 13:29:44","新北市中和區景平路321號","121.50617","24.9933133333333","6500300","中和區"
"235032","375-QA","2017/09/28 13:29:55","新北市中和區中正路273-1號","121.495583333333","24.9936","6500300","中和區"
"235015","376-QA","2017/09/28 13:29:37","新北市中和區興南路二段142巷23號","121.50307","24.983765","6500300","中和區"
"235025","378-QA","2017/09/28 13:29:54","新北市中和區民享街109號","121.474871666667","24.9995466666667","6500300","中和區"
"235014","4979-A6","2017/09/28 13:29:40","新北市中和區景新街410巷18-1號","121.512225","24.9890633333333","6500300","中和區"
"235033","4980-A6","2017/09/28 13:29:55","新北市中和區連城路99巷10號","121.496703333333","24.9994566666667","6500300","中和區"
"235006","551-UM","2017/09/28 13:29:50","新北市中和區自立路179號","121.52342","24.9918966666667","6500300","中和區"
"235034","558-UM","2017/09/28 13:29:34","新北市中和區圓通路71號","121.500088333333","24.9969983333333","6500300","中和區"
"235009","565-BX","2017/09/28 13:29:55","新北市中和區景安路247號","121.504038333333","24.9907116666667","6500300","中和區"
"235018","640-BX","2017/09/28 13:29:41","新北市中和區民享街93-2號","121.474705","25.0004533333333","6500300","中和區"
"235024","647-TV","2017/09/28 13:29:59","新北市中和區員山路325-1號","121.481193333333","25.00067","6500300","中和區"
"235011","732-UM","2017/09/28 13:29:49","新北市中和區復興路337號","121.500001666667","24.99031","6500300","中和區"
"235010","733-UM","2017/09/28 13:29:55","新北市中和區錦和路350-1號","121.490476666667","24.9936483333333","6500300","中和區"
"235026","800-TS","2017/09/28 13:29:41","新北市中和區景平路726-7號","121.496781666667","25.0036733333333","6500300","中和區"
"235021","801-TS","2017/09/28 13:29:48","新北市中和區民安街111巷4弄3號","121.47631","24.9990416666667","6500300","中和區"
"235005","802-TS","2017/09/28 13:29:54","新北市永和區中和路425號","121.509368333333","25.0007066666667","6500300","中和區"
"235012","896-TW","2017/09/28 13:29:46","新北市中和區中正路637巷52弄1號","121.485563333333","24.993615","6500300","中和區"
"235017","900-TW","2017/09/28 13:29:49","新北市中和區民享街457號","121.470433333333","24.9931683333333","6500300","中和區"
"235001","AAC-213","2017/09/28 13:29:57","新北市中和區景德街137號","121.514686666667","24.9910583333333","6500300","中和區"
"235023","AAC-215","2017/09/28 00:37:50","新北市中和區員山路36巷16-3號","121.484998333333","24.99112","6500300","中和區"
"220016","013-TV","2017/09/28 13:29:40","新北市板橋區民生路二段161巷3號","121.470285","25.019845","6500100","板橋區"
"220013","072-UY","2017/09/28 13:29:39","新北市板橋區華東街1-9號","121.448078333333","24.9949466666667","6500100","板橋區"
"220034","073-UY","2017/09/28 13:29:42","新北市板橋區華東街11號","121.450508333333","24.99771","6500100","板橋區"
"220017","AAD-861","2017/09/28 13:29:55","新北市板橋區華東街1-10號","121.448353333333","24.995225","6500100","板橋區"
"247009","339-TH","2017/09/28 13:29:48","新北市五股區中興路三段2巷10號","121.449036666667","25.0811","6501400","蘆洲區"
"247017","001-UY","2017/09/28 13:29:51","新北市五股區中興路三段163號","121.449221666667","25.0805383333333","6501400","蘆洲區"
"228005","097-TW","2017/09/28 13:29:52","新北市貢寮區美豐里文秀坑8號","121.902621666667","25.0504983333333","6502600","貢寮區"
"228004","212-TW","2017/09/28 13:29:44","新北市貢寮區龍崗里石壁坑街17號","121.91038","24.98942","6502600","貢寮區"
"208004","AAC-292","2017/09/28 13:29:47","新北市金山區南勢湖84號","121.613203333333","25.2122216666667","6502700","金山區"
"207002","749-BX","2017/09/28 13:29:51","新北市萬里區崁腳里崁腳路166號","121.645041666667","25.1559816666667","6502800","萬里區"
"252005","073-UM","2017/09/28 13:29:48","新北市三芝區圓山里八連溪頭8號","121.527741666667","25.2211716666667","6502100","三芝區"
"207001","662-BX","2017/09/28 13:29:40","新北市萬里區大鵬里萬里加投9號","121.652471666667","25.20893","6502800","萬里區"
"236005","498-BY","2017/09/28 13:29:54","新北市土城區亞洲路11巷1弄13號","121.435428333333","24.97182","6501300","土城區"
"238021","KEA-2217","2017/09/28 13:29:42","新北市樹林區八德街498號","121.400085","24.970345","6500700","樹林區"
"221012","276-VK","2017/09/28 13:19:47","新北市汐止區汐萬路一段256巷3號","121.653443333333","25.0746416666667","6501100","汐止區"
"221032","280-BY","2017/09/28 13:29:38","新北市汐止區新興路22號","121.656463333333","25.06438","6501100","汐止區"
"221035","622-UM","2017/09/28 13:29:40","新北市汐止區東勢街15-1號","121.624728333333","25.03915","6501100","汐止區"
"221018","753-BX","2017/09/28 13:29:58","新北市汐止區福德一路430巷23號","121.625328333333","25.060405","6501100","汐止區"
"220027","145-BY","2017/09/28 13:29:58","新北市板橋區大觀路288號","121.449711666667","24.9982066666667","6500100","板橋區"
"220043","283-UM","2017/09/28 13:29:58","新北市板橋區民生路二段161巷1號","121.470205","25.0198816666667","6500100","板橋區"
"220019","283-VK","2017/09/28 13:29:54","新北市板橋區華東街1-10號","121.448313333333","24.9951233333333","6500100","板橋區"
"220031","286-VK","2017/09/28 13:29:55","新北市板橋區華東街1-10號","121.448326666667","24.995145","6500100","板橋區"
"220023","297-UM","2017/09/28 13:29:54","新北市板橋區華東街1-9號","121.448171666667","24.99503","6500100","板橋區"
"220104","560-BX","2017/09/28 13:29:51","新北市板橋區北門街61號","121.456153333333","25.0118983333333","6500100","板橋區"
"220011","609-BX","2017/09/28 13:29:48","新北市板橋區民生路二段171號","121.46986","25.0201666666667","6500100","板橋區"
"220025","687-BX","2017/09/28 13:29:55","新北市板橋區大觀路二段265巷7-7號","121.444418333333","24.9944583333333","6500100","板橋區"
"220030","806-UM","2017/09/28 13:29:49","新北市板橋區華東街1-10號","121.448323333333","24.9949566666667","6500100","板橋區"
"220022","895-R6","2017/09/28 13:29:47","新北市板橋區華東街1-9號","121.448206666667","24.9949866666667","6500100","板橋區"
"220046","AAC-210","2017/09/28 13:29:46","新北市板橋區民生路二段188號","121.470353333333","25.020695","6500100","板橋區"
"220018","AAC-253","2017/09/28 13:29:46","新北市板橋區華東街1-9號","121.448251666667","24.9949","6500100","板橋區"
