"lineid","car","time","location","longitude","latitude","cityid","cityname"
"234044","148-BY","2017/09/28 13:39:53","新北市永和區秀朗路二段153號","121.524965","25.0017183333333","6500400","永和區"
"234012","149-BY","2017/09/28 13:39:40","新北市永和區永平路220號","121.509115","25.010515","6500400","永和區"
"234005","208-UY","2017/09/28 13:39:48","新北市永和區中山路一段82號","121.512028333333","25.0109216666667","6500400","永和區"
"234078","298-R6","2017/09/28 13:39:52","新北市永和區國中路104巷10號","121.524751666667","25.0069383333333","6500400","永和區"
"234036","336-UY","2017/09/28 13:39:51","新北市永和區民樂街31巷10弄2號","121.528153333333","25.0006983333333","6500400","永和區"
"234062","337-UY","2017/09/28 13:39:38","新北市永和區秀朗路一段192巷6弄14號","121.519118333333","25.0022733333333","6500400","永和區"
"234084","338-UY","2017/09/28 13:39:57","新北市永和區林森路41巷1號","121.525158333333","25.0046316666667","6500400","永和區"
"234068","552-UM","2017/09/28 13:39:47","新北市永和區永和路二段234號","121.515793333333","25.01456","6500400","永和區"
"234052","553-UM","2017/09/28 13:39:51","新北市永和區竹林路39巷8號","121.518258333333","25.014405","6500400","永和區"
"234015","745-BX","2017/09/28 13:39:44","新北市永和區永和路二段405巷8號","121.515231666667","25.0174916666667","6500400","永和區"
"234028","746-BX","2017/09/28 13:39:41","新北市永和區民權路29巷1號","121.520285","24.9978583333333","6500400","永和區"
"234060","AAD-866","2017/09/28 13:39:48","新北市永和區中正路398號","121.517568333333","25.0016666666667","6500400","永和區"
"234040","862-TW","2017/09/28 13:39:53","新北市永和區中和路305巷2弄1號","121.506688333333","25.0000883333333","6500400","永和區"
"234048","863-TW","2017/09/28 13:39:40","新北市永和區保安路86號","121.509733333333","25.0162166666667","6500400","永和區"
"234025","9371-KE","2017/09/28 13:39:52","新北市永和區保生路55-1號","121.504543333333","25.010955","6500400","永和區"
"234010","9373-KE","2017/09/28 13:39:43","新北市永和區保福路二段15巷9號","121.5106","25.010965","6500400","永和區"
"248013","025-BX","2017/09/28 13:39:48","新北市五股區中興路四段67-2號","121.436926666667","25.083395","6501500","五股區"
"248015","026-BX","2017/09/28 13:39:57","新北市五股區凌雲路一段149巷42號","121.448631666667","25.100935","6501500","五股區"
"248005","077-UY","2017/09/28 13:39:48","新北市五股區中興路一段32號","121.468616666667","25.0724783333333","6501500","五股區"
"248007","095-VK","2017/09/28 13:39:55","新北市五股區中興路一段148號","121.464653333333","25.07398","6501500","五股區"
"248017","225-UY","2017/09/28 13:39:41","新北市五股區民義路二段66-1號","121.406225","25.1082416666667","6501500","五股區"
"248011","247-BX","2017/09/28 13:39:43","新北市五股區御史路92巷2弄1號","121.439925","25.0950933333333","6501500","五股區"
"248009","272-BY","2017/09/28 13:39:55","新北市五股區水碓九路83號","121.430475","25.0739966666667","6501500","五股區"
"248003","677-BX","2017/09/28 13:39:47","新北市五股區民義路一段240號","121.426871666667","25.09165","6501500","五股區"
"248001","678-BX","2017/09/28 13:39:58","新北市五股區西雲路221號","121.4488","25.09698","6501500","五股區"
"234022","9380-KE","2017/09/28 13:39:59","新北市永和區中正路702巷18號","121.516488333333","25.01054","6500400","永和區"
"234076","969-R7","2017/09/28 13:39:44","新北市永和區得和路219號","121.519551666667","25.000295","6500400","永和區"
"234072","AAC-211","2017/09/28 13:39:53","新北市永和區竹林路201巷22弄2號","121.522201666667","25.0091383333333","6500400","永和區"
"234066","AAC-212","2017/09/28 13:39:50","新北市永和區中山路一段191巷9弄1號","121.50967","25.0080983333333","6500400","永和區"
"234001","AAC-295","2017/09/28 13:39:55","新北市永和區永和路一段114號","121.513826666667","25.0073633333333","6500400","永和區"
"244003","657-BX","2017/09/28 13:39:39","新北市林口區瑞平里33-1號","121.34871","25.128715","6501700","林口區"
"244025","837-TS","2017/09/28 10:39:22","新北市林口區粉寮路二段160巷28號","121.40518","25.090805","6501700","林口區"
"243005","AAD-798","2017/09/28 13:39:47","新北市泰山區明志路三段206巷3號","121.423331666667","25.0379416666667","6501600","泰山區"
"243007","380-SR","2017/09/28 03:53:10","新北市泰山區犁頭窠3-1號","121.422591666667","25.0605266666667","6501600","泰山區"
"243004","646-TV","2017/09/28 13:39:52","新北市泰山區泰林路二段200號","121.433458333333","25.0613016666667","6501600","泰山區"
"231002","002-UM","2017/09/28 13:39:42","新北市新店區中央三街127號","121.523981666667","24.976865","6500600","新店區"
"231024","0293-UT","2017/09/28 13:39:47","新北市新店區中華路34號","121.540141666667","24.967895","6500600","新店區"
"231028","046-UY","2017/09/28 13:39:44","新北市新店區安和路二段138號","121.519586666667","24.972345","6500600","新店區"
"231030","047-UY","2017/09/28 13:39:42","新北市新店區安康路一段107-2號","121.528711666667","24.961805","6500600","新店區"
"231029","106-UY","2017/09/28 13:39:40","新北市新店區安康路二段214號","121.509866666667","24.9593933333333","6500600","新店區"
"231018","107-UY","2017/09/28 13:39:55","新北市新店區百忍街1-1號","121.535035","24.9755383333333","6500600","新店區"
"231011","108-UY","2017/09/28 13:39:47","新北市新店區德正街27巷27號","121.545683333333","24.97164","6500600","新店區"
"231021","187-VK","2017/09/28 13:39:47","新北市新店區永興路88-1號","121.54398","24.93377","6500600","新店區"
"231007","189-VK","2017/09/28 12:02:08","新北市新店區安華路28-1號","121.519581666667","24.9610383333333","6500600","新店區"
"231017","215-TC","2017/09/28 13:39:48","新北市新店區竹林路2巷29弄7號","121.550428333333","24.95031","6500600","新店區"
"231026","256-BX","2017/09/28 13:39:54","新北市新店區北新路一段128-3號","121.54235","24.9702566666667","6500600","新店區"
"231010","278-BY","2017/09/28 13:39:57","新北市新店區中正路307巷2號","121.536481666667","24.97463","6500600","新店區"
"231023","AAD-862","2017/09/28 13:39:37","新北市新店區新店路104號","121.537165","24.9545733333333","6500600","新店區"
"231027","3712-VJ","2017/09/28 13:39:51","新北市新店區北宜路一段115巷8弄3-1號","121.540936666667","24.9543783333333","6500600","新店區"
"231025","4716-K9","2017/09/28 13:39:38","新北市新店區中央六街58號","121.527856666667","24.97582","6500600","新店區"
"231038","4715-K9","2017/09/28 13:39:55","新北市新店區安華路30巷1號","121.519596666667","24.95929","6500600","新店區"
"231036","512-UM","2017/09/28 13:39:38","新北市新店區建業路47-1號","121.478721666667","24.9552933333333","6500600","新店區"
"231035","515-UM","2017/09/28 13:39:56","新北市新店區安忠路90-6號","121.51137","24.9577383333333","6500600","新店區"
"231001","619-UM","2017/09/28 13:39:51","新北市新店區中正路374號","121.535113333333","24.9764133333333","6500600","新店區"
"231003","641-BX","2017/09/28 13:39:42","新北市新店區中正路84號","121.543733333333","24.9704683333333","6500600","新店區"
"231034","645-TV","2017/09/28 13:39:49","新北市新店區車子路109號","121.505206666667","24.952115","6500600","新店區"
"231013","719-UM","2017/09/28 13:39:52","新北市新店區二十張路121號","121.536018333333","24.9795016666667","6500600","新店區"
"231031","720-UM","2017/09/28 13:39:38","新北市新店區莒光路44巷21弄12-1號","121.521648333333","24.9562283333333","6500600","新店區"
"231005","897-TW","2017/09/28 13:39:41","新北市新店區寶中路72號","121.547916666667","24.980645","6500600","新店區"
"231006","898-TW","2017/09/28 13:39:49","新北市新店區北宜路一段83號","121.538593333333","24.956005","6500600","新店區"
"231004","899-TW","2017/09/28 13:39:48","新北市新店區北新路二段17號","121.542561666667","24.97155","6500600","新店區"
"231037","AKT-0513","2017/09/28 13:39:44","新北市新店區安康路二段416號","121.49659","24.9552783333333","6500600","新店區"
"235030","003-UY","2017/09/28 13:39:47","新北市中和區水源路43號","121.504753333333","25.003645","6500300","中和區"
"235028","005-UY","2017/09/28 13:39:42","新北市中和區連城路137號","121.495856666667","24.9989433333333","6500300","中和區"
"235027","006-UY","2017/09/28 13:39:37","新北市中和區連城路347巷16弄34號","121.486951666667","24.99513","6500300","中和區"
"235020","096-UM","2017/09/28 13:39:53","新北市中和區員山路466巷21弄18號","121.481023333333","25.0070083333333","6500300","中和區"
"235003","097-UM","2017/09/28 13:39:48","新北市中和區大勇街25巷27號","121.515233333333","24.9938866666667","6500300","中和區"
"235029","098-UM","2017/09/28 13:39:48","新北市中和區莊敬路49巷29弄22號","121.501011666667","25.006555","6500300","中和區"
"235004","150-BY","2017/09/28 13:39:53","新北市中和區安平路59號","121.50949","24.9953116666667","6500300","中和區"
"235022","151-BY","2017/09/28 13:39:51","新北市中和區圓通路437-3號","121.485416666667","24.986915","6500300","中和區"
"235019","183-VK","2017/09/28 13:39:57","新北市中和區國光街102巷27號","121.471306666667","25.000705","6500300","中和區"
"235002","185-VK","2017/09/28 13:39:41","新北市中和區自強路2號","121.520298333333","24.9960333333333","6500300","中和區"
"235013","186-VK","2017/09/28 13:39:42","新北市中和區景平路490號","121.504695","24.9936916666667","6500300","中和區"
"235001","255-BX","2017/09/28 13:39:51","新北市中和區新生街220巷4號","121.482935","24.9985683333333","6500300","中和區"
"235008","293-VK","2017/09/28 13:39:53","新北市中和區復興路263巷9弄1號","121.502846666667","24.9898633333333","6500300","中和區"
"235036","301-VK","2017/09/28 13:39:58","新北市中和區連城路171巷28號","121.495851666667","24.997165","6500300","中和區"
"235007","352-BY","2017/09/28 13:39:44","新北市中和區景平路161-1號","121.5128","24.9924566666667","6500300","中和區"
"235032","375-QA","2017/09/28 13:39:55","新北市中和區中正路211巷13弄7號","121.49705","24.9931866666667","6500300","中和區"
"235015","376-QA","2017/09/28 13:39:57","新北市中和區華新街143巷106弄28號","121.506066666667","24.97879","6500300","中和區"
"235025","378-QA","2017/09/28 13:39:45","新北市中和區民享街90巷12號","121.474098333333","25.000245","6500300","中和區"
"235014","4979-A6","2017/09/28 13:39:40","新北市中和區景新街496巷32弄8號","121.513115","24.9853333333333","6500300","中和區"
"235033","4980-A6","2017/09/28 13:39:55","新北市中和區連城路65巷9號","121.497883333333","25.00092","6500300","中和區"
"235006","551-UM","2017/09/28 13:39:47","新北市中和區成功路97巷7號","121.526441666667","24.9918716666667","6500300","中和區"
"235034","558-UM","2017/09/28 13:37:14","新北市中和區景平路566號","121.501826666667","24.9952083333333","6500300","中和區"
"235009","565-BX","2017/09/28 13:39:55","新北市中和區復興路49巷4號","121.504575","24.9897483333333","6500300","中和區"
"235018","640-BX","2017/09/28 13:39:41","新北市中和區民享街93-2號","121.4749","25.0004983333333","6500300","中和區"
"235024","647-TV","2017/09/28 13:39:51","新北市中和區中山路二段505號","121.48225","25.0050866666667","6500300","中和區"
"235011","732-UM","2017/09/28 13:39:49","新北市中和區興南路二段3巷1號","121.508023333333","24.986445","6500300","中和區"
"235010","733-UM","2017/09/28 13:39:55","新北市中和區捷運路28號","121.508481666667","24.990215","6500300","中和區"
"235026","800-TS","2017/09/28 13:39:41","新北市中和區中山路二段312巷12號","121.495298333333","25.0036933333333","6500300","中和區"
"235021","801-TS","2017/09/28 13:39:48","新北市中和區民安街42巷42號","121.478605","25.001605","6500300","中和區"
"235005","802-TS","2017/09/28 13:39:54","新北市中和區中和路400巷14弄1號","121.511801666667","25.00208","6500300","中和區"
"235016","805-TS","2017/09/28 13:39:43","新北市中和區興南路三段42-3號","121.49569","24.9771516666667","6500300","中和區"
"235012","896-TW","2017/09/28 13:39:52","新北市中和區中正路76號","121.500723333333","24.993575","6500300","中和區"
"235017","900-TW","2017/09/28 13:39:49","新北市土城區延壽路75巷1號","121.469315","24.9925016666667","6500300","中和區"
"235001","AAC-213","2017/09/28 13:39:57","新北市中和區景平路111巷67號","121.515135","24.99035","6500300","中和區"
"235023","AAC-215","2017/09/28 00:37:50","新北市中和區員山路36巷16-3號","121.484998333333","24.99112","6500300","中和區"
"220016","013-TV","2017/09/28 13:39:40","新北市板橋區民生路二段120號","121.470316666667","25.0198366666667","6500100","板橋區"
"220013","072-UY","2017/09/28 13:39:59","新北市板橋區板城路407號","121.447658333333","24.995375","6500100","板橋區"
"220034","073-UY","2017/09/28 13:39:52","新北市板橋區南雅西路二段192巷1弄3號","121.451975","25.0145016666667","6500100","板橋區"
"220017","AAD-861","2017/09/28 13:39:55","新北市板橋區華東街1-10號","121.448376666667","24.99513","6500100","板橋區"
"247009","339-TH","2017/09/28 13:39:48","新北市五股區新城三路61號","121.449198333333","25.093665","6501400","蘆洲區"
"247015","057-VK","2017/09/28 13:39:42","新北市蘆洲區中正路516巷6號","121.461945","25.097465","6501400","蘆洲區"
"247005","056-VK","2017/09/28 13:39:50","新北市五股區工商路8號","121.44054","25.0825033333333","6501400","蘆洲區"
"247017","001-UY","2017/09/28 13:39:51","新北市蘆洲區民族路422巷82弄17-2號","121.474225","25.0956783333333","6501400","蘆洲區"
"228005","097-TW","2017/09/28 13:39:52","新北市貢寮區美豐里文秀坑5-3號","121.903676666667","25.0523066666667","6502600","貢寮區"
"228004","212-TW","2017/09/28 13:34:04","新北市貢寮區龍崗里石壁坑街24-1號","121.912116666667","24.9981033333333","6502600","貢寮區"
"208004","AAC-292","2017/09/28 13:39:47","新北市金山區中信北路1巷1號","121.593741666667","25.2034533333333","6502700","金山區"
"207002","749-BX","2017/09/28 13:39:50","新北市萬里區崁腳里崁腳路166號","121.645088333333","25.155925","6502800","萬里區"
"252005","073-UM","2017/09/28 13:39:48","新北市三芝區圓山里內柑宅19號","121.537636666667","25.216235","6502100","三芝區"
"207001","662-BX","2017/09/28 13:39:41","新北市萬里區磺潭里清水18號","121.637801666667","25.1977866666667","6502800","萬里區"
"236076","166-UM","2017/09/28 13:39:53","新北市土城區城林路6巷80號","121.4385","24.9797733333333","6501300","土城區"
"236024","269-VK","2017/09/28 13:39:50","新北市土城區城林路6巷80號","121.438496666667","24.9797733333333","6501300","土城區"
"236012","270-VK","2017/09/28 13:39:54","新北市土城區城林路6巷80號","121.438501666667","24.9798116666667","6501300","土城區"
"236018","401-BY","2017/09/28 13:40:00","新北市土城區城林路6巷80號","121.438596666667","24.97978","6501300","土城區"
"236005","498-BY","2017/09/28 13:39:54","新北市土城區慶祥街46號","121.436931666667","24.9744133333333","6501300","土城區"
"236056","912-UM","2017/09/28 13:39:54","新北市土城區城林路6巷80號","121.438398333333","24.9798533333333","6501300","土城區"
"236052","AAC-216","2017/09/28 13:39:55","新北市土城區城林路6巷80號","121.438423333333","24.9798716666667","6501300","土城區"
"221012","276-VK","2017/09/28 13:19:47","新北市汐止區汐萬路一段256巷3號","121.653443333333","25.0746416666667","6501100","汐止區"
"221032","280-BY","2017/09/28 13:39:58","新北市汐止區水源路一段56號","121.657473333333","25.0655366666667","6501100","汐止區"
"221035","622-UM","2017/09/28 13:39:39","新北市汐止區國興街30巷2號","121.622695","25.0465483333333","6501100","汐止區"
"221018","753-BX","2017/09/28 13:39:38","新北市汐止區福德二路77-2號","121.633186666667","25.0658933333333","6501100","汐止區"
"220027","145-BY","2017/09/28 13:39:58","新北市板橋區國光路37號","121.457481666667","25.017735","6500100","板橋區"
"220028","200-UY","2017/09/28 13:39:40","新北市板橋區華東街1-8號","121.447903333333","24.9948516666667","6500100","板橋區"
"220050","245-BX","2017/09/28 02:42:04","新北市板橋區民生路二段161巷9號","121.470153333333","25.0195116666667","6500100","板橋區"
"220014","255-TC","2017/09/26 21:22:21","新北市板橋區民生路二段89-6號","121.470936666667","25.0192566666667","6500100","板橋區"
"220020","277-BY","2017/09/28 13:39:51","新北市板橋區華東街1-8號","121.44769","24.9949016666667","6500100","板橋區"
"220012","280-UM","2017/09/28 13:39:40","新北市板橋區南雅南路一段1巷42號","121.457523333333","25.0063183333333","6500100","板橋區"
"220043","283-UM","2017/09/28 13:39:38","新北市板橋區民生路二段161巷1號","121.470191666667","25.019885","6500100","板橋區"
"220019","283-VK","2017/09/28 13:39:54","新北市板橋區華東街1-10號","121.448311666667","24.9951083333333","6500100","板橋區"
"220001","285-VK","2017/09/28 13:39:46","新北市板橋區民生路二段171號","121.469695","25.020115","6500100","板橋區"
"220031","286-VK","2017/09/28 13:39:55","新北市板橋區華東街1-10號","121.44836","24.9950766666667","6500100","板橋區"
"220029","287-VK","2017/09/28 13:39:53","新北市板橋區華東街1-8號","121.447855","24.9947766666667","6500100","板橋區"
"220039","288-VK","2017/09/28 13:39:42","新北市板橋區民生路二段120號","121.470408333333","25.0197133333333","6500100","板橋區"
"220009","293-UM","2017/09/28 13:39:54","新北市板橋區民生路二段161巷3號","121.470233333333","25.0197883333333","6500100","板橋區"
"220032","296-UM","2017/09/28 13:39:43","新北市板橋區華東街1-9號","121.448123333333","24.9949733333333","6500100","板橋區"
"220023","297-UM","2017/09/28 13:39:54","新北市板橋區板城路421號","121.448303333333","24.995845","6500100","板橋區"
"220041","307-R5","2017/09/28 13:39:54","新北市板橋區民生路二段161巷1號","121.470248333333","25.0200616666667","6500100","板橋區"
"220047","317-R6","2017/09/28 13:40:00","新北市板橋區民生路二段120號","121.470651666667","25.0195433333333","6500100","板橋區"
"220104","560-BX","2017/09/28 13:39:51","新北市板橋區南雅西路二段182號","121.451541666667","25.0141083333333","6500100","板橋區"
"220011","609-BX","2017/09/28 13:39:48","新北市板橋區民生路二段161巷1號","121.469981666667","25.0201766666667","6500100","板橋區"
"220004","630-UY","2017/09/28 13:39:41","新北市板橋區華東街1-9號","121.44817","24.9948283333333","6500100","板橋區"
"220040","637-BX","2017/09/28 13:39:47","新北市板橋區民生路二段161巷1號","121.470156666667","25.0198616666667","6500100","板橋區"
"220025","687-BX","2017/09/28 13:39:55","新北市板橋區大觀路三段236-6號","121.429236666667","24.9924016666667","6500100","板橋區"
"220042","689-BX","2017/09/28 13:39:57","新北市板橋區民生路二段161巷1號","121.470115","25.0201483333333","6500100","板橋區"
"220002","741-BX","2017/09/28 13:39:45","新北市板橋區華東街1-9號","121.448113333333","24.99494","6500100","板橋區"
"220030","806-UM","2017/09/28 13:39:49","新北市板橋區板城路407號","121.447368333333","24.9952066666667","6500100","板橋區"
"220003","827-TW","2017/09/28 13:39:51","新北市板橋區華東街1-10號","121.448528333333","24.9950383333333","6500100","板橋區"
"220022","895-R6","2017/09/28 13:39:47","新北市板橋區南雅南路一段129號","121.455183333333","25.00462","6500100","板橋區"
"220021","985-R7","2017/09/28 13:39:43","新北市板橋區華東街1-10號","121.448395","24.99511","6500100","板橋區"
"220046","AAC-210","2017/09/28 13:39:46","新北市板橋區民生路二段161巷1號","121.470248333333","25.0199233333333","6500100","板橋區"
"220018","AAC-253","2017/09/28 13:39:46","新北市板橋區華東街1-9號","121.44826","24.99488","6500100","板橋區"
