"lineid","car","time","location","longitude","latitude","cityid","cityname"
"234044","148-BY","2017/09/28 13:49:53","新北市永和區永元路95巷4號","121.522496666667","25.00208","6500400","永和區"
"234012","149-BY","2017/09/28 13:49:40","新北市永和區仁愛路193號","121.510111666667","25.0126666666667","6500400","永和區"
"234005","208-UY","2017/09/28 13:49:47","新北市永和區永和路一段82號","121.513026666667","25.0065433333333","6500400","永和區"
"234078","298-R6","2017/09/28 13:49:52","新北市永和區永亨路104號","121.523415","25.0045133333333","6500400","永和區"
"234036","336-UY","2017/09/28 13:49:51","新北市永和區民樂街59巷7號","121.527975","24.998305","6500400","永和區"
"234062","337-UY","2017/09/28 13:49:58","新北市永和區中正路368巷27號","121.518475","25.0009266666667","6500400","永和區"
"234084","338-UY","2017/09/28 13:49:37","新北市永和區永亨路153號","121.525718333333","25.003885","6500400","永和區"
"234068","552-UM","2017/09/28 13:49:47","新北市永和區竹林路77號","121.519426666667","25.012815","6500400","永和區"
"234052","553-UM","2017/09/28 13:49:51","新北市永和區竹林路39巷10號","121.518335","25.0144516666667","6500400","永和區"
"234015","745-BX","2017/09/28 13:49:55","新北市永和區文化路34號","121.515018333333","25.0151","6500400","永和區"
"234028","746-BX","2017/09/28 13:49:45","新北市永和區民生路47巷3號","121.523055","24.9978783333333","6500400","永和區"
"234060","AAD-866","2017/09/28 13:49:48","新北市永和區中正路386號","121.517603333333","25.00134","6500400","永和區"
"234040","862-TW","2017/09/28 13:49:53","新北市永和區中和路389巷2-1號","121.508343333333","25.000465","6500400","永和區"
"234048","863-TW","2017/09/28 13:47:20","新北市永和區保安路138號","121.508656666667","25.015205","6500400","永和區"
"234025","9371-KE","2017/09/28 13:49:52","新北市永和區永貞路300號","121.512196666667","25.00464","6500400","永和區"
"234010","9373-KE","2017/09/28 13:49:43","新北市永和區仁愛路310號","121.502973333333","25.0075816666667","6500400","永和區"
"248013","025-BX","2017/09/28 13:49:48","新北市五股區民義路一段107巷23號","121.431815","25.0847783333333","6501500","五股區"
"248015","026-BX","2017/09/28 13:49:57","新北市五股區凌雲路一段136號","121.449628333333","25.1021966666667","6501500","五股區"
"248005","077-UY","2017/09/28 13:49:48","新北市五股區四維路102號","121.467581666667","25.07356","6501500","五股區"
"248007","095-VK","2017/09/28 13:49:54","新北市五股區中興路一段149號","121.465163333333","25.0735533333333","6501500","五股區"
"248017","225-UY","2017/09/28 13:49:21","新北市五股區民義路二段41號","121.413915","25.1014383333333","6501500","五股區"
"248011","247-BX","2017/09/28 13:49:43","新北市五股區成泰路二段195巷1號","121.440395","25.087415","6501500","五股區"
"248009","272-BY","2017/09/28 13:49:54","新北市五股區水碓七路1號","121.428053333333","25.071355","6501500","五股區"
"248003","677-BX","2017/09/28 13:49:47","新北市五股區民義路二段50-29號","121.41217","25.1028433333333","6501500","五股區"
"248001","678-BX","2017/09/28 13:49:38","新北市五股區成泰路三段454號","121.451403333333","25.100405","6501500","五股區"
"234022","9380-KE","2017/09/28 13:49:59","新北市永和區永和路二段116號","121.51521","25.01227","6500400","永和區"
"234076","969-R7","2017/09/28 13:49:44","新北市永和區民族街27巷13號","121.519585","24.9996116666667","6500400","永和區"
"234072","AAC-211","2017/09/28 13:49:53","新北市永和區豫溪街189巷1號","121.522575","25.0103233333333","6500400","永和區"
"234066","AAC-212","2017/09/28 13:49:49","新北市永和區保平路236巷30號","121.507908333333","25.0070133333333","6500400","永和區"
"234001","AAC-295","2017/09/28 13:49:55","新北市永和區永和路一段107號","121.51391","25.0079533333333","6500400","永和區"
"244025","837-TS","2017/09/28 10:39:22","新北市林口區粉寮路二段160巷28號","121.40518","25.090805","6501700","林口區"
"243005","AAD-798","2017/09/28 13:49:47","新北市泰山區明志路三段206巷1號","121.423336666667","25.0379316666667","6501600","泰山區"
"243001","297-R6","2017/09/28 13:49:56","新北市泰山區黎明路25號","121.421896666667","25.0606666666667","6501600","泰山區"
"243007","380-SR","2017/09/28 13:49:54","新北市泰山區美寧街54號","121.43052","25.06448","6501600","泰山區"
"243006","421-VK","2017/09/28 13:49:54","新北市泰山區黎明路25號","121.422243333333","25.0607983333333","6501600","泰山區"
"243002","KEA-2215","2017/09/28 13:49:38","新北市泰山區辭修路24號","121.429055","25.0581466666667","6501600","泰山區"
"243004","646-TV","2017/09/28 13:49:52","新北市泰山區福興街24號","121.43439","25.0577283333333","6501600","泰山區"
"243008","680-BX","2017/09/28 13:49:44","新北市泰山區明志路二段135號","121.427736666667","25.050775","6501600","泰山區"
"231002","002-UM","2017/09/28 13:49:42","新北市新店區溪園路245-6號","121.525218333333","24.983165","6500600","新店區"
"231024","0293-UT","2017/09/28 13:49:47","新北市新店區新生街10巷9號","121.540541666667","24.9664866666667","6500600","新店區"
"231028","046-UY","2017/09/28 13:49:44","新北市新店區安和路三段29-1號","121.517571666667","24.9813916666667","6500600","新店區"
"231030","047-UY","2017/09/28 13:49:42","新北市新店區安康路一段200號","121.52433","24.9634416666667","6500600","新店區"
"231029","106-UY","2017/09/28 13:49:40","新北市新店區安康路二段125-1號","121.512381666667","24.960865","6500600","新店區"
"231018","107-UY","2017/09/28 13:49:55","新北市新店區中正路382巷28號","121.535493333333","24.9779633333333","6500600","新店區"
"231011","108-UY","2017/09/28 13:49:47","新北市新店區德正街27巷29弄41號","121.544893333333","24.971985","6500600","新店區"
"231021","187-VK","2017/09/28 13:49:47","新北市新店區永興路95-3號","121.54462","24.9320466666667","6500600","新店區"
"231007","189-VK","2017/09/28 12:02:08","新北市新店區安華路28-1號","121.519581666667","24.9610383333333","6500600","新店區"
"231017","215-TC","2017/09/28 13:49:48","新北市新店區竹林路71-7號","121.553393333333","24.9513783333333","6500600","新店區"
"231026","256-BX","2017/09/28 13:49:54","新北市新店區三民路149-1號","121.533751666667","24.97314","6500600","新店區"
"231010","278-BY","2017/09/28 13:49:57","新北市新店區三民路60巷2號","121.535471666667","24.97251","6500600","新店區"
"231023","AAD-862","2017/09/28 13:49:37","新北市新店區國校路65巷1號","121.53845","24.953985","6500600","新店區"
"231027","3712-VJ","2017/09/28 13:49:47","新北市新店區北宜路一段41號","121.538315","24.9571566666667","6500600","新店區"
"231025","4716-K9","2017/09/28 13:49:58","新北市新店區中央六街58號","121.527895","24.9758083333333","6500600","新店區"
"231038","4715-K9","2017/09/28 13:49:55","新北市新店區安康路一段323-1號","121.521845","24.9637216666667","6500600","新店區"
"231036","512-UM","2017/09/28 13:49:38","新北市新店區安祥路147巷46號","121.476671666667","24.9569066666667","6500600","新店區"
"231035","515-UM","2017/09/28 13:49:55","新北市新店區安忠路57巷11弄1號","121.513601666667","24.9581316666667","6500600","新店區"
"231001","619-UM","2017/09/28 13:49:51","新北市新店區三民路66號","121.535103333333","24.9723633333333","6500600","新店區"
"231003","641-BX","2017/09/28 13:49:42","新北市新店區中興路一段115號","121.541365","24.962835","6500600","新店區"
"231034","645-TV","2017/09/28 13:49:49","新北市新店區達觀路14巷8號","121.503246666667","24.9433533333333","6500600","新店區"
"231013","719-UM","2017/09/28 13:49:52","新北市新店區二十張路25巷18弄36號","121.5392","24.98125","6500600","新店區"
"231031","720-UM","2017/09/28 13:49:38","新北市新店區莒光路44巷21弄11-3號","121.518558333333","24.9521533333333","6500600","新店區"
"231005","897-TW","2017/09/28 13:49:41","新北市新店區寶中路137號","121.549911666667","24.979175","6500600","新店區"
"231006","898-TW","2017/09/28 13:49:46","新北市新店區北宜路一段260號","121.54569","24.9527933333333","6500600","新店區"
"231004","899-TW","2017/09/28 13:49:48","新北市新店區寶橋路98號","121.547083333333","24.9761416666667","6500600","新店區"
"231037","AKT-0513","2017/09/28 13:49:44","新北市新店區安康路三段355巷1號","121.484416666667","24.9507316666667","6500600","新店區"
"235030","003-UY","2017/09/28 13:49:42","新北市中和區水源路7巷25號","121.504066666667","25.0038116666667","6500300","中和區"
"235028","005-UY","2017/09/28 13:49:42","新北市中和區連城路107號","121.496483333333","24.999485","6500300","中和區"
"235027","006-UY","2017/09/28 13:49:41","新北市中和區錦和路194號","121.490008333333","24.994995","6500300","中和區"
"235020","096-UM","2017/09/28 13:49:53","新北市中和區中正路1163號","121.481616666667","25.0092716666667","6500300","中和區"
"235003","097-UM","2017/09/28 13:49:48","新北市中和區大勇街25巷32號","121.516125","24.9936333333333","6500300","中和區"
"235029","098-UM","2017/09/28 13:49:48","新北市中和區中山路二段2巷81弄11號","121.500648333333","25.0071233333333","6500300","中和區"
"235004","150-BY","2017/09/28 13:49:53","新北市中和區宜安路119巷16號","121.5097","24.9976416666667","6500300","中和區"
"235022","151-BY","2017/09/28 13:49:51","新北市中和區連城路518巷8號","121.476553333333","24.9926","6500300","中和區"
"235019","183-VK","2017/09/28 13:49:46","新北市中和區德光路72號","121.469256666667","25.0039166666667","6500300","中和區"
"235002","185-VK","2017/09/28 13:49:41","新北市中和區立人街14巷52號","121.518433333333","24.9956916666667","6500300","中和區"
"235013","186-VK","2017/09/28 13:49:42","新北市中和區景安路177巷15號","121.506001666667","24.994325","6500300","中和區"
"235001","255-BX","2017/09/28 13:49:51","新北市中和區連城路340巷14弄2號","121.483341666667","24.9971933333333","6500300","中和區"
"235008","293-VK","2017/09/28 13:49:53","新北市中和區復興路280巷34號","121.501588333333","24.9918066666667","6500300","中和區"
"235036","301-VK","2017/09/28 13:49:49","新北市中和區中山路二段138號","121.501986666667","25.0032","6500300","中和區"
"235007","352-BY","2017/09/28 13:49:44","新北市中和區景平路1號","121.525738333333","24.9900583333333","6500300","中和區"
"235032","375-QA","2017/09/28 13:49:55","新北市中和區中正路167巷16號","121.498238333333","24.992725","6500300","中和區"
"235015","376-QA","2017/09/28 13:49:57","新北市中和區忠孝街2號","121.508725","24.982895","6500300","中和區"
"235025","378-QA","2017/09/28 13:49:45","新北市中和區民享街30巷1號","121.47397","25.0035083333333","6500300","中和區"
"235014","4979-A6","2017/09/28 13:50:00","新北市中和區忠孝街58巷16弄8號","121.511908333333","24.98303","6500300","中和區"
"235033","4980-A6","2017/09/28 13:49:55","新北市中和區南山路52巷19號","121.501303333333","24.9972233333333","6500300","中和區"
"235006","551-UM","2017/09/28 13:49:56","新北市中和區秀朗路三段76巷2號","121.526015","24.99428","6500300","中和區"
"235034","558-UM","2017/09/28 13:46:34","新北市中和區安和路95號","121.507168333333","24.995455","6500300","中和區"
"235009","565-BX","2017/09/28 13:49:58","新北市中和區復興路6號","121.506165","24.9898216666667","6500300","中和區"
"235018","640-BX","2017/09/28 13:49:47","新北市中和區民享街54巷1號","121.47379","25.0023616666667","6500300","中和區"
"235024","647-TV","2017/09/28 13:49:39","新北市中和區中山路三段36號","121.478855","25.00596","6500300","中和區"
"235011","732-UM","2017/09/28 13:49:49","新北市中和區興南路二段34巷55弄1號","121.504831666667","24.9862283333333","6500300","中和區"
"235010","733-UM","2017/09/28 13:49:55","新北市中和區仁愛街36巷46號","121.511373333333","24.9862033333333","6500300","中和區"
"235026","800-TS","2017/09/28 13:49:41","新北市中和區中山路二段340巷17號","121.493566666667","25.0030683333333","6500300","中和區"
"235021","801-TS","2017/09/28 13:49:48","新北市中和區民安街22巷6號","121.480241666667","25.000955","6500300","中和區"
"235005","802-TS","2017/09/28 13:49:59","新北市中和區永貞路272號","121.513513333333","25.00389","6500300","中和區"
"235016","805-TS","2017/09/28 13:49:43","新北市中和區興南路三段35號","121.496911666667","24.978235","6500300","中和區"
"235012","896-TW","2017/09/28 13:49:55","新北市中和區南山路409號","121.506986666667","24.98983","6500300","中和區"
"235017","900-TW","2017/09/28 13:49:49","新北市中和區華福街7號","121.465488333333","24.99685","6500300","中和區"
"235001","AAC-213","2017/09/28 13:49:44","新北市中和區秀朗路三段175巷1號","121.524751666667","24.9914966666667","6500300","中和區"
"235023","AAC-215","2017/09/28 13:49:40","新北市中和區圓通路397號","121.489476666667","24.98903","6500300","中和區"
"220016","013-TV","2017/09/28 13:49:40","新北市板橋區介壽街117號","121.470518333333","25.018795","6500100","板橋區"
"220013","072-UY","2017/09/28 13:49:39","新北市板橋區縣民大道二段101號","121.466323333333","25.0151333333333","6500100","板橋區"
"220034","073-UY","2017/09/28 13:49:42","新北市板橋區大智街71巷5弄1號","121.45331","25.0149966666667","6500100","板橋區"
"220105","075-UY","2017/09/28 13:49:46","新北市板橋區民生路二段161巷5號","121.470213333333","25.0197116666667","6500100","板橋區"
"220017","AAD-861","2017/09/28 13:49:55","新北市板橋區南雅南路二段120-1號","121.452356666667","24.99969","6500100","板橋區"
"247009","339-TH","2017/09/28 13:49:48","新北市蘆洲區集賢路177-1號","121.486505","25.0892333333333","6501400","蘆洲區"
"247003","336-TH","2017/09/28 13:49:51","新北市蘆洲區長安街108巷13號","121.461561666667","25.08214","6501400","蘆洲區"
"247015","057-VK","2017/09/28 13:49:42","新北市蘆洲區光華路26巷12號","121.46895","25.0837","6501400","蘆洲區"
"247005","056-VK","2017/09/28 13:49:51","新北市蘆洲區中山二路256號","121.46929","25.0789716666667","6501400","蘆洲區"
"247007","053-VK","2017/09/28 13:49:51","新北市蘆洲區集賢路269巷4號","121.481311666667","25.0837233333333","6501400","蘆洲區"
"247017","001-UY","2017/09/28 13:49:51","新北市蘆洲區民族路263巷19號","121.476045","25.0900816666667","6501400","蘆洲區"
"228005","097-TW","2017/09/28 13:49:31","新北市雙溪區三港里雙澳路91號","121.88894","25.0575733333333","6502600","貢寮區"
"228004","212-TW","2017/09/28 13:34:04","新北市貢寮區龍崗里石壁坑街24-1號","121.912116666667","24.9981033333333","6502600","貢寮區"
"208004","AAC-292","2017/09/28 13:49:47","新北市金山區山城路10巷2號","121.595161666667","25.2016216666667","6502700","金山區"
"207002","749-BX","2017/09/28 13:49:50","新北市萬里區崁腳里崁腳路166號","121.645083333333","25.1557633333333","6502800","萬里區"
"252005","073-UM","2017/09/28 13:49:48","新北市三芝區圓山里二坪頂46號","121.53971","25.2275583333333","6502100","三芝區"
"207001","662-BX","2017/09/28 13:49:40","新北市萬里區磺潭里清水18號","121.637773333333","25.1977766666667","6502800","萬里區"
"236066","105-UM","2017/09/28 13:49:46","新北市土城區城林路6巷80號","121.438511666667","24.9797166666667","6501300","土城區"
"236076","166-UM","2017/09/28 13:46:27","新北市土城區中央路二段280號","121.440791666667","24.9739783333333","6501300","土城區"
"236028","253-BX","2017/09/28 13:49:51","新北市土城區城林路6巷80號","121.438388333333","24.97988","6501300","土城區"
"236024","269-VK","2017/09/28 13:49:50","新北市土城區中華路二段196號","121.437521666667","24.97022","6501300","土城區"
"236012","270-VK","2017/09/28 13:49:54","新北市土城區城林路6巷80號","121.438478333333","24.9798216666667","6501300","土城區"
"236033","271-VK","2017/09/28 13:49:43","新北市土城區城林路6巷80號","121.438563333333","24.979795","6501300","土城區"
"236018","401-BY","2017/09/28 13:49:40","新北市土城區城林路6巷80號","121.438606666667","24.9797516666667","6501300","土城區"
"236005","498-BY","2017/09/28 13:49:54","新北市土城區學府路二段168號","121.446038333333","24.978805","6501300","土城區"
"236056","912-UM","2017/09/28 13:49:54","新北市土城區中華路二段129號","121.438895","24.9764883333333","6501300","土城區"
"236047","913-UM","2017/09/28 13:49:21","新北市土城區城林路6巷80號","121.438285","24.9798683333333","6501300","土城區"
"236052","AAC-216","2017/09/28 13:49:55","新北市土城區城林路6巷80號","121.438433333333","24.9798716666667","6501300","土城區"
"221012","276-VK","2017/09/28 13:19:47","新北市汐止區汐萬路一段256巷3號","121.653443333333","25.0746416666667","6501100","汐止區"
"221035","622-UM","2017/09/28 13:49:39","新北市汐止區國興街30巷2號","121.622745","25.0464533333333","6501100","汐止區"
"221018","753-BX","2017/09/28 13:49:58","新北市汐止區康寧街753巷2弄20號","121.640281666667","25.0740966666667","6501100","汐止區"
"220027","145-BY","2017/09/28 13:49:58","新北市板橋區中正路48號","121.456411666667","25.0140916666667","6500100","板橋區"
"220028","200-UY","2017/09/28 13:49:40","新北市板橋區大觀路二段265巷128號","121.44226","24.9963416666667","6500100","板橋區"
"220050","245-BX","2017/09/28 13:49:41","新北市板橋區民生路二段161巷3號","121.470126666667","25.0197533333333","6500100","板橋區"
"220014","255-TC","2017/09/26 21:22:21","新北市板橋區民生路二段89-6號","121.470936666667","25.0192566666667","6500100","板橋區"
"220020","277-BY","2017/09/28 13:49:51","新北市板橋區金門街25巷10號","121.434038333333","24.9943316666667","6500100","板橋區"
"220012","280-UM","2017/09/28 13:49:40","新北市板橋區民生路二段17號","121.472546666667","25.016315","6500100","板橋區"
"220043","283-UM","2017/09/28 13:49:58","新北市板橋區民生路二段161巷5號","121.470146666667","25.0196833333333","6500100","板橋區"
"220019","283-VK","2017/09/28 13:49:54","新北市板橋區忠孝路176巷5弄2號","121.464728333333","25.00198","6500100","板橋區"
"220001","285-VK","2017/09/28 13:49:46","新北市板橋區介壽街117號","121.470518333333","25.018715","6500100","板橋區"
"220031","286-VK","2017/09/28 13:49:55","新北市板橋區大觀路二段22巷22號","121.445631666667","25.0036133333333","6500100","板橋區"
"220029","287-VK","2017/09/28 13:49:53","新北市板橋區南雅西路二段145巷3號","121.451683333333","25.0115466666667","6500100","板橋區"
"220039","288-VK","2017/09/28 13:49:42","新北市板橋區民生路二段120號","121.470331666667","25.0196116666667","6500100","板橋區"
"220009","293-UM","2017/09/28 13:49:54","新北市板橋區民生路二段89-6號","121.470701666667","25.0188683333333","6500100","板橋區"
"220032","296-UM","2017/09/28 13:49:43","新北市板橋區大觀路二段174巷102弄19號","121.441636666667","25.0012116666667","6500100","板橋區"
"220023","297-UM","2017/09/28 13:49:54","新北市板橋區大觀路一段28巷75號","121.450071666667","25.0111283333333","6500100","板橋區"
"220010","303-R5","2017/09/28 13:49:55","新北市板橋區民生路二段123號","121.47069","25.0186733333333","6500100","板橋區"
"220041","307-R5","2017/09/28 13:49:54","新北市板橋區民生路二段120號","121.470326666667","25.0199466666667","6500100","板橋區"
"220047","317-R6","2017/09/28 13:49:40","新北市板橋區民生路二段120號","121.470423333333","25.0195966666667","6500100","板橋區"
"220038","487-VK","2017/09/28 13:49:55","新北市板橋區民生路二段188號","121.470225","25.020245","6500100","板橋區"
"220037","491-VK","2017/09/28 13:49:47","新北市板橋區民生路二段161巷1號","121.470051666667","25.0202066666667","6500100","板橋區"
"220104","560-BX","2017/09/28 13:49:53","新北市板橋區中正路325巷5弄7號","121.453713333333","25.0189983333333","6500100","板橋區"
"220052","561-BX","2017/09/28 13:49:41","新北市板橋區民生路二段120號","121.470381666667","25.0197183333333","6500100","板橋區"
"220011","609-BX","2017/09/28 13:49:48","新北市板橋區介壽街113號","121.470388333333","25.01875","6500100","板橋區"
"220004","630-UY","2017/09/28 13:49:42","新北市板橋區四川路二段97號","121.45259","24.9948083333333","6500100","板橋區"
"220040","637-BX","2017/09/28 13:49:47","新北市板橋區民生路二段161巷1號","121.470121666667","25.019855","6500100","板橋區"
"220005","686-BX","2017/09/28 13:49:39","新北市板橋區華東街11號","121.450401666667","24.9975583333333","6500100","板橋區"
"220025","687-BX","2017/09/28 13:49:55","新北市板橋區金門街52號","121.433208333333","24.993045","6500100","板橋區"
"220042","689-BX","2017/09/28 13:49:57","新北市板橋區民生路二段161巷1號","121.470105","25.0200316666667","6500100","板橋區"
"220002","741-BX","2017/09/28 13:49:45","新北市板橋區華東街11號","121.450466666667","24.997685","6500100","板橋區"
"220030","806-UM","2017/09/28 13:49:49","新北市板橋區篤行路二段153號","121.429575","24.9879516666667","6500100","板橋區"
"220003","827-TW","2017/09/28 13:49:51","新北市板橋區華東街328號","121.45282","25.0034","6500100","板橋區"
"220051","830-TW","2017/09/28 13:49:47","新北市板橋區文化路一段270巷1弄2號","121.467843333333","25.020925","6500100","板橋區"
"220045","831-TW","2017/09/26 21:29:09","新北市板橋區民生路二段161巷3號","121.470165","25.01981","6500100","板橋區"
"220022","895-R6","2017/09/28 13:49:27","新北市板橋區南門街34號","121.457085","25.008455","6500100","板橋區"
"220021","985-R7","2017/09/28 13:49:55","新北市板橋區南門街14號","121.457356666667","25.008885","6500100","板橋區"
"220046","AAC-210","2017/09/28 13:49:46","新北市板橋區民生路二段161巷1號","121.470256666667","25.0199166666667","6500100","板橋區"
"220018","AAC-253","2017/09/28 13:49:46","新北市板橋區館前西路11號","121.459008333333","25.0070083333333","6500100","板橋區"
