"lineid","car","time","location","longitude","latitude","cityid","cityname"
"234044","148-BY","2017/09/28 14:29:53","新北市永和區得和路311號","121.523131666667","24.9996733333333","6500400","永和區"
"234005","208-UY","2017/09/28 14:29:47","新北市永和區中正路742-1號","121.515136666667","25.010235","6500400","永和區"
"234078","298-R6","2017/09/28 14:29:52","新北市永和區永貞路82號","121.520178333333","25.0050183333333","6500400","永和區"
"234036","336-UY","2017/09/28 14:29:51","新北市永和區民樂街31巷17弄6號","121.528413333333","25.001925","6500400","永和區"
"234062","337-UY","2017/09/28 14:29:58","新北市永和區中正路518號","121.5173","25.004805","6500400","永和區"
"234084","338-UY","2017/09/28 14:29:37","新北市永和區永和路二段103號","121.51485","25.01182","6500400","永和區"
"234068","552-UM","2017/09/28 14:29:46","新北市永和區永寧街54號","121.51953","25.0069233333333","6500400","永和區"
"234052","553-UM","2017/09/28 14:29:51","新北市永和區光復街60巷29號","121.518136666667","25.0174066666667","6500400","永和區"
"234028","746-BX","2017/09/28 14:29:41","新北市永和區民治街59巷11號","121.518586666667","24.9973166666667","6500400","永和區"
"234060","AAD-866","2017/09/28 14:29:48","新北市永和區中正路381號","121.517135","25.0036666666667","6500400","永和區"
"234040","862-TW","2017/09/28 14:29:53","新北市永和區安樂路250號","121.514515","25.0036133333333","6500400","永和區"
"234048","863-TW","2017/09/28 14:29:54","新北市永和區環河西路二段29號","121.507355","25.0158416666667","6500400","永和區"
"234025","9371-KE","2017/09/28 14:29:52","新北市中和區安平路162號","121.512576666667","24.9986933333333","6500400","永和區"
"248013","025-BX","2017/09/28 14:29:55","新北市五股區民義路一段183巷5-1號","121.430503333333","25.0871433333333","6501500","五股區"
"248015","026-BX","2017/09/28 14:29:57","新北市五股區成泰路四段22巷29-5號","121.455306666667","25.1086616666667","6501500","五股區"
"248017","225-UY","2017/09/28 14:19:21","新北市五股區壟路16號","121.415065","25.0854266666667","6501500","五股區"
"248011","247-BX","2017/09/28 14:29:43","新北市五股區蓬萊路24號","121.433905","25.07996","6501500","五股區"
"248009","272-BY","2017/09/28 14:29:54","新北市五股區水碓一路23號","121.430615","25.0713966666667","6501500","五股區"
"248003","677-BX","2017/09/28 14:29:47","新北市五股區五福路7-1號","121.434283333333","25.0882166666667","6501500","五股區"
"248001","678-BX","2017/09/28 14:29:38","新北市五股區成泰路三段436號","121.450841666667","25.0994483333333","6501500","五股區"
"234076","969-R7","2017/09/28 14:29:44","新北市永和區民族街81巷60號","121.520155","24.9965366666667","6500400","永和區"
"234072","AAC-211","2017/09/28 14:29:53","新北市永和區竹林路39巷30號","121.519478333333","25.0150433333333","6500400","永和區"
"234066","AAC-212","2017/09/28 14:29:50","新北市永和區保生路26號","121.506365","25.0076816666667","6500400","永和區"
"234001","AAC-295","2017/09/28 14:29:55","新北市永和區大新街7號","121.51459","25.0086483333333","6500400","永和區"
"244003","657-BX","2017/09/28 14:29:39","新北市林口區竹林路265號","121.389558333333","25.0807116666667","6501700","林口區"
"244025","837-TS","2017/09/28 10:39:22","新北市林口區粉寮路二段160巷28號","121.40518","25.090805","6501700","林口區"
"243005","AAD-798","2017/09/28 14:29:46","新北市泰山區民國街30號","121.425566666667","25.042805","6501600","泰山區"
"243001","297-R6","2017/09/28 14:29:56","新北市五股區成泰路一段7巷1號","121.433625","25.0664416666667","6501600","泰山區"
"243007","380-SR","2017/09/28 14:29:53","新北市泰山區民權街21號","121.428623333333","25.0508216666667","6501600","泰山區"
"243006","421-VK","2017/09/28 14:29:54","新北市泰山區仁愛路18號","121.43137","25.0541816666667","6501600","泰山區"
"243002","KEA-2215","2017/09/28 14:29:45","新北市泰山區民生路11號","121.429778333333","25.0526583333333","6501600","泰山區"
"243003","KEA-2216","2017/09/28 14:29:50","新北市泰山區貴子路67巷19號","121.43085","25.040635","6501600","泰山區"
"243004","646-TV","2017/09/28 14:29:53","新北市泰山區全興路81號","121.433095","25.0579983333333","6501600","泰山區"
"243008","680-BX","2017/09/28 14:29:44","新北市泰山區中山路三段79號","121.418291666667","25.0321016666667","6501600","泰山區"
"231002","002-UM","2017/09/28 14:29:42","新北市新店區中央路23號","121.5331","24.9781133333333","6500600","新店區"
"231028","046-UY","2017/09/28 14:29:44","新北市新店區安康路二段147號","121.511316666667","24.9599166666667","6500600","新店區"
"231030","047-UY","2017/09/28 14:29:42","新北市新店區安民街65巷15號","121.516066666667","24.9666933333333","6500600","新店區"
"231029","106-UY","2017/09/28 14:29:40","新北市新店區安康路二段416號","121.496523333333","24.9552083333333","6500600","新店區"
"231018","107-UY","2017/09/28 14:29:55","新北市新店區中央二街61號","121.526746666667","24.9747316666667","6500600","新店區"
"231011","108-UY","2017/09/28 14:29:47","新北市新店區中興路二段196號","121.548516666667","24.9737833333333","6500600","新店區"
"231021","187-VK","2017/09/28 14:29:47","新北市新店區新烏路二段446號","121.551638333333","24.9079183333333","6500600","新店區"
"231007","189-VK","2017/09/28 12:02:08","新北市新店區安華路28-1號","121.519581666667","24.9610383333333","6500600","新店區"
"231017","215-TC","2017/09/28 14:29:48","新北市新店區北宜路二段408號","121.567876666667","24.9540183333333","6500600","新店區"
"231023","AAD-862","2017/09/28 14:29:57","新北市新店區光明街133號","121.539428333333","24.9619533333333","6500600","新店區"
"231027","3712-VJ","2017/09/28 14:29:47","新北市新店區北新路二段228巷11號","121.543358333333","24.9771766666667","6500600","新店區"
"231025","4716-K9","2017/09/28 14:29:58","新北市新店區大豐路95號","121.538176666667","24.978965","6500600","新店區"
"231038","4715-K9","2017/09/28 14:29:55","新北市新店區溪洲路8巷124號","121.533161666667","24.96306","6500600","新店區"
"231036","512-UM","2017/09/28 14:29:58","新北市新店區安祥路109巷151弄12號","121.478086666667","24.9589333333333","6500600","新店區"
"231035","515-UM","2017/09/28 14:29:55","新北市新店區安民街15號","121.515348333333","24.9646066666667","6500600","新店區"
"231001","619-UM","2017/09/28 14:29:51","新北市新店區北新路一段96巷23號","121.543028333333","24.9689066666667","6500600","新店區"
"231003","641-BX","2017/09/28 14:29:42","新北市新店區中興路一段273號","121.545155","24.9682116666667","6500600","新店區"
"231034","645-TV","2017/09/28 14:29:49","新北市新店區黎明路51巷1號","121.50199","24.9493583333333","6500600","新店區"
"231013","719-UM","2017/09/28 14:29:52","新北市新店區民權路90巷22號","121.536243333333","24.9837233333333","6500600","新店區"
"231031","720-UM","2017/09/28 14:29:58","新北市新店區安業街33號","121.517445","24.9772533333333","6500600","新店區"
"231005","897-TW","2017/09/28 14:29:41","新北市新店區中興路三段133號","121.544635","24.9796216666667","6500600","新店區"
"231006","898-TW","2017/09/28 14:29:46","新北市新店區北宜路二段487號","121.562455","24.953985","6500600","新店區"
"231004","899-TW","2017/09/28 14:29:48","新北市新店區中正路224號","121.540145","24.9727516666667","6500600","新店區"
"231037","AKT-0513","2017/09/28 14:29:44","新北市新店區車子路30號","121.504313333333","24.952205","6500600","新店區"
"235030","003-UY","2017/09/28 14:29:42","新北市中和區中和路114號","121.503011666667","24.999575","6500300","中和區"
"235028","005-UY","2017/09/28 14:29:42","新北市中和區南山路127巷27弄28號","121.503358333333","24.99822","6500300","中和區"
"235027","006-UY","2017/09/28 14:29:57","新北市中和區連城路164號","121.494068333333","24.9976266666667","6500300","中和區"
"235020","096-UM","2017/09/28 14:29:53","新北市中和區民富街86號","121.476493333333","25.0081916666667","6500300","中和區"
"235003","097-UM","2017/09/28 14:29:48","新北市中和區秀峰街103巷7弄4號","121.519418333333","24.9889733333333","6500300","中和區"
"235029","098-UM","2017/09/28 14:29:48","新北市中和區中山路二段178巷21號","121.50068","25.00345","6500300","中和區"
"235004","150-BY","2017/09/28 14:29:53","新北市中和區安樂路81號","121.512546666667","24.9943883333333","6500300","中和區"
"235022","151-BY","2017/09/28 14:29:51","新北市中和區連城路469巷79弄30號","121.484556666667","24.9937366666667","6500300","中和區"
"235019","183-VK","2017/09/28 14:29:37","新北市中和區德光路27巷36號","121.471031666667","25.00332","6500300","中和區"
"235002","185-VK","2017/09/28 14:29:41","新北市中和區立人街69巷19號","121.520435","24.99312","6500300","中和區"
"235013","186-VK","2017/09/28 14:29:59","新北市中和區景新街285巷31號","121.510805","24.9937933333333","6500300","中和區"
"235001","255-BX","2017/09/28 14:29:51","新北市中和區連城路294號","121.484043333333","24.9962383333333","6500300","中和區"
"235008","293-VK","2017/09/28 14:29:53","新北市中和區景安路212號","121.504001666667","24.9908083333333","6500300","中和區"
"235036","301-VK","2017/09/28 14:29:49","新北市中和區光華街31巷22弄28號","121.505901666667","25.0043733333333","6500300","中和區"
"235007","352-BY","2017/09/28 14:29:44","新北市中和區景平路334號","121.512071666667","24.9928616666667","6500300","中和區"
"235032","375-QA","2017/09/28 14:29:55","新北市中和區景平路493巷12弄4號","121.498926666667","24.99721","6500300","中和區"
"235015","376-QA","2017/09/28 14:29:57","新北市中和區板南路106號","121.503488333333","24.992465","6500300","中和區"
"235025","378-QA","2017/09/28 14:29:51","新北市中和區民利街9巷2弄2號","121.480653333333","24.9987683333333","6500300","中和區"
"235014","4979-A6","2017/09/28 14:29:40","新北市中和區中正路637巷60弄61號","121.485435","24.9929816666667","6500300","中和區"
"235006","551-UM","2017/09/28 14:29:47","新北市中和區中和路350巷15弄9號","121.510766666667","25.00113","6500300","中和區"
"235034","558-UM","2017/09/28 14:29:14","新北市中和區連城路80號","121.497223333333","25.0011616666667","6500300","中和區"
"235009","565-BX","2017/09/28 14:29:55","新北市中和區景新街423號","121.513045","24.98929","6500300","中和區"
"235018","640-BX","2017/09/28 14:29:41","新北市中和區國光街114號","121.469928333333","25.000655","6500300","中和區"
"235024","647-TV","2017/09/28 14:29:59","新北市中和區新生街116巷3號","121.483386666667","25.002005","6500300","中和區"
"235011","732-UM","2017/09/28 14:29:49","新北市中和區景平路323號","121.505981666667","24.9929916666667","6500300","中和區"
"235010","733-UM","2017/09/28 14:29:55","新北市中和區忠孝街37巷76號","121.510921666667","24.98498","6500300","中和區"
"235026","800-TS","2017/09/28 14:29:58","新北市中和區中山路二段490號","121.487115","25.0049633333333","6500300","中和區"
"235021","801-TS","2017/09/28 14:29:48","新北市中和區員山路423巷2弄2號","121.480676666667","25.00335","6500300","中和區"
"235005","802-TS","2017/09/28 14:29:54","新北市中和區宜安路163號","121.50881","24.9990116666667","6500300","中和區"
"235016","805-TS","2017/09/28 14:29:43","新北市中和區華新街143巷47號","121.506345","24.9803366666667","6500300","中和區"
"235012","896-TW","2017/09/28 14:29:46","新北市中和區忠孝街39-5號","121.51185","24.9839866666667","6500300","中和區"
"235017","900-TW","2017/09/28 14:29:49","新北市中和區華順街2巷6號","121.467575","24.9988883333333","6500300","中和區"
"235001","AAC-213","2017/09/28 14:29:37","新北市中和區秀朗路三段10巷14弄96號","121.52344","24.996695","6500300","中和區"
"235023","AAC-215","2017/09/28 14:29:52","新北市中和區圓通路323-5號","121.492556666667","24.9907383333333","6500300","中和區"
"220016","013-TV","2017/09/28 14:29:54","新北市板橋區中山路二段553巷12號","121.483493333333","25.0223433333333","6500100","板橋區"
"220013","072-UY","2017/09/28 14:29:43","新北市板橋區國泰街75巷28弄1號","121.467663333333","25.00558","6500100","板橋區"
"220034","073-UY","2017/09/28 14:29:42","新北市板橋區中正路250巷21號","121.456538333333","25.0194966666667","6500100","板橋區"
"220105","075-UY","2017/09/28 14:29:46","新北市板橋區文化路二段441巷8號","121.474513333333","25.0338166666667","6500100","板橋區"
"220017","AAD-861","2017/09/28 14:29:54","新北市板橋區華興街21巷23號","121.458783333333","25.0037316666667","6500100","板橋區"
"247021","893-R6","2017/09/28 14:29:56","新北市蘆洲區三民路128巷7號","121.470715","25.088265","6501400","蘆洲區"
"247011","546-UM","2017/09/28 14:29:43","新北市蘆洲區三民路88號","121.473731666667","25.08532","6501400","蘆洲區"
"247019","500-BY","2017/09/28 14:29:43","新北市蘆洲區水湳街257號","121.46949","25.0922616666667","6501400","蘆洲區"
"247009","339-TH","2017/09/28 14:29:48","新北市蘆洲區鷺江街16-4號","121.478575","25.0824666666667","6501400","蘆洲區"
"247001","337-TH","2017/09/28 14:29:53","新北市蘆洲區永樂街38巷33弄22號","121.457231666667","25.08991","6501400","蘆洲區"
"247003","336-TH","2017/09/28 14:29:51","新北市蘆洲區中原路13-5號","121.460786666667","25.0831116666667","6501400","蘆洲區"
"247015","057-VK","2017/09/28 14:29:42","新北市蘆洲區光華路46巷40號","121.467723333333","25.084385","6501400","蘆洲區"
"247005","056-VK","2017/09/28 14:29:57","新北市蘆洲區長安街44號","121.463465","25.0796983333333","6501400","蘆洲區"
"247007","053-VK","2017/09/28 14:29:51","新北市蘆洲區中山一路161號","121.475571666667","25.0815616666667","6501400","蘆洲區"
"247013","007-UY","2017/09/28 14:29:39","新北市蘆洲區中山二路105號","121.472625","25.081735","6501400","蘆洲區"
"247023","002-UY","2017/09/28 14:29:51","新北市蘆洲區中正路263巷2號","121.467345","25.0876666666667","6501400","蘆洲區"
"247017","001-UY","2017/09/28 14:29:51","新北市蘆洲區復興路227巷18-1號","121.479835","25.0905633333333","6501400","蘆洲區"
"228005","097-TW","2017/09/28 14:29:52","新北市貢寮區美豐里巫里岸9-1號","121.901958333333","25.0701816666667","6502600","貢寮區"
"228004","212-TW","2017/09/28 14:29:44","新北市貢寮區雙玉里田寮洋街33-1號","121.93217","25.01364","6502600","貢寮區"
"227004","400-TW","2017/09/28 14:13:11","新北市雙溪區三貂里政光路3-1號","121.850918333333","25.0631566666667","6502500","雙溪區"
"208004","AAC-292","2017/09/28 14:29:47","新北市金山區重和里六股林口7-1號","121.607506666667","25.2208783333333","6502700","金山區"
"207002","749-BX","2017/09/28 14:29:30","新北市萬里區溪底里富士坪路26-1號","121.62105","25.1522116666667","6502800","萬里區"
"252005","073-UM","2017/09/28 14:29:48","新北市三芝區茂長里陳厝坑15-1號","121.515986666667","25.2549716666667","6502100","三芝區"
"207001","662-BX","2017/09/28 14:29:40","新北市萬里區磺潭里清水12號","121.639846666667","25.19954","6502800","萬里區"
"236066","105-UM","2017/09/28 14:29:49","新北市土城區永豐路205-5號","121.47453","24.9778316666667","6501300","土城區"
"236040","107-UM","2017/09/28 14:29:55","新北市土城區裕民路67巷7號","121.449721666667","24.988015","6501300","土城區"
"236076","166-UM","2017/09/28 14:29:55","新北市土城區大暖路88號","121.422031666667","24.958325","6501300","土城區"
"236028","253-BX","2017/09/28 14:29:50","新北市土城區水源街30號","121.440945","24.9755766666667","6501300","土城區"
"236024","269-VK","2017/09/28 14:29:50","新北市土城區承天路67號","121.439513333333","24.9635733333333","6501300","土城區"
"236012","270-VK","2017/09/28 14:29:54","新北市土城區青雲路39巷7號","121.46032","24.9875683333333","6501300","土城區"
"236033","271-VK","2017/09/28 14:29:43","新北市土城區青雲路451巷8弄1號","121.45964","24.9745166666667","6501300","土城區"
"236018","401-BY","2017/09/28 14:29:40","新北市土城區永豐路202巷5-2號","121.46635","24.9832833333333","6501300","土城區"
"236005","498-BY","2017/09/28 14:29:54","新北市土城區中華路一段116號","121.443853333333","24.9863633333333","6501300","土城區"
"236056","912-UM","2017/09/28 14:29:54","新北市土城區中央路四段323號","121.410366666667","24.9509883333333","6501300","土城區"
"236047","913-UM","2017/09/28 14:29:41","新北市土城區青雲路364號","121.458646666667","24.9740883333333","6501300","土城區"
"236060","915-UM","2017/09/28 14:29:45","新北市中和區民享街469號","121.469961666667","24.9921466666667","6501300","土城區"
"236052","AAC-216","2017/09/28 14:29:55","新北市土城區中華路二段103號","121.439185","24.97732","6501300","土城區"
"221012","276-VK","2017/09/28 13:19:47","新北市汐止區汐萬路一段256巷3號","121.653443333333","25.0746416666667","6501100","汐止區"
"221032","280-BY","2017/09/28 14:29:58","新北市汐止區力行街1號","121.61728","25.0514016666667","6501100","汐止區"
"221035","622-UM","2017/09/28 14:29:39","新北市汐止區八連路一段207號","121.64098","25.0805316666667","6501100","汐止區"
"221018","753-BX","2017/09/28 14:29:38","新北市汐止區汐萬路一段256巷3號","121.653193333333","25.074515","6501100","汐止區"
"220027","145-BY","2017/09/28 14:29:58","新北市板橋區民權路202巷18弄1-2號","121.460773333333","25.0164916666667","6500100","板橋區"
"220028","200-UY","2017/09/28 14:29:40","新北市板橋區大觀路二段3巷81號","121.449975","25.0033366666667","6500100","板橋區"
"220050","245-BX","2017/09/28 14:29:45","新北市板橋區萬板路192-2號","121.476653333333","25.0236233333333","6500100","板橋區"
"220014","255-TC","2017/09/26 21:22:21","新北市板橋區民生路二段89-6號","121.470936666667","25.0192566666667","6500100","板橋區"
"220020","277-BY","2017/09/28 14:29:51","新北市板橋區篤行路二段152號","121.429525","24.9880466666667","6500100","板橋區"
"220012","280-UM","2017/09/28 14:29:40","新北市板橋區館前東路60號","121.461076666667","25.0073366666667","6500100","板橋區"
"220043","283-UM","2017/09/28 14:29:38","新北市板橋區吳鳳路50巷39號","121.4687","25.0303666666667","6500100","板橋區"
"220019","283-VK","2017/09/28 14:29:54","新北市板橋區忠孝路22號","121.46003","25.0017383333333","6500100","板橋區"
"220001","285-VK","2017/09/28 14:29:46","新北市板橋區永豐街205號","121.476498333333","25.0209916666667","6500100","板橋區"
"220031","286-VK","2017/09/28 14:29:55","新北市板橋區大觀路二段174巷163弄8號","121.441371666667","25.0032916666667","6500100","板橋區"
"220029","287-VK","2017/09/28 14:29:53","新北市板橋區南雅西路一段5巷7號","121.45454","25.0039616666667","6500100","板橋區"
"220039","288-VK","2017/09/28 14:29:42","新北市板橋區裕民街87-4號","121.460425","25.0281233333333","6500100","板橋區"
"220009","293-UM","2017/09/28 14:29:54","新北市板橋區成功路2-1號","121.475615","25.0168916666667","6500100","板橋區"
"220032","296-UM","2017/09/28 14:29:43","新北市板橋區滿平街136巷2弄1號","121.428611666667","24.987995","6500100","板橋區"
"220023","297-UM","2017/09/28 14:29:54","新北市板橋區南雅西路一段39巷29號","121.45286","25.004125","6500100","板橋區"
"220010","303-R5","2017/09/28 14:29:55","新北市板橋區三民路二段181巷1號","121.479646666667","25.01445","6500100","板橋區"
"220041","307-R5","2017/09/28 14:29:54","新北市板橋區光武街4巷13號","121.468166666667","25.0255983333333","6500100","板橋區"
"220047","317-R6","2017/09/28 14:29:40","新北市板橋區民生路三段299巷3號","121.463325","25.030425","6500100","板橋區"
"220038","487-VK","2017/09/28 14:29:56","新北市板橋區文化路一段201號","121.46327","25.0166666666667","6500100","板橋區"
"220037","491-VK","2017/09/28 14:29:47","新北市板橋區雙十路一段3號","121.478108333333","25.0241","6500100","板橋區"
"220104","560-BX","2017/09/28 14:29:53","新北市板橋區中正路332-9號","121.454311666667","25.0228733333333","6500100","板橋區"
"220052","561-BX","2017/09/28 14:29:47","新北市板橋區文化路一段220號","121.466858333333","25.0204633333333","6500100","板橋區"
"220011","609-BX","2017/09/28 14:29:48","新北市板橋區三民路二段241號","121.478976666667","25.0125233333333","6500100","板橋區"
"220004","630-UY","2017/09/28 14:29:48","新北市板橋區干城路148號","121.459903333333","24.992965","6500100","板橋區"
"220040","637-BX","2017/09/28 14:29:47","新北市板橋區文聖街149巷25號","121.479501666667","25.028605","6500100","板橋區"
"220005","686-BX","2017/09/28 14:29:39","新北市板橋區五權街30巷1號","121.464755","24.993465","6500100","板橋區"
"220025","687-BX","2017/09/28 14:29:56","新北市板橋區大觀路一段28巷28號","121.449945","25.0093466666667","6500100","板橋區"
"220042","689-BX","2017/09/28 14:29:58","新北市板橋區雨農路32號","121.461301666667","25.0243916666667","6500100","板橋區"
"220002","741-BX","2017/09/28 14:29:49","新北市板橋區重慶路155巷21號","121.463103333333","25.0041316666667","6500100","板橋區"
"220030","806-UM","2017/09/28 14:29:49","新北市板橋區溪城路115號","121.427501666667","24.9826783333333","6500100","板橋區"
"220003","827-TW","2017/09/28 14:29:50","新北市板橋區重慶路290巷22弄3號","121.46219","24.9991516666667","6500100","板橋區"
"220051","830-TW","2017/09/28 14:29:32","新北市板橋區文化路二段410巷2弄1號","121.474351666667","25.030975","6500100","板橋區"
"220045","831-TW","2017/09/28 14:29:51","新北市板橋區大同街5巷9號","121.47667","25.0271566666667","6500100","板橋區"
"220022","895-R6","2017/09/28 14:29:47","新北市板橋區北門街25號","121.456578333333","25.011235","6500100","板橋區"
"220021","985-R7","2017/09/28 14:29:45","新北市板橋區中正路366號","121.454321666667","25.0240666666667","6500100","板橋區"
"220046","AAC-210","2017/09/28 14:29:46","新北市板橋區陽明街29巷42號","121.463206666667","25.0229416666667","6500100","板橋區"
"220018","AAC-253","2017/09/28 14:29:46","新北市板橋區四川路一段10巷2號","121.459441666667","25.0067266666667","6500100","板橋區"
