"lineid","car","time","location","longitude","latitude","cityid","cityname"
"234025","9371-KE","2017/09/28 15:47:21","新北市永和區保生路55-1號","121.5045","25.010945","6500400","永和區"
"234072","AAC-211","2017/09/28 15:47:26","新北市永和區福和路1號","121.526593333333","25.00984","6500400","永和區"
"244025","837-TS","2017/09/28 10:39:22","新北市林口區粉寮路二段160巷28號","121.40518","25.090805","6501700","林口區"
"231030","047-UY","2017/09/28 15:47:29","新北市新店區永安街51巷1號","121.518156666667","24.98682","6500600","新店區"
"231029","106-UY","2017/09/28 15:47:20","新北市新店區安康路二段317號","121.499651666667","24.9568116666667","6500600","新店區"
"231018","107-UY","2017/09/28 15:47:15","新北市新店區中央路78巷72號","121.530938333333","24.9798916666667","6500600","新店區"
"231011","108-UY","2017/09/28 15:47:06","新北市新店區文化路39號","121.543986666667","24.9801933333333","6500600","新店區"
"231021","187-VK","2017/09/28 15:47:27","新北市新店區金興路1號","121.548671666667","24.9296683333333","6500600","新店區"
"231007","189-VK","2017/09/28 12:02:08","新北市新店區安華路28-1號","121.519581666667","24.9610383333333","6500600","新店區"
"231017","215-TC","2017/09/28 15:47:08","新北市新店區中華路83巷2弄2號","121.538958333333","24.9685733333333","6500600","新店區"
"231026","256-BX","2017/09/28 15:47:33","新北市新店區中正路428號","121.534205","24.9780516666667","6500600","新店區"
"231046","278-BY","2017/09/28 15:47:27","新北市新店區安華路28-1號","121.519893333333","24.961115","6500600","新店區"
"231023","AAD-862","2017/09/28 15:47:17","新北市新店區大新街9巷9號","121.543685","24.9677983333333","6500600","新店區"
"231038","4715-K9","2017/09/28 15:47:15","新北市新店區安康路一段250號","121.520903333333","24.9640533333333","6500600","新店區"
"231035","515-UM","2017/09/28 15:47:15","新北市新店區安興路69-1號","121.515503333333","24.975045","6500600","新店區"
"231003","641-BX","2017/09/28 15:47:22","新北市新店區寶興路60巷3號","121.549878333333","24.971815","6500600","新店區"
"231034","645-TV","2017/09/28 15:47:29","新北市新店區玫瑰路57巷27號","121.496676666667","24.9463216666667","6500600","新店區"
"231013","719-UM","2017/09/28 15:47:23","新北市新店區永業路81巷3弄14號","121.530306666667","24.9495666666667","6500600","新店區"
"231031","720-UM","2017/09/28 15:47:18","新北市新店區雙城路80號","121.492343333333","24.9489983333333","6500600","新店區"
"231004","899-TW","2017/09/28 15:47:29","新北市新店區民族路161號","121.537856666667","24.9770566666667","6500600","新店區"
"231037","AKT-0513","2017/09/28 15:47:24","新北市新店區安興路105-1號","121.514578333333","24.9777033333333","6500600","新店區"
"241011","013-R5","2017/09/28 15:47:18","新北市三重區文化北路248號","121.49738","25.0699183333333","6500200","三重區"
"241028","022-UY","2017/09/28 15:47:26","新北市三重區中正南路187號","121.49362","25.0550933333333","6500200","三重區"
"241015","062-VK","2017/09/28 15:47:15","新北市三重區重新路四段121號","121.485126666667","25.0520166666667","6500200","三重區"
"241017","063-VK","2017/09/28 15:47:12","新北市三重區中正北路9號","121.492541666667","25.06116","6500200","三重區"
"241024","065-VK","2017/09/28 15:47:30","新北市三重區環河南路286號","121.488903333333","25.0489933333333","6500200","三重區"
"241026","066-VK","2017/09/28 15:47:16","新北市三重區環河南路261號","121.490253333333","25.0499866666667","6500200","三重區"
"241003","091-VK","2017/09/28 15:47:18","新北市三重區仁義街31號","121.499681666667","25.076635","6500200","三重區"
"241005","262-UM","2017/09/28 15:47:21","新北市三重區福德南路53號","121.503286666667","25.0613216666667","6500200","三重區"
"241016","266-UM","2017/09/28 15:47:32","新北市三重區重新路四段121號","121.485126666667","25.0520033333333","6500200","三重區"
"241022","267-UM","2017/09/28 15:47:22","新北市三重區重新路四段121號","121.484736666667","25.052475","6500200","三重區"
"241018","268-UM","2017/09/28 15:47:17","新北市三重區重新路四段121號","121.4848","25.0520866666667","6500200","三重區"
"241013","270-UM","2017/09/28 15:47:17","新北市三重區正義北路326號","121.494795","25.07044","6500200","三重區"
"241007","398-BY","2017/09/28 15:47:13","新北市三重區重新路四段121號","121.485273333333","25.0520833333333","6500200","三重區"
"241014","543-UM","2017/09/28 15:47:14","新北市三重區重新路四段121號","121.48521","25.0519216666667","6500200","三重區"
"241006","AAD-863","2017/09/28 15:47:24","新北市三重區重新路四段121號","121.484656666667","25.0521966666667","6500200","三重區"
"241012","941-UM","2017/09/28 15:47:29","新北市三重區自強路一段68號","121.49704","25.066595","6500200","三重區"
"241029","942-UM","2017/09/28 15:47:21","新北市三重區正義南路181巷1號","121.499018333333","25.057125","6500200","三重區"
"241033","AAC-255","2017/09/28 15:47:30","新北市三重區光復路一段38號","121.472031666667","25.04754","6500200","三重區"
"235029","098-UM","2017/09/28 15:47:28","新北市新店區安康路一段355號","121.519735","24.96307","6500300","中和區"
"235033","4980-A6","2017/09/28 15:47:15","新北市中和區連城路469巷20號","121.483521666667","24.9951266666667","6500300","中和區"
"235026","800-TS","2017/09/28 15:47:21","新北市中和區中正路716-6號","121.485455","24.997335","6500300","中和區"
"235001","AAC-213","2017/09/28 15:46:57","新北市林口區太平里180號","121.366515","25.1343383333333","6500300","中和區"
"235023","AAC-215","2017/09/28 15:47:20","新北市中和區員山路49-8號","121.480546666667","24.9913683333333","6500300","中和區"
"247015","057-VK","2017/09/28 15:47:22","新北市五股區中興路三段163號","121.44928","25.0809633333333","6501400","蘆洲區"
"247007","053-VK","2017/09/28 15:47:10","新北市五股區凌雲路二段18巷6-7號","121.443778333333","25.1067283333333","6501400","蘆洲區"
"228003","097-TW","2017/09/28 15:18:56","新北市貢寮區貢寮里朝陽街1-2號","121.912351666667","25.0212583333333","6502600","貢寮區"
"224007","273-VK","2017/09/28 10:14:15","新北市瑞芳區大寮路356-1號","121.784533333333","25.1033766666667","6501200","瑞芳區"
"227010","642-TC","2017/09/28 15:47:19","新北市雙溪區牡丹里聖南10-3號","121.860953333333","25.0491733333333","6502500","雙溪區"
"227004","400-TW","2017/09/28 15:47:33","新北市雙溪區平林里外平林42號","121.853561666667","25.036535","6502500","雙溪區"
"252005","073-UM","2017/09/28 15:31:15","新北市三芝區埔坪里埔頭坑41號","121.504438333333","25.2644933333333","6502100","三芝區"
"236066","105-UM","2017/09/28 15:47:26","新北市土城區大安路142號","121.433431666667","24.97085","6501300","土城區"
"236076","166-UM","2017/09/28 15:47:15","新北市土城區民族街22巷4號","121.41936","24.9634283333333","6501300","土城區"
"236028","253-BX","2017/09/28 15:47:31","新北市土城區學成路128巷13弄6號","121.449526666667","24.990225","6501300","土城區"
"236024","269-VK","2017/09/28 15:47:30","新北市土城區中央路一段249巷22號","121.446336666667","24.985355","6501300","土城區"
"236012","270-VK","2017/09/28 15:47:35","新北市板橋區四川路二段29巷3弄10號","121.454545","24.9945933333333","6501300","土城區"
"236018","401-BY","2017/09/28 15:47:20","新北市土城區延吉街52號","121.471658333333","24.98698","6501300","土城區"
"236056","912-UM","2017/09/28 15:47:34","新北市土城區中央路一段222號","121.444843333333","24.985315","6501300","土城區"
"236047","913-UM","2017/09/28 15:46:21","新北市土城區金城路三段253號","121.471665","24.9899416666667","6501300","土城區"
"236052","AAC-216","2017/09/28 15:47:15","新北市土城區學府路一段97號","121.456186666667","24.9879166666667","6501300","土城區"
"238002","755-BX","2017/09/28 15:47:29","新北市樹林區啟智街36號","121.420671666667","24.9932233333333","6500700","樹林區"
"238010","601-UM","2017/09/28 15:47:28","新北市樹林區福興街3號","121.404341666667","25.0170933333333","6500700","樹林區"
"238006","599-UM","2017/09/28 15:47:21","新北市樹林區八德街225號","121.421525","24.9794933333333","6500700","樹林區"
"238005","571-TV","2017/09/28 15:47:31","新北市樹林區中華路128號","121.417495","24.98055","6500700","樹林區"
"238011","5061-A6","2017/09/28 15:47:29","新北市樹林區中山路二段235號","121.402401666667","24.9761233333333","6500700","樹林區"
"238008","KEA-2217","2017/09/28 15:47:08","新北市樹林區柑園街一段250號","121.391463333333","24.9564516666667","6500700","樹林區"
"238009","KEA-2213","2017/09/28 15:47:31","新北市樹林區太元街33號","121.418396666667","24.9796883333333","6500700","樹林區"
"238012","303-VK","2017/09/28 15:47:22","新北市樹林區中山路一段213號","121.420945","24.9872","6500700","樹林區"
"238004","283-BY","2017/09/28 15:47:27","新北市樹林區保安街二段325巷27號","121.411653333333","25.00605","6500700","樹林區"
"238001","282-BY","2017/09/28 15:47:32","新北市樹林區潭興街92號","121.425553333333","24.99949","6500700","樹林區"
"238007","268-VK","2017/09/28 15:47:25","新北市樹林區三俊街285號","121.4233","25.014075","6500700","樹林區"
"238013","172-UY","2017/09/28 15:47:14","新北市樹林區中洲街30巷13弄15號","121.398036666667","24.9719983333333","6500700","樹林區"
"238003","169-UY","2017/09/28 15:47:30","新北市樹林區復興路337號","121.41779","24.9878816666667","6500700","樹林區"
"221010","269-BY","2017/09/28 15:11:17","新北市汐止區汐萬路一段256巷3號","121.652116666667","25.0748433333333","6501100","汐止區"
"221012","276-VK","2017/09/28 13:19:47","新北市汐止區汐萬路一段256巷3號","121.653443333333","25.0746416666667","6501100","汐止區"
"221035","622-UM","2017/09/28 14:49:08","新北市汐止區汐萬路一段256巷3號","121.652053333333","25.074835","6501100","汐止區"
"242001","281-VK","2017/09/28 15:47:22","新北市新莊區利濟街10號","121.453231666667","25.0336716666667","6500500","新莊區"
"220038","487-VK","2017/09/28 15:47:15","新北市板橋區長江路一段188號","121.462155","25.0304033333333","6500100","板橋區"
"220018","AAC-253","2017/09/28 15:47:26","新北市八里區荖阡坑路2號","121.3979","25.1437033333333","6500100","板橋區"
