"lineid","car","time","location","longitude","latitude","cityid","cityname"
"249005","172-UM","2017/09/28 16:56:02","新北市八里區渡船頭8-2號","121.431578333333","25.1523216666667","6502300","八里區"
"249001","173-UM","2017/09/28 16:56:10","新北市八里區商港路86號","121.395175","25.1464083333333","6502300","八里區"
"249002","305-UY","2017/09/28 16:54:07","新北市八里區牛寮埔29號","121.432265","25.1452316666667","6502300","八里區"
"249003","593-UM","2017/09/28 16:55:53","新北市八里區中山路二段277號","121.401781666667","25.1487466666667","6502300","八里區"
"244007","080-UY","2017/09/28 16:56:09","新北市林口區林口路222號","121.386883333333","25.083655","6501700","林口區"
"244019","403-UM","2017/09/28 16:55:51","新北市林口區粉寮路二段16號","121.402173333333","25.0858383333333","6501700","林口區"
"244009","410-SL","2017/09/28 16:55:59","新北市林口區粉寮69號","121.40503","25.0908866666667","6501700","林口區"
"244023","483-VK","2017/09/28 16:56:06","新北市林口區粉寮69號","121.40511","25.09084","6501700","林口區"
"244017","485-VK","2017/09/28 16:55:22","新北市林口區粉寮69號","121.404958333333","25.0909133333333","6501700","林口區"
"244011","656-BX","2017/09/28 16:56:00","新北市林口區粉寮69號","121.405001666667","25.0909616666667","6501700","林口區"
"244025","837-TS","2017/09/28 16:55:56","新北市林口區粉寮路二段160巷28號","121.405165","25.090815","6501700","林口區"
"244021","838-TS","2017/09/28 16:56:07","新北市林口區粉寮69號","121.404823333333","25.0908583333333","6501700","林口區"
"243009","297-R6","2017/09/28 16:08:38","新北市泰山區黎明路25號","121.421955","25.0610166666667","6501600","泰山區"
"231007","189-VK","2017/09/28 12:02:08","新北市新店區安華路28-1號","121.519581666667","24.9610383333333","6500600","新店區"
"231046","278-BY","2017/09/28 16:56:07","新北市新店區灣潭路15-2號","121.54237","24.9433166666667","6500600","新店區"
"241011","013-R5","2017/09/28 16:55:58","新北市三重區龍濱路283巷8號","121.501156666667","25.073765","6500200","三重區"
"241028","022-UY","2017/09/28 16:56:06","新北市三重區光興街205號","121.494851666667","25.0595766666667","6500200","三重區"
"241008","059-VK","2017/09/28 16:55:53","新北市三重區永安北路一段5號","121.475905","25.074585","6500200","三重區"
"241009","060-VK","2017/09/28 16:56:08","新北市三重區溪尾街218巷36號","121.48663","25.0809716666667","6500200","三重區"
"241031","061-VK","2017/09/28 16:55:59","新北市三重區三寧街10號","121.489085","25.0596116666667","6500200","三重區"
"241015","062-VK","2017/09/28 16:55:55","新北市三重區長元街74號","121.501071666667","25.06629","6500200","三重區"
"241017","063-VK","2017/09/28 16:55:51","新北市三重區國隆路6號","121.493485","25.0636916666667","6500200","三重區"
"241024","065-VK","2017/09/28 16:55:50","新北市三重區大勇街49號","121.481505","25.07186","6500200","三重區"
"241026","066-VK","2017/09/28 16:55:56","新北市三重區文化南路42號","121.500413333333","25.0602816666667","6500200","三重區"
"241002","090-VK","2017/09/28 16:56:06","新北市三重區仁義街143巷20號","121.49764","25.0808566666667","6500200","三重區"
"241003","091-VK","2017/09/28 16:56:07","新北市三重區五華街87巷42號","121.493565","25.0841316666667","6500200","三重區"
"241005","262-UM","2017/09/28 16:56:01","新北市三重區仁華街78號","121.484816666667","25.0829733333333","6500200","三重區"
"241016","266-UM","2017/09/28 16:55:51","新北市三重區大同北路115巷19號","121.493808333333","25.0647716666667","6500200","三重區"
"241022","267-UM","2017/09/28 16:56:03","新北市三重區中華路79號","121.483671666667","25.0626833333333","6500200","三重區"
"241018","268-UM","2017/09/28 16:55:57","新北市三重區民生東街6號","121.49263","25.0685133333333","6500200","三重區"
"241032","269-UM","2017/09/28 16:55:55","新北市三重區三光街3號","121.484991666667","25.0608866666667","6500200","三重區"
"241013","270-UM","2017/09/28 16:55:57","新北市三重區三和路三段101巷96號","121.49717","25.0732983333333","6500200","三重區"
"241025","271-UM","2017/09/28 16:56:01","新北市三重區中正北路361-2號","121.472501666667","25.071945","6500200","三重區"
"241007","398-BY","2017/09/28 16:55:53","新北市三重區仁愛街562號","121.485455","25.0815066666667","6500200","三重區"
"241023","KEA-2210","2017/09/28 16:55:57","新北市三重區中華路50巷1弄27號","121.483173333333","25.062635","6500200","三重區"
"241020","413-TH","2017/09/28 16:56:03","新北市三重區忠孝路二段34號","121.485758333333","25.07105","6500200","三重區"
"241004","475-VK","2017/09/28 16:55:53","新北市三重區五華街80號","121.493151666667","25.08206","6500200","三重區"
"241019","478-VK","2017/09/28 16:56:11","新北市三重區三張街149巷13號","121.486755","25.0700433333333","6500200","三重區"
"241030","480-VK","2017/09/28 16:56:09","新北市三重區環河南路221巷10號","121.49184","25.0522633333333","6500200","三重區"
"241014","543-UM","2017/09/28 16:55:54","新北市三重區三和路二段173巷65號","121.499775","25.0703616666667","6500200","三重區"
"241001","547-UM","2017/09/28 16:56:09","新北市三重區仁愛街192巷1號","121.49392","25.0771216666667","6500200","三重區"
"241006","AAD-863","2017/09/28 16:56:04","新北市三重區車路頭街128號","121.484048333333","25.0752966666667","6500200","三重區"
"241012","941-UM","2017/09/28 16:56:08","新北市三重區仁壽街208號","121.501571666667","25.0750816666667","6500200","三重區"
"241029","942-UM","2017/09/28 16:56:01","新北市三重區集美街257號","121.492393333333","25.0556166666667","6500200","三重區"
"241033","AAC-255","2017/09/28 16:55:57","新北市三重區新北大道二段65號","121.469056666667","25.0609616666667","6500200","三重區"
"235064","005-UY","2017/09/28 16:55:35","新北市中和區員山路36巷16-3號","121.485075","24.99146","6500300","中和區"
"235062","800-TS","2017/09/28 16:56:01","新北市中和區員山路36巷16-2號","121.485386666667","24.9913933333333","6500300","中和區"
"247020","500-BY","2017/09/28 16:56:03","新北市蘆洲區民族路422巷11號","121.473976666667","25.0924583333333","6501400","蘆洲區"
"247010","339-TH","2017/09/28 16:55:59","新北市蘆洲區信義路158-6號","121.479491666667","25.0839816666667","6501400","蘆洲區"
"247004","336-TH","2017/09/28 16:56:10","新北市蘆洲區長安街110號","121.46093","25.08157","6501400","蘆洲區"
"247016","057-VK","2017/09/28 16:55:59","新北市蘆洲區正和街10號","121.470303333333","25.0828283333333","6501400","蘆洲區"
"247006","056-VK","2017/09/28 16:56:06","新北市蘆洲區長安街99巷22號","121.460946666667","25.0800816666667","6501400","蘆洲區"
"247008","053-VK","2017/09/28 16:56:08","新北市蘆洲區中山一路197巷6弄2號","121.474663333333","25.0805666666667","6501400","蘆洲區"
"247014","007-UY","2017/09/28 16:55:59","新北市蘆洲區三民路89號","121.474323333333","25.0846566666667","6501400","蘆洲區"
"247024","002-UY","2017/09/28 16:56:06","新北市蘆洲區長興路255號","121.460516666667","25.0875516666667","6501400","蘆洲區"
"247018","001-UY","2017/09/28 16:55:57","新北市蘆洲區民族路344號","121.476775","25.090555","6501400","蘆洲區"
"228003","097-TW","2017/09/28 16:56:02","新北市貢寮區雙玉里田寮洋街21號","121.927805","25.02357","6502600","貢寮區"
"228001","212-TW","2017/09/28 16:56:02","新北市貢寮區貢寮里朝陽街1-2號","121.912218333333","25.0212666666667","6502600","貢寮區"
"228002","585-TW","2017/09/28 16:55:56","新北市貢寮區貢寮里長潭街25號","121.898251666667","25.0236616666667","6502600","貢寮區"
"224006","676-BX","2017/09/28 16:56:06","新北市瑞芳區大寮路356-1號","121.78479","25.1032933333333","6501200","瑞芳區"
"224009","285-BY","2017/09/28 16:55:52","新北市瑞芳區明燈路一段1號","121.826645","25.1093833333333","6501200","瑞芳區"
"224008","275-VK","2017/09/28 16:56:05","新北市瑞芳區明燈路一段194號","121.818731666667","25.1078883333333","6501200","瑞芳區"
"224007","273-VK","2017/09/28 16:55:57","新北市瑞芳區瑞竹路92號","121.762833333333","25.1036316666667","6501200","瑞芳區"
"224005","271-BY","2017/09/28 16:55:51","新北市瑞芳區明里路3-1號","121.868753333333","25.12087","6501200","瑞芳區"
"227010","642-TC","2017/09/28 16:55:58","新北市雙溪區牡丹里五分10號","121.866593333333","25.0471166666667","6502500","雙溪區"
"227004","400-TW","2017/09/28 16:55:53","新北市雙溪區長源里內柑腳12號","121.803116666667","25.015635","6502500","雙溪區"
"251009","008-UM","2017/09/28 16:55:51","新北市淡水區中正路二段31號","121.419313333333","25.1817633333333","6501000","淡水區"
"251007","179-VK","2017/09/28 16:56:02","新北市淡水區新生街2號","121.435468333333","25.1734816666667","6501000","淡水區"
"251008","181-VK","2017/09/28 16:56:04","新北市淡水區樹梅坑9號","121.472696666667","25.1427466666667","6501000","淡水區"
"251014","182-VK","2017/09/28 16:56:07","新北市淡水區淡金路四段472巷24號","121.452956666667","25.2238983333333","6501000","淡水區"
"251010","413-VK","2017/09/28 16:56:03","新北市淡水區新民街一段117號","121.428023333333","25.1878816666667","6501000","淡水區"
"251012","441-VK","2017/09/28 16:56:03","新北市淡水區中正東路36-1號","121.448881666667","25.16579","6501000","淡水區"
"251016","442-VK","2017/09/28 16:56:06","新北市淡水區水頭42號","121.478155","25.1851183333333","6501000","淡水區"
"251005","443-VK","2017/09/28 16:56:02","新北市淡水區中正路334號","121.43579","25.17338","6501000","淡水區"
"251006","561-UM","2017/09/28 16:56:11","新北市淡水區中正路二段31號","121.419561666667","25.1815933333333","6501000","淡水區"
"251011","650-BX","2017/09/28 16:56:00","新北市淡水區中正東路36-1號","121.448886666667","25.1657266666667","6501000","淡水區"
"252005","073-UM","2017/09/28 15:31:15","新北市三芝區埔坪里埔頭坑41號","121.504438333333","25.2644933333333","6502100","三芝區"
"252002","178-VK","2017/09/28 16:56:02","新北市三芝區忠孝街173號","121.505415","25.2614233333333","6502100","三芝區"
"252001","292-VK","2017/09/28 16:56:02","新北市三芝區淡金路二段76-1號","121.503855","25.260825","6502100","三芝區"
"236056","912-UM","2017/09/28 16:55:54","新北市土城區福安街116-1號","121.416036666667","24.964755","6501300","土城區"
"242051","751-BX","2017/09/28 16:56:09","新北市新莊區新泰路357巷3弄57號","121.441861666667","25.03918","6500500","新莊區"
"242027","612-BX","2017/09/28 16:55:54","新北市新莊區新泰路357巷3弄57號","121.442246666667","25.0393216666667","6500500","新莊區"
"242039","566-BX","2017/09/28 16:55:59","新北市新莊區新泰路357巷3弄57號","121.441886666667","25.0390533333333","6500500","新莊區"
"242061","362-BY","2017/09/28 10:04:11","新北市新莊區三和路12-21號","121.442215","25.0386466666667","6500500","新莊區"
"242036","133-UY","2017/09/28 16:55:56","新北市新莊區新泰路255巷83號","121.442053333333","25.0389016666667","6500500","新莊區"
"242013","346-TH","2017/09/28 10:53:33","新北市板橋區大觀路二段156巷99號","121.440401666667","25.0011366666667","6500500","新莊區"
"242019","348-TH","2017/09/28 16:56:07","新北市新莊區新泰路357巷3弄57號","121.442086666667","25.0396266666667","6500500","新莊區"
"242011","351-TH","2017/09/28 16:56:00","新北市新莊區新泰路357巷3弄57號","121.441805","25.0395666666667","6500500","新莊區"
"238019","599-UM","2017/09/28 16:56:01","新北市樹林區太平路247巷26-1號","121.420418333333","24.97517","6500700","樹林區"
"238004","283-BY","2017/09/28 16:56:07","新北市樹林區光武街28號","121.415805","25.0054133333333","6500700","樹林區"
"238001","282-BY","2017/09/28 16:55:52","新北市樹林區大慶街99-1號","121.42762","24.9997166666667","6500700","樹林區"
"238020","268-VK","2017/09/28 16:56:05","新北市樹林區環河路10號","121.427475","24.97845","6500700","樹林區"
"239007","AAC-297","2017/09/28 04:56:03","新北市鶯歌區二甲路13-16號","121.344955","24.9351833333333","6500800","鶯歌區"
"239008","527-UM","2017/09/28 02:09:00","新北市鶯歌區二甲路13-16號","121.345185","24.935085","6500800","鶯歌區"
"239005","526-UM","2017/09/27 03:59:10","新北市鶯歌區二甲路13-16號","121.345036666667","24.9353133333333","6500800","鶯歌區"
"239001","417-VK","2017/09/28 11:01:24","新北市鶯歌區二甲路171-1號","121.343813333333","24.9356516666667","6500800","鶯歌區"
"239003","360-BY","2017/09/28 16:56:06","新北市鶯歌區二甲路13-16號","121.345523333333","24.9352483333333","6500800","鶯歌區"
"239002","359-BY","2017/09/28 10:46:36","新北市鶯歌區二甲路13號","121.343885","24.935505","6500800","鶯歌區"
"221010","269-BY","2017/09/28 15:11:17","新北市汐止區汐萬路一段256巷3號","121.652116666667","25.0748433333333","6501100","汐止區"
"221012","276-VK","2017/09/28 13:19:47","新北市汐止區汐萬路一段256巷3號","121.653443333333","25.0746416666667","6501100","汐止區"
"221035","622-UM","2017/09/28 14:49:08","新北市汐止區汐萬路一段256巷3號","121.652053333333","25.074835","6501100","汐止區"
"242034","280-VK","2017/09/28 16:56:06","新北市新莊區三和路12-21號","121.442026666667","25.0382616666667","6500500","新莊區"
"220018","AAC-253","2017/09/28 16:56:06","新北市板橋區華東街1-9號","121.448121666667","24.9949883333333","6500100","板橋區"
