"lineid","car","time","location","longitude","latitude","cityid","cityname"
"234026","9371-KE","2017/09/28 17:19:55","新北市永和區福和路1號","121.526398333333","25.0098183333333","6500400","永和區"
"249005","172-UM","2017/09/28 17:19:21","新北市五股區中直路崩山巷9-2號","121.417503333333","25.1250616666667","6502300","八里區"
"249001","173-UM","2017/09/28 17:13:10","新北市八里區中華路二段165巷21號","121.40879","25.1503583333333","6502300","八里區"
"249004","303-UY","2017/09/28 17:20:01","新北市八里區文化街76號","121.421961666667","25.1601033333333","6502300","八里區"
"249002","305-UY","2017/09/28 17:19:47","新北市八里區龍米路二段117巷37號","121.443363333333","25.141935","6502300","八里區"
"249003","593-UM","2017/09/28 17:19:53","新北市八里區商港路80號","121.395485","25.1463983333333","6502300","八里區"
"244013","069-UM","2017/09/28 17:19:44","新北市林口區粉寮69號","121.405086666667","25.09087","6501700","林口區"
"244007","080-UY","2017/09/28 17:19:48","新北市林口區中華路355號","121.381106666667","25.0925966666667","6501700","林口區"
"244019","403-UM","2017/09/28 17:19:11","新北市林口區公園路233-4號","121.376035","25.0756116666667","6501700","林口區"
"244009","410-SL","2017/09/28 17:19:59","新北市林口區松柏路82號","121.379145","25.09007","6501700","林口區"
"244023","483-VK","2017/09/28 17:19:46","新北市林口區仁愛路一段667巷5號","121.387758333333","25.0760633333333","6501700","林口區"
"244017","485-VK","2017/09/28 17:19:42","新北市林口區粉寮69號","121.405038333333","25.0909316666667","6501700","林口區"
"244011","656-BX","2017/09/28 17:20:00","新北市林口區粉寮路1號","121.397726666667","25.08016","6501700","林口區"
"244025","837-TS","2017/09/28 17:19:56","新北市林口區中山路416號","121.380756666667","25.08216","6501700","林口區"
"244021","838-TS","2017/09/28 17:19:47","新北市林口區粉寮路二段160巷8號","121.404703333333","25.0934083333333","6501700","林口區"
"243009","297-R6","2017/09/28 16:08:38","新北市泰山區黎明路25號","121.421955","25.0610166666667","6501600","泰山區"
"231007","189-VK","2017/09/28 12:02:08","新北市新店區安華路28-1號","121.519581666667","24.9610383333333","6500600","新店區"
"231046","278-BY","2017/09/28 17:19:47","新北市新店區直潭路92號","121.530956666667","24.93766","6500600","新店區"
"241011","013-R5","2017/09/28 17:19:58","新北市三重區河邊北街100巷19號","121.503148333333","25.0702866666667","6500200","三重區"
"241028","022-UY","2017/09/28 17:19:46","新北市三重區仁化商場11號","121.493676666667","25.0593166666667","6500200","三重區"
"241008","059-VK","2017/09/28 17:19:53","新北市三重區下竹圍街8號","121.480855","25.0758933333333","6500200","三重區"
"241009","060-VK","2017/09/28 17:19:48","新北市三重區仁愛街600巷5號","121.483986666667","25.080755","6500200","三重區"
"241015","062-VK","2017/09/28 17:19:55","新北市三重區長元街82-1號","121.50184","25.06631","6500200","三重區"
"241017","063-VK","2017/09/28 17:19:51","新北市三重區中正北路25巷6號","121.49335","25.0627833333333","6500200","三重區"
"241024","065-VK","2017/09/28 17:19:50","新北市三重區中正北路193巷21弄6號","121.476431666667","25.0704633333333","6500200","三重區"
"241026","066-VK","2017/09/28 17:19:56","新北市三重區福裕街31號","121.49927","25.061605","6500200","三重區"
"241002","090-VK","2017/09/28 17:19:46","新北市三重區自強路五段23號","121.493141666667","25.0807316666667","6500200","三重區"
"241003","091-VK","2017/09/28 17:19:47","新北市三重區富福街64號","121.492065","25.084635","6500200","三重區"
"241005","262-UM","2017/09/28 17:20:01","新北市三重區永安北路二段13號","121.481988333333","25.0814766666667","6500200","三重區"
"241016","266-UM","2017/09/28 17:19:51","新北市三重區大同北路54巷1號","121.494196666667","25.063515","6500200","三重區"
"241022","267-UM","2017/09/28 17:19:42","新北市三重區重陽路二段34巷1號","121.486703333333","25.0631583333333","6500200","三重區"
"241018","268-UM","2017/09/28 17:19:57","新北市三重區安慶街151號","121.494391666667","25.0688133333333","6500200","三重區"
"241032","269-UM","2017/09/28 17:19:55","新北市三重區興華街107號","121.483903333333","25.05992","6500200","三重區"
"241013","270-UM","2017/09/28 17:19:57","新北市三重區仁福街52號","121.49748","25.074645","6500200","三重區"
"241025","271-UM","2017/09/28 17:20:01","新北市三重區中正北路253號","121.475405","25.070785","6500200","三重區"
"241007","398-BY","2017/09/28 17:19:53","新北市三重區慈愛街9-1號","121.48519","25.0785866666667","6500200","三重區"
"241023","KEA-2210","2017/09/28 17:19:57","新北市三重區三民街152號","121.482388333333","25.0651133333333","6500200","三重區"
"241020","413-TH","2017/09/28 17:19:43","新北市三重區自強路三段72號","121.486823333333","25.0732816666667","6500200","三重區"
"241004","475-VK","2017/09/28 17:19:53","新北市三重區仁愛街425巷90號","121.492085","25.0828133333333","6500200","三重區"
"241019","478-VK","2017/09/28 17:19:51","新北市三重區三張街149巷2號","121.48657","25.06959","6500200","三重區"
"241030","480-VK","2017/09/28 17:19:49","新北市三重區集成路36號","121.488806666667","25.0525433333333","6500200","三重區"
"241014","543-UM","2017/09/28 17:19:54","新北市三重區長榮路67號","121.502243333333","25.068965","6500200","三重區"
"241001","547-UM","2017/09/28 17:19:54","新北市三重區仁愛街310號","121.49204","25.0796866666667","6500200","三重區"
"241012","941-UM","2017/09/28 17:19:48","新北市三重區河邊北街254號","121.501731666667","25.0762833333333","6500200","三重區"
"241029","942-UM","2017/09/28 17:20:01","新北市三重區重新路四段86號","121.488025","25.0573833333333","6500200","三重區"
"241033","AAC-255","2017/09/28 17:19:57","新北市三重區中興北街219號","121.46903","25.0584983333333","6500200","三重區"
"235064","005-UY","2017/09/28 16:55:35","新北市中和區員山路36巷16-3號","121.485075","24.99146","6500300","中和區"
"235061","378-QA","2017/09/28 17:15:22","新北市中和區員山路36巷16-2號","121.48529","24.9917466666667","6500300","中和區"
"235062","800-TS","2017/09/28 17:01:48","新北市中和區員山路36巷16-3號","121.484796666667","24.991585","6500300","中和區"
"247022","893-R6","2017/09/28 17:19:57","新北市蘆洲區三民路128巷29-2號","121.470071666667","25.0893233333333","6501400","蘆洲區"
"247012","546-UM","2017/09/28 17:20:01","新北市蘆洲區信義路319巷6號","121.477885","25.086275","6501400","蘆洲區"
"247020","500-BY","2017/09/28 17:19:43","新北市蘆洲區民族路446-5號","121.472606666667","25.0922483333333","6501400","蘆洲區"
"247010","339-TH","2017/09/28 17:19:59","新北市蘆洲區中山一路120巷7弄26號","121.477311666667","25.0819033333333","6501400","蘆洲區"
"247002","337-TH","2017/09/28 17:19:49","新北市蘆洲區永樂街38巷33弄8號","121.457695","25.08962","6501400","蘆洲區"
"247004","336-TH","2017/09/28 17:19:50","新北市蘆洲區中原路58號","121.458903333333","25.0822483333333","6501400","蘆洲區"
"247016","057-VK","2017/09/28 17:19:59","新北市蘆洲區正和街89號","121.468143333333","25.0805283333333","6501400","蘆洲區"
"247006","056-VK","2017/09/28 17:19:46","新北市蘆洲區長安街49巷5號","121.463073333333","25.0792483333333","6501400","蘆洲區"
"247008","053-VK","2017/09/28 17:19:48","新北市蘆洲區永安北路一段72巷31號","121.47622","25.07692","6501400","蘆洲區"
"247014","007-UY","2017/09/28 17:19:53","新北市蘆洲區得勝街100號","121.471263333333","25.0829483333333","6501400","蘆洲區"
"247024","002-UY","2017/09/28 17:19:46","新北市蘆洲區長榮路156-6號","121.460726666667","25.08546","6501400","蘆洲區"
"247018","001-UY","2017/09/28 17:19:57","新北市蘆洲區民權路96巷1弄2號","121.474303333333","25.0882933333333","6501400","蘆洲區"
"228003","097-TW","2017/09/28 17:20:02","新北市貢寮區福隆里興隆街24-1號","121.944441666667","25.0166866666667","6502600","貢寮區"
"228001","212-TW","2017/09/28 17:20:02","新北市貢寮區仁理村尖山腳街18-3號","121.92551","25.0483466666667","6502600","貢寮區"
"228002","585-TW","2017/09/28 17:19:55","新北市貢寮區雙玉里下雙溪街28-1號","121.92514","25.01197","6502600","貢寮區"
"224010","AGQ-8101","2017/09/28 17:20:01","新北市瑞芳區明燈路二段44-1號","121.8096","25.10822","6501200","瑞芳區"
"224006","676-BX","2017/09/28 17:19:46","新北市瑞芳區大寮路45號","121.78209","25.09837","6501200","瑞芳區"
"224009","285-BY","2017/09/28 17:19:52","新北市瑞芳區汽車路159號","121.838288333333","25.1098966666667","6501200","瑞芳區"
"224008","275-VK","2017/09/28 17:19:46","新北市瑞芳區侯硐路115號","121.831343333333","25.0897016666667","6501200","瑞芳區"
"224005","271-BY","2017/09/28 17:19:51","新北市瑞芳區鼻頭路247號","121.904666666667","25.12171","6501200","瑞芳區"
"227010","642-TC","2017/09/28 17:19:58","新北市雙溪區三貂里十三層5-3號","121.85229","25.0766183333333","6502500","雙溪區"
"227004","400-TW","2017/09/28 17:19:53","新北市雙溪區上林里新寮子15號","121.835281666667","25.0305683333333","6502500","雙溪區"
"251009","008-UM","2017/09/28 17:19:51","新北市淡水區三民街20號","121.439016666667","25.1717533333333","6501000","淡水區"
"251007","179-VK","2017/09/28 17:20:02","新北市淡水區民生路47-4號","121.462115","25.1379833333333","6501000","淡水區"
"251004","180-VK","2017/09/28 17:19:50","新北市淡水區中正東路一段13號","121.451216666667","25.1637316666667","6501000","淡水區"
"251008","181-VK","2017/09/28 17:19:44","新北市淡水區大同路269號","121.467085","25.1422833333333","6501000","淡水區"
"251014","182-VK","2017/09/28 17:19:47","新北市淡水區公埔子45號","121.463981666667","25.2302383333333","6501000","淡水區"
"251010","413-VK","2017/09/28 17:19:44","新北市淡水區中正路二段215號","121.426241666667","25.1893","6501000","淡水區"
"251012","441-VK","2017/09/28 17:19:46","新北市淡水區中山北路一段156號","121.444163333333","25.1779633333333","6501000","淡水區"
"251016","442-VK","2017/09/28 17:19:46","新北市淡水區埤島64-2號","121.461873333333","25.190665","6501000","淡水區"
"251005","443-VK","2017/09/28 17:20:02","新北市淡水區鄧公路19-1號","121.450291666667","25.16997","6501000","淡水區"
"251006","561-UM","2017/09/28 17:19:51","新北市淡水區中山路190號","121.441536666667","25.1746033333333","6501000","淡水區"
"251011","650-BX","2017/09/28 17:20:00","新北市淡水區坪頂路128號","121.465171666667","25.16113","6501000","淡水區"
"251002","672-BX","2017/09/28 17:19:57","新北市淡水區中正路二段31號","121.419415","25.1817666666667","6501000","淡水區"
"251003","766-UM","2017/09/28 17:19:59","新北市淡水區中正路二段31號","121.419425","25.1818166666667","6501000","淡水區"
"207003","550-UM","2017/09/28 17:19:54","新北市萬里區龜吼里美崙路53號","121.687315","25.18384","6502800","萬里區"
"252005","073-UM","2017/09/28 15:31:15","新北市三芝區埔坪里埔頭坑41號","121.504438333333","25.2644933333333","6502100","三芝區"
"252002","178-VK","2017/09/28 17:19:41","新北市三芝區忠孝街1-14號","121.505343333333","25.2539466666667","6502100","三芝區"
"252001","292-VK","2017/09/28 17:20:02","新北市三芝區長安街119號","121.498055","25.2597033333333","6502100","三芝區"
"237012","275-BY","2017/09/28 17:19:57","新北市三峽區中山路459巷137號","121.350025","24.9340033333333","6500900","三峽區"
"242031","AAC-296","2017/09/28 17:19:58","新北市新莊區新泰路357巷3弄57號","121.441881666667","25.0391916666667","6500500","新莊區"
"242029","986-R7","2017/09/28 17:19:56","新北市新莊區新泰路361巷23號","121.442383333333","25.043045","6500500","新莊區"
"242051","751-BX","2017/09/28 17:19:49","新北市新莊區瓊林南路42巷2-2號","121.436068333333","25.0181333333333","6500500","新莊區"
"242025","615-BX","2017/09/28 17:19:58","新北市新莊區中港一街141號","121.447986666667","25.0450733333333","6500500","新莊區"
"242023","613-BX","2017/09/28 17:19:47","新北市新莊區中港一街142號","121.446763333333","25.0449883333333","6500500","新莊區"
"242027","612-BX","2017/09/28 17:19:54","新北市新莊區新泰路502巷8號","121.442751666667","25.0464116666667","6500500","新莊區"
"242039","566-BX","2017/09/28 17:19:59","新北市新莊區新樹路181-2號","121.436083333333","25.02442","6500500","新莊區"
"242044","497-BY","2017/09/28 17:19:42","新北市新莊區富國路101-1號","121.421383333333","25.0256266666667","6500500","新莊區"
"242048","441-UM","2017/09/28 17:20:00","新北市新莊區龍安路253號","121.419678333333","25.02011","6500500","新莊區"
"242053","440-UM","2017/09/28 17:19:57","新北市新莊區瓊林路59-66號","121.441453333333","25.0228433333333","6500500","新莊區"
"242004","413-TV","2017/09/28 17:20:03","新北市新莊區新泰路502巷6號","121.442706666667","25.04642","6500500","新莊區"
"242042","400-BY","2017/09/28 17:19:52","新北市新莊區新樹路113巷15號","121.438558333333","25.0267633333333","6500500","新莊區"
"242061","362-BY","2017/09/28 17:20:02","新北市新莊區中正路384-1號","121.442015","25.0353833333333","6500500","新莊區"
"242058","353-BY","2017/09/28 17:19:48","新北市泰山區磚雅厝3號","121.442418333333","25.0420866666667","6500500","新莊區"
"242007","132-UY","2017/09/28 17:19:46","新北市新莊區新泰路381巷38號","121.442418333333","25.0437083333333","6500500","新莊區"
"242036","133-UY","2017/09/28 17:19:56","新北市新莊區新樹路181號","121.436321666667","25.0248116666667","6500500","新莊區"
"242021","135-UY","2017/09/28 17:19:50","新北市新莊區中港路246號","121.453826666667","25.0433166666667","6500500","新莊區"
"242046","172-VK","2017/09/28 17:19:48","新北市新莊區中正路481號","121.441215","25.0338233333333","6500500","新莊區"
"242009","173-VK","2017/09/28 14:55:03","新北市新莊區新泰路255巷83號","121.442371666667","25.0387983333333","6500500","新莊區"
"242015","175-VK","2017/09/28 17:19:43","新北市新莊區新泰路488號","121.442561666667","25.0459333333333","6500500","新莊區"
"242002","176-VK","2017/09/28 17:20:00","新北市新莊區中環路一段287號","121.442015","25.0320166666667","6500500","新莊區"
"242013","346-TH","2017/09/28 10:53:33","新北市板橋區大觀路二段156巷99號","121.440401666667","25.0011366666667","6500500","新莊區"
"242019","348-TH","2017/09/28 17:19:44","新北市新莊區中港一街161號","121.44703","25.04492","6500500","新莊區"
"242056","349-TH","2017/09/28 17:19:53","新北市泰山區磚雅厝3號","121.442261666667","25.0417083333333","6500500","新莊區"
"242017","350-TH","2017/09/28 17:19:58","新北市新莊區新泰路502巷51號","121.444255","25.046455","6500500","新莊區"
"242011","351-TH","2017/09/28 17:20:00","新北市新莊區新泰路502巷30號","121.443355","25.0464433333333","6500500","新莊區"
"238015","755-BX","2017/09/28 17:19:54","新北市樹林區中山路三段27號","121.401533333333","24.9754983333333","6500700","樹林區"
"238023","601-UM","2017/09/28 17:19:48","新北市樹林區中正路433號","121.415011666667","25.0085133333333","6500700","樹林區"
"238019","599-UM","2017/09/28 17:20:01","新北市樹林區八德街160號","121.42169","24.97819","6500700","樹林區"
"238018","571-TV","2017/09/28 17:19:51","新北市樹林區中華路1-6號","121.425616666667","24.9844383333333","6500700","樹林區"
"238024","5061-A6","2017/09/28 17:19:54","新北市樹林區博愛一街29巷64號","121.425996666667","24.991645","6500700","樹林區"
"238021","KEA-2217","2017/09/28 17:20:04","新北市樹林區西圳街一段165巷12號","121.395681666667","24.96156","6500700","樹林區"
"238022","KEA-2213","2017/09/28 17:19:51","新北市樹林區忠孝街31號","121.423755","24.9822116666667","6500700","樹林區"
"238025","303-VK","2017/09/28 17:19:58","新北市樹林區保安二街55號","121.424648333333","24.9945433333333","6500700","樹林區"
"238017","283-BY","2017/09/28 17:19:47","新北市樹林區光武街28號","121.415815","25.0054266666667","6500700","樹林區"
"238001","282-BY","2017/09/28 17:19:52","新北市樹林區千歲街69號","121.42726","24.9988266666667","6500700","樹林區"
"238020","268-VK","2017/09/28 17:19:45","新北市樹林區中正路22-1號","121.427818333333","24.9993416666667","6500700","樹林區"
"238026","172-UY","2017/09/28 17:20:02","新北市樹林區東大街166號","121.409585","24.97571","6500700","樹林區"
"238016","169-UY","2017/09/28 17:19:50","新北市樹林區中山路二段10號","121.417546666667","24.9850033333333","6500700","樹林區"
"239007","AAC-297","2017/09/28 17:19:50","新北市鶯歌區光復街5號","121.351731666667","24.9548816666667","6500800","鶯歌區"
"239006","891-R6","2017/09/28 17:19:56","新北市鶯歌區鶯桃路301號","121.333636666667","24.9606833333333","6500800","鶯歌區"
"239008","527-UM","2017/09/28 17:20:00","新北市鶯歌區西湖街279巷23號","121.341006666667","24.967835","6500800","鶯歌區"
"239005","526-UM","2017/09/28 17:20:02","新北市鶯歌區福德三街23號","121.329466666667","24.9672233333333","6500800","鶯歌區"
"239001","417-VK","2017/09/28 17:19:59","新北市鶯歌區尖山路186號","121.344368333333","24.9474283333333","6500800","鶯歌區"
"239003","360-BY","2017/09/28 17:19:46","新北市鶯歌區德昌街98號","121.33242","24.9602466666667","6500800","鶯歌區"
"239002","359-BY","2017/09/28 17:19:54","新北市鶯歌區南雅路55號","121.348116666667","24.95414","6500800","鶯歌區"
"239004","193-VK","2017/09/28 17:19:51","新北市鶯歌區文化路423號","121.353596666667","24.94911","6500800","鶯歌區"
"221010","269-BY","2017/09/28 17:20:00","新北市汐止區汐萬路一段256巷3號","121.652161666667","25.0748733333333","6501100","汐止區"
"221012","276-VK","2017/09/28 13:19:47","新北市汐止區汐萬路一段256巷3號","121.653443333333","25.0746416666667","6501100","汐止區"
"221035","622-UM","2017/09/28 17:19:45","新北市汐止區汐萬路一段256巷1號","121.652031666667","25.07488","6501100","汐止區"
"242034","280-VK","2017/09/28 17:19:47","新北市新莊區瓊林路48號","121.44639","25.0288533333333","6500500","新莊區"
