"lineid","car","time","location","longitude","latitude","cityid","cityname"
"234026","9371-KE","2017/09/28 17:39:55","新北市永和區永平路12巷14號","121.513908333333","25.0093966666667","6500400","永和區"
"249005","172-UM","2017/09/28 17:39:41","新北市八里區荖阡坑路34號","121.402743333333","25.1298016666667","6502300","八里區"
"249001","173-UM","2017/09/28 17:39:50","新北市八里區龍米路二段152-1號","121.435583333333","25.1571116666667","6502300","八里區"
"249004","303-UY","2017/09/28 17:39:41","新北市八里區賢三街86號","121.417428333333","25.1578783333333","6502300","八里區"
"249002","305-UY","2017/09/28 17:39:07","新北市八里區石壁腳6-2號","121.435698333333","25.1348533333333","6502300","八里區"
"249003","593-UM","2017/09/28 17:39:53","新北市八里區中山路二段201號","121.404126666667","25.149755","6502300","八里區"
"248006","077-UY","2017/09/28 17:39:54","新北市五股區中興路二段83巷26-6號","121.459888333333","25.0750666666667","6501500","五股區"
"232011","375-UM","2017/09/28 17:39:58","新北市坪林區水柳腳34號","121.71021","24.9353066666667","6502000","坪林區"
"244013","069-UM","2017/09/28 17:39:44","新北市林口區中正路555號","121.381156666667","25.076925","6501700","林口區"
"244007","080-UY","2017/09/28 17:39:48","新北市林口區中華路283號","121.383816666667","25.0909266666667","6501700","林口區"
"244019","403-UM","2017/09/28 17:39:51","新北市林口區文化一路一段111號","121.373073333333","25.0710566666667","6501700","林口區"
"244009","410-SL","2017/09/28 17:39:38","新北市林口區中北三街178號","121.38313","25.08277","6501700","林口區"
"244023","483-VK","2017/09/28 17:39:46","新北市林口區東明一街121巷13號","121.390156666667","25.0701133333333","6501700","林口區"
"244017","485-VK","2017/09/28 17:39:43","新北市林口區仁愛路二段201-1號","121.378138333333","25.07469","6501700","林口區"
"244011","656-BX","2017/09/28 17:39:40","新北市林口區佳林路219號","121.383678333333","25.076515","6501700","林口區"
"244025","837-TS","2017/09/28 17:39:56","新北市林口區忠孝路308巷21號","121.367288333333","25.0721883333333","6501700","林口區"
"244021","838-TS","2017/09/28 17:39:47","新北市林口區東林街22號","121.395821666667","25.079145","6501700","林口區"
"243009","297-R6","2017/09/28 16:08:38","新北市泰山區黎明路25號","121.421955","25.0610166666667","6501600","泰山區"
"222003","436-BY","2017/09/28 17:39:46","新北市深坑區深南路51-1號","121.621256666667","25.009695","6501800","深坑區"
"231007","189-VK","2017/09/28 12:02:08","新北市新店區安華路28-1號","121.519581666667","24.9610383333333","6500600","新店區"
"231046","278-BY","2017/09/28 17:39:47","新北市新店區直潭路92號","121.530978333333","24.93767","6500600","新店區"
"241017","063-VK","2017/09/28 17:39:51","新北市三重區大同北路34巷34號","121.494355","25.062335","6500200","三重區"
"241005","262-UM","2017/09/28 17:39:41","新北市三重區碧華街85號","121.485263333333","25.0816066666667","6500200","三重區"
"241016","266-UM","2017/09/28 17:39:51","新北市三重區正義北路49號","121.497431666667","25.0640683333333","6500200","三重區"
"241013","270-UM","2017/09/28 17:39:57","新北市三重區三和路三段107巷26號","121.49512","25.07317","6500200","三重區"
"241007","398-BY","2017/09/28 17:39:53","新北市三重區車路頭街135-1號","121.484261666667","25.0760066666667","6500200","三重區"
"241023","KEA-2210","2017/09/28 17:40:01","新北市三重區洛陽街47號","121.481968333333","25.0632466666667","6500200","三重區"
"241019","478-VK","2017/09/28 17:39:56","新北市三重區自強路二段20號","121.489721666667","25.069095","6500200","三重區"
"241030","480-VK","2017/09/28 17:39:49","新北市三重區重新路四段121號","121.484918333333","25.0511733333333","6500200","三重區"
"241014","543-UM","2017/09/28 17:39:54","新北市三重區長壽街196號","121.504066666667","25.0690466666667","6500200","三重區"
"241024","743-BX","2017/09/28 17:37:53","新北市三重區力行路二段2號","121.481928333333","25.0718483333333","6500200","三重區"
"241012","941-UM","2017/09/28 17:39:48","新北市三重區仁興街39巷95號","121.501091666667","25.0765116666667","6500200","三重區"
"241033","AAC-255","2017/09/28 17:39:57","新北市三重區興德路145-2號","121.469311666667","25.052685","6500200","三重區"
"235064","005-UY","2017/09/28 17:39:47","新北市中和區員山路36巷16-3號","121.485058333333","24.9913633333333","6500300","中和區"
"235061","378-QA","2017/09/28 17:15:22","新北市中和區員山路36巷16-2號","121.48529","24.9917466666667","6500300","中和區"
"235062","800-TS","2017/09/28 17:39:52","新北市中和區員山路36巷16-3號","121.484841666667","24.9916333333333","6500300","中和區"
"247022","893-R6","2017/09/28 17:39:56","新北市蘆洲區三民路283號","121.467206666667","25.089785","6501400","蘆洲區"
"247012","546-UM","2017/09/28 17:39:41","新北市蘆洲區民權路25號","121.476153333333","25.0863133333333","6501400","蘆洲區"
"247020","500-BY","2017/09/28 17:39:43","新北市蘆洲區民族路440號","121.47308","25.0919333333333","6501400","蘆洲區"
"247010","339-TH","2017/09/28 17:39:39","新北市蘆洲區中山一路78號","121.4784","25.0812483333333","6501400","蘆洲區"
"247002","337-TH","2017/09/28 17:39:48","新北市蘆洲區永平街29號","121.45858","25.0909483333333","6501400","蘆洲區"
"247004","336-TH","2017/09/28 17:39:50","新北市蘆洲區長安街249巷34號","121.458005","25.0827466666667","6501400","蘆洲區"
"247016","057-VK","2017/09/28 17:39:59","新北市蘆洲區光華路48號","121.468726666667","25.0830333333333","6501400","蘆洲區"
"247006","056-VK","2017/09/28 17:39:46","新北市蘆洲區長安街23巷25號","121.463353333333","25.0782933333333","6501400","蘆洲區"
"247008","053-VK","2017/09/28 17:39:48","新北市蘆洲區民生街76號","121.472678333333","25.079195","6501400","蘆洲區"
"247014","007-UY","2017/09/28 17:39:53","新北市蘆洲區中山二路32號","121.474665","25.0820266666667","6501400","蘆洲區"
"247024","002-UY","2017/09/28 17:39:46","新北市蘆洲區長樂路125-1號","121.462138333333","25.08804","6501400","蘆洲區"
"247018","001-UY","2017/09/28 17:39:57","新北市蘆洲區民權路79號","121.473346666667","25.0886216666667","6501400","蘆洲區"
"228003","097-TW","2017/09/28 17:39:41","新北市貢寮區仁理村仁和路23號","121.923876666667","25.0536833333333","6502600","貢寮區"
"228001","212-TW","2017/09/28 17:39:42","新北市貢寮區仁理村仁愛路95-1號","121.927686666667","25.0554733333333","6502600","貢寮區"
"228002","585-TW","2017/09/28 17:39:35","新北市貢寮區福隆里外隆林街14-1號","121.959123333333","25.0036533333333","6502600","貢寮區"
"224010","AGQ-8101","2017/09/28 17:36:40","新北市瑞芳區逢甲路45號","121.80823","25.1089283333333","6501200","瑞芳區"
"224006","676-BX","2017/09/28 17:39:59","新北市瑞芳區中山路365號","121.79635","25.1101383333333","6501200","瑞芳區"
"224002","639-TC","2017/09/28 17:40:01","新北市瑞芳區明燈路二段44-1號","121.809618333333","25.1081416666667","6501200","瑞芳區"
"224009","285-BY","2017/09/28 17:39:52","新北市瑞芳區崙頂路3-1號","121.845235","25.10454","6501200","瑞芳區"
"224008","275-VK","2017/09/28 17:39:44","新北市瑞芳區瑞柑新村60號","121.827953333333","25.1069066666667","6501200","瑞芳區"
"224007","273-VK","2017/09/28 17:39:56","新北市瑞芳區靜安路四段3號","121.793675","25.08082","6501200","瑞芳區"
"224005","271-BY","2017/09/28 17:39:51","新北市瑞芳區籠山路26號","121.832305","25.1230866666667","6501200","瑞芳區"
"208002","742-BX","2017/09/28 17:39:39","新北市金山區磺清路135號","121.639435","25.2277816666667","6502700","金山區"
"208001","761-BX","2017/09/28 17:39:55","新北市金山區磺清路135號","121.63939","25.2278716666667","6502700","金山區"
"251009","008-UM","2017/09/28 17:39:51","新北市淡水區中正路36號","121.44379","25.1692783333333","6501000","淡水區"
"251001","011-UM","2017/09/28 17:39:41","新北市淡水區自強路201巷39號","121.462203333333","25.1267383333333","6501000","淡水區"
"251007","179-VK","2017/09/28 17:39:41","新北市淡水區民生路124巷14號","121.464001666667","25.1378783333333","6501000","淡水區"
"251004","180-VK","2017/09/28 17:39:50","新北市淡水區中正東路二段88巷37-22號","121.459325","25.1438216666667","6501000","淡水區"
"251008","181-VK","2017/09/28 17:39:44","新北市淡水區八勢路30巷19號","121.462555","25.15373","6501000","淡水區"
"251014","182-VK","2017/09/28 17:39:47","新北市淡水區公埔子16-6號","121.480993333333","25.22438","6501000","淡水區"
"251010","413-VK","2017/09/28 17:39:44","新北市淡水區淡海路280巷16號","121.419858333333","25.1896566666667","6501000","淡水區"
"251012","441-VK","2017/09/28 17:39:46","新北市淡水區北新路200巷8號","121.451715","25.17968","6501000","淡水區"
"251016","442-VK","2017/09/28 17:39:46","新北市淡水區埤島39-15號","121.452793333333","25.19589","6501000","淡水區"
"251005","443-VK","2017/09/28 17:39:42","新北市淡水區鄧公路33巷7號","121.451708333333","25.17105","6501000","淡水區"
"251006","561-UM","2017/09/28 17:39:51","新北市淡水區大信街30號","121.44203","25.1769666666667","6501000","淡水區"
"251011","650-BX","2017/09/28 17:39:40","新北市淡水區小坪頂12-2號","121.486943333333","25.156125","6501000","淡水區"
"251002","672-BX","2017/09/28 17:39:56","新北市淡水區文化路15號","121.439591666667","25.1726133333333","6501000","淡水區"
"251003","766-UM","2017/09/28 17:39:59","新北市淡水區大忠街8號","121.443063333333","25.17633","6501000","淡水區"
"207003","550-UM","2017/09/28 17:39:54","新北市萬里區野柳里東澳路20號","121.691496666667","25.1993533333333","6502800","萬里區"
"207004","225-TW","2017/09/28 17:39:59","新北市萬里區中幅里中福路8號","121.685171666667","25.16451","6502800","萬里區"
"252005","073-UM","2017/09/28 15:31:15","新北市三芝區埔坪里埔頭坑41號","121.504438333333","25.2644933333333","6502100","三芝區"
"252002","178-VK","2017/09/28 17:39:41","新北市三芝區忠孝街1-14號","121.505345","25.2539216666667","6502100","三芝區"
"252001","292-VK","2017/09/28 17:39:42","新北市三芝區中山路一段4號","121.501045","25.2589583333333","6502100","三芝區"
"237007","153-BY","2017/09/28 17:39:52","新北市三峽區中正路一段286號","121.37166","24.9261566666667","6500900","三峽區"
"237012","275-BY","2017/09/28 17:39:57","新北市三峽區中山路459巷137號","121.349998333333","24.933945","6500900","三峽區"
"237008","302-VK","2017/09/28 17:39:55","新北市三峽區中山路365號","121.358638333333","24.93708","6500900","三峽區"
"237011","572-TV","2017/09/28 17:39:23","新北市三峽區中山路98號","121.36648","24.9354483333333","6500900","三峽區"
"237016","649-BX","2017/09/28 17:39:57","新北市三峽區中園街237-1號","121.36683","24.9195166666667","6500900","三峽區"
"237010","706-TV","2017/09/28 17:37:30","新北市三峽區中山路223號","121.363223333333","24.937055","6500900","三峽區"
"236071","105-UM","2017/09/28 17:39:51","新北市土城區城林路6巷80號","121.438528333333","24.979725","6501300","土城區"
"236078","166-UM","2017/09/28 17:39:48","新北市土城區城林路6巷80號","121.438533333333","24.979665","6501300","土城區"
"236014","270-VK","2017/09/28 17:39:39","新北市土城區城林路6巷80號","121.438243333333","24.9796666666667","6501300","土城區"
"236053","AAC-216","2017/09/28 17:39:48","新北市土城區城林路6巷80號","121.438431666667","24.9796483333333","6501300","土城區"
"242031","AAC-296","2017/09/28 17:39:58","新北市新莊區新泰路361巷23號","121.442571666667","25.043025","6500500","新莊區"
"242029","986-R7","2017/09/28 17:39:55","新北市新莊區復興路二段134號","121.45698","25.0442833333333","6500500","新莊區"
"242051","751-BX","2017/09/28 17:39:49","新北市新莊區西盛街191號","121.428115","25.0173566666667","6500500","新莊區"
"242025","615-BX","2017/09/28 17:39:58","新北市新莊區思源路118號","121.460146666667","25.04695","6500500","新莊區"
"242023","613-BX","2017/09/28 17:39:47","新北市新莊區中港路132巷26號","121.456408333333","25.040645","6500500","新莊區"
"242027","612-BX","2017/09/28 17:39:54","新北市新莊區思源路315號","121.459841666667","25.0491716666667","6500500","新莊區"
"242039","566-BX","2017/09/28 17:40:01","新北市新莊區民安東路3號","121.42756","25.021025","6500500","新莊區"
"242044","497-BY","2017/09/28 17:39:53","新北市新莊區中正路871巷9弄32號","121.419545","25.0268116666667","6500500","新莊區"
"242048","441-UM","2017/09/28 17:39:40","新北市新莊區萬安街133號","121.420548333333","25.0221683333333","6500500","新莊區"
"242053","440-UM","2017/09/28 17:39:57","新北市新莊區新樹路699巷51號","121.433156666667","25.0010166666667","6500500","新莊區"
"242004","413-TV","2017/09/28 17:39:42","新北市新莊區自立街180號","121.456075","25.0454283333333","6500500","新莊區"
"242042","400-BY","2017/09/28 17:39:52","新北市新莊區中正路514巷105弄2號","121.427663333333","25.03502","6500500","新莊區"
"242061","362-BY","2017/09/28 17:39:48","新北市新莊區新樹路449巷23號","121.434763333333","25.0143566666667","6500500","新莊區"
"242058","353-BY","2017/09/28 17:39:48","新北市新莊區中正路618號","121.423773333333","25.02936","6500500","新莊區"
"242007","132-UY","2017/09/28 17:39:46","新北市新莊區福樂街69號","121.457163333333","25.047725","6500500","新莊區"
"242036","133-UY","2017/09/28 17:39:56","新北市新莊區後港一路123號","121.429078333333","25.0273716666667","6500500","新莊區"
"242021","135-UY","2017/09/28 17:39:50","新北市新莊區中華路一段118號","121.452586666667","25.0405816666667","6500500","新莊區"
"242046","172-VK","2017/09/28 17:39:48","新北市新莊區福營路103號","121.43392","25.0323266666667","6500500","新莊區"
"242009","173-VK","2017/09/28 17:39:47","新北市新莊區昌明街14巷5弄1號","121.457315","25.0531516666667","6500500","新莊區"
"242015","175-VK","2017/09/28 17:39:43","新北市新莊區新泰路287號","121.445565","25.0406316666667","6500500","新莊區"
"242002","176-VK","2017/09/28 17:39:40","新北市新莊區新莊路262號","121.451928333333","25.0339666666667","6500500","新莊區"
"242013","346-TH","2017/09/28 17:39:43","新北市新莊區中誠街95巷1號","121.45012","25.0475866666667","6500500","新莊區"
"242019","348-TH","2017/09/28 17:39:56","新北市新莊區中港路209號","121.454785","25.0420566666667","6500500","新莊區"
"242056","349-TH","2017/09/28 17:39:53","新北市新莊區新莊路543巷9弄28號","121.448316666667","25.0319033333333","6500500","新莊區"
"242017","350-TH","2017/09/28 17:39:58","新北市新莊區復興路一段149巷21弄23號","121.449021666667","25.0438916666667","6500500","新莊區"
"242011","351-TH","2017/09/28 17:39:40","新北市新莊區中港路637號","121.451048333333","25.0544733333333","6500500","新莊區"
"238015","755-BX","2017/09/28 17:39:54","新北市樹林區啟智街36號","121.420696666667","24.9931733333333","6500700","樹林區"
"238023","601-UM","2017/09/28 17:39:48","新北市樹林區三福街114號","121.40651","25.0163583333333","6500700","樹林區"
"238019","599-UM","2017/09/28 17:39:41","新北市樹林區太平路127巷10號","121.419723333333","24.980625","6500700","樹林區"
"238018","571-TV","2017/09/28 17:39:51","新北市樹林區鎮前街113號","121.424246666667","24.9897033333333","6500700","樹林區"
"238024","5061-A6","2017/09/28 17:39:54","新北市樹林區忠孝街67巷22號","121.424863333333","24.9816316666667","6500700","樹林區"
"238021","KEA-2217","2017/09/28 17:39:56","新北市樹林區西圳街一段203巷7號","121.39302","24.9602666666667","6500700","樹林區"
"238022","KEA-2213","2017/09/28 17:39:51","新北市樹林區和平街1巷2號","121.421186666667","24.98146","6500700","樹林區"
"238025","303-VK","2017/09/28 17:39:56","新北市樹林區保安街三段12號","121.412565","25.0109533333333","6500700","樹林區"
"238017","283-BY","2017/09/28 17:39:47","新北市樹林區中正路248巷28弄2號","121.418613333333","25.0082783333333","6500700","樹林區"
"238001","282-BY","2017/09/28 17:39:52","新北市樹林區保安街一段300號","121.419356666667","24.9977533333333","6500700","樹林區"
"238020","268-VK","2017/09/28 17:39:45","新北市樹林區俊英街48-2號","121.428468333333","25.0033716666667","6500700","樹林區"
"238026","172-UY","2017/09/28 17:39:46","新北市樹林區新興街19巷34弄26號","121.402248333333","24.9726466666667","6500700","樹林區"
"238016","169-UY","2017/09/28 17:39:50","新北市樹林區育英街41號","121.421176666667","24.9891916666667","6500700","樹林區"
"239007","AAC-297","2017/09/28 17:39:50","新北市鶯歌區鶯桃路168號","121.337238333333","24.9552966666667","6500800","鶯歌區"
"239006","891-R6","2017/09/28 17:39:56","新北市鶯歌區鶯桃路524-1號","121.331556666667","24.9666283333333","6500800","鶯歌區"
"239008","527-UM","2017/09/28 17:40:00","新北市鶯歌區大湖路732巷45號","121.33346","24.9781766666667","6500800","鶯歌區"
"239005","526-UM","2017/09/28 17:39:53","新北市鶯歌區福隆二街3號","121.325411666667","24.97213","6500800","鶯歌區"
"239001","417-VK","2017/09/28 17:39:39","新北市鶯歌區中正三路176-1號","121.333221666667","24.9383083333333","6500800","鶯歌區"
"239003","360-BY","2017/09/28 17:39:46","新北市鶯歌區鶯桃路206巷30號","121.337793333333","24.95973","6500800","鶯歌區"
"239002","359-BY","2017/09/28 17:39:54","新北市鶯歌區育賢街35號","121.344021666667","24.95439","6500800","鶯歌區"
"239004","193-VK","2017/09/28 17:39:51","新北市鶯歌區文化路393巷2弄2號","121.352886666667","24.9506216666667","6500800","鶯歌區"
"221008","489-VK","2017/09/28 17:39:54","新北市汐止區康寧街901號","121.651435","25.0751316666667","6501100","汐止區"
"221010","269-BY","2017/09/28 17:39:40","新北市汐止區康寧街885巷1號","121.650033333333","25.076225","6501100","汐止區"
"221012","276-VK","2017/09/28 13:19:47","新北市汐止區汐萬路一段256巷3號","121.653443333333","25.0746416666667","6501100","汐止區"
"221023","279-VK","2017/09/28 17:39:45","新北市汐止區康寧街901號","121.651723333333","25.07502","6501100","汐止區"
"221032","280-BY","2017/09/28 17:39:46","新北市汐止區樟樹二路351-1號","121.643486666667","25.0738966666667","6501100","汐止區"
"221035","622-UM","2017/09/28 17:39:45","新北市汐止區汐萬路一段256巷3號","121.652083333333","25.07483","6501100","汐止區"
"221025","623-UM","2017/09/28 17:39:43","新北市汐止區康寧街901號","121.651663333333","25.0749316666667","6501100","汐止區"
"221033","647-BX","2017/09/28 17:39:46","新北市汐止區大同路一段36號","121.62208","25.0549766666667","6501100","汐止區"
"221018","753-BX","2017/09/28 17:39:53","新北市汐止區忠孝東路348號","121.665645","25.0697333333333","6501100","汐止區"
"242034","280-VK","2017/09/28 17:39:47","新北市新莊區新莊路528號","121.445763333333","25.0330083333333","6500500","新莊區"
