"lineid","car","time","location","longitude","latitude","cityid","cityname"
"234046","148-BY","2017/09/28 19:09:37","新北市永和區永元路52巷52號","121.524531666667","25.0007633333333","6500400","永和區"
"234013","149-BY","2017/09/28 19:09:35","新北市永和區永和路二段105號","121.514935","25.0118683333333","6500400","永和區"
"234007","208-UY","2017/09/28 19:09:39","新北市永和區保平路268巷51弄12號","121.506313333333","25.0064666666667","6500400","永和區"
"234081","298-R6","2017/09/28 19:09:32","新北市永和區永亨路61號","121.521063333333","25.0060483333333","6500400","永和區"
"234038","336-UY","2017/09/28 19:09:38","新北市永和區民樂街69巷2號","121.527366666667","24.9976466666667","6500400","永和區"
"234064","337-UY","2017/09/28 19:09:47","新北市永和區秀朗路二段15號","121.521026666667","25.0027116666667","6500400","永和區"
"234086","338-UY","2017/09/28 19:09:36","新北市永和區中正路395號","121.51728","25.00411","6500400","永和區"
"234070","552-UM","2017/09/28 19:09:45","新北市永和區豫溪街137巷1弄24號","121.5184","25.0104416666667","6500400","永和區"
"234054","553-UM","2017/09/28 19:09:39","新北市永和區中興街133巷8號","121.518738333333","25.0126816666667","6500400","永和區"
"234017","745-BX","2017/09/28 19:09:43","新北市永和區文化路90巷9弄2號","121.513791666667","25.015785","6500400","永和區"
"234030","746-BX","2017/09/28 19:09:48","新北市永和區民生路23號","121.522876666667","24.9988366666667","6500400","永和區"
"234061","AAD-866","2017/09/28 19:09:30","新北市永和區安樂路304巷7號","121.514521666667","25.0051316666667","6500400","永和區"
"234042","862-TW","2017/09/28 19:09:47","新北市永和區永貞路334號","121.511208333333","25.00559","6500400","永和區"
"234050","863-TW","2017/09/28 19:09:48","新北市永和區仁愛路104巷7弄62號","121.510876666667","25.014115","6500400","永和區"
"234026","9371-KE","2017/09/28 19:09:35","新北市永和區安樂路198巷4弄2號","121.515553333333","25.002","6500400","永和區"
"234011","9373-KE","2017/09/28 19:09:32","新北市永和區保福路二段44巷2弄10號","121.511625","25.0118583333333","6500400","永和區"
"249005","172-UM","2017/09/28 19:09:41","新北市八里區中華路三段99巷1號","121.393843333333","25.1384766666667","6502300","八里區"
"249001","173-UM","2017/09/28 19:09:30","新北市八里區龍米路二段230-2號","121.431713333333","25.1585866666667","6502300","八里區"
"249002","305-UY","2017/09/28 18:40:13","新北市八里區龍形一街33巷6-2號","121.449316666667","25.1294933333333","6502300","八里區"
"248016","026-BX","2017/09/28 19:09:39","新北市五股區成泰路三段559巷36弄3號","121.450711666667","25.102805","6501500","五股區"
"248020","225-UY","2017/09/28 19:09:35","新北市五股區凌雲路三段57號","121.425271666667","25.125045","6501500","五股區"
"248012","247-BX","2017/09/28 19:09:38","新北市五股區工商路40號","121.43936","25.0837833333333","6501500","五股區"
"248010","272-BY","2017/09/28 19:09:47","新北市五股區水碓一路23號","121.430558333333","25.0712716666667","6501500","五股區"
"248004","677-BX","2017/09/28 19:09:46","新北市五股區民義路二段3號","121.421205","25.0961816666667","6501500","五股區"
"248002","678-BX","2017/09/28 19:09:35","新北市五股區凌雲路一段158巷13號","121.447758333333","25.1034966666667","6501500","五股區"
"234023","9380-KE","2017/09/28 19:09:40","新北市永和區中興街10巷54號","121.516186666667","25.0110016666667","6500400","永和區"
"234077","969-R7","2017/09/28 19:09:35","新北市永和區民族街25號","121.51875","24.99964","6500400","永和區"
"234074","AAC-211","2017/09/28 19:09:47","新北市永和區竹林路206號","121.520701666667","25.0083833333333","6500400","永和區"
"234067","AAC-212","2017/09/28 19:09:44","新北市永和區永和路一段49巷4-2號","121.512393333333","25.0068416666667","6500400","永和區"
"234003","AAC-295","2017/09/28 19:09:44","新北市永和區保福路一段80號","121.512353333333","25.0101633333333","6500400","永和區"
"244013","069-UM","2017/09/28 19:09:44","新北市林口區麗園一街11巷7號","121.378068333333","25.0704266666667","6501700","林口區"
"244019","403-UM","2017/09/28 19:09:51","新北市林口區麗園二街47巷4號","121.381255","25.06905","6501700","林口區"
"244009","410-SL","2017/09/28 19:09:38","新北市林口區台電新村115號","121.388566666667","25.08733","6501700","林口區"
"244023","483-VK","2017/09/28 19:09:46","新北市林口區文化三路一段555巷50號","121.369821666667","25.076985","6501700","林口區"
"244011","656-BX","2017/09/28 19:09:39","新北市林口區中正路296巷12號","121.388336666667","25.0781133333333","6501700","林口區"
"243013","AAD-798","2017/09/28 19:09:34","新北市泰山區漢口街3號","121.423286666667","25.0366516666667","6501600","泰山區"
"243009","297-R6","2017/09/28 19:09:41","新北市泰山區明志路一段122巷7號","121.433138333333","25.0635633333333","6501600","泰山區"
"243015","380-SR","2017/09/28 19:09:32","新北市泰山區明志路一段418號","121.430716666667","25.05664","6501600","泰山區"
"243014","421-VK","2017/09/28 19:09:37","新北市泰山區泰林路二段328號","121.430233333333","25.063055","6501600","泰山區"
"243010","KEA-2215","2017/09/28 19:09:45","新北市泰山區明志路一段431號","121.430735","25.0564966666667","6501600","泰山區"
"243011","KEA-2216","2017/09/28 19:09:45","新北市泰山區明志路二段332號","121.42619","25.0455916666667","6501600","泰山區"
"243012","646-TV","2017/09/28 19:09:38","新北市泰山區辭修路36巷8弄7號","121.427843333333","25.0588366666667","6501600","泰山區"
"243016","680-BX","2017/09/28 19:09:40","新北市泰山區明志路三段21號","121.424843333333","25.043055","6501600","泰山區"
"222003","436-BY","2017/09/28 19:09:46","新北市深坑區深南路156號","121.624038333333","25.01483","6501800","深坑區"
"222001","628-TS","2017/09/28 19:09:38","新北市深坑區北深路一段300號","121.624206666667","25.0057883333333","6501800","深坑區"
"222002","659-BX","2017/09/28 19:09:37","新北市深坑區北深路一段185號","121.631288333333","25.0100433333333","6501800","深坑區"
"231041","002-UM","2017/09/28 19:09:36","新北市新店區中央二街68號","121.526298333333","24.9745633333333","6500600","新店區"
"231059","046-UY","2017/09/28 19:09:41","新北市新店區安和路二段138號","121.51953","24.9722983333333","6500600","新店區"
"231061","047-UY","2017/09/28 19:09:47","新北市新店區安康路一段134號","121.52667","24.962835","6500600","新店區"
"231060","106-UY","2017/09/28 19:09:46","新北市新店區安康路二段226號","121.509558333333","24.9592866666667","6500600","新店區"
"231051","107-UY","2017/09/28 19:09:50","新北市新店區中正路380號","121.534923333333","24.977055","6500600","新店區"
"231047","108-UY","2017/09/28 19:09:42","新北市新店區德正街27巷29弄19號","121.544878333333","24.9718666666667","6500600","新店區"
"231052","187-VK","2017/09/28 19:09:33","新北市新店區自強路61號","121.546305","24.9246916666667","6500600","新店區"
"231007","189-VK","2017/09/28 12:02:08","新北市新店區安華路28-1號","121.519581666667","24.9610383333333","6500600","新店區"
"231050","215-TC","2017/09/28 19:09:31","新北市新店區竹林路2巷32號","121.550113333333","24.9504083333333","6500600","新店區"
"231063","268-BY","2017/09/28 19:09:42","新北市新店區車子路134號","121.50515","24.9486116666667","6500600","新店區"
"231046","278-BY","2017/09/28 19:09:47","新北市新店區華城路77巷6號","121.524031666667","24.9455","6500600","新店區"
"231054","AAD-862","2017/09/28 19:09:40","新北市新店區新店路183號","121.537091666667","24.9560283333333","6500600","新店區"
"231058","3712-VJ","2017/09/28 19:09:35","新北市新店區北新路一段2號","121.540781666667","24.9651916666667","6500600","新店區"
"231056","4716-K9","2017/09/28 19:09:33","新北市新店區民權路107-3號","121.536345","24.9822266666667","6500600","新店區"
"231067","4772-VM","2017/09/28 19:09:33","新北市新店區安康路一段195巷5號","121.526313333333","24.96246","6500600","新店區"
"231065","512-UM","2017/09/28 19:09:37","新北市新店區安祥路109巷6弄55號","121.475678333333","24.9570516666667","6500600","新店區"
"231064","515-UM","2017/09/28 19:09:49","新北市新店區安忠路94號","121.511131666667","24.9573516666667","6500600","新店區"
"231040","619-UM","2017/09/28 19:09:44","新北市新店區三民路98-3號","121.533918333333","24.9734433333333","6500600","新店區"
"231042","641-BX","2017/09/28 19:09:34","新北市新店區中興路一段115號","121.541356666667","24.962785","6500600","新店區"
"231049","719-UM","2017/09/28 19:09:35","新北市新店區二十張路25巷18弄16號","121.539198333333","24.9816933333333","6500600","新店區"
"231062","720-UM","2017/09/28 19:09:37","新北市新店區安平路20-4號","121.52471","24.9664916666667","6500600","新店區"
"231044","897-TW","2017/09/28 19:09:47","新北市新店區中興路三段184號","121.544098333333","24.9814233333333","6500600","新店區"
"231045","898-TW","2017/09/28 19:09:36","新北市新店區北宜路一段190-8號","121.542268333333","24.9528766666667","6500600","新店區"
"231043","899-TW","2017/09/28 19:09:29","新北市新店區寶橋路132號","121.547395","24.9759833333333","6500600","新店區"
"231066","AKT-0513","2017/09/28 19:09:41","新北市新店區安康路三段355巷1號","121.484383333333","24.950715","6500600","新店區"
"241026","066-VK","2017/09/28 19:09:36","新北市三重區泉州街72號","121.494891666667","25.0548716666667","6500200","三重區"
"241020","413-TH","2017/09/28 19:09:42","新北市三重區後竹圍街183號","121.485713333333","25.071715","6500200","三重區"
"241035","462-BY","2017/09/28 19:09:41","新北市三重區捷運路53號","121.483773333333","25.0556883333333","6500200","三重區"
"241029","942-UM","2017/09/28 19:09:41","新北市三重區集美街235號","121.492123333333","25.0553116666667","6500200","三重區"
"235066","003-UY","2017/09/28 19:09:27","新北市中和區廣福路12-1號","121.505523333333","25.0028716666667","6500300","中和區"
"235064","005-UY","2017/09/28 19:09:47","新北市中和區泰和街44巷21號","121.49835","25.0008483333333","6500300","中和區"
"235063","006-UY","2017/09/28 19:09:45","新北市中和區中正路630號","121.485373333333","24.995895","6500300","中和區"
"235056","096-UM","2017/09/28 19:09:36","新北市中和區員山路570號","121.47895","25.011455","6500300","中和區"
"235039","097-UM","2017/09/28 19:09:30","新北市中和區自強路56號","121.520108333333","24.9945983333333","6500300","中和區"
"235065","098-UM","2017/09/28 19:09:42","新北市中和區福祥路158號","121.498511666667","25.00777","6500300","中和區"
"235040","150-BY","2017/09/28 19:09:33","新北市中和區宜安路11巷9號","121.512855","24.995225","6500300","中和區"
"235058","151-BY","2017/09/28 19:09:45","新北市中和區員山路141號","121.480953333333","24.9961533333333","6500300","中和區"
"235055","183-VK","2017/09/28 19:09:42","新北市中和區德光路18號","121.471118333333","25.0045016666667","6500300","中和區"
"235038","185-VK","2017/09/28 19:09:38","新北市中和區立人街6號","121.519693333333","24.994235","6500300","中和區"
"235049","186-VK","2017/09/28 19:09:38","新北市中和區景安路100號","121.505333333333","24.9956516666667","6500300","中和區"
"235067","255-BX","2017/09/28 19:09:41","新北市中和區新生街174號","121.483581666667","24.9999866666667","6500300","中和區"
"235044","293-VK","2017/09/28 19:09:40","新北市中和區中興街202巷2號","121.49929","24.9900316666667","6500300","中和區"
"235072","301-VK","2017/09/28 19:09:43","新北市中和區福祥路2號","121.499541666667","25.0029016666667","6500300","中和區"
"235043","352-BY","2017/09/28 19:09:47","新北市中和區景平路108號","121.519745","24.9915533333333","6500300","中和區"
"235068","375-QA","2017/09/28 19:09:37","新北市中和區圓通路162巷12號","121.496735","24.995505","6500300","中和區"
"235051","376-QA","2017/09/28 19:09:33","新北市中和區忠孝街19巷41號","121.50956","24.9849316666667","6500300","中和區"
"235061","378-QA","2017/09/28 19:09:46","新北市中和區中山路三段63巷9號","121.477028333333","25.0043983333333","6500300","中和區"
"235050","4979-A6","2017/09/28 19:09:50","新北市中和區復興路280巷18弄12號","121.502156666667","24.9918433333333","6500300","中和區"
"235069","4980-A6","2017/09/28 19:09:41","新北市中和區中山路二段181巷22號","121.501103333333","25.0019783333333","6500300","中和區"
"235042","551-UM","2017/09/28 19:09:45","新北市中和區自立路99巷15號","121.522831666667","24.994945","6500300","中和區"
"235070","558-UM","2017/09/28 19:09:37","新北市中和區安和路163號","121.505923333333","24.9975116666667","6500300","中和區"
"235045","565-BX","2017/09/28 19:09:38","新北市中和區景新街467巷20弄21號","121.51512","24.9874","6500300","中和區"
"235054","640-BX","2017/09/28 19:09:50","新北市中和區國光街6巷1號","121.471898333333","25.000225","6500300","中和區"
"235060","647-TV","2017/09/28 19:09:45","新北市中和區民享街58號","121.474078333333","25.002325","6500300","中和區"
"235047","732-UM","2017/09/28 19:09:35","新北市中和區興南路一段56巷5號","121.51052","24.9911566666667","6500300","中和區"
"235046","733-UM","2017/09/28 19:09:51","新北市中和區忠孝街1巷44號","121.508481666667","24.9841416666667","6500300","中和區"
"235062","800-TS","2017/09/28 19:09:32","新北市中和區中正路908號","121.483678333333","25.00702","6500300","中和區"
"235057","801-TS","2017/09/28 19:09:42","新北市中和區民利街100巷6弄11號","121.477095","24.9985416666667","6500300","中和區"
"235041","802-TS","2017/09/28 19:09:42","新北市中和區宜安路67號","121.51118","24.99719","6500300","中和區"
"235052","805-TS","2017/09/28 19:09:42","新北市中和區興南路二段128巷7弄1-2號","121.503411666667","24.9841633333333","6500300","中和區"
"235048","896-TW","2017/09/28 19:09:44","新北市中和區忠孝街1巷2-1號","121.50915","24.983135","6500300","中和區"
"235053","900-TW","2017/09/28 19:09:28","新北市中和區和平路240號","121.464423333333","24.9966516666667","6500300","中和區"
"235037","AAC-213","2017/09/28 19:09:30","新北市中和區秀朗路三段128巷27號","121.524688333333","24.9940983333333","6500300","中和區"
"235059","AAC-215","2017/09/28 19:09:39","新北市中和區圓通路294巷11弄8號","121.488203333333","24.99003","6500300","中和區"
"220068","013-TV","2017/09/28 19:09:39","新北市板橋區三民路一段3巷2號","121.479001666667","25.0234166666667","6500100","板橋區"
"220065","072-UY","2017/09/28 19:09:38","新北市板橋區民族路247巷3弄11號","121.47012","25.00768","6500100","板橋區"
"220086","073-UY","2017/09/28 19:09:42","新北市板橋區中正路250巷53號","121.457771666667","25.0197316666667","6500100","板橋區"
"220106","075-UY","2017/09/28 19:09:45","新北市板橋區文化路二段319號","121.472261666667","25.02994","6500100","板橋區"
"220069","AAD-861","2017/09/28 19:09:51","新北市板橋區華興街74號","121.45722","25.0050583333333","6500100","板橋區"
"247008","053-VK","2017/09/28 19:01:08","新北市五股區中興路三段163號","121.449143333333","25.080775","6501400","蘆洲區"
"226004","312-R5","2017/09/28 19:09:33","新北市平溪區十分里十分街94號","121.776581666667","25.0424933333333","6502400","平溪區"
"228003","097-TW","2017/09/28 19:09:41","新北市貢寮區和美里和美街38號","121.912151666667","25.08858","6502600","貢寮區"
"228001","212-TW","2017/09/28 19:09:42","新北市貢寮區真理里新港街10號","121.925481666667","25.0544033333333","6502600","貢寮區"
"228002","585-TW","2017/09/28 19:09:35","新北市貢寮區福隆里福隆街36號","121.945085","25.0174716666667","6502600","貢寮區"
"224010","AGQ-8101","2017/09/28 19:09:40","新北市瑞芳區基山街169號","121.843338333333","25.1081116666667","6501200","瑞芳區"
"224006","676-BX","2017/09/28 19:09:46","新北市瑞芳區三爪子坑路118-2號","121.806451666667","25.1052833333333","6501200","瑞芳區"
"224009","285-BY","2017/09/28 19:09:32","新北市瑞芳區長仁路50-1號","121.866271666667","25.1188116666667","6501200","瑞芳區"
"224008","275-VK","2017/09/28 19:09:44","新北市瑞芳區瑞芳街118號","121.801531666667","25.110895","6501200","瑞芳區"
"224005","271-BY","2017/09/28 19:09:31","新北市瑞芳區明燈路二段66號","121.809456666667","25.1077","6501200","瑞芳區"
"227010","642-TC","2017/09/28 19:09:38","新北市雙溪區牡丹里中正路46-5號","121.865033333333","25.0390833333333","6502500","雙溪區"
"227004","400-TW","2017/09/28 19:09:45","新北市雙溪區平林里梅竹蹊56-4號","121.860673333333","25.0367466666667","6502500","雙溪區"
"253005","032-BX","2017/09/28 19:09:39","新北市石門區阿里荖41-1號","121.60573","25.2806516666667","6502200","石門區"
"253006","295-VK","2017/09/28 19:09:47","新北市石門區崁子腳41-1號","121.533275","25.287525","6502200","石門區"
"208002","742-BX","2017/09/28 19:09:39","新北市金山區中華路122巷9號","121.633681666667","25.22105","6502700","金山區"
"208003","665-BX","2017/09/28 19:09:50","新北市金山區中正路126號","121.632396666667","25.2216166666667","6502700","金山區"
"208001","761-BX","2017/09/28 19:09:35","新北市金山區福德街16巷4號","121.639168333333","25.22167","6502700","金山區"
"251009","008-UM","2017/09/28 19:09:31","新北市淡水區清水街160號","121.441041666667","25.1704966666667","6501000","淡水區"
"251001","011-UM","2017/09/28 19:09:41","新北市淡水區自強路201巷39號","121.462116666667","25.1268416666667","6501000","淡水區"
"251007","179-VK","2017/09/28 19:09:41","新北市淡水區民生路145巷58號","121.468106666667","25.1389366666667","6501000","淡水區"
"251014","182-VK","2017/09/28 19:09:47","新北市淡水區小中寮18號","121.486018333333","25.230255","6501000","淡水區"
"251010","413-VK","2017/09/28 19:09:43","新北市淡水區中正路一段156巷3號","121.42116","25.1802666666667","6501000","淡水區"
"251016","442-VK","2017/09/28 19:09:46","新北市淡水區淡金路三段212號","121.448921666667","25.20431","6501000","淡水區"
"251005","443-VK","2017/09/28 19:09:41","新北市淡水區原德路11號","121.442118333333","25.1712416666667","6501000","淡水區"
"251002","672-BX","2017/09/28 19:09:37","新北市淡水區中山路88號","121.442746666667","25.1704983333333","6501000","淡水區"
"251003","766-UM","2017/09/28 19:09:39","新北市淡水區大義街3號","121.44379","25.17796","6501000","淡水區"
"207003","550-UM","2017/09/28 19:09:33","新北市萬里區大鵬里萬里加投24-2號","121.648921666667","25.20718","6502800","萬里區"
"207004","225-TW","2017/09/28 19:09:49","新北市萬里區萬里里瑪鋉下街46-1號","121.691481666667","25.1793266666667","6502800","萬里區"
"252005","073-UM","2017/09/28 15:31:15","新北市三芝區埔坪里埔頭坑41號","121.504438333333","25.2644933333333","6502100","三芝區"
"252002","178-VK","2017/09/28 19:09:41","新北市三芝區中正路一段1號","121.502621666667","25.2590866666667","6502100","三芝區"
"252003","249-BX","2017/09/28 19:09:50","新北市三芝區錫板里南勢崗8號","121.479266666667","25.2616433333333","6502100","三芝區"
"252001","292-VK","2017/09/28 19:09:42","新北市三芝區長勤街45巷2號","121.500323333333","25.2550883333333","6502100","三芝區"
"237004","078-UY","2017/09/28 19:09:38","新北市三峽區有木150-1號","121.448855","24.846865","6500900","三峽區"
"237007","153-BY","2017/09/28 19:09:32","新北市三峽區中正路二段42巷12-1號","121.364128333333","24.9207183333333","6500900","三峽區"
"237013","252-BX","2017/09/28 19:09:34","新北市三峽區光明路69巷25號","121.37674","24.9291366666667","6500900","三峽區"
"237012","275-BY","2017/09/28 19:09:37","新北市三峽區三樹路222巷254弄79號","121.393683333333","24.9445116666667","6500900","三峽區"
"237008","302-VK","2017/09/28 19:09:35","新北市三峽區大同路102號","121.374503333333","24.9270133333333","6500900","三峽區"
"237014","433-BY","2017/09/28 19:09:46","新北市三峽區隆恩街236號","121.35777","24.941175","6500900","三峽區"
"237006","5529-G3","2017/09/28 19:09:48","新北市三峽區溪東路203號","121.404445","24.9334766666667","6500900","三峽區"
"237011","572-TV","2017/09/28 18:07:14","新北市三峽區溪北街2號","121.396023333333","24.9362116666667","6500900","三峽區"
"237016","649-BX","2017/09/28 19:09:37","新北市三峽區建安23號","121.446255","24.92735","6500900","三峽區"
"237010","706-TV","2017/09/28 19:09:30","新北市三峽區民生街35號","121.375576666667","24.9363116666667","6500900","三峽區"
"237005","AKY-6261","2017/09/28 19:09:50","新北市三峽區中山路459巷163-3號","121.348616666667","24.932915","6500900","三峽區"
"236071","105-UM","2017/09/28 19:09:30","新北市土城區裕生路84巷12號","121.446731666667","24.98565","6501300","土城區"
"236042","107-UM","2017/09/28 19:09:39","新北市土城區學府路一段189巷13號","121.452571666667","24.984565","6501300","土城區"
"236078","166-UM","2017/09/28 19:09:48","新北市土城區龍泉路22-4號","121.410765","24.94802","6501300","土城區"
"236026","269-VK","2017/09/28 19:09:48","新北市土城區中正路74巷2弄2號","121.444565","24.9753066666667","6501300","土城區"
"236014","270-VK","2017/09/28 19:09:39","新北市土城區學府路一段75巷1弄2號","121.457201666667","24.98771","6501300","土城區"
"236037","271-VK","2017/09/28 19:09:41","新北市土城區清水路137號","121.458293333333","24.9816666666667","6501300","土城區"
"236021","401-BY","2017/09/28 19:09:44","新北市土城區延吉街217巷11弄1號","121.469071666667","24.9843766666667","6501300","土城區"
"236058","912-UM","2017/09/28 19:09:32","新北市土城區金城路二段252號","121.457116666667","24.9833783333333","6501300","土城區"
"236051","913-UM","2017/09/28 19:02:29","新北市土城區明德路一段398-1號","121.453723333333","24.9789083333333","6501300","土城區"
"236053","AAC-216","2017/09/28 19:09:28","新北市土城區學府路一段200號","121.452868333333","24.9857716666667","6501300","土城區"
"238023","601-UM","2017/09/28 19:09:28","新北市樹林區大慶街53號","121.396235","25.0139483333333","6500700","樹林區"
"238019","599-UM","2017/09/28 19:09:41","新北市樹林區東榮街60號","121.416818333333","24.9830516666667","6500700","樹林區"
"238018","571-TV","2017/09/28 19:09:31","新北市樹林區八德街37號","121.418705","24.9833666666667","6500700","樹林區"
"238024","5061-A6","2017/09/28 19:09:34","新北市樹林區中山路二段249巷12號","121.402486666667","24.9757733333333","6500700","樹林區"
"238021","KEA-2217","2017/09/28 19:09:35","新北市樹林區柑園街二段328巷6弄29號","121.373271666667","24.9527516666667","6500700","樹林區"
"238022","KEA-2213","2017/09/28 19:09:31","新北市樹林區東順街90巷15號","121.408446666667","24.976605","6500700","樹林區"
"238025","303-VK","2017/09/28 19:09:36","新北市樹林區中山路三段80號","121.393451666667","24.9723516666667","6500700","樹林區"
"238017","283-BY","2017/09/28 19:09:27","新北市樹林區中正路266號","121.417046666667","25.0077466666667","6500700","樹林區"
"238014","282-BY","2017/09/28 19:09:52","新北市樹林區千歲街92巷7弄7號","121.42724","24.9977716666667","6500700","樹林區"
"238020","268-VK","2017/09/28 19:09:45","新北市樹林區俊英街210號","121.42514","25.0094066666667","6500700","樹林區"
"238026","172-UY","2017/09/28 19:09:42","新北市樹林區地政街13號","121.394093333333","24.9718033333333","6500700","樹林區"
"238016","169-UY","2017/09/28 19:09:48","新北市樹林區復興路373巷3弄3號","121.417125","24.98684","6500700","樹林區"
"239007","AAC-297","2017/09/28 19:09:30","新北市鶯歌區中山路138巷3-11號","121.349703333333","24.958615","6500800","鶯歌區"
"239006","891-R6","2017/09/28 19:09:36","新北市鶯歌區鶯桃路296巷94弄33號","121.337763333333","24.961365","6500800","鶯歌區"
"239008","527-UM","2017/09/28 19:09:40","新北市鶯歌區國際二路12巷1號","121.33774","24.974445","6500800","鶯歌區"
"239005","526-UM","2017/09/28 19:09:33","新北市鶯歌區大湖路361巷24弄28號","121.329751666667","24.9776483333333","6500800","鶯歌區"
"239001","417-VK","2017/09/28 19:09:38","新北市鶯歌區永明街23號","121.33873","24.9557116666667","6500800","鶯歌區"
"239003","360-BY","2017/09/28 19:09:45","新北市鶯歌區德昌二街59號","121.333366666667","24.95836","6500800","鶯歌區"
"239002","359-BY","2017/09/28 19:09:34","新北市鶯歌區中正一路381-1號","121.358561666667","24.957095","6500800","鶯歌區"
"239004","193-VK","2017/09/28 19:09:31","新北市鶯歌區中正三路388巷1弄5號","121.32646","24.93496","6500800","鶯歌區"
"221008","489-VK","2017/09/28 19:09:35","新北市汐止區康寧街468號","121.631891666667","25.0682533333333","6501100","汐止區"
"221036","130-UY","2017/09/28 19:09:41","新北市汐止區忠孝東路286號","121.663935","25.068225","6501100","汐止區"
"221015","131-UY","2017/09/28 19:09:48","新北市汐止區汐萬路一段167-1號","121.65286","25.0710783333333","6501100","汐止區"
"221010","269-BY","2017/09/28 19:09:40","新北市汐止區康寧街901號","121.651293333333","25.0749916666667","6501100","汐止區"
"221012","276-VK","2017/09/28 13:19:47","新北市汐止區汐萬路一段256巷3號","121.653443333333","25.0746416666667","6501100","汐止區"
"221012","278-VK","2017/09/28 19:09:48","新北市汐止區康寧街901號","121.650818333333","25.0753216666667","6501100","汐止區"
"221023","279-VK","2017/09/28 19:09:45","新北市汐止區康寧街901號","121.650973333333","25.0751916666667","6501100","汐止區"
"221032","280-BY","2017/09/28 19:09:46","新北市汐止區橫科路241-5號","121.622483333333","25.0487466666667","6501100","汐止區"
"221027","281-BY","2017/09/28 18:56:23","新北市汐止區康寧街901號","121.650891666667","25.0752666666667","6501100","汐止區"
"221038","297-VK","2017/09/28 19:09:41","新北市汐止區汐萬路一段312號","121.650668333333","25.0753416666667","6501100","汐止區"
"221029","298-VK","2017/09/28 19:09:35","新北市汐止區汐萬路一段256巷3號","121.65236","25.0746266666667","6501100","汐止區"
"221021","299-VK","2017/09/28 19:09:47","新北市汐止區康寧街901號","121.651446666667","25.074945","6501100","汐止區"
"221031","353-TW","2017/09/28 19:09:37","新北市汐止區福德二路156巷64號","121.629881666667","25.0659283333333","6501100","汐止區"
"221025","623-UM","2017/09/28 19:09:43","新北市汐止區康寧街901號","121.65152","25.074985","6501100","汐止區"
"221033","647-BX","2017/09/28 19:09:45","新北市汐止區南勢街1巷1號","121.626966666667","25.0374166666667","6501100","汐止區"
"221002","707-TV","2017/09/28 19:09:34","新北市汐止區大同路一段89號","121.623581666667","25.0547533333333","6501100","汐止區"
"221018","753-BX","2017/09/28 19:09:33","新北市汐止區汐萬路一段256巷3號","121.652501666667","25.0745766666667","6501100","汐止區"
"220079","145-BY","2017/09/28 19:09:37","新北市板橋區民權路302巷1弄1號","121.457276666667","25.0162916666667","6500100","板橋區"
"220080","200-UY","2017/09/28 19:09:35","新北市板橋區大觀路二段7巷92號","121.44994","25.0029066666667","6500100","板橋區"
"220101","245-BX","2017/09/28 19:09:50","新北市板橋區民生路二段226巷46號","121.47177","25.02212","6500100","板橋區"
"220072","277-BY","2017/09/28 19:09:30","新北市板橋區金門街369巷57弄7-1號","121.429288333333","24.9840983333333","6500100","板橋區"
"220064","280-UM","2017/09/28 19:09:47","新北市板橋區板新路143號","121.470191666667","25.0154833333333","6500100","板橋區"
"220094","283-UM","2017/09/28 19:09:45","新北市板橋區光武街127巷2號","121.465903333333","25.0288483333333","6500100","板橋區"
"220071","283-VK","2017/09/28 19:09:43","新北市板橋區忠孝路154巷34-2號","121.464156666667","25.0017033333333","6500100","板橋區"
"220053","285-VK","2017/09/28 19:09:37","新北市板橋區懷仁街10巷4號","121.475761666667","25.0199783333333","6500100","板橋區"
"220083","286-VK","2017/09/28 19:09:33","新北市板橋區龍興街101巷12號","121.443936666667","25.00337","6500100","板橋區"
"220081","287-VK","2017/09/28 18:47:03","新北市板橋區大觀路一段31號","121.449945","25.00852","6500100","板橋區"
"220090","288-VK","2017/09/28 19:09:28","新北市板橋區裕民街45巷3-1號","121.461533333333","25.028385","6500100","板橋區"
"220061","293-UM","2017/09/28 19:09:38","新北市板橋區懷仁街89號","121.477481666667","25.0182416666667","6500100","板橋區"
"220084","296-UM","2017/09/28 19:09:44","新北市板橋區篤行路二段90巷8號","121.431101666667","24.9918483333333","6500100","板橋區"
"220075","297-UM","2017/09/28 19:09:47","新北市板橋區南雅南路一段3巷25-13號","121.45654","25.0056933333333","6500100","板橋區"
"220062","303-R5","2017/09/28 19:09:35","新北市板橋區三民路二段202-29號","121.47888","25.0125316666667","6500100","板橋區"
"220092","307-R5","2017/09/28 19:09:44","新北市板橋區文化路一段417號","121.467678333333","25.0224883333333","6500100","板橋區"
"220098","317-R6","2017/09/28 19:09:43","新北市板橋區自由路51巷14弄5號","121.464698333333","25.0236983333333","6500100","板橋區"
"220089","487-VK","2017/09/28 19:09:42","新北市板橋區文化路二段389號","121.473406666667","25.0313666666667","6500100","板橋區"
"220088","491-VK","2017/09/28 19:09:48","新北市板橋區文化路二段182巷1弄12號","121.471301666667","25.027715","6500100","板橋區"
"220035","560-BX","2017/09/28 19:09:33","新北市板橋區中正路399巷6號","121.453796666667","25.0223333333333","6500100","板橋區"
"220103","561-BX","2017/09/28 19:09:29","新北市板橋區文化路一段188巷9弄37號","121.469203333333","25.0191433333333","6500100","板橋區"
"220063","609-BX","2017/09/28 19:09:48","新北市板橋區中山路二段265號","121.477725","25.0178066666667","6500100","板橋區"
"220056","630-UY","2017/09/28 19:09:33","新北市板橋區信義路74巷1弄15號","121.4576","24.9927566666667","6500100","板橋區"
"220091","637-BX","2017/09/28 19:09:48","新北市板橋區萬板路706號","121.481581666667","25.027055","6500100","板橋區"
"220057","686-BX","2017/09/28 19:09:30","新北市板橋區重慶路201號","121.462858333333","25.00167","6500100","板橋區"
"220077","687-BX","2017/09/28 19:09:34","新北市板橋區大觀路二段123號","121.445911666667","25.001345","6500100","板橋區"
"220093","689-BX","2017/09/28 19:09:45","新北市板橋區民生路三段153號","121.46584","25.026575","6500100","板橋區"
"220054","741-BX","2017/09/28 19:09:41","新北市板橋區重慶路93巷16號","121.46277","25.0057983333333","6500100","板橋區"
"220082","806-UM","2017/09/28 19:09:41","新北市板橋區溪崑二街10號","121.428928333333","24.99195","6500100","板橋區"
"220055","827-TW","2017/09/28 19:09:39","新北市板橋區中山路一段128號","121.46339","25.0107883333333","6500100","板橋區"
"220067","829-TW","2017/09/28 19:09:46","新北市板橋區民享街116巷1-3號","121.478103333333","25.0156316666667","6500100","板橋區"
"220102","830-TW","2017/09/28 19:09:42","新北市板橋區田單街49巷1弄7號","121.482685","25.028555","6500100","板橋區"
"220096","831-TW","2017/09/28 19:09:40","新北市板橋區雙十路二段47巷2號","121.476285","25.0261666666667","6500100","板橋區"
"220074","895-R6","2017/09/28 19:09:44","新北市板橋區文昌街6-1號","121.45603","25.01015","6500100","板橋區"
"220073","985-R7","2017/09/28 19:09:44","新北市板橋區中正路255號","121.45576","25.0183783333333","6500100","板橋區"
"220097","AAC-210","2017/09/28 19:09:30","新北市板橋區新海路135巷33號","121.459825","25.0228433333333","6500100","板橋區"
"220070","AAC-253","2017/09/28 19:09:37","新北市板橋區四川路一段353號","121.45839","24.9999133333333","6500100","板橋區"
