"lineid","car","time","location","longitude","latitude","cityid","cityname"
"234046","148-BY","2017/09/28 19:19:37","新北市永和區得和路373巷31弄12號","121.52424","25.0003916666667","6500400","永和區"
"234013","149-BY","2017/09/28 19:19:35","新北市永和區仁愛路152號","121.510726666667","25.01291","6500400","永和區"
"234007","208-UY","2017/09/28 19:19:39","新北市永和區中山路一段193號","121.509151666667","25.0089016666667","6500400","永和區"
"234081","298-R6","2017/09/28 19:19:32","新北市永和區福和路48號","121.52357","25.0082716666667","6500400","永和區"
"234038","336-UY","2017/09/28 19:19:38","新北市永和區民樂街70號","121.527413333333","24.9984083333333","6500400","永和區"
"234064","337-UY","2017/09/28 19:19:47","新北市永和區永元路17巷6弄2號","121.521365","25.000685","6500400","永和區"
"234086","338-UY","2017/09/28 19:19:36","新北市永和區永利路42號","121.518738333333","25.0055033333333","6500400","永和區"
"234070","552-UM","2017/09/28 19:19:49","新北市永和區豫溪街45號","121.516941666667","25.0099166666667","6500400","永和區"
"234054","553-UM","2017/09/28 19:19:38","新北市永和區中興街36號","121.516386666667","25.0117216666667","6500400","永和區"
"234017","745-BX","2017/09/28 19:19:43","新北市永和區文化路144巷19弄20號","121.51211","25.0168316666667","6500400","永和區"
"234030","746-BX","2017/09/28 19:19:33","新北市永和區厚德街44號","121.525133333333","24.9986866666667","6500400","永和區"
"234061","AAD-866","2017/09/28 19:19:50","新北市永和區中正路381號","121.51713","25.003715","6500400","永和區"
"234042","862-TW","2017/09/28 19:19:28","新北市永和區保平路151巷6弄11號","121.509863333333","25.0050033333333","6500400","永和區"
"234050","863-TW","2017/09/28 19:19:48","新北市永和區信義路93號","121.512215","25.0137966666667","6500400","永和區"
"234026","9371-KE","2017/09/28 19:19:47","新北市永和區安樂路146-1號","121.514228333333","25.0003983333333","6500400","永和區"
"234011","9373-KE","2017/09/28 19:19:33","新北市永和區保福路二段23巷3號","121.510701666667","25.0112133333333","6500400","永和區"
"249001","173-UM","2017/09/28 19:19:30","新北市八里區中華路一段407號","121.410743333333","25.1528133333333","6502300","八里區"
"249003","593-UM","2017/09/28 19:19:36","新北市八里區中山路二段466巷6號","121.398856666667","25.1474333333333","6502300","八里區"
"248020","225-UY","2017/09/28 19:19:35","新北市五股區凌雲路三段57號","121.425273333333","25.125035","6501500","五股區"
"248012","247-BX","2017/09/28 19:19:38","新北市五股區中興路四段48巷16號","121.43858","25.083475","6501500","五股區"
"248010","272-BY","2017/09/28 19:19:47","新北市五股區水碓一路23號","121.430553333333","25.0712483333333","6501500","五股區"
"248004","677-BX","2017/09/28 19:19:46","新北市五股區五福路11-6號","121.43424","25.0887016666667","6501500","五股區"
"248002","678-BX","2017/09/28 19:19:35","新北市五股區凌雲路一段158巷13號","121.447766666667","25.103485","6501500","五股區"
"234023","9380-KE","2017/09/28 19:19:40","新北市永和區竹林路91巷18號","121.520366666667","25.01234","6500400","永和區"
"234077","969-R7","2017/09/28 19:19:35","新北市永和區民治街72巷3號","121.517888333333","24.99835","6500400","永和區"
"234074","AAC-211","2017/09/28 19:19:43","新北市永和區竹林路100-1號","121.519636666667","25.0120966666667","6500400","永和區"
"234067","AAC-212","2017/09/28 19:19:36","新北市永和區保平路30巷8號","121.51179","25.007605","6500400","永和區"
"234003","AAC-295","2017/09/28 19:19:44","新北市永和區永平路186-1號","121.510413333333","25.00929","6500400","永和區"
"244013","069-UM","2017/09/28 19:19:44","新北市林口區麗園一街5號","121.376153333333","25.0720366666667","6501700","林口區"
"244019","403-UM","2017/09/28 19:19:31","新北市林口區麗園二街87號","121.382645","25.0668666666667","6501700","林口區"
"244023","483-VK","2017/09/28 19:19:46","新北市林口區民有街158號","121.372325","25.0757716666667","6501700","林口區"
"244011","656-BX","2017/09/28 19:19:39","新北市林口區中山路572-1號","121.377145","25.0844616666667","6501700","林口區"
"243013","AAD-798","2017/09/28 19:19:34","新北市泰山區明志路三段145巷2弄15號","121.42512","25.0394033333333","6501600","泰山區"
"243009","297-R6","2017/09/28 19:19:32","新北市泰山區和平街15號","121.434356666667","25.0646516666667","6501600","泰山區"
"243015","380-SR","2017/09/28 19:19:32","新北市泰山區公園路71號","121.426305","25.0554216666667","6501600","泰山區"
"243014","421-VK","2017/09/28 19:19:32","新北市泰山區泰林路二段85號","121.434836666667","25.05875","6501600","泰山區"
"243010","KEA-2215","2017/09/28 19:19:45","新北市泰山區明志路一段492巷2號","121.43018","25.0547566666667","6501600","泰山區"
"243011","KEA-2216","2017/09/28 19:19:47","新北市泰山區中央路11巷1號","121.426293333333","25.0428483333333","6501600","泰山區"
"243012","646-TV","2017/09/28 19:19:38","新北市泰山區仁愛路100巷31號","121.433663333333","25.0548983333333","6501600","泰山區"
"243016","680-BX","2017/09/28 19:19:39","新北市泰山區工專路82巷1號","121.42242","25.04053","6501600","泰山區"
"222003","436-BY","2017/09/28 19:19:47","新北市深坑區深南路204號","121.626681666667","25.015985","6501800","深坑區"
"222001","628-TS","2017/09/28 19:19:38","新北市深坑區北深路二段103號","121.617505","25.00347","6501800","深坑區"
"222002","659-BX","2017/09/28 19:19:37","新北市深坑區北深路一段177號","121.632558333333","25.0109083333333","6501800","深坑區"
"231041","002-UM","2017/09/28 19:19:36","新北市新店區溪園路245-6號","121.525381666667","24.9832866666667","6500600","新店區"
"231059","046-UY","2017/09/28 19:19:46","新北市新店區安和路三段29-3號","121.517428333333","24.9812216666667","6500600","新店區"
"231061","047-UY","2017/09/28 19:19:47","新北市新店區安康路一段156號","121.526193333333","24.9629683333333","6500600","新店區"
"231060","106-UY","2017/09/28 19:19:34","新北市新店區安康路二段128號","121.512695","24.962395","6500600","新店區"
"231051","107-UY","2017/09/28 19:19:30","新北市新店區百忍街90號","121.532648333333","24.977215","6500600","新店區"
"231047","108-UY","2017/09/28 19:19:45","新北市新店區中興路二段77號","121.546716666667","24.9711533333333","6500600","新店區"
"231052","187-VK","2017/09/28 19:19:32","新北市新店區自強路169號","121.546468333333","24.9206566666667","6500600","新店區"
"231007","189-VK","2017/09/28 12:02:08","新北市新店區安華路28-1號","121.519581666667","24.9610383333333","6500600","新店區"
"231050","215-TC","2017/09/28 19:19:31","新北市新店區竹林路82號","121.554478333333","24.950495","6500600","新店區"
"231063","268-BY","2017/09/28 19:19:42","新北市新店區達觀路14巷1-3號","121.503948333333","24.9422633333333","6500600","新店區"
"231046","278-BY","2017/09/28 19:19:47","新北市新店區華城路36巷1-1號","121.528473333333","24.955295","6500600","新店區"
"231054","AAD-862","2017/09/28 19:19:40","新北市新店區國校路6號","121.537943333333","24.956285","6500600","新店區"
"231058","3712-VJ","2017/09/28 19:19:35","新北市新店區檳榔路36巷13號","121.54125","24.9633616666667","6500600","新店區"
"231067","4772-VM","2017/09/28 19:19:33","新北市新店區安康路二段414巷2號","121.495868333333","24.9577866666667","6500600","新店區"
"231065","512-UM","2017/09/28 19:19:37","新北市新店區安祥路110巷30弄1號","121.47386","24.9565083333333","6500600","新店區"
"231064","515-UM","2017/09/28 19:19:29","新北市新店區安忠路57巷26弄26-1號","121.512406666667","24.9582533333333","6500600","新店區"
"231040","619-UM","2017/09/28 19:19:44","新北市新店區中華路147號","121.538101666667","24.970515","6500600","新店區"
"231042","641-BX","2017/09/28 19:19:34","新北市新店區北宜路一段3號","121.538418333333","24.9584933333333","6500600","新店區"
"231068","718-UY","2017/09/28 19:12:00","新北市新店區安華路28-1號","121.519418333333","24.961285","6500600","新店區"
"231049","719-UM","2017/09/28 19:19:35","新北市新店區明德路111號","121.54151","24.9794833333333","6500600","新店區"
"231062","720-UM","2017/09/28 19:19:37","新北市新店區莒光路85巷2號","121.523071666667","24.95596","6500600","新店區"
"231044","897-TW","2017/09/28 19:19:47","新北市新店區寶慶街71號","121.54182","24.9865666666667","6500600","新店區"
"231045","898-TW","2017/09/28 19:19:36","新北市新店區北宜路一段294號","121.547053333333","24.9523783333333","6500600","新店區"
"231043","899-TW","2017/09/28 19:19:37","新北市新店區北新路二段162號","121.542921666667","24.9756716666667","6500600","新店區"
"231066","AKT-0513","2017/09/28 19:19:41","新北市新店區安康路三段207巷19號","121.488406666667","24.9507716666667","6500600","新店區"
"241011","013-R5","2017/09/28 19:19:38","新北市三重區河邊北街124巷3號","121.503521666667","25.0717283333333","6500200","三重區"
"241009","060-VK","2017/09/28 19:19:48","新北市三重區溪尾街230巷73號","121.48597","25.0811516666667","6500200","三重區"
"241031","061-VK","2017/09/28 19:19:39","新北市三重區重新路四段101號","121.485858333333","25.0544683333333","6500200","三重區"
"241017","063-VK","2017/09/28 19:19:31","新北市三重區大同北路158-1號","121.492121666667","25.06568","6500200","三重區"
"241026","066-VK","2017/09/28 19:19:36","新北市三重區正義南路165號","121.498736666667","25.0574983333333","6500200","三重區"
"241022","267-UM","2017/09/28 19:19:44","新北市三重區重陽路二段72號","121.487341666667","25.0641083333333","6500200","三重區"
"241025","271-UM","2017/09/28 19:19:47","新北市三重區中正北路406號","121.475331666667","25.0703733333333","6500200","三重區"
"241007","398-BY","2017/09/28 19:19:33","新北市三重區慈愛街48號","121.485803333333","25.0790716666667","6500200","三重區"
"241020","413-TH","2017/09/28 19:19:42","新北市三重區大智街240號","121.489333333333","25.0729783333333","6500200","三重區"
"241035","462-BY","2017/09/28 19:19:41","新北市三重區大仁街78號","121.492573333333","25.0652766666667","6500200","三重區"
"241006","AAD-863","2017/09/28 19:19:29","新北市三重區力行路二段145號","121.48362","25.07729","6500200","三重區"
"241029","942-UM","2017/09/28 19:19:41","新北市三重區重安街27號","121.491006666667","25.05703","6500200","三重區"
"235066","003-UY","2017/09/28 19:19:47","新北市中和區景新街2號","121.502611666667","24.9996816666667","6500300","中和區"
"235064","005-UY","2017/09/28 19:19:47","新北市中和區連城路47巷1號","121.49826","25.0016733333333","6500300","中和區"
"235063","006-UY","2017/09/28 19:19:45","新北市中和區連城路249巷7號","121.493783333333","24.9965916666667","6500300","中和區"
"235056","096-UM","2017/09/28 19:19:36","新北市中和區新民街94巷18號","121.481493333333","25.0093216666667","6500300","中和區"
"235039","097-UM","2017/09/28 19:19:50","新北市中和區自立路193號","121.52431","24.99133","6500300","中和區"
"235065","098-UM","2017/09/28 19:19:42","新北市中和區中山路二段116巷3弄9號","121.502198333333","25.0040066666667","6500300","中和區"
"235040","150-BY","2017/09/28 19:19:33","新北市中和區保健路48巷63號","121.50929","24.99589","6500300","中和區"
"235058","151-BY","2017/09/28 19:19:40","新北市中和區連城路523巷9弄11號","121.482215","24.9947333333333","6500300","中和區"
"235055","183-VK","2017/09/28 19:19:42","新北市中和區德光路30號","121.470691666667","25.00433","6500300","中和區"
"235038","185-VK","2017/09/28 19:19:38","新北市中和區大仁街46號","121.518463333333","24.9937416666667","6500300","中和區"
"235049","186-VK","2017/09/28 19:19:30","新北市中和區景新街229號","121.507971666667","24.9946283333333","6500300","中和區"
"235067","255-BX","2017/09/28 19:19:41","新北市中和區民樂路36號","121.483058333333","25.00126","6500300","中和區"
"235044","293-VK","2017/09/28 19:19:31","新北市中和區中興街266巷2號","121.498506666667","24.9875183333333","6500300","中和區"
"235072","301-VK","2017/09/28 19:19:43","新北市中和區連城路192-1號","121.492136666667","24.9967933333333","6500300","中和區"
"235043","352-BY","2017/09/28 19:19:47","新北市中和區景平路386號","121.510643333333","24.99288","6500300","中和區"
"235068","375-QA","2017/09/28 19:19:37","新北市中和區連城路89巷64號","121.497811666667","24.998335","6500300","中和區"
"235051","376-QA","2017/09/28 19:19:33","新北市中和區和平街2巷2弄1號","121.51014","24.99036","6500300","中和區"
"235061","378-QA","2017/09/28 19:19:46","新北市中和區員山路394巷2弄2號","121.481241666667","25.0039033333333","6500300","中和區"
"235050","4979-A6","2017/09/28 19:19:32","新北市中和區景安路218號","121.503776666667","24.9904583333333","6500300","中和區"
"235069","4980-A6","2017/09/28 19:19:41","新北市中和區景平路736巷1弄2號","121.497055","25.0038366666667","6500300","中和區"
"235042","551-UM","2017/09/28 19:19:45","新北市中和區立人街6號","121.519728333333","24.9942016666667","6500300","中和區"
"235070","558-UM","2017/09/28 19:19:37","新北市中和區中和路119號","121.501521666667","25.0000133333333","6500300","中和區"
"235045","565-BX","2017/09/28 19:19:38","新北市中和區景新街437巷15號","121.51398","24.989325","6500300","中和區"
"235054","640-BX","2017/09/28 19:19:30","新北市中和區國光街109巷2弄10號","121.469298333333","25.0006833333333","6500300","中和區"
"235060","647-TV","2017/09/28 19:19:45","新北市中和區民有街41號","121.475863333333","25.0048966666667","6500300","中和區"
"235047","732-UM","2017/09/28 19:19:35","新北市中和區景平路241巷57號","121.508071666667","24.992075","6500300","中和區"
"235046","733-UM","2017/09/28 19:19:51","新北市中和區忠孝街2巷13弄2號","121.510541666667","24.9819533333333","6500300","中和區"
"235062","800-TS","2017/09/28 19:17:32","新北市三重區五谷王北街161-1號","121.477636666667","25.0545833333333","6500300","中和區"
"235057","801-TS","2017/09/28 19:19:42","新北市中和區民利街30號","121.479905","24.9991283333333","6500300","中和區"
"235041","802-TS","2017/09/28 19:19:42","新北市中和區中和路232號","121.506625","24.999595","6500300","中和區"
"235052","805-TS","2017/09/28 19:19:42","新北市中和區興南路二段142巷17弄10號","121.503213333333","24.9831066666667","6500300","中和區"
"235048","896-TW","2017/09/28 19:19:44","新北市中和區忠孝街79號","121.512151666667","24.9852516666667","6500300","中和區"
"235053","900-TW","2017/09/28 19:19:48","新北市中和區華安街30巷2號","121.466975","24.9977466666667","6500300","中和區"
"235037","AAC-213","2017/09/28 19:19:50","新北市中和區秀朗路三段50巷6弄1號","121.525291666667","24.9952416666667","6500300","中和區"
"235059","AAC-215","2017/09/28 19:19:38","新北市中和區圓通路369巷2號","121.491166666667","24.9894316666667","6500300","中和區"
"220068","013-TV","2017/09/28 19:19:39","新北市板橋區三民路一段1巷39號","121.480206666667","25.0248216666667","6500100","板橋區"
"220065","072-UY","2017/09/28 19:19:38","新北市板橋區民族路129巷10號","121.467646666667","25.0084666666667","6500100","板橋區"
"220086","073-UY","2017/09/28 19:19:42","新北市板橋區中正路216巷148號","121.460583333333","25.019355","6500100","板橋區"
"220106","075-UY","2017/09/28 19:19:46","新北市板橋區雙十路三段64號","121.470713333333","25.0317383333333","6500100","板橋區"
"220069","AAD-861","2017/09/28 19:19:51","新北市板橋區華興街31巷17號","121.458375","25.0038883333333","6500100","板橋區"
"247008","053-VK","2017/09/28 19:19:41","新北市五股區中興路三段163號","121.449165","25.0804766666667","6501400","蘆洲區"
"226004","312-R5","2017/09/28 19:19:33","新北市平溪區靜安路三段375號","121.780895","25.0471016666667","6502400","平溪區"
"228003","097-TW","2017/09/28 19:19:41","新北市貢寮區和美里和美街22-1號","121.912806666667","25.0826616666667","6502600","貢寮區"
"228001","212-TW","2017/09/28 19:19:42","新北市貢寮區真理里新港街10號","121.925495","25.054405","6502600","貢寮區"
"228002","585-TW","2017/09/28 19:19:35","新北市貢寮區龍門里復興街8-2號","121.92684","25.02707","6502600","貢寮區"
"224006","676-BX","2017/09/28 19:19:46","新北市瑞芳區中山路209號","121.801271666667","25.1067466666667","6501200","瑞芳區"
"224009","285-BY","2017/09/28 19:19:32","新北市瑞芳區洞頂路99號","121.861745","25.1207483333333","6501200","瑞芳區"
"224008","275-VK","2017/09/28 19:19:24","新北市瑞芳區一坑路70-8號","121.803516666667","25.1081333333333","6501200","瑞芳區"
"224005","271-BY","2017/09/28 19:19:46","新北市瑞芳區員山子路3-1號","121.819023333333","25.104745","6501200","瑞芳區"
"227010","642-TC","2017/09/28 19:19:38","新北市雙溪區新基里新基北街40號","121.868535","25.0380683333333","6502500","雙溪區"
"227004","400-TW","2017/09/28 19:19:45","新北市雙溪區平林里梅竹蹊66-1號","121.860133333333","25.035835","6502500","雙溪區"
"253005","032-BX","2017/09/28 19:19:39","新北市石門區阿里荖4-7號","121.612518333333","25.279085","6502200","石門區"
"253006","295-VK","2017/09/28 19:19:47","新北市石門區楓林23-20號","121.537906666667","25.2905616666667","6502200","石門區"
"208002","742-BX","2017/09/28 19:19:48","新北市金山區環金路376巷2號","121.631613333333","25.2220216666667","6502700","金山區"
"208003","665-BX","2017/09/28 19:19:50","新北市金山區中山路119巷13號","121.63886","25.21901","6502700","金山區"
"208001","761-BX","2017/09/28 19:19:35","新北市金山區民生路69號","121.64017","25.2197033333333","6502700","金山區"
"251009","008-UM","2017/09/28 19:19:31","新北市淡水區中山路190號","121.441441666667","25.1745183333333","6501000","淡水區"
"251001","011-UM","2017/09/28 19:19:41","新北市淡水區自強路201巷39號","121.462075","25.1268333333333","6501000","淡水區"
"251007","179-VK","2017/09/28 19:19:41","新北市淡水區民生路145巷58號","121.468098333333","25.13886","6501000","淡水區"
"251014","182-VK","2017/09/28 19:19:27","新北市淡水區小中寮19-7號","121.484766666667","25.2296516666667","6501000","淡水區"
"251010","413-VK","2017/09/28 19:19:43","新北市淡水區沙崙路27號","121.421486666667","25.1815283333333","6501000","淡水區"
"251016","442-VK","2017/09/28 19:19:45","新北市淡水區下圭柔山119-51號","121.45085","25.2084716666667","6501000","淡水區"
"251005","443-VK","2017/09/28 19:19:41","新北市淡水區水源街一段31號","121.44326","25.1726016666667","6501000","淡水區"
"251002","672-BX","2017/09/28 19:19:37","新北市淡水區中正路358號","121.434271666667","25.1742383333333","6501000","淡水區"
"251003","766-UM","2017/09/28 19:19:39","新北市淡水區中山路157號","121.44061","25.1726966666667","6501000","淡水區"
"207003","550-UM","2017/09/28 19:19:33","新北市萬里區大鵬里萬里加投79-3號","121.647368333333","25.2123533333333","6502800","萬里區"
"207004","225-TW","2017/09/28 19:19:51","新北市萬里區萬里里成功新村51號","121.688035","25.1745983333333","6502800","萬里區"
"252005","073-UM","2017/09/28 15:31:15","新北市三芝區埔坪里埔頭坑41號","121.504438333333","25.2644933333333","6502100","三芝區"
"252002","178-VK","2017/09/28 19:19:41","新北市三芝區淡金路二段8號","121.502458333333","25.25934","6502100","三芝區"
"252003","249-BX","2017/09/28 19:19:50","新北市三芝區埔坪里埔頭坑107號","121.504495","25.2615133333333","6502100","三芝區"
"252001","292-VK","2017/09/28 19:19:42","新北市三芝區長勤街9巷14號","121.501681666667","25.254915","6502100","三芝區"
"237004","078-UY","2017/09/28 19:19:38","新北市三峽區有木205-1號","121.439041666667","24.85149","6500900","三峽區"
"237007","153-BY","2017/09/28 19:19:32","新北市三峽區二鬮路178號","121.359118333333","24.9068616666667","6500900","三峽區"
"237009","210-TH","2017/09/28 19:19:32","新北市三峽區民生街165號","121.372561666667","24.9348866666667","6500900","三峽區"
"237013","252-BX","2017/09/28 19:19:34","新北市三峽區光明路75巷37號","121.37782","24.928555","6500900","三峽區"
"237012","275-BY","2017/09/28 19:19:37","新北市三峽區三樹路222巷236弄8-1號","121.39134","24.9429166666667","6500900","三峽區"
"237008","302-VK","2017/09/28 19:19:35","新北市三峽區光明路106巷62號","121.375076666667","24.9267183333333","6500900","三峽區"
"237014","433-BY","2017/09/28 19:19:46","新北市三峽區中山路257巷39號","121.362108333333","24.936505","6500900","三峽區"
"237006","5529-G3","2017/09/28 19:19:48","新北市三峽區介壽路二段167號","121.394795","24.936055","6500900","三峽區"
"237011","572-TV","2017/09/28 19:16:47","新北市三峽區中正路一段104號","121.374228333333","24.9296616666667","6500900","三峽區"
"237016","649-BX","2017/09/28 19:19:37","新北市三峽區安坑46-6號","121.45743","24.932195","6500900","三峽區"
"237010","706-TV","2017/09/28 19:12:10","新北市三峽區復興路19號","121.37416","24.9362366666667","6500900","三峽區"
"237005","AKY-6261","2017/09/28 19:19:30","新北市三峽區隆恩街551號","121.357533333333","24.939625","6500900","三峽區"
"236071","105-UM","2017/09/28 19:19:30","新北市土城區學成路132號","121.449078333333","24.9896116666667","6501300","土城區"
"236042","107-UM","2017/09/28 19:19:39","新北市土城區學府路一段276號","121.450123333333","24.9830833333333","6501300","土城區"
"236078","166-UM","2017/09/28 19:19:48","新北市土城區龍泉路347號","121.409518333333","24.9500266666667","6501300","土城區"
"236026","269-VK","2017/09/28 19:19:46","新北市土城區中央路二段177巷9號","121.443236666667","24.9761883333333","6501300","土城區"
"236014","270-VK","2017/09/28 19:19:39","新北市土城區學府路一段23巷25弄5號","121.457975","24.9867283333333","6501300","土城區"
"236021","401-BY","2017/09/28 19:19:37","新北市土城區明峰街64號","121.468458333333","24.9869183333333","6501300","土城區"
"236058","912-UM","2017/09/28 19:19:32","新北市土城區金城路一段15號","121.439581666667","24.9690466666667","6501300","土城區"
"236051","913-UM","2017/09/28 19:16:09","新北市土城區明德路一段365-1號","121.4538","24.978625","6501300","土城區"
"238015","755-BX","2017/09/28 19:19:50","新北市樹林區備內街3-1號","121.413261666667","24.986765","6500700","樹林區"
"238023","601-UM","2017/09/28 19:19:34","新北市樹林區三興路70號","121.393266666667","25.01465","6500700","樹林區"
"238019","599-UM","2017/09/28 19:19:41","新北市樹林區東榮街88巷1號","121.415813333333","24.982735","6500700","樹林區"
"238018","571-TV","2017/09/28 19:19:31","新北市樹林區中華路211號","121.419726666667","24.9814483333333","6500700","樹林區"
"238024","5061-A6","2017/09/28 19:19:34","新北市樹林區福德街26號","121.4009","24.975655","6500700","樹林區"
"238021","KEA-2217","2017/09/28 19:19:35","新北市樹林區柑園街二段370號","121.369801666667","24.9502333333333","6500700","樹林區"
"238022","KEA-2213","2017/09/28 19:19:31","新北市樹林區中山路二段151巷6弄8號","121.406278333333","24.978265","6500700","樹林區"
"238025","303-VK","2017/09/28 19:19:36","新北市樹林區中山路二段205號","121.404058333333","24.97726","6500700","樹林區"
"238017","283-BY","2017/09/28 19:19:47","新北市樹林區光興街78-1號","121.407688333333","25.002735","6500700","樹林區"
"238014","282-BY","2017/09/28 19:19:31","新北市樹林區中正路23號","121.42754","24.9993366666667","6500700","樹林區"
"238020","268-VK","2017/09/28 19:19:45","新北市樹林區俊英街135號","121.424225","25.0114383333333","6500700","樹林區"
"238026","172-UY","2017/09/28 19:19:42","新北市樹林區佳園路二段153號","121.389993333333","24.957355","6500700","樹林區"
"238016","169-UY","2017/09/28 19:19:30","新北市樹林區中山路二段34-2號","121.417058333333","24.9853933333333","6500700","樹林區"
"239007","AAC-297","2017/09/28 19:19:50","新北市鶯歌區大湖路85巷1號","121.341965","24.9624683333333","6500800","鶯歌區"
"239006","891-R6","2017/09/28 19:19:36","新北市鶯歌區鶯桃路122號","121.338476666667","24.95445","6500800","鶯歌區"
"239008","527-UM","2017/09/28 19:19:40","新北市鶯歌區大湖路530巷37號","121.338065","24.973415","6500800","鶯歌區"
"239005","526-UM","2017/09/28 19:19:33","新北市鶯歌區中湖街88號","121.348286666667","24.9728766666667","6500800","鶯歌區"
"239001","417-VK","2017/09/28 19:19:38","新北市鶯歌區鶯桃路95巷80號","121.336941666667","24.9529366666667","6500800","鶯歌區"
"239003","360-BY","2017/09/28 19:19:46","新北市鶯歌區國慶街179號","121.351371666667","24.9526866666667","6500800","鶯歌區"
"239002","359-BY","2017/09/28 19:19:34","新北市鶯歌區西湖街182-1號","121.338408333333","24.9648766666667","6500800","鶯歌區"
"239004","193-VK","2017/09/28 19:19:31","新北市鶯歌區二甲路106巷2號","121.333923333333","24.93133","6500800","鶯歌區"
"221008","489-VK","2017/09/28 19:19:51","新北市汐止區康寧街342號","121.627941666667","25.0674983333333","6501100","汐止區"
"221036","130-UY","2017/09/28 19:19:41","新北市汐止區汐萬路一段256巷3號","121.65343","25.0747616666667","6501100","汐止區"
"221015","131-UY","2017/09/28 19:19:48","新北市汐止區康寧街901號","121.65168","25.0749033333333","6501100","汐止區"
"221010","269-BY","2017/09/28 19:19:40","新北市汐止區康寧街901號","121.65135","25.07497","6501100","汐止區"
"221012","276-VK","2017/09/28 13:19:47","新北市汐止區汐萬路一段256巷3號","121.653443333333","25.0746416666667","6501100","汐止區"
"221012","278-VK","2017/09/28 19:19:48","新北市汐止區汐萬路一段244-1號","121.651485","25.0733","6501100","汐止區"
"221023","279-VK","2017/09/28 19:19:45","新北市汐止區康寧街901號","121.651016666667","25.0752366666667","6501100","汐止區"
"221027","281-BY","2017/09/28 19:19:37","新北市汐止區康寧街901號","121.650886666667","25.0752633333333","6501100","汐止區"
"221038","297-VK","2017/09/28 19:19:41","新北市汐止區汐萬路一段312號","121.65069","25.0752966666667","6501100","汐止區"
"221029","298-VK","2017/09/28 19:19:35","新北市汐止區康寧街901號","121.65154","25.0749566666667","6501100","汐止區"
"221021","299-VK","2017/09/28 19:19:47","新北市汐止區康寧街901號","121.651405","25.074975","6501100","汐止區"
"221031","353-TW","2017/09/28 19:19:37","新北市汐止區康寧街753巷2弄24號","121.640253333333","25.0746016666667","6501100","汐止區"
"221025","623-UM","2017/09/28 19:19:43","新北市汐止區汐萬路一段310號","121.650306666667","25.074815","6501100","汐止區"
"221033","647-BX","2017/09/28 19:19:46","新北市汐止區南勢街1巷1號","121.627043333333","25.03739","6501100","汐止區"
"221002","707-TV","2017/09/28 19:19:34","新北市汐止區大同路一段398-1號","121.640171666667","25.0600433333333","6501100","汐止區"
"220079","145-BY","2017/09/28 19:19:37","新北市板橋區民權路202巷26號","121.460723333333","25.017195","6500100","板橋區"
"220080","200-UY","2017/09/28 19:19:45","新北市板橋區大觀路二段19巷107號","121.450123333333","25.0027866666667","6500100","板橋區"
"220101","245-BX","2017/09/28 19:19:34","新北市板橋區莊敬路47號","121.473088333333","25.0269083333333","6500100","板橋區"
"220072","277-BY","2017/09/28 19:19:30","新北市板橋區金門街337巷7弄24號","121.43063","24.9851866666667","6500100","板橋區"
"220064","280-UM","2017/09/28 19:19:47","新北市板橋區中山路二段18號","121.472253333333","25.0148966666667","6500100","板橋區"
"220094","283-UM","2017/09/28 19:19:45","新北市板橋區光武街110巷55號","121.467331666667","25.03046","6500100","板橋區"
"220071","283-VK","2017/09/28 19:19:38","新北市板橋區重慶路269巷31-3號","121.464316666667","24.9992366666667","6500100","板橋區"
"220053","285-VK","2017/09/28 19:19:37","新北市板橋區永豐街265號","121.47815","25.0212716666667","6500100","板橋區"
"220083","286-VK","2017/09/28 19:19:42","新北市板橋區大觀路二段174巷188號","121.442181666667","25.0038266666667","6500100","板橋區"
"220081","287-VK","2017/09/28 18:47:03","新北市板橋區大觀路一段31號","121.449945","25.00852","6500100","板橋區"
"220090","288-VK","2017/09/28 19:19:28","新北市板橋區長江路一段106巷13弄35號","121.461321666667","25.0298483333333","6500100","板橋區"
"220061","293-UM","2017/09/28 19:19:38","新北市板橋區三民路二段19號","121.479275","25.0180833333333","6500100","板橋區"
"220084","296-UM","2017/09/28 19:19:44","新北市板橋區溪崑二街66巷22號","121.42735","24.9908133333333","6500100","板橋區"
"220075","297-UM","2017/09/28 19:19:47","新北市板橋區僑中一街124巷70-5號","121.449448333333","25.0174283333333","6500100","板橋區"
"220062","303-R5","2017/09/28 19:19:35","新北市板橋區三民路二段居仁巷1弄55-1號","121.48126","25.0136633333333","6500100","板橋區"
"220092","307-R5","2017/09/28 19:19:44","新北市板橋區松江街50號","121.468675","25.0272133333333","6500100","板橋區"
"220098","317-R6","2017/09/28 19:19:43","新北市板橋區民有街91號","121.464681666667","25.0276283333333","6500100","板橋區"
"220089","487-VK","2017/09/28 19:19:49","新北市板橋區文化路一段357號","121.466703333333","25.0211483333333","6500100","板橋區"
"220088","491-VK","2017/09/28 19:19:46","新北市板橋區雙十路二段42-5號","121.475806666667","25.0274683333333","6500100","板橋區"
"220035","560-BX","2017/09/28 19:19:33","新北市板橋區中正路360巷53號","121.45633","25.0228766666667","6500100","板橋區"
"220103","561-BX","2017/09/28 19:19:49","新北市板橋區文化路一段188巷7弄14號","121.467635","25.0196916666667","6500100","板橋區"
"220063","609-BX","2017/09/28 19:19:48","新北市板橋區三民路二段19號","121.479266666667","25.01817","6500100","板橋區"
"220056","630-UY","2017/09/28 19:19:44","新北市板橋區信義路147號","121.458146666667","24.9929166666667","6500100","板橋區"
"220091","637-BX","2017/09/28 19:19:28","新北市板橋區萬板路408號","121.479016666667","25.0255383333333","6500100","板橋區"
"220057","686-BX","2017/09/28 19:19:30","新北市板橋區重慶路306-2號","121.46387","24.998265","6500100","板橋區"
"220077","687-BX","2017/09/28 19:19:41","新北市板橋區大觀路一段28巷62號","121.449816666667","25.0104016666667","6500100","板橋區"
"220093","689-BX","2017/09/28 19:19:51","新北市板橋區漢生西路89巷4-2號","121.462593333333","25.0195916666667","6500100","板橋區"
"220054","741-BX","2017/09/28 19:19:41","新北市板橋區後埔街52-3號","121.460503333333","25.00589","6500100","板橋區"
"220082","806-UM","2017/09/28 19:19:41","新北市板橋區滿平街84巷98號","121.42643","24.98682","6500100","板橋區"
"220055","827-TW","2017/09/28 19:19:39","新北市板橋區館前東路156巷10號","121.464321666667","25.0072483333333","6500100","板橋區"
"220067","829-TW","2017/09/28 19:19:47","新北市板橋區長安街347號","121.474885","25.0124383333333","6500100","板橋區"
"220102","830-TW","2017/09/28 19:19:35","新北市板橋區松柏街15巷9-3號","121.473976666667","25.0300733333333","6500100","板橋區"
"220096","831-TW","2017/09/28 19:19:40","新北市板橋區大同街8巷41號","121.477885","25.02615","6500100","板橋區"
"220074","895-R6","2017/09/28 19:19:44","新北市板橋區中正路自強新村30-1號","121.454676666667","25.0140516666667","6500100","板橋區"
"220073","985-R7","2017/09/28 19:19:44","新北市板橋區新生街96號","121.458446666667","25.0221366666667","6500100","板橋區"
"220097","AAC-210","2017/09/28 19:19:30","新北市板橋區幸福路32巷3弄12號","121.460771666667","25.020755","6500100","板橋區"
"220070","AAC-253","2017/09/28 19:19:37","新北市板橋區忠孝路148號","121.463951666667","25.0024533333333","6500100","板橋區"
