"lineid","car","time","location","longitude","latitude","cityid","cityname"
"244019","403-UM","2017/09/28 20:51:50","新北市林口區粉寮路二段160巷28號","121.405133333333","25.090785","6501700","林口區"
"231059","046-UY","2017/09/28 20:59:41","新北市新店區僑信路78號","121.499631666667","24.94843","6500600","新店區"
"231061","047-UY","2017/09/28 20:59:35","新北市新店區永安街62巷2號","121.519195","24.98691","6500600","新店區"
"231060","106-UY","2017/09/28 20:59:34","新北市新店區安康路三段517號","121.481878333333","24.9484666666667","6500600","新店區"
"231051","107-UY","2017/09/28 20:59:30","新北市新店區中正路489號","121.533823333333","24.9822566666667","6500600","新店區"
"231047","108-UY","2017/09/28 20:59:32","新北市新店區文化路92號","121.544905","24.9824933333333","6500600","新店區"
"231007","189-VK","2017/09/28 12:02:08","新北市新店區安華路28-1號","121.519581666667","24.9610383333333","6500600","新店區"
"231050","215-TC","2017/09/28 20:59:31","新北市新店區三民路119號","121.534781666667","24.9721483333333","6500600","新店區"
"231063","268-BY","2017/09/28 20:59:42","新北市新店區富貴街10巷2號","121.494263333333","24.949725","6500600","新店區"
"231054","AAD-862","2017/09/28 20:59:40","新北市新店區北新路一段126巷27號","121.54321","24.9696316666667","6500600","新店區"
"231058","3712-VJ","2017/09/28 20:59:35","新北市新店區三民路60巷15號","121.535586666667","24.97279","6500600","新店區"
"231067","4772-VM","2017/09/28 20:59:32","新北市新店區安忠路57巷11弄14號","121.515286666667","24.9579316666667","6500600","新店區"
"231065","512-UM","2017/09/28 20:59:37","新北市新店區安祥路67巷9號","121.484213333333","24.9597866666667","6500600","新店區"
"231064","515-UM","2017/09/28 20:59:29","新北市新店區安和路二段185號","121.518261666667","24.9748583333333","6500600","新店區"
"231040","619-UM","2017/09/28 20:59:24","新北市新店區中正路114號","121.5424","24.971045","6500600","新店區"
"231042","641-BX","2017/09/28 20:59:34","新北市新店區中興路二段199號","121.548213333333","24.9739533333333","6500600","新店區"
"231068","718-UY","2017/09/28 20:59:25","新北市新店區寶中路63號","121.547158333333","24.98036","6500600","新店區"
"231062","720-UM","2017/09/28 20:59:37","新北市新店區裕合街122號","121.49032","24.9491383333333","6500600","新店區"
"231043","899-TW","2017/09/28 20:59:29","新北市新店區中正路373號","121.534886666667","24.9765166666667","6500600","新店區"
"231066","AKT-0513","2017/09/28 20:59:41","新北市新店區吉安街14號","121.51673","24.9657783333333","6500600","新店區"
"241011","013-R5","2017/09/28 20:59:38","新北市三重區秀江街119號","121.499706666667","25.0721666666667","6500200","三重區"
"241028","022-UY","2017/09/28 20:59:23","新北市三重區新北大道一段1號","121.492043333333","25.0612333333333","6500200","三重區"
"241008","059-VK","2017/09/28 20:59:33","新北市三重區力行路二段136巷23弄35號","121.481421666667","25.0764566666667","6500200","三重區"
"241009","060-VK","2017/09/28 20:59:28","新北市三重區三和路四段386號","121.482411666667","25.0790533333333","6500200","三重區"
"241031","061-VK","2017/09/28 20:59:39","新北市三重區重陽路一段113巷3號","121.487558333333","25.0598483333333","6500200","三重區"
"241015","062-VK","2017/09/28 20:59:29","新北市三重區福德北路63號","121.502188333333","25.0655466666667","6500200","三重區"
"241017","063-VK","2017/09/28 20:59:31","新北市三重區大仁街23號","121.492135","25.0645433333333","6500200","三重區"
"241024","065-VK","2017/09/28 20:59:29","新北市三重區大勇街82巷15弄30號","121.481266666667","25.0719916666667","6500200","三重區"
"241026","066-VK","2017/09/28 20:59:36","新北市三重區文化南路36號","121.500288333333","25.0614333333333","6500200","三重區"
"241002","090-VK","2017/09/28 20:59:05","新北市三重區仁義街159巷1號","121.49752","25.08114","6500200","三重區"
"241005","262-UM","2017/09/28 20:59:40","新北市三重區五華街213號","121.489645","25.0857516666667","6500200","三重區"
"241016","266-UM","2017/09/28 20:59:31","新北市三重區自強路一段79號","121.496256666667","25.0663783333333","6500200","三重區"
"241022","267-UM","2017/09/28 20:59:23","新北市三重區中正北路20巷12號","121.488001666667","25.0624433333333","6500200","三重區"
"241018","268-UM","2017/09/28 20:59:36","新北市三重區自強路一段236號","121.493266666667","25.0670316666667","6500200","三重區"
"241013","270-UM","2017/09/28 20:59:37","新北市三重區仁賢街6號","121.495648333333","25.0748383333333","6500200","三重區"
"241025","271-UM","2017/09/28 20:59:27","新北市三重區貴陽街14號","121.48425","25.0617316666667","6500200","三重區"
"241007","398-BY","2017/09/28 20:59:33","新北市三重區慈愛街8號","121.484466666667","25.0784066666667","6500200","三重區"
"241023","KEA-2210","2017/09/28 20:59:36","新北市三重區忠孝路三段50巷41弄64號","121.482398333333","25.0637116666667","6500200","三重區"
"241020","413-TH","2017/09/28 20:59:42","新北市三重區忠孝路二段35號","121.485918333333","25.0710833333333","6500200","三重區"
"241004","475-VK","2017/09/28 20:59:36","新北市三重區仁愛街423-1號","121.490226666667","25.0815483333333","6500200","三重區"
"241019","478-VK","2017/09/28 20:59:31","新北市三重區自強路二段74巷19號","121.488016666667","25.0698733333333","6500200","三重區"
"241030","480-VK","2017/09/28 20:59:29","新北市三重區環河南路222號","121.492463333333","25.0519666666667","6500200","三重區"
"241014","543-UM","2017/09/28 20:59:33","新北市三重區長壽街120巷11號","121.502493333333","25.0690483333333","6500200","三重區"
"241001","547-UM","2017/09/28 20:59:23","新北市三重區三和路四段138巷3號","121.48825","25.0753366666667","6500200","三重區"
"241006","AAD-863","2017/09/28 20:59:28","新北市三重區永福街165號","121.4788","25.0758016666667","6500200","三重區"
"241012","941-UM","2017/09/28 20:59:28","新北市三重區仁信街27號","121.501303333333","25.0755366666667","6500200","三重區"
"241029","942-UM","2017/09/28 20:59:32","新北市三重區正義南路107號","121.497986666667","25.05853","6500200","三重區"
"241033","AAC-255","2017/09/28 20:59:29","新北市三重區光復路二段28號","121.472086666667","25.0543483333333","6500200","三重區"
"235072","301-VK","2017/09/28 20:59:23","新北市中和區連城路270號","121.485066666667","24.996285","6500300","中和區"
"235026","800-TS","2017/09/28 20:29:49","新北市中和區員山路36巷16-3號","121.484885","24.9916133333333","6500300","中和區"
"247022","893-R6","2017/09/28 20:59:37","新北市蘆洲區三民路251號","121.468255","25.08933","6501400","蘆洲區"
"247012","546-UM","2017/09/28 20:59:24","新北市蘆洲區民權路8-1號","121.476705","25.08577","6501400","蘆洲區"
"247020","500-BY","2017/09/28 20:59:23","新北市蘆洲區民族路371號","121.471056666667","25.0912483333333","6501400","蘆洲區"
"247010","339-TH","2017/09/28 20:59:39","新北市蘆洲區鷺江街87號","121.476878333333","25.0836616666667","6501400","蘆洲區"
"247002","337-TH","2017/09/28 20:59:34","新北市蘆洲區永平街28號","121.45882","25.09076","6501400","蘆洲區"
"247004","336-TH","2017/09/28 20:59:34","新北市蘆洲區永安南路二段268號","121.458593333333","25.0807533333333","6501400","蘆洲區"
"247016","057-VK","2017/09/28 20:59:21","新北市蘆洲區正和街58號","121.468968333333","25.08144","6501400","蘆洲區"
"247006","056-VK","2017/09/28 20:59:26","新北市蘆洲區永安南路二段16巷13號","121.467798333333","25.0776516666667","6501400","蘆洲區"
"247008","053-VK","2017/09/28 20:59:41","新北市蘆洲區中山一路287號","121.471808333333","25.0794083333333","6501400","蘆洲區"
"247014","007-UY","2017/09/28 20:59:29","新北市蘆洲區中山二路36巷13號","121.47432","25.08279","6501400","蘆洲區"
"247024","002-UY","2017/09/28 20:59:30","新北市蘆洲區長興路198號","121.460871666667","25.08699","6501400","蘆洲區"
"247018","001-UY","2017/09/28 20:59:35","新北市蘆洲區民權路136-2號","121.473165","25.0889133333333","6501400","蘆洲區"
"251001","011-UM","2017/09/28 20:59:01","新北市淡水區北新路一段2號","121.453233333333","25.1807166666667","6501000","淡水區"
"251014","182-VK","2017/09/28 20:59:27","新北市淡水區淡金路五段72號","121.45498","25.2335216666667","6501000","淡水區"
"251010","413-VK","2017/09/28 20:59:43","新北市淡水區淡海路22號","121.423975","25.1787433333333","6501000","淡水區"
"251012","441-VK","2017/09/28 20:59:26","新北市淡水區淡金路五段108號","121.45647","25.2366116666667","6501000","淡水區"
"251016","442-VK","2017/09/28 20:59:26","新北市淡水區興仁路143號","121.451308333333","25.2189583333333","6501000","淡水區"
"251005","443-VK","2017/09/28 20:59:41","新北市淡水區學府路96號","121.449245","25.17105","6501000","淡水區"
"251007","577-R6","2017/09/28 20:59:25","新北市淡水區仁愛街2巷10號","121.446291666667","25.1707166666667","6501000","淡水區"
"251011","650-BX","2017/09/28 20:59:39","新北市淡水區新民街322巷2號","121.435278333333","25.1835516666667","6501000","淡水區"
"251002","672-BX","2017/09/28 20:59:36","新北市淡水區英專路112號","121.445821666667","25.1720333333333","6501000","淡水區"
"251003","766-UM","2017/09/28 20:59:39","新北市淡水區新春街161號","121.442785","25.1813066666667","6501000","淡水區"
"252005","073-UM","2017/09/28 15:31:15","新北市三芝區埔坪里埔頭坑41號","121.504438333333","25.2644933333333","6502100","三芝區"
"252002","178-VK","2017/09/28 20:59:21","新北市三芝區淡金路二段76-2號","121.504023333333","25.26096","6502100","三芝區"
"236058","912-UM","2017/09/28 20:59:32","新北市樹林區柑園街一段1-2號","121.408098333333","24.9599816666667","6501300","土城區"
"242048","441-UM","2017/09/28 20:59:40","新北市新莊區瓊林路172-7號","121.440591666667","25.0232283333333","6500500","新莊區"
"242036","133-UY","2017/09/28 20:59:36","新北市新莊區中正路516號","121.433608333333","25.0324116666667","6500500","新莊區"
"238019","599-UM","2017/09/28 19:53:16","新北市樹林區育德街78-1號","121.387956666667","24.9681083333333","6500700","樹林區"
"221012","276-VK","2017/09/28 13:19:47","新北市汐止區汐萬路一段256巷3號","121.653443333333","25.0746416666667","6501100","汐止區"
"221029","298-VK","2017/09/28 20:59:35","新北市汐止區汐萬路一段256巷1號","121.651685","25.074865","6501100","汐止區"
"221031","353-TW","2017/09/28 20:59:37","新北市汐止區汐萬路一段256巷3號","121.653341666667","25.0746433333333","6501100","汐止區"
"221018","753-BX","2017/09/28 20:59:33","新北市汐止區汐萬路一段256巷3號","121.652558333333","25.0745683333333","6501100","汐止區"
"220094","283-UM","2017/09/28 20:59:25","新北市五股區五工二路136號","121.454993333333","25.072385","6500100","板橋區"
"220081","287-VK","2017/09/28 20:59:23","新北市五股區中直路21號","121.420865","25.11216","6500100","板橋區"
"220089","487-VK","2017/09/28 20:59:41","新北市板橋區溪城路90-2號","121.429731666667","24.980525","6500100","板橋區"
"220070","AAC-253","2017/09/28 20:59:36","新北市板橋區四川路2段6-1號","121.447701666667","24.9937883333333","6500100","板橋區"
