"lineid","car","time","location","longitude","latitude","cityid","cityname"
"244019","403-UM","2017/09/28 20:51:50","新北市林口區粉寮路二段160巷28號","121.405133333333","25.090785","6501700","林口區"
"231059","046-UY","2017/09/28 21:09:41","新北市新店區僑義路10號","121.500436666667","24.9507616666667","6500600","新店區"
"231061","047-UY","2017/09/28 21:09:31","新北市新店區永平街30號","121.516361666667","24.983895","6500600","新店區"
"231060","106-UY","2017/09/28 21:09:34","新北市新店區安康路二段379號","121.495091666667","24.9546333333333","6500600","新店區"
"231051","107-UY","2017/09/28 21:09:30","新北市新店區中正路663巷7弄15號","121.53296","24.9900933333333","6500600","新店區"
"231047","108-UY","2017/09/28 21:09:24","新北市新店區寶強路45號","121.54344","24.979485","6500600","新店區"
"231007","189-VK","2017/09/28 12:02:08","新北市新店區安華路28-1號","121.519581666667","24.9610383333333","6500600","新店區"
"231050","215-TC","2017/09/28 21:09:31","新北市新店區三民路75巷5弄1號","121.535565","24.9708683333333","6500600","新店區"
"231063","268-BY","2017/09/28 21:09:22","新北市新店區玫瑰路58巷1號","121.4955","24.9465933333333","6500600","新店區"
"231054","AAD-862","2017/09/28 21:09:40","新北市新店區大新街7巷25弄2號","121.544293333333","24.9678","6500600","新店區"
"231067","4772-VM","2017/09/28 21:09:32","新北市新店區安德街130巷9號","121.508348333333","24.9605566666667","6500600","新店區"
"231065","512-UM","2017/09/28 21:09:37","新北市新店區安祥路69巷89弄45號","121.482741666667","24.961975","6500600","新店區"
"231064","515-UM","2017/09/28 21:09:29","新北市新店區安民街121巷20號","121.515206666667","24.9689216666667","6500600","新店區"
"231040","619-UM","2017/09/28 21:09:44","新北市新店區北新路一段100號","121.542133333333","24.9693966666667","6500600","新店區"
"231042","641-BX","2017/09/28 21:09:34","新北市新店區寶興路60巷4號","121.549803333333","24.9718566666667","6500600","新店區"
"231062","720-UM","2017/09/28 21:09:37","新北市新店區雙城路2巷2號","121.491246666667","24.9514466666667","6500600","新店區"
"241011","013-R5","2017/09/28 21:09:38","新北市三重區龍濱路130-1號","121.501661666667","25.071885","6500200","三重區"
"241028","022-UY","2017/09/28 21:09:43","新北市三重區正義南路60-1號","121.498233333333","25.0606083333333","6500200","三重區"
"241008","059-VK","2017/09/28 21:09:33","新北市三重區自強路一段71號","121.49749","25.066905","6500200","三重區"
"241009","060-VK","2017/09/28 21:09:28","新北市三重區忠孝路二段122號","121.483035","25.0687916666667","6500200","三重區"
"241031","061-VK","2017/09/28 21:09:39","新北市三重區重新路五段328號","121.477141666667","25.04802","6500200","三重區"
"241015","062-VK","2017/09/28 21:09:29","新北市三重區福德北路65號","121.502163333333","25.0655916666667","6500200","三重區"
"241017","063-VK","2017/09/28 21:09:31","新北市三重區國隆路31號","121.492326666667","25.06448","6500200","三重區"
"241024","065-VK","2017/09/28 21:09:29","新北市三重區大勇街49號","121.481308333333","25.071995","6500200","三重區"
"241026","066-VK","2017/09/28 21:09:36","新北市三重區文化南路42號","121.50042","25.0602533333333","6500200","三重區"
"241002","090-VK","2017/09/28 21:09:25","新北市三重區五華街11號","121.49497","25.0802766666667","6500200","三重區"
"241003","091-VK","2017/09/28 21:09:25","新北市三重區仁義街228巷1號","121.494753333333","25.0849166666667","6500200","三重區"
"241005","262-UM","2017/09/28 21:09:21","新北市三重區三信路182號","121.488033333333","25.08624","6500200","三重區"
"241016","266-UM","2017/09/28 21:09:31","新北市三重區信義西街138號","121.495688333333","25.0643066666667","6500200","三重區"
"241022","267-UM","2017/09/28 21:09:44","新北市三重區中正北路64巷22號","121.486188333333","25.0637116666667","6500200","三重區"
"241018","268-UM","2017/09/28 21:09:36","新北市三重區六張街39號","121.494268333333","25.0705633333333","6500200","三重區"
"241013","270-UM","2017/09/28 21:09:37","新北市三重區仁賢街12-1號","121.495686666667","25.07482","6500200","三重區"
"241025","271-UM","2017/09/28 21:09:27","新北市三重區中正北路208巷8號","121.482311666667","25.0670116666667","6500200","三重區"
"241007","398-BY","2017/09/28 21:09:33","新北市三重區三和路四段145巷81號","121.486388333333","25.0787466666667","6500200","三重區"
"241023","KEA-2210","2017/09/28 21:09:36","新北市三重區忠孝路三段50巷41弄64號","121.482368333333","25.0637216666667","6500200","三重區"
"241020","413-TH","2017/09/28 21:09:22","新北市三重區忠孝路二段35號","121.485865","25.0710683333333","6500200","三重區"
"241004","475-VK","2017/09/28 21:09:33","新北市三重區仁愛街423-1號","121.490366666667","25.0814533333333","6500200","三重區"
"241019","478-VK","2017/09/28 21:09:31","新北市三重區自強路二段74巷21號","121.487958333333","25.069865","6500200","三重區"
"241030","480-VK","2017/09/28 21:09:29","新北市三重區五谷王北街20巷15弄1號","121.475066666667","25.0484916666667","6500200","三重區"
"241014","543-UM","2017/09/28 21:09:36","新北市三重區三和路二段37-9號","121.501298333333","25.0677083333333","6500200","三重區"
"241001","547-UM","2017/09/28 21:09:23","新北市三重區自強路四段32-2號","121.48902","25.07692","6500200","三重區"
"241006","AAD-863","2017/09/28 21:09:28","新北市三重區明志街135號","121.48927","25.06326","6500200","三重區"
"241012","941-UM","2017/09/28 21:09:28","新北市三重區仁信街27號","121.50131","25.0755466666667","6500200","三重區"
"241029","942-UM","2017/09/28 21:09:41","新北市三重區正義南路107號","121.498218333333","25.058535","6500200","三重區"
"241033","AAC-255","2017/09/28 21:09:29","新北市三重區重光街120-1號","121.46632","25.0648266666667","6500200","三重區"
"235072","301-VK","2017/09/28 21:09:43","新北市中和區員山路36巷13號","121.484233333333","24.9906866666667","6500300","中和區"
"235026","800-TS","2017/09/28 20:29:49","新北市中和區員山路36巷16-3號","121.484885","24.9916133333333","6500300","中和區"
"247022","893-R6","2017/09/28 21:09:42","新北市蘆洲區民族路546號","121.467838333333","25.0890716666667","6501400","蘆洲區"
"247012","546-UM","2017/09/28 21:09:24","新北市蘆洲區民族路32號","121.476396666667","25.0842666666667","6501400","蘆洲區"
"247020","500-BY","2017/09/28 21:09:23","新北市蘆洲區民族路436巷3號","121.472788333333","25.0925783333333","6501400","蘆洲區"
"247010","339-TH","2017/09/28 21:09:39","新北市蘆洲區鷺江街42號","121.477338333333","25.0831683333333","6501400","蘆洲區"
"247002","337-TH","2017/09/28 21:09:43","新北市蘆洲區永樂街38巷42弄6號","121.458863333333","25.0899933333333","6501400","蘆洲區"
"247004","336-TH","2017/09/28 21:09:34","新北市蘆洲區永安南路二段286號","121.457723333333","25.081205","6501400","蘆洲區"
"247016","057-VK","2017/09/28 21:09:21","新北市蘆洲區和平路136-1號","121.466908333333","25.0806616666667","6501400","蘆洲區"
"247006","056-VK","2017/09/28 21:09:26","新北市蘆洲區永安南路二段16巷18號","121.468023333333","25.07792","6501400","蘆洲區"
"247008","053-VK","2017/09/28 21:09:40","新北市蘆洲區信義路34巷16號","121.474605","25.07877","6501400","蘆洲區"
"247014","007-UY","2017/09/28 21:09:29","新北市蘆洲區中央路155號","121.47265","25.0846916666667","6501400","蘆洲區"
"247024","002-UY","2017/09/28 21:09:30","新北市蘆洲區長興路50巷1號","121.46377","25.0838066666667","6501400","蘆洲區"
"247018","001-UY","2017/09/28 21:09:35","新北市蘆洲區民族路408巷12號","121.474985","25.0918666666667","6501400","蘆洲區"
"251009","008-UM","2017/09/28 21:09:31","新北市淡水區民權路187巷74弄9號","121.462033333333","25.1343866666667","6501000","淡水區"
"251001","011-UM","2017/09/28 21:09:41","新北市淡水區新市一路三段101巷16弄14號","121.446761666667","25.1839516666667","6501000","淡水區"
"251004","180-VK","2017/09/28 21:09:28","新北市淡水區民權路38號","121.459988333333","25.1373466666667","6501000","淡水區"
"251014","182-VK","2017/09/28 21:09:32","新北市淡水區六塊厝3-1號","121.450696666667","25.2405116666667","6501000","淡水區"
"251010","413-VK","2017/09/28 21:09:23","新北市淡水區中正路一段63巷7弄2號","121.422918333333","25.1772766666667","6501000","淡水區"
"251012","441-VK","2017/09/28 21:09:26","新北市淡水區淡金路五段172號","121.457023333333","25.2400683333333","6501000","淡水區"
"251016","442-VK","2017/09/28 21:09:26","新北市淡水區牛埔子7-7號","121.448226666667","25.2183333333333","6501000","淡水區"
"251005","443-VK","2017/09/28 21:09:21","新北市淡水區中正東路35巷28號","121.446911666667","25.1688333333333","6501000","淡水區"
"251011","650-BX","2017/09/28 21:09:19","新北市淡水區新民街180巷7弄10號","121.437381666667","25.179705","6501000","淡水區"
"251002","672-BX","2017/09/28 21:09:36","新北市淡水區水源街二段34巷3號","121.45019","25.173225","6501000","淡水區"
"251003","766-UM","2017/09/28 21:09:39","新北市淡水區新春街103-10號","121.440485","25.181835","6501000","淡水區"
"252005","073-UM","2017/09/28 15:31:15","新北市三芝區埔坪里埔頭坑41號","121.504438333333","25.2644933333333","6502100","三芝區"
"236058","912-UM","2017/09/28 21:09:32","新北市土城區城林路6巷80號","121.438625","24.9796483333333","6501300","土城區"
"242048","441-UM","2017/09/28 21:09:40","新北市樹林區太平路269號","121.419391666667","24.9729833333333","6500500","新莊區"
"238019","599-UM","2017/09/28 19:53:16","新北市樹林區育德街78-1號","121.387956666667","24.9681083333333","6500700","樹林區"
"221012","276-VK","2017/09/28 13:19:47","新北市汐止區汐萬路一段256巷3號","121.653443333333","25.0746416666667","6501100","汐止區"
"221029","298-VK","2017/09/28 21:09:35","新北市汐止區汐萬路一段256巷1號","121.651706666667","25.07487","6501100","汐止區"
"220094","283-UM","2017/09/28 21:09:25","新北市板橋區民生路二段120號","121.470313333333","25.0197016666667","6500100","板橋區"
"220081","287-VK","2017/09/28 21:09:43","新北市八里區中山路三段409號","121.36864","25.1356066666667","6500100","板橋區"
"220089","487-VK","2017/09/28 21:09:41","新北市樹林區中山路三段210-2號","121.380641666667","24.966515","6500100","板橋區"
"220070","AAC-253","2017/09/28 21:09:36","新北市板橋區華東街1-9號","121.448245","24.9948483333333","6500100","板橋區"
