"lineid","car","time","location","longitude","latitude","cityid","cityname"
"244019","403-UM","2017/09/28 20:51:50","新北市林口區粉寮路二段160巷28號","121.405133333333","25.090785","6501700","林口區"
"231059","046-UY","2017/09/28 21:19:21","新北市新店區安豐路45號","121.500198333333","24.955125","6500600","新店區"
"231061","047-UY","2017/09/28 21:19:27","新北市新店區安德街116巷26弄3號","121.508966666667","24.9620966666667","6500600","新店區"
"231051","107-UY","2017/09/28 21:19:30","新北市新店區中正路680巷51弄19號","121.535426666667","24.9898766666667","6500600","新店區"
"231047","108-UY","2017/09/28 21:19:22","新北市新店區中央二街77號","121.525913333333","24.9748666666667","6500600","新店區"
"231007","189-VK","2017/09/28 12:02:08","新北市新店區安華路28-1號","121.519581666667","24.9610383333333","6500600","新店區"
"231050","215-TC","2017/09/28 21:19:31","新北市新店區華興街2號","121.537988333333","24.9701083333333","6500600","新店區"
"231063","268-BY","2017/09/28 21:19:22","新北市新店區玫瑰路57巷46號","121.497405","24.9463783333333","6500600","新店區"
"231065","512-UM","2017/09/28 21:19:37","新北市新店區薏仁坑路2-1號","121.500453333333","24.9577783333333","6500600","新店區"
"231040","619-UM","2017/09/28 21:19:24","新北市新店區光明街300號","121.540663333333","24.96481","6500600","新店區"
"241011","013-R5","2017/09/28 21:19:38","新北市三重區龍濱路197號","121.501905","25.071415","6500200","三重區"
"241028","022-UY","2017/09/28 21:19:22","新北市三重區正義南路169號","121.49897","25.0574916666667","6500200","三重區"
"241008","059-VK","2017/09/28 21:19:33","新北市三重區自強路一段62號","121.49728","25.0667233333333","6500200","三重區"
"241009","060-VK","2017/09/28 21:19:28","新北市三重區忠孝路三段20號","121.48154","25.0671716666667","6500200","三重區"
"241031","061-VK","2017/09/28 21:19:39","新北市三重區五谷王南街46巷37號","121.475733333333","25.045545","6500200","三重區"
"241015","062-VK","2017/09/28 21:19:29","新北市三重區三和路一段47巷18-2號","121.50366","25.065655","6500200","三重區"
"241017","063-VK","2017/09/28 21:19:31","新北市三重區中正北路25巷25弄2號","121.493226666667","25.06263","6500200","三重區"
"241024","065-VK","2017/09/28 21:19:29","新北市三重區中正北路145巷14號","121.48414","25.067755","6500200","三重區"
"241026","066-VK","2017/09/28 21:19:36","新北市三重區大同南路220號","121.496793333333","25.056215","6500200","三重區"
"241002","090-VK","2017/09/28 21:19:25","新北市三重區自強路五段43號","121.494083333333","25.081525","6500200","三重區"
"241003","091-VK","2017/09/28 21:19:41","新北市三重區仁義街220巷1號","121.495236666667","25.0842916666667","6500200","三重區"
"241005","262-UM","2017/09/28 21:19:40","新北市三重區集英路22號","121.486436666667","25.0852333333333","6500200","三重區"
"241016","266-UM","2017/09/28 21:19:31","新北市三重區自強路一段99號","121.495771666667","25.066295","6500200","三重區"
"241018","268-UM","2017/09/28 21:19:36","新北市三重區忠孝路一段38號","121.491183333333","25.0719216666667","6500200","三重區"
"241013","270-UM","2017/09/28 21:19:37","新北市三重區仁愛街83號","121.495845","25.0732583333333","6500200","三重區"
"241025","271-UM","2017/09/28 21:19:27","新北市三重區中正北路208巷8號","121.482336666667","25.0669433333333","6500200","三重區"
"241007","398-BY","2017/09/28 21:19:33","新北市三重區忠孝路一段75號","121.490498333333","25.0719983333333","6500200","三重區"
"241023","KEA-2210","2017/09/28 21:19:36","新北市三重區中正北路176巷27號","121.48259","25.0659766666667","6500200","三重區"
"241004","475-VK","2017/09/28 21:19:33","新北市三重區碧華街291號","121.490418333333","25.0838433333333","6500200","三重區"
"241019","478-VK","2017/09/28 21:19:31","新北市三重區重陽路四段2號","121.490311666667","25.06883","6500200","三重區"
"241030","480-VK","2017/09/28 21:19:29","新北市三重區五谷王北街153號","121.476196666667","25.0525133333333","6500200","三重區"
"241014","543-UM","2017/09/28 21:19:33","新北市三重區介壽路4號","121.498863333333","25.0692566666667","6500200","三重區"
"241001","547-UM","2017/09/28 21:19:23","新北市三重區仁愛街423-1號","121.490368333333","25.0815116666667","6500200","三重區"
"241006","AAD-863","2017/09/28 21:19:29","新北市三重區新北大道一段168號","121.483651666667","25.06152","6500200","三重區"
"241012","941-UM","2017/09/28 21:19:28","新北市三重區龍門路284號","121.501998333333","25.0740983333333","6500200","三重區"
"241033","AAC-255","2017/09/28 21:19:29","新北市三重區光復路二段126巷6號","121.470781666667","25.0587766666667","6500200","三重區"
"235026","800-TS","2017/09/28 20:29:49","新北市中和區員山路36巷16-3號","121.484885","24.9916133333333","6500300","中和區"
"247022","893-R6","2017/09/28 21:19:34","新北市蘆洲區三民路226號","121.468665","25.0894183333333","6501400","蘆洲區"
"247012","546-UM","2017/09/28 21:19:33","新北市蘆洲區民族路236巷8號","121.480286666667","25.08858","6501400","蘆洲區"
"247020","500-BY","2017/09/28 21:19:23","新北市蘆洲區民族路422巷88-2號","121.473398333333","25.09393","6501400","蘆洲區"
"247010","339-TH","2017/09/28 21:19:39","新北市蘆洲區鷺江街23號","121.478835","25.0824116666667","6501400","蘆洲區"
"247002","337-TH","2017/09/28 21:19:33","新北市蘆洲區永樂街46號","121.457743333333","25.0884516666667","6501400","蘆洲區"
"247004","336-TH","2017/09/28 21:19:34","新北市蘆洲區永安南路二段324號","121.456906666667","25.082785","6501400","蘆洲區"
"247016","057-VK","2017/09/28 21:19:41","新北市蘆洲區中正路185巷78弄46號","121.465538333333","25.085135","6501400","蘆洲區"
"247006","056-VK","2017/09/28 21:19:26","新北市蘆洲區長安街59號","121.463028333333","25.0797966666667","6501400","蘆洲區"
"247008","053-VK","2017/09/28 21:19:41","新北市蘆洲區中山一路103巷25號","121.475823333333","25.0810483333333","6501400","蘆洲區"
"247014","007-UY","2017/09/28 21:19:29","新北市蘆洲區保和街71號","121.469393333333","25.0860933333333","6501400","蘆洲區"
"247024","002-UY","2017/09/28 21:19:30","新北市蘆洲區光榮路112號","121.464583333333","25.088795","6501400","蘆洲區"
"247018","001-UY","2017/09/28 21:19:35","新北市蘆洲區復興路111-6號","121.476458333333","25.0883716666667","6501400","蘆洲區"
"251009","008-UM","2017/09/28 21:19:31","新北市淡水區民族路33巷16-14號","121.463171666667","25.1356933333333","6501000","淡水區"
"251001","011-UM","2017/09/28 21:19:41","新北市淡水區中山北路二段185號","121.44426","25.1852916666667","6501000","淡水區"
"251004","180-VK","2017/09/28 21:19:28","新北市淡水區民族路33號","121.462243333333","25.1357916666667","6501000","淡水區"
"251008","181-VK","2017/09/28 21:19:24","新北市淡水區水源街二段232號","121.460691666667","25.1762966666667","6501000","淡水區"
"251014","182-VK","2017/09/28 21:19:27","新北市淡水區溪口28號","121.455453333333","25.2361716666667","6501000","淡水區"
"251010","413-VK","2017/09/28 21:19:23","新北市淡水區中正路一段156巷51號","121.421848333333","25.1808633333333","6501000","淡水區"
"251012","441-VK","2017/09/28 21:19:26","新北市淡水區石頭埔8號","121.452631666667","25.23455","6501000","淡水區"
"251016","442-VK","2017/09/28 21:19:26","新北市淡水區前洲子5-1號","121.443721666667","25.2184116666667","6501000","淡水區"
"251005","443-VK","2017/09/28 21:19:28","新北市淡水區仁愛街2巷4號","121.44635","25.1705933333333","6501000","淡水區"
"251011","650-BX","2017/09/28 21:19:39","新北市淡水區新民街120巷29號","121.438846666667","25.1788183333333","6501000","淡水區"
"251002","672-BX","2017/09/28 21:19:04","新北市淡水區學府路172巷21號","121.448325","25.1749166666667","6501000","淡水區"
"251003","766-UM","2017/09/28 21:19:39","新北市淡水區崁頂15-5號","121.438995","25.18616","6501000","淡水區"
"252005","073-UM","2017/09/28 15:31:15","新北市三芝區埔坪里埔頭坑41號","121.504438333333","25.2644933333333","6502100","三芝區"
"242048","441-UM","2017/09/28 21:19:40","新北市樹林區中山路三段210-2號","121.380691666667","24.9663216666667","6500500","新莊區"
"238019","599-UM","2017/09/28 19:53:16","新北市樹林區育德街78-1號","121.387956666667","24.9681083333333","6500700","樹林區"
"221012","276-VK","2017/09/28 13:19:47","新北市汐止區汐萬路一段256巷3號","121.653443333333","25.0746416666667","6501100","汐止區"
"220081","287-VK","2017/09/28 21:19:23","新北市八里區中山路三段409號","121.36866","25.134845","6500100","板橋區"
