"lineid","car","time","location","longitude","latitude","cityid","cityname"
"234044","148-BY","2017/11/25 12:59:48","新北市永和區得和路373巷16弄1號","121.525078333333","25.00034","6500400","永和區"
"234012","149-BY","2017/11/25 12:59:46","新北市永和區信義路17巷11號","121.513618333333","25.0113833333333","6500400","永和區"
"234005","207-UY","2017/11/25 12:59:48","新北市永和區永和路二段100號","121.515126666667","25.011825","6500400","永和區"
"234078","298-R6","2017/11/25 12:59:41","新北市永和區永亨路63號","121.521123333333","25.0060716666667","6500400","永和區"
"234036","336-UY","2017/11/25 12:59:52","新北市永和區成功路二段203號","121.526576666667","24.9960033333333","6500400","永和區"
"234062","337-UY","2017/11/25 12:59:54","新北市永和區秀朗路一段160號","121.51841","25.0033733333333","6500400","永和區"
"234084","338-UY","2017/11/25 12:59:53","新北市永和區永寧街127號","121.518051666667","25.0056283333333","6500400","永和區"
"234068","552-UM","2017/11/25 12:59:47","新北市永和區竹林路124巷38號","121.51792","25.01156","6500400","永和區"
"234052","553-UM","2017/11/25 12:59:51","新北市永和區竹林路66巷2號","121.518288333333","25.01337","6500400","永和區"
"234015","745-BX","2017/11/25 12:59:44","新北市永和區永和路二段299號","121.516128333333","25.01613","6500400","永和區"
"234028","746-BX","2017/11/25 12:59:47","新北市永和區四維街42號","121.525341666667","24.9981283333333","6500400","永和區"
"234060","AAD-866","2017/11/25 12:59:51","新北市永和區福和路307號","121.516313333333","25.0072816666667","6500400","永和區"
"234040","862-TW","2017/11/25 12:59:54","新北市永和區永貞路304號","121.511931666667","25.0048033333333","6500400","永和區"
"234048","863-TW","2017/11/25 12:59:42","新北市永和區文化路194號","121.510788333333","25.01631","6500400","永和區"
"234025","9381-KE","2017/11/25 12:59:50","新北市永和區水源街2巷24號","121.51212","25.0056916666667","6500400","永和區"
"234010","9373-KE","2017/11/25 12:59:46","新北市永和區信義路122號","121.512371666667","25.0147766666667","6500400","永和區"
"248017","225-UY","2017/11/25 12:59:42","新北市五股區中興路二段83巷26-6號","121.46009","25.0752566666667","6501500","五股區"
"234022","9380-KE","2017/11/25 12:59:38","新北市永和區竹林路75巷15-1號","121.519608333333","25.0137283333333","6500400","永和區"
"234076","969-R7","2017/11/25 12:59:55","新北市永和區民享街6號","121.515155","24.995475","6500400","永和區"
"234072","AAC-211","2017/11/25 12:59:50","新北市永和區環河東路二段90號","121.524421666667","25.01066","6500400","永和區"
"234066","AAC-212","2017/11/25 12:59:58","新北市永和區中和路625號","121.512975","25.0048483333333","6500400","永和區"
"234001","AAC-295","2017/11/25 12:59:57","新北市永和區永平路38號","121.512955","25.0087683333333","6500400","永和區"
"244005","657-BX","2017/11/25 12:59:42","新北市林口區粉寮路37-1號","121.401146666667","25.0849733333333","6501700","林口區"
"244021","838-TS","2017/11/25 11:13:33","新北市林口區粉寮69號","121.40479","25.0908166666667","6501700","林口區"
"231028","046-UY","2017/11/25 12:59:43","","121.519685","24.9609583333333","6500600","新店區"
"231030","047-UY","2017/11/25 12:59:50","","121.51911","24.9609666666667","6500600","新店區"
"231029","106-UY","2017/11/25 12:59:56","新北市新店區安華路28-1號","121.519835","24.9609866666667","6500600","新店區"
"231018","107-UY","2017/11/25 12:59:43","新北市新店區安華路28-1號","121.519428333333","24.9612566666667","6500600","新店區"
"231012","108-UY","2017/11/24 22:09:57","新北市新店區安華路28-1號","121.519346666667","24.9610233333333","6500600","新店區"
"231020","187-VK","2017/11/25 12:59:51","新北市新店區安華路28-1號","121.519596666667","24.9612133333333","6500600","新店區"
"231008","192-VK","2017/11/25 11:06:17","新北市新店區成功路45-1號","121.539166666667","24.9000833333333","6500600","新店區"
"231017","KEA-2219","2017/11/25 12:59:41","新北市新店區安華路28-1號","121.519823333333","24.9612","6500600","新店區"
"231034","268-BY","2017/11/25 12:59:44","新北市新店區安華路28-1號","121.519403333333","24.96063","6500600","新店區"
"231010","278-BY","2017/11/25 12:59:54","新北市新店區安華路28-1號","121.519581666667","24.9611366666667","6500600","新店區"
"231023","AAD-862","2017/11/25 08:26:11","新北市新店區安華路28-1號","121.519736666667","24.9611883333333","6500600","新店區"
"231025","3713-VJ","2017/11/25 12:59:37","新北市新店區安華路28-1號","121.519251666667","24.960735","6500600","新店區"
"231024","4716-K9","2017/11/25 12:59:47","新北市新店區安華路28-1號","121.519091666667","24.9612666666667","6500600","新店區"
"231038","4715-K9","2017/11/25 12:59:50","","121.519275","24.9603866666667","6500600","新店區"
"231036","513-UM","2017/11/25 12:59:43","新北市新店區安華路28-1號","121.519666666667","24.9612183333333","6500600","新店區"
"231035","515-UM","2017/11/25 00:57:03","新北市新店區安華路28-1號","121.519613333333","24.9610016666667","6500600","新店區"
"231003","616-UM","2017/11/25 12:59:43","","121.519645","24.960605","6500600","新店區"
"231006","617-UM","2017/11/25 12:59:56","新北市新店區安華路28-1號","121.519321666667","24.96093","6500600","新店區"
"231003","618-UM","2017/11/25 03:28:22","新北市新店區安華路28-1號","121.519485","24.961295","6500600","新店區"
"231001","619-UM","2017/11/25 12:59:49","新北市新店區安華路28-1號","121.519601666667","24.961005","6500600","新店區"
"231013","719-UM","2017/11/25 12:59:41","新北市新店區安華路28-1號","121.51943","24.9611316666667","6500600","新店區"
"231033","720-UM","2017/11/25 12:59:47","新北市新店區安華路28-1號","121.519208333333","24.96128","6500600","新店區"
"231005","897-TW","2017/11/25 12:59:44","新北市新店區安華路28-1號","121.519616666667","24.9607966666667","6500600","新店區"
"231004","899-TW","2017/11/25 03:47:03","新北市新店區安華路28-1號","121.518826666667","24.9608933333333","6500600","新店區"
"231037","AKT-0513","2017/11/25 12:59:50","新北市新店區安華路1-1號","121.519283333333","24.9604466666667","6500600","新店區"
"235029","098-UM","2017/11/25 12:59:50","新北市中和區中正路506號","121.48866","24.9943666666667","6500300","中和區"
"235004","150-BY","2017/11/25 12:56:22","新北市中和區和城路一段271巷1號","121.4855","24.991795","6500300","中和區"
"235022","151-BY","2017/11/25 12:59:52","新北市中和區錦和路350-1號","121.490241666667","24.99355","6500300","中和區"
"235002","185-VK","2017/11/25 12:59:46","","121.525975","24.9975133333333","6500300","中和區"
"235013","186-VK","2017/11/25 12:59:38","新北市中和區員山路36巷13號","121.484163333333","24.990925","6500300","中和區"
"235031","255-BX","2017/11/25 12:59:48","新北市中和區中正路891號","121.484296666667","25.0044933333333","6500300","中和區"
"235025","378-QA","2017/11/25 03:57:28","新北市中和區員山路36巷13號","121.484236666667","24.9915666666667","6500300","中和區"
"235035","269-TV","2017/11/25 12:59:52","新北市中和區員山路36巷16-6號","121.485323333333","24.9920533333333","6500300","中和區"
"235006","551-UM","2017/11/25 12:59:37","新北市中和區中正路466號","121.490081666667","24.9941966666667","6500300","中和區"
"235026","800-TS","2017/11/25 12:59:43","新北市中和區中正路637巷60弄61號","121.48545","24.9926633333333","6500300","中和區"
"235005","802-TS","2017/11/25 12:59:40","新北市中和區員山路36巷16-2號","121.48531","24.9917","6500300","中和區"
"235001","AAC-213","2017/11/25 12:59:40","新北市中和區中正路395號","121.489925","24.9935866666667","6500300","中和區"
"228005","097-TW","2017/11/25 12:59:38","新北市貢寮區福隆里興隆街14號","121.94507","25.016805","6502600","貢寮區"
"228004","212-TW","2017/11/25 12:59:47","新北市貢寮區吉林里內寮街57號","121.886508333333","24.98679","6502600","貢寮區"
"227002","400-TW","2017/11/25 12:09:32","新北市雙溪區三貂里政光路3-1號","121.850843333333","25.0631016666667","6502500","雙溪區"
"207002","749-BX","2017/11/25 12:59:41","新北市萬里區雙興里大坪路1-1號","121.639201666667","25.1660633333333","6502800","萬里區"
"252005","073-UM","2017/11/25 12:59:45","新北市三芝區埔頭里埔頭4號","121.505791666667","25.2509183333333","6502100","三芝區"
"207001","662-BX","2017/11/25 12:59:51","新北市萬里區萬里里獅頭路23號","121.693453333333","25.178335","6502800","萬里區"
"208004","170-UY","2017/11/25 12:59:38","新北市金山區民生路202號","121.644051666667","25.222235","6502700","金山區"
"236006","498-BY","2017/11/25 12:59:36","新北市土城區亞洲路32巷6號","121.435871666667","24.9744766666667","6501300","土城區"
"238026","308-TH","2017/11/25 12:59:40","新北市樹林區八德街1158號","121.39058","24.96842","6500700","樹林區"
"221012","276-VK","2017/11/25 12:59:50","新北市汐止區大同路二段501號","121.661098333333","25.06856","6501100","汐止區"
"221031","353-TW","2017/11/25 12:59:42","新北市汐止區大同路二段184巷8號","121.653345","25.0639333333333","6501100","汐止區"
"221018","753-BX","2017/11/25 12:59:39","新北市汐止區福德一路342巷1弄12號","121.628955","25.0633083333333","6501100","汐止區"
"242001","281-VK","2017/11/25 08:29:24","新北市新莊區環河路636-7號","121.437311666667","25.01126","6500500","新莊區"
