"lineid","car","time","location","longitude","latitude","cityid","cityname"
"234044","148-BY","2017/11/25 13:29:48","新北市永和區秀朗路二段169-1號","121.525378333333","25.0015983333333","6500400","永和區"
"234012","149-BY","2017/11/25 13:29:46","新北市永和區永貞路422號","121.508526666667","25.0082683333333","6500400","永和區"
"234005","207-UY","2017/11/25 13:29:50","新北市永和區中山路一段222號","121.508113333333","25.008335","6500400","永和區"
"234078","298-R6","2017/11/25 13:29:49","新北市永和區林森路10巷18弄17號","121.526233333333","25.00722","6500400","永和區"
"234036","336-UY","2017/11/25 13:29:52","新北市永和區民樂街35巷1號","121.527591666667","25.001035","6500400","永和區"
"234062","337-UY","2017/11/25 13:29:35","新北市永和區得和路243巷16號","121.520675","25.000785","6500400","永和區"
"234084","338-UY","2017/11/25 13:29:54","新北市永和區林森路44巷6弄6號","121.525481666667","25.0049433333333","6500400","永和區"
"234068","552-UM","2017/11/25 13:29:47","新北市永和區警光街12號","121.519796666667","25.0095566666667","6500400","永和區"
"234052","553-UM","2017/11/25 13:29:51","新北市永和區復興街19巷3號","121.515986666667","25.0131016666667","6500400","永和區"
"234015","745-BX","2017/11/25 13:29:44","新北市永和區環河西路一段9號","121.514821666667","25.0181","6500400","永和區"
"234028","746-BX","2017/11/25 13:29:38","新北市永和區民生路69號","121.52268","24.9972866666667","6500400","永和區"
"234060","AAD-866","2017/11/25 13:29:31","新北市永和區永貞路155號","121.515418333333","25.00396","6500400","永和區"
"234040","862-TW","2017/11/25 13:29:54","新北市永和區中和路519巷16號","121.51074","25.0031933333333","6500400","永和區"
"234048","863-TW","2017/11/25 13:29:42","新北市永和區信義路122號","121.512386666667","25.0147816666667","6500400","永和區"
"234025","9381-KE","2017/11/25 13:29:50","新北市永和區中山路一段33號","121.513303333333","25.0103033333333","6500400","永和區"
"234010","9373-KE","2017/11/25 13:29:46","新北市永和區仁愛路141巷5弄6號","121.511903333333","25.0121433333333","6500400","永和區"
"248019","225-UY","2017/11/25 13:29:42","新北市五股區民義路二段52巷15號","121.412603333333","25.1121083333333","6501500","五股區"
"234022","9380-KE","2017/11/25 13:29:55","新北市永和區竹林路91巷47弄2號","121.521538333333","25.013085","6500400","永和區"
"234076","969-R7","2017/11/25 13:29:54","新北市永和區中正路286巷7號","121.517698333333","24.998655","6500400","永和區"
"234072","AAC-211","2017/11/25 13:29:50","新北市永和區永和路二段105號","121.515015","25.0118533333333","6500400","永和區"
"234066","AAC-212","2017/11/25 13:29:57","新北市永和區保平路182號","121.51066","25.0066033333333","6500400","永和區"
"234001","AAC-295","2017/11/25 13:29:45","新北市永和區永和路一段107號","121.513865","25.0079216666667","6500400","永和區"
"244021","838-TS","2017/11/25 11:13:33","新北市林口區粉寮69號","121.40479","25.0908166666667","6501700","林口區"
"231028","046-UY","2017/11/25 13:29:43","新北市新店區安康路一段266巷4號","121.51981","24.9641566666667","6500600","新店區"
"231030","047-UY","2017/11/25 13:29:50","新北市新店區安康路一段351-1號","121.519436666667","24.9639133333333","6500600","新店區"
"231029","106-UY","2017/11/25 13:29:55","新北市新店區安豐路49號","121.500015","24.9540466666667","6500600","新店區"
"231018","107-UY","2017/11/25 13:29:43","新北市新店區中央路63號","121.532633333333","24.9771166666667","6500600","新店區"
"231012","108-UY","2017/11/25 13:29:52","新北市新店區寶橋路6巷2號","121.543291666667","24.973225","6500600","新店區"
"231020","187-VK","2017/11/25 13:29:51","新北市新店區永興路7號","121.54472","24.9393033333333","6500600","新店區"
"231008","192-VK","2017/11/25 11:06:17","新北市新店區成功路45-1號","121.539166666667","24.9000833333333","6500600","新店區"
"231017","KEA-2219","2017/11/25 13:29:41","新北市新店區新烏路一段9-1號","121.547268333333","24.9513783333333","6500600","新店區"
"231026","256-BX","2017/11/25 13:29:56","新北市新店區北宜路一段8號","121.538153333333","24.95768","6500600","新店區"
"231034","268-BY","2017/11/25 13:29:43","新北市新店區車子路10-4號","121.504816666667","24.9545566666667","6500600","新店區"
"231010","278-BY","2017/11/25 13:29:54","新北市新店區自由街2號","121.53546","24.97516","6500600","新店區"
"231023","AAD-862","2017/11/25 13:29:53","新北市新店區新店路13號","121.540386666667","24.9528766666667","6500600","新店區"
"231027","3712-VJ","2017/11/25 13:29:50","新北市新店區新店後街87號","121.537616666667","24.9555616666667","6500600","新店區"
"231025","3713-VJ","2017/11/25 13:29:57","新北市新店區中央五街44號","121.528211666667","24.9750333333333","6500600","新店區"
"231024","4716-K9","2017/11/25 13:29:48","新北市新店區北新路二段59巷1號","121.54242","24.972825","6500600","新店區"
"231038","4715-K9","2017/11/25 13:29:50","新北市新店區安華路30巷1號","121.51962","24.9593033333333","6500600","新店區"
"231036","513-UM","2017/11/25 13:29:43","新北市新店區建業路102-1號","121.47899","24.95533","6500600","新店區"
"231035","515-UM","2017/11/25 13:29:40","新北市新店區安康路一段266巷4號","121.519863333333","24.964095","6500600","新店區"
"231003","616-UM","2017/11/25 13:29:43","新北市新店區安康路一段24巷4號","121.532508333333","24.96045","6500600","新店區"
"231006","617-UM","2017/11/25 13:29:36","新北市新店區安康路一段134號","121.526685","24.9628166666667","6500600","新店區"
"231002","618-UM","2017/11/25 13:29:38","新北市新店區環河路84號","121.536965","24.963545","6500600","新店區"
"231001","619-UM","2017/11/25 13:29:49","新北市新店區安康路一段11號","121.533236666667","24.9604566666667","6500600","新店區"
"231013","719-UM","2017/11/25 13:29:41","新北市新店區中正路454-5號","121.534433333333","24.9791183333333","6500600","新店區"
"231033","720-UM","2017/11/25 13:29:47","新北市新店區安康路一段323-3號","121.521388333333","24.9638566666667","6500600","新店區"
"231005","897-TW","2017/11/25 13:29:44","新北市新店區中正路2號","121.5459","24.969345","6500600","新店區"
"231004","899-TW","2017/11/25 13:29:44","新北市新店區安康路一段92-1號","121.527885","24.9620716666667","6500600","新店區"
"231037","AKT-0513","2017/11/25 13:29:50","新北市新店區薏仁坑路6號","121.50032","24.958045","6500600","新店區"
"235030","003-UY","2017/11/25 13:29:42","新北市中和區中山路二段120號","121.502723333333","25.0037266666667","6500300","中和區"
"235027","006-UY","2017/11/25 13:29:52","新北市中和區連城路343號","121.488246666667","24.9958983333333","6500300","中和區"
"235020","096-UM","2017/11/25 13:29:53","新北市中和區新民街5號","121.482415","25.0057483333333","6500300","中和區"
"235003","097-UM","2017/11/25 13:29:44","新北市中和區景平路211號","121.510826666667","24.9927","6500300","中和區"
"235029","098-UM","2017/11/25 13:29:50","新北市中和區莊敬路36號","121.501566666667","25.0052316666667","6500300","中和區"
"235004","150-BY","2017/11/25 13:29:52","新北市中和區安平路59號","121.509493333333","24.995045","6500300","中和區"
"235022","151-BY","2017/11/25 13:29:52","新北市中和區圓通路369巷156弄28號","121.488865","24.9819333333333","6500300","中和區"
"235019","183-VK","2017/11/25 13:28:28","新北市中和區莒光路211號","121.469645","24.9953266666667","6500300","中和區"
"235002","185-VK","2017/11/25 13:29:46","新北市中和區自強路52號","121.520105","24.9948116666667","6500300","中和區"
"235013","186-VK","2017/11/25 13:29:38","新北市中和區景安路116號","121.505378333333","24.995115","6500300","中和區"
"235031","255-BX","2017/11/25 13:29:48","新北市中和區新生街220巷15弄11號","121.483031666667","24.9978683333333","6500300","中和區"
"235036","301-VK","2017/11/25 13:29:45","新北市中和區連城路281巷2弄11號","121.49029","24.9957533333333","6500300","中和區"
"235007","352-BY","2017/11/25 13:29:43","新北市中和區景平路311號","121.506381666667","24.9932","6500300","中和區"
"235032","377-QA","2017/11/25 13:29:52","新北市中和區中正路271號","121.495785","24.993705","6500300","中和區"
"235025","378-QA","2017/11/25 13:29:38","新北市中和區民享街99號","121.474906666667","24.999875","6500300","中和區"
"235035","269-TV","2017/11/25 13:29:52","新北市板橋區光環路二段28-2號","121.48236","25.01412","6500300","中和區"
"235014","4979-A6","2017/11/25 13:29:45","新北市中和區忠孝街142號","121.512453333333","24.9871166666667","6500300","中和區"
"235033","4980-A6","2017/11/25 13:29:49","新北市中和區連城路99巷57號","121.497205","24.9985333333333","6500300","中和區"
"235006","551-UM","2017/11/25 13:29:57","新北市中和區成功路97巷18弄13號","121.526945","24.9912366666667","6500300","中和區"
"235034","558-UM","2017/11/25 13:29:44","新北市中和區圓通路98號","121.49958","24.9968116666667","6500300","中和區"
"235009","565-BX","2017/11/25 13:29:48","新北市中和區復興路36號","121.504921666667","24.99005","6500300","中和區"
"235018","640-BX","2017/11/25 13:29:54","新北市中和區民享街90巷2號","121.4747","25.0003816666667","6500300","中和區"
"235024","647-TV","2017/11/25 13:29:56","新北市中和區員山路287號","121.481253333333","24.9998116666667","6500300","中和區"
"235011","732-UM","2017/11/25 13:29:53","新北市中和區復興路18號","121.505571666667","24.9899283333333","6500300","中和區"
"235010","733-UM","2017/11/25 13:29:38","新北市中和區中正路273號","121.49568","24.99373","6500300","中和區"
"235026","800-TS","2017/11/25 13:29:43","新北市中和區中山路二段312巷33弄18號","121.494921666667","25.0041066666667","6500300","中和區"
"235021","801-TS","2017/11/25 13:29:47","新北市中和區員山路173號","121.481131666667","24.9969716666667","6500300","中和區"
"235005","802-TS","2017/11/25 13:29:40","新北市中和區中和路318號","121.50958","25.0005583333333","6500300","中和區"
"235016","805-TS","2017/11/25 13:29:49","新北市中和區興南路二段104號","121.50486","24.9839716666667","6500300","中和區"
"235012","896-TW","2017/11/25 13:29:46","新北市中和區中正路589巷15號","121.485758333333","24.9935866666667","6500300","中和區"
"235017","900-TW","2017/11/25 13:29:42","新北市中和區民享街457號","121.470466666667","24.9931766666667","6500300","中和區"
"235028","911-UM","2017/11/25 13:29:37","新北市中和區圓通路145巷9弄3號","121.498676666667","24.9947133333333","6500300","中和區"
"235001","157-BY","2017/11/25 13:29:55","新北市中和區華新街133號","121.506683333333","24.9818433333333","6500300","中和區"
"235001","AAC-213","2017/11/25 13:29:40","新北市中和區景德街141號","121.51465","24.99105","6500300","中和區"
"235023","AAC-215","2017/11/25 13:29:40","新北市中和區員山路36巷16-3號","121.48493","24.99122","6500300","中和區"
"220016","013-TV","2017/11/25 02:01:06","新北市板橋區民生路二段120號","121.470385","25.0196916666667","6500100","板橋區"
"220013","072-UY","2017/11/25 13:29:54","新北市板橋區南雅南路二段122-11號","121.451726666667","24.9979583333333","6500100","板橋區"
"220034","073-UY","2017/11/25 13:29:56","新北市板橋區南雅南路二段120-2號","121.452371666667","24.99998","6500100","板橋區"
"247003","336-TH","2017/11/25 13:29:59","新北市五股區中興路三段196號","121.44196","25.0820116666667","6501400","蘆洲區"
"228005","097-TW","2017/11/25 13:29:38","新北市貢寮區美豐里文秀坑8號","121.902606666667","25.0504866666667","6502600","貢寮區"
"228004","212-TW","2017/11/25 13:29:47","新北市貢寮區龍崗里石壁坑街17號","121.910708333333","24.9902166666667","6502600","貢寮區"
"227002","400-TW","2017/11/25 13:15:25","新北市雙溪區三貂里政光路3-1號","121.85086","25.0630683333333","6502500","雙溪區"
"207002","749-BX","2017/11/25 13:29:39","新北市萬里區崁腳里內中福路2號","121.667481666667","25.1649","6502800","萬里區"
"252005","073-UM","2017/11/25 13:29:45","新北市三芝區圓山里木屐寮30號","121.53178","25.22153","6502100","三芝區"
"207001","662-BX","2017/11/25 13:29:51","新北市萬里區大鵬里萬里加投9號","121.65248","25.2089883333333","6502800","萬里區"
"208004","170-UY","2017/11/25 13:28:38","新北市金山區南勢湖55號","121.614971666667","25.2147766666667","6502700","金山區"
"236006","498-BY","2017/11/25 13:29:56","新北市土城區慶祥街56號","121.436595","24.9740383333333","6501300","土城區"
"236061","915-UM","2017/11/25 13:29:55","新北市土城區城林路6巷80號","121.438343333333","24.9797866666667","6501300","土城區"
"221012","276-VK","2017/11/25 13:26:17","新北市汐止區汐萬路一段256巷3號","121.653468333333","25.0746816666667","6501100","汐止區"
"221031","353-TW","2017/11/25 13:29:42","新北市汐止區南興路82巷5號","121.652665","25.059075","6501100","汐止區"
"221018","753-BX","2017/11/25 13:29:39","新北市汐止區福德二路91巷12號","121.63299","25.0658783333333","6501100","汐止區"
"220027","145-BY","2017/11/25 13:29:57","新北市板橋區大觀路二段103號","121.446101666667","25.0018016666667","6500100","板橋區"
"220028","200-UY","2017/11/25 13:29:49","新北市板橋區華東街1-10號","121.448381666667","24.9949766666667","6500100","板橋區"
"220043","283-UM","2017/11/25 13:29:41","新北市板橋區民生路二段120號","121.470518333333","25.0197283333333","6500100","板橋區"
"220019","283-VK","2017/11/25 13:29:54","新北市板橋區華東街1-9號","121.44806","24.9949133333333","6500100","板橋區"
"220029","287-VK","2017/11/25 13:29:48","新北市板橋區華東街1-10號","121.4482","24.9951","6500100","板橋區"
"220032","296-UM","2017/11/25 13:29:45","新北市板橋區華東街1-9號","121.448175","24.99495","6500100","板橋區"
"242001","281-VK","2017/11/25 13:29:42","新北市新莊區新莊路595號","121.446266666667","25.033185","6500500","新莊區"
"220010","305-R5","2017/11/25 13:29:54","新北市板橋區民生路二段120號","121.470431666667","25.0196983333333","6500100","板橋區"
"220012","486-VK","2017/11/25 13:29:40","新北市板橋區南雅南路二段120-7號","121.452328333333","24.9994","6500100","板橋區"
"220104","560-BX","2017/11/25 13:29:42","新北市板橋區南雅南路二段11-5號","121.454006666667","25.0022833333333","6500100","板橋區"
"220011","609-BX","2017/11/25 13:29:45","新北市板橋區民生路二段171號","121.469753333333","25.020085","6500100","板橋區"
"220005","686-BX","2017/11/25 13:29:53","新北市板橋區華東街1-9號","121.448203333333","24.9949666666667","6500100","板橋區"
"220025","687-BX","2017/11/25 13:29:51","新北市板橋區大觀路三段18號","121.43475","24.9956833333333","6500100","板橋區"
"220014","829-TW","2017/11/25 13:29:38","新北市板橋區民生路二段120號","121.470426666667","25.0197466666667","6500100","板橋區"
"220022","895-R6","2017/11/25 13:29:44","新北市板橋區南雅南路二段144巷2號","121.451511666667","24.99623","6500100","板橋區"
"220018","AAC-253","2017/11/25 13:29:57","新北市板橋區華東街1-9號","121.448226666667","24.9949033333333","6500100","板橋區"
