"lineid","car","time","location","longitude","latitude","cityid","cityname"
"234044","148-BY","2017/11/25 13:39:48","新北市永和區秀朗路二段79號","121.522928333333","25.0016783333333","6500400","永和區"
"234012","149-BY","2017/11/25 13:39:46","新北市永和區永平路238巷3號","121.509046666667","25.0113716666667","6500400","永和區"
"234005","207-UY","2017/11/25 13:39:50","新北市永和區永和路一段116號","121.513718333333","25.0075466666667","6500400","永和區"
"234078","298-R6","2017/11/25 13:39:44","新北市永和區林森路46巷1號","121.524998333333","25.00481","6500400","永和區"
"234036","336-UY","2017/11/25 13:39:52","新北市永和區民樂街29號","121.527821666667","25.0015433333333","6500400","永和區"
"234062","337-UY","2017/11/25 13:39:54","新北市永和區秀朗路一段192巷6弄12號","121.519035","25.0023983333333","6500400","永和區"
"234084","338-UY","2017/11/25 13:39:54","新北市永和區永亨路127號","121.52455","25.0041283333333","6500400","永和區"
"234068","552-UM","2017/11/25 13:39:47","新北市永和區永和路二段207號","121.515466666667","25.0136466666667","6500400","永和區"
"234052","553-UM","2017/11/25 13:39:51","新北市永和區竹林路39巷22號","121.518933333333","25.01474","6500400","永和區"
"234015","745-BX","2017/11/25 13:39:44","新北市永和區永和路二段425巷16號","121.514876666667","25.017755","6500400","永和區"
"234028","746-BX","2017/11/25 13:39:56","新北市永和區民權路29巷11號","121.520763333333","24.99794","6500400","永和區"
"234060","AAD-866","2017/11/25 13:39:51","新北市永和區中正路257號","121.517608333333","25.000385","6500400","永和區"
"234040","862-TW","2017/11/25 13:39:54","新北市永和區中和路373號","121.50841","24.9997833333333","6500400","永和區"
"234048","863-TW","2017/11/25 13:39:45","新北市永和區保安路116號","121.509295","25.015735","6500400","永和區"
"234025","9381-KE","2017/11/25 13:39:50","新北市永和區永平路216號","121.509193333333","25.0103666666667","6500400","永和區"
"234010","9373-KE","2017/11/25 13:39:46","新北市永和區保福路二段23巷21號","121.510056666667","25.011235","6500400","永和區"
"248019","225-UY","2017/11/25 13:39:42","新北市五股區民義路二段48巷1-9號","121.413861666667","25.1022166666667","6501500","五股區"
"234022","9380-KE","2017/11/25 13:39:39","新北市永和區中正路702巷18號","121.516415","25.01059","6500400","永和區"
"234076","969-R7","2017/11/25 13:39:55","新北市永和區民權路30號","121.520033333333","24.999095","6500400","永和區"
"234072","AAC-211","2017/11/25 13:39:50","新北市永和區福和路74號","121.523051666667","25.0082583333333","6500400","永和區"
"234066","AAC-212","2017/11/25 13:39:57","新北市永和區中山路一段191巷9弄8號","121.509948333333","25.00801","6500400","永和區"
"234001","AAC-295","2017/11/25 13:39:45","新北市永和區福和路352號","121.514625","25.00743","6500400","永和區"
"244021","838-TS","2017/11/25 11:13:33","新北市林口區粉寮69號","121.40479","25.0908166666667","6501700","林口區"
"231028","046-UY","2017/11/25 13:39:43","新北市新店區安和路二段166-1號","121.519505","24.973785","6500600","新店區"
"231030","047-UY","2017/11/25 13:39:50","新北市新店區秀山路68-1號","121.531026666667","24.9609816666667","6500600","新店區"
"231029","106-UY","2017/11/25 13:39:56","新北市新店區安康路二段216號","121.509788333333","24.9594266666667","6500600","新店區"
"231018","107-UY","2017/11/25 13:39:43","新北市新店區百忍街14號","121.534676666667","24.9756783333333","6500600","新店區"
"231012","108-UY","2017/11/25 13:39:52","新北市新店區德正街27巷23號","121.545496666667","24.971565","6500600","新店區"
"231020","187-VK","2017/11/25 13:39:50","新北市新店區永興路132號","121.543975","24.9317533333333","6500600","新店區"
"231008","192-VK","2017/11/25 11:06:17","新北市新店區成功路45-1號","121.539166666667","24.9000833333333","6500600","新店區"
"231017","KEA-2219","2017/11/25 13:39:41","新北市新店區竹林路2巷31號","121.5504","24.950225","6500600","新店區"
"231026","256-BX","2017/11/25 13:39:35","新北市新店區中正路239號","121.53931","24.97324","6500600","新店區"
"231034","268-BY","2017/11/25 13:39:43","新北市新店區車子路121號","121.505268333333","24.950465","6500600","新店區"
"231010","278-BY","2017/11/25 13:39:54","新北市新店區中正路326號","121.536948333333","24.97485","6500600","新店區"
"231023","AAD-862","2017/11/25 13:39:53","新北市新店區新店路166號","121.537171666667","24.9557083333333","6500600","新店區"
"231027","3712-VJ","2017/11/25 13:39:50","新北市新店區能仁街12-1號","121.540601666667","24.955485","6500600","新店區"
"231025","3713-VJ","2017/11/25 13:39:37","新北市新店區中央七街59號","121.528165","24.9761866666667","6500600","新店區"
"231024","4716-K9","2017/11/25 13:39:47","新北市新店區華興街38巷7號","121.53704","24.969295","6500600","新店區"
"231038","4715-K9","2017/11/25 13:39:50","新北市新店區安華路30巷1號","121.519585","24.9592933333333","6500600","新店區"
"231036","513-UM","2017/11/25 13:39:43","新北市新店區安祥路147巷74號","121.475805","24.9557966666667","6500600","新店區"
"231035","515-UM","2017/11/25 13:39:40","新北市新店區安忠路94號","121.511158333333","24.95731","6500600","新店區"
"231003","616-UM","2017/11/25 13:39:43","新北市新店區中正路9號","121.545545","24.96943","6500600","新店區"
"231006","617-UM","2017/11/25 13:39:56","新北市新店區北宜路一段83號","121.538696666667","24.95596","6500600","新店區"
"231002","618-UM","2017/11/25 13:39:38","新北市新店區中央三街127號","121.524046666667","24.9768216666667","6500600","新店區"
"231001","619-UM","2017/11/25 13:39:49","新北市新店區中正路378號","121.534815","24.9769316666667","6500600","新店區"
"231013","719-UM","2017/11/25 13:39:41","新北市新店區中正路454-5號","121.534461666667","24.9791266666667","6500600","新店區"
"231033","720-UM","2017/11/25 13:39:47","新北市新店區莒光路44巷21弄11-3號","121.518501666667","24.9521916666667","6500600","新店區"
"231005","897-TW","2017/11/25 13:39:44","新北市新店區寶中路72號","121.547868333333","24.98064","6500600","新店區"
"231004","899-TW","2017/11/25 13:39:44","新北市新店區北新路二段1號","121.542723333333","24.97124","6500600","新店區"
"231037","AKT-0513","2017/11/25 13:39:50","新北市新店區安康路二段382號","121.500398333333","24.957135","6500600","新店區"
"235030","003-UY","2017/11/25 13:39:42","新北市中和區水源路5號","121.503463333333","25.0035716666667","6500300","中和區"
"235027","006-UY","2017/11/25 13:39:52","新北市中和區連城路246-4號","121.488185","24.996295","6500300","中和區"
"235020","096-UM","2017/11/25 13:39:53","新北市中和區員山路466巷17弄39號","121.480421666667","25.0075966666667","6500300","中和區"
"235003","097-UM","2017/11/25 13:39:45","新北市中和區大勇街25巷21號","121.51554","24.9938366666667","6500300","中和區"
"235029","098-UM","2017/11/25 13:39:50","新北市中和區莊敬路49巷18號","121.501621666667","25.006145","6500300","中和區"
"235004","150-BY","2017/11/25 13:39:52","新北市中和區安平路59號","121.509618333333","24.9951","6500300","中和區"
"235022","151-BY","2017/11/25 13:39:52","新北市中和區圓通路369巷36弄12號","121.49013","24.9847833333333","6500300","中和區"
"235019","183-VK","2017/11/25 13:39:51","新北市中和區莒光路84巷10號","121.471978333333","25.0022683333333","6500300","中和區"
"235002","185-VK","2017/11/25 13:39:46","新北市中和區立人街14巷52號","121.518475","24.9956383333333","6500300","中和區"
"235013","186-VK","2017/11/25 13:39:58","新北市中和區明義街11巷10弄1號","121.50382","24.9947283333333","6500300","中和區"
"235031","255-BX","2017/11/25 13:39:48","新北市中和區新生街220巷13號","121.482961666667","24.998475","6500300","中和區"
"235008","293-VK","2017/11/25 13:39:47","新北市中和區復興路276號","121.502778333333","24.9905466666667","6500300","中和區"
"235036","301-VK","2017/11/25 13:39:45","新北市中和區連城路139巷66號","121.49677","24.9967233333333","6500300","中和區"
"235007","352-BY","2017/11/25 13:39:43","新北市中和區景平路188號","121.516001666667","24.99203","6500300","中和區"
"235032","377-QA","2017/11/25 13:39:52","新北市中和區中正路211巷13弄7號","121.497051666667","24.9932","6500300","中和區"
"235025","378-QA","2017/11/25 13:39:38","新北市中和區民享街92巷6號","121.474683333333","25.0000183333333","6500300","中和區"
"235035","269-TV","2017/11/25 13:39:52","新北市中和區中山路二段486號","121.487636666667","25.0054166666667","6500300","中和區"
"235014","4979-A6","2017/11/25 13:39:45","新北市中和區忠孝街62巷9弄1號","121.513081666667","24.9838766666667","6500300","中和區"
"235033","4980-A6","2017/11/25 13:39:49","新北市中和區泰和街32號","121.499463333333","25.000275","6500300","中和區"
"235006","551-UM","2017/11/25 13:39:37","新北市中和區秀朗路三段70巷45號","121.52517","24.994305","6500300","中和區"
"235034","558-UM","2017/11/25 13:39:44","新北市中和區南華路65號","121.504581666667","24.9972233333333","6500300","中和區"
"235009","565-BX","2017/11/25 13:39:43","新北市中和區南山路236號","121.506361666667","24.9894216666667","6500300","中和區"
"235018","640-BX","2017/11/25 13:39:54","新北市中和區莒光路149號","121.472806666667","25.0011316666667","6500300","中和區"
"235024","647-TV","2017/11/25 13:39:56","新北市中和區中山路二段628號","121.481218333333","25.0054683333333","6500300","中和區"
"235011","732-UM","2017/11/25 13:39:53","新北市中和區興南路二段3巷1號","121.508031666667","24.986475","6500300","中和區"
"235010","733-UM","2017/11/25 13:39:38","新北市中和區仁愛街124號","121.51179","24.9867283333333","6500300","中和區"
"235026","800-TS","2017/11/25 13:39:43","新北市中和區中山路二段312巷10弄2號","121.495635","25.00298","6500300","中和區"
"235021","801-TS","2017/11/25 13:39:47","新北市中和區民安街39號","121.479921666667","25.0003383333333","6500300","中和區"
"235005","802-TS","2017/11/25 13:39:40","新北市中和區中安街78號","121.512045","25.0020166666667","6500300","中和區"
"235016","805-TS","2017/11/25 13:39:49","新北市中和區興南路三段62-3號","121.49292","24.9750666666667","6500300","中和區"
"235012","896-TW","2017/11/25 13:39:46","新北市中和區中正路79號","121.50079","24.9934383333333","6500300","中和區"
"235017","900-TW","2017/11/25 13:39:42","新北市中和區民德路264號","121.467955","24.9966866666667","6500300","中和區"
"235028","911-UM","2017/11/25 13:39:37","新北市中和區連城路99巷1號","121.496726666667","24.9995466666667","6500300","中和區"
"235001","157-BY","2017/11/25 13:39:55","新北市中和區興南路二段114巷10弄38號","121.504026666667","24.985105","6500300","中和區"
"235001","AAC-213","2017/11/25 13:39:40","新北市中和區景平路111巷54號","121.515285","24.9903833333333","6500300","中和區"
"235023","AAC-215","2017/11/25 13:39:40","新北市中和區中正路637巷60弄61號","121.485471666667","24.9926","6500300","中和區"
"220016","013-TV","2017/11/25 02:01:06","新北市板橋區民生路二段120號","121.470385","25.0196916666667","6500100","板橋區"
"220013","072-UY","2017/11/25 13:39:54","新北市板橋區南雅南路一段3巷25-16號","121.456675","25.0054583333333","6500100","板橋區"
"220034","073-UY","2017/11/25 13:39:56","新北市板橋區南雅西路二段192巷1弄3號","121.452006666667","25.0145","6500100","板橋區"
"220105","075-UY","2017/11/25 13:39:43","新北市板橋區民生路二段161巷3號","121.470198333333","25.0197583333333","6500100","板橋區"
"220017","AAD-861","2017/11/25 13:39:55","新北市板橋區華東街1-10號","121.448335","24.9951483333333","6500100","板橋區"
"247007","341-TH","2017/11/25 13:39:44","新北市五股區凌雲路一段21號","121.455115","25.0977266666667","6501400","蘆洲區"
"247009","339-TH","2017/11/25 13:39:49","新北市五股區中興路三段163號","121.449218333333","25.0806133333333","6501400","蘆洲區"
"247003","336-TH","2017/11/25 13:39:38","新北市蘆洲區中原路30號","121.459996666667","25.082865","6501400","蘆洲區"
"247015","057-VK","2017/11/25 13:39:28","新北市五股區成洲五路38號","121.45335","25.1014583333333","6501400","蘆洲區"
"247005","056-VK","2017/11/25 13:39:48","新北市五股區工商路8號","121.440408333333","25.0824216666667","6501400","蘆洲區"
"228005","097-TW","2017/11/25 13:39:38","新北市貢寮區美豐里文秀坑5-1號","121.902883333333","25.050895","6502600","貢寮區"
"228004","212-TW","2017/11/25 13:30:27","新北市貢寮區龍崗里石壁坑街17-1號","121.911643333333","24.9915383333333","6502600","貢寮區"
"227002","400-TW","2017/11/25 13:15:25","新北市雙溪區三貂里政光路3-1號","121.85086","25.0630683333333","6502500","雙溪區"
"207002","749-BX","2017/11/25 13:39:39","新北市萬里區崁腳里崁腳路166號","121.644998333333","25.1558916666667","6502800","萬里區"
"252005","073-UM","2017/11/25 13:39:45","新北市三芝區圓山里內柑宅25-2號","121.538721666667","25.2272783333333","6502100","三芝區"
"207001","662-BX","2017/11/25 13:39:51","新北市萬里區磺潭里公館崙42號","121.630485","25.207955","6502800","萬里區"
"208004","170-UY","2017/11/25 13:39:38","新北市金山區重和里三重橋11號","121.592678333333","25.1933966666667","6502700","金山區"
"236068","105-UM","2017/11/25 13:39:47","新北市土城區城林路6巷80號","121.4383","24.9797733333333","6501300","土城區"
"236041","107-UM","2017/11/25 13:39:42","新北市土城區城林路6巷80號","121.438415","24.9798483333333","6501300","土城區"
"236013","270-VK","2017/11/25 13:39:49","新北市土城區城林路6巷80號","121.438461666667","24.9798416666667","6501300","土城區"
"236035","271-VK","2017/11/25 13:39:48","新北市土城區城林路6巷80號","121.438601666667","24.9797533333333","6501300","土城區"
"236017","401-BY","2017/11/25 13:39:55","新北市土城區城林路6巷80號","121.43862","24.9797983333333","6501300","土城區"
"236006","498-BY","2017/11/25 13:39:56","新北市土城區員福街6號","121.44186","24.9785016666667","6501300","土城區"
"236075","752-BX","2017/11/25 13:39:55","新北市土城區中央路二段93號","121.442193333333","24.97801","6501300","土城區"
"236045","913-UM","2017/11/25 13:39:45","新北市土城區城林路6巷80號","121.438368333333","24.9798366666667","6501300","土城區"
"236061","915-UM","2017/11/25 13:39:55","新北市土城區城林路6巷80號","121.438353333333","24.9798216666667","6501300","土城區"
"221012","276-VK","2017/11/25 13:26:17","新北市汐止區汐萬路一段256巷3號","121.653468333333","25.0746816666667","6501100","汐止區"
"221031","353-TW","2017/11/25 13:39:41","新北市汐止區水源路二段22巷25號","121.654531666667","25.0566616666667","6501100","汐止區"
"221018","753-BX","2017/11/25 13:39:39","新北市汐止區中興路3號","121.637248333333","25.059095","6501100","汐止區"
"220027","145-BY","2017/11/25 13:39:57","新北市板橋區漢生西路89巷4弄8號","121.46101","25.018875","6500100","板橋區"
"220028","200-UY","2017/11/25 13:39:49","新北市板橋區大觀路二段265巷7-7號","121.444098333333","24.9945983333333","6500100","板橋區"
"220030","610-BX","2017/11/25 13:39:38","新北市板橋區篤行路一段18號","121.43209","24.99492","6500100","板橋區"
"220050","245-BX","2017/11/24 22:19:17","新北市板橋區民生路二段120號","121.470291666667","25.0198066666667","6500100","板橋區"
"220004","276-BY","2017/11/25 13:39:57","新北市板橋區四川路二段243號","121.450416666667","24.993705","6500100","板橋區"
"220020","277-BY","2017/11/25 13:39:42","新北市板橋區大觀路三段121號","121.4326","24.9943783333333","6500100","板橋區"
"220043","283-UM","2017/11/25 13:39:41","新北市板橋區民生路二段120號","121.47054","25.0199033333333","6500100","板橋區"
"220019","283-VK","2017/11/25 13:39:54","新北市板橋區華東街1-10號","121.448551666667","24.9948883333333","6500100","板橋區"
"220001","285-VK","2017/11/25 13:39:38","新北市板橋區民生路二段180號","121.471023333333","25.02035","6500100","板橋區"
"220031","286-VK","2017/11/25 13:39:36","新北市板橋區板城路407號","121.447666666667","24.9954216666667","6500100","板橋區"
"220029","287-VK","2017/11/25 13:39:48","新北市板橋區大觀路二段153巷46弄11-7號","121.448955","24.997385","6500100","板橋區"
"220039","288-VK","2017/11/25 13:39:45","新北市板橋區民生路二段120號","121.470461666667","25.019855","6500100","板橋區"
"220009","293-UM","2017/11/25 13:39:54","新北市板橋區民生路二段120號","121.470313333333","25.019885","6500100","板橋區"
"220032","296-UM","2017/11/25 13:39:45","新北市板橋區大觀路二段266號","121.448651666667","24.9971166666667","6500100","板橋區"
"220023","297-UM","2017/11/25 13:39:48","新北市板橋區南雅南路二段120-1號","121.452295","24.99967","6500100","板橋區"
"242001","281-VK","2017/11/25 13:39:42","新北市新莊區泰順街33巷1號","121.446151666667","25.0425233333333","6500500","新莊區"
"220010","305-R5","2017/11/25 13:39:54","新北市板橋區民生路二段120號","121.470298333333","25.0198216666667","6500100","板橋區"
"220041","307-R5","2017/11/25 13:39:51","新北市板橋區民生路二段161巷9號","121.470316666667","25.0196466666667","6500100","板橋區"
"220012","486-VK","2017/11/25 13:39:40","新北市板橋區縣民大道二段22號","121.4636","25.013325","6500100","板橋區"
"220104","560-BX","2017/11/25 13:39:42","新北市板橋區南雅西路二段145巷6號","121.451586666667","25.011805","6500100","板橋區"
"220011","609-BX","2017/11/25 13:39:45","新北市板橋區民生路二段188號","121.470175","25.0205383333333","6500100","板橋區"
"220005","686-BX","2017/11/25 13:39:53","新北市板橋區華東街1-9號","121.448193333333","24.9949883333333","6500100","板橋區"
"220025","687-BX","2017/11/25 13:39:51","新北市板橋區大觀路三段160巷31弄1號","121.42995","24.9939133333333","6500100","板橋區"
"220003","827-TW","2017/11/25 13:39:41","新北市板橋區華東街1-9號","121.448138333333","24.9949383333333","6500100","板橋區"
"220014","829-TW","2017/11/25 13:39:58","新北市板橋區民生路二段120號","121.470453333333","25.0197383333333","6500100","板橋區"
"220045","831-TW","2017/11/25 01:26:34","新北市板橋區民生路二段56-6號","121.471131666667","25.019255","6500100","板橋區"
"220022","895-R6","2017/11/25 13:39:44","新北市板橋區館前西路127號","121.456511666667","25.007475","6500100","板橋區"
"220021","985-R7","2017/11/25 13:39:44","新北市板橋區華東街1-10號","121.448626666667","24.99487","6500100","板橋區"
"220018","AAC-253","2017/11/25 13:39:37","新北市板橋區華東街1-9號","121.448236666667","24.9949033333333","6500100","板橋區"
