"lineid","car","time","location","longitude","latitude","cityid","cityname"
"234044","148-BY","2017/11/25 13:49:52","新北市永和區永利路165號","121.525075","25.0034616666667","6500400","永和區"
"234012","149-BY","2017/11/25 13:49:49","新北市永和區仁愛路186巷2號","121.509945","25.01267","6500400","永和區"
"234005","207-UY","2017/11/25 13:49:50","新北市中和區中和路472號","121.512416666667","25.0039816666667","6500400","永和區"
"234078","298-R6","2017/11/25 13:49:41","新北市永和區林森路101巷4號","121.523335","25.00361","6500400","永和區"
"234036","336-UY","2017/11/25 13:49:52","新北市永和區民樂街39巷18弄42號","121.52846","24.9990283333333","6500400","永和區"
"234062","337-UY","2017/11/25 13:49:54","新北市永和區中正路368巷8號","121.518091666667","25.0007616666667","6500400","永和區"
"234084","338-UY","2017/11/25 13:49:53","新北市永和區中正路606號","121.517213333333","25.0070516666667","6500400","永和區"
"234068","552-UM","2017/11/25 13:49:47","新北市永和區竹林路78號","121.519348333333","25.0127666666667","6500400","永和區"
"234052","553-UM","2017/11/25 13:49:51","新北市永和區竹林路39巷28弄6號","121.519361666667","25.0146233333333","6500400","永和區"
"234015","745-BX","2017/11/25 13:49:44","新北市永和區永和路二段278號","121.516001666667","25.015345","6500400","永和區"
"234028","746-BX","2017/11/25 13:49:58","新北市永和區民生路47巷13號","121.523543333333","24.9977716666667","6500400","永和區"
"234060","AAD-866","2017/11/25 13:49:51","新北市永和區中正路338號","121.517708333333","25","6500400","永和區"
"234040","862-TW","2017/11/25 13:49:54","新北市永和區中和路389巷2號","121.508198333333","25.0006633333333","6500400","永和區"
"234048","863-TW","2017/11/25 13:49:42","新北市永和區保安路144號","121.508515","25.0149183333333","6500400","永和區"
"234010","9373-KE","2017/11/25 13:49:46","新北市永和區保安路288號","121.505376666667","25.0119966666667","6500400","永和區"
"248019","225-UY","2017/11/25 13:49:42","新北市五股區民義路二段18-1號","121.420603333333","25.0965966666667","6501500","五股區"
"234022","9380-KE","2017/11/25 13:49:39","新北市永和區中正路654巷31號","121.517616666667","25.0086466666667","6500400","永和區"
"234076","969-R7","2017/11/25 13:49:54","新北市永和區民權路58巷2弄11號","121.519706666667","24.9988266666667","6500400","永和區"
"234072","AAC-211","2017/11/25 13:49:50","新北市永和區豫溪街189巷1號","121.522585","25.0102983333333","6500400","永和區"
"234066","AAC-212","2017/11/25 13:49:57","新北市永和區保平路236巷24弄1號","121.507976666667","25.0069433333333","6500400","永和區"
"234001","AAC-295","2017/11/25 13:49:45","新北市永和區永和路一段123巷5號","121.513945","25.0081983333333","6500400","永和區"
"244021","838-TS","2017/11/25 11:13:33","新北市林口區粉寮69號","121.40479","25.0908166666667","6501700","林口區"
"231028","046-UY","2017/11/25 13:49:43","新北市新店區安和路三段7號","121.518083333333","24.9806316666667","6500600","新店區"
"231030","047-UY","2017/11/25 13:49:50","新北市新店區安康路一段302-6號","121.518053333333","24.9641316666667","6500600","新店區"
"231029","106-UY","2017/11/25 13:49:35","新北市新店區安康路二段128號","121.512696666667","24.9624916666667","6500600","新店區"
"231018","107-UY","2017/11/25 13:49:43","新北市新店區中正路400巷5號","121.534893333333","24.9778883333333","6500600","新店區"
"231012","108-UY","2017/11/25 13:49:52","新北市新店區德正街25巷2號","121.544341666667","24.9715866666667","6500600","新店區"
"231020","187-VK","2017/11/25 13:49:51","新北市新店區湖子內路1號","121.542376666667","24.9305466666667","6500600","新店區"
"231008","192-VK","2017/11/25 11:06:17","新北市新店區成功路45-1號","121.539166666667","24.9000833333333","6500600","新店區"
"231017","KEA-2219","2017/11/25 13:49:41","新北市新店區竹林路94號","121.553908333333","24.9502566666667","6500600","新店區"
"231026","256-BX","2017/11/25 13:49:56","新北市新店區福園街15-1號","121.532861666667","24.9728516666667","6500600","新店區"
"231034","268-BY","2017/11/25 13:49:43","新北市新店區達觀路16號","121.503085","24.940765","6500600","新店區"
"231010","278-BY","2017/11/25 13:49:54","新北市新店區平等街48巷8號","121.535783333333","24.9730916666667","6500600","新店區"
"231023","AAD-862","2017/11/25 13:49:53","新北市新店區國校路14號","121.537841666667","24.9554633333333","6500600","新店區"
"231027","3712-VJ","2017/11/25 13:49:50","新北市新店區中興路一段34號","121.53876","24.9585283333333","6500600","新店區"
"231025","3713-VJ","2017/11/25 13:49:57","新北市新店區中央五街55號","121.527786666667","24.975505","6500600","新店區"
"231024","4716-K9","2017/11/25 13:49:47","新北市新店區新生街37號","121.539348333333","24.9669533333333","6500600","新店區"
"231038","4715-K9","2017/11/25 13:49:50","新北市新店區安康路一段321巷5-1號","121.522255","24.96253","6500600","新店區"
"231036","513-UM","2017/11/25 13:49:43","新北市新店區安祥路110巷30弄1號","121.473911666667","24.956435","6500600","新店區"
"231035","515-UM","2017/11/25 13:49:40","新北市新店區安忠路57巷5-6號","121.513228333333","24.9587416666667","6500600","新店區"
"231003","616-UM","2017/11/25 13:49:43","新北市新店區中興路一段115號","121.54139","24.9627766666667","6500600","新店區"
"231006","617-UM","2017/11/25 13:49:56","新北市新店區北宜路一段260號","121.545676666667","24.9527733333333","6500600","新店區"
"231002","618-UM","2017/11/25 13:49:58","新北市新店區溪園路245-6號","121.525173333333","24.9831666666667","6500600","新店區"
"231001","619-UM","2017/11/25 13:49:52","新北市新店區三民路62號","121.53512","24.9721766666667","6500600","新店區"
"231013","719-UM","2017/11/25 13:49:54","新北市新店區二十張路25巷18弄35號","121.539231666667","24.9811066666667","6500600","新店區"
"231033","720-UM","2017/11/25 13:49:48","新北市新店區青山路399巷1號","121.523668333333","24.9531283333333","6500600","新店區"
"231005","897-TW","2017/11/25 13:49:44","新北市新店區寶中路98號","121.549338333333","24.97949","6500600","新店區"
"231004","899-TW","2017/11/25 13:49:44","新北市新店區寶橋路61號","121.545345","24.97493","6500600","新店區"
"231037","AKT-0513","2017/11/25 13:49:50","新北市新店區安康路三段355巷1號","121.484406666667","24.950705","6500600","新店區"
"235030","003-UY","2017/11/25 13:49:42","新北市中和區光華街44號","121.504995","25.0036633333333","6500300","中和區"
"235027","006-UY","2017/11/25 13:49:54","新北市中和區中正路462號","121.490181666667","24.9943216666667","6500300","中和區"
"235020","096-UM","2017/11/25 13:49:53","新北市中和區中正路1196號","121.480428333333","25.0103583333333","6500300","中和區"
"235003","097-UM","2017/11/25 13:49:44","新北市中和區大勇街27巷31號","121.516066666667","24.993865","6500300","中和區"
"235029","098-UM","2017/11/25 13:49:50","新北市中和區中山路二段2巷45弄12號","121.50189","25.0067933333333","6500300","中和區"
"235004","150-BY","2017/11/25 13:49:52","新北市中和區保健路48巷51號","121.509441666667","24.99611","6500300","中和區"
"235022","151-BY","2017/11/25 13:49:52","新北市中和區連城路585號","121.478553333333","24.9940766666667","6500300","中和區"
"235019","183-VK","2017/11/25 13:49:51","新北市中和區民德路25巷5弄2號","121.46939","25.0029316666667","6500300","中和區"
"235002","185-VK","2017/11/25 13:49:46","新北市中和區大勇街43巷10號","121.51739","24.9947483333333","6500300","中和區"
"235013","186-VK","2017/11/25 13:49:38","新北市中和區景安路177巷21號","121.506266666667","24.9945233333333","6500300","中和區"
"235031","255-BX","2017/11/25 13:49:48","新北市中和區新生街242巷1弄1號","121.483333333333","24.9978366666667","6500300","中和區"
"235008","293-VK","2017/11/25 13:49:47","新北市中和區中興街160號","121.49988","24.991675","6500300","中和區"
"235036","301-VK","2017/11/25 13:49:45","新北市中和區中山路二段132號","121.502255","25.003495","6500300","中和區"
"235007","352-BY","2017/11/25 13:49:42","新北市中和區成功路139號","121.526008333333","24.9901633333333","6500300","中和區"
"235032","377-QA","2017/11/25 13:49:51","新北市中和區中正路211巷40-4號","121.497891666667","24.9925933333333","6500300","中和區"
"235025","378-QA","2017/11/25 13:49:49","新北市中和區民享街44巷2號","121.473821666667","25.002785","6500300","中和區"
"235035","269-TV","2017/11/25 13:49:52","新北市中和區永和路205號","121.490815","25.007355","6500300","中和區"
"235014","4979-A6","2017/11/25 13:49:45","新北市中和區華新街50巷3號","121.507736666667","24.9839616666667","6500300","中和區"
"235033","4980-A6","2017/11/25 13:49:49","新北市中和區景平路459巷2弄2號","121.500301666667","24.99645","6500300","中和區"
"235006","551-UM","2017/11/25 13:49:37","新北市中和區秀朗路三段10巷21弄16號","121.52558","24.9958416666667","6500300","中和區"
"235034","558-UM","2017/11/25 13:49:44","新北市中和區景平路604號","121.500776666667","24.996575","6500300","中和區"
"235009","565-BX","2017/11/25 13:49:43","新北市中和區復興路50號","121.504143333333","24.9901416666667","6500300","中和區"
"235018","640-BX","2017/11/25 13:49:54","新北市中和區民享街68巷16號","121.473366666667","25.0017766666667","6500300","中和區"
"235024","647-TV","2017/11/25 13:49:56","新北市中和區中山路三段90號","121.477721666667","25.0057083333333","6500300","中和區"
"235011","732-UM","2017/11/25 13:49:53","新北市中和區興南路二段34巷57弄3號","121.504973333333","24.9859016666667","6500300","中和區"
"235010","733-UM","2017/11/25 13:49:58","新北市中和區仁愛街36巷24號","121.510956666667","24.98719","6500300","中和區"
"235026","800-TS","2017/11/25 13:49:54","新北市中和區中山路二段326號","121.495343333333","25.002335","6500300","中和區"
"235021","801-TS","2017/11/25 13:49:47","新北市中和區民安街4號","121.480945","25.001095","6500300","中和區"
"235005","802-TS","2017/11/25 13:49:40","新北市永和區中和路603號","121.512445","25.0042866666667","6500300","中和區"
"235016","805-TS","2017/11/25 13:49:49","新北市中和區興南路二段399巷58號","121.499511666667","24.9789766666667","6500300","中和區"
"235012","896-TW","2017/11/25 13:49:46","新北市中和區南山路415號","121.507155","24.9896433333333","6500300","中和區"
"235017","900-TW","2017/11/25 13:49:42","新北市中和區華福街42巷1弄1號","121.466426666667","24.9963516666667","6500300","中和區"
"235028","911-UM","2017/11/25 13:49:57","新北市中和區連城路75巷2-2號","121.497585","24.9998116666667","6500300","中和區"
"235001","157-BY","2017/11/25 13:49:55","新北市中和區華新街143巷46號","121.506063333333","24.9800716666667","6500300","中和區"
"235001","AAC-213","2017/11/25 13:49:40","新北市中和區秀朗路三段175巷7號","121.525041666667","24.9916066666667","6500300","中和區"
"235023","AAC-215","2017/11/25 13:49:40","新北市中和區圓通路395號","121.489595","24.98901","6500300","中和區"
"220016","013-TV","2017/11/25 02:01:06","新北市板橋區民生路二段120號","121.470385","25.0196916666667","6500100","板橋區"
"220013","072-UY","2017/11/25 13:49:54","新北市板橋區漢生東路281號","121.4713","25.0090433333333","6500100","板橋區"
"220034","073-UY","2017/11/25 13:49:56","新北市板橋區大智街71巷5弄1號","121.453321666667","25.0150183333333","6500100","板橋區"
"220105","075-UY","2017/11/25 13:49:43","新北市板橋區民生路二段161巷3號","121.47022","25.0197733333333","6500100","板橋區"
"220017","AAD-861","2017/11/25 13:49:55","新北市板橋區館前西路53號","121.457788333333","25.0066166666667","6500100","板橋區"
"220051","120-SR","2017/11/25 13:49:51","新北市板橋區民生路二段120號","121.47054","25.0196966666667","6500100","板橋區"
"247019","500-BY","2017/11/25 13:49:42","新北市蘆洲區民族路422巷48弄24號","121.474686666667","25.093155","6501400","蘆洲區"
"247007","341-TH","2017/11/25 13:49:44","新北市蘆洲區集賢路245號","121.48197","25.08467","6501400","蘆洲區"
"247009","339-TH","2017/11/25 13:49:49","新北市蘆洲區復興路355巷9號","121.482806666667","25.0949966666667","6501400","蘆洲區"
"247003","336-TH","2017/11/25 13:49:38","新北市蘆洲區長榮路66號","121.462496666667","25.08338","6501400","蘆洲區"
"247015","057-VK","2017/11/25 13:49:47","新北市蘆洲區中正路103號","121.46985","25.08409","6501400","蘆洲區"
"247005","056-VK","2017/11/25 13:49:48","新北市蘆洲區和平路77號","121.46931","25.0790533333333","6501400","蘆洲區"
"228005","097-TW","2017/11/25 13:49:58","新北市雙溪區三港里雙澳路100號","121.889056666667","25.056735","6502600","貢寮區"
"228004","212-TW","2017/11/25 13:30:27","新北市貢寮區龍崗里石壁坑街17-1號","121.911643333333","24.9915383333333","6502600","貢寮區"
"227002","400-TW","2017/11/25 13:15:25","新北市雙溪區三貂里政光路3-1號","121.85086","25.0630683333333","6502500","雙溪區"
"207002","749-BX","2017/11/25 13:49:39","新北市萬里區崁腳里崁腳路166號","121.645018333333","25.1559","6502800","萬里區"
"252005","073-UM","2017/11/25 13:49:45","新北市三芝區圓山里二坪頂78號","121.54166","25.2458216666667","6502100","三芝區"
"207001","662-BX","2017/11/25 13:49:51","新北市萬里區磺潭里清水15號","121.637963333333","25.1980866666667","6502800","萬里區"
"208004","170-UY","2017/11/25 13:49:49","新北市金山區山城路90巷17號","121.598926666667","25.2003283333333","6502700","金山區"
"236068","105-UM","2017/11/25 13:49:48","新北市土城區城林路6巷80號","121.438576666667","24.97971","6501300","土城區"
"236041","107-UM","2017/11/25 13:49:42","新北市土城區城林路6巷80號","121.43844","24.979845","6501300","土城區"
"236025","269-VK","2017/11/25 13:49:54","新北市土城區城林路6巷80號","121.438465","24.9799083333333","6501300","土城區"
"236013","270-VK","2017/11/25 13:49:49","新北市土城區城林路6巷80號","121.438548333333","24.9797483333333","6501300","土城區"
"236035","271-VK","2017/11/25 13:49:48","新北市土城區城林路6巷80號","121.438545","24.979725","6501300","土城區"
"236017","401-BY","2017/11/25 13:49:55","新北市土城區城林路6巷80號","121.438581666667","24.9797966666667","6501300","土城區"
"236006","498-BY","2017/11/25 13:49:56","新北市土城區中央路一段332號","121.443135","24.9813733333333","6501300","土城區"
"236075","752-BX","2017/11/25 13:49:43","新北市土城區中央路三段38號","121.43838","24.968875","6501300","土城區"
"236057","912-UM","2017/11/25 13:49:59","新北市土城區城林路6巷80號","121.438345","24.9797433333333","6501300","土城區"
"236045","913-UM","2017/11/25 13:49:45","新北市土城區城林路6巷80號","121.438395","24.9798366666667","6501300","土城區"
"236061","915-UM","2017/11/25 13:49:55","新北市土城區中央路二段125號","121.442026666667","24.9772166666667","6501300","土城區"
"236054","AAC-216","2017/11/25 13:49:45","新北市土城區城林路6巷80號","121.43836","24.979815","6501300","土城區"
"221012","276-VK","2017/11/25 13:26:17","新北市汐止區汐萬路一段256巷3號","121.653468333333","25.0746816666667","6501100","汐止區"
"221031","353-TW","2017/11/25 13:49:41","新北市汐止區水源路二段72巷6弄5號","121.655715","25.055445","6501100","汐止區"
"221018","753-BX","2017/11/25 13:49:39","新北市深坑區北深路三段286巷13號","121.595643333333","25.0060533333333","6501100","汐止區"
"220027","145-BY","2017/11/25 13:49:57","新北市板橋區民權路202巷1弄2-3號","121.459408333333","25.0142","6500100","板橋區"
"220028","200-UY","2017/11/25 13:49:48","新北市板橋區大觀路二段265巷66弄28號","121.44154","24.997065","6500100","板橋區"
"220030","610-BX","2017/11/25 13:49:55","新北市板橋區篤行路三段71號","121.427283333333","24.9855016666667","6500100","板橋區"
"220050","245-BX","2017/11/24 22:19:17","新北市板橋區民生路二段120號","121.470291666667","25.0198066666667","6500100","板橋區"
"220040","267-BY","2017/11/25 13:49:44","新北市板橋區民生路二段188號","121.470425","25.0205633333333","6500100","板橋區"
"220004","276-BY","2017/11/25 13:49:57","新北市板橋區四川路二段23-3號","121.454661666667","24.99581","6500100","板橋區"
"220020","277-BY","2017/11/25 13:49:42","新北市板橋區大觀路三段36巷48號","121.434458333333","24.9969583333333","6500100","板橋區"
"220043","283-UM","2017/11/25 13:49:41","新北市板橋區民生路二段120號","121.470513333333","25.0202166666667","6500100","板橋區"
"220019","283-VK","2017/11/25 13:49:54","新北市板橋區忠孝路176巷10號","121.464671666667","25.0019616666667","6500100","板橋區"
"220001","285-VK","2017/11/25 13:49:58","新北市板橋區民生路二段121號","121.470775","25.01854","6500100","板橋區"
"220031","286-VK","2017/11/25 13:49:56","新北市板橋區僑中二街152號","121.444968333333","25.0043833333333","6500100","板橋區"
"220029","287-VK","2017/11/25 13:49:48","新北市板橋區南雅西路二段153號","121.452123333333","25.0120283333333","6500100","板橋區"
"220039","288-VK","2017/11/25 13:49:45","新北市板橋區民生路二段120號","121.470518333333","25.0199383333333","6500100","板橋區"
"220009","293-UM","2017/11/25 13:49:54","新北市板橋區太和街4巷1號","121.473961666667","25.019855","6500100","板橋區"
"220032","296-UM","2017/11/25 13:49:45","新北市板橋區大觀路二段150巷77號","121.44142","25.0011466666667","6500100","板橋區"
"220023","297-UM","2017/11/25 13:49:54","新北市板橋區大觀路一段1-1號","121.450671666667","25.00852","6500100","板橋區"
"242001","281-VK","2017/11/25 13:49:42","新北市新莊區泰順街39巷10號","121.44672","25.0431483333333","6500500","新莊區"
"220010","305-R5","2017/11/25 13:49:54","新北市板橋區中山路二段25號","121.472433333333","25.0152983333333","6500100","板橋區"
"220041","307-R5","2017/11/25 13:49:51","新北市板橋區民生路二段161巷9號","121.470281666667","25.0195333333333","6500100","板橋區"
"220047","317-R6","2017/11/25 13:49:50","新北市板橋區民生路二段120號","121.470391666667","25.0199216666667","6500100","板橋區"
"220012","486-VK","2017/11/25 13:49:40","新北市板橋區民生路二段89-2號","121.471775","25.0171816666667","6500100","板橋區"
"220038","487-VK","2017/11/25 13:49:58","新北市板橋區民生路二段188號","121.470076666667","25.0202916666667","6500100","板橋區"
"220037","491-VK","2017/11/25 01:46:40","新北市板橋區民生路二段171號","121.470001666667","25.0202266666667","6500100","板橋區"
"220104","560-BX","2017/11/25 13:49:42","新北市板橋區中正路275巷62弄19號","121.453803333333","25.0185916666667","6500100","板橋區"
"220052","561-BX","2017/11/25 13:49:45","新北市板橋區民生路二段120號","121.470613333333","25.0200416666667","6500100","板橋區"
"220011","609-BX","2017/11/25 13:49:45","新北市板橋區民生路二段56-6號","121.470728333333","25.0187516666667","6500100","板橋區"
"220005","686-BX","2017/11/25 13:49:53","新北市板橋區華東街1-9號","121.448205","24.9949433333333","6500100","板橋區"
"220025","687-BX","2017/11/25 13:49:51","新北市板橋區篤行路二段17-3號","121.431813333333","24.9930133333333","6500100","板橋區"
"220042","689-BX","2017/11/25 13:49:44","新北市板橋區民生路二段161巷1號","121.47012","25.0201","6500100","板橋區"
"220002","741-BX","2017/11/25 13:49:46","新北市板橋區南雅南路二段116號","121.45248","25.0005183333333","6500100","板橋區"
"220003","827-TW","2017/11/25 13:49:41","新北市板橋區館前西路46號","121.458363333333","25.0072966666667","6500100","板橋區"
"220014","829-TW","2017/11/25 13:49:38","新北市板橋區三民路二段正隆巷45號","121.476825","25.01345","6500100","板橋區"
"220045","831-TW","2017/11/25 13:49:45","新北市板橋區民生路二段120號","121.470395","25.0200616666667","6500100","板橋區"
"220022","895-R6","2017/11/25 13:49:57","新北市板橋區南門街65號","121.45704","25.0081083333333","6500100","板橋區"
"220021","985-R7","2017/11/25 13:49:44","新北市板橋區館前西路85號","121.457255","25.0071383333333","6500100","板橋區"
"220046","AAC-210","2017/11/25 13:49:38","新北市板橋區民生路二段161巷3號","121.470081666667","25.01976","6500100","板橋區"
"220018","AAC-253","2017/11/25 13:49:57","新北市板橋區華興街48號","121.458313333333","25.00472","6500100","板橋區"
