"lineid","car","time","location","longitude","latitude","cityid","cityname"
"248019","225-UY","2017/11/25 14:10:02","新北市五股區壟路16號","121.415296666667","25.0856266666667","6501500","五股區"
"244001","657-BX","2017/11/25 13:52:33","新北市林口區粉寮路二段160巷28號","121.405146666667","25.0908166666667","6501700","林口區"
"244021","838-TS","2017/11/25 11:13:33","新北市林口區粉寮69號","121.40479","25.0908166666667","6501700","林口區"
"243009","297-R6","2017/11/25 14:59:43","新北市泰山區橫窠雅3鄰20號","121.413263333333","25.0685016666667","6501600","泰山區"
"231028","046-UY","2017/11/25 14:59:43","新北市新店區安豐路46號","121.500095","24.954895","6500600","新店區"
"231030","047-UY","2017/11/25 14:59:50","新北市新店區安民街341-1號","121.516838333333","24.9748466666667","6500600","新店區"
"231029","106-UY","2017/11/25 14:59:44","新北市新店區安康路三段652號","121.476471666667","24.944455","6500600","新店區"
"231018","107-UY","2017/11/25 14:59:43","新北市新店區中央六街8號","121.530178333333","24.974405","6500600","新店區"
"231012","108-UY","2017/11/25 14:59:52","新北市新店區中興路三段205巷7弄1號","121.543238333333","24.9815433333333","6500600","新店區"
"231020","187-VK","2017/11/25 14:59:50","新北市新店區永福路54號","121.558273333333","24.9282683333333","6500600","新店區"
"231008","192-VK","2017/11/25 11:06:17","新北市新店區成功路45-1號","121.539166666667","24.9000833333333","6500600","新店區"
"231017","KEA-2219","2017/11/25 14:59:41","新北市新店區銀河路54-2號","121.575588333333","24.9569266666667","6500600","新店區"
"231026","256-BX","2017/11/25 14:59:38","新北市新店區博愛街7號","121.540678333333","24.972815","6500600","新店區"
"231034","268-BY","2017/11/25 14:59:43","新北市新店區玫瑰路4-1號","121.493525","24.9514","6500600","新店區"
"231023","AAD-862","2017/11/25 14:59:53","新北市新店區檳榔路105號","121.544773333333","24.9616883333333","6500600","新店區"
"231025","3713-VJ","2017/11/25 14:59:37","新北市新店區大同街19號","121.538986666667","24.9804166666667","6500600","新店區"
"231024","4716-K9","2017/11/25 14:59:47","新北市新店區中華路83巷67號","121.538385","24.9673866666667","6500600","新店區"
"231036","513-UM","2017/11/25 14:59:43","新北市新店區安祥路102巷46弄79號","121.487053333333","24.96331","6500600","新店區"
"231035","515-UM","2017/11/25 14:59:49","新北市新店區新和街59巷17號","121.519231666667","24.9860116666667","6500600","新店區"
"231003","616-UM","2017/11/25 14:59:43","新北市新店區中興路二段228號","121.54801","24.9752316666667","6500600","新店區"
"231006","617-UM","2017/11/25 14:59:36","新北市新店區新坡一街72號","121.548955","24.9645816666667","6500600","新店區"
"231002","618-UM","2017/11/25 14:59:38","新北市新店區中正路501-4號","121.533656666667","24.9838033333333","6500600","新店區"
"231001","619-UM","2017/11/25 14:59:49","新北市新店區中正路276號","121.538871666667","24.9737333333333","6500600","新店區"
"231039","718-UY","2017/11/25 14:59:49","新北市新店區北新路二段200號","121.542921666667","24.9767383333333","6500600","新店區"
"231033","720-UM","2017/11/25 14:59:47","新北市新店區安泰路60巷134弄6號","121.484153333333","24.94418","6500600","新店區"
"231005","897-TW","2017/11/25 14:59:44","新北市新店區復興路53號","121.536145","24.9873183333333","6500600","新店區"
"231004","899-TW","2017/11/25 14:59:44","新北市新店區民族路6號","121.541675","24.9790183333333","6500600","新店區"
"231037","AKT-0513","2017/11/25 14:59:50","新北市新店區安民街341-1號","121.51659","24.9750466666667","6500600","新店區"
"235030","003-UY","2017/11/25 14:59:42","新北市中和區中山路二段7號","121.505313333333","25.0056966666667","6500300","中和區"
"235020","096-UM","2017/11/25 14:59:53","新北市中和區中山路三段114巷72-5號","121.476123333333","25.0078516666667","6500300","中和區"
"235003","097-UM","2017/11/25 14:59:44","新北市中和區宜安路18巷12號","121.513713333333","24.9962466666667","6500300","中和區"
"235029","098-UM","2017/11/25 14:59:50","新北市中和區橋和路296號","121.49688","25.0069466666667","6500300","中和區"
"235004","150-BY","2017/11/25 14:59:52","新北市中和區景安路79巷21號","121.507023333333","24.9967616666667","6500300","中和區"
"235022","151-BY","2017/11/25 14:59:52","新北市中和區員山路128-1號","121.481131666667","24.9961533333333","6500300","中和區"
"235019","183-VK","2017/11/25 14:59:51","新北市中和區中山路二段505號","121.482268333333","25.0050783333333","6500300","中和區"
"235002","185-VK","2017/11/25 14:59:46","新北市中和區自立路66號","121.52393","24.9913316666667","6500300","中和區"
"235013","186-VK","2017/11/25 14:59:38","新北市中和區南華路11號","121.50226","24.9956466666667","6500300","中和區"
"235008","293-VK","2017/11/25 14:59:47","新北市中和區板南路187-1號","121.500898333333","24.992715","6500300","中和區"
"235007","352-BY","2017/11/25 14:59:43","新北市中和區華新街228號","121.506088333333","24.9817583333333","6500300","中和區"
"235032","377-QA","2017/11/25 14:59:51","新北市中和區中山路二段250巷4號","121.497621666667","25.0028433333333","6500300","中和區"
"235025","378-QA","2017/11/25 14:59:18","新北市新店區薏仁坑路自強巷1號","121.497766666667","24.9575183333333","6500300","中和區"
"235035","269-TV","2017/11/25 14:59:52","新北市中和區連城路469巷5號","121.483628333333","24.9957783333333","6500300","中和區"
"235014","4979-A6","2017/11/25 14:59:49","新北市中和區安樂路1號","121.511675","24.9918533333333","6500300","中和區"
"235033","4980-A6","2017/11/25 14:59:49","新北市中和區南山路37巷3弄1號","121.5027","24.998815","6500300","中和區"
"235034","558-UM","2017/11/25 14:59:44","新北市中和區連勝街39號","121.498185","24.99768","6500300","中和區"
"235018","640-BX","2017/11/25 14:59:54","新北市中和區莒光路118號","121.47242","25.0018616666667","6500300","中和區"
"235024","647-TV","2017/11/25 14:59:56","新北市中和區新生街30巷1號","121.483006666667","25.003865","6500300","中和區"
"235010","733-UM","2017/11/25 14:59:38","新北市中和區興南路一段105巷20弄5號","121.510273333333","24.9854966666667","6500300","中和區"
"235026","800-TS","2017/11/25 14:59:43","新北市中和區永和路103巷23號","121.494721666667","25.0068383333333","6500300","中和區"
"235016","805-TS","2017/11/25 14:59:49","新北市中和區忠孝街3號","121.509601666667","24.9829533333333","6500300","中和區"
"235012","896-TW","2017/11/25 14:59:46","新北市中和區忠孝街1巷2-1號","121.509213333333","24.98306","6500300","中和區"
"235017","900-TW","2017/11/25 14:59:42","新北市中和區民德路216號","121.468238333333","24.99808","6500300","中和區"
"235001","157-BY","2017/11/25 14:59:55","新北市中和區復興路301巷16號","121.501483333333","24.989535","6500300","中和區"
"235001","AAC-213","2017/11/25 14:59:40","新北市中和區大智街55巷30弄58-1號","121.52225","24.9933583333333","6500300","中和區"
"235023","AAC-215","2017/11/25 14:59:53","新北市中和區圓通路343號","121.49155","24.9904033333333","6500300","中和區"
"220016","013-TV","2017/11/25 02:01:06","新北市板橋區民生路二段120號","121.470385","25.0196916666667","6500100","板橋區"
"220013","072-UY","2017/11/25 14:59:53","新北市板橋區長安街23號","121.466636666667","25.0087233333333","6500100","板橋區"
"220034","073-UY","2017/11/25 14:59:56","新北市板橋區南雅西路二段7巷25號","121.451933333333","25.0095466666667","6500100","板橋區"
"220105","075-UY","2017/11/25 14:59:43","新北市板橋區文聖街11巷13號","121.475795","25.0326933333333","6500100","板橋區"
"220017","AAD-861","2017/11/25 14:59:35","新北市板橋區貴興路54號","121.456808333333","25.0031166666667","6500100","板橋區"
"220051","120-SR","2017/11/25 14:59:50","新北市板橋區民治街136號","121.477653333333","25.03079","6500100","板橋區"
"247004","336-TH","2017/11/25 14:43:38","新北市五股區中興路三段163號","121.449211666667","25.0806566666667","6501400","蘆洲區"
"228004","212-TW","2017/11/25 14:59:47","新北市貢寮區雙玉里田寮洋街1號","121.928021666667","25.0183233333333","6502600","貢寮區"
"227002","400-TW","2017/11/25 13:15:25","新北市雙溪區三貂里政光路3-1號","121.85086","25.0630683333333","6502500","雙溪區"
"207002","749-BX","2017/11/25 14:59:39","新北市萬里區崁腳里崁腳路73號","121.647555","25.1596416666667","6502800","萬里區"
"207001","662-BX","2017/11/25 14:59:51","新北市萬里區雙興里豐稟路4-1號","121.64833","25.1856366666667","6502800","萬里區"
"208004","170-UY","2017/11/25 14:59:58","新北市金山區六股里下六股18-1號","121.624765","25.223985","6502700","金山區"
"236068","105-UM","2017/11/25 14:59:47","新北市土城區明德路二段207號","121.44657","24.983615","6501300","土城區"
"236041","107-UM","2017/11/25 14:59:42","新北市土城區裕民路214巷18弄10號","121.452335","24.9842766666667","6501300","土城區"
"236029","253-BX","2017/11/25 14:59:48","新北市土城區慶利街16號","121.439736666667","24.9737083333333","6501300","土城區"
"236025","269-VK","2017/11/25 14:59:54","新北市土城區中正路65號","121.44453","24.9755683333333","6501300","土城區"
"236013","270-VK","2017/11/25 14:59:49","新北市土城區延和路9號","121.463891666667","24.9878533333333","6501300","土城區"
"236035","271-VK","2017/11/25 14:59:48","新北市土城區仁愛路7號","121.460058333333","24.9811183333333","6501300","土城區"
"236017","401-BY","2017/11/25 14:59:55","新北市土城區延吉街168巷2弄1號","121.468226666667","24.98566","6501300","土城區"
"236075","752-BX","2017/11/25 14:59:43","新北市土城區中央路四段138號","121.41739","24.9585483333333","6501300","土城區"
"236057","912-UM","2017/11/25 14:59:39","新北市土城區明德路一段385-1號","121.452405","24.9798133333333","6501300","土城區"
"236045","913-UM","2017/11/25 14:59:45","新北市土城區明德路一段288號","121.456765","24.9776833333333","6501300","土城區"
"236061","915-UM","2017/11/25 14:59:51","新北市土城區金城路三段79號","121.466641666667","24.98722","6501300","土城區"
"236054","AAC-216","2017/11/25 14:59:48","新北市土城區學成路142號","121.448946666667","24.989625","6501300","土城區"
"221012","276-VK","2017/11/25 13:26:17","新北市汐止區汐萬路一段256巷3號","121.653468333333","25.0746816666667","6501100","汐止區"
"221031","353-TW","2017/11/25 14:59:41","新北市汐止區大同路二段187巷53號","121.652228333333","25.06637","6501100","汐止區"
"221012","490-VK","2017/11/25 14:59:46","新北市五股區新五路三段13號","121.44508","25.0886583333333","6501100","汐止區"
"221002","707-TV","2017/11/25 14:59:41","新北市汐止區莊敬街29巷9弄13號","121.657671666667","25.0609816666667","6501100","汐止區"
"221018","753-BX","2017/11/25 14:59:39","新北市汐止區大同路二段547號","121.662261666667","25.0695366666667","6501100","汐止區"
"220050","245-BX","2017/11/25 14:59:47","新北市板橋區莒光路182號","121.474118333333","25.0227516666667","6500100","板橋區"
"220040","267-BY","2017/11/25 14:59:53","新北市板橋區懷德街174巷20號","121.478573333333","25.0294033333333","6500100","板橋區"
"220020","277-BY","2017/11/25 14:59:42","新北市板橋區溪城路85號","121.426738333333","24.983475","6500100","板橋區"
"220043","283-UM","2017/11/25 14:59:41","新北市板橋區雨農路27巷4號","121.461353333333","25.0240083333333","6500100","板橋區"
"220019","283-VK","2017/11/25 14:59:54","新北市板橋區和平路174巷37號","121.465171666667","24.994115","6500100","板橋區"
"220001","285-VK","2017/11/25 14:59:46","新北市板橋區永豐街97號","121.473743333333","25.0193066666667","6500100","板橋區"
"220031","286-VK","2017/11/25 14:59:56","新北市板橋區僑中二街90巷10號","121.445868333333","25.0092483333333","6500100","板橋區"
"220029","287-VK","2017/11/25 14:59:47","新北市板橋區僑中一街124巷18弄24號","121.447071666667","25.0136233333333","6500100","板橋區"
"220039","288-VK","2017/11/25 14:59:45","新北市板橋區幸福路32巷30號","121.460798333333","25.0215","6500100","板橋區"
"220009","293-UM","2017/11/25 14:59:54","新北市板橋區觀光街90號","121.469443333333","25.0169566666667","6500100","板橋區"
"220032","296-UM","2017/11/25 14:59:45","新北市板橋區溪崑二街112巷36號","121.425571666667","24.9892066666667","6500100","板橋區"
"220023","297-UM","2017/11/25 14:59:48","新北市板橋區金華街10巷118號","121.459253333333","25.020465","6500100","板橋區"
"242001","281-VK","2017/11/25 14:59:41","新北市新莊區碧江街44號","121.453565","25.0338866666667","6500500","新莊區"
"220010","305-R5","2017/11/25 14:59:54","新北市板橋區萬安街20巷2弄13號","121.485265","25.0226966666667","6500100","板橋區"
"220041","307-R5","2017/11/25 14:59:51","新北市板橋區裕民街128巷6號","121.458871666667","25.0280283333333","6500100","板橋區"
"220047","317-R6","2017/11/25 14:59:50","新北市板橋區漢生西路165巷50號","121.461785","25.0236266666667","6500100","板橋區"
"220012","486-VK","2017/11/25 14:59:40","新北市板橋區實踐路90號","121.46398","25.0050566666667","6500100","板橋區"
"220038","487-VK","2017/11/25 14:59:38","新北市板橋區龍泉街56-1號","121.457063333333","25.02607","6500100","板橋區"
"220037","491-VK","2017/11/25 14:59:50","新北市板橋區懷德街78巷1號","121.478363333333","25.0315316666667","6500100","板橋區"
"220052","561-BX","2017/11/25 14:59:54","新北市板橋區文化路一段421巷23-1號","121.46622","25.02324","6500100","板橋區"
"220011","609-BX","2017/11/25 14:59:45","新北市板橋區中山路二段463號","121.481855","25.0204033333333","6500100","板橋區"
"220005","686-BX","2017/11/25 14:59:53","新北市板橋區信義路105-1號","121.45748","24.993665","6500100","板橋區"
"220025","687-BX","2017/11/25 14:59:51","新北市板橋區大觀路一段28巷1弄98號","121.451523333333","25.006545","6500100","板橋區"
"220042","689-BX","2017/11/25 14:59:44","新北市板橋區長江路三段133號","121.47557","25.03473","6500100","板橋區"
"220002","741-BX","2017/11/25 14:59:46","新北市板橋區忠孝路忠義巷9弄1-1號","121.465153333333","25.0046683333333","6500100","板橋區"
"220003","827-TW","2017/11/25 14:59:41","新北市板橋區重慶路280號","121.46318","24.9994033333333","6500100","板橋區"
"220014","829-TW","2017/11/25 14:59:38","新北市板橋區中山路一段214號","121.47022","25.0140133333333","6500100","板橋區"
"220021","985-R7","2017/11/25 14:59:44","新北市板橋區大觀路一段23號","121.450225","25.00849","6500100","板橋區"
"220046","AAC-210","2017/11/25 14:59:38","新北市板橋區光正街16巷24號","121.463291666667","25.0176433333333","6500100","板橋區"
"220018","AAC-253","2017/11/25 14:59:37","新北市板橋區成都街89號","121.462938333333","25.005195","6500100","板橋區"
