"lineid","car","time","location","longitude","latitude","cityid","cityname"
"248019","225-UY","2017/11/25 14:10:02","新北市五股區壟路16號","121.415296666667","25.0856266666667","6501500","五股區"
"244001","657-BX","2017/11/25 13:52:33","新北市林口區粉寮路二段160巷28號","121.405146666667","25.0908166666667","6501700","林口區"
"244021","838-TS","2017/11/25 11:13:33","新北市林口區粉寮69號","121.40479","25.0908166666667","6501700","林口區"
"243009","297-R6","2017/11/25 15:09:43","新北市泰山區泰林路三段772巷17號","121.401288333333","25.0738183333333","6501600","泰山區"
"231028","046-UY","2017/11/25 15:09:54","新北市新店區僑愛一路1號","121.499883333333","24.9449616666667","6500600","新店區"
"231030","047-UY","2017/11/25 15:09:50","新北市新店區安民街339號","121.516928333333","24.9748533333333","6500600","新店區"
"231029","106-UY","2017/11/25 15:09:55","新北市新店區安康路三段738號","121.47391","24.9420333333333","6500600","新店區"
"231018","107-UY","2017/11/25 15:09:43","新北市新店區中央六街105號","121.525695","24.9772083333333","6500600","新店區"
"231012","108-UY","2017/11/25 15:09:52","新北市新店區寶元路一段61號","121.542173333333","24.9858466666667","6500600","新店區"
"231020","187-VK","2017/11/25 15:09:50","新北市新店區湖興路128-15號","121.566236666667","24.93131","6500600","新店區"
"231008","192-VK","2017/11/25 11:06:17","新北市新店區成功路45-1號","121.539166666667","24.9000833333333","6500600","新店區"
"231017","KEA-2219","2017/11/25 15:05:21","新北市新店區明山路5號","121.563263333333","24.9553966666667","6500600","新店區"
"231026","256-BX","2017/11/25 15:09:38","新北市新店區建興街7號","121.53995","24.9764366666667","6500600","新店區"
"231034","268-BY","2017/11/25 15:09:43","新北市新店區玫瑰路4-1號","121.493578333333","24.9514933333333","6500600","新店區"
"231023","AAD-862","2017/11/25 15:09:53","新北市新店區檳榔路17-2號","121.541533333333","24.963955","6500600","新店區"
"231025","3713-VJ","2017/11/25 15:09:57","新北市新店區二十張路46巷37弄15號","121.536293333333","24.98172","6500600","新店區"
"231024","4716-K9","2017/11/25 15:09:47","新北市新店區北新路一段297巷32號","121.54052","24.96829","6500600","新店區"
"231036","513-UM","2017/11/25 15:09:55","新北市新店區安祥路104巷19號","121.481546666667","24.963335","6500600","新店區"
"231035","515-UM","2017/11/25 15:09:52","新北市新店區安和路三段169號","121.51602","24.9860516666667","6500600","新店區"
"231003","616-UM","2017/11/25 15:09:43","新北市新店區寶橋路218號","121.551091666667","24.9786433333333","6500600","新店區"
"231006","617-UM","2017/11/25 15:09:56","新北市新店區新坡一街2號","121.548368333333","24.9610166666667","6500600","新店區"
"231002","618-UM","2017/11/25 15:09:38","新北市新店區中正路692號","121.534073333333","24.99046","6500600","新店區"
"231001","619-UM","2017/11/25 15:09:49","新北市新店區中正路188號","121.540906666667","24.9722733333333","6500600","新店區"
"231039","718-UY","2017/11/25 15:09:49","新北市新店區北新路三段104號","121.54211","24.9812933333333","6500600","新店區"
"231033","720-UM","2017/11/25 15:09:49","新北市新店區安康路三段311號","121.485878333333","24.9512533333333","6500600","新店區"
"231005","897-TW","2017/11/25 15:09:49","新北市新店區北新路三段173-3號","121.541033333333","24.984005","6500600","新店區"
"231004","899-TW","2017/11/25 15:09:43","新北市新店區建國路8-1號","121.539931666667","24.9735516666667","6500600","新店區"
"231037","AKT-0513","2017/11/25 15:09:50","新北市新店區安民街341-1號","121.51658","24.9750466666667","6500600","新店區"
"235030","003-UY","2017/11/25 15:09:45","新北市中和區水源路128號","121.507586666667","25.0031983333333","6500300","中和區"
"235020","096-UM","2017/11/25 15:09:53","新北市中和區中山路三段105號","121.475065","25.0061183333333","6500300","中和區"
"235003","097-UM","2017/11/25 15:09:44","新北市中和區安樂路217巷58號","121.513156666667","24.9977433333333","6500300","中和區"
"235004","150-BY","2017/11/25 15:09:52","新北市中和區景安路29號","121.507603333333","24.9987066666667","6500300","中和區"
"235019","183-VK","2017/11/25 15:09:51","新北市三重區五谷王北街161-1號","121.477735","25.054525","6500300","中和區"
"235007","352-BY","2017/11/25 15:09:42","新北市中和區興南路二段159巷10號","121.505078333333","24.9832166666667","6500300","中和區"
"235032","377-QA","2017/11/25 15:09:51","新北市中和區福祥路85巷6弄8號","121.498493333333","25.005915","6500300","中和區"
"235025","378-QA","2017/11/25 15:09:38","新北市新店區安興路105-1號","121.514618333333","24.9779266666667","6500300","中和區"
"235014","4979-A6","2017/11/25 15:09:45","新北市中和區景平路402號","121.509215","24.99315","6500300","中和區"
"235033","4980-A6","2017/11/25 15:09:49","新北市中和區景新街64巷7弄3號","121.504295","24.9986966666667","6500300","中和區"
"235034","558-UM","2017/11/25 15:09:44","新北市中和區圓通路151號","121.49831","24.9956783333333","6500300","中和區"
"235018","640-BX","2017/11/25 15:09:54","新北市中和區民享街35巷8弄15號","121.474578333333","25.0035316666667","6500300","中和區"
"235026","800-TS","2017/11/25 15:09:43","新北市中和區永和路191巷3號","121.491386666667","25.0071783333333","6500300","中和區"
"235012","896-TW","2017/11/25 15:09:46","新北市中和區興南路二段14號","121.507661666667","24.9859516666667","6500300","中和區"
"235001","157-BY","2017/11/25 15:09:55","新北市中和區景安路220巷4弄1號","121.503333333333","24.9909516666667","6500300","中和區"
"235001","AAC-213","2017/11/25 15:09:40","新北市中和區立人街63號","121.520126666667","24.99428","6500300","中和區"
"235023","AAC-215","2017/11/25 15:09:40","新北市中和區圓通路335巷35號","121.493723333333","24.989435","6500300","中和區"
"220016","013-TV","2017/11/25 02:01:06","新北市板橋區民生路二段120號","121.470385","25.0196916666667","6500100","板橋區"
"220013","072-UY","2017/11/25 15:09:53","新北市板橋區三民路二段222號","121.47891","25.01158","6500100","板橋區"
"220017","AAD-861","2017/11/25 15:09:55","新北市板橋區大明街25巷4弄14號","121.457576666667","25.0022166666667","6500100","板橋區"
"220051","120-SR","2017/11/25 15:09:50","新北市板橋區縣民大道二段198號","121.469493333333","25.0174166666667","6500100","板橋區"
"247004","336-TH","2017/11/25 14:43:38","新北市五股區中興路三段163號","121.449211666667","25.0806566666667","6501400","蘆洲區"
"228004","212-TW","2017/11/25 15:09:47","新北市貢寮區雙玉里田寮洋街17號","121.921853333333","25.0247616666667","6502600","貢寮區"
"227002","400-TW","2017/11/25 15:03:20","新北市雙溪區三貂里政光路3-1號","121.850795","25.06307","6502500","雙溪區"
"207002","749-BX","2017/11/25 15:09:14","新北市萬里區崁腳里內中福路80號","121.656268333333","25.1675483333333","6502800","萬里區"
"207001","662-BX","2017/11/25 15:09:51","新北市萬里區磺潭里員潭路15-1號","121.646756666667","25.1982716666667","6502800","萬里區"
"208004","170-UY","2017/11/25 15:09:47","新北市金山區月眉27-1號","121.629431666667","25.2152016666667","6502700","金山區"
"236068","105-UM","2017/11/25 15:09:47","新北市土城區學成路120號","121.449475","24.9894833333333","6501300","土城區"
"236041","107-UM","2017/11/25 15:09:22","新北市土城區裕民路258號","121.454573333333","24.98292","6501300","土城區"
"236029","253-BX","2017/11/25 15:09:50","新北市土城區福祥街12號","121.440853333333","24.9796333333333","6501300","土城區"
"236025","269-VK","2017/11/25 15:09:54","新北市土城區中央路二段177巷29號","121.444026666667","24.9762366666667","6501300","土城區"
"236013","270-VK","2017/11/25 15:09:49","新北市土城區學府路一段99巷21號","121.456688333333","24.9871533333333","6501300","土城區"
"236035","271-VK","2017/11/25 15:09:48","新北市土城區青仁路27號","121.460563333333","24.97884","6501300","土城區"
"236017","401-BY","2017/11/25 15:09:55","新北市土城區延峰街32巷1號","121.469413333333","24.985105","6501300","土城區"
"236075","752-BX","2017/11/25 15:09:43","新北市土城區中州路27巷1號","121.41377","24.9577666666667","6501300","土城區"
"236057","912-UM","2017/11/25 15:09:39","新北市土城區金城路二段229號","121.455541666667","24.9823916666667","6501300","土城區"
"236045","913-UM","2017/11/25 15:09:45","新北市土城區清水路201號","121.459991666667","24.981705","6501300","土城區"
"236061","915-UM","2017/11/25 15:09:52","新北市土城區延平街33巷1號","121.467851666667","24.991755","6501300","土城區"
"236054","AAC-216","2017/11/25 15:09:45","新北市土城區學府路一段276號","121.449965","24.9830366666667","6501300","土城區"
"221012","276-VK","2017/11/25 13:26:17","新北市汐止區汐萬路一段256巷3號","121.653468333333","25.0746816666667","6501100","汐止區"
"221012","490-VK","2017/11/25 15:09:46","新北市八里區商港路120號","121.392465","25.1501516666667","6501100","汐止區"
"221018","753-BX","2017/11/25 15:09:39","新北市汐止區信義路1號","121.66264","25.069295","6501100","汐止區"
"220050","245-BX","2017/11/25 15:09:47","新北市板橋區雙十路二段47巷2弄31號","121.47503","25.0267616666667","6500100","板橋區"
"220040","267-BY","2017/11/25 15:09:44","新北市板橋區文聖街107號","121.477763333333","25.02937","6500100","板橋區"
"220019","283-VK","2017/11/25 15:09:54","新北市土城區四川路20-1號","121.455321666667","24.9960566666667","6500100","板橋區"
"220001","285-VK","2017/11/25 15:09:44","新北市板橋區中山路二段275號","121.477761666667","25.0178866666667","6500100","板橋區"
"220031","286-VK","2017/11/25 15:09:56","新北市板橋區僑中二街102巷14號","121.445543333333","25.0083716666667","6500100","板橋區"
"220029","287-VK","2017/11/25 15:09:47","新北市板橋區僑中一街80巷1弄2號","121.447548333333","25.01197","6500100","板橋區"
"220009","293-UM","2017/11/25 15:09:54","新北市板橋區新站路12號","121.465915","25.01233","6500100","板橋區"
"242001","281-VK","2017/11/25 15:09:41","新北市新莊區碧江街27號","121.453691666667","25.0338","6500500","新莊區"
"220010","305-R5","2017/11/25 15:09:54","新北市板橋區民生路二段56-6號","121.471025","25.0190366666667","6500100","板橋區"
"220041","307-R5","2017/11/25 15:09:51","新北市板橋區文化路一段109號","121.461451666667","25.014525","6500100","板橋區"
"220012","486-VK","2017/11/25 15:09:40","新北市板橋區長安街331巷80號","121.472313333333","25.0131116666667","6500100","板橋區"
"220038","487-VK","2017/11/25 15:09:38","新北市板橋區互助街8號","121.463105","25.0277216666667","6500100","板橋區"
"220052","561-BX","2017/11/25 15:09:45","新北市板橋區陽明街279巷42號","121.460898333333","25.0256266666667","6500100","板橋區"
"220011","609-BX","2017/11/25 15:09:49","新北市板橋區三民路一段133號","121.479205","25.0202","6500100","板橋區"
"220005","686-BX","2017/11/25 15:09:54","新北市板橋區四川路二段130巷24號","121.449625","24.9942866666667","6500100","板橋區"
"220025","687-BX","2017/11/25 15:09:51","新北市板橋區華東街1-10號","121.448305","24.9949966666667","6500100","板橋區"
"220042","689-BX","2017/11/25 15:09:50","新北市板橋區宏國路77巷2弄5號","121.469525","25.0326183333333","6500100","板橋區"
"220003","827-TW","2017/11/25 15:09:41","新北市板橋區仁愛路23號","121.458921666667","24.9994533333333","6500100","板橋區"
"220014","829-TW","2017/11/25 15:09:58","新北市板橋區中山路二段125號","121.475085","25.0163616666667","6500100","板橋區"
"220046","AAC-210","2017/11/25 15:09:38","新北市板橋區國光路200號","121.461703333333","25.0183883333333","6500100","板橋區"
"220018","AAC-253","2017/11/25 15:09:57","新北市板橋區德興街16號","121.453403333333","24.9944","6500100","板橋區"
