"lineid","car","time","location","longitude","latitude","cityid","cityname"
"234046","148-BY","2017/11/25 19:09:42","新北市永和區永元路18巷38弄1號","121.524065","25.00025","6500400","永和區"
"234013","149-BY","2017/11/25 19:09:40","新北市永和區永和路二段32號","121.514771666667","25.0106383333333","6500400","永和區"
"234007","207-UY","2017/11/25 19:09:52","新北市永和區中山路一段331號","121.506211666667","25.00624","6500400","永和區"
"234081","298-R6","2017/11/25 19:09:56","新北市永和區永貞路39巷4弄2號","121.521416666667","25.00646","6500400","永和區"
"234038","336-UY","2017/11/25 19:09:57","新北市永和區民樂街71巷2號","121.527348333333","24.9973466666667","6500400","永和區"
"234064","337-UY","2017/11/25 19:09:42","新北市永和區秀朗路二段33號","121.521251666667","25.0024116666667","6500400","永和區"
"234084","338-UY","2017/11/25 19:09:55","新北市永和區永利路4巷24號","121.517591666667","25.0048933333333","6500400","永和區"
"234070","552-UM","2017/11/25 19:09:38","新北市永和區豫溪街137巷1弄24號","121.518438333333","25.0104316666667","6500400","永和區"
"234054","553-UM","2017/11/25 19:09:41","新北市永和區中興街133巷6號","121.518695","25.0126033333333","6500400","永和區"
"234017","745-BX","2017/11/25 19:09:53","新北市永和區文化路90巷3弄2號","121.513861666667","25.0156083333333","6500400","永和區"
"234030","746-BX","2017/11/25 19:09:37","新北市永和區四維街111號","121.523626666667","24.9982883333333","6500400","永和區"
"234061","AAD-866","2017/11/25 19:09:57","新北市永和區安樂路304巷7號","121.514563333333","25.0050683333333","6500400","永和區"
"234042","862-TW","2017/11/25 19:09:48","新北市永和區保平路111巷5號","121.511698333333","25.0059866666667","6500400","永和區"
"234050","863-TW","2017/11/25 19:09:57","新北市永和區仁愛路104巷7弄62號","121.510898333333","25.01412","6500400","永和區"
"234026","9381-KE","2017/11/25 19:09:47","新北市永和區安樂路198巷4弄2號","121.515613333333","25.002","6500400","永和區"
"234011","9373-KE","2017/11/25 19:09:55","新北市永和區保福路二段44巷2弄10號","121.511633333333","25.0118133333333","6500400","永和區"
"249005","172-UM","2017/11/25 19:09:39","新北市八里區中華路三段65號","121.394861666667","25.1410666666667","6502300","八里區"
"249001","173-UM","2017/11/25 19:09:56","新北市八里區龍米路二段246-1號","121.429803333333","25.1589283333333","6502300","八里區"
"248016","026-BX","2017/11/25 19:09:41","新北市五股區成泰路三段543巷60號","121.449538333333","25.1031533333333","6501500","五股區"
"248018","225-UY","2017/11/25 19:03:58","新北市五股區凌雲路三段57號","121.425278333333","25.1250033333333","6501500","五股區"
"248012","247-BX","2017/11/25 19:09:49","新北市五股區中興路四段48巷16號","121.438626666667","25.083435","6501500","五股區"
"248010","272-BY","2017/11/25 19:09:50","新北市五股區水碓一路23號","121.43066","25.07125","6501500","五股區"
"248004","677-BX","2017/11/25 19:09:46","新北市五股區六合街3號","121.431921666667","25.0886066666667","6501500","五股區"
"248002","678-BX","2017/11/25 19:09:38","新北市五股區凌雲路一段158巷6號","121.44781","25.10304","6501500","五股區"
"234023","9380-KE","2017/11/25 19:09:57","新北市永和區中興街10巷13號","121.515726666667","25.0112433333333","6500400","永和區"
"234077","969-R7","2017/11/25 19:09:47","新北市永和區民族街43巷15號","121.519198333333","24.9983766666667","6500400","永和區"
"234074","AAC-211","2017/11/25 19:09:45","新北市永和區竹林路187號","121.520555","25.0095666666667","6500400","永和區"
"234067","AAC-212","2017/11/25 19:09:50","新北市永和區保平路22號","121.512321666667","25.0074933333333","6500400","永和區"
"234003","AAC-295","2017/11/25 19:09:51","新北市永和區和平街56號","121.512405","25.0099916666667","6500400","永和區"
"244013","069-UM","2017/11/25 19:09:56","新北市林口區麗園二街1巷7-3號","121.378211666667","25.0704783333333","6501700","林口區"
"244019","403-UM","2017/11/25 19:09:53","新北市林口區麗園二街10-5號","121.378095","25.0695416666667","6501700","林口區"
"244023","483-VK","2017/11/25 19:09:44","新北市林口區文化三路一段555巷50號","121.369738333333","25.0768783333333","6501700","林口區"
"244009","656-BX","2017/11/25 19:09:50","新北市林口區林口路78號","121.389291666667","25.08071","6501700","林口區"
"244001","657-BX","2017/11/25 13:52:33","新北市林口區粉寮路二段160巷28號","121.405146666667","25.0908166666667","6501700","林口區"
"244011","701-TV","2017/11/25 19:09:54","新北市林口區中正路332號","121.38732","25.0779066666667","6501700","林口區"
"243011","267-VK","2017/11/25 19:09:42","新北市泰山區明志路二段358號","121.425493333333","25.0452183333333","6501600","泰山區"
"243012","AAD-798","2017/11/25 19:09:51","新北市泰山區辭修路36巷8弄5號","121.427881666667","25.05858","6501600","泰山區"
"243009","297-R6","2017/11/25 19:09:54","新北市泰山區楓江路25巷9號","121.434393333333","25.06361","6501600","泰山區"
"243015","380-SR","2017/11/25 19:09:37","新北市泰山區明志路一段386號","121.430743333333","25.0572433333333","6501600","泰山區"
"243014","421-VK","2017/11/25 19:09:46","新北市泰山區泰林路二段440號","121.426436666667","25.0641866666667","6501600","泰山區"
"243010","KEA-2215","2017/11/25 19:09:42","新北市泰山區明志路一段374號","121.430746666667","25.0578216666667","6501600","泰山區"
"243013","646-TV","2017/11/25 19:09:47","新北市泰山區漢口街7號","121.423501666667","25.036595","6501600","泰山區"
"243016","680-BX","2017/11/25 19:09:54","新北市泰山區明志路二段390號","121.425301666667","25.0443833333333","6501600","泰山區"
"222003","016-RS","2017/11/25 18:57:23","新北市深坑區翠谷街17巷42弄2號","121.625378333333","25.0101333333333","6501800","深坑區"
"222002","659-BX","2017/11/25 19:09:52","新北市深坑區北深路一段177號","121.632465","25.010735","6501800","深坑區"
"231059","046-UY","2017/11/25 19:09:53","新北市新店區安和路二段148號","121.519761666667","24.9729166666667","6500600","新店區"
"231061","047-UY","2017/11/25 19:09:57","新北市新店區安康路一段75-1號","121.530065","24.9611266666667","6500600","新店區"
"231060","106-UY","2017/11/25 19:09:56","新北市新店區安康路二段226號","121.509521666667","24.9592266666667","6500600","新店區"
"231051","107-UY","2017/11/25 19:09:46","新北市新店區中正路382巷24號","121.535501666667","24.9777266666667","6500600","新店區"
"231048","108-UY","2017/11/25 19:09:50","新北市新店區德正街27巷29弄41號","121.54491","24.9718983333333","6500600","新店區"
"231052","187-VK","2017/11/25 19:09:53","新北市新店區自強路72號","121.546276666667","24.925","6500600","新店區"
"231050","KEA-2219","2017/11/25 19:09:53","新北市新店區竹林路2巷33號","121.550478333333","24.9501933333333","6500600","新店區"
"231063","268-BY","2017/11/25 19:09:54","新北市新店區車子路153號","121.505355","24.94709","6500600","新店區"
"231046","278-BY","2017/11/25 19:09:38","新北市新店區華城路77巷6號","121.525363333333","24.946405","6500600","新店區"
"231054","AAD-862","2017/11/25 19:09:39","新北市新店區新店路165號","121.537076666667","24.95556","6500600","新店區"
"231058","3712-VJ","2017/11/25 19:09:52","新北市新店區光明街138巷13弄1號","121.540133333333","24.961235","6500600","新店區"
"231056","3713-VJ","2017/11/25 19:09:38","新北市新店區二十張路46巷37弄21-5號","121.535411666667","24.98128","6500600","新店區"
"231055","4716-K9","2017/11/25 19:09:40","新北市新店區新生街13巷24號","121.538955","24.966325","6500600","新店區"
"231067","4715-K9","2017/11/25 19:09:46","新北市新店區安康路一段222號","121.523741666667","24.9635766666667","6500600","新店區"
"231065","513-UM","2017/11/25 19:09:42","新北市新店區安祥路145巷27號","121.475346666667","24.9564416666667","6500600","新店區"
"231064","515-UM","2017/11/25 19:09:41","新北市新店區安忠路90號","121.511493333333","24.9580616666667","6500600","新店區"
"231042","616-UM","2017/11/25 19:09:56","新北市新店區中興路一段115號","121.541381666667","24.96272","6500600","新店區"
"231045","617-UM","2017/11/25 19:09:53","新北市新店區北宜路一段123-2號","121.540623333333","24.9534616666667","6500600","新店區"
"231041","618-UM","2017/11/25 19:09:55","新北市新店區中央三街127號","121.524085","24.9767366666667","6500600","新店區"
"231040","619-UM","2017/11/25 19:09:48","新北市新店區三民路98-2號","121.533925","24.9735","6500600","新店區"
"231049","719-UM","2017/11/25 19:09:52","新北市新店區二十張路25巷18弄36號","121.539235","24.9812433333333","6500600","新店區"
"231062","720-UM","2017/11/25 19:09:41","新北市新店區莒光路38巷2弄1號","121.523048333333","24.959","6500600","新店區"
"231044","897-TW","2017/11/25 19:09:43","新北市新店區中興路三段218號","121.543631666667","24.982575","6500600","新店區"
"231043","899-TW","2017/11/25 19:09:37","新北市新店區寶橋路132號","121.547275","24.9761633333333","6500600","新店區"
"231066","AKT-0513","2017/11/25 19:09:45","新北市新店區安康路三段359巷16號","121.484565","24.9495083333333","6500600","新店區"
"241026","066-VK","2017/11/25 19:09:48","新北市三重區泉州街72號","121.494728333333","25.054875","6500200","三重區"
"241022","156-TC","2017/11/25 19:09:50","新北市三重區三民街153號","121.484126666667","25.0642583333333","6500200","三重區"
"241035","462-BY","2017/11/25 19:09:47","新北市三重區重新路四段146號","121.486318333333","25.0563916666667","6500200","三重區"
"241029","942-UM","2017/11/25 19:09:44","新北市三重區集美街257號","121.492355","25.0555633333333","6500200","三重區"
"235066","003-UY","2017/11/25 19:09:52","新北市中和區光華街22號","121.504478333333","25.0042516666667","6500300","中和區"
"235063","006-UY","2017/11/25 19:09:55","新北市中和區連城路246-4號","121.48817","24.9962483333333","6500300","中和區"
"235056","096-UM","2017/11/25 19:09:58","新北市中和區員山路526號","121.478823333333","25.0096833333333","6500300","中和區"
"235039","097-UM","2017/11/25 19:09:51","新北市中和區安樂路213號","121.514338333333","24.998775","6500300","中和區"
"235065","098-UM","2017/11/25 19:09:35","新北市中和區勝利路35巷1弄36號","121.500486666667","25.0079066666667","6500300","中和區"
"235040","150-BY","2017/11/25 19:09:39","新北市中和區宜安路23巷17號","121.512368333333","24.9952166666667","6500300","中和區"
"235058","151-BY","2017/11/25 19:09:51","新北市中和區連城路523巷13弄16號","121.48205","24.9938133333333","6500300","中和區"
"235055","183-VK","2017/11/25 19:09:48","新北市中和區德光路73號","121.46948","25.0037166666667","6500300","中和區"
"235038","185-VK","2017/11/25 19:09:38","新北市中和區立人街24-5號","121.518941666667","24.9941416666667","6500300","中和區"
"235049","186-VK","2017/11/25 19:09:41","新北市中和區明禮街24號","121.504515","24.99619","6500300","中和區"
"235067","255-BX","2017/11/25 19:09:53","新北市中和區新生街176巷13號","121.482953333333","24.9998733333333","6500300","中和區"
"235044","293-VK","2017/11/25 19:09:40","新北市中和區中興街222-4號","121.500598333333","24.9895316666667","6500300","中和區"
"235072","301-VK","2017/11/25 19:09:41","新北市中和區福祥路7號","121.499395","25.0032816666667","6500300","中和區"
"235043","352-BY","2017/11/25 19:09:54","新北市中和區景平路154號","121.517806666667","24.9921716666667","6500300","中和區"
"235068","377-QA","2017/11/25 19:09:41","新北市中和區圓通路162巷39號","121.496391666667","24.9955383333333","6500300","中和區"
"235061","378-QA","2017/11/25 19:09:51","新北市中和區民有街64號","121.475866666667","25.0043233333333","6500300","中和區"
"235071","269-TV","2017/11/25 19:09:54","新北市中和區連城路338號","121.48293","24.99579","6500300","中和區"
"235050","4979-A6","2017/11/25 19:09:39","新北市中和區復興路280巷36弄10號","121.501585","24.9921666666667","6500300","中和區"
"235069","4980-A6","2017/11/25 19:09:47","新北市中和區中和路165巷21號","121.50311","25.0004966666667","6500300","中和區"
"235042","551-UM","2017/11/25 19:09:47","新北市中和區自立路117巷1號","121.522325","24.9946033333333","6500300","中和區"
"235070","558-UM","2017/11/25 19:09:39","新北市中和區安和路189號","121.506055","24.9982116666667","6500300","中和區"
"235045","565-BX","2017/11/25 19:09:39","新北市中和區景新街467巷38弄2號","121.514521666667","24.9886066666667","6500300","中和區"
"235054","640-BX","2017/11/25 19:09:54","新北市中和區國光街52號","121.470755","25.000255","6500300","中和區"
"235060","647-TV","2017/11/25 19:09:44","新北市中和區民治街21巷1號","121.475323333333","25.002535","6500300","中和區"
"235047","732-UM","2017/11/25 19:09:53","新北市中和區興南路一段56巷1弄2號","121.51061","24.9907983333333","6500300","中和區"
"235046","733-UM","2017/11/25 19:09:44","新北市中和區忠孝街1巷42號","121.508511666667","24.9840816666667","6500300","中和區"
"235057","801-TS","2017/11/25 19:09:54","新北市中和區民利街100巷6弄8號","121.477263333333","24.9986116666667","6500300","中和區"
"235041","802-TS","2017/11/25 19:09:57","新北市中和區景安路52號","121.50689","24.9979916666667","6500300","中和區"
"235052","805-TS","2017/11/25 19:09:43","新北市中和區興南路二段142巷31弄63號","121.50161","24.9836016666667","6500300","中和區"
"235048","896-TW","2017/11/25 19:09:44","新北市中和區忠孝街3號","121.509598333333","24.98291","6500300","中和區"
"235053","900-TW","2017/11/25 19:09:28","新北市板橋區和平路165號","121.46381","24.9960683333333","6500300","中和區"
"235064","911-UM","2017/11/25 19:09:44","新北市中和區泰和街44巷44號","121.498115","25.0014283333333","6500300","中和區"
"235037","157-BY","2017/11/25 19:09:38","新北市中和區興南路一段61號","121.51037","24.989665","6500300","中和區"
"235037","AAC-213","2017/11/25 19:09:41","新北市中和區秀朗路三段60巷71號","121.523978333333","24.9945633333333","6500300","中和區"
"235059","AAC-215","2017/11/25 19:09:42","新北市中和區圓通路296巷31弄1號","121.488583333333","24.9904316666667","6500300","中和區"
"220068","013-TV","2017/11/25 19:01:50","新北市板橋區三民路一段31巷36弄1號","121.481035","25.023015","6500100","板橋區"
"220065","072-UY","2017/11/25 19:09:49","新北市板橋區民族路219巷1號","121.469476666667","25.0075666666667","6500100","板橋區"
"220086","073-UY","2017/11/25 19:09:41","新北市板橋區中正路216巷142號","121.460321666667","25.0193933333333","6500100","板橋區"
"220106","075-UY","2017/11/25 19:09:59","新北市板橋區雙十路三段10巷10號","121.472105","25.03075","6500100","板橋區"
"220069","AAD-861","2017/11/25 19:09:58","新北市板橋區華興街43號","121.457993333333","25.0047066666667","6500100","板橋區"
"220102","120-SR","2017/11/25 19:09:53","新北市板橋區田單街49巷1弄1號","121.482703333333","25.0283166666667","6500100","板橋區"
"226004","312-R5","2017/11/25 19:09:50","新北市平溪區十分里十分街157號","121.777676666667","25.0433666666667","6502400","平溪區"
"228003","097-TW","2017/11/25 19:09:50","新北市貢寮區和美里和美街34號","121.913673333333","25.083705","6502600","貢寮區"
"228001","212-TW","2017/11/25 19:09:47","新北市貢寮區真理里新港街10號","121.925511666667","25.0543566666667","6502600","貢寮區"
"228002","585-TW","2017/11/25 19:09:38","新北市貢寮區福隆里福隆街32-1號","121.945086666667","25.01742","6502600","貢寮區"
"224006","676-BX","2017/11/25 19:09:47","新北市瑞芳區東和路9號","121.804681666667","25.1061033333333","6501200","瑞芳區"
"224009","285-BY","2017/11/25 19:09:56","新北市瑞芳區洞頂路204號","121.86081","25.1194916666667","6501200","瑞芳區"
"224008","275-VK","2017/11/25 19:09:53","新北市瑞芳區瑞芳街86號","121.802465","25.1101766666667","6501200","瑞芳區"
"224005","271-BY","2017/11/25 19:09:54","新北市瑞芳區三爪子坑路89-17號","121.812223333333","25.1073183333333","6501200","瑞芳區"
"227010","642-TC","2017/11/25 19:09:41","新北市雙溪區牡丹里中正路34號","121.86464","25.0382483333333","6502500","雙溪區"
"227002","400-TW","2017/11/25 19:09:56","新北市雙溪區平林里外平林9-25號","121.859891666667","25.037635","6502500","雙溪區"
"253005","032-BX","2017/11/25 19:09:53","新北市石門區阿里荖42號","121.605343333333","25.280375","6502200","石門區"
"253006","295-VK","2017/11/25 19:09:42","新北市石門區崁子腳58-10號","121.530863333333","25.2869583333333","6502200","石門區"
"222001","KEA-2212","2017/11/25 19:09:48","新北市深坑區北深路一段300號","121.624311666667","25.0057266666667","6501800","深坑區"
"208002","742-BX","2017/11/25 19:09:46","新北市金山區仁愛路67巷28號","121.633995","25.2208516666667","6502700","金山區"
"208003","665-BX","2017/11/25 19:09:52","新北市金山區中正路137號","121.63239","25.2215066666667","6502700","金山區"
"208001","761-BX","2017/11/25 19:09:56","新北市金山區金包里街68號","121.63907","25.2215466666667","6502700","金山區"
"251009","008-UM","2017/11/25 19:09:51","新北市淡水區清水街81號","121.44123","25.1701866666667","6501000","淡水區"
"251005","010-UM","2017/11/25 19:09:51","新北市淡水區中山路126號","121.441896666667","25.17091","6501000","淡水區"
"251014","180-VK","2017/11/25 19:09:52","新北市淡水區小中寮19-9號","121.485131666667","25.228525","6501000","淡水區"
"251010","413-VK","2017/11/25 19:09:42","新北市淡水區中正路一段156巷3號","121.421185","25.18031","6501000","淡水區"
"251016","442-VK","2017/11/25 19:09:51","新北市淡水區下圭柔山119-51號","121.450738333333","25.208445","6501000","淡水區"
"251001","559-UM","2017/11/25 19:09:53","新北市淡水區自強路201巷43號","121.462083333333","25.126845","6501000","淡水區"
"251006","561-UM","2017/11/25 19:09:50","新北市淡水區中山北路一段189號","121.44407","25.17831","6501000","淡水區"
"251007","577-R6","2017/11/25 19:09:57","新北市淡水區民生路145巷58號","121.468055","25.138855","6501000","淡水區"
"251002","672-BX","2017/11/25 19:09:47","新北市淡水區中山路77號","121.442631666667","25.17049","6501000","淡水區"
"251003","673-BX","2017/11/25 19:09:49","新北市淡水區重建街225-1號","121.441533333333","25.175105","6501000","淡水區"
"207003","550-UM","2017/11/25 19:09:52","新北市萬里區大鵬里萬里加投14號","121.65033","25.2091283333333","6502800","萬里區"
"207004","225-TW","2017/11/25 19:09:41","新北市萬里區萬里里瑪鋉下街52號","121.691575","25.1795116666667","6502800","萬里區"
"252002","178-VK","2017/11/25 19:09:43","新北市三芝區埔坪里埔頭坑79號","121.509541666667","25.2543633333333","6502100","三芝區"
"252003","249-BX","2017/11/25 19:09:39","新北市三芝區錫板里海尾11-7號","121.478878333333","25.26103","6502100","三芝區"
"252001","292-VK","2017/11/25 19:09:41","新北市三芝區長勤街82號","121.500291666667","25.2550466666667","6502100","三芝區"
"237004","078-UY","2017/11/25 19:09:55","新北市三峽區有木206號","121.439188333333","24.8519533333333","6500900","三峽區"
"237007","153-BY","2017/11/25 19:09:38","新北市三峽區中正路二段83巷12號","121.367168333333","24.9177816666667","6500900","三峽區"
"237009","210-TH","2017/11/25 19:09:53","新北市三峽區文化路164號","121.369991666667","24.9360833333333","6500900","三峽區"
"237013","252-BX","2017/11/25 19:09:40","新北市三峽區光明路69巷25號","121.376711666667","24.9292216666667","6500900","三峽區"
"237012","275-BY","2017/11/25 19:08:27","新北市三峽區三樹路222巷254弄15號","121.392095","24.9440233333333","6500900","三峽區"
"237008","302-VK","2017/11/25 19:09:45","新北市三峽區大同路106號","121.374446666667","24.92696","6500900","三峽區"
"237014","433-BY","2017/11/25 19:09:47","新北市三峽區中山路257巷6號","121.362313333333","24.936955","6500900","三峽區"
"237006","5529-G3","2017/11/25 19:09:45","新北市三峽區大同路137號","121.371798333333","24.9267","6500900","三峽區"
"237011","572-TV","2017/11/25 13:29:04","新北市三峽區中山路459巷163-3號","121.348751666667","24.93293","6500900","三峽區"
"237016","649-BX","2017/11/25 19:09:41","新北市三峽區安坑27-3號","121.446288333333","24.928345","6500900","三峽區"
"237010","706-TV","2017/11/25 19:08:30","新北市三峽區復興路1號","121.374425","24.9358833333333","6500900","三峽區"
"237005","AKY-6261","2017/11/25 19:09:51","新北市三峽區中山路459巷163-3號","121.34863","24.9328383333333","6500900","三峽區"
"236073","105-UM","2017/11/25 19:09:40","新北市土城區裕生路84巷4號","121.447061666667","24.985495","6501300","土城區"
"236027","269-VK","2017/11/25 19:09:41","新北市土城區中正路54號","121.443725","24.9753466666667","6501300","土城區"
"236015","270-VK","2017/11/25 19:09:55","新北市土城區學府路一段75巷18弄1號","121.457558333333","24.9873316666667","6501300","土城區"
"236038","271-VK","2017/11/25 19:09:51","新北市土城區清水路145號","121.458348333333","24.9818166666667","6501300","土城區"
"236023","401-BY","2017/11/25 19:09:55","新北市土城區延峰街32巷2號","121.469311666667","24.985155","6501300","土城區"
"236079","752-BX","2017/11/25 19:09:07","新北市土城區龍泉路22號","121.410561666667","24.9481533333333","6501300","土城區"
"236059","912-UM","2017/11/25 19:09:42","新北市土城區金城路二段227號","121.455508333333","24.982375","6501300","土城區"
"236049","913-UM","2017/11/25 19:09:49","新北市土城區明德路一段398-1號","121.45364","24.9790883333333","6501300","土城區"
"236063","915-UM","2017/11/25 19:09:56","新北市土城區金城路三段202-3號","121.46945","24.9885516666667","6501300","土城區"
"242029","986-R7","2017/11/25 18:32:48","新北市新莊區新泰路357巷3弄57號","121.442403333333","25.039445","6500500","新莊區"
"238023","601-UM","2017/11/25 19:09:40","新北市樹林區大慶街70號","121.39637","25.01401","6500700","樹林區"
"238019","599-UM","2017/11/25 19:09:44","新北市樹林區東榮街116號","121.415333333333","24.9822766666667","6500700","樹林區"
"238018","571-TV","2017/11/25 19:09:38","新北市樹林區大同街3號","121.418918333333","24.982755","6500700","樹林區"
"238021","KEA-2217","2017/11/25 19:09:39","新北市樹林區柑園街二段328巷2弄40號","121.373723333333","24.9523383333333","6500700","樹林區"
"238022","KEA-2213","2017/11/25 19:09:54","新北市樹林區中山路二段151巷8弄17號","121.406258333333","24.9777916666667","6500700","樹林區"
"238025","303-VK","2017/11/25 19:09:50","新北市樹林區中山路三段80號","121.393458333333","24.9723016666667","6500700","樹林區"
"238017","283-BY","2017/11/25 19:09:54","新北市樹林區光興街264號","121.406991666667","25.0050133333333","6500700","樹林區"
"238014","282-BY","2017/11/25 19:09:48","新北市樹林區千歲街134巷5號","121.427565","24.9985433333333","6500700","樹林區"
"238020","268-VK","2017/11/25 19:09:46","新北市樹林區俊英街210號","121.425235","25.0093083333333","6500700","樹林區"
"238026","172-UY","2017/11/25 19:09:42","新北市樹林區佳園路二段34-1號","121.391418333333","24.9621466666667","6500700","樹林區"
"238016","169-UY","2017/11/25 19:09:47","新北市樹林區復興路373巷7弄3號","121.417398333333","24.9867783333333","6500700","樹林區"
"239007","AAC-297","2017/11/25 19:09:48","新北市鶯歌區中山路6號","121.35303","24.9572416666667","6500800","鶯歌區"
"239006","891-R6","2017/11/25 19:09:39","新北市鶯歌區建國路512巷54號","121.339121666667","24.951485","6500800","鶯歌區"
"239008","527-UM","2017/11/25 19:09:46","新北市鶯歌區國際二路6巷7號","121.338633333333","24.9737416666667","6500800","鶯歌區"
"239005","526-UM","2017/11/25 19:09:54","新北市鶯歌區東湖路3號","121.350121666667","24.97346","6500800","鶯歌區"
"239001","417-VK","2017/11/25 19:09:52","新北市鶯歌區鶯桃路95巷38號","121.338003333333","24.953185","6500800","鶯歌區"
"239003","360-BY","2017/11/25 19:09:38","新北市鶯歌區八德路10號","121.332668333333","24.9548383333333","6500800","鶯歌區"
"239002","359-BY","2017/11/25 19:09:43","新北市鶯歌區湖山路59巷1號","121.33944","24.9754416666667","6500800","鶯歌區"
"239004","193-VK","2017/11/25 19:09:47","新北市鶯歌區鶯華新村1號","121.329943333333","24.9349533333333","6500800","鶯歌區"
"221008","489-VK","2017/11/25 19:09:43","新北市汐止區康寧街432號","121.630893333333","25.0680783333333","6501100","汐止區"
"221036","130-UY","2017/11/25 19:09:39","新北市汐止區大同路二段407號","121.658298333333","25.067225","6501100","汐止區"
"221010","269-BY","2017/11/25 19:09:47","新北市汐止區康寧街901號","121.651435","25.0749933333333","6501100","汐止區"
"221012","276-VK","2017/11/25 13:26:17","新北市汐止區汐萬路一段256巷3號","121.653468333333","25.0746816666667","6501100","汐止區"
"221012","278-VK","2017/11/25 19:09:53","新北市汐止區大同路三段279號","121.674273333333","25.07548","6501100","汐止區"
"221023","279-VK","2017/11/25 19:09:42","新北市汐止區康寧街901號","121.650948333333","25.07521","6501100","汐止區"
"221032","280-BY","2017/11/25 19:09:54","新北市汐止區新台五路一段73號","121.644948333333","25.06001","6501100","汐止區"
"221027","281-BY","2017/11/25 19:09:40","新北市汐止區康寧街901號","121.65139","25.0750066666667","6501100","汐止區"
"221029","298-VK","2017/11/25 19:09:42","新北市汐止區汐萬路一段256巷1號","121.652006666667","25.0747916666667","6501100","汐止區"
"221021","299-VK","2017/11/25 19:09:41","新北市汐止區康寧街901號","121.651416666667","25.0750433333333","6501100","汐止區"
"221031","353-TW","2017/11/25 19:09:39","新北市汐止區中興路181巷12弄7號","121.629996666667","25.0667583333333","6501100","汐止區"
"221015","567-BX","2017/11/25 19:09:43","新北市汐止區康寧街901號","121.651491666667","25.0749533333333","6501100","汐止區"
"221025","623-UM","2017/11/25 19:09:47","新北市汐止區康寧街901號","121.651588333333","25.0749683333333","6501100","汐止區"
"221038","646-BX","2017/11/25 19:09:44","新北市汐止區康寧街901號","121.650718333333","25.075315","6501100","汐止區"
"221033","647-BX","2017/11/25 19:09:52","新北市汐止區南勢街1巷1號","121.62706","25.0374133333333","6501100","汐止區"
"221002","707-TV","2017/11/25 19:09:50","新北市汐止區大同路一段2號","121.62091","25.0547866666667","6501100","汐止區"
"221018","753-BX","2017/11/25 19:09:54","新北市汐止區康寧街901號","121.651581666667","25.0749233333333","6501100","汐止區"
"220079","145-BY","2017/11/25 19:09:48","新北市板橋區民權路243號","121.457315","25.0156766666667","6500100","板橋區"
"220080","200-UY","2017/11/25 19:09:50","新北市板橋區大觀路二段7巷96號","121.450028333333","25.0029383333333","6500100","板橋區"
"220082","610-BX","2017/11/25 19:09:49","新北市板橋區溪崑二街11-3號","121.42895","24.99181","6500100","板橋區"
"220101","245-BX","2017/11/25 19:09:39","新北市板橋區民生路二段181號","121.46949","25.0203233333333","6500100","板橋區"
"220091","267-BY","2017/11/25 19:09:50","新北市板橋區縣民大道247巷80號","121.482126666667","25.0269366666667","6500100","板橋區"
"220056","276-BY","2017/11/25 19:09:52","新北市板橋區信義路110巷2弄13號","121.457623333333","24.9926983333333","6500100","板橋區"
"220072","277-BY","2017/11/25 19:09:52","新北市板橋區金門街363號","121.428498333333","24.984865","6500100","板橋區"
"220094","283-UM","2017/11/25 19:09:47","新北市板橋區光武街153號","121.465418333333","25.0295116666667","6500100","板橋區"
"220071","283-VK","2017/11/25 19:09:52","新北市板橋區重慶路245巷50弄7號","121.465346666667","25.0004433333333","6500100","板橋區"
"220053","285-VK","2017/11/25 19:09:41","新北市板橋區懷仁街35巷4弄1號","121.477138333333","25.01982","6500100","板橋區"
"220083","286-VK","2017/11/25 19:09:58","新北市板橋區龍興街101巷16號","121.443645","25.0034883333333","6500100","板橋區"
"220081","287-VK","2017/11/25 19:09:44","新北市板橋區南雅西路二段110巷11-2號","121.452395","25.0126366666667","6500100","板橋區"
"220090","288-VK","2017/11/25 19:09:37","新北市板橋區裕民街47號","121.461345","25.028565","6500100","板橋區"
"220061","293-UM","2017/11/25 19:09:46","新北市板橋區懷仁街85巷2弄1號","121.477691666667","25.01843","6500100","板橋區"
"220084","296-UM","2017/11/25 19:09:39","新北市板橋區篤行路二段92-3號","121.431518333333","24.99153","6500100","板橋區"
"220075","297-UM","2017/11/25 19:09:42","新北市板橋區南雅南路一段5巷19號","121.456368333333","25.0054866666667","6500100","板橋區"
"242001","281-VK","2017/11/25 15:36:30","新北市新莊區環河路636-7號","121.437323333333","25.0113383333333","6500500","新莊區"
"220062","305-R5","2017/11/25 19:09:55","新北市板橋區三民路二段245巷4弄8號","121.480941666667","25.0121233333333","6500100","板橋區"
"220092","307-R5","2017/11/25 19:09:57","新北市板橋區文化路二段225巷9號","121.470096666667","25.0285","6500100","板橋區"
"220098","317-R6","2017/11/25 19:09:42","新北市板橋區四維路103巷26號","121.464673333333","25.024095","6500100","板橋區"
"220064","486-VK","2017/11/25 19:09:56","新北市板橋區中山路一段263號","121.468585","25.0134016666667","6500100","板橋區"
"220089","487-VK","2017/11/25 19:09:58","新北市板橋區文化路二段357號","121.472895","25.030755","6500100","板橋區"
"220088","491-VK","2017/11/25 19:09:45","新北市板橋區文化路二段182巷1弄6號","121.471281666667","25.0275633333333","6500100","板橋區"
"220035","560-BX","2017/11/25 19:09:41","新北市板橋區中正路326巷4弄2號","121.454716666667","25.0216133333333","6500100","板橋區"
"220103","561-BX","2017/11/25 19:09:59","新北市板橋區文化路一段188巷9弄21號","121.468468333333","25.019505","6500100","板橋區"
"220055","568-UM","2017/11/25 19:09:42","新北市板橋區中山路一段158號","121.465991666667","25.0118483333333","6500100","板橋區"
"220063","609-BX","2017/11/25 19:09:42","新北市板橋區三民路二段251-1號","121.478943333333","25.01201","6500100","板橋區"
"220057","686-BX","2017/11/25 19:09:56","新北市板橋區重慶路91-1號","121.462081666667","25.005865","6500100","板橋區"
"220077","687-BX","2017/11/25 19:09:49","新北市板橋區大觀路二段107號","121.446181666667","25.0016683333333","6500100","板橋區"
"220093","689-BX","2017/11/25 19:09:41","新北市板橋區民生路三段251號","121.464566666667","25.02908","6500100","板橋區"
"220054","741-BX","2017/11/25 19:09:40","新北市板橋區重慶路89巷53號","121.463341666667","25.0065466666667","6500100","板橋區"
"220067","829-TW","2017/11/25 19:09:42","新北市板橋區三民路二段正隆巷42號","121.476973333333","25.0137316666667","6500100","板橋區"
"220096","831-TW","2017/11/25 19:09:45","新北市板橋區雙十路二段37-1號","121.476801666667","25.0257416666667","6500100","板橋區"
"220074","895-R6","2017/11/25 19:09:55","新北市板橋區中正路43號","121.456261666667","25.0133466666667","6500100","板橋區"
"220073","985-R7","2017/11/25 19:09:47","新北市板橋區中正路249號","121.455788333333","25.018265","6500100","板橋區"
"220097","AAC-210","2017/11/25 19:09:38","新北市板橋區新生街96號","121.458395","25.0220833333333","6500100","板橋區"
"220070","AAC-253","2017/11/25 19:09:42","新北市板橋區忠孝路46號","121.460656666667","25.001925","6500100","板橋區"
