"lineid","car","time","location","longitude","latitude","cityid","cityname"
"234046","148-BY","2017/11/25 19:39:42","新北市永和區永利路222號","121.523513333333","25.0025516666667","6500400","永和區"
"234013","149-BY","2017/11/25 19:39:40","新北市永和區永平路220號","121.509098333333","25.0105516666667","6500400","永和區"
"234007","207-UY","2017/11/25 19:39:52","新北市中和區中和路320號","121.509571666667","25.0006416666667","6500400","永和區"
"234081","298-R6","2017/11/25 19:39:41","新北市永和區國中路104巷8弄26號","121.52544","25.00622","6500400","永和區"
"234038","336-UY","2017/11/25 19:39:46","新北市永和區民樂街21號","121.52769","25.0019516666667","6500400","永和區"
"234064","337-UY","2017/11/25 19:39:42","新北市永和區秀朗路二段24巷43號","121.520028333333","25.001905","6500400","永和區"
"234086","338-UY","2017/11/25 19:39:55","新北市永和區林森路62號","121.523991666667","25.00421","6500400","永和區"
"234070","552-UM","2017/11/25 19:39:38","新北市永和區永和路二段179號","121.51532","25.0132916666667","6500400","永和區"
"234054","553-UM","2017/11/25 19:39:40","新北市永和區竹林路41號","121.518035","25.0142883333333","6500400","永和區"
"234017","745-BX","2017/11/25 19:39:53","新北市永和區永和路二段425巷57弄1號","121.513718333333","25.0173016666667","6500400","永和區"
"234030","746-BX","2017/11/25 19:39:56","新北市永和區民生路37巷7號","121.523688333333","24.9980516666667","6500400","永和區"
"234061","AAD-866","2017/11/25 19:39:37","新北市永和區中正路399號","121.517188333333","25.0042683333333","6500400","永和區"
"234042","862-TW","2017/11/25 19:39:52","新北市永和區水源街17巷1號","121.511678333333","25.0046366666667","6500400","永和區"
"234050","863-TW","2017/11/25 19:39:57","新北市永和區保安路86號","121.509741666667","25.01618","6500400","永和區"
"234026","9381-KE","2017/11/25 19:39:47","新北市中和區中和路376號","121.510598333333","25.0021066666667","6500400","永和區"
"249004","303-UY","2017/11/25 19:39:35","新北市八里區仁愛路37號","121.413415","25.16061","6502300","八里區"
"249002","305-UY","2017/11/25 19:39:44","新北市八里區頂寮二街33-1號","121.450361666667","25.125195","6502300","八里區"
"248014","025-BX","2017/11/25 19:39:42","新北市五股區五福路23巷8號","121.43347","25.088835","6501500","五股區"
"248016","026-BX","2017/11/25 19:39:54","新北市五股區成泰路3段651-1號","121.452866666667","25.1053883333333","6501500","五股區"
"248008","095-VK","2017/11/25 19:39:52","新北市五股區四維路118巷13號","121.469203333333","25.0742016666667","6501500","五股區"
"248018","225-UY","2017/11/25 19:39:49","新北市五股區中直路25號","121.422043333333","25.1137033333333","6501500","五股區"
"248012","247-BX","2017/11/25 19:39:49","新北市五股區成泰路二段97號","121.437918333333","25.0842966666667","6501500","五股區"
"248010","272-BY","2017/11/25 19:39:50","新北市五股區水碓一路23號","121.430575","25.0712633333333","6501500","五股區"
"248004","677-BX","2017/11/25 19:39:47","新北市五股區成泰路二段186號","121.438686666667","25.0847283333333","6501500","五股區"
"248002","678-BX","2017/11/25 19:39:37","新北市五股區成泰路三段577巷45號","121.450751666667","25.1031533333333","6501500","五股區"
"234077","969-R7","2017/11/25 19:39:44","新北市永和區民權路45號","121.519966666667","24.9972716666667","6500400","永和區"
"234074","AAC-211","2017/11/25 19:39:45","新北市永和區竹林路225巷5-1號","121.52125","25.0085283333333","6500400","永和區"
"234067","AAC-212","2017/11/25 19:39:30","新北市永和區中山路一段207號","121.508753333333","25.0086","6500400","永和區"
"234003","AAC-295","2017/11/25 19:39:51","新北市永和區自由街58號","121.513906666667","25.0059216666667","6500400","永和區"
"244001","657-BX","2017/11/25 13:52:33","新北市林口區粉寮路二段160巷28號","121.405146666667","25.0908166666667","6501700","林口區"
"243011","267-VK","2017/11/25 19:39:42","新北市泰山區明志路三段204巷10弄2號","121.423401666667","25.0384783333333","6501600","泰山區"
"243012","AAD-798","2017/11/25 19:39:51","新北市泰山區仁愛路100巷58號","121.433836666667","25.0544516666667","6501600","泰山區"
"243009","297-R6","2017/11/25 19:39:54","新北市泰山區美寧街60號","121.430985","25.064645","6501600","泰山區"
"243015","380-SR","2017/11/25 19:39:57","新北市泰山區明志路二段134號","121.427433333333","25.05125","6501600","泰山區"
"243014","421-VK","2017/11/25 19:39:46","新北市泰山區泰林路二段33-7號","121.435235","25.0564416666667","6501600","泰山區"
"243010","KEA-2215","2017/11/25 19:39:42","新北市泰山區明志路二段7巷4號","121.430455","25.053385","6501600","泰山區"
"243013","646-TV","2017/11/25 19:39:47","新北市泰山區應化街13號","121.423846666667","25.0437066666667","6501600","泰山區"
"243016","680-BX","2017/11/25 19:39:54","新北市泰山區新北大道七段30號","121.419833333333","25.0322283333333","6501600","泰山區"
"222003","016-RS","2017/11/25 19:39:49","新北市深坑區翠谷街17巷40號","121.625313333333","25.01005","6501800","深坑區"
"222002","659-BX","2017/11/25 19:39:52","新北市深坑區北深路一段177號","121.632531666667","25.0108433333333","6501800","深坑區"
"231059","046-UY","2017/11/25 19:39:43","新北市新店區安業街1-1號","121.516596666667","24.9787666666667","6500600","新店區"
"231061","047-UY","2017/11/25 19:39:55","新北市新店區安民街192號","121.517143333333","24.97147","6500600","新店區"
"231060","106-UY","2017/11/25 19:39:50","新北市新店區安康路二段161號","121.510258333333","24.95935","6500600","新店區"
"231051","107-UY","2017/11/25 19:39:46","新北市新店區中央四街72號","121.526735","24.975535","6500600","新店區"
"231048","108-UY","2017/11/25 19:39:54","新北市新店區五峰路61巷9-1號","121.549368333333","24.96957","6500600","新店區"
"231052","187-VK","2017/11/25 19:39:53","新北市新店區新烏路二段402號","121.55162","24.90911","6500600","新店區"
"231050","KEA-2219","2017/11/25 19:39:53","新北市新店區郵政路91號","121.554766666667","24.9514783333333","6500600","新店區"
"231057","256-BX","2017/11/25 19:39:46","新北市新店區橘園一路11號","121.547966666667","24.9340333333333","6500600","新店區"
"231063","268-BY","2017/11/25 19:39:54","新北市新店區達觀路41號","121.502518333333","24.9388183333333","6500600","新店區"
"231046","278-BY","2017/11/25 19:39:38","新北市新店區自由街27-1號","121.535066666667","24.9742033333333","6500600","新店區"
"231054","AAD-862","2017/11/25 19:39:39","新北市新店區文中路45號","121.539595","24.9566116666667","6500600","新店區"
"231058","3712-VJ","2017/11/25 19:39:51","新北市新店區華中街53號","121.541108333333","24.9712266666667","6500600","新店區"
"231065","513-UM","2017/11/25 19:39:42","新北市新店區安祥路109巷61號","121.477236666667","24.9598766666667","6500600","新店區"
"231064","515-UM","2017/11/25 19:39:41","新北市新店區安和路一段52巷2號","121.517651666667","24.966215","6500600","新店區"
"231042","616-UM","2017/11/25 19:39:36","新北市新店區中興路一段216號","121.543961666667","24.965685","6500600","新店區"
"231045","617-UM","2017/11/25 19:39:52","新北市新店區北宜路二段126號","121.55687","24.95385","6500600","新店區"
"231041","618-UM","2017/11/25 19:39:55","新北市新店區中正路487號","121.533868333333","24.982155","6500600","新店區"
"231040","619-UM","2017/11/25 19:39:48","新北市新店區中正路75巷71號","121.54307","24.968805","6500600","新店區"
"231068","718-UY","2017/11/25 19:39:48","新北市新店區安華路28-1號","121.519603333333","24.9609416666667","6500600","新店區"
"231049","719-UM","2017/11/25 19:39:52","新北市新店區大豐路65號","121.539556666667","24.9795333333333","6500600","新店區"
"231062","720-UM","2017/11/25 19:39:41","新北市新店區永業路18號","121.53342","24.9559216666667","6500600","新店區"
"231044","897-TW","2017/11/25 19:39:43","新北市新店區北新路三段179號","121.540921666667","24.9844283333333","6500600","新店區"
"231043","899-TW","2017/11/25 19:39:37","新北市新店區北新路二段8號","121.542815","24.971115","6500600","新店區"
"241011","013-R5","2017/11/25 19:39:50","新北市三重區秀江街200號","121.497558333333","25.0716116666667","6500200","三重區"
"241028","022-UY","2017/11/25 19:39:40","新北市三重區中正南路157號","121.493835","25.0561766666667","6500200","三重區"
"241008","059-VK","2017/11/25 19:39:55","新北市三重區永福街123號","121.478936666667","25.0770666666667","6500200","三重區"
"241009","060-VK","2017/11/25 19:39:47","新北市三重區三和路四段400巷18號","121.480553333333","25.0792016666667","6500200","三重區"
"241031","061-VK","2017/11/25 19:39:55","新北市三重區重新路四段248號","121.486153333333","25.0534916666667","6500200","三重區"
"241015","062-VK","2017/11/25 19:39:47","新北市三重區福德北路46號","121.501961666667","25.0653833333333","6500200","三重區"
"241017","063-VK","2017/11/25 19:39:39","新北市三重區民生街59-1號","121.490943333333","25.0662983333333","6500200","三重區"
"241026","066-VK","2017/11/25 19:39:48","新北市三重區文化南路65巷18號","121.499413333333","25.0607033333333","6500200","三重區"
"241022","156-TC","2017/11/25 19:39:49","新北市三重區中正北路162號","121.484545","25.06604","6500200","三重區"
"241018","268-UM","2017/11/25 19:39:52","新北市三重區大智街61號","121.492686666667","25.0679233333333","6500200","三重區"
"241013","270-UM","2017/11/25 19:39:46","新北市三重區仁賢街7號","121.495901666667","25.0745983333333","6500200","三重區"
"241025","271-UM","2017/11/25 19:39:55","新北市三重區頂崁街188號","121.477496666667","25.0663566666667","6500200","三重區"
"241007","398-BY","2017/11/25 19:39:54","新北市三重區溪尾街126巷72號","121.487998333333","25.0787483333333","6500200","三重區"
"241020","413-TH","2017/11/25 19:39:51","新北市三重區自強路三段101號","121.4878","25.075445","6500200","三重區"
"241035","462-BY","2017/11/25 19:39:47","新北市三重區正義北路61-3號","121.497638333333","25.0645683333333","6500200","三重區"
"241019","478-VK","2017/11/25 19:39:52","新北市三重區六張街194巷1弄2號","121.488535","25.0682166666667","6500200","三重區"
"241030","480-VK","2017/11/25 19:39:48","新北市三重區新興路30-1號","121.491885","25.0530883333333","6500200","三重區"
"241014","543-UM","2017/11/25 19:39:41","新北市三重區長壽街196號","121.504168333333","25.0690866666667","6500200","三重區"
"241023","545-UM","2017/11/25 19:39:46","新北市三重區忠孝路三段99巷4號","121.48014","25.0642133333333","6500200","三重區"
"241001","547-UM","2017/11/25 19:39:54","新北市三重區仁愛街299號","121.49269","25.07931","6500200","三重區"
"241006","AAD-863","2017/11/25 19:39:46","新北市三重區三和路四段160巷67號","121.486258333333","25.0752333333333","6500200","三重區"
"241012","941-UM","2017/11/25 19:39:44","新北市三重區河邊北街256巷39號","121.500436666667","25.07581","6500200","三重區"
"241029","942-UM","2017/11/25 19:39:44","新北市三重區同安街145號","121.49313","25.056035","6500200","三重區"
"235066","003-UY","2017/11/25 19:39:52","新北市中和區景新街140號","121.505446666667","24.9978816666667","6500300","中和區"
"235063","006-UY","2017/11/25 19:39:55","新北市中和區連城路176號","121.493168333333","24.996955","6500300","中和區"
"235056","096-UM","2017/11/25 19:39:43","新北市中和區民富街94號","121.476961666667","25.0086216666667","6500300","中和區"
"235039","097-UM","2017/11/25 19:39:56","新北市中和區秀峰街119巷8弄10號","121.51918","24.9898733333333","6500300","中和區"
"235065","098-UM","2017/11/25 19:39:56","新北市中和區永和路52號","121.499173333333","25.0040666666667","6500300","中和區"
"235040","150-BY","2017/11/25 19:39:55","新北市中和區保健路10巷25弄1號","121.508136666667","24.9965266666667","6500300","中和區"
"235058","151-BY","2017/11/25 19:39:51","新北市中和區員山路132巷20號","121.482188333333","24.9962583333333","6500300","中和區"
"235055","183-VK","2017/11/25 19:39:48","新北市中和區中山路三段181巷20號","121.47299","25.0054083333333","6500300","中和區"
"235038","185-VK","2017/11/25 19:39:38","新北市中和區立人街55號","121.520335","24.9941566666667","6500300","中和區"
"235049","186-VK","2017/11/25 19:39:41","新北市中和區景新街269號","121.50915","24.9939","6500300","中和區"
"235067","255-BX","2017/11/25 19:39:51","新北市中和區新生街186巷1弄1號","121.483501666667","24.9996316666667","6500300","中和區"
"235044","293-VK","2017/11/25 19:39:44","新北市中和區南山路308號","121.507878333333","24.98695","6500300","中和區"
"235072","301-VK","2017/11/25 19:39:41","新北市中和區中正路432巷36號","121.4908","24.9957666666667","6500300","中和區"
"235043","352-BY","2017/11/25 19:39:54","新北市中和區華新街230號","121.50615","24.9816533333333","6500300","中和區"
"235068","377-QA","2017/11/25 19:39:41","新北市中和區泰和街12號","121.499798333333","25.0009433333333","6500300","中和區"
"235061","378-QA","2017/11/25 19:39:51","新北市中和區民安街23號","121.48032","25.0005633333333","6500300","中和區"
"235071","269-TV","2017/11/25 19:39:54","新北市中和區中正路832號","121.484758333333","25.0041766666667","6500300","中和區"
"235050","4979-A6","2017/11/25 19:39:36","新北市中和區和平街164巷4號","121.506023333333","24.9923583333333","6500300","中和區"
"235042","551-UM","2017/11/25 19:39:47","新北市中和區保健路29巷7號","121.508863333333","24.9981283333333","6500300","中和區"
"235070","558-UM","2017/11/25 19:39:38","新北市中和區中和路71號","121.500603333333","25.0010566666667","6500300","中和區"
"235045","565-BX","2017/11/25 19:39:39","新北市中和區景新街467巷13號","121.513821666667","24.9882666666667","6500300","中和區"
"235054","640-BX","2017/11/25 19:39:43","新北市中和區國光街102巷11弄22號","121.470715","25.0013966666667","6500300","中和區"
"235060","647-TV","2017/11/25 19:39:44","新北市中和區員山路314巷7弄4號","121.482101666667","25.0031016666667","6500300","中和區"
"235047","732-UM","2017/11/25 19:39:53","新北市中和區景平路353號","121.504816666667","24.993375","6500300","中和區"
"235046","733-UM","2017/11/25 19:39:44","新北市中和區忠孝街104號","121.512083333333","24.98483","6500300","中和區"
"235057","801-TS","2017/11/25 19:39:45","新北市中和區員山路364號","121.480876666667","25.0037866666667","6500300","中和區"
"235041","802-TS","2017/11/25 19:39:57","新北市永和區中和路593號","121.512303333333","25.0040783333333","6500300","中和區"
"235052","805-TS","2017/11/25 19:39:43","新北市中和區華新街208號","121.506595","24.9819183333333","6500300","中和區"
"235048","896-TW","2017/11/25 19:39:44","新北市中和區忠孝街1巷2-1號","121.509115","24.9830383333333","6500300","中和區"
"235053","900-TW","2017/11/25 19:39:48","新北市中和區民德路185號","121.468381666667","24.9993616666667","6500300","中和區"
"235064","911-UM","2017/11/25 19:39:44","新北市中和區南山路62號","121.502028333333","24.99672","6500300","中和區"
"235037","157-BY","2017/11/25 19:39:58","新北市中和區中興街132巷7號","121.49908","24.9919683333333","6500300","中和區"
"235037","AAC-213","2017/11/25 19:39:41","新北市中和區秀朗路三段10巷29弄11號","121.525088333333","24.9959633333333","6500300","中和區"
"235059","AAC-215","2017/11/25 19:39:42","新北市中和區圓通路282號","121.491615","24.9905866666667","6500300","中和區"
"220068","013-TV","2017/11/25 19:01:50","新北市板橋區三民路一段31巷36弄1號","121.481035","25.023015","6500100","板橋區"
"220065","072-UY","2017/11/25 19:39:45","新北市板橋區國泰街38巷3弄18號","121.46813","25.0067333333333","6500100","板橋區"
"220086","073-UY","2017/11/25 19:39:41","新北市板橋區中正路91號","121.456426666667","25.0143916666667","6500100","板橋區"
"220106","075-UY","2017/11/25 19:39:39","新北市板橋區民治街26巷8號","121.477595","25.0338366666667","6500100","板橋區"
"220069","AAD-861","2017/11/25 19:39:38","新北市板橋區縣民大道一段64巷2號","121.455211666667","25.0039766666667","6500100","板橋區"
"220102","120-SR","2017/11/25 19:39:48","新北市板橋區雙十路二段70巷31號","121.47593","25.0286516666667","6500100","板橋區"
"247008","341-TH","2017/11/25 19:39:52","新北市蘆洲區中山二路45巷30號","121.474288333333","25.0811466666667","6501400","蘆洲區"
"247004","336-TH","2017/11/25 19:39:39","新北市蘆洲區中華街6巷42號","121.462525","25.08245","6501400","蘆洲區"
"226004","312-R5","2017/11/25 19:39:50","新北市平溪區靜安路三段331號","121.779668333333","25.044595","6502400","平溪區"
"228003","097-TW","2017/11/25 19:39:50","新北市貢寮區真理里美艷山街19-1號","121.923543333333","25.0682366666667","6502600","貢寮區"
"228001","212-TW","2017/11/25 19:39:47","新北市貢寮區真理里延平街61號","121.924611666667","25.0556633333333","6502600","貢寮區"
"224002","639-TC","2017/11/25 19:39:37","新北市瑞芳區民享新村25號","121.81721","25.1058366666667","6501200","瑞芳區"
"227010","642-TC","2017/11/25 19:39:43","新北市雙溪區新基里新基北街19巷14號","121.867143333333","25.0382083333333","6502500","雙溪區"
"227002","400-TW","2017/11/25 19:39:56","新北市雙溪區雙溪里內挖路83號","121.863163333333","25.036925","6502500","雙溪區"
"222001","KEA-2212","2017/11/25 19:39:48","新北市深坑區深坑街150號","121.612981666667","25.0014733333333","6501800","深坑區"
"208002","742-BX","2017/11/25 19:39:46","新北市金山區四維路13號","121.635301666667","25.2225933333333","6502700","金山區"
"208003","665-BX","2017/11/25 19:39:52","新北市金山區忠孝一路30號","121.638178333333","25.219795","6502700","金山區"
"208001","761-BX","2017/11/25 19:39:56","新北市金山區重和里牛埔仔1-2號","121.60693","25.2228166666667","6502700","金山區"
"251009","008-UM","2017/11/25 19:39:51","新北市淡水區中山北路一段198巷7號","121.445196666667","25.1793166666667","6501000","淡水區"
"251004","009-UM","2017/11/25 19:39:46","新北市淡水區中正東路二段153號","121.459796666667","25.1465766666667","6501000","淡水區"
"251005","010-UM","2017/11/25 19:39:51","新北市淡水區原德路121號","121.443043333333","25.1732366666667","6501000","淡水區"
"251014","180-VK","2017/11/25 19:39:52","新北市淡水區北勢子13號","121.478431666667","25.2310016666667","6501000","淡水區"
"251008","181-VK","2017/11/25 19:39:53","新北市淡水區中正路一段22巷6號","121.42765","25.1758516666667","6501000","淡水區"
"251010","413-VK","2017/11/25 19:39:42","新北市淡水區崁頂三路113號","121.432273333333","25.2003683333333","6501000","淡水區"
"251012","441-VK","2017/11/25 19:39:50","新北市淡水區埤島6-10號","121.445835","25.1945333333333","6501000","淡水區"
"251016","442-VK","2017/11/25 19:39:51","新北市淡水區下圭柔山119-51號","121.450721666667","25.2084383333333","6501000","淡水區"
"251001","559-UM","2017/11/25 19:39:53","新北市淡水區民權路51號","121.459808333333","25.1390783333333","6501000","淡水區"
"251006","561-UM","2017/11/25 19:39:50","新北市淡水區中山北路一段207巷37弄1號","121.443053333333","25.1792616666667","6501000","淡水區"
"251007","577-R6","2017/11/25 19:39:37","新北市淡水區中正東路一段111巷33號","121.45556","25.1614583333333","6501000","淡水區"
"251011","650-BX","2017/11/25 19:39:50","新北市淡水區八勢一街7-19號","121.460615","25.1573583333333","6501000","淡水區"
"207003","550-UM","2017/11/25 19:39:38","新北市萬里區大鵬里下社49號","121.648638333333","25.2160383333333","6502800","萬里區"
"207004","225-TW","2017/11/25 19:39:41","新北市萬里區萬里里瑪鋉路11號","121.687145","25.1753733333333","6502800","萬里區"
"252002","178-VK","2017/11/25 19:39:43","新北市三芝區中正路一段36巷25號","121.504085","25.2588616666667","6502100","三芝區"
"252001","292-VK","2017/11/25 19:39:41","新北市三芝區公正街66號","121.49982","25.25748","6502100","三芝區"
"237004","078-UY","2017/11/25 19:39:55","新北市三峽區金敏5號","121.386246666667","24.87434","6500900","三峽區"
"237007","153-BY","2017/11/25 19:39:39","新北市三峽區中正路二段584巷4弄5號","121.359095","24.9067766666667","6500900","三峽區"
"237009","210-TH","2017/11/25 19:39:53","新北市三峽區中園街74-3號","121.367925","24.92536","6500900","三峽區"
"237013","252-BX","2017/11/25 19:39:40","新北市三峽區介壽路二段36號","121.391045","24.9352733333333","6500900","三峽區"
"237012","275-BY","2017/11/25 19:39:47","新北市三峽區民生街1號","121.37452","24.9353683333333","6500900","三峽區"
"237008","302-VK","2017/11/25 19:39:45","新北市三峽區永安街142號","121.37411","24.92875","6500900","三峽區"
"237014","433-BY","2017/11/25 19:39:47","新北市三峽區添福14-39號","121.371928333333","24.9003466666667","6500900","三峽區"
"237006","5529-G3","2017/11/25 19:39:45","新北市三峽區中正路一段336巷15弄2號","121.369953333333","24.9249533333333","6500900","三峽區"
"237016","649-BX","2017/11/25 19:39:41","新北市三峽區溪東路218巷1號","121.407413333333","24.9315316666667","6500900","三峽區"
"237005","AKY-6261","2017/11/25 19:39:51","新北市三峽區中山路162號","121.364638333333","24.936475","6500900","三峽區"
"236073","105-UM","2017/11/25 19:39:36","新北市土城區清水路25巷25號","121.453195","24.9806683333333","6501300","土城區"
"236043","107-UM","2017/11/25 19:39:48","新北市土城區學士路10號","121.45382","24.98318","6501300","土城區"
"236031","253-BX","2017/11/25 19:39:55","新北市土城區福祥街55號","121.44087","24.9801316666667","6501300","土城區"
"236027","269-VK","2017/11/25 19:39:41","新北市土城區中央路二段61巷22號","121.443226666667","24.9788","6501300","土城區"
"236038","271-VK","2017/11/25 19:39:51","新北市土城區青雲路232號","121.458911666667","24.9808266666667","6501300","土城區"
"236023","401-BY","2017/11/25 19:39:36","新北市土城區峰廷街3號","121.469053333333","24.987325","6501300","土城區"
"236079","752-BX","2017/11/25 19:39:47","新北市土城區中州路27巷59號","121.412915","24.956875","6501300","土城區"
"236049","913-UM","2017/11/25 19:39:49","新北市土城區明德路一段86號","121.464881666667","24.979885","6501300","土城區"
"236063","915-UM","2017/11/25 19:39:56","新北市土城區延平街39號","121.467973333333","24.9920066666667","6501300","土城區"
"236055","AAC-216","2017/11/25 19:39:47","新北市土城區學府路一段106號","121.455791666667","24.9876966666667","6501300","土城區"
"242031","AAC-296","2017/11/25 19:39:55","新北市新莊區新泰路213巷39號","121.444505","25.0383533333333","6500500","新莊區"
"242029","986-R7","2017/11/25 18:32:48","新北市新莊區新泰路357巷3弄57號","121.442403333333","25.039445","6500500","新莊區"
"242023","613-BX","2017/11/25 19:39:44","新北市新莊區中港一街143號","121.447848333333","25.0450566666667","6500500","新莊區"
"242027","612-BX","2017/11/25 19:39:51","新北市新莊區新泰路357巷3弄57號","121.442203333333","25.0393316666667","6500500","新莊區"
"242034","415-TV","2017/11/25 19:39:44","新北市新莊區中正路344號","121.444245","25.03453","6500500","新莊區"
"242004","413-TV","2017/11/25 19:39:58","新北市新莊區化成路29巷59號","121.462511666667","25.043955","6500500","新莊區"
"242009","173-VK","2017/11/25 19:39:39","新北市新莊區三和路12-21號","121.441965","25.03865","6500500","新莊區"
"242013","346-TH","2017/11/25 19:39:41","新北市新莊區中誠街119號","121.449421666667","25.0474916666667","6500500","新莊區"
"242019","348-TH","2017/11/25 19:39:56","新北市新莊區新泰路277巷57弄2號","121.443463333333","25.03997","6500500","新莊區"
"238015","755-BX","2017/11/25 19:39:44","新北市樹林區日新街89號","121.421613333333","24.9903233333333","6500700","樹林區"
"238023","601-UM","2017/11/25 19:39:39","新北市樹林區三福街114號","121.40649","25.0163116666667","6500700","樹林區"
"238018","571-TV","2017/11/25 19:39:58","新北市樹林區中山路三段206-1號","121.38502","24.9677283333333","6500700","樹林區"
"238024","5061-A6","2017/11/25 19:39:48","新北市樹林區佳園路一段39號","121.393011666667","24.9708016666667","6500700","樹林區"
"238021","KEA-2217","2017/11/25 19:39:39","新北市樹林區學士路116號","121.38348","24.94766","6500700","樹林區"
"238022","KEA-2213","2017/11/25 19:39:54","新北市樹林區名園街51巷6弄44號","121.421053333333","24.97812","6500700","樹林區"
"238025","303-VK","2017/11/25 19:39:50","新北市樹林區中山路一段340號","121.419553333333","24.9860233333333","6500700","樹林區"
"238017","283-BY","2017/11/25 19:39:53","新北市樹林區保安街二段107巷1弄5號","121.415081666667","25.000905","6500700","樹林區"
"238014","282-BY","2017/11/25 19:39:48","新北市樹林區保安二街95號","121.423921666667","24.9952633333333","6500700","樹林區"
"238020","268-VK","2017/11/25 19:39:46","新北市樹林區俊英街33-1號","121.428215","25.0037116666667","6500700","樹林區"
"238016","169-UY","2017/11/25 19:39:45","新北市樹林區東和街35號","121.401771666667","24.9825866666667","6500700","樹林區"
"239007","AAC-297","2017/11/25 19:39:48","新北市鶯歌區大湖路326巷4號","121.346043333333","24.9704716666667","6500800","鶯歌區"
"239006","891-R6","2017/11/25 19:39:39","新北市鶯歌區文化路55號","121.359036666667","24.955365","6500800","鶯歌區"
"221008","489-VK","2017/11/25 19:39:43","新北市汐止區康寧街61巷22弄5號","121.619618333333","25.0670133333333","6501100","汐止區"
"221036","130-UY","2017/11/25 19:39:39","新北市汐止區康寧街901號","121.651631666667","25.07495","6501100","汐止區"
"221010","269-BY","2017/11/25 19:39:47","新北市汐止區汐萬路二段66巷3弄11號","121.649151666667","25.0824933333333","6501100","汐止區"
"221012","276-VK","2017/11/25 13:26:17","新北市汐止區汐萬路一段256巷3號","121.653468333333","25.0746816666667","6501100","汐止區"
"221012","278-VK","2017/11/25 19:39:53","新北市汐止區大同路三段428號","121.682993333333","25.0725316666667","6501100","汐止區"
"221023","279-VK","2017/11/25 19:39:42","新北市汐止區中興路248-1號","121.629503333333","25.068595","6501100","汐止區"
"221032","280-BY","2017/11/25 19:39:54","新北市汐止區新台五路一段75號","121.645851666667","25.0607066666667","6501100","汐止區"
"221027","281-BY","2017/11/25 19:39:40","新北市汐止區忠孝東路9號","121.658288333333","25.06593","6501100","汐止區"
"221029","298-VK","2017/11/25 19:39:42","新北市汐止區福德三路8號","121.637685","25.0695133333333","6501100","汐止區"
"221021","299-VK","2017/11/25 19:39:41","新北市汐止區南興路6巷4號","121.651788333333","25.06316","6501100","汐止區"
"221031","353-TW","2017/11/25 19:39:39","新北市汐止區福德三路127號","121.633535","25.0675566666667","6501100","汐止區"
"221015","567-BX","2017/11/25 19:39:43","新北市汐止區康寧街901號","121.65145","25.0749983333333","6501100","汐止區"
"221025","623-UM","2017/11/25 19:39:47","新北市汐止區仁愛路119巷24號","121.662138333333","25.06466","6501100","汐止區"
"221038","646-BX","2017/11/25 19:39:57","新北市汐止區忠孝東路227號","121.662386666667","25.0670366666667","6501100","汐止區"
"221033","647-BX","2017/11/25 19:39:52","台北市南港區舊莊街二段10巷1號","121.626246666667","25.0375766666667","6501100","汐止區"
"220079","145-BY","2017/11/25 19:39:48","新北市板橋區民權路202巷38號","121.460768333333","25.017585","6500100","板橋區"
"220080","200-UY","2017/11/25 19:39:50","新北市板橋區大觀路二段37巷232號","121.44949","25.0013033333333","6500100","板橋區"
"220082","610-BX","2017/11/25 19:39:49","新北市板橋區大觀路三段212巷36號","121.429471666667","24.993215","6500100","板橋區"
"220101","245-BX","2017/11/25 19:39:40","新北市板橋區莒光路196巷29號","121.472891666667","25.0224483333333","6500100","板橋區"
"220091","267-BY","2017/11/25 19:39:50","新北市板橋區懷德街139巷20弄1號","121.480148333333","25.030695","6500100","板橋區"
"220056","276-BY","2017/11/25 19:39:52","新北市板橋區四川路二段47巷3弄2號","121.454258333333","24.9946333333333","6500100","板橋區"
"220072","277-BY","2017/11/25 19:39:52","新北市板橋區金門街215巷2弄20號","121.432463333333","24.988995","6500100","板橋區"
"220057","282-UM","2017/11/25 19:39:51","新北市板橋區大觀路一段8號","121.450605","25.0085533333333","6500100","板橋區"
"220094","283-UM","2017/11/25 19:39:47","新北市板橋區宏國路93號","121.469743333333","25.0322816666667","6500100","板橋區"
"220071","283-VK","2017/11/25 19:39:49","新北市板橋區四川路一段325巷2號","121.458776666667","25.0003933333333","6500100","板橋區"
"220053","285-VK","2017/11/25 19:39:41","新北市板橋區中山路二段144號","121.47656","25.0170433333333","6500100","板橋區"
"220083","286-VK","2017/11/25 19:39:43","新北市板橋區龍興街71巷10號","121.443341666667","25.0020566666667","6500100","板橋區"
"220081","287-VK","2017/11/25 19:39:44","新北市板橋區大觀路一段75巷25號","121.44837","25.00432","6500100","板橋區"
"220090","288-VK","2017/11/25 19:39:57","新北市板橋區長江路一段48巷2弄1號","121.458993333333","25.0287783333333","6500100","板橋區"
"220061","293-UM","2017/11/25 19:39:46","新北市板橋區中山路一段285號","121.470223333333","25.0140816666667","6500100","板橋區"
"220084","296-UM","2017/11/25 19:39:39","新北市板橋區滿平二街10巷2弄13號","121.425436666667","24.9874666666667","6500100","板橋區"
"220075","297-UM","2017/11/25 19:39:42","新北市板橋區大勇街17號","121.454605","25.017195","6500100","板橋區"
"242001","281-VK","2017/11/25 15:36:30","新北市新莊區環河路636-7號","121.437323333333","25.0113383333333","6500500","新莊區"
"220062","305-R5","2017/11/25 19:39:55","新北市板橋區三民路二段81巷12號","121.48","25.0166333333333","6500100","板橋區"
"220092","307-R5","2017/11/25 19:39:53","新北市板橋區文化路一段387巷15號","121.466321666667","25.0221366666667","6500100","板橋區"
"220098","317-R6","2017/11/25 19:39:41","新北市板橋區四維路269巷27號","121.462043333333","25.027835","6500100","板橋區"
"220064","486-VK","2017/11/25 19:39:56","新北市板橋區中山路一段10號","121.46021","25.0079466666667","6500100","板橋區"
"220089","487-VK","2017/11/25 19:39:58","新北市板橋區陽明街249號","121.46268","25.025005","6500100","板橋區"
"242017","280-VK","2017/11/25 19:39:49","新北市新莊區三和路12-21號","121.442145","25.0381166666667","6500500","新莊區"
"220088","491-VK","2017/11/25 19:39:45","新北市板橋區民治街10號","121.47742","25.03443","6500100","板橋區"
"220035","560-BX","2017/11/25 19:39:52","新北市板橋區金華街85巷30號","121.458831666667","25.0211883333333","6500100","板橋區"
"220103","561-BX","2017/11/25 19:39:39","新北市板橋區文化路一段286巷14號","121.468148333333","25.0214016666667","6500100","板橋區"
"220055","568-UM","2017/11/25 19:39:42","新北市板橋區重慶路290巷20號","121.462398333333","24.9987916666667","6500100","板橋區"
"220063","609-BX","2017/11/25 19:39:57","新北市板橋區中山路二段397號","121.480388333333","25.01942","6500100","板橋區"
"220057","686-BX","2017/11/25 19:39:58","新北市板橋區和平路163號","121.463676666667","24.9959933333333","6500100","板橋區"
"220077","687-BX","2017/11/25 19:39:44","新北市板橋區僑中一街96號","121.446926666667","25.01169","6500100","板橋區"
"220093","689-BX","2017/11/25 19:39:53","新北市板橋區新海路466號","121.457663333333","25.0283666666667","6500100","板橋區"
"220054","741-BX","2017/11/25 19:39:39","新北市中和區德光路103號","121.468326666667","25.0032683333333","6500100","板橋區"
"220067","829-TW","2017/11/25 19:39:42","新北市板橋區漢生東路193巷53號","121.471711666667","25.0116883333333","6500100","板橋區"
"220096","831-TW","2017/11/25 19:39:47","新北市板橋區民生路二段240巷64號","121.469965","25.0228316666667","6500100","板橋區"
"220074","895-R6","2017/11/25 19:39:38","新北市板橋區北門街19號","121.45682","25.0110233333333","6500100","板橋區"
"220073","985-R7","2017/11/25 19:39:47","新北市板橋區國光路49巷17號","121.458943333333","25.0187566666667","6500100","板橋區"
"220097","AAC-210","2017/11/25 19:39:45","新北市板橋區幸福路32巷3號","121.461526666667","25.0205966666667","6500100","板橋區"
"220070","AAC-253","2017/11/25 19:39:42","新北市板橋區民族路255號","121.47035","25.0069366666667","6500100","板橋區"
