"lineid","car","time","location","longitude","latitude","cityid","cityname"
"234007","207-UY","2017/11/25 20:29:52","新北市永和區新生路2-7號","121.509373333333","25.0170366666667","6500400","永和區"
"234081","298-R6","2017/11/25 20:29:54","新北市永和區永貞路41號","121.521046666667","25.0064216666667","6500400","永和區"
"234038","336-UY","2017/11/25 20:29:46","新北市永和區民樂街31巷10弄11號","121.528913333333","25.0010083333333","6500400","永和區"
"234064","337-UY","2017/11/25 20:29:42","新北市永和區中正路417號","121.517186666667","25.0049133333333","6500400","永和區"
"234086","338-UY","2017/11/25 20:29:55","新北市永和區光復街32號","121.516663333333","25.0174333333333","6500400","永和區"
"234054","553-UM","2017/11/25 20:29:50","新北市永和區光復街60巷25號","121.517933333333","25.01744","6500400","永和區"
"234030","746-BX","2017/11/25 20:29:36","新北市永和區民族街81巷50-1號","121.519968333333","24.996475","6500400","永和區"
"234061","AAD-866","2017/11/25 20:29:57","新北市永和區得和路41號","121.516113333333","25.000135","6500400","永和區"
"234042","862-TW","2017/11/25 20:29:44","新北市永和區安樂路242-4號","121.51481","25.00286","6500400","永和區"
"234050","863-TW","2017/11/25 20:29:57","新北市永和區新生路153號","121.50728","25.0148","6500400","永和區"
"249001","173-UM","2017/11/25 20:29:51","新北市八里區下罟子6-2號","121.386235","25.142025","6502300","八里區"
"249004","303-UY","2017/11/25 20:29:55","新北市八里區中山路一段157巷28號","121.412831666667","25.1580816666667","6502300","八里區"
"249002","305-UY","2017/11/25 20:29:44","新北市八里區龍米路二段168號","121.434738333333","25.158185","6502300","八里區"
"248010","272-BY","2017/11/25 20:29:50","新北市泰山區中港西路120巷2-2號","121.444338333333","25.063275","6501500","五股區"
"248002","678-BX","2017/11/25 20:29:37","新北市五股區新五路二段367號","121.443961666667","25.087845","6501500","五股區"
"234023","9380-KE","2017/11/25 20:29:37","新北市永和區永和路二段272號","121.516205","25.0152566666667","6500400","永和區"
"234074","AAC-211","2017/11/25 20:29:45","新北市永和區豫溪街217巷23號","121.524415","25.0100616666667","6500400","永和區"
"234067","AAC-212","2017/11/25 20:29:50","新北市永和區保平路292巷46弄2號","121.507433333333","25.0053383333333","6500400","永和區"
"234003","AAC-295","2017/11/25 20:29:51","新北市永和區中正路620號","121.517023333333","25.0078583333333","6500400","永和區"
"244001","657-BX","2017/11/25 13:52:33","新北市林口區粉寮路二段160巷28號","121.405146666667","25.0908166666667","6501700","林口區"
"243011","267-VK","2017/11/25 20:29:42","新北市泰山區明志路三段42巷18號","121.424218333333","25.0424583333333","6501600","泰山區"
"243012","AAD-798","2017/11/25 20:29:51","新北市泰山區明志路一段98號","121.433448333333","25.0639966666667","6501600","泰山區"
"243009","297-R6","2017/11/25 20:29:54","新北市泰山區泰林路二段542巷3弄3號","121.423171666667","25.0642733333333","6501600","泰山區"
"243015","380-SR","2017/11/25 20:29:57","新北市泰山區仁愛路90號","121.433091666667","25.0552033333333","6501600","泰山區"
"243014","421-VK","2017/11/25 20:29:47","新北市泰山區泰林路二段603號","121.421305","25.063655","6501600","泰山區"
"243010","KEA-2215","2017/11/25 20:29:47","新北市泰山區新生路31巷10號","121.427718333333","25.0460683333333","6501600","泰山區"
"243016","680-BX","2017/11/25 20:29:53","新北市泰山區明志路二段306號","121.426433333333","25.0462733333333","6501600","泰山區"
"222003","016-RS","2017/11/25 20:29:37","新北市深坑區深坑街41號","121.6155","25.0019016666667","6501800","深坑區"
"222002","659-BX","2017/11/25 20:28:53","新北市深坑區萬福路16巷49號","121.610491666667","25.0086533333333","6501800","深坑區"
"231059","046-UY","2017/11/25 20:29:43","新北市新店區安豐路49號","121.500043333333","24.954845","6500600","新店區"
"231061","047-UY","2017/11/25 20:29:55","新北市新店區新和街36號","121.519295","24.98493","6500600","新店區"
"231060","106-UY","2017/11/25 20:29:50","新北市新店區錦秀路40號","121.47915","24.9436683333333","6500600","新店區"
"231051","107-UY","2017/11/25 20:29:46","新北市新店區中央七街76號","121.52726","24.9766916666667","6500600","新店區"
"231048","108-UY","2017/11/25 20:29:50","新北市新店區寶慶街58巷21-1號","121.542003333333","24.9873183333333","6500600","新店區"
"231052","187-VK","2017/11/25 20:29:53","新北市新店區松林路38號","121.546235","24.910245","6500600","新店區"
"231050","KEA-2219","2017/11/25 20:29:53","新北市新店區博愛街27巷1號","121.541503333333","24.9739883333333","6500600","新店區"
"231057","256-BX","2017/11/25 20:29:46","新北市新店區花園五路二段1號","121.553451666667","24.934215","6500600","新店區"
"231063","268-BY","2017/11/25 20:29:54","新北市新店區玫瑰路4-1號","121.493575","24.95138","6500600","新店區"
"231054","AAD-862","2017/11/25 20:29:39","新北市新店區檳榔路109號","121.544623333333","24.9615933333333","6500600","新店區"
"231058","3712-VJ","2017/11/25 20:29:51","新北市新店區自由街8號","121.535368333333","24.9749916666667","6500600","新店區"
"231056","3713-VJ","2017/11/25 20:29:38","新北市新店區中正路306號","121.537406666667","24.9745533333333","6500600","新店區"
"231067","4715-K9","2017/11/25 20:29:46","新北市新店區安康路一段32號","121.531485","24.961675","6500600","新店區"
"231065","513-UM","2017/11/25 20:29:51","新北市新店區安祥路102巷46弄89號","121.4873","24.9631616666667","6500600","新店區"
"231064","515-UM","2017/11/25 20:29:41","新北市新店區安和路三段95號","121.517863333333","24.9841833333333","6500600","新店區"
"231042","616-UM","2017/11/25 20:29:56","新北市新店區寶橋路226號","121.551263333333","24.97876","6500600","新店區"
"231045","617-UM","2017/11/25 20:29:53","新北市新店區新坡一街36號","121.549256666667","24.9624066666667","6500600","新店區"
"231041","618-UM","2017/11/25 20:29:55","新北市新店區中正路501-4號","121.533698333333","24.9838666666667","6500600","新店區"
"231040","619-UM","2017/11/25 20:29:48","新北市新店區三民路113號","121.534981666667","24.97217","6500600","新店區"
"231068","718-UY","2017/11/25 20:29:48","新北市新店區寶元路一段65號","121.542246666667","24.9858266666667","6500600","新店區"
"231049","719-UM","2017/11/25 20:29:52","新北市新店區永業路81巷18號","121.530985","24.94812","6500600","新店區"
"231062","720-UM","2017/11/25 20:29:41","新北市新店區安泰路60巷87號","121.484145","24.9443883333333","6500600","新店區"
"231044","897-TW","2017/11/25 20:29:42","新北市新店區建國路147號","121.538955","24.97878","6500600","新店區"
"231043","899-TW","2017/11/25 20:29:37","新北市新店區建國路121號","121.539785","24.9778566666667","6500600","新店區"
"231066","AKT-0513","2017/11/25 20:29:45","新北市新店區安興路112號","121.514618333333","24.9776666666667","6500600","新店區"
"241011","013-R5","2017/11/25 20:29:50","新北市三重區龍門路74號","121.496913333333","25.0726283333333","6500200","三重區"
"241028","022-UY","2017/11/25 20:29:40","新北市三重區光興街93號","121.497335","25.059925","6500200","三重區"
"241008","059-VK","2017/11/25 20:29:35","新北市三重區下竹圍街42號","121.481056666667","25.0748916666667","6500200","三重區"
"241009","060-VK","2017/11/25 20:29:47","新北市三重區永福街64-1號","121.4805","25.077725","6500200","三重區"
"241031","061-VK","2017/11/25 20:29:55","新北市三重區三寧街15號","121.489471666667","25.0598233333333","6500200","三重區"
"241015","062-VK","2017/11/25 20:29:47","新北市三重區長元街2-2號","121.498785","25.065765","6500200","三重區"
"241017","063-VK","2017/11/25 20:29:39","新北市三重區自強路一段288號","121.491663333333","25.0681933333333","6500200","三重區"
"241024","065-VK","2017/11/25 20:29:56","新北市三重區忠孝路三段15巷50號","121.479646666667","25.0682383333333","6500200","三重區"
"241026","066-VK","2017/11/25 20:29:48","新北市三重區環河南路25號","121.50334","25.0623133333333","6500200","三重區"
"241002","090-VK","2017/11/25 20:29:48","新北市三重區仁義街211巷55號","121.498291666667","25.0827366666667","6500200","三重區"
"241003","091-VK","2017/11/25 20:29:50","新北市三重區富華街179號","121.493686666667","25.0853366666667","6500200","三重區"
"241022","156-TC","2017/11/25 20:29:49","新北市三重區民生街61巷18弄10號","121.487565","25.0627783333333","6500200","三重區"
"241005","262-UM","2017/11/25 20:29:46","新北市三重區碧華街406號","121.49191","25.0849766666667","6500200","三重區"
"241004","265-UM","2017/11/25 20:29:40","新北市三重區溪尾街188號","121.488348333333","25.08088","6500200","三重區"
"241016","266-UM","2017/11/25 20:29:48","新北市三重區正義北路190巷9號","121.496006666667","25.0667983333333","6500200","三重區"
"241018","268-UM","2017/11/25 20:29:52","新北市三重區正義北路206號","121.496413333333","25.0674283333333","6500200","三重區"
"241013","270-UM","2017/11/25 20:29:46","新北市三重區溪尾街5巷24號","121.4925","25.0745933333333","6500200","三重區"
"241025","271-UM","2017/11/25 20:29:55","新北市三重區頂崁街210巷23弄1號","121.475863333333","25.0681433333333","6500200","三重區"
"241007","398-BY","2017/11/25 20:29:54","新北市三重區自強路四段32-2號","121.48899","25.0770566666667","6500200","三重區"
"241020","413-TH","2017/11/25 20:29:31","新北市三重區明德街6號","121.492903333333","25.07227","6500200","三重區"
"241035","462-BY","2017/11/25 20:29:47","新北市三重區正義北路81號","121.497083333333","25.064975","6500200","三重區"
"241019","478-VK","2017/11/25 20:29:44","新北市三重區重陽路四段83號","121.492555","25.0710716666667","6500200","三重區"
"241030","480-VK","2017/11/25 20:29:47","新北市三重區成功路62號","121.488591666667","25.0509666666667","6500200","三重區"
"241014","543-UM","2017/11/25 20:29:41","新北市三重區長興街105號","121.501918333333","25.0692133333333","6500200","三重區"
"241023","545-UM","2017/11/25 20:29:46","新北市三重區自由街17巷1號","121.479835","25.066605","6500200","三重區"
"241001","547-UM","2017/11/25 20:29:54","新北市三重區福隆路7號","121.489543333333","25.07715","6500200","三重區"
"241012","941-UM","2017/11/25 20:29:44","新北市三重區龍濱路281-1號","121.501325","25.0733216666667","6500200","三重區"
"241029","942-UM","2017/11/25 20:29:43","新北市三重區集美街235號","121.49207","25.0552416666667","6500200","三重區"
"241033","AAC-255","2017/11/25 20:29:37","新北市三重區五谷王北街80巷54號","121.474895","25.0526683333333","6500200","三重區"
"235066","003-UY","2017/11/25 20:29:52","新北市中和區光華街31巷22弄28號","121.505946666667","25.0044233333333","6500300","中和區"
"235039","097-UM","2017/11/25 20:29:50","新北市中和區大勇街29巷12-1號","121.515906666667","24.9945583333333","6500300","中和區"
"235050","4979-A6","2017/11/25 20:29:49","新北市中和區景平路385巷9弄13號","121.502203333333","24.994115","6500300","中和區"
"235069","4980-A6","2017/11/25 20:29:46","新北市中和區中正路548號","121.48722","24.99469","6500300","中和區"
"235059","AAC-215","2017/11/25 20:29:42","新北市中和區員山路36巷13號","121.484373333333","24.99143","6500300","中和區"
"247022","893-R6","2017/11/25 20:29:52","新北市蘆洲區中正路321號","121.466178333333","25.0887733333333","6501400","蘆洲區"
"247012","546-UM","2017/11/25 20:29:59","新北市蘆洲區復興路218號","121.47898","25.089285","6501400","蘆洲區"
"247020","500-BY","2017/11/25 20:29:55","新北市蘆洲區民族路331號","121.473761666667","25.0916966666667","6501400","蘆洲區"
"247008","341-TH","2017/11/25 20:29:52","新北市蘆洲區重陽街112號","121.482596666667","25.0854416666667","6501400","蘆洲區"
"247010","339-TH","2017/11/25 20:29:44","新北市蘆洲區民族路142號","121.479268333333","25.0858933333333","6501400","蘆洲區"
"247002","337-TH","2017/11/25 20:29:53","新北市蘆洲區環堤大道122號","121.45541","25.0873233333333","6501400","蘆洲區"
"247004","336-TH","2017/11/25 20:29:39","新北市蘆洲區長安街297號","121.458036666667","25.08487","6501400","蘆洲區"
"247016","057-VK","2017/11/25 20:29:45","新北市蘆洲區光華路52號","121.468548333333","25.0829633333333","6501400","蘆洲區"
"247006","056-VK","2017/11/25 20:29:55","新北市蘆洲區光華路155號","121.46537","25.08211","6501400","蘆洲區"
"247014","007-UY","2017/11/25 20:29:47","新北市蘆洲區中山二路47號","121.473878333333","25.08209","6501400","蘆洲區"
"247024","002-UY","2017/11/25 20:29:56","新北市蘆洲區光復路91號","121.464331666667","25.0856033333333","6501400","蘆洲區"
"247018","001-UY","2017/11/25 20:29:49","新北市蘆洲區民族路327巷60號","121.4747","25.0906066666667","6501400","蘆洲區"
"222001","KEA-2212","2017/11/25 20:29:53","新北市深坑區北深路三段274號","121.597978333333","25.0048116666667","6501800","深坑區"
"251005","010-UM","2017/11/25 20:29:51","新北市淡水區學府路88號","121.448945","25.1707","6501000","淡水區"
"251014","180-VK","2017/11/25 20:29:52","新北市淡水區石頭厝8-3號","121.459208333333","25.23723","6501000","淡水區"
"251008","181-VK","2017/11/25 20:29:53","新北市淡水區淡海路189巷6號","121.42003","25.1844583333333","6501000","淡水區"
"251010","413-VK","2017/11/25 20:29:41","新北市淡水區沙崙路181巷1號","121.424013333333","25.18432","6501000","淡水區"
"251012","441-VK","2017/11/25 20:29:50","新北市淡水區興仁路9號","121.45285","25.2172733333333","6501000","淡水區"
"251016","442-VK","2017/11/25 20:29:51","新北市淡水區後洲子19號","121.450906666667","25.2237683333333","6501000","淡水區"
"251001","559-UM","2017/11/25 20:29:53","新北市淡水區新市一路三段5號","121.445026666667","25.1829833333333","6501000","淡水區"
"251006","561-UM","2017/11/25 20:29:50","新北市淡水區商工路296號","121.460788333333","25.18589","6501000","淡水區"
"251002","672-BX","2017/11/25 20:29:47","新北市淡水區中正路13-1號","121.442946666667","25.1695966666667","6501000","淡水區"
"251003","673-BX","2017/11/25 20:29:48","新北市淡水區新民街21號","121.439405","25.1751566666667","6501000","淡水區"
"252002","178-VK","2017/11/25 20:29:43","新北市三芝區淡金路二段18-1號","121.502681666667","25.2595066666667","6502100","三芝區"
"252001","292-VK","2017/11/25 20:29:41","新北市三芝區中山路一段35號","121.500696666667","25.2579466666667","6502100","三芝區"
"236027","269-VK","2017/11/25 20:29:41","新北市土城區中華路一段162號","121.441921666667","24.9839516666667","6501300","土城區"
"242031","AAC-296","2017/11/25 20:29:55","新北市新莊區三和路58-15號","121.437403333333","25.0393133333333","6500500","新莊區"
"242029","986-R7","2017/11/25 20:29:56","新北市新莊區中原路203-1號","121.451361666667","25.0542833333333","6500500","新莊區"
"242051","751-BX","2017/11/25 20:29:54","新北市新莊區民安西路252巷5號","121.425288333333","25.013565","6500500","新莊區"
"242025","615-BX","2017/11/25 20:29:48","新北市新莊區五工二路50巷23號","121.461751666667","25.0661116666667","6500500","新莊區"
"242023","613-BX","2017/11/25 20:29:44","新北市新莊區化成路287號","121.466081666667","25.054915","6500500","新莊區"
"242027","612-BX","2017/11/25 20:29:51","新北市新莊區幸福路28號","121.458725","25.0495833333333","6500500","新莊區"
"242039","566-BX","2017/11/25 20:29:47","新北市新莊區八德街133巷13號","121.424721666667","25.0201783333333","6500500","新莊區"
"242002","497-BY","2017/11/25 20:29:39","新北市新莊區明中街4號","121.458786666667","25.0382366666667","6500500","新莊區"
"242044","442-UM","2017/11/25 20:29:38","新北市新莊區中正路新建巷51號","121.414625","25.0215","6500500","新莊區"
"242048","441-UM","2017/11/25 20:29:52","新北市新莊區成功街196號","121.422106666667","25.0173416666667","6500500","新莊區"
"242053","440-UM","2017/11/25 20:29:54","新北市新莊區民安西路229巷10號","121.426633333333","25.0141683333333","6500500","新莊區"
"242034","415-TV","2017/11/25 20:29:49","新北市新莊區中正路317號","121.447953333333","25.0350983333333","6500500","新莊區"
"242004","413-TV","2017/11/25 20:29:50","新北市新莊區化成路371巷15號","121.46398","25.0571266666667","6500500","新莊區"
"242042","400-BY","2017/11/25 20:29:53","新北市新莊區中正路694巷3弄24號","121.417921666667","25.0280233333333","6500500","新莊區"
"242061","362-BY","2017/11/25 20:29:53","新北市新莊區新樹路244巷42號","121.431308333333","25.0190633333333","6500500","新莊區"
"242058","353-BY","2017/11/25 20:29:52","新北市新莊區四維路159號","121.422493333333","25.0218566666667","6500500","新莊區"
"242036","133-UY","2017/11/25 20:29:51","新北市新莊區後港一路76巷10弄1號","121.427141666667","25.0259716666667","6500500","新莊區"
"242021","135-UY","2017/11/25 20:29:52","新北市新莊區公園路12號","121.44788","25.0388216666667","6500500","新莊區"
"242046","172-VK","2017/11/25 20:29:53","新北市新莊區中正路新雅巷2弄15號","121.417808333333","25.0249783333333","6500500","新莊區"
"242009","173-VK","2017/11/25 20:29:39","新北市新莊區昌隆街76號","121.455558333333","25.0509283333333","6500500","新莊區"
"242015","175-VK","2017/11/25 20:29:56","新北市新莊區中平路36巷19號","121.445571666667","25.04359","6500500","新莊區"
"242013","346-TH","2017/11/25 20:29:41","新北市新莊區中和街155巷24弄81號","121.446348333333","25.05147","6500500","新莊區"
"242007","347-TH","2017/11/25 20:29:41","新北市新莊區思源路331號","121.459916666667","25.0496766666667","6500500","新莊區"
"242019","348-TH","2017/11/25 20:29:56","新北市新莊區銘德街49巷4弄2號","121.457201666667","25.04325","6500500","新莊區"
"242056","349-TH","2017/11/25 20:29:48","新北市新莊區新莊路713巷1弄2號","121.443716666667","25.0323716666667","6500500","新莊區"
"242011","351-TH","2017/11/25 20:29:56","新北市新莊區中信街66-3號","121.448586666667","25.0514066666667","6500500","新莊區"
"221008","489-VK","2017/11/25 20:29:43","新北市汐止區康寧街861巷7號","121.645265","25.0761933333333","6501100","汐止區"
"221036","130-UY","2017/11/25 20:29:39","新北市汐止區新台五路二段126巷13弄1號","121.663658333333","25.0659216666667","6501100","汐止區"
"221010","269-BY","2017/11/25 20:29:47","新北市汐止區八連路二段636-3號","121.625615","25.1109716666667","6501100","汐止區"
"221012","276-VK","2017/11/25 13:26:17","新北市汐止區汐萬路一段256巷3號","121.653468333333","25.0746816666667","6501100","汐止區"
"221012","278-VK","2017/11/25 20:29:52","新北市汐止區大同路三段279號","121.67413","25.0751533333333","6501100","汐止區"
"221023","279-VK","2017/11/25 20:29:42","新北市汐止區湖東街39號","121.634855","25.0729116666667","6501100","汐止區"
"221032","280-BY","2017/11/25 20:29:54","新北市汐止區弘道街53巷22號","121.618783333333","25.04954","6501100","汐止區"
"221027","281-BY","2017/11/25 20:29:40","新北市汐止區中正路238號","121.657698333333","25.0687266666667","6501100","汐止區"
"221029","298-VK","2017/11/25 20:29:42","新北市汐止區樟樹一路129巷32號","121.640535","25.065215","6501100","汐止區"
"221021","299-VK","2017/11/25 20:29:41","新北市汐止區水源路一段288號","121.654205","25.058135","6501100","汐止區"
"221031","353-TW","2017/11/25 20:29:39","新北市汐止區中興路110巷9弄2號","121.633755","25.0642583333333","6501100","汐止區"
"221015","567-BX","2017/11/25 20:29:43","新北市汐止區建成路160巷16號","121.661775","25.0739983333333","6501100","汐止區"
"221035","622-UM","2017/11/25 20:29:51","新北市汐止區長江街101-5號","121.658658333333","25.0732033333333","6501100","汐止區"
"221025","623-UM","2017/11/25 20:29:47","新北市汐止區水源路二段110巷1號","121.656708333333","25.0553583333333","6501100","汐止區"
"221038","646-BX","2017/11/25 20:29:44","新北市汐止區忠孝東路200-5號","121.661631666667","25.0661266666667","6501100","汐止區"
"221033","647-BX","2017/11/25 20:29:52","新北市汐止區林森街73巷15號","121.62386","25.0414283333333","6501100","汐止區"
"221018","753-BX","2017/11/25 20:29:53","新北市汐止區茄苳路225巷9弄1號","121.67128","25.06908","6501100","汐止區"
"220083","286-VK","2017/11/25 20:29:41","新北市板橋區僑中二街102巷25-4號","121.445085","25.0083933333333","6500100","板橋區"
"220061","293-UM","2017/11/25 20:29:46","新北市板橋區四川路一段294號","121.458651666667","25.00061","6500100","板橋區"
"242001","281-VK","2017/11/25 15:36:30","新北市新莊區環河路636-7號","121.437323333333","25.0113383333333","6500500","新莊區"
"220062","305-R5","2017/11/25 20:29:55","新北市八里區商港路98號","121.394951666667","25.1469383333333","6500100","板橋區"
"220064","486-VK","2017/11/25 20:29:56","新北市板橋區長安街331巷1號","121.47427","25.0121633333333","6500100","板橋區"
"220089","487-VK","2017/11/25 20:29:38","新北市板橋區四維路268號","121.463256666667","25.028485","6500100","板橋區"
"242017","280-VK","2017/11/25 20:29:49","新北市新莊區中港二街122號","121.448588333333","25.0456583333333","6500500","新莊區"
"220103","561-BX","2017/11/25 20:29:39","新北市板橋區漢生東路23巷46號","121.465915","25.0180416666667","6500100","板橋區"
"220077","687-BX","2017/11/25 20:29:44","新北市八里區中山路三段380號","121.369711666667","25.1363816666667","6500100","板橋區"
"220073","985-R7","2017/11/25 20:29:47","新北市八里區商港路96號","121.39426","25.14795","6500100","板橋區"
"220070","AAC-253","2017/11/25 20:29:42","新北市新莊區新莊路751巷126號","121.44238","25.0296883333333","6500100","板橋區"
