"lineid","car","time","location","longitude","latitude","cityid","cityname"
"234007","207-UY","2017/11/25 20:49:52","新北市新店區薏仁坑路自強巷1號","121.497766666667","24.9576466666667","6500400","永和區"
"234074","AAC-211","2017/11/25 20:49:45","新北市永和區竹林路121號","121.520151666667","25.0114583333333","6500400","永和區"
"244019","403-UM","2017/11/25 20:35:14","新北市林口區粉寮69號","121.405103333333","25.0907916666667","6501700","林口區"
"244001","657-BX","2017/11/25 13:52:33","新北市林口區粉寮路二段160巷28號","121.405146666667","25.0908166666667","6501700","林口區"
"222003","016-RS","2017/11/25 20:49:57","新北市深坑區文山路三段110號","121.608936666667","24.9986333333333","6501800","深坑區"
"222002","659-BX","2017/11/25 20:49:52","新北市深坑區北深路三段93巷73號","121.603453333333","25.00118","6501800","深坑區"
"231059","046-UY","2017/11/25 20:49:43","新北市新店區吉祥街11巷37號","121.498901666667","24.946575","6500600","新店區"
"231061","047-UY","2017/11/25 20:49:36","新北市新店區新和街101號","121.521278333333","24.9867066666667","6500600","新店區"
"231060","106-UY","2017/11/25 20:49:50","新北市新店區安康路三段571巷2-1號","121.474068333333","24.94193","6500600","新店區"
"231051","107-UY","2017/11/25 20:49:46","新北市新店區民生路145巷35號","121.529821666667","24.9805683333333","6500600","新店區"
"231048","108-UY","2017/11/25 20:49:50","新北市新店區寶元路二段1巷2號","121.550676666667","24.9840466666667","6500600","新店區"
"231052","187-VK","2017/11/25 20:49:53","新北市新店區新烏路二段9-2號","121.544273333333","24.9294283333333","6500600","新店區"
"231050","KEA-2219","2017/11/25 20:49:53","新北市新店區中正路247巷3號","121.538898333333","24.97294","6500600","新店區"
"231057","256-BX","2017/11/25 20:49:56","新北市新店區新烏路一段205號","121.547255","24.9329116666667","6500600","新店區"
"231063","268-BY","2017/11/25 20:49:54","新北市新店區富貴街9巷43號","121.495208333333","24.94868","6500600","新店區"
"231054","AAD-862","2017/11/25 20:49:39","新北市新店區北新路一段96巷27號","121.54294","24.969415","6500600","新店區"
"231058","3712-VJ","2017/11/25 20:49:51","新北市新店區平等街67號","121.535893333333","24.9724283333333","6500600","新店區"
"231056","3713-VJ","2017/11/25 20:49:37","新北市新店區中央六街65號","121.52749","24.976125","6500600","新店區"
"231065","513-UM","2017/11/25 20:49:42","新北市新店區安祥路104巷6弄46號","121.483288333333","24.9635933333333","6500600","新店區"
"231064","515-UM","2017/11/25 20:49:41","新北市新店區安和路三段37號","121.517748333333","24.9817883333333","6500600","新店區"
"231042","616-UM","2017/11/25 20:49:56","新北市新店區寶高路120巷1號","121.55458","24.9759966666667","6500600","新店區"
"231045","617-UM","2017/11/25 20:49:53","新北市新店區北宜路二段85號","121.550128333333","24.9521616666667","6500600","新店區"
"231041","618-UM","2017/11/25 20:49:55","新北市新店區中正路707號","121.533913333333","24.9910816666667","6500600","新店區"
"231040","619-UM","2017/11/25 20:49:48","新北市新店區中正路272號","121.538918333333","24.9735683333333","6500600","新店區"
"231068","718-UY","2017/11/25 20:49:48","新北市新店區寶元路一段107號","121.545558333333","24.9828783333333","6500600","新店區"
"231049","719-UM","2017/11/25 20:49:51","新北市新店區安康路一段266巷4號","121.520015","24.9640033333333","6500600","新店區"
"231062","720-UM","2017/11/25 20:49:41","新北市新店區裕合街215號","121.489161666667","24.9489166666667","6500600","新店區"
"231044","897-TW","2017/11/25 20:49:42","新北市新店區中正路348號","121.536288333333","24.9754116666667","6500600","新店區"
"231043","899-TW","2017/11/25 20:49:58","新北市新店區建國路62號","121.540601666667","24.97578","6500600","新店區"
"231066","AKT-0513","2017/11/25 20:49:45","新北市新店區安興路112號","121.514671666667","24.9776483333333","6500600","新店區"
"241011","013-R5","2017/11/25 20:49:50","新北市三重區秀江街97號","121.50016","25.0723033333333","6500200","三重區"
"241028","022-UY","2017/11/25 20:49:40","新北市三重區中正南路42號","121.493838333333","25.0600816666667","6500200","三重區"
"241008","059-VK","2017/11/25 20:49:55","新北市三重區永福街72巷11號","121.479426666667","25.07681","6500200","三重區"
"241009","060-VK","2017/11/25 20:49:47","新北市三重區三和路四段388-2號","121.482048333333","25.0790983333333","6500200","三重區"
"241031","061-VK","2017/11/25 20:49:55","新北市三重區重陽路一段113巷1弄1號","121.487491666667","25.0598166666667","6500200","三重區"
"241015","062-VK","2017/11/25 20:49:47","新北市三重區自強路一段8號","121.498875","25.068265","6500200","三重區"
"241017","063-VK","2017/11/25 20:49:39","新北市三重區民生街28號","121.491801666667","25.06717","6500200","三重區"
"241024","065-VK","2017/11/25 20:49:37","新北市三重區大勇街82巷15弄30號","121.481123333333","25.0719833333333","6500200","三重區"
"241026","066-VK","2017/11/25 20:49:48","新北市三重區和平街5號","121.500245","25.0623766666667","6500200","三重區"
"241002","090-VK","2017/11/25 20:49:48","新北市三重區仁義街167巷38弄2號","121.49871","25.0827216666667","6500200","三重區"
"241022","156-TC","2017/11/25 20:49:49","新北市三重區過圳街27-5號","121.48794","25.0624216666667","6500200","三重區"
"241005","262-UM","2017/11/25 20:49:46","新北市三重區五華街141巷20號","121.49173","25.08525","6500200","三重區"
"241004","265-UM","2017/11/25 20:49:40","新北市三重區分子尾街19號","121.489516666667","25.0810083333333","6500200","三重區"
"241016","266-UM","2017/11/25 20:49:48","新北市三重區自強路一段232號","121.493416666667","25.0669766666667","6500200","三重區"
"241018","268-UM","2017/11/25 20:49:56","新北市三重區正義北路271號","121.495351666667","25.0700466666667","6500200","三重區"
"241013","270-UM","2017/11/25 20:49:46","新北市三重區仁賢街12-1號","121.495618333333","25.074875","6500200","三重區"
"241025","271-UM","2017/11/25 20:49:55","新北市三重區貴陽街14號","121.484211666667","25.0618683333333","6500200","三重區"
"241007","398-BY","2017/11/25 20:49:54","新北市三重區慈愛街10號","121.484536666667","25.0784633333333","6500200","三重區"
"241020","413-TH","2017/11/25 20:49:51","新北市三重區忠孝路一段101號","121.489486666667","25.0721683333333","6500200","三重區"
"241035","462-BY","2017/11/25 20:49:47","新北市三重區三和路二段154巷27號","121.497996666667","25.068045","6500200","三重區"
"241019","478-VK","2017/11/25 20:49:44","新北市三重區大智街188號","121.489945","25.07053","6500200","三重區"
"241030","480-VK","2017/11/25 20:49:47","新北市三重區昌隆街26號","121.491978333333","25.05228","6500200","三重區"
"241014","543-UM","2017/11/25 20:49:40","新北市三重區萬全街67號","121.501328333333","25.0702666666667","6500200","三重區"
"241023","545-UM","2017/11/25 20:49:46","新北市三重區忠孝路三段56-1號","121.480465","25.0654483333333","6500200","三重區"
"241001","547-UM","2017/11/25 20:49:54","新北市三重區自強路三段101號","121.487813333333","25.07546","6500200","三重區"
"241006","AAD-863","2017/11/25 20:49:46","新北市三重區車路頭街139巷14號","121.484278333333","25.076205","6500200","三重區"
"241012","941-UM","2017/11/25 20:49:44","新北市三重區仁信街27號","121.50126","25.0755266666667","6500200","三重區"
"241029","942-UM","2017/11/25 20:49:43","新北市三重區重安街18號","121.490343333333","25.058105","6500200","三重區"
"241033","AAC-255","2017/11/25 20:49:57","新北市三重區光復路二段2號","121.472193333333","25.0532433333333","6500200","三重區"
"235069","4980-A6","2017/11/25 20:49:46","新北市中和區連城路469巷70弄4號","121.483355","24.9936733333333","6500300","中和區"
"247022","893-R6","2017/11/25 20:49:52","新北市蘆洲區保和街22號","121.470598333333","25.0865633333333","6501400","蘆洲區"
"247012","546-UM","2017/11/25 20:49:39","新北市三重區集賢路186號","121.484113333333","25.0883916666667","6501400","蘆洲區"
"247020","500-BY","2017/11/25 20:49:55","新北市蘆洲區仁愛街66號","121.471556666667","25.093875","6501400","蘆洲區"
"247008","341-TH","2017/11/25 20:49:52","新北市蘆洲區集賢路269巷17號","121.482101666667","25.0833816666667","6501400","蘆洲區"
"247010","339-TH","2017/11/25 20:49:44","新北市蘆洲區鷺江街76號","121.477011666667","25.0838266666667","6501400","蘆洲區"
"247002","337-TH","2017/11/25 20:49:53","新北市蘆洲區長安街242號","121.457661666667","25.0860483333333","6501400","蘆洲區"
"247004","336-TH","2017/11/25 20:49:39","新北市蘆洲區長安街100號","121.461718333333","25.08082","6501400","蘆洲區"
"247016","057-VK","2017/11/25 20:49:45","新北市蘆洲區中山二路211號","121.470433333333","25.080355","6501400","蘆洲區"
"247006","056-VK","2017/11/25 20:49:55","新北市蘆洲區永安南路二段16巷8號","121.46774","25.0772266666667","6501400","蘆洲區"
"247014","007-UY","2017/11/25 20:49:47","新北市蘆洲區三民路33號","121.47545","25.08301","6501400","蘆洲區"
"247024","002-UY","2017/11/25 20:49:56","新北市蘆洲區長樂路140號","121.462013333333","25.0901733333333","6501400","蘆洲區"
"222001","KEA-2212","2017/11/25 20:49:48","新北市深坑區北深路三段133號","121.603973333333","25.00253","6501800","深坑區"
"251014","180-VK","2017/11/25 20:49:52","新北市淡水區公埔子32-8號","121.461776666667","25.2324116666667","6501000","淡水區"
"251010","413-VK","2017/11/25 20:49:41","新北市淡水區沙崙路141-1號","121.423291666667","25.1830966666667","6501000","淡水區"
"251012","441-VK","2017/11/25 20:49:50","新北市淡水區淡金路四段225號","121.451801666667","25.2224183333333","6501000","淡水區"
"251016","442-VK","2017/11/25 20:49:51","新北市淡水區淡金路四段215號","121.451708333333","25.2223366666667","6501000","淡水區"
"251001","559-UM","2017/11/25 20:48:53","新北市淡水區淡金路218號","121.460546666667","25.167205","6501000","淡水區"
"251007","577-R6","2017/11/25 20:49:56","新北市淡水區鄧公路23巷2號","121.451258333333","25.1700783333333","6501000","淡水區"
"251011","650-BX","2017/11/25 20:49:49","新北市淡水區新民街一段11號","121.433163333333","25.1845466666667","6501000","淡水區"
"251002","672-BX","2017/11/25 20:49:46","新北市淡水區英專路32號","121.44559","25.1701033333333","6501000","淡水區"
"251003","673-BX","2017/11/25 20:49:48","新北市淡水區新民街64號","121.438793333333","25.176065","6501000","淡水區"
"252002","178-VK","2017/11/25 20:49:43","新北市三芝區淡金路二段89-1號","121.504045","25.260875","6502100","三芝區"
"242029","986-R7","2017/11/25 20:49:56","新北市新莊區昌隆街3巷1弄2號","121.454235","25.0513383333333","6500500","新莊區"
"242051","751-BX","2017/11/25 20:49:54","新北市新莊區民安西路143號","121.426341666667","25.01695","6500500","新莊區"
"242025","615-BX","2017/11/25 20:49:41","新北市新莊區環漢路三段525號","121.435595","25.002395","6500500","新莊區"
"242027","612-BX","2017/11/25 20:49:51","新北市新莊區瓊林路46號","121.44747","25.0293583333333","6500500","新莊區"
"242039","566-BX","2017/11/25 20:49:47","新北市新莊區瓊林北路27號","121.439141666667","25.0219166666667","6500500","新莊區"
"242048","441-UM","2017/11/25 20:49:52","新北市新莊區中正路516-33號","121.432763333333","25.0322416666667","6500500","新莊區"
"242061","362-BY","2017/11/25 20:49:53","新北市板橋區大觀路三段36巷134號","121.435328333333","24.9993916666667","6500500","新莊區"
"242036","133-UY","2017/11/25 20:49:54","新北市新莊區中正路517-2號","121.43972","25.03342","6500500","新莊區"
"242021","135-UY","2017/11/25 20:49:52","新北市新莊區新莊路362號","121.449625","25.0335533333333","6500500","新莊區"
"242007","347-TH","2017/11/25 20:49:41","新北市新莊區環河路116-1號","121.46062","25.0379566666667","6500500","新莊區"
"242056","349-TH","2017/11/25 20:49:39","新北市新莊區瓊泰路85號","121.44304","25.0295266666667","6500500","新莊區"
"221036","130-UY","2017/11/25 20:49:59","新北市汐止區仁愛路329號","121.66415","25.0679866666667","6501100","汐止區"
"221012","276-VK","2017/11/25 13:26:17","新北市汐止區汐萬路一段256巷3號","121.653468333333","25.0746816666667","6501100","汐止區"
"221032","280-BY","2017/11/25 20:49:54","新北市汐止區大同路二段273號","121.65232","25.0672383333333","6501100","汐止區"
"221027","281-BY","2017/11/25 20:49:40","新北市汐止區水源路一段3號","121.657271666667","25.0671333333333","6501100","汐止區"
"221029","298-VK","2017/11/25 20:49:42","新北市汐止區樟樹二路339巷16-1號","121.6417","25.07102","6501100","汐止區"
"221031","353-TW","2017/11/25 20:49:39","新北市汐止區康寧街753巷2弄22號","121.640193333333","25.0742916666667","6501100","汐止區"
"221035","622-UM","2017/11/25 20:49:51","新北市汐止區汐萬路一段256巷3號","121.652278333333","25.0746133333333","6501100","汐止區"
"221038","646-BX","2017/11/25 20:49:44","新北市汐止區汐萬路一段256巷1號","121.652003333333","25.0747783333333","6501100","汐止區"
"221033","647-BX","2017/11/25 20:49:52","新北市汐止區合順街18巷8弄5號","121.620311666667","25.0419416666667","6501100","汐止區"
"221018","753-BX","2017/11/25 20:49:53","新北市汐止區大同路二段373號","121.657258333333","25.0672716666667","6501100","汐止區"
"242001","281-VK","2017/11/25 15:36:30","新北市新莊區環河路636-7號","121.437323333333","25.0113383333333","6500500","新莊區"
"220062","305-R5","2017/11/25 20:49:15","新北市八里區中山路三段409號","121.368358333333","25.1346633333333","6500100","板橋區"
"242017","280-VK","2017/11/25 20:49:49","新北市新莊區復興路一段107號","121.449171666667","25.04291","6500500","新莊區"
"220077","687-BX","2017/11/25 20:49:43","新北市新莊區新莊路751巷110號","121.442261666667","25.0302533333333","6500100","板橋區"
"220070","AAC-253","2017/11/25 20:47:42","新北市八里區中山路三段323號","121.377581666667","25.1413083333333","6500100","板橋區"
