"lineid","car","time","location","longitude","latitude","cityid","cityname"
"244019","403-UM","2017/11/25 20:35:14","新北市林口區粉寮69號","121.405103333333","25.0907916666667","6501700","林口區"
"244001","657-BX","2017/11/25 13:52:33","新北市林口區粉寮路二段160巷28號","121.405146666667","25.0908166666667","6501700","林口區"
"231059","046-UY","2017/11/25 21:09:43","新北市新店區僑義路6號","121.500378333333","24.9509933333333","6500600","新店區"
"231061","047-UY","2017/11/25 21:09:55","新北市新店區永平街53巷1號","121.516168333333","24.98426","6500600","新店區"
"231060","106-UY","2017/11/25 21:09:50","新北市新店區安康路三段2號","121.493876666667","24.9537966666667","6500600","新店區"
"231051","107-UY","2017/11/25 21:09:46","新北市新店區中正路663巷7弄15號","121.532891666667","24.9901083333333","6500600","新店區"
"231048","108-UY","2017/11/25 21:09:50","新北市新店區文化路21巷2號","121.543338333333","24.9795266666667","6500600","新店區"
"231050","KEA-2219","2017/11/25 21:09:53","新北市新店區三民路29巷2弄2號","121.537748333333","24.969935","6500600","新店區"
"231063","268-BY","2017/11/25 21:09:54","新北市新店區玫瑰路58巷1號","121.495426666667","24.9465466666667","6500600","新店區"
"231054","AAD-862","2017/11/25 21:09:39","新北市新店區大新街7巷38號","121.544373333333","24.9676983333333","6500600","新店區"
"231058","3712-VJ","2017/11/25 21:09:51","新北市新店區安康路二段414巷2號","121.49581","24.9578433333333","6500600","新店區"
"231067","4715-K9","2017/11/25 21:09:46","新北市新店區安康路二段247號","121.507886666667","24.9584583333333","6500600","新店區"
"231065","513-UM","2017/11/25 21:09:42","新北市新店區安祥路69巷89弄39號","121.482798333333","24.9613116666667","6500600","新店區"
"231042","616-UM","2017/11/25 21:09:56","新北市新店區寶興路60巷3號","121.549883333333","24.9718633333333","6500600","新店區"
"231040","619-UM","2017/11/25 21:09:48","新北市新店區北新路一段100號","121.542183333333","24.9694416666667","6500600","新店區"
"241011","013-R5","2017/11/25 21:09:52","新北市三重區龍濱路183號","121.502123333333","25.0706283333333","6500200","三重區"
"241028","022-UY","2017/11/25 21:09:40","新北市三重區正義南路60-1號","121.498263333333","25.060635","6500200","三重區"
"241008","059-VK","2017/11/25 21:09:55","新北市三重區自強路一段62號","121.497251666667","25.0667383333333","6500200","三重區"
"241009","060-VK","2017/11/25 21:09:47","新北市三重區忠孝路二段124號","121.483036666667","25.06884","6500200","三重區"
"241031","061-VK","2017/11/25 21:09:55","新北市三重區重新路五段428號","121.475225","25.0475233333333","6500200","三重區"
"241015","062-VK","2017/11/25 21:09:47","新北市三重區福德北路65號","121.502141666667","25.0656083333333","6500200","三重區"
"241017","063-VK","2017/11/25 21:09:39","新北市三重區國隆路31號","121.492308333333","25.06443","6500200","三重區"
"241024","065-VK","2017/11/25 21:09:37","新北市三重區國道路一段58巷20號","121.481125","25.0720083333333","6500200","三重區"
"241026","066-VK","2017/11/25 21:09:48","新北市三重區文化南路42號","121.500425","25.06022","6500200","三重區"
"241002","090-VK","2017/11/25 21:09:48","新北市三重區五華街19號","121.494995","25.0804016666667","6500200","三重區"
"241003","091-VK","2017/11/25 21:09:50","新北市三重區仁義街224號","121.494933333333","25.0846516666667","6500200","三重區"
"241022","156-TC","2017/11/25 21:09:49","新北市三重區中正北路64巷24號","121.486141666667","25.063725","6500200","三重區"
"241005","262-UM","2017/11/25 21:09:46","新北市三重區三信路11號","121.488176666667","25.08616","6500200","三重區"
"241004","265-UM","2017/11/25 21:09:40","新北市三重區仁愛街418號","121.490478333333","25.081315","6500200","三重區"
"241016","266-UM","2017/11/25 21:09:48","新北市三重區信義西街41號","121.495248333333","25.0642383333333","6500200","三重區"
"241018","268-UM","2017/11/25 21:09:52","新北市三重區正義北路332-1號","121.494376666667","25.0705716666667","6500200","三重區"
"241013","270-UM","2017/11/25 21:09:46","新北市三重區仁愛街141巷21號","121.49668","25.0758716666667","6500200","三重區"
"241025","271-UM","2017/11/25 21:09:55","新北市三重區中正北路208巷10弄4號","121.482423333333","25.0669416666667","6500200","三重區"
"241007","398-BY","2017/11/25 21:09:54","新北市三重區三和路四段145巷85號","121.48645","25.07873","6500200","三重區"
"241020","413-TH","2017/11/25 21:09:51","新北市三重區忠孝路二段34號","121.485866666667","25.0709833333333","6500200","三重區"
"241019","478-VK","2017/11/25 21:09:44","新北市三重區自強路二段74巷19號","121.488008333333","25.069895","6500200","三重區"
"241030","480-VK","2017/11/25 21:09:47","新北市三重區五谷王北街20巷15弄1號","121.475035","25.04848","6500200","三重區"
"241014","543-UM","2017/11/25 21:09:40","新北市三重區三和路二段37-9號","121.501325","25.0676583333333","6500200","三重區"
"241023","545-UM","2017/11/25 21:09:46","新北市三重區忠孝路三段50巷41弄64號","121.482425","25.06375","6500200","三重區"
"241001","547-UM","2017/11/25 21:09:54","新北市三重區福隆路44號","121.492418333333","25.0784133333333","6500200","三重區"
"241006","AAD-863","2017/11/25 21:09:46","新北市三重區明志街135號","121.489265","25.0632616666667","6500200","三重區"
"241012","941-UM","2017/11/25 21:09:44","新北市三重區仁信街9號","121.501603333333","25.075685","6500200","三重區"
"241029","942-UM","2017/11/25 21:09:43","新北市三重區正義南路107號","121.498211666667","25.0585316666667","6500200","三重區"
"241033","AAC-255","2017/11/25 21:09:57","新北市三重區新北大道二段80-1號","121.469973333333","25.0616316666667","6500200","三重區"
"247022","893-R6","2017/11/25 21:09:54","新北市蘆洲區三民路245號","121.468916666667","25.089035","6501400","蘆洲區"
"247012","546-UM","2017/11/25 21:09:39","新北市蘆洲區民族路5號","121.4756","25.0839733333333","6501400","蘆洲區"
"247020","500-BY","2017/11/25 21:09:55","新北市蘆洲區民族路436巷26號","121.472711666667","25.092895","6501400","蘆洲區"
"247008","341-TH","2017/11/25 21:09:52","新北市蘆洲區民生街30號","121.47486","25.0788433333333","6501400","蘆洲區"
"247010","339-TH","2017/11/25 21:09:44","新北市蘆洲區三民路26巷35號","121.477226666667","25.0830733333333","6501400","蘆洲區"
"247002","337-TH","2017/11/25 21:09:53","新北市蘆洲區永樂街38巷57弄2號","121.458463333333","25.090175","6501400","蘆洲區"
"247004","336-TH","2017/11/25 21:09:39","新北市蘆洲區永安南路二段286號","121.457688333333","25.0811916666667","6501400","蘆洲區"
"247016","057-VK","2017/11/25 21:09:45","新北市蘆洲區和平路194號","121.466083333333","25.0817633333333","6501400","蘆洲區"
"247006","056-VK","2017/11/25 21:09:55","新北市蘆洲區永安南路二段16巷18號","121.467958333333","25.077775","6501400","蘆洲區"
"247014","007-UY","2017/11/25 21:09:47","新北市蘆洲區中央路155號","121.47267","25.084695","6501400","蘆洲區"
"247024","002-UY","2017/11/25 21:09:56","新北市蘆洲區長興路50巷1號","121.463833333333","25.0838","6501400","蘆洲區"
"247018","001-UY","2017/11/25 21:09:49","新北市蘆洲區民族路408巷14號","121.474901666667","25.09201","6501400","蘆洲區"
"251009","008-UM","2017/11/25 21:09:50","新北市淡水區民權路187巷74弄9號","121.462041666667","25.13441","6501000","淡水區"
"251004","009-UM","2017/11/25 21:09:46","新北市淡水區竹林路151號","121.462748333333","25.143055","6501000","淡水區"
"251005","010-UM","2017/11/25 21:09:51","新北市淡水區博愛街61號","121.446941666667","25.1688316666667","6501000","淡水區"
"251014","180-VK","2017/11/25 21:09:52","新北市淡水區六塊厝1-1號","121.449475","25.2422783333333","6501000","淡水區"
"251010","413-VK","2017/11/25 21:09:41","新北市淡水區中正路一段63巷9號","121.422801666667","25.1772866666667","6501000","淡水區"
"251012","441-VK","2017/11/25 21:09:50","新北市淡水區淡金路五段151號","121.45528","25.24035","6501000","淡水區"
"251016","442-VK","2017/11/25 21:09:51","新北市淡水區前洲子11號","121.441906666667","25.21895","6501000","淡水區"
"251001","559-UM","2017/11/25 21:09:53","新北市淡水區新市一路三段101巷16弄3號","121.446641666667","25.18385","6501000","淡水區"
"251011","650-BX","2017/11/25 21:09:50","新北市淡水區新民街120巷45弄10號","121.438108333333","25.1797233333333","6501000","淡水區"
"251002","672-BX","2017/11/25 21:09:47","新北市淡水區學府路172巷21號","121.448215","25.1752","6501000","淡水區"
"251003","766-UM","2017/11/25 21:09:42","新北市淡水區新春街176號","121.443245","25.1809666666667","6501000","淡水區"
"242048","441-UM","2017/11/25 21:09:52","新北市樹林區環河路600-1號","121.40394","24.9693316666667","6500500","新莊區"
"242007","347-TH","2017/11/25 21:09:41","新北市樹林區中山路三段210-2號","121.382193333333","24.9659433333333","6500500","新莊區"
"221012","276-VK","2017/11/25 13:26:17","新北市汐止區汐萬路一段256巷3號","121.653468333333","25.0746816666667","6501100","汐止區"
"242001","281-VK","2017/11/25 15:36:30","新北市新莊區環河路636-7號","121.437323333333","25.0113383333333","6500500","新莊區"
"220062","305-R5","2017/11/25 21:09:35","新北市五股區凌雲路一段21號","121.452641666667","25.100235","6500100","板橋區"
"220070","AAC-253","2017/11/25 21:09:42","新北市八里區中山路三段409號","121.368426666667","25.1349033333333","6500100","板橋區"
