"lineid","car","time","location","longitude","latitude","cityid","cityname"
"234044","148-BY","2017/08/14 13:39:46","新北市永和區秀朗路二段80號","121.523045","25.001615","6500400","永和區"
"234012","149-BY","2017/08/14 13:39:52","新北市永和區仁愛路196號","121.509575","25.01243","6500400","永和區"
"234005","207-UY","2017/08/14 13:39:35","新北市永和區永和路一段95號","121.513535","25.0074833333333","6500400","永和區"
"234078","298-R6","2017/08/14 13:39:53","新北市永和區林森路20巷7號","121.525785","25.00578","6500400","永和區"
"234036","336-UY","2017/08/14 13:39:44","新北市永和區民樂街39巷18弄2號","121.528528333333","24.9995266666667","6500400","永和區"
"234062","337-UY","2017/08/14 13:39:47","新北市永和區秀朗路一段192巷6弄12號","121.519068333333","25.002335","6500400","永和區"
"234084","338-UY","2017/08/14 13:39:46","新北市永和區國中路2-1號","121.524128333333","25.0043016666667","6500400","永和區"
"234068","552-UM","2017/08/14 13:39:43","新北市永和區竹林路101號","121.519786666667","25.0119583333333","6500400","永和區"
"234052","553-UM","2017/08/14 13:39:50","新北市永和區竹林路39巷14號","121.518468333333","25.0146066666667","6500400","永和區"
"234015","745-BX","2017/08/14 13:39:45","新北市永和區永和路二段405巷8號","121.515283333333","25.0175283333333","6500400","永和區"
"234028","746-BX","2017/08/14 13:39:49","新北市永和區民生路47巷4號","121.523056666667","24.9978033333333","6500400","永和區"
"234060","AAD-866","2017/08/14 13:39:44","新北市永和區中正路381號","121.51723","25.0036883333333","6500400","永和區"
"234040","862-TW","2017/08/14 13:39:52","新北市永和區中和路525號","121.511208333333","25.00296","6500400","永和區"
"234048","863-TW","2017/08/14 13:39:51","新北市永和區保安路2號","121.510835","25.0174116666667","6500400","永和區"
"234025","9371-KE","2017/08/14 13:39:41","新北市永和區保安路266號","121.505785","25.0122833333333","6500400","永和區"
"234010","9373-KE","2017/08/14 13:39:37","新北市永和區保福路二段9巷15弄2號","121.510161666667","25.0108816666667","6500400","永和區"
"248015","026-BX","2017/08/14 13:39:39","新北市五股區凌雲路一段133巷27-3號","121.448625","25.1008966666667","6501500","五股區"
"248005","077-UY","2017/08/14 13:39:55","新北市五股區中興路一段56號","121.467908333333","25.072675","6501500","五股區"
"248007","095-VK","2017/08/14 13:39:47","新北市五股區中興路一段153號","121.46507","25.0735616666667","6501500","五股區"
"248019","225-UY","2017/08/14 13:39:39","新北市五股區孝義路94號","121.446785","25.1191816666667","6501500","五股區"
"248011","247-BX","2017/08/14 13:39:50","新北市五股區成泰路二段195巷1號","121.440321666667","25.087375","6501500","五股區"
"248013","261-SL","2017/08/14 13:39:49","新北市五股區中興路四段67-2號","121.436943333333","25.0833716666667","6501500","五股區"
"248009","272-BY","2017/08/14 13:39:41","新北市五股區水碓九路71號","121.430178333333","25.0730983333333","6501500","五股區"
"248001","655-BX","2017/08/14 13:39:46","新北市五股區成泰路三段435巷11號","121.449333333333","25.0979216666667","6501500","五股區"
"248003","677-BX","2017/08/14 13:39:32","新北市五股區民義路一段316號","121.421811666667","25.0958833333333","6501500","五股區"
"234022","9380-KE","2017/08/14 13:39:39","新北市永和區中正路702巷20弄1號","121.51652","25.0105933333333","6500400","永和區"
"234076","969-R7","2017/08/14 13:39:37","新北市永和區民族街25號","121.518758333333","24.9996283333333","6500400","永和區"
"234072","AAC-211","2017/08/14 13:39:51","新北市永和區豫溪街136巷5號","121.521288333333","25.0100366666667","6500400","永和區"
"234066","AAC-212","2017/08/14 13:39:47","新北市永和區中山路一段188號","121.50899","25.0088183333333","6500400","永和區"
"234001","AAC-295","2017/08/14 13:39:49","新北市永和區秀朗路一段22號","121.513931666667","25.0067683333333","6500400","永和區"
"244001","248-BX","2017/08/14 13:39:49","新北市林口區後坑34-1號","121.34995","25.1291016666667","6501700","林口區"
"244018","837-TS","2017/08/14 08:02:06","新北市林口區粉寮路二段160巷40號","121.405646666667","25.0911833333333","6501700","林口區"
"243005","AAD-798","2017/08/14 13:39:37","新北市泰山區明志路三段206巷3號","121.42332","25.0379333333333","6501600","泰山區"
"243007","380-SR","2017/08/14 09:21:53","新北市泰山區犁頭窠3-1號","121.422128333333","25.06052","6501600","泰山區"
"243004","646-TV","2017/08/14 13:39:45","新北市泰山區福興三街13號","121.434406666667","25.0577583333333","6501600","泰山區"
"243008","680-BX","2017/08/14 04:25:26","新北市泰山區黎明路25號","121.422173333333","25.060805","6501600","泰山區"
"231002","002-UM","2017/08/14 13:39:43","新北市新店區中央三街127號","121.52397","24.9768433333333","6500600","新店區"
"231025","0291-UT","2017/08/14 13:39:34","新北市新店區中央六街58號","121.527805","24.97576","6500600","新店區"
"231027","0293-UT","2017/08/14 13:39:33","新北市新店區新店路47號","121.539423333333","24.952575","6500600","新店區"
"231028","046-UY","2017/08/14 13:39:50","新北市新店區安和路二段201號","121.51791","24.975205","6500600","新店區"
"231030","047-UY","2017/08/14 13:39:50","新北市新店區安康路一段107-2號","121.528748333333","24.9617066666667","6500600","新店區"
"231029","106-UY","2017/08/14 13:39:44","新北市新店區安康路二段226號","121.509461666667","24.9592466666667","6500600","新店區"
"231018","107-UY","2017/08/14 13:39:44","新北市新店區百忍街17巷1號","121.534368333333","24.9756216666667","6500600","新店區"
"231011","108-UY","2017/08/14 13:39:52","新北市新店區德正街27巷29弄28號","121.545771666667","24.97229","6500600","新店區"
"231019","187-VK","2017/08/14 13:39:44","新北市新店區永興路125-6號","121.544315","24.9309433333333","6500600","新店區"
"231026","256-BX","2017/08/14 13:39:45","新北市新店區中正路293號","121.537241666667","24.974575","6500600","新店區"
"231010","278-BY","2017/08/14 13:39:50","新北市新店區中正路307巷17號","121.535856666667","24.9736016666667","6500600","新店區"
"231014","AAD-862","2017/08/14 13:39:54","新北市新店區竹林路2巷7號","121.550833333333","24.9518166666667","6500600","新店區"
"231024","3713-VJ","2017/08/14 13:39:44","新北市新店區華興街38巷5號","121.537135","24.9692166666667","6500600","新店區"
"231038","4715-K9","2017/08/14 13:39:48","新北市新店區安華路30巷1號","121.519545","24.959295","6500600","新店區"
"231036","512-UM","2017/08/14 13:39:52","新北市新店區安祥路147巷33號","121.476678333333","24.9568466666667","6500600","新店區"
"231023","513-UM","2017/08/14 13:39:43","新北市新店區新店路157號","121.537046666667","24.95514","6500600","新店區"
"231035","515-UM","2017/08/14 13:39:55","新北市新店區安忠路102巷2號","121.510801666667","24.956405","6500600","新店區"
"231003","616-UM","2017/08/14 13:39:35","新北市新店區北新路一段126巷25號","121.543361666667","24.9697516666667","6500600","新店區"
"231001","619-UM","2017/08/14 13:39:54","新北市新店區中正路374號","121.535123333333","24.9762733333333","6500600","新店區"
"231034","645-TV","2017/08/14 13:39:54","新北市新店區達觀路14巷8號","121.503215","24.9432916666667","6500600","新店區"
"231013","719-UM","2017/08/14 13:39:52","新北市新店區二十張路121號","121.536058333333","24.9795","6500600","新店區"
"231031","720-UM","2017/08/14 13:39:41","新北市新店區莒光路44巷21弄12-1號","121.52096","24.95559","6500600","新店區"
"231005","897-TW","2017/08/14 13:39:42","新北市新店區寶中路45-3號","121.545046666667","24.9791166666667","6500600","新店區"
"231006","898-TW","2017/08/14 13:39:42","新北市新店區北新路一段23號","121.537956666667","24.9591","6500600","新店區"
"231004","899-TW","2017/08/14 13:39:41","新北市新店區北新路二段7號","121.542718333333","24.9713166666667","6500600","新店區"
"231037","AKT-0513","2017/08/14 13:39:48","新北市新店區安康路二段317-1號","121.499268333333","24.9566333333333","6500600","新店區"
"235030","003-UY","2017/08/14 13:39:48","新北市中和區水源路34巷1號","121.504925","25.0034933333333","6500300","中和區"
"235028","005-UY","2017/08/14 13:39:38","新北市中和區連城路89巷7號","121.497125","24.999445","6500300","中和區"
"235027","006-UY","2017/08/14 13:39:41","新北市中和區連城路347巷16弄35號","121.4873","24.995045","6500300","中和區"
"235020","096-UM","2017/08/14 13:39:39","新北市中和區中山路二段596巷42號","121.481741666667","25.0063466666667","6500300","中和區"
"235003","097-UM","2017/08/14 13:39:55","新北市中和區大勇街25巷38弄1號","121.515735","24.9937966666667","6500300","中和區"
"235029","098-UM","2017/08/14 13:39:49","新北市中和區莊敬路49巷29弄2號","121.501193333333","25.0063133333333","6500300","中和區"
"235004","150-BY","2017/08/14 13:39:43","新北市中和區保健路48巷2號","121.509953333333","24.9969733333333","6500300","中和區"
"235022","151-BY","2017/08/14 13:39:45","新北市中和區圓通路447號","121.484906666667","24.9865883333333","6500300","中和區"
"235019","183-VK","2017/08/14 13:39:46","新北市中和區莒光路120巷46號","121.471585","25.0011283333333","6500300","中和區"
"235002","185-VK","2017/08/14 13:39:45","新北市中和區中正路276號","121.49497","24.9938933333333","6500300","中和區"
"235013","186-VK","2017/08/14 13:39:52","新北市中和區景安路153號","121.505483333333","24.9950866666667","6500300","中和區"
"235008","293-VK","2017/08/14 13:39:47","新北市中和區復興路301巷31號","121.502293333333","24.9897166666667","6500300","中和區"
"235036","301-VK","2017/08/14 13:39:51","新北市中和區連城路144巷3弄1號","121.49533","24.9984066666667","6500300","中和區"
"235007","352-BY","2017/08/14 13:39:45","新北市中和區景德街66號","121.517028333333","24.9916716666667","6500300","中和區"
"235015","376-QA","2017/08/14 13:39:48","新北市中和區華新街143巷106弄20號","121.505973333333","24.979035","6500300","中和區"
"235032","377-QA","2017/08/14 13:39:36","新北市中和區中正路271-3號","121.49576","24.9934516666667","6500300","中和區"
"235025","378-QA","2017/08/14 13:39:56","新北市中和區民享街92巷3號","121.474415","24.9997933333333","6500300","中和區"
"235014","4979-A6","2017/08/14 13:39:42","新北市中和區景新街496巷30弄25號","121.512755","24.98558","6500300","中和區"
"235033","4980-A6","2017/08/14 13:39:44","新北市中和區南山路24號","121.501973333333","24.9982516666667","6500300","中和區"
"235006","551-UM","2017/08/14 13:39:49","新北市中和區成功路135號","121.526481666667","24.9906066666667","6500300","中和區"
"235034","558-UM","2017/08/14 13:39:47","新北市中和區南華路36號","121.503508333333","24.9963083333333","6500300","中和區"
"235009","565-BX","2017/08/14 13:39:33","新北市中和區復興路49巷2號","121.504558333333","24.9898316666667","6500300","中和區"
"235018","640-BX","2017/08/14 13:39:48","新北市中和區民享街86巷12號","121.473898333333","25.000845","6500300","中和區"
"235024","647-TV","2017/08/14 13:39:42","新北市中和區員山路483號","121.480085","25.0054983333333","6500300","中和區"
"235011","732-UM","2017/08/14 13:39:42","新北市中和區南山路322號","121.507978333333","24.9864216666667","6500300","中和區"
"235010","733-UM","2017/08/14 13:39:39","新北市中和區捷運路113號","121.507843333333","24.9903866666667","6500300","中和區"
"235062","800-TS","2017/08/14 13:39:44","新北市中和區景平路679號","121.496373333333","25.002835","6500300","中和區"
"235021","801-TS","2017/08/14 13:39:54","新北市中和區民安街42巷24號","121.479613333333","25.0008366666667","6500300","中和區"
"235016","805-TS","2017/08/14 13:39:56","新北市中和區興南路三段21號","121.496773333333","24.9791533333333","6500300","中和區"
"235012","896-TW","2017/08/14 13:39:37","新北市中和區中正路190-1號","121.497923333333","24.99404","6500300","中和區"
"235017","900-TW","2017/08/14 13:39:55","新北市中和區莒光路213號","121.469005","24.9944866666667","6500300","中和區"
"235035","911-UM","2017/08/14 13:39:55","新北市中和區立德街98巷46號","121.487706666667","25.00898","6500300","中和區"
"235001","AAC-213","2017/08/14 13:39:44","新北市中和區景德街71號","121.516673333333","24.99122","6500300","中和區"
"235023","AAC-215","2017/08/14 13:39:40","新北市中和區和城路一段271巷1號","121.485393333333","24.9917966666667","6500300","中和區"
"220016","013-TV","2017/08/14 13:39:51","新北市板橋區民生路二段22號","121.472843333333","25.0166016666667","6500100","板橋區"
"220020","015-TV","2017/08/14 13:39:42","新北市板橋區華東街1-8號","121.44775","24.994805","6500100","板橋區"
"220013","072-UY","2017/08/14 13:39:41","新北市板橋區民生路二段15-1號","121.472701666667","25.0162233333333","6500100","板橋區"
"220034","073-UY","2017/08/14 13:39:53","新北市板橋區南雅西路二段175巷2號","121.451498333333","25.0124866666667","6500100","板橋區"
"220105","075-UY","2017/08/14 13:39:49","新北市板橋區民生路二段120號","121.470373333333","25.01967","6500100","板橋區"
"220017","AAD-861","2017/08/14 13:39:45","新北市板橋區民生路二段30號","121.472816666667","25.0171583333333","6500100","板橋區"
"220045","120-SR","2017/08/14 13:39:36","新北市板橋區民生路二段161巷9號","121.470271666667","25.0196383333333","6500100","板橋區"
"247007","339-TH","2017/08/14 13:39:48","新北市蘆洲區復興路357號","121.487831666667","25.0927416666667","6501400","蘆洲區"
"247013","057-VK","2017/08/14 13:39:35","新北市蘆洲區三民路378號","121.464046666667","25.091645","6501400","蘆洲區"
"247003","056-VK","2017/08/14 13:39:37","新北市五股區中興路二段182巷15弄13號","121.45713","25.0816833333333","6501400","蘆洲區"
"247015","001-UY","2017/08/14 13:39:47","新北市五股區凌雲路一段21號","121.455153333333","25.0976916666667","6501400","蘆洲區"
"241031","251-BX","2017/08/14 05:01:59","新北市石碇區小粗坑(潭邊里)9-2號","121.678858333333","24.9857766666667","6500200","三重區"
"223008","406-TH","2017/08/14 10:41:50","新北市石碇區小粗坑(潭邊里)9-2號","121.678606666667","24.985665","6501900","石碇區"
"253003","4710-YM","2017/08/14 08:00:16","新北市石門區中山路64-1號","121.56747","25.2905316666667","6502200","石門區"
"208004","AAC-292","2017/08/14 13:39:54","新北市金山區南勢湖66號","121.616151666667","25.2148166666667","6502700","金山區"
"207002","749-BX","2017/08/14 13:39:52","新北市萬里區崁腳里崁腳路166號","121.644915","25.1559333333333","6502800","萬里區"
"252005","249-BX","2017/08/14 13:39:39","新北市三芝區圓山里五腳松10號","121.529265","25.2208933333333","6502100","三芝區"
"207001","662-BX","2017/08/14 13:39:51","新北市萬里區磺潭里公館崙35號","121.632365","25.211575","6502800","萬里區"
"236040","107-UM","2017/08/14 13:39:48","新北市土城區城林路6巷80號","121.43851","24.9798016666667","6501300","土城區"
"236074","166-UM","2017/08/14 13:39:32","新北市土城區城林路6巷80號","121.438348333333","24.9797483333333","6501300","土城區"
"236012","270-VK","2017/08/14 13:39:38","新北市土城區城林路6巷80號","121.438421666667","24.9798183333333","6501300","土城區"
"236032","271-VK","2017/08/14 13:39:35","新北市土城區城林路6巷80號","121.438481666667","24.9798233333333","6501300","土城區"
"236005","498-BY","2017/08/14 13:39:50","新北市土城區慶祥街72號","121.436296666667","24.9736516666667","6501300","土城區"
"241031","233-RS","2017/08/14 09:09:31","新北市新莊區環河路48-7號","121.436911666667","25.0098233333333","6500200","三重區"
"221010","269-BY","2017/08/14 13:39:51","新北市汐止區伯爵街14巷14號","121.64377","25.0793933333333","6501100","汐止區"
"221032","280-BY","2017/08/14 13:39:50","新北市汐止區忠孝東路1號","121.657216666667","25.06406","6501100","汐止區"
"221002","753-BX","2017/08/14 13:39:42","新北市汐止區福德二路120號","121.631331666667","25.0654983333333","6501100","汐止區"
"220027","145-BY","2017/08/14 13:39:50","新北市板橋區國光路41號","121.457705","25.0177466666667","6500100","板橋區"
"220037","146-RM","2017/08/14 13:39:51","新北市板橋區民生路二段161巷1號","121.470118333333","25.0199016666667","6500100","板橋區"
"220028","200-UY","2017/08/14 13:39:34","新北市板橋區華東街1-8號","121.447533333333","24.99508","6500100","板橋區"
"220030","610-BX","2017/08/14 13:39:36","新北市板橋區華東街1-8號","121.447621666667","24.9949033333333","6500100","板橋區"
"220050","245-BX","2017/08/12 21:12:11","新北市板橋區民生路二段161巷11號","121.47006","25.019235","6500100","板橋區"
"220004","255-TC","2017/08/12 20:57:31","新北市板橋區民生路二段36-1號","121.472083333333","25.0168883333333","6500100","板橋區"
"220043","267-BY","2017/08/14 13:39:36","新北市板橋區民生路二段161巷1號","121.470141666667","25.0199566666667","6500100","板橋區"
"220019","283-VK","2017/08/14 13:39:54","新北市板橋區民生路二段36-1號","121.47258","25.0168516666667","6500100","板橋區"
"220001","285-VK","2017/08/14 13:39:37","新北市板橋區民生路二段36號","121.472561666667","25.0172216666667","6500100","板橋區"
"220031","286-VK","2017/08/14 13:39:39","新北市板橋區華東街1-9號","121.44822","24.99493","6500100","板橋區"
"220029","287-VK","2017/08/14 13:39:41","新北市板橋區華東街1-8號","121.447673333333","24.9948983333333","6500100","板橋區"
"220039","288-VK","2017/08/14 13:39:50","新北市板橋區民生路二段120號","121.470441666667","25.0196516666667","6500100","板橋區"
"220009","293-UM","2017/08/14 13:39:39","新北市板橋區民生路二段36-1號","121.472626666667","25.0168316666667","6500100","板橋區"
"220032","296-UM","2017/08/14 13:39:40","新北市板橋區華東街1-8號","121.447983333333","24.9948616666667","6500100","板橋區"
"220023","297-UM","2017/08/14 13:39:48","新北市板橋區大觀路2段435-7號","121.447768333333","24.9954566666667","6500100","板橋區"
"220047","299-UM","2017/08/14 13:39:39","新北市板橋區民生路二段120號","121.470616666667","25.0198166666667","6500100","板橋區"
"220010","303-R5","2017/08/14 13:39:50","新北市板橋區民生路二段22號","121.472721666667","25.0165366666667","6500100","板橋區"
"220041","307-R5","2017/08/14 13:39:55","新北市板橋區民生路二段120號","121.470586666667","25.0199","6500100","板橋區"
"220104","560-BX","2017/08/14 13:39:44","新北市板橋區南雅西路二段16號","121.453068333333","25.0093583333333","6500100","板橋區"
"220011","609-BX","2017/08/14 13:39:47","新北市板橋區民生路二段30號","121.472591666667","25.0170983333333","6500100","板橋區"
"220005","686-BX","2017/08/14 13:39:42","新北市板橋區民生路二段22號","121.472755","25.0165633333333","6500100","板橋區"
"220025","687-BX","2017/08/14 13:39:53","新北市板橋區存德街24號","121.429936666667","24.9917833333333","6500100","板橋區"
"220002","741-BX","2017/08/14 13:39:46","新北市板橋區中山路二段89巷7弄15號","121.472673333333","25.0168166666667","6500100","板橋區"
"220051","830-TW","2017/08/14 13:01:54","新北市板橋區民生路二段120號","121.470815","25.0200766666667","6500100","板橋區"
"220022","895-R6","2017/08/14 13:39:35","新北市板橋區南雅南路一段8號","121.455931666667","25.0062333333333","6500100","板橋區"
"220021","985-R7","2017/08/14 13:39:54","新北市板橋區華東街1-10號","121.448803333333","24.9946733333333","6500100","板橋區"
"220046","AAC-210","2017/08/14 13:39:37","新北市板橋區民生路二段161巷3號","121.470191666667","25.01978","6500100","板橋區"
"220001","AAC-253","2017/08/14 13:39:40","新北市板橋區民生路二段36-1號","121.472568333333","25.0166383333333","6500100","板橋區"
