"lineid","car","time","location","longitude","latitude","cityid","cityname"
"234044","148-BY","2017/08/14 13:49:38","新北市永和區永亨路205號","121.526061666667","25.0026583333333","6500400","永和區"
"234012","149-BY","2017/08/14 13:49:46","新北市永和區保安路244號","121.506541666667","25.0128183333333","6500400","永和區"
"234005","207-UY","2017/08/14 13:49:52","新北市中和區中和路456號","121.512111666667","25.00369","6500400","永和區"
"234078","298-R6","2017/08/14 13:49:49","新北市永和區永亨路100號","121.523123333333","25.0049216666667","6500400","永和區"
"234036","336-UY","2017/08/14 13:49:23","新北市永和區成功路二段76號","121.526488333333","24.9991516666667","6500400","永和區"
"234062","337-UY","2017/08/14 13:49:46","新北市永和區中正路368巷53號","121.51923","25.0007183333333","6500400","永和區"
"234084","338-UY","2017/08/14 13:49:46","新北市永和區永亨路157號","121.52588","25.003815","6500400","永和區"
"234068","552-UM","2017/08/14 13:49:43","新北市永和區福和路224號","121.519121666667","25.0079083333333","6500400","永和區"
"234052","553-UM","2017/08/14 13:49:48","新北市永和區竹林路39巷28弄1號","121.51932","25.01487","6500400","永和區"
"234015","745-BX","2017/08/14 13:49:46","新北市永和區文化路33號","121.514761666667","25.0149966666667","6500400","永和區"
"234028","746-BX","2017/08/14 13:49:40","新北市永和區民生路47巷56號","121.525456666667","24.9978083333333","6500400","永和區"
"234060","AAD-866","2017/08/14 13:49:39","新北市永和區中正路163號","121.516593333333","24.9984916666667","6500400","永和區"
"234040","862-TW","2017/08/14 13:49:52","新北市永和區中和路389巷11弄1號","121.508003333333","25.0009483333333","6500400","永和區"
"234048","863-TW","2017/08/14 13:49:51","新北市永和區保福路二段163巷12號","121.508846666667","25.014715","6500400","永和區"
"234010","9373-KE","2017/08/14 13:49:37","新北市永和區保生路55-1號","121.504538333333","25.0108933333333","6500400","永和區"
"248015","026-BX","2017/08/14 13:49:45","新北市五股區凌雲路一段134巷10號","121.449991666667","25.1025266666667","6501500","五股區"
"248007","095-VK","2017/08/14 13:49:47","新北市五股區中興路一段139號","121.465376666667","25.0735033333333","6501500","五股區"
"248019","225-UY","2017/08/14 13:49:39","新北市五股區凌雲路三段39號","121.431791666667","25.1171766666667","6501500","五股區"
"248011","247-BX","2017/08/14 13:49:50","新北市五股區成泰路二段195巷1號","121.440326666667","25.08737","6501500","五股區"
"248013","261-SL","2017/08/14 13:49:49","新北市五股區民義路一段107巷23號","121.432113333333","25.0845483333333","6501500","五股區"
"248009","272-BY","2017/08/14 13:49:41","新北市五股區水碓二路21號","121.429755","25.0721066666667","6501500","五股區"
"248001","655-BX","2017/08/14 13:49:49","新北市五股區凌雲路一段91號","121.450565","25.1014133333333","6501500","五股區"
"248003","677-BX","2017/08/14 13:49:52","新北市五股區民義路二段54-6號","121.407953333333","25.10634","6501500","五股區"
"234022","9380-KE","2017/08/14 13:49:39","新北市永和區永和路二段85號","121.51482","25.0113316666667","6500400","永和區"
"234076","969-R7","2017/08/14 13:49:37","新北市永和區民族街44號","121.518423333333","24.998765","6500400","永和區"
"234072","AAC-211","2017/08/14 13:49:52","新北市永和區豫溪街205號","121.523611666667","25.00979","6500400","永和區"
"234066","AAC-212","2017/08/14 13:49:47","新北市永和區永貞路418-3號","121.50873","25.0080733333333","6500400","永和區"
"234001","AAC-295","2017/08/14 13:49:37","新北市永和區永和路一段83號","121.513211666667","25.007155","6500400","永和區"
"244001","248-BX","2017/08/14 13:49:50","新北市八里區下罟子30-35號","121.367555","25.1351733333333","6501700","林口區"
"244018","837-TS","2017/08/14 08:02:06","新北市林口區粉寮路二段160巷40號","121.405646666667","25.0911833333333","6501700","林口區"
"243005","AAD-798","2017/08/14 13:49:37","新北市泰山區明志路三段206巷3號","121.423328333333","25.03795","6501600","泰山區"
"243007","380-SR","2017/08/14 13:49:43","新北市泰山區美寧街54號","121.430616666667","25.0644966666667","6501600","泰山區"
"243006","421-VK","2017/08/14 13:49:43","新北市泰山區黎明路25號","121.422505","25.0608083333333","6501600","泰山區"
"243002","548-UM","2017/08/14 13:49:51","新北市泰山區明志路一段278號","121.431991666667","25.0600966666667","6501600","泰山區"
"243004","646-TV","2017/08/14 13:49:45","新北市泰山區福興三街13號","121.434396666667","25.0577516666667","6501600","泰山區"
"243008","680-BX","2017/08/14 13:49:43","新北市泰山區明志路二段137號","121.427636666667","25.0507283333333","6501600","泰山區"
"231002","002-UM","2017/08/14 13:49:43","新北市新店區溪園路245-6號","121.525245","24.9831733333333","6500600","新店區"
"231025","0291-UT","2017/08/14 13:49:54","新北市新店區中央六街58號","121.527811666667","24.9757516666667","6500600","新店區"
"231027","0293-UT","2017/08/14 13:49:53","新北市新店區北宜路一段105巷2號","121.53955","24.9555333333333","6500600","新店區"
"231028","046-UY","2017/08/14 13:49:46","新北市新店區安和路三段42號","121.517995","24.9816816666667","6500600","新店區"
"231030","047-UY","2017/08/14 13:49:50","新北市新店區安康路一段222-2號","121.52303","24.963705","6500600","新店區"
"231029","106-UY","2017/08/14 13:49:44","新北市新店區安康路二段125-1號","121.512381666667","24.96091","6500600","新店區"
"231018","107-UY","2017/08/14 13:49:44","新北市新店區中正路400巷4號","121.53478","24.977605","6500600","新店區"
"231011","108-UY","2017/08/14 13:49:46","新北市新店區中興路二段67巷16號","121.546001666667","24.9712016666667","6500600","新店區"
"231019","187-VK","2017/08/14 13:49:44","新北市新店區湖子內路22號","121.542305","24.9308","6500600","新店區"
"231026","256-BX","2017/08/14 13:49:45","新北市新店區三民路159巷19弄46號","121.532223333333","24.97318","6500600","新店區"
"231010","278-BY","2017/08/14 13:49:50","新北市新店區平等街71號","121.535868333333","24.9723333333333","6500600","新店區"
"231014","AAD-862","2017/08/14 13:49:34","新北市新店區竹林路94號","121.553758333333","24.9500633333333","6500600","新店區"
"231024","3713-VJ","2017/08/14 13:49:44","新北市新店區新生街55號","121.538803333333","24.966955","6500600","新店區"
"231038","4715-K9","2017/08/14 13:49:48","新北市新店區安康路一段323-1號","121.521778333333","24.963465","6500600","新店區"
"231036","512-UM","2017/08/14 13:49:52","新北市新店區安祥路108巷51號","121.47442","24.9571266666667","6500600","新店區"
"231023","513-UM","2017/08/14 13:49:43","新北市新店區國校路44號","121.538198333333","24.9542616666667","6500600","新店區"
"231035","515-UM","2017/08/14 13:49:55","新北市新店區安忠路57巷8號","121.513285","24.9591616666667","6500600","新店區"
"231003","616-UM","2017/08/14 13:49:55","新北市新店區中興路一段163號","121.542548333333","24.9641683333333","6500600","新店區"
"231001","619-UM","2017/08/14 13:49:54","新北市新店區三民路86號","121.53443","24.972745","6500600","新店區"
"231034","645-TV","2017/08/14 13:49:54","新北市新店區達觀路16號","121.50314","24.9407766666667","6500600","新店區"
"231013","719-UM","2017/08/14 13:49:49","新北市新店區二十張路25巷18弄2號","121.53923","24.981735","6500600","新店區"
"231031","720-UM","2017/08/14 13:49:41","新北市新店區莒光路44巷21弄11-3號","121.518495","24.9520883333333","6500600","新店區"
"231005","897-TW","2017/08/14 13:49:42","新北市新店區寶中路120號","121.550113333333","24.9788133333333","6500600","新店區"
"231006","898-TW","2017/08/14 13:49:42","新北市新店區北宜路一段123-1號","121.540618333333","24.9535766666667","6500600","新店區"
"231004","899-TW","2017/08/14 13:49:41","新北市新店區寶橋路98號","121.546953333333","24.9760616666667","6500600","新店區"
"231037","AKT-0513","2017/08/14 13:49:48","新北市新店區安康路三段355巷1號","121.484386666667","24.950725","6500600","新店區"
"235030","003-UY","2017/08/14 13:49:48","新北市中和區中山路二段131巷33號","121.50385","25.0027983333333","6500300","中和區"
"235028","005-UY","2017/08/14 13:49:47","新北市中和區景平路591-1號","121.497166666667","25.0003383333333","6500300","中和區"
"235027","006-UY","2017/08/14 13:49:41","新北市中和區連城路319巷11弄12號","121.48973","24.9949483333333","6500300","中和區"
"235020","096-UM","2017/08/14 13:49:39","新北市中和區中正路1192號","121.480571666667","25.0105083333333","6500300","中和區"
"235003","097-UM","2017/08/14 13:49:35","新北市中和區大勇街29巷8號","121.516006666667","24.9944183333333","6500300","中和區"
"235029","098-UM","2017/08/14 13:49:49","新北市中和區中山路二段2巷45弄12號","121.502048333333","25.0068333333333","6500300","中和區"
"235004","150-BY","2017/08/14 13:49:43","新北市中和區宜安路117號","121.510036666667","24.997835","6500300","中和區"
"235022","151-BY","2017/08/14 13:49:45","新北市中和區連城路518巷2號","121.476601666667","24.992565","6500300","中和區"
"235019","183-VK","2017/08/14 13:49:46","新北市中和區德光路77巷6弄1號","121.46986","25.0033533333333","6500300","中和區"
"235002","185-VK","2017/08/14 13:49:45","新北市永和區民生路67巷45號","121.525163333333","24.9975116666667","6500300","中和區"
"235013","186-VK","2017/08/14 13:49:52","新北市中和區景安路173號","121.50524","24.9943816666667","6500300","中和區"
"235008","293-VK","2017/08/14 13:49:47","新北市中和區復興路280巷18弄6號","121.502233333333","24.991675","6500300","中和區"
"235036","301-VK","2017/08/14 13:49:51","新北市中和區永和路6號","121.499945","25.0028033333333","6500300","中和區"
"235007","352-BY","2017/08/14 13:49:45","新北市中和區成功路139號","121.525911666667","24.9903066666667","6500300","中和區"
"235015","376-QA","2017/08/14 13:49:48","新北市中和區華新街109巷11弄3-10號","121.50885","24.9796466666667","6500300","中和區"
"235032","377-QA","2017/08/14 13:49:36","新北市中和區中正路167巷31號","121.499123333333","24.9925133333333","6500300","中和區"
"235025","378-QA","2017/08/14 13:49:36","新北市中和區民享街54巷10號","121.473508333333","25.002395","6500300","中和區"
"235014","4979-A6","2017/08/14 13:49:42","新北市中和區忠孝街58巷25號","121.512586666667","24.982915","6500300","中和區"
"235033","4980-A6","2017/08/14 13:49:47","新北市中和區圓通路109號","121.499458333333","24.99656","6500300","中和區"
"235006","551-UM","2017/08/14 13:49:49","新北市中和區成功路84號","121.525978333333","24.9915833333333","6500300","中和區"
"235034","558-UM","2017/08/14 13:49:47","新北市中和區南華路53號","121.503975","24.9970733333333","6500300","中和區"
"235009","565-BX","2017/08/14 13:49:53","新北市中和區復興路12號","121.505898333333","24.9898583333333","6500300","中和區"
"235018","640-BX","2017/08/14 13:49:48","新北市中和區莒光路129巷1弄10號","121.473036666667","25.0023166666667","6500300","中和區"
"235024","647-TV","2017/08/14 13:49:42","新北市中和區中山路三段32號","121.478996666667","25.0060333333333","6500300","中和區"
"235011","732-UM","2017/08/14 13:49:41","新北市中和區興南路二段34巷55號","121.504983333333","24.9864316666667","6500300","中和區"
"235010","733-UM","2017/08/14 13:49:39","新北市中和區仁愛街36巷44號","121.511333333333","24.9862716666667","6500300","中和區"
"235062","800-TS","2017/08/14 13:49:44","新北市中和區中山路二段312巷41號","121.495088333333","25.0041383333333","6500300","中和區"
"235021","801-TS","2017/08/14 13:49:43","新北市中和區員山路327巷46號","121.480426666667","25.001675","6500300","中和區"
"235016","805-TS","2017/08/14 13:49:36","新北市中和區興南路三段20巷4號","121.497206666667","24.9795316666667","6500300","中和區"
"235012","896-TW","2017/08/14 13:49:37","新北市中和區南山路291號","121.504406666667","24.9919833333333","6500300","中和區"
"235017","900-TW","2017/08/14 13:49:55","新北市中和區華福街31號","121.466096666667","24.996795","6500300","中和區"
"235035","911-UM","2017/08/14 13:49:51","新北市中和區中山路二段482巷31號","121.48985","25.0067666666667","6500300","中和區"
"235001","AAC-213","2017/08/14 13:49:44","新北市中和區大智街21號","121.51995","24.99198","6500300","中和區"
"235023","AAC-215","2017/08/14 13:49:40","新北市中和區圓通路395號","121.489608333333","24.9892316666667","6500300","中和區"
"220016","013-TV","2017/08/14 13:49:51","新北市板橋區民生路二段36-1號","121.472583333333","25.0167116666667","6500100","板橋區"
"220020","015-TV","2017/08/14 13:49:42","新北市板橋區金門街31巷24號","121.434133333333","24.9938416666667","6500100","板橋區"
"220013","072-UY","2017/08/14 13:49:41","新北市板橋區民生路二段15-1號","121.472755","25.01645","6500100","板橋區"
"220034","073-UY","2017/08/14 13:49:53","新北市板橋區南雅西路二段180巷15號","121.452725","25.0139433333333","6500100","板橋區"
"220105","075-UY","2017/08/14 13:49:48","新北市板橋區民生路二段120號","121.470375","25.0196533333333","6500100","板橋區"
"220017","AAD-861","2017/08/14 13:49:45","新北市板橋區民生路二段17號","121.47259","25.01617","6500100","板橋區"
"220045","120-SR","2017/08/14 13:49:36","新北市板橋區民生路二段120號","121.470318333333","25.0196716666667","6500100","板橋區"
"247007","339-TH","2017/08/14 13:49:48","新北市蘆洲區集賢路326號","121.481281666667","25.0846833333333","6501400","蘆洲區"
"247005","335-TH","2017/08/14 13:49:37","新北市蘆洲區中山二路256號","121.469255","25.0789816666667","6501400","蘆洲區"
"247013","057-VK","2017/08/14 13:49:55","新北市蘆洲區中正路112巷3號","121.469971666667","25.0847083333333","6501400","蘆洲區"
"247003","056-VK","2017/08/14 13:49:37","新北市蘆洲區中原路21巷5號","121.46086","25.0824766666667","6501400","蘆洲區"
"247015","001-UY","2017/08/14 13:49:47","新北市蘆洲區光華路29號","121.469223333333","25.083155","6501400","蘆洲區"
"241031","251-BX","2017/08/14 05:01:59","新北市石碇區小粗坑(潭邊里)9-2號","121.678858333333","24.9857766666667","6500200","三重區"
"223008","406-TH","2017/08/14 10:41:50","新北市石碇區小粗坑(潭邊里)9-2號","121.678606666667","24.985665","6501900","石碇區"
"253003","4710-YM","2017/08/14 08:00:16","新北市石門區中山路64-1號","121.56747","25.2905316666667","6502200","石門區"
"208004","AAC-292","2017/08/14 13:49:38","新北市金山區重和里三重橋4號","121.5949","25.19656","6502700","金山區"
"207002","749-BX","2017/08/14 13:49:52","新北市萬里區崁腳里崁腳路168號","121.64469","25.1547883333333","6502800","萬里區"
"252005","249-BX","2017/08/14 13:49:39","新北市三芝區圓山里內柑宅22-2號","121.537551666667","25.21837","6502100","三芝區"
"207001","662-BX","2017/08/14 13:49:51","新北市萬里區磺潭里公館崙58號","121.628663333333","25.205745","6502800","萬里區"
"236064","105-UM","2017/08/14 13:49:40","新北市土城區城林路6巷80號","121.438321666667","24.9797216666667","6501300","土城區"
"236040","107-UM","2017/08/14 13:49:48","新北市土城區中央路一段299號","121.443978333333","24.9836716666667","6501300","土城區"
"236074","166-UM","2017/08/14 13:49:52","新北市土城區中央路三段42號","121.437593333333","24.96827","6501300","土城區"
"236024","269-VK","2017/08/14 13:49:44","新北市土城區中華路二段127號","121.438928333333","24.9765233333333","6501300","土城區"
"236012","270-VK","2017/08/14 13:49:38","新北市土城區城林路6巷80號","121.438426666667","24.9798166666667","6501300","土城區"
"236032","271-VK","2017/08/14 13:49:55","新北市土城區城林路6巷80號","121.438346666667","24.979775","6501300","土城區"
"236016","401-BY","2017/08/14 13:49:43","新北市土城區城林路6巷80號","121.438595","24.9797716666667","6501300","土城區"
"236005","498-BY","2017/08/14 13:49:50","新北市土城區中華路二段61號","121.43941","24.978605","6501300","土城區"
"236056","912-UM","2017/08/14 13:49:55","新北市土城區城林路6巷80號","121.438358333333","24.9797383333333","6501300","土城區"
"236044","913-UM","2017/08/14 13:49:44","新北市土城區城林路6巷80號","121.438503333333","24.979795","6501300","土城區"
"236052","AAC-216","2017/08/14 13:49:40","新北市土城區城林路6巷80號","121.438386666667","24.9798333333333","6501300","土城區"
"241031","233-RS","2017/08/14 09:09:31","新北市新莊區環河路48-7號","121.436911666667","25.0098233333333","6500200","三重區"
"221010","269-BY","2017/08/14 13:49:51","新北市汐止區八連路二段329巷132號","121.62441","25.1031316666667","6501100","汐止區"
"221032","280-BY","2017/08/14 13:49:50","新北市汐止區龍安路28巷8號","121.65494","25.0643683333333","6501100","汐止區"
"221002","753-BX","2017/08/14 13:49:42","新北市汐止區福德二路77-2號","121.633223333333","25.065885","6501100","汐止區"
"220027","145-BY","2017/08/14 13:49:50","新北市板橋區中正路15號","121.456113333333","25.0123133333333","6500100","板橋區"
"220037","146-RM","2017/08/14 13:47:51","新北市板橋區民生路二段161巷1號","121.470135","25.0199183333333","6500100","板橋區"
"220028","200-UY","2017/08/14 13:49:54","新北市板橋區大觀路二段265巷66弄24號","121.441686666667","24.9969966666667","6500100","板橋區"
"220030","610-BX","2017/08/14 13:49:56","新北市板橋區篤行路二段153號","121.429578333333","24.9879866666667","6500100","板橋區"
"220050","245-BX","2017/08/12 21:12:11","新北市板橋區民生路二段161巷11號","121.47006","25.019235","6500100","板橋區"
"220004","255-TC","2017/08/12 20:57:31","新北市板橋區民生路二段36-1號","121.472083333333","25.0168883333333","6500100","板橋區"
"220052","257-TC","2017/08/14 13:49:42","新北市板橋區民生路二段161巷9號","121.470318333333","25.0196483333333","6500100","板橋區"
"220043","267-BY","2017/08/14 13:49:36","新北市板橋區民生路二段161巷1號","121.470121666667","25.0199483333333","6500100","板橋區"
"220019","283-VK","2017/08/14 13:49:34","新北市板橋區民生路二段36-1號","121.47208","25.0168833333333","6500100","板橋區"
"220001","285-VK","2017/08/14 13:49:37","新北市板橋區民生路二段56-1號","121.472438333333","25.0169516666667","6500100","板橋區"
"220031","286-VK","2017/08/14 13:49:50","新北市板橋區大觀路二段22巷30號","121.44516","25.0036183333333","6500100","板橋區"
"220029","287-VK","2017/08/14 13:49:41","新北市板橋區南雅西路二段167號","121.452003333333","25.012365","6500100","板橋區"
"220039","288-VK","2017/08/14 13:49:50","新北市板橋區民生路二段161巷9號","121.470281666667","25.019625","6500100","板橋區"
"220009","293-UM","2017/08/14 13:49:39","新北市板橋區民生路二段36號","121.472491666667","25.0173833333333","6500100","板橋區"
"220003","295-UM","2017/08/14 13:49:43","新北市板橋區民生路二段36-1號","121.472613333333","25.0165833333333","6500100","板橋區"
"220032","296-UM","2017/08/14 13:49:40","新北市板橋區大觀路二段174巷102弄19號","121.441646666667","25.00124","6500100","板橋區"
"220023","297-UM","2017/08/14 13:49:48","新北市板橋區大觀路一段11號","121.450426666667","25.0084733333333","6500100","板橋區"
"220047","299-UM","2017/08/14 13:49:39","新北市板橋區民生路二段120號","121.470426666667","25.0197033333333","6500100","板橋區"
"220010","303-R5","2017/08/14 13:49:50","新北市板橋區民生路二段36-1號","121.472335","25.0168966666667","6500100","板橋區"
"220041","307-R5","2017/08/14 13:49:34","新北市板橋區民生路二段120號","121.470536666667","25.0197016666667","6500100","板橋區"
"220012","486-VK","2017/08/14 02:16:52","新北市板橋區民生路二段36-1號","121.472588333333","25.0165766666667","6500100","板橋區"
"220038","487-VK","2017/08/14 13:49:46","新北市板橋區民生路二段120號","121.470646666667","25.01965","6500100","板橋區"
"220104","560-BX","2017/08/14 13:49:47","新北市板橋區中正路325巷3弄3-1號","121.453681666667","25.0190516666667","6500100","板橋區"
"220011","609-BX","2017/08/14 13:49:47","新北市板橋區民生路二段15號","121.47267","25.0160533333333","6500100","板橋區"
"220040","637-BX","2017/08/14 13:49:48","新北市板橋區莊敬路208巷8弄9號","121.470838333333","25.0204966666667","6500100","板橋區"
"220005","686-BX","2017/08/14 13:49:42","新北市板橋區民生路二段22號","121.472711666667","25.016585","6500100","板橋區"
"220025","687-BX","2017/08/14 13:49:53","新北市板橋區金門街92-2號","121.433075","24.9925916666667","6500100","板橋區"
"220042","689-BX","2017/08/14 13:49:51","新北市板橋區民生路二段120號","121.470466666667","25.0194933333333","6500100","板橋區"
"220002","741-BX","2017/08/14 13:49:46","新北市板橋區民生路二段56-1號","121.472485","25.0169416666667","6500100","板橋區"
"220014","829-TW","2017/08/14 13:49:47","新北市板橋區民生路二段36-1號","121.47255","25.0168666666667","6500100","板橋區"
"220051","830-TW","2017/08/14 13:01:54","新北市板橋區民生路二段120號","121.470815","25.0200766666667","6500100","板橋區"
"220022","895-R6","2017/08/14 13:49:35","新北市板橋區府中路67號","121.458126666667","25.0094616666667","6500100","板橋區"
"220021","985-R7","2017/08/14 13:49:51","新北市板橋區館前西路66號","121.457791666667","25.007135","6500100","板橋區"
"220046","AAC-210","2017/08/14 13:49:37","新北市板橋區民生路二段161巷5號","121.470253333333","25.0197683333333","6500100","板橋區"
"220001","AAC-253","2017/08/14 13:49:40","新北市板橋區民生路二段36-1號","121.472225","25.016855","6500100","板橋區"
