"lineid","car","time","location","longitude","latitude","cityid","cityname"
"234044","148-BY","2017/08/14 13:59:38","新北市永和區永元路124號","121.522725","25.0028716666667","6500400","永和區"
"234012","149-BY","2017/08/14 13:59:46","新北市永和區仁愛路289號","121.505381666667","25.009385","6500400","永和區"
"234005","207-UY","2017/08/14 13:59:35","新北市永和區中和路453號","121.510033333333","25.0014866666667","6500400","永和區"
"234078","298-R6","2017/08/14 13:59:54","新北市永和區國中路8號","121.524243333333","25.0047333333333","6500400","永和區"
"234036","336-UY","2017/08/14 13:59:44","新北市永和區成功路二段80號","121.526601666667","24.998885","6500400","永和區"
"234062","337-UY","2017/08/14 13:59:46","新北市永和區秀朗路一段196巷8號","121.519603333333","25.0025966666667","6500400","永和區"
"234084","338-UY","2017/08/14 13:59:46","新北市永和區福和路266號","121.518095","25.0075683333333","6500400","永和區"
"234068","552-UM","2017/08/14 13:59:43","新北市永和區永亨路49號","121.520246666667","25.0063583333333","6500400","永和區"
"234052","553-UM","2017/08/14 13:59:48","新北市永和區竹林路41號","121.51806","25.0142516666667","6500400","永和區"
"234015","745-BX","2017/08/14 13:59:45","新北市永和區文化路92號","121.51379","25.0152966666667","6500400","永和區"
"234028","746-BX","2017/08/14 13:59:40","新北市永和區民權路51號","121.520003333333","24.9970433333333","6500400","永和區"
"234060","AAD-866","2017/08/14 13:59:39","新北市永和區中正路334號","121.51761","24.9999483333333","6500400","永和區"
"234040","862-TW","2017/08/14 13:59:52","新北市永和區中和路421巷5弄5號","121.508616666667","25.0009166666667","6500400","永和區"
"234048","863-TW","2017/08/14 13:59:31","新北市永和區保安路264號","121.505916666667","25.0122516666667","6500400","永和區"
"234010","9373-KE","2017/08/14 13:59:57","新北市永和區仁愛路352巷94號","121.501166666667","25.0080033333333","6500400","永和區"
"248015","026-BX","2017/08/14 13:59:39","新北市五股區成泰路三段559巷14弄2號","121.451345","25.1024333333333","6501500","五股區"
"248007","095-VK","2017/08/14 13:59:47","新北市五股區中興路一段118巷6弄7號","121.466255","25.0744566666667","6501500","五股區"
"248019","225-UY","2017/08/14 13:59:39","新北市五股區凌雲路三段85-3號","121.423138333333","25.12444","6501500","五股區"
"248011","247-BX","2017/08/14 13:59:50","新北市五股區成泰路二段195巷1號","121.440331666667","25.0873683333333","6501500","五股區"
"248013","261-SL","2017/08/14 13:59:49","新北市五股區民義路一段107巷32號","121.432461666667","25.0846466666667","6501500","五股區"
"248009","272-BY","2017/08/14 13:59:41","新北市五股區水碓一路23號","121.430628333333","25.0713033333333","6501500","五股區"
"248001","655-BX","2017/08/14 13:59:51","新北市五股區成泰路三段577巷124號","121.448483333333","25.1041883333333","6501500","五股區"
"248003","677-BX","2017/08/14 13:59:52","新北市五股區民義路一段215號","121.430235","25.0891716666667","6501500","五股區"
"234022","9380-KE","2017/08/14 13:59:39","新北市永和區永和路二段259號","121.515928333333","25.01538","6500400","永和區"
"234076","969-R7","2017/08/14 13:59:37","新北市永和區民治街60號","121.518195","24.9978716666667","6500400","永和區"
"234072","AAC-211","2017/08/14 13:59:51","新北市永和區竹林路179巷38號","121.522091666667","25.0100883333333","6500400","永和區"
"234066","AAC-212","2017/08/14 13:59:47","新北市永和區永貞路335號","121.509573333333","25.007105","6500400","永和區"
"234001","AAC-295","2017/08/14 13:59:57","新北市永和區福和路310號","121.516301666667","25.00734","6500400","永和區"
"244018","837-TS","2017/08/14 08:02:06","新北市林口區粉寮路二段160巷40號","121.405646666667","25.0911833333333","6501700","林口區"
"243005","AAD-798","2017/08/14 13:59:37","新北市泰山區明志路三段243號","121.423526666667","25.037695","6501600","泰山區"
"243007","380-SR","2017/08/14 13:59:44","新北市泰山區明志路一段222號","121.43255","25.06141","6501600","泰山區"
"243006","421-VK","2017/08/14 13:59:43","新北市泰山區黎明路2-5號","121.420863333333","25.0626316666667","6501600","泰山區"
"243002","548-UM","2017/08/14 13:59:51","新北市泰山區辭修路22號","121.429121666667","25.05818","6501600","泰山區"
"243003","549-UM","2017/08/14 13:59:34","新北市泰山區明志路二段320巷2弄7號","121.426076666667","25.0466116666667","6501600","泰山區"
"243004","646-TV","2017/08/14 13:59:25","新北市泰山區仁德路114號","121.432766666667","25.0570316666667","6501600","泰山區"
"243008","680-BX","2017/08/14 13:59:43","新北市泰山區明志路二段211號","121.4275","25.0485983333333","6501600","泰山區"
"231002","002-UM","2017/08/14 13:59:42","新北市新店區中正路643號","121.533906666667","24.9895766666667","6500600","新店區"
"231025","0291-UT","2017/08/14 13:59:34","新北市新店區中正路347號","121.535405","24.9757366666667","6500600","新店區"
"231027","0293-UT","2017/08/14 13:59:52","新北市新店區北宜路一段39巷20號","121.53879","24.9582833333333","6500600","新店區"
"231028","046-UY","2017/08/14 13:59:46","新北市新店區安和路三段83號","121.517886666667","24.98381","6500600","新店區"
"231030","047-UY","2017/08/14 13:59:50","新北市新店區安興路7-1號","121.514941666667","24.9685","6500600","新店區"
"231029","106-UY","2017/08/14 13:59:44","新北市新店區安康路二段12號","121.516233333333","24.963785","6500600","新店區"
"231018","107-UY","2017/08/14 13:59:44","新北市新店區中央路116號","121.531096666667","24.97517","6500600","新店區"
"231011","108-UY","2017/08/14 13:59:46","新北市新店區中興路二段79巷14號","121.546311666667","24.97144","6500600","新店區"
"231019","187-VK","2017/08/14 13:59:44","新北市新店區新烏路二段50巷1號","121.547368333333","24.9278383333333","6500600","新店區"
"231026","256-BX","2017/08/14 13:59:45","新北市新店區安康路一段266巷4號","121.520028333333","24.9639883333333","6500600","新店區"
"231014","AAD-862","2017/08/14 13:59:54","新北市新店區郵政路81號","121.555206666667","24.9515766666667","6500600","新店區"
"231024","3713-VJ","2017/08/14 13:59:44","新北市新店區新生街13巷42-1號","121.538853333333","24.9665","6500600","新店區"
"231038","4715-K9","2017/08/14 13:59:48","新北市新店區溪洲路121號","121.531188333333","24.962785","6500600","新店區"
"231036","512-UM","2017/08/14 13:59:52","新北市新店區安祥路109巷3弄22號","121.475938333333","24.96007","6500600","新店區"
"231023","513-UM","2017/08/14 13:59:43","新北市新店區文中路40號","121.539796666667","24.9565416666667","6500600","新店區"
"231035","515-UM","2017/08/14 13:59:35","新北市新店區安和路一段52巷2號","121.517615","24.9662333333333","6500600","新店區"
"231003","616-UM","2017/08/14 13:59:55","新北市新店區北宜路一段3號","121.538406666667","24.9585783333333","6500600","新店區"
"231001","619-UM","2017/08/14 13:59:54","新北市新店區三民路24號","121.537165","24.9709783333333","6500600","新店區"
"231034","645-TV","2017/08/14 13:59:34","新北市新店區達觀路12號","121.504976666667","24.9411283333333","6500600","新店區"
"231013","719-UM","2017/08/14 13:59:49","新北市新店區明德路111號","121.541476666667","24.97946","6500600","新店區"
"231031","720-UM","2017/08/14 13:59:41","新北市新店區華城路2號","121.53057","24.9606283333333","6500600","新店區"
"231005","897-TW","2017/08/14 13:59:22","新北市新店區中興路三段173號","121.544171666667","24.980705","6500600","新店區"
"231006","898-TW","2017/08/14 13:59:42","新北市新店區北宜路二段209號","121.553181666667","24.9533516666667","6500600","新店區"
"231004","899-TW","2017/08/14 13:59:41","新北市新店區寶橋路15號","121.543815","24.97389","6500600","新店區"
"231037","AKT-0513","2017/08/14 13:59:48","新北市新店區安康路三段165巷2弄29號","121.48793","24.951345","6500600","新店區"
"235030","003-UY","2017/08/14 13:59:48","新北市中和區水源路6巷14號","121.50335","25.0032733333333","6500300","中和區"
"235028","005-UY","2017/08/14 13:59:38","新北市中和區泰和街9號","121.499653333333","25.0004666666667","6500300","中和區"
"235027","006-UY","2017/08/14 13:59:41","新北市中和區中正路518號","121.488213333333","24.994435","6500300","中和區"
"235020","096-UM","2017/08/14 13:59:39","新北市中和區員山路506巷5弄12號","121.480493333333","25.0091566666667","6500300","中和區"
"235003","097-UM","2017/08/14 13:59:55","新北市中和區景平路64巷15號","121.522113333333","24.9914033333333","6500300","中和區"
"235029","098-UM","2017/08/14 13:59:49","新北市中和區勝利路35巷2號","121.498803333333","25.00786","6500300","中和區"
"235004","150-BY","2017/08/14 13:59:42","新北市中和區保健路46巷20弄8號","121.50865","24.99634","6500300","中和區"
"235022","151-BY","2017/08/14 13:59:45","新北市中和區連城路569巷9弄7號","121.479575","24.994195","6500300","中和區"
"235019","183-VK","2017/08/14 13:59:46","新北市中和區民生街28巷13號","121.469643333333","25.00589","6500300","中和區"
"235002","185-VK","2017/08/14 13:59:45","新北市中和區景平路116號","121.519486666667","24.9917866666667","6500300","中和區"
"235013","186-VK","2017/08/14 13:59:52","新北市中和區景安路167巷25號","121.50669","24.99492","6500300","中和區"
"235008","293-VK","2017/08/14 13:59:47","新北市中和區中興街169號","121.499881666667","24.9904216666667","6500300","中和區"
"235036","301-VK","2017/08/14 13:59:51","新北市中和區中山路二段7號","121.5053","25.005685","6500300","中和區"
"235007","352-BY","2017/08/14 13:59:45","新北市中和區成功路1號","121.52639","24.9943466666667","6500300","中和區"
"235015","376-QA","2017/08/14 13:59:28","新北市中和區忠孝街5巷2號","121.50979","24.9830233333333","6500300","中和區"
"235032","377-QA","2017/08/14 13:59:16","新北市中和區中正路211巷36弄8號","121.49712","24.9926666666667","6500300","中和區"
"235025","378-QA","2017/08/14 13:59:36","新北市中和區民治街130巷8號","121.474906666667","25.00261","6500300","中和區"
"235014","4979-A6","2017/08/14 13:59:42","新北市中和區華新街2-6號","121.507446666667","24.985145","6500300","中和區"
"235033","4980-A6","2017/08/14 13:59:44","新北市中和區中和路217巷1弄9號","121.503771666667","25.0003866666667","6500300","中和區"
"235006","551-UM","2017/08/14 13:59:49","新北市中和區秀朗路三段78巷1弄4號","121.525556666667","24.993815","6500300","中和區"
"235034","558-UM","2017/08/14 13:59:27","新北市中和區南山路41號","121.502056666667","24.9986033333333","6500300","中和區"
"235009","565-BX","2017/08/14 13:59:53","新北市中和區景新街467巷3號","121.513635","24.9881966666667","6500300","中和區"
"235018","640-BX","2017/08/14 13:59:52","新北市中和區民享街6-4號","121.47396","25.004525","6500300","中和區"
"235024","647-TV","2017/08/14 13:59:42","新北市中和區中山路三段148號","121.473553333333","25.006265","6500300","中和區"
"235011","732-UM","2017/08/14 13:59:41","新北市中和區興南路二段77號","121.506605","24.985055","6500300","中和區"
"235010","733-UM","2017/08/14 13:59:39","新北市中和區興南路二段3巷13號","121.508271666667","24.986175","6500300","中和區"
"235062","800-TS","2017/08/14 13:59:44","新北市中和區中山路二段340巷29號","121.493311666667","25.003475","6500300","中和區"
"235021","801-TS","2017/08/14 13:59:54","新北市中和區民安街25巷10號","121.480563333333","24.9999883333333","6500300","中和區"
"235016","805-TS","2017/08/14 13:59:56","新北市中和區興南路二段131-10號","121.504028333333","24.9807416666667","6500300","中和區"
"235012","896-TW","2017/08/14 13:59:37","新北市中和區南山路306號","121.50777","24.98699","6500300","中和區"
"235017","900-TW","2017/08/14 13:59:55","新北市中和區華順街142號","121.464758333333","24.9957066666667","6500300","中和區"
"235035","911-UM","2017/08/14 13:59:55","新北市中和區立德街112號","121.487366666667","25.0086016666667","6500300","中和區"
"235001","AAC-213","2017/08/14 13:59:44","新北市中和區自立路99巷36弄18號","121.523938333333","24.993985","6500300","中和區"
"235023","AAC-215","2017/08/14 13:59:40","新北市中和區圓通路369巷33弄7號","121.491193333333","24.988045","6500300","中和區"
"220016","013-TV","2017/08/14 13:59:52","新北市板橋區中山路二段443巷54號","121.48108","25.0216166666667","6500100","板橋區"
"220020","015-TV","2017/08/14 13:59:41","新北市板橋區大觀路三段36巷5-3號","121.432985","24.9958816666667","6500100","板橋區"
"220013","072-UY","2017/08/14 13:59:41","新北市板橋區民族路247巷9弄4號","121.471216666667","25.0079766666667","6500100","板橋區"
"220034","073-UY","2017/08/14 13:59:53","新北市板橋區大智街22號","121.455691666667","25.0148933333333","6500100","板橋區"
"220105","075-UY","2017/08/14 13:59:48","新北市板橋區文化路二段124巷30號","121.471323333333","25.02555","6500100","板橋區"
"220017","AAD-861","2017/08/14 13:59:45","新北市板橋區大華街35號","121.45917","25.0058","6500100","板橋區"
"220045","120-SR","2017/08/14 13:59:56","新北市板橋區莒光路75號","121.471635","25.0241716666667","6500100","板橋區"
"247019","893-R6","2017/08/14 13:59:51","新北市蘆洲區民族路422巷37號","121.473455","25.093645","6501400","蘆洲區"
"247009","546-UM","2017/08/14 13:59:45","新北市蘆洲區集賢路224巷24號","121.4817","25.0872566666667","6501400","蘆洲區"
"247017","500-BY","2017/08/14 13:59:41","新北市蘆洲區民族路257巷17號","121.475136666667","25.0902916666667","6501400","蘆洲區"
"247007","339-TH","2017/08/14 13:59:48","新北市三重區國道路一段139號","121.475665","25.0737916666667","6501400","蘆洲區"
"247001","336-TH","2017/08/14 13:59:45","新北市蘆洲區永平街32巷72號","121.460461666667","25.0934816666667","6501400","蘆洲區"
"247005","335-TH","2017/08/14 13:59:37","新北市蘆洲區永安南路二段72-1號","121.464748333333","25.0781883333333","6501400","蘆洲區"
"247013","057-VK","2017/08/14 13:59:35","新北市蘆洲區中正路156-2號","121.468938333333","25.0855483333333","6501400","蘆洲區"
"247003","056-VK","2017/08/14 13:59:37","新北市蘆洲區長榮路1號","121.46384","25.0820066666667","6501400","蘆洲區"
"247011","007-UY","2017/08/14 13:59:50","新北市蘆洲區民族路158號","121.47967","25.0862","6501400","蘆洲區"
"247015","001-UY","2017/08/14 13:59:47","新北市蘆洲區光華路22巷4號","121.4694","25.0835883333333","6501400","蘆洲區"
"241031","251-BX","2017/08/14 05:01:59","新北市石碇區小粗坑(潭邊里)9-2號","121.678858333333","24.9857766666667","6500200","三重區"
"223008","406-TH","2017/08/14 10:41:50","新北市石碇區小粗坑(潭邊里)9-2號","121.678606666667","24.985665","6501900","石碇區"
"253003","4710-YM","2017/08/14 08:00:16","新北市石門區中山路64-1號","121.56747","25.2905316666667","6502200","石門區"
"208004","AAC-292","2017/08/14 13:59:34","新北市金山區重和里三重橋21號","121.584325","25.1843116666667","6502700","金山區"
"207002","749-BX","2017/08/14 13:59:32","新北市萬里區溪底里富士坪路1-2號","121.63039","25.1498483333333","6502800","萬里區"
"252005","249-BX","2017/08/14 13:57:59","新北市三芝區圓山里二坪頂67號","121.53978","25.2330233333333","6502100","三芝區"
"207001","662-BX","2017/08/14 13:59:51","新北市萬里區磺潭里清水18號","121.63779","25.197755","6502800","萬里區"
"236064","105-UM","2017/08/14 13:59:40","新北市土城區城林路6巷80號","121.438563333333","24.9796766666667","6501300","土城區"
"236040","107-UM","2017/08/14 13:59:48","新北市土城區裕生路61號","121.44761","24.9860366666667","6501300","土城區"
"236074","166-UM","2017/08/14 13:59:52","新北市土城區永寧路32巷10弄3號","121.428848333333","24.9610116666667","6501300","土城區"
"236028","253-BX","2017/08/14 13:59:44","新北市土城區城林路6巷80號","121.438455","24.9797283333333","6501300","土城區"
"236024","269-VK","2017/08/14 13:59:44","新北市土城區承天路67號","121.439633333333","24.9634283333333","6501300","土城區"
"236012","270-VK","2017/08/14 13:59:38","新北市土城區城林路6巷80號","121.438416666667","24.9798316666667","6501300","土城區"
"236032","271-VK","2017/08/14 13:59:35","新北市土城區城林路6巷80號","121.438211666667","24.979795","6501300","土城區"
"236016","401-BY","2017/08/14 13:59:43","新北市土城區城林路6巷80號","121.438585","24.97976","6501300","土城區"
"236005","498-BY","2017/08/14 13:59:50","新北市土城區中央路一段363號","121.443221666667","24.9809616666667","6501300","土城區"
"236056","912-UM","2017/08/14 13:59:35","新北市土城區中央路三段185號","121.431045","24.9648783333333","6501300","土城區"
"236044","913-UM","2017/08/14 13:59:04","新北市土城區城林路6巷80號","121.43844","24.9798183333333","6501300","土城區"
"236060","915-UM","2017/08/14 13:59:55","新北市土城區城林路6巷80號","121.438353333333","24.9797766666667","6501300","土城區"
"236052","AAC-216","2017/08/14 13:59:40","新北市土城區城林路6巷80號","121.43839","24.9798483333333","6501300","土城區"
"241031","233-RS","2017/08/14 09:09:31","新北市新莊區環河路48-7號","121.436911666667","25.0098233333333","6500200","三重區"
"221010","269-BY","2017/08/14 13:59:51","新北市汐止區長青路131巷2弄4號","121.605143333333","25.109875","6501100","汐止區"
"221032","280-BY","2017/08/14 13:59:50","新北市汐止區光復街7巷9號","121.63973","25.0586783333333","6501100","汐止區"
"221002","753-BX","2017/08/14 13:59:42","新北市汐止區大同路一段207號","121.633621666667","25.057285","6501100","汐止區"
"220027","145-BY","2017/08/14 13:59:50","新北市板橋區民權路202巷9弄64號","121.459121666667","25.015815","6500100","板橋區"
"220037","146-RM","2017/08/14 13:59:43","新北市板橋區民生路二段148號","121.471381666667","25.0198683333333","6500100","板橋區"
"220028","200-UY","2017/08/14 13:59:54","新北市板橋區大觀路二段265巷1弄40號","121.44462","24.99813","6500100","板橋區"
"220030","610-BX","2017/08/14 13:59:36","新北市板橋區篤行路三段66號","121.427185","24.9855366666667","6500100","板橋區"
"220050","245-BX","2017/08/12 21:12:11","新北市板橋區民生路二段161巷11號","121.47006","25.019235","6500100","板橋區"
"220004","255-TC","2017/08/12 20:57:31","新北市板橋區民生路二段36-1號","121.472083333333","25.0168883333333","6500100","板橋區"
"220052","257-TC","2017/08/14 13:59:42","新北市板橋區縣民大道二段279號","121.469936666667","25.017865","6500100","板橋區"
"220043","267-BY","2017/08/14 13:59:36","新北市板橋區莒光路4號","121.469401666667","25.0247","6500100","板橋區"
"220019","283-VK","2017/08/14 13:59:38","新北市板橋區忠孝路176巷23號","121.465245","25.0017833333333","6500100","板橋區"
"220001","285-VK","2017/08/14 13:59:55","新北市板橋區成功路19號","121.475325","25.0172016666667","6500100","板橋區"
"220031","286-VK","2017/08/14 13:59:56","新北市板橋區大觀路一段38巷156弄51號","121.442781666667","25.0062316666667","6500100","板橋區"
"220029","287-VK","2017/08/14 13:59:41","新北市板橋區南雅西路二段100號","121.452411666667","25.0117483333333","6500100","板橋區"
"220039","288-VK","2017/08/14 13:59:50","新北市板橋區四維路177巷2弄1號","121.463983333333","25.0262733333333","6500100","板橋區"
"220009","293-UM","2017/08/14 13:59:39","新北市板橋區永豐街205號","121.47657","25.02104","6500100","板橋區"
"220003","295-UM","2017/08/14 13:59:43","新北市板橋區民安街13號","121.467008333333","25.0118","6500100","板橋區"
"220032","296-UM","2017/08/14 13:59:40","新北市板橋區龍興街63巷2號","121.443025","25.0013533333333","6500100","板橋區"
"220023","297-UM","2017/08/14 13:59:50","新北市板橋區館前西路213巷22號","121.454185","25.00805","6500100","板橋區"
"220047","299-UM","2017/08/14 13:59:39","新北市板橋區民有街31號","121.465928333333","25.0254083333333","6500100","板橋區"
"220010","303-R5","2017/08/14 13:59:50","新北市板橋區三民路二段253-1號","121.478975","25.0116166666667","6500100","板橋區"
"220041","307-R5","2017/08/14 13:59:54","新北市板橋區文化路一段104巷1號","121.464918333333","25.0180916666667","6500100","板橋區"
"220012","486-VK","2017/08/14 13:59:39","新北市板橋區中山路一段282-1號","121.468861666667","25.0133266666667","6500100","板橋區"
"220038","487-VK","2017/08/14 13:59:46","新北市板橋區文化路二段26號","121.468895","25.0244883333333","6500100","板橋區"
"220104","560-BX","2017/08/14 13:59:44","新北市板橋區中正路375巷27號","121.453768333333","25.0201866666667","6500100","板橋區"
"220011","609-BX","2017/08/14 13:59:47","新北市板橋區中山路二段88號","121.475191666667","25.0164066666667","6500100","板橋區"
"220040","637-BX","2017/08/14 13:59:48","新北市板橋區雙十路二段47巷26號","121.475616666667","25.0258483333333","6500100","板橋區"
"220005","686-BX","2017/08/14 13:59:42","新北市板橋區民權路45號","121.462046666667","25.011335","6500100","板橋區"
"220025","687-BX","2017/08/14 13:59:53","新北市板橋區大觀路二段174巷118號","121.441161666667","25.002","6500100","板橋區"
"220042","689-BX","2017/08/14 13:59:50","新北市板橋區民生路三段64號","121.467128333333","25.0252983333333","6500100","板橋區"
"220002","741-BX","2017/08/14 13:59:52","新北市板橋區四川路一段87巷66號","121.460668333333","25.0056933333333","6500100","板橋區"
"220014","829-TW","2017/08/14 13:59:47","新北市板橋區三民路二段正隆巷14號","121.477825","25.0128333333333","6500100","板橋區"
"220051","830-TW","2017/08/14 13:58:58","新北市板橋區縣民大道三段187巷12弄6號","121.479371666667","25.0252683333333","6500100","板橋區"
"220022","895-R6","2017/08/14 13:59:55","新北市板橋區南雅南路一段119號","121.455251666667","25.0047883333333","6500100","板橋區"
"220021","985-R7","2017/08/14 13:59:54","新北市板橋區館前西路195號","121.45529","25.008355","6500100","板橋區"
"220046","AAC-210","2017/08/14 13:59:37","新北市板橋區陽明街166號","121.463455","25.0245383333333","6500100","板橋區"
"220001","AAC-253","2017/08/14 13:59:40","新北市板橋區四川路一段90號","121.45968","25.0050133333333","6500100","板橋區"
