"lineid","car","time","location","longitude","latitude","cityid","cityname"
"244018","837-TS","2017/08/14 08:02:06","新北市林口區粉寮路二段160巷40號","121.405646666667","25.0911833333333","6501700","林口區"
"243009","297-R6","2017/08/14 15:56:57","新北市泰山區黎明路25號","121.42193","25.0609733333333","6501600","泰山區"
"231030","047-UY","2017/08/14 16:09:50","新北市新店區安德街116巷42-1號","121.507958333333","24.96168","6500600","新店區"
"231018","107-UY","2017/08/14 16:09:44","新北市新店區中正路694巷15號","121.535358333333","24.9909466666667","6500600","新店區"
"231046","278-BY","2017/08/14 16:09:55","新北市新店區永業路46號","121.531926666667","24.954035","6500600","新店區"
"231014","AAD-862","2017/08/14 16:09:34","新北市新店區中央路147號","121.53006","24.9734466666667","6500600","新店區"
"231038","4715-K9","2017/08/14 16:09:48","新北市新店區薏仁坑路自強巷6號","121.4969","24.9586666666667","6500600","新店區"
"231034","645-TV","2017/08/14 16:09:54","新北市新店區如意街36號","121.493301666667","24.9484383333333","6500600","新店區"
"241011","013-R5","2017/08/14 16:09:45","新北市三重區正義北路378號","121.493325","25.0715366666667","6500200","三重區"
"241028","022-UY","2017/08/14 16:09:52","新北市三重區正義南路107號","121.498236666667","25.0586283333333","6500200","三重區"
"241031","061-VK","2017/08/14 16:09:51","新北市三重區重新路四段121號","121.484681666667","25.0520233333333","6500200","三重區"
"241015","062-VK","2017/08/14 16:09:43","新北市三重區福德南路53號","121.503175","25.0612883333333","6500200","三重區"
"241017","063-VK","2017/08/14 16:09:39","新北市三重區大同北路148巷51號","121.490786666667","25.0648","6500200","三重區"
"241024","065-VK","2017/08/14 16:09:37","新北市三重區中正北路145巷30號","121.485075","25.06803","6500200","三重區"
"241002","090-VK","2017/08/14 16:09:39","新北市三重區仁義街47號","121.49943","25.0787483333333","6500200","三重區"
"241003","091-VK","2017/08/14 16:09:52","新北市三重區自強路五段114號","121.496885","25.0836783333333","6500200","三重區"
"241006","156-TC","2017/08/14 16:09:45","新北市三重區永福街58巷3弄20號","121.48069","25.0773883333333","6500200","三重區"
"241005","262-UM","2017/08/14 16:09:40","新北市三重區溪尾街305號","121.487568333333","25.0837566666667","6500200","三重區"
"241008","265-UM","2017/08/14 16:09:21","新北市三重區力行路一段277號","121.48221","25.07151","6500200","三重區"
"241016","266-UM","2017/08/14 16:09:52","新北市三重區中正北路27-1號","121.491971666667","25.0622583333333","6500200","三重區"
"241022","267-UM","2017/08/14 16:09:52","新北市三重區重陽路二段72號","121.487278333333","25.064175","6500200","三重區"
"241018","268-UM","2017/08/14 16:09:49","新北市三重區明志街57號","121.491333333333","25.06394","6500200","三重區"
"241013","270-UM","2017/08/14 16:09:48","新北市三重區安樂街43號","121.496131666667","25.069725","6500200","三重區"
"241025","271-UM","2017/08/14 16:09:42","新北市三重區忠孝路三段40巷10號","121.482061666667","25.0664133333333","6500200","三重區"
"241007","398-BY","2017/08/14 16:09:37","新北市三重區慈愛街8號","121.48447","25.0785166666667","6500200","三重區"
"241020","412-TH","2017/08/14 16:09:43","新北市三重區車路頭街4巷11號","121.483475","25.0703016666667","6500200","三重區"
"241004","475-VK","2017/08/14 16:09:48","新北市三重區自強路五段69號","121.494881666667","25.0820483333333","6500200","三重區"
"241019","478-VK","2017/08/14 16:09:42","新北市三重區重陽路三段93號","121.490321666667","25.0677783333333","6500200","三重區"
"241030","480-VK","2017/08/14 16:09:50","新北市三重區重新路四段121號","121.484815","25.052435","6500200","三重區"
"241014","543-UM","2017/08/14 16:09:36","新北市三重區福德南路33號","121.502793333333","25.0625366666667","6500200","三重區"
"241023","545-UM","2017/08/14 16:09:45","新北市三重區力行路一段60號","121.484713333333","25.068995","6500200","三重區"
"241001","547-UM","2017/08/14 16:09:44","新北市三重區自強路三段19號","121.486996666667","25.0722883333333","6500200","三重區"
"241026","887-TS","2017/08/14 16:09:50","新北市三重區福裕街54號","121.497411666667","25.0613533333333","6500200","三重區"
"241012","941-UM","2017/08/14 16:09:41","新北市三重區文化北路102巷39號","121.497195","25.0659283333333","6500200","三重區"
"241029","942-UM","2017/08/14 16:09:46","新北市三重區同安街24號","121.496263333333","25.0568866666667","6500200","三重區"
"241033","AAC-255","2017/08/14 16:09:46","新北市三重區五谷王南街50-1號","121.473896666667","25.0446366666667","6500200","三重區"
"235062","800-TS","2017/08/14 16:09:44","新北市中和區永和路191巷19號","121.491363333333","25.0065166666667","6500300","中和區"
"241031","7418-A5","2017/08/14 14:40:21","新北市平溪區靜安路二段3巷53號","121.706011666667","25.0183866666667","6500200","三重區"
"241031","251-BX","2017/08/14 05:01:59","新北市石碇區小粗坑(潭邊里)9-2號","121.678858333333","24.9857766666667","6500200","三重區"
"223008","406-TH","2017/08/14 10:41:50","新北市石碇區小粗坑(潭邊里)9-2號","121.678606666667","24.985665","6501900","石碇區"
"224007","273-VK","2017/08/14 16:09:41","新北市瑞芳區粗坑口路36號","121.761761666667","25.0992466666667","6501200","瑞芳區"
"224005","271-BY","2017/08/14 16:05:34","新北市瑞芳區明燈路二段66號","121.809366666667","25.10754","6501200","瑞芳區"
"227001","642-TC","2017/08/14 16:09:46","新北市雙溪區上林里內平林47號","121.833288333333","25.0304116666667","6502500","雙溪區"
"227008","400-TW","2017/08/14 16:09:42","新北市雙溪區三港里雙澳路57號","121.880013333333","25.0536066666667","6502500","雙溪區"
"253003","4710-YM","2017/08/14 08:00:16","新北市石門區中山路64-1號","121.56747","25.2905316666667","6502200","石門區"
"251008","181-VK","2017/08/14 16:09:36","新北市淡水區文化路16號","121.439851666667","25.17252","6501000","淡水區"
"251013","182-VK","2017/08/14 16:09:44","新北市淡水區沙崙路185號","121.424543333333","25.1838516666667","6501000","淡水區"
"236056","912-UM","2017/08/14 16:09:34","新北市土城區大安路101-5號","121.433616666667","24.96856","6501300","土城區"
"241031","233-RS","2017/08/14 09:09:31","新北市新莊區環河路48-7號","121.436911666667","25.0098233333333","6500200","三重區"
"238002","755-BX","2017/08/14 16:09:44","新北市樹林區啟智街86巷7號","121.418445","24.9907383333333","6500700","樹林區"
"238010","601-UM","2017/08/14 16:09:50","新北市樹林區龍興街46巷26號","121.402091666667","25.0152466666667","6500700","樹林區"
"238006","599-UM","2017/08/14 16:09:37","新北市樹林區中華路190-16號","121.411813333333","24.9806583333333","6500700","樹林區"
"238005","571-TV","2017/08/14 16:09:56","新北市樹林區鎮前街77-20號","121.42554","24.99038","6500700","樹林區"
"238011","5061-A6","2017/08/14 16:09:44","新北市樹林區佳園路一段52-5號","121.392933333333","24.9700666666667","6500700","樹林區"
"238009","312-TH","2017/08/14 16:09:53","新北市樹林區太平路174巷4號","121.418323333333","24.9769766666667","6500700","樹林區"
"238012","303-VK","2017/08/14 16:09:36","新北市樹林區保安街一段124號","121.423285","24.9950316666667","6500700","樹林區"
"238004","283-BY","2017/08/14 16:09:36","新北市樹林區中正路433-1號","121.414931666667","25.0081066666667","6500700","樹林區"
"238001","282-BY","2017/08/14 16:09:39","新北市樹林區千歲街84號","121.426343333333","24.9978333333333","6500700","樹林區"
"238007","268-VK","2017/08/14 16:09:46","新北市樹林區三俊街133號","121.418323333333","25.01555","6500700","樹林區"
"238013","172-UY","2017/08/14 16:09:40","新北市樹林區佳園路一段41巷38-2號","121.395021666667","24.9705883333333","6500700","樹林區"
"238003","169-UY","2017/08/14 16:09:52","新北市樹林區復興路373巷7弄18號","121.418005","24.98693","6500700","樹林區"
"221010","269-BY","2017/08/14 14:59:05","新北市汐止區汐萬路一段256巷3號","121.65213","25.07481","6501100","汐止區"
"220038","487-VK","2017/08/14 16:09:46","新北市八里區中山路三段409號","121.368538333333","25.1349866666667","6500100","板橋區"
"220001","AAC-253","2017/08/14 16:09:40","新北市林口區汕頭32號","121.366381666667","25.1345983333333","6500100","板橋區"
