"lineid","car","time","location","longitude","latitude","cityid","cityname"
"234026","9371-KE","2017/08/14 17:49:43","新北市永和區和平街109巷6號","121.510771666667","25.0097016666667","6500400","永和區"
"249005","172-UM","2017/08/14 17:49:53","新北市八里區荖阡坑路34-3號","121.40222","25.1316733333333","6502300","八里區"
"249001","173-UM","2017/08/14 17:49:47","新北市八里區龍米路二段141號","121.444428333333","25.1487383333333","6502300","八里區"
"249004","303-UY","2017/08/14 17:49:34","新北市八里區中華路一段79巷11號","121.421021666667","25.156435","6502300","八里區"
"249002","305-UY","2017/08/14 17:49:48","新北市八里區龍形二街28號","121.450563333333","25.1328916666667","6502300","八里區"
"249003","593-UM","2017/08/14 17:49:43","新北市八里區中山路二段123號","121.405435","25.1519283333333","6502300","八里區"
"248016","026-BX","2017/08/14 17:41:37","新北市五股區中興路二段83巷26-6號","121.460113333333","25.0751466666667","6501500","五股區"
"248006","077-UY","2017/08/14 17:49:34","新北市五股區中興路二段37巷28號","121.46015","25.075015","6501500","五股區"
"248008","095-VK","2017/08/14 17:49:52","新北市五股區中興路二段83巷26-6號","121.46012","25.07512","6501500","五股區"
"248018","225-UY","2017/08/14 17:49:52","新北市五股區中興路二段83巷26-6號","121.46011","25.07521","6501500","五股區"
"248002","655-BX","2017/08/14 17:49:36","新北市五股區中興路二段83巷26-6號","121.46005","25.0753166666667","6501500","五股區"
"232011","375-UM","2017/08/14 17:49:40","新北市坪林區北宜路八段52號","121.704565","24.9356233333333","6502000","坪林區"
"244007","080-UY","2017/08/14 17:49:57","新北市林口區佳林路33號","121.386658333333","25.0819616666667","6501700","林口區"
"244019","403-UM","2017/08/14 17:49:41","新北市林口區文化一路一段83巷14弄3號","121.372281666667","25.0719666666667","6501700","林口區"
"244025","742-UY","2017/08/14 17:49:38","新北市林口區文化三路一段191巷12號","121.360926666667","25.07024","6501700","林口區"
"244009","410-SL","2017/08/14 17:49:38","新北市林口區文化一路二段362號","121.384696666667","25.08398","6501700","林口區"
"244017","656-BX","2017/08/14 17:49:41","新北市林口區文化二路一段226號","121.369435","25.0724183333333","6501700","林口區"
"244023","657-BX","2017/08/14 17:49:45","新北市林口區興林路452號","121.389568333333","25.0681933333333","6501700","林口區"
"244013","658-BX","2017/08/14 17:49:46","新北市林口區中正路507號","121.383116666667","25.077485","6501700","林口區"
"244011","701-TV","2017/08/14 17:49:43","新北市林口區中興街3號","121.388981666667","25.077525","6501700","林口區"
"244018","837-TS","2017/08/14 16:50:01","新北市林口區粉寮路二段160巷40號","121.405646666667","25.0912683333333","6501700","林口區"
"244021","838-TS","2017/08/14 17:49:45","新北市林口區仁愛路一段145號","121.398633333333","25.07169","6501700","林口區"
"243009","297-R6","2017/08/14 15:56:57","新北市泰山區黎明路25號","121.42193","25.0609733333333","6501600","泰山區"
"222003","436-BY","2017/08/14 17:49:48","新北市深坑區阿柔洋60-1號","121.60861","24.998535","6501800","深坑區"
"222002","659-BX","2017/08/14 17:49:52","新北市深坑區平埔街22巷8號","121.614958333333","25.0009466666667","6501800","深坑區"
"231046","278-BY","2017/08/14 17:49:55","新北市新店區下石厝路18號","121.53318","24.92773","6500600","新店區"
"241005","262-UM","2017/08/14 17:49:40","新北市三重區仁愛街517號","121.487605","25.082325","6500200","三重區"
"241016","266-UM","2017/08/14 17:49:52","新北市三重區新北大道一段3-1號","121.490115","25.0614033333333","6500200","三重區"
"241024","743-BX","2017/08/14 17:49:49","新北市三重區車路頭街62巷65號","121.482338333333","25.0723516666667","6500200","三重區"
"241033","AAC-255","2017/08/14 17:49:46","新北市三重區重新路五段535號","121.471043333333","25.04607","6500200","三重區"
"235063","006-UY","2017/08/14 17:49:39","新北市中和區員山路36巷16-3號","121.485061666667","24.9913366666667","6500300","中和區"
"235058","151-BY","2017/08/14 17:49:56","新北市中和區員山路36巷16-2號","121.485273333333","24.9917333333333","6500300","中和區"
"235061","378-QA","2017/08/14 15:30:58","新北市中和區員山路36巷13號","121.484061666667","24.99125","6500300","中和區"
"235062","800-TS","2017/08/14 17:49:55","新北市中和區員山路36巷16-3號","121.484878333333","24.991795","6500300","中和區"
"247020","893-R6","2017/08/14 17:49:54","新北市蘆洲區民義街71巷24號","121.472565","25.0907316666667","6501400","蘆洲區"
"247010","546-UM","2017/08/14 17:49:47","新北市蘆洲區信義路257號","121.478811666667","25.0846433333333","6501400","蘆洲區"
"247018","500-BY","2017/08/14 17:49:41","新北市蘆洲區復興路227巷2弄21號","121.481155","25.090465","6501400","蘆洲區"
"247008","339-TH","2017/08/14 17:49:38","新北市蘆洲區和平路29巷10號","121.471965","25.078665","6501400","蘆洲區"
"247024","337-TH","2017/08/14 17:49:49","新北市蘆洲區光榮路65號","121.461221666667","25.0884566666667","6501400","蘆洲區"
"247002","336-TH","2017/08/14 17:49:46","新北市蘆洲區永平街32巷33弄16號","121.458773333333","25.09243","6501400","蘆洲區"
"247006","335-TH","2017/08/14 17:49:52","新北市蘆洲區九芎街144號","121.464538333333","25.0785666666667","6501400","蘆洲區"
"247022","053-VK","2017/08/14 17:49:42","新北市蘆洲區中正路486-1號","121.46218","25.09571","6501400","蘆洲區"
"247011","007-UY","2017/08/14 17:49:54","新北市蘆洲區民族路252號","121.47898","25.0888516666667","6501400","蘆洲區"
"247016","001-UY","2017/08/14 17:49:41","新北市蘆洲區長興路50巷33號","121.464623333333","25.0845333333333","6501400","蘆洲區"
"241031","251-BX","2017/08/14 05:01:59","新北市石碇區小粗坑(潭邊里)9-2號","121.678858333333","24.9857766666667","6500200","三重區"
"223008","406-TH","2017/08/14 10:41:50","新北市石碇區小粗坑(潭邊里)9-2號","121.678606666667","24.985665","6501900","石碇區"
"228003","097-TW","2017/08/14 17:49:43","新北市貢寮區真理里延平街72-5號","121.925148333333","25.0580616666667","6502600","貢寮區"
"228002","585-TW","2017/08/14 17:49:42","新北市貢寮區福隆里外隆林街15號","121.958878333333","25.0035983333333","6502600","貢寮區"
"228001","670-TC","2017/08/14 17:49:42","新北市貢寮區仁理村仁愛路95-1號","121.927743333333","25.0554966666667","6502600","貢寮區"
"224010","AGQ-8101","2017/08/14 17:49:42","新北市瑞芳區明燈路一段225號","121.818068333333","25.10808","6501200","瑞芳區"
"224006","676-BX","2017/08/14 17:49:50","新北市瑞芳區傑魚坑路264號","121.789138333333","25.1090366666667","6501200","瑞芳區"
"224009","285-BY","2017/08/14 17:49:49","新北市瑞芳區山尖路215-1號","121.848846666667","25.1125333333333","6501200","瑞芳區"
"224008","275-VK","2017/08/14 17:49:50","新北市瑞芳區明燈路一段186號","121.818546666667","25.1081183333333","6501200","瑞芳區"
"224007","273-VK","2017/08/14 17:49:41","新北市瑞芳區八分寮路10號","121.796706666667","25.0899466666667","6501200","瑞芳區"
"224005","271-BY","2017/08/14 17:49:53","新北市瑞芳區豎崎路32-5號","121.823896666667","25.12104","6501200","瑞芳區"
"227008","400-TW","2017/08/14 17:49:42","新北市雙溪區三貂里定福路1-2號","121.850771666667","25.0635033333333","6502500","雙溪區"
"253006","032-BX","2017/08/14 17:49:52","新北市石門區中山路64-1號","121.567455","25.29058","6502200","石門區"
"253003","4710-YM","2017/08/14 08:00:16","新北市石門區中山路64-1號","121.56747","25.2905316666667","6502200","石門區"
"208002","742-BX","2017/08/14 17:49:36","新北市金山區磺清路135號","121.639345","25.2276066666667","6502700","金山區"
"208003","665-BX","2017/08/14 17:49:52","新北市金山區磺清路135號","121.639528333333","25.227785","6502700","金山區"
"208001","761-BX","2017/08/14 17:49:54","新北市金山區磺清路135號","121.63946","25.22787","6502700","金山區"
"251009","008-UM","2017/08/14 17:32:27","新北市淡水區重建街1巷10號","121.439681666667","25.173765","6501000","淡水區"
"251004","009-UM","2017/08/14 17:49:42","新北市淡水區民權一街23號","121.458891666667","25.1362916666667","6501000","淡水區"
"251008","181-VK","2017/08/14 17:49:44","新北市淡水區八勢路一段156號","121.468141666667","25.1564633333333","6501000","淡水區"
"251013","182-VK","2017/08/14 17:49:44","新北市淡水區泉洲厝31號","121.479523333333","25.19105","6501000","淡水區"
"251010","413-VK","2017/08/14 17:49:51","新北市淡水區中正路二段54號","121.419273333333","25.1835816666667","6501000","淡水區"
"251012","441-VK","2017/08/14 17:49:33","新北市淡水區商工路398號","121.473578333333","25.1847683333333","6501000","淡水區"
"251015","442-VK","2017/08/14 17:49:50","新北市淡水區興福寮100號","121.487311666667","25.164595","6501000","淡水區"
"251005","443-VK","2017/08/14 17:49:50","新北市淡水區學府路96號","121.449265","25.1711066666667","6501000","淡水區"
"251001","559-UM","2017/08/14 17:49:42","新北市淡水區民權路92巷35-1號","121.462163333333","25.12672","6501000","淡水區"
"251006","561-UM","2017/08/14 17:49:43","新北市淡水區中山北路一段53號","121.441265","25.17595","6501000","淡水區"
"251011","650-BX","2017/08/14 17:49:44","新北市淡水區吳(仔)厝70號","121.479591666667","25.14965","6501000","淡水區"
"251002","672-BX","2017/08/14 17:49:43","新北市淡水區長興街1號","121.443721666667","25.1706616666667","6501000","淡水區"
"251003","766-UM","2017/08/14 17:49:48","新北市淡水區大忠街17號","121.443651666667","25.175985","6501000","淡水區"
"207003","550-UM","2017/08/14 17:49:48","新北市萬里區野柳里東澳路66號","121.692871666667","25.2010066666667","6502800","萬里區"
"207004","225-TW","2017/08/14 17:49:41","新北市萬里區萬里里瑪鋉頂街61號","121.688383333333","25.1804766666667","6502800","萬里區"
"252002","178-VK","2017/08/14 17:49:36","新北市三芝區中正路二段1號","121.504786666667","25.2556866666667","6502100","三芝區"
"252001","292-VK","2017/08/14 17:49:43","新北市三芝區淡金路一段25號","121.499066666667","25.2595633333333","6502100","三芝區"
"237004","078-UY","2017/08/14 17:49:45","新北市三峽區中山路120號","121.365673333333","24.9359283333333","6500900","三峽區"
"237009","210-TH","2017/08/14 17:49:37","新北市三峽區大勇路3巷36號","121.367453333333","24.9368133333333","6500900","三峽區"
"237013","252-BX","2017/08/14 17:49:46","新北市三峽區愛國路26號","121.374386666667","24.9333833333333","6500900","三峽區"
"237012","275-BY","2017/08/14 17:49:51","新北市三峽區文化路117號","121.37011","24.93609","6500900","三峽區"
"237008","302-VK","2017/08/14 17:49:44","新北市三峽區中園街156-5號","121.366741666667","24.91955","6500900","三峽區"
"237014","433-BY","2017/08/14 17:49:52","新北市三峽區和平街36巷19號","121.371305","24.9370233333333","6500900","三峽區"
"237006","5529-G3","2017/08/14 17:49:53","新北市三峽區介壽路二段136巷102號","121.392036666667","24.9334416666667","6500900","三峽區"
"237011","572-TV","2017/08/14 17:49:50","新北市三峽區光明路60號","121.374745","24.9296033333333","6500900","三峽區"
"237015","649-BX","2017/08/14 17:49:42","新北市三峽區白雞64號","121.386018333333","24.9124233333333","6500900","三峽區"
"237010","706-TV","2017/08/14 17:49:35","新北市三峽區文化路238號","121.367581666667","24.9357683333333","6500900","三峽區"
"237005","AKY-6261","2017/08/14 17:49:49","新北市三峽區中山路459巷52-1號","121.356458333333","24.9361916666667","6500900","三峽區"
"236069","105-UM","2017/08/14 17:49:45","新北市土城區城林路6巷80號","121.43843","24.9797366666667","6501300","土城區"
"236042","107-UM","2017/08/14 17:49:53","新北市土城區城林路6巷80號","121.438556666667","24.9796766666667","6501300","土城區"
"236078","166-UM","2017/08/14 17:49:40","新北市土城區中央路三段191號","121.430745","24.96491","6501300","土城區"
"236030","253-BX","2017/08/14 17:49:43","新北市土城區城林路6巷80號","121.438533333333","24.9797333333333","6501300","土城區"
"236026","269-VK","2017/08/14 17:49:56","新北市土城區中華路二段180號","121.43749","24.9717483333333","6501300","土城區"
"236014","270-VK","2017/08/14 17:49:48","新北市土城區城林路6巷80號","121.438533333333","24.9796833333333","6501300","土城區"
"236014","401-BY","2017/08/14 17:49:56","新北市土城區城林路6巷80號","121.43878","24.9797933333333","6501300","土城區"
"236058","912-UM","2017/08/14 17:49:55","新北市土城區城林路6巷80號","121.438555","24.9795833333333","6501300","土城區"
"236048","913-UM","2017/08/14 17:49:57","新北市土城區城林路6巷80號","121.43856","24.9797966666667","6501300","土城區"
"236062","915-UM","2017/08/14 17:49:55","新北市土城區城林路6巷80號","121.438453333333","24.979755","6501300","土城區"
"236053","AAC-216","2017/08/14 17:49:45","新北市土城區城林路6巷80號","121.438526666667","24.979565","6501300","土城區"
"242021","AAC-296","2017/08/14 17:49:46","新北市新莊區中港路136號","121.45518","25.0408416666667","6500500","新莊區"
"242029","986-R7","2017/08/14 17:49:39","新北市新莊區復興路一段101號","121.449041666667","25.04288","6500500","新莊區"
"242048","751-BX","2017/08/14 17:49:35","新北市新莊區萬安街102巷7號","121.420135","25.0223033333333","6500500","新莊區"
"242025","615-BX","2017/08/14 17:49:41","新北市三重區新北大道二段25號","121.471471666667","25.0612933333333","6500500","新莊區"
"242023","613-BX","2017/08/14 17:49:49","新北市新莊區福樂街64號","121.457836666667","25.0462583333333","6500500","新莊區"
"242027","612-BX","2017/08/14 17:49:46","新北市新莊區福壽街214號","121.458136666667","25.054175","6500500","新莊區"
"242036","566-BX","2017/08/14 17:49:41","新北市新莊區建福路72號","121.426838333333","25.0268416666667","6500500","新莊區"
"242042","497-BY","2017/08/14 17:49:46","新北市新莊區中正路618號","121.423703333333","25.0293916666667","6500500","新莊區"
"242004","442-UM","2017/08/14 17:49:45","新北市新莊區自立街249號","121.458761666667","25.045575","6500500","新莊區"
"242046","441-UM","2017/08/14 17:49:41","新北市新莊區建國一路76號","121.434388333333","25.0304816666667","6500500","新莊區"
"242050","440-UM","2017/08/14 17:49:52","新北市新莊區西盛街257巷22號","121.428916666667","25.0157033333333","6500500","新莊區"
"242031","415-TV","2017/08/14 17:49:45","新北市新莊區新泰路357巷1弄17號","121.44295","25.0406383333333","6500500","新莊區"
"242002","413-TV","2017/08/14 17:49:53","新北市新莊區景德路106號","121.451571666667","25.0346","6500500","新莊區"
"242039","400-BY","2017/08/14 17:49:35","新北市新莊區民安路158號","121.424726666667","25.0246583333333","6500500","新莊區"
"242060","362-BY","2017/08/14 17:49:37","新北市新莊區新樹路601號","121.433081666667","25.0057966666667","6500500","新莊區"
"242058","353-BY","2017/08/14 17:49:44","新北市新莊區中正路726-12號","121.41533","25.0239","6500500","新莊區"
"242015","132-UY","2017/08/14 17:49:42","新北市新莊區新泰路468號","121.443315","25.04503","6500500","新莊區"
"242013","133-UY","2017/08/14 17:49:40","新北市新莊區中誠街164號","121.448216666667","25.0474866666667","6500500","新莊區"
"242019","135-UY","2017/08/14 17:49:37","新北市新莊區復興路二段27號","121.453978333333","25.043955","6500500","新莊區"
"242044","172-VK","2017/08/14 17:49:43","新北市新莊區中正路855巷2號","121.419641666667","25.0276933333333","6500500","新莊區"
"242007","173-VK","2017/08/14 17:49:49","新北市新莊區福樂街63號","121.457316666667","25.0476383333333","6500500","新莊區"
"242056","176-VK","2017/08/14 17:49:42","新北市新莊區瓊林路40巷8號","121.44771","25.0302683333333","6500500","新莊區"
"241031","233-RS","2017/08/14 09:09:31","新北市新莊區環河路48-7號","121.436911666667","25.0098233333333","6500200","三重區"
"242011","346-TH","2017/08/14 17:49:56","新北市新莊區中富街120號","121.449925","25.0567466666667","6500500","新莊區"
"242017","348-TH","2017/08/14 17:49:57","新北市新莊區永安街88號","121.450621666667","25.0446466666667","6500500","新莊區"
"242053","349-TH","2017/08/14 17:49:54","新北市新莊區新樹路605號","121.433191666667","25.005515","6500500","新莊區"
"242034","350-TH","2017/08/14 17:49:39","新北市新莊區新莊路761號","121.442448333333","25.032675","6500500","新莊區"
"242009","351-TH","2017/08/14 17:49:45","新北市新莊區昌平街71巷31號","121.453403333333","25.05332","6500500","新莊區"
"238015","755-BX","2017/08/14 17:49:37","新北市樹林區長壽街70巷1弄21號","121.42105","24.9946716666667","6500700","樹林區"
"238010","601-UM","2017/08/14 17:49:50","新北市樹林區三福街68號","121.404913333333","25.0163733333333","6500700","樹林區"
"238019","599-UM","2017/08/14 17:49:57","新北市樹林區太平路225巷2號","121.418585","24.9769516666667","6500700","樹林區"
"238018","571-TV","2017/08/14 17:49:48","新北市樹林區鎮前街18號","121.426165","24.9931483333333","6500700","樹林區"
"238022","312-TH","2017/08/14 17:49:53","新北市樹林區太順街62巷3弄2號","121.417423333333","24.97971","6500700","樹林區"
"238021","311-TH","2017/08/14 17:43:52","新北市樹林區柑園街一段256號","121.391136666667","24.95666","6500700","樹林區"
"238025","303-VK","2017/08/14 17:49:56","新北市樹林區三俊街81巷2號","121.415708333333","25.0154816666667","6500700","樹林區"
"238017","283-BY","2017/08/14 17:49:36","新北市樹林區三德街30巷17號","121.414718333333","25.012585","6500700","樹林區"
"238014","282-BY","2017/08/14 17:49:39","新北市樹林區保安街一段313巷18號","121.417091666667","24.99748","6500700","樹林區"
"238020","268-VK","2017/08/14 17:49:46","新北市樹林區俊英街276號","121.424301666667","25.0126083333333","6500700","樹林區"
"238026","172-UY","2017/08/14 17:47:59","新北市樹林區新興街19巷34弄18號","121.402015","24.97289","6500700","樹林區"
"238016","169-UY","2017/08/14 17:49:52","新北市樹林區育英街154號","121.418815","24.989515","6500700","樹林區"
"239007","AAC-297","2017/08/14 17:49:52","新北市鶯歌區鶯桃路120巷12號","121.338875","24.95509","6500800","鶯歌區"
"239006","891-R6","2017/08/14 17:49:33","新北市鶯歌區鶯桃路417號","121.332866666667","24.96469","6500800","鶯歌區"
"239008","527-UM","2017/08/14 17:49:55","新北市鶯歌區大湖路363號","121.331108333333","24.9780983333333","6500800","鶯歌區"
"239005","526-UM","2017/08/14 17:49:56","新北市鶯歌區鳳吉四街11號","121.326438333333","24.9725566666667","6500800","鶯歌區"
"239001","417-VK","2017/08/14 17:49:44","新北市鶯歌區中正三路460-1號","121.321141666667","24.9342583333333","6500800","鶯歌區"
"239003","360-BY","2017/08/14 17:49:48","新北市鶯歌區鶯桃路285巷2-5號","121.33435","24.9591333333333","6500800","鶯歌區"
"239002","359-BY","2017/08/14 17:49:48","新北市鶯歌區中山路329巷6弄12號","121.343661666667","24.9558","6500800","鶯歌區"
"239004","193-VK","2017/08/14 17:49:50","新北市鶯歌區文化路324巷1-37號","121.352655","24.9457216666667","6500800","鶯歌區"
"221036","130-UY","2017/08/14 17:49:46","新北市汐止區長江街252號","121.663341666667","25.0794166666667","6501100","汐止區"
"221015","131-UY","2017/08/14 17:49:46","新北市汐止區長江街9號","121.654621666667","25.0712566666667","6501100","汐止區"
"221010","269-BY","2017/08/14 17:49:54","新北市汐止區汐萬路二段62巷2號","121.649551666667","25.08204","6501100","汐止區"
"221012","278-VK","2017/08/14 17:49:38","新北市汐止區長江街75號","121.65714","25.0721516666667","6501100","汐止區"
"221023","279-VK","2017/08/14 02:54:23","新北市汐止區康寧街901號","121.651745","25.07499","6501100","汐止區"
"221032","280-BY","2017/08/14 17:49:39","新北市汐止區大同路一段142-1號","121.631338333333","25.05544","6501100","汐止區"
"221027","281-BY","2017/08/14 17:49:43","新北市汐止區康寧街901號","121.650773333333","25.075305","6501100","汐止區"
"221038","297-VK","2017/08/14 17:49:50","新北市汐止區汐萬路一段312號","121.650386666667","25.0750833333333","6501100","汐止區"
"221021","299-VK","2017/08/14 17:42:55","新北市汐止區康寧街901號","121.651728333333","25.0758566666667","6501100","汐止區"
"221031","353-TW","2017/08/14 17:49:55","新北市汐止區汐萬路一段301號","121.649643333333","25.0758516666667","6501100","汐止區"
"221035","622-UM","2017/08/14 17:49:49","新北市汐止區汐萬路一段147號","121.653325","25.0711166666667","6501100","汐止區"
"221025","623-UM","2017/08/14 17:49:53","新北市汐止區大同路二段179號","121.651735","25.0642316666667","6501100","汐止區"
"221033","647-BX","2017/08/14 17:49:45","新北市汐止區橫科路73巷20弄20號","121.619785","25.05165","6501100","汐止區"
"221002","753-BX","2017/08/14 17:49:35","新北市汐止區忠孝東路382巷3弄1號","121.665673333333","25.0697383333333","6501100","汐止區"
