"lineid","car","time","location","longitude","latitude","cityid","cityname"
"234013","149-BY","2017/08/14 17:59:41","新北市永和區福和路1號","121.526448333333","25.0100116666667","6500400","永和區"
"234026","9371-KE","2017/08/14 17:59:43","新北市永和區永和路一段64號","121.513093333333","25.00601","6500400","永和區"
"234011","9373-KE","2017/08/14 17:59:56","新北市永和區福和路1號","121.525605","25.0095333333333","6500400","永和區"
"249005","172-UM","2017/08/14 17:59:53","新北市八里區荖阡坑路20號","121.396991666667","25.1365433333333","6502300","八里區"
"249001","173-UM","2017/08/14 17:59:48","新北市八里區龍米路二段36號","121.44852","25.140085","6502300","八里區"
"249004","303-UY","2017/08/14 17:59:54","新北市八里區中山路一段50號","121.42201","25.1590616666667","6502300","八里區"
"249002","305-UY","2017/08/14 17:59:48","新北市八里區龍米路一段440巷10號","121.4514","25.1338","6502300","八里區"
"249003","593-UM","2017/08/14 17:59:43","新北市八里區中山路二段196號","121.405678333333","25.1524066666667","6502300","八里區"
"248016","026-BX","2017/08/14 17:59:38","新北市五股區中興路二段83巷26-6號","121.460061666667","25.0751766666667","6501500","五股區"
"248006","077-UY","2017/08/14 17:59:54","新北市五股區中興路二段83巷26-6號","121.459541666667","25.0751533333333","6501500","五股區"
"248008","095-VK","2017/08/14 17:59:32","新北市五股區更洲路6號","121.458505","25.078675","6501500","五股區"
"248018","225-UY","2017/08/14 17:59:52","新北市五股區中興路二段83巷26-6號","121.460078333333","25.07518","6501500","五股區"
"248012","247-BX","2017/08/14 17:59:37","新北市五股區中興路二段83巷26-6號","121.460056666667","25.0750633333333","6501500","五股區"
"248014","261-SL","2017/08/14 17:59:49","新北市五股區中興路二段163號","121.457598333333","25.077765","6501500","五股區"
"248010","272-BY","2017/08/14 17:59:53","新北市五股區中興路二段95-3號","121.459363333333","25.0768933333333","6501500","五股區"
"248002","655-BX","2017/08/14 17:59:36","新北市五股區中興路二段83巷26-6號","121.459905","25.0751283333333","6501500","五股區"
"248004","677-BX","2017/08/14 17:59:38","新北市五股區中興路二段163號","121.457713333333","25.077715","6501500","五股區"
"232011","375-UM","2017/08/14 17:59:40","新北市坪林區水柳腳39號","121.709606666667","24.935135","6502000","坪林區"
"244007","080-UY","2017/08/14 17:59:39","新北市林口區竹林路268號","121.389776666667","25.0812483333333","6501700","林口區"
"244019","403-UM","2017/08/14 17:59:41","新北市林口區忠孝路512巷36號","121.371566666667","25.0681583333333","6501700","林口區"
"244025","742-UY","2017/08/14 17:59:38","新北市林口區文化三路一段39巷189號","121.359395","25.068115","6501700","林口區"
"244009","410-SL","2017/08/14 17:59:38","新北市林口區竹林路582巷16號","121.385988333333","25.08338","6501700","林口區"
"244017","656-BX","2017/08/14 17:59:41","新北市林口區文化二路一段309巷1號","121.36915","25.07311","6501700","林口區"
"244023","657-BX","2017/08/14 17:59:44","新北市林口區育林街30號","121.38586","25.0737316666667","6501700","林口區"
"244013","658-BX","2017/08/14 17:59:46","新北市林口區中山路79號","121.390255","25.0787483333333","6501700","林口區"
"244011","701-TV","2017/08/14 17:59:43","新北市林口區中正路100號","121.393996666667","25.0773033333333","6501700","林口區"
"244018","837-TS","2017/08/14 16:50:01","新北市林口區粉寮路二段160巷40號","121.405646666667","25.0912683333333","6501700","林口區"
"244021","838-TS","2017/08/14 17:59:45","新北市林口區新寮45號","121.404363333333","25.0646133333333","6501700","林口區"
"243009","297-R6","2017/08/14 15:56:57","新北市泰山區黎明路25號","121.42193","25.0609733333333","6501600","泰山區"
"222003","436-BY","2017/08/14 17:59:48","新北市深坑區炮子崙24-1號","121.606043333333","24.9882083333333","6501800","深坑區"
"222002","659-BX","2017/08/14 17:59:53","新北市深坑區文化街96號","121.617113333333","25.0019133333333","6501800","深坑區"
"231046","278-BY","2017/08/14 17:59:35","新北市新店區康雅崙路3號","121.53905","24.9255283333333","6500600","新店區"
"241005","262-UM","2017/08/14 17:59:40","新北市三重區環河北路三段290號","121.492171666667","25.0897083333333","6500200","三重區"
"241016","266-UM","2017/08/14 17:59:52","新北市三重區新北大道一段56號","121.487421666667","25.0614283333333","6500200","三重區"
"241024","743-BX","2017/08/14 17:59:49","新北市三重區國道路一段42號","121.483026666667","25.07303","6500200","三重區"
"241033","AAC-255","2017/08/14 17:59:46","新北市三重區重新路五段552號","121.470355","25.0459316666667","6500200","三重區"
"235064","005-UY","2017/08/14 17:59:43","新北市中和區員山路36巷16-3號","121.48505","24.9914516666667","6500300","中和區"
"235063","006-UY","2017/08/14 17:59:39","新北市中和區員山路36巷16-3號","121.485045","24.9912916666667","6500300","中和區"
"235058","151-BY","2017/08/14 17:59:36","新北市中和區錦和路350-1號","121.49021","24.9935566666667","6500300","中和區"
"235038","185-VK","2017/08/14 17:59:37","新北市中和區中正路589巷15號","121.48587","24.9937683333333","6500300","中和區"
"235067","255-BX","2017/08/14 17:59:48","新北市中和區和城路一段271巷1號","121.485553333333","24.9918766666667","6500300","中和區"
"235061","378-QA","2017/08/14 15:30:58","新北市中和區員山路36巷13號","121.484061666667","24.99125","6500300","中和區"
"235042","551-UM","2017/08/14 17:59:54","新北市中和區中正路395號","121.489748333333","24.9938883333333","6500300","中和區"
"235062","800-TS","2017/08/14 17:59:35","新北市中和區員山路36巷16-3號","121.484925","24.9917466666667","6500300","中和區"
"235037","AAC-213","2017/08/14 17:59:51","新北市中和區員山路36巷16號","121.484486666667","24.9917033333333","6500300","中和區"
"247020","893-R6","2017/08/14 17:59:54","新北市蘆洲區民義街35巷7號","121.471641666667","25.0895083333333","6501400","蘆洲區"
"247018","500-BY","2017/08/14 17:59:40","新北市蘆洲區復興路230號","121.479263333333","25.0893333333333","6501400","蘆洲區"
"247008","339-TH","2017/08/14 17:59:38","新北市蘆洲區信義路32號","121.474368333333","25.0793433333333","6501400","蘆洲區"
"247024","337-TH","2017/08/14 17:59:49","新北市蘆洲區光復路30巷35號","121.463946666667","25.0842083333333","6501400","蘆洲區"
"247002","336-TH","2017/08/14 17:59:47","新北市蘆洲區永平街32巷57弄32號","121.458611666667","25.093485","6501400","蘆洲區"
"247006","335-TH","2017/08/14 17:59:40","新北市蘆洲區永安南路二段160號","121.46163","25.0789066666667","6501400","蘆洲區"
"247011","007-UY","2017/08/14 17:59:34","新北市蘆洲區民族路101號","121.479701666667","25.0865466666667","6501400","蘆洲區"
"241031","251-BX","2017/08/14 05:01:59","新北市石碇區小粗坑(潭邊里)9-2號","121.678858333333","24.9857766666667","6500200","三重區"
"223008","406-TH","2017/08/14 10:41:50","新北市石碇區小粗坑(潭邊里)9-2號","121.678606666667","24.985665","6501900","石碇區"
"228003","097-TW","2017/08/14 17:59:43","新北市貢寮區真理里美艷山街6-2號","121.928958333333","25.0606916666667","6502600","貢寮區"
"228002","585-TW","2017/08/14 17:59:42","新北市貢寮區福連里香蘭街2-1號","121.970246666667","25.0239366666667","6502600","貢寮區"
"228001","670-TC","2017/08/14 17:59:42","新北市貢寮區真理里新港街26巷53號","121.928521666667","25.0536366666667","6502600","貢寮區"
"224010","AGQ-8101","2017/08/14 17:59:22","新北市瑞芳區金光路374號","121.849318333333","25.1112766666667","6501200","瑞芳區"
"224006","676-BX","2017/08/14 17:59:50","新北市瑞芳區瑞興新村12巷1號","121.788428333333","25.10835","6501200","瑞芳區"
"224002","639-TC","2017/08/14 17:59:48","新北市瑞芳區三爪子坑路127號","121.810265","25.106875","6501200","瑞芳區"
"224009","285-BY","2017/08/14 17:59:49","新北市瑞芳區新山路14號","121.852081666667","25.1101916666667","6501200","瑞芳區"
"224008","275-VK","2017/08/14 17:59:50","新北市瑞芳區明燈路一段201巷97-1號","121.81877","25.106675","6501200","瑞芳區"
"224007","273-VK","2017/08/14 17:59:41","新北市瑞芳區大寮路84號","121.78051","25.1013033333333","6501200","瑞芳區"
"224005","271-BY","2017/08/14 17:59:53","新北市瑞芳區建基路一段50巷51號","121.817965","25.1281133333333","6501200","瑞芳區"
"227008","400-TW","2017/08/14 17:59:42","新北市雙溪區三貂里定福路1-2號","121.850758333333","25.0635183333333","6502500","雙溪區"
"253006","032-BX","2017/08/14 17:59:48","新北市石門區大丘田45-2號","121.549773333333","25.2748633333333","6502200","石門區"
"253005","295-VK","2017/08/14 17:59:40","新北市石門區中山路62-11號","121.567576666667","25.28968","6502200","石門區"
"253003","4710-YM","2017/08/14 08:00:16","新北市石門區中山路64-1號","121.56747","25.2905316666667","6502200","石門區"
"253005","6251-TK","2017/08/14 17:59:47","新北市石門區中山路62-13號","121.567473333333","25.2897683333333","6502200","石門區"
"208002","742-BX","2017/08/14 17:59:37","新北市金山區三界壇路24號","121.625656666667","25.2284966666667","6502700","金山區"
"208003","665-BX","2017/08/14 17:59:53","新北市金山區磺港里磺港路314號","121.644731666667","25.227815","6502700","金山區"
"208001","761-BX","2017/08/14 17:59:54","新北市金山區磺港里磺港路169號","121.643046666667","25.2245783333333","6502700","金山區"
"251009","008-UM","2017/08/14 17:59:47","新北市淡水區大仁街8號","121.442371666667","25.174645","6501000","淡水區"
"251004","009-UM","2017/08/14 17:59:22","新北市淡水區民權路185巷11號","121.460136666667","25.1340033333333","6501000","淡水區"
"251008","181-VK","2017/08/14 17:59:44","新北市淡水區八勢一街51號","121.46192","25.15571","6501000","淡水區"
"251013","182-VK","2017/08/14 17:59:44","新北市淡水區泉洲厝31號","121.479513333333","25.191045","6501000","淡水區"
"251010","413-VK","2017/08/14 17:59:51","新北市淡水區淡海路46號","121.423193333333","25.1801383333333","6501000","淡水區"
"251012","441-VK","2017/08/14 17:59:53","新北市淡水區北新路三段38巷7號","121.484535","25.1869883333333","6501000","淡水區"
"251015","442-VK","2017/08/14 17:59:50","新北市淡水區興福寮88巷1號","121.485493333333","25.1651066666667","6501000","淡水區"
"251005","443-VK","2017/08/14 17:59:50","新北市淡水區英專路125-6號","121.446185","25.1726633333333","6501000","淡水區"
"251001","559-UM","2017/08/14 17:59:42","新北市淡水區民權路94巷1號","121.463085","25.1248033333333","6501000","淡水區"
"251006","561-UM","2017/08/14 17:59:43","新北市淡水區真理街4-5號","121.438163333333","25.1731283333333","6501000","淡水區"
"251011","650-BX","2017/08/14 17:59:50","新北市淡水區三空泉6-3號","121.476968333333","25.16243","6501000","淡水區"
"251002","672-BX","2017/08/14 17:59:43","新北市淡水區鼻頭街18-5號","121.44679","25.1667216666667","6501000","淡水區"
"251003","766-UM","2017/08/14 17:59:48","新北市淡水區大忠街79-6號","121.445743333333","25.1772283333333","6501000","淡水區"
"207003","550-UM","2017/08/14 17:59:48","新北市萬里區港東路野柳風景區攤販98號","121.690886666667","25.2055966666667","6502800","萬里區"
"207004","225-TW","2017/08/14 17:59:41","新北市萬里區中幅里中福路48號","121.68337","25.1740866666667","6502800","萬里區"
"252002","178-VK","2017/08/14 17:59:56","新北市三芝區中山路一段102號","121.502325","25.2561933333333","6502100","三芝區"
"252001","292-VK","2017/08/14 17:59:43","新北市三芝區中興街一段32號","121.49793","25.25754","6502100","三芝區"
"237004","078-UY","2017/08/14 17:59:45","新北市三峽區中正路二段125-3號","121.366215","24.9164366666667","6500900","三峽區"
"237007","153-BY","2017/08/14 17:59:33","新北市三峽區中園街175號","121.36705","24.921665","6500900","三峽區"
"237009","210-TH","2017/08/14 17:59:37","新北市三峽區中山路106巷16-2號","121.366168333333","24.9364033333333","6500900","三峽區"
"237013","252-BX","2017/08/14 17:59:46","新北市三峽區介壽路一段135號","121.376181666667","24.931685","6500900","三峽區"
"237012","275-BY","2017/08/14 17:59:51","新北市三峽區民生街27巷1號","121.376045","24.936195","6500900","三峽區"
"237008","302-VK","2017/08/14 17:59:44","新北市三峽區白雞24號","121.368448333333","24.9125183333333","6500900","三峽區"
"237014","433-BY","2017/08/14 17:59:52","新北市三峽區復興路101巷1弄28號","121.371123333333","24.9377483333333","6500900","三峽區"
"237006","5529-G3","2017/08/14 17:59:53","新北市三峽區介壽路二段138巷1弄133號","121.39966","24.9309566666667","6500900","三峽區"
"237011","572-TV","2017/08/14 17:59:50","新北市三峽區大同路22號","121.377885","24.9295016666667","6500900","三峽區"
"237015","649-BX","2017/08/14 17:59:42","新北市三峽區紫微路109號","121.407605","24.9114133333333","6500900","三峽區"
"237010","706-TV","2017/08/14 17:59:48","新北市三峽區民權街168號","121.367898333333","24.93021","6500900","三峽區"
"237005","AKY-6261","2017/08/14 17:59:49","新北市三峽區復興路239-2號","121.368161666667","24.9384266666667","6500900","三峽區"
"236069","105-UM","2017/08/14 17:59:45","新北市土城區城林路6巷80號","121.438431666667","24.9797333333333","6501300","土城區"
"236042","107-UM","2017/08/14 17:59:53","新北市土城區裕生路82巷2號","121.447565","24.9859783333333","6501300","土城區"
"236078","166-UM","2017/08/14 17:59:40","新北市土城區永寧路32巷10弄39號","121.428313333333","24.9611866666667","6501300","土城區"
"236030","253-BX","2017/08/14 17:59:43","新北市土城區城林路6巷80號","121.438535","24.97975","6501300","土城區"
"236026","269-VK","2017/08/14 17:59:36","新北市土城區承天路18號","121.439415","24.963545","6501300","土城區"
"236014","270-VK","2017/08/14 17:59:48","新北市土城區城林路6巷80號","121.438541666667","24.9797016666667","6501300","土城區"
"236036","271-VK","2017/08/14 17:59:49","新北市土城區學士路181號","121.4459","24.975825","6501300","土城區"
"236014","401-BY","2017/08/14 17:59:36","新北市土城區城林路6巷80號","121.438778333333","24.9797816666667","6501300","土城區"
"236058","912-UM","2017/08/14 17:59:35","新北市土城區永寧路1號","121.430516666667","24.9647833333333","6501300","土城區"
"236048","913-UM","2017/08/14 17:59:36","新北市土城區城林路6巷80號","121.43859","24.979815","6501300","土城區"
"236062","915-UM","2017/08/14 17:59:35","新北市土城區城林路6巷80號","121.438435","24.979795","6501300","土城區"
"236053","AAC-216","2017/08/14 17:59:45","新北市土城區城林路6巷80號","121.438523333333","24.9795866666667","6501300","土城區"
"242021","AAC-296","2017/08/14 17:59:46","新北市新莊區中華路一段6號","121.452073333333","25.03654","6500500","新莊區"
"242029","986-R7","2017/08/14 17:59:39","新北市新莊區復興路一段2號","121.445528333333","25.0412516666667","6500500","新莊區"
"242048","751-BX","2017/08/14 17:59:35","新北市新莊區萬安街47巷9號","121.422373333333","25.0244516666667","6500500","新莊區"
"242025","615-BX","2017/08/14 17:59:41","新北市新莊區五工路86號","121.457168333333","25.064075","6500500","新莊區"
"242023","613-BX","2017/08/14 17:59:49","新北市新莊區福壽街72號","121.458275","25.0493183333333","6500500","新莊區"
"242027","612-BX","2017/08/14 17:59:52","新北市新莊區福壽街66巷13號","121.459096666667","25.0492133333333","6500500","新莊區"
"242036","566-BX","2017/08/14 17:59:38","新北市新莊區建福路31號","121.426396666667","25.0287083333333","6500500","新莊區"
"242042","497-BY","2017/08/14 17:59:46","新北市新莊區中正路692-8號","121.419933333333","25.02862","6500500","新莊區"
"242004","442-UM","2017/08/14 17:59:44","新北市新莊區福樂街72巷14號","121.458605","25.046615","6500500","新莊區"
"242046","441-UM","2017/08/14 17:59:41","新北市新莊區福營路165巷51號","121.43292","25.0298033333333","6500500","新莊區"
"242050","440-UM","2017/08/14 17:59:46","新北市新莊區西盛街153巷1號","121.428405","25.0181","6500500","新莊區"
"242031","415-TV","2017/08/14 17:59:39","新北市新莊區復興路一段2號","121.445573333333","25.0412483333333","6500500","新莊區"
"242002","413-TV","2017/08/14 17:59:53","新北市新莊區新莊路152巷18號","121.454668333333","25.0365116666667","6500500","新莊區"
"242039","400-BY","2017/08/14 17:59:55","新北市新莊區民安西路24巷4號","121.426438333333","25.021225","6500500","新莊區"
"242060","362-BY","2017/08/14 17:59:37","新北市新莊區新樹路254-1號","121.432848333333","25.016315","6500500","新莊區"
"242058","353-BY","2017/08/14 17:59:44","新北市新莊區雙鳳路134巷22號","121.412681666667","25.028145","6500500","新莊區"
"242015","132-UY","2017/08/14 17:59:42","新北市新莊區中平路105號","121.444775","25.0462716666667","6500500","新莊區"
"242013","133-UY","2017/08/14 17:59:40","新北市新莊區中和街125巷1號","121.447198333333","25.0486016666667","6500500","新莊區"
"242019","135-UY","2017/08/14 17:59:37","新北市新莊區明中街14號","121.457538333333","25.0392983333333","6500500","新莊區"
"242044","172-VK","2017/08/14 17:59:43","新北市新莊區雙鳳路130號","121.413375","25.0280583333333","6500500","新莊區"
"242007","173-VK","2017/08/14 17:59:49","新北市新莊區自信街67號","121.455505","25.0482383333333","6500500","新莊區"
"242056","176-VK","2017/08/14 17:59:42","新北市新莊區豐年街57-1號","121.446571666667","25.0298733333333","6500500","新莊區"
"241031","233-RS","2017/08/14 09:09:31","新北市新莊區環河路48-7號","121.436911666667","25.0098233333333","6500200","三重區"
"242011","346-TH","2017/08/14 17:59:36","新北市新莊區中港路中慶巷39號","121.449145","25.053745","6500500","新莊區"
"242017","348-TH","2017/08/14 17:59:46","新北市新莊區中港路339巷46號","121.45036","25.04511","6500500","新莊區"
"242053","349-TH","2017/08/14 17:59:54","新北市新莊區民安西路363號","121.428441666667","25.0104783333333","6500500","新莊區"
"242034","350-TH","2017/08/14 17:59:39","新北市新莊區中正路421巷13號","121.444641666667","25.0336916666667","6500500","新莊區"
"242009","351-TH","2017/08/14 17:59:53","新北市新莊區昌平街71巷13號","121.453891666667","25.0534366666667","6500500","新莊區"
"238015","755-BX","2017/08/14 17:59:37","新北市樹林區啟智街78號","121.419765","24.99184","6500700","樹林區"
"238023","601-UM","2017/08/14 17:59:53","新北市樹林區龍興街30號","121.402916666667","25.0158666666667","6500700","樹林區"
"238019","599-UM","2017/08/14 17:59:37","新北市樹林區忠孝街67巷46號","121.425551666667","24.9817883333333","6500700","樹林區"
"238018","571-TV","2017/08/14 17:59:48","新北市樹林區樹新路90號","121.42941","24.99754","6500700","樹林區"
"238022","312-TH","2017/08/14 17:59:33","新北市樹林區太順街51巷1號","121.417626666667","24.9790933333333","6500700","樹林區"
"238021","311-TH","2017/08/14 17:59:52","新北市樹林區柑園街一段43號","121.403383333333","24.9600816666667","6500700","樹林區"
"238025","303-VK","2017/08/14 17:59:36","新北市樹林區三俊街111號","121.417193333333","25.0155166666667","6500700","樹林區"
"238017","283-BY","2017/08/14 17:59:56","新北市樹林區中正路510號","121.412136666667","25.0134816666667","6500700","樹林區"
"238014","282-BY","2017/08/14 17:59:39","新北市樹林區大安路179號","121.42115","24.9962766666667","6500700","樹林區"
"238020","268-VK","2017/08/14 17:59:46","新北市樹林區三俊街199巷35-1號","121.420666666667","25.0178866666667","6500700","樹林區"
"238026","172-UY","2017/08/14 17:59:19","新北市樹林區中洲街8號","121.397368333333","24.972545","6500700","樹林區"
"238016","169-UY","2017/08/14 17:59:52","新北市樹林區啟智街151巷2號","121.41674","24.988095","6500700","樹林區"
"239007","AAC-297","2017/08/14 17:59:52","新北市鶯歌區鶯桃路94巷33-2號","121.342001666667","24.9548416666667","6500800","鶯歌區"
"239006","891-R6","2017/08/14 17:59:53","新北市鶯歌區鶯桃路413巷34弄30號","121.330858333333","24.9642","6500800","鶯歌區"
"239008","527-UM","2017/08/14 17:59:35","新北市鶯歌區國際一路68號","121.335431666667","24.9781883333333","6500800","鶯歌區"
"239005","526-UM","2017/08/14 17:59:35","新北市鶯歌區鳳吉五街15號","121.326903333333","24.972415","6500800","鶯歌區"
"239001","417-VK","2017/08/14 17:59:44","新北市鶯歌區中正三路171號","121.336415","24.9399666666667","6500800","鶯歌區"
"239003","360-BY","2017/08/14 17:59:48","新北市鶯歌區永吉街11巷1號","121.336291666667","24.9581766666667","6500800","鶯歌區"
"239002","359-BY","2017/08/14 17:59:48","新北市鶯歌區光明街34號","121.348406666667","24.9559933333333","6500800","鶯歌區"
"221036","130-UY","2017/08/14 17:59:46","新北市汐止區大同路三段40號","121.667101666667","25.0766016666667","6501100","汐止區"
"221015","131-UY","2017/08/14 17:59:46","新北市汐止區長江街299號","121.665728333333","25.0813116666667","6501100","汐止區"
"221010","269-BY","2017/08/14 17:59:54","新北市汐止區汐萬路二段275巷1弄28號","121.646143333333","25.0879866666667","6501100","汐止區"
"221012","278-VK","2017/08/14 17:59:38","新北市汐止區長興街二段6號","121.672376666667","25.081145","6501100","汐止區"
"221023","279-VK","2017/08/14 02:54:23","新北市汐止區康寧街901號","121.651745","25.07499","6501100","汐止區"
"221032","280-BY","2017/08/14 17:59:39","新北市汐止區橫科路73巷2-1號","121.619405","25.0508033333333","6501100","汐止區"
"221027","281-BY","2017/08/14 17:59:50","新北市汐止區大同路二段380號","121.65801","25.0671616666667","6501100","汐止區"
"221038","297-VK","2017/08/14 17:59:50","新北市汐止區連興街128巷7弄3號","121.653466666667","25.061435","6501100","汐止區"
"221029","298-VK","2017/08/14 17:59:46","新北市汐止區樟樹二路329號","121.641383333333","25.07043","6501100","汐止區"
"221021","299-VK","2017/08/14 17:42:55","新北市汐止區康寧街901號","121.651728333333","25.0758566666667","6501100","汐止區"
"221031","353-TW","2017/08/14 17:59:35","新北市汐止區中興路96巷1-3號","121.635291666667","25.06249","6501100","汐止區"
"221035","622-UM","2017/08/14 17:59:49","新北市汐止區汐萬路一段81號","121.65457","25.0703966666667","6501100","汐止區"
"221025","623-UM","2017/08/14 17:59:53","新北市汐止區仁愛路47號","121.659676666667","25.0632283333333","6501100","汐止區"
"221033","647-BX","2017/08/14 17:59:45","新北市汐止區合順街36號","121.62015","25.0430733333333","6501100","汐止區"
"221002","707-TV","2017/08/14 17:59:49","新北市汐止區工建路203號","121.63589","25.0618483333333","6501100","汐止區"
"221002","753-BX","2017/08/14 17:59:56","新北市汐止區招商街19巷1號","121.666695","25.0685466666667","6501100","汐止區"
"220082","806-UM","2017/08/14 17:59:56","新北市板橋區大觀路二段443-2號","121.43819","24.9953066666667","6500100","板橋區"
