"lineid","car","time","location","longitude","latitude","cityid","cityname"
"234046","148-BY","2017/08/14 18:49:44","新北市永和區永元路40巷44弄1號","121.523573333333","25.0005866666667","6500400","永和區"
"234013","149-BY","2017/08/14 18:49:41","新北市永和區保福路二段135號","121.509583333333","25.0139216666667","6500400","永和區"
"234007","207-UY","2017/08/14 18:49:45","新北市永和區永和路二段168號","121.515501666667","25.012965","6500400","永和區"
"234081","298-R6","2017/08/14 18:49:39","新北市永和區永利路108號","121.521196666667","25.0035116666667","6500400","永和區"
"234038","336-UY","2017/08/14 18:49:47","新北市永和區成功路二段207號","121.526606666667","24.995945","6500400","永和區"
"234064","337-UY","2017/08/14 18:49:54","新北市永和區福和路1號","121.525045","25.0090566666667","6500400","永和區"
"234086","338-UY","2017/08/14 18:49:45","新北市永和區中正路39-1號","121.514406666667","24.9960266666667","6500400","永和區"
"234070","552-UM","2017/08/14 18:49:37","新北市永和區竹林路96巷7號","121.519175","25.0120816666667","6500400","永和區"
"234054","553-UM","2017/08/14 18:49:46","新北市永和區竹林路66巷2號","121.51825","25.0134116666667","6500400","永和區"
"234017","745-BX","2017/08/14 18:49:50","新北市永和區忠孝街26巷27弄1號","121.515225","25.0169483333333","6500400","永和區"
"234030","746-BX","2017/08/14 18:49:39","新北市永和區得和路349號","121.52406","24.9995266666667","6500400","永和區"
"234061","AAD-866","2017/08/14 18:49:48","新北市永和區福和路307號","121.516211666667","25.0071866666667","6500400","永和區"
"234042","862-TW","2017/08/14 18:49:37","新北市永和區永貞路306號","121.511936666667","25.00485","6500400","永和區"
"234050","863-TW","2017/08/14 18:49:42","新北市永和區保安路2號","121.510813333333","25.01751","6500400","永和區"
"234011","9373-KE","2017/08/14 18:49:43","新北市永和區文化路126巷10弄1號","121.513138333333","25.016025","6500400","永和區"
"249005","172-UM","2017/08/14 18:49:52","新北市八里區長道坑16-2號","121.395321666667","25.1170516666667","6502300","八里區"
"249001","173-UM","2017/08/14 18:49:47","新北市八里區龍米路二段3號","121.448915","25.13919","6502300","八里區"
"249004","303-UY","2017/08/14 18:49:42","新北市八里區中山路一段268巷5弄10號","121.414615","25.1608866666667","6502300","八里區"
"248016","026-BX","2017/08/14 18:49:38","新北市五股區凌雲路一段136號","121.449553333333","25.102175","6501500","五股區"
"248006","077-UY","2017/08/14 18:49:54","新北市五股區四維路4號","121.467246666667","25.0710216666667","6501500","五股區"
"248008","095-VK","2017/08/14 18:49:52","新北市五股區中興路一段147號","121.465195","25.07356","6501500","五股區"
"248018","225-UY","2017/08/14 18:49:52","新北市五股區民義路二段46-2號","121.413873333333","25.1015666666667","6501500","五股區"
"248012","247-BX","2017/08/14 18:49:37","新北市五股區成泰路二段147巷5-12號","121.437338333333","25.0887466666667","6501500","五股區"
"248014","261-SL","2017/08/14 18:49:49","新北市五股區成泰路二段250號","121.44034","25.0871816666667","6501500","五股區"
"248010","272-BY","2017/08/14 18:49:48","新北市五股區水碓一路61號","121.431573333333","25.07249","6501500","五股區"
"248002","655-BX","2017/08/14 18:49:57","新北市五股區成泰路三段433號","121.449798333333","25.0978233333333","6501500","五股區"
"248004","677-BX","2017/08/14 18:49:39","新北市五股區民義路二段50-19號","121.41266","25.102385","6501500","五股區"
"234023","9380-KE","2017/08/14 18:49:46","新北市永和區竹林路119巷45號","121.52186","25.011835","6500400","永和區"
"234077","969-R7","2017/08/14 18:49:37","新北市永和區中正路2巷29弄13號","121.513605","24.9941483333333","6500400","永和區"
"234067","AAC-212","2017/08/14 18:49:48","新北市永和區中和路625號","121.512945","25.0049033333333","6500400","永和區"
"234003","AAC-295","2017/08/14 18:49:46","新北市永和區中正路736號","121.515328333333","25.0101783333333","6500400","永和區"
"232011","375-UM","2017/08/14 18:49:41","新北市坪林區坪林街43號","121.711705","24.9379766666667","6502000","坪林區"
"244007","080-UY","2017/08/14 18:49:37","新北市林口區太平里17-1號","121.377516666667","25.1154666666667","6501700","林口區"
"244019","403-UM","2017/08/14 18:49:41","新北市林口區忠孝路622巷5號","121.377856666667","25.067255","6501700","林口區"
"244025","742-UY","2017/08/14 18:49:38","新北市林口區南勢二街160號","121.359141666667","25.07461","6501700","林口區"
"244009","410-SL","2017/08/14 18:49:38","新北市林口區竹林路330巷11號","121.392295","25.08289","6501700","林口區"
"244017","656-BX","2017/08/14 18:49:41","新北市林口區文化二路一段68巷33號","121.366968333333","25.06893","6501700","林口區"
"244023","657-BX","2017/08/14 18:49:44","新北市林口區文化二路二段110巷5號","121.379558333333","25.0816783333333","6501700","林口區"
"244013","658-BX","2017/08/14 18:49:46","新北市林口區文化一路一段223號","121.379226666667","25.0757966666667","6501700","林口區"
"244011","701-TV","2017/08/14 18:49:43","新北市林口區仁愛路一段282號","121.393181666667","25.076115","6501700","林口區"
"244018","837-TS","2017/08/14 16:50:01","新北市林口區粉寮路二段160巷40號","121.405646666667","25.0912683333333","6501700","林口區"
"243013","AAD-798","2017/08/14 18:49:48","新北市泰山區明志路三段206巷3號","121.423313333333","25.0379533333333","6501600","泰山區"
"243009","297-R6","2017/08/14 18:49:39","新北市泰山區黎明路25號","121.422065","25.0609133333333","6501600","泰山區"
"243015","380-SR","2017/08/14 18:49:42","新北市泰山區泰林路二段362號","121.428743333333","25.0637183333333","6501600","泰山區"
"243010","548-UM","2017/08/14 18:49:45","新北市泰山區辭修路24號","121.429035","25.05813","6501600","泰山區"
"243011","549-UM","2017/08/14 18:49:51","新北市泰山區黎明路22號","121.421068333333","25.0611516666667","6501600","泰山區"
"243012","646-TV","2017/08/14 18:49:39","新北市泰山區福興三街13號","121.434421666667","25.05774","6501600","泰山區"
"243016","680-BX","2017/08/14 18:49:38","新北市泰山區泰林路二段286號","121.431208333333","25.0625166666667","6501600","泰山區"
"222003","436-BY","2017/08/14 18:49:48","新北市深坑區翠谷街17巷42弄2號","121.625326666667","25.0101816666667","6501800","深坑區"
"222002","659-BX","2017/08/14 18:49:52","新北市深坑區文山路一段69號","121.627048333333","25.0019083333333","6501800","深坑區"
"222001","696-SL","2017/08/14 18:49:43","新北市深坑區松柏街32號","121.63865","25.0113383333333","6501800","深坑區"
"231041","002-UM","2017/08/14 18:49:45","新北市新店區安華路28-1號","121.519735","24.9614766666667","6500600","新店區"
"231056","0291-UT","2017/08/14 18:44:00","新北市新店區自立街23號","121.53771","24.9794","6500600","新店區"
"231058","0293-UT","2017/08/14 18:49:40","新北市新店區北宜路一段98號","121.539005","24.95546","6500600","新店區"
"231059","046-UY","2017/08/14 18:49:52","新北市新店區安華路28-1號","121.519533333333","24.9609566666667","6500600","新店區"
"231061","047-UY","2017/08/14 18:49:45","新北市新店區安忠路4號","121.514706666667","24.9634516666667","6500600","新店區"
"231060","106-UY","2017/08/14 18:49:46","新北市新店區安華路28-1號","121.519856666667","24.9607466666667","6500600","新店區"
"231051","107-UY","2017/08/14 18:49:35","新北市新店區中央路85號","121.53225","24.9764483333333","6500600","新店區"
"231047","108-UY","2017/08/14 18:49:39","新北市新店區德正街20號","121.54373","24.9723466666667","6500600","新店區"
"231052","187-VK","2017/08/14 18:49:47","新北市新店區新烏路一段87巷63號","121.546273333333","24.9412183333333","6500600","新店區"
"231063","268-BY","2017/08/14 18:49:33","新北市新店區車子路109號","121.505243333333","24.9521066666667","6500600","新店區"
"231046","278-BY","2017/08/14 18:49:35","新北市新店區直潭路57號","121.532911666667","24.9423466666667","6500600","新店區"
"231050","AAD-862","2017/08/14 18:49:34","新北市新店區安康路一段105號","121.529098333333","24.961505","6500600","新店區"
"231055","3713-VJ","2017/08/14 18:49:41","新北市新店區新生街10巷7號","121.540461666667","24.9663933333333","6500600","新店區"
"231067","4772-VM","2017/08/14 18:49:40","新北市新店區安康路一段106巷28號","121.527715","24.963045","6500600","新店區"
"231065","512-UM","2017/08/14 18:49:43","新北市新店區車子路10-4號","121.504845","24.95457","6500600","新店區"
"231054","513-UM","2017/08/14 18:49:38","新北市新店區安康路一段65號","121.530378333333","24.961075","6500600","新店區"
"231064","515-UM","2017/08/14 18:49:49","新北市新店區安華路28-1號","121.519568333333","24.9611333333333","6500600","新店區"
"231042","616-UM","2017/08/14 18:49:42","新北市新店區中正路69號","121.543561666667","24.970125","6500600","新店區"
"231040","619-UM","2017/08/14 18:49:40","新北市新店區環河路180-3號","121.535543333333","24.9691866666667","6500600","新店區"
"231049","719-UM","2017/08/14 18:49:40","新北市新店區中央路7號","121.533485","24.9786166666667","6500600","新店區"
"231062","720-UM","2017/08/14 18:49:32","新北市新店區安忠路57巷13號","121.513166666667","24.9573683333333","6500600","新店區"
"231044","897-TW","2017/08/14 18:49:44","新北市新店區中興路三段3號","121.545995","24.9778233333333","6500600","新店區"
"231045","898-TW","2017/08/14 18:49:47","新北市新店區安康路一段94號","121.527695","24.9621216666667","6500600","新店區"
"231043","899-TW","2017/08/14 18:49:48","新北市新店區秀山路70號","121.531098333333","24.9609216666667","6500600","新店區"
"231066","AKT-0513","2017/08/14 18:49:42","新北市新店區安豐路22巷15號","121.502968333333","24.9549116666667","6500600","新店區"
"235066","003-UY","2017/08/14 18:49:37","新北市中和區水源路18巷2弄2號","121.504071666667","25.0032666666667","6500300","中和區"
"235064","005-UY","2017/08/14 18:49:43","新北市中和區連城路109巷22號","121.496811666667","24.99872","6500300","中和區"
"235063","006-UY","2017/08/14 18:49:39","新北市中和區連城路317-1號","121.489145","24.9961833333333","6500300","中和區"
"235056","096-UM","2017/08/14 18:49:42","新北市中和區員山路611巷5弄9號","121.478561666667","25.0108166666667","6500300","中和區"
"235039","097-UM","2017/08/14 18:49:37","新北市中和區安樂路143巷23號","121.513556666667","24.9970183333333","6500300","中和區"
"235065","098-UM","2017/08/14 18:49:50","新北市中和區莊敬路49巷29弄22號","121.501023333333","25.0065266666667","6500300","中和區"
"235040","150-BY","2017/08/14 18:49:47","新北市中和區保健路106巷24號","121.51139","24.9947666666667","6500300","中和區"
"235058","151-BY","2017/08/14 18:49:36","新北市中和區連城路532巷34弄18號","121.475213333333","24.9928016666667","6500300","中和區"
"235055","183-VK","2017/08/14 18:49:39","新北市中和區民生街23號","121.470601666667","25.0055566666667","6500300","中和區"
"235038","185-VK","2017/08/14 18:49:37","新北市中和區立人街14巷52號","121.518361666667","24.9957316666667","6500300","中和區"
"235049","186-VK","2017/08/14 18:49:54","新北市中和區明義街11巷12弄2號","121.503755","24.9946666666667","6500300","中和區"
"235067","255-BX","2017/08/14 18:49:47","新北市中和區中山路二段552號","121.483561666667","25.0050683333333","6500300","中和區"
"235008","293-VK","2017/08/14 18:49:36","新北市中和區復興路280巷38號","121.501328333333","24.9918866666667","6500300","中和區"
"235072","301-VK","2017/08/14 18:49:35","新北市中和區中山路二段57號","121.504316666667","25.004845","6500300","中和區"
"235043","352-BY","2017/08/14 18:49:47","新北市中和區秀朗路三段175巷23號","121.525726666667","24.9908266666667","6500300","中和區"
"235051","376-QA","2017/08/14 18:49:57","新北市中和區工專路145號","121.508648333333","24.9791566666667","6500300","中和區"
"235068","377-QA","2017/08/14 15:40:55","新北市新店區薏仁坑路8-2號","121.499393333333","24.9589183333333","6500300","中和區"
"235061","378-QA","2017/08/14 18:49:38","新北市中和區民享街40-3號","121.473991666667","25.0028166666667","6500300","中和區"
"235050","4979-A6","2017/08/14 18:49:54","新北市中和區忠孝街62巷46號","121.513151666667","24.9838366666667","6500300","中和區"
"235069","4980-A6","2017/08/14 18:49:52","新北市中和區南山路107號","121.50206","24.9974783333333","6500300","中和區"
"235042","551-UM","2017/08/14 18:49:54","新北市中和區成功路70號","121.525965","24.9919033333333","6500300","中和區"
"235070","558-UM","2017/08/14 18:49:51","新北市中和區景平路564號","121.501946666667","24.9951233333333","6500300","中和區"
"235045","565-BX","2017/08/14 18:49:45","新北市中和區南山路208巷1弄11號","121.506558333333","24.98992","6500300","中和區"
"235054","640-BX","2017/08/14 18:49:48","新北市中和區民享街54巷1號","121.47379","25.0024266666667","6500300","中和區"
"235060","647-TV","2017/08/14 18:49:37","新北市中和區中山路三段168號","121.472946666667","25.0064083333333","6500300","中和區"
"235047","732-UM","2017/08/14 18:49:47","新北市中和區興南路二段34巷55弄1號","121.50485","24.9862533333333","6500300","中和區"
"235046","733-UM","2017/08/14 18:49:41","新北市中和區仁愛街36巷44號","121.511356666667","24.986315","6500300","中和區"
"235062","800-TS","2017/08/14 18:49:55","新北市中和區中山路二段330號","121.494926666667","25.00238","6500300","中和區"
"235057","801-TS","2017/08/14 18:49:37","新北市中和區民安街22巷8-1號","121.480191666667","25.000995","6500300","中和區"
"235041","802-TS","2017/08/14 18:49:54","新北市中和區宜安路170號","121.508895","24.9990066666667","6500300","中和區"
"235052","805-TS","2017/08/14 18:49:43","新北市中和區興南路二段399巷66號","121.499796666667","24.9786866666667","6500300","中和區"
"235048","896-TW","2017/08/14 18:49:41","新北市中和區南山路503號","121.50798","24.9876483333333","6500300","中和區"
"235053","900-TW","2017/08/14 18:49:45","新北市中和區華福街44號","121.466456666667","24.99657","6500300","中和區"
"235037","AAC-213","2017/08/14 18:49:52","新北市中和區景平路73號","121.518968333333","24.991395","6500300","中和區"
"235059","AAC-215","2017/08/14 18:49:53","新北市中和區圓通路393巷34號","121.49041","24.98834","6500300","中和區"
"220068","013-TV","2017/08/14 18:49:43","新北市板橋區民生路二段36-1號","121.472283333333","25.0169483333333","6500100","板橋區"
"220072","015-TV","2017/08/14 18:49:49","新北市板橋區大觀路三段79號","121.433468333333","24.995055","6500100","板橋區"
"220065","072-UY","2017/08/14 18:49:39","新北市板橋區民生路二段15號","121.47255","25.0160616666667","6500100","板橋區"
"220086","073-UY","2017/08/14 18:49:35","新北市板橋區大智街71巷11號","121.452971666667","25.0143833333333","6500100","板橋區"
"220106","075-UY","2017/08/14 18:49:45","新北市板橋區民生路二段120號","121.470466666667","25.0197733333333","6500100","板橋區"
"220069","AAD-861","2017/08/14 18:49:45","新北市板橋區觀光街1巷2號","121.47209","25.0155633333333","6500100","板橋區"
"220096","120-SR","2017/08/14 18:49:43","新北市板橋區民生路二段120號","121.470438333333","25.0196916666667","6500100","板橋區"
"226004","312-R5","2017/08/14 18:49:36","新北市平溪區平溪里平溪街45號","121.738511666667","25.0266866666667","6502400","平溪區"
"241031","251-BX","2017/08/14 05:01:59","新北市石碇區小粗坑(潭邊里)9-2號","121.678858333333","24.9857766666667","6500200","三重區"
"223008","406-TH","2017/08/14 10:41:50","新北市石碇區小粗坑(潭邊里)9-2號","121.678606666667","24.985665","6501900","石碇區"
"228003","097-TW","2017/08/14 18:49:43","新北市貢寮區和美里龍洞街28-3號","121.917721666667","25.1117283333333","6502600","貢寮區"
"228002","585-TW","2017/08/14 18:49:42","新北市貢寮區福隆里東興街6-11號","121.95078","25.0210716666667","6502600","貢寮區"
"228001","670-TC","2017/08/14 18:49:42","新北市貢寮區仁理村保健街69號","121.923751666667","25.05161","6502600","貢寮區"
"224006","676-BX","2017/08/14 18:49:50","新北市瑞芳區明燈路三段85-1號","121.80488","25.1080716666667","6501200","瑞芳區"
"224009","285-BY","2017/08/14 18:49:49","新北市瑞芳區祈堂路2號","121.859281666667","25.1110783333333","6501200","瑞芳區"
"224008","275-VK","2017/08/14 18:49:49","新北市瑞芳區逢甲路271-1號","121.801705","25.1119283333333","6501200","瑞芳區"
"224007","273-VK","2017/08/14 18:49:48","新北市瑞芳區大埔路128號","121.76198","25.1009466666667","6501200","瑞芳區"
"224005","271-BY","2017/08/14 18:49:53","新北市瑞芳區瑞濱路93號","121.82055","25.1207533333333","6501200","瑞芳區"
"227001","642-TC","2017/08/14 18:49:38","新北市雙溪區平林里梅竹蹊28號","121.861626666667","25.0360516666667","6502500","雙溪區"
"227008","400-TW","2017/08/14 18:49:42","新北市雙溪區牡丹里聖南10-3號","121.860775","25.04955","6502500","雙溪區"
"253006","032-BX","2017/08/14 18:49:48","新北市石門區下員坑15-10號","121.51291","25.2839733333333","6502200","石門區"
"253005","295-VK","2017/08/14 18:49:40","新北市石門區中山路28-3號","121.565845","25.28992","6502200","石門區"
"253003","4710-YM","2017/08/14 08:00:16","新北市石門區中山路64-1號","121.56747","25.2905316666667","6502200","石門區"
"208002","742-BX","2017/08/14 18:49:37","新北市金山區信義路62號","121.635713333333","25.21896","6502700","金山區"
"208003","665-BX","2017/08/14 18:49:53","新北市金山區中山路393號","121.633368333333","25.2252633333333","6502700","金山區"
"208001","761-BX","2017/08/14 18:49:34","新北市金山區文化三路66巷2弄1號","121.634298333333","25.225725","6502700","金山區"
"251009","008-UM","2017/08/14 18:44:08","新北市淡水區中山北路一段156號","121.443913333333","25.17813","6501000","淡水區"
"251007","179-VK","2017/08/14 18:49:35","新北市淡水區民生路113巷1弄2號","121.46434","25.1387616666667","6501000","淡水區"
"251013","182-VK","2017/08/14 18:49:44","新北市淡水區安子內5-6號","121.483516666667","25.215145","6501000","淡水區"
"251010","413-VK","2017/08/14 18:49:51","新北市淡水區沙崙路13號","121.421191666667","25.1812366666667","6501000","淡水區"
"251012","441-VK","2017/08/14 18:49:33","新北市淡水區新興街1號","121.443853333333","25.1802183333333","6501000","淡水區"
"251015","442-VK","2017/08/14 18:49:50","新北市淡水區興福寮1-7號","121.487256666667","25.1653966666667","6501000","淡水區"
"251001","559-UM","2017/08/14 18:49:45","新北市淡水區自強路88號","121.462593333333","25.12838","6501000","淡水區"
"251011","650-BX","2017/08/14 18:49:44","新北市淡水區學府路22號","121.4476","25.1681233333333","6501000","淡水區"
"251002","672-BX","2017/08/14 18:49:43","新北市淡水區學府路63號","121.448333333333","25.1695333333333","6501000","淡水區"
"251003","766-UM","2017/08/14 18:49:48","新北市淡水區中山北路一段157號","121.443243333333","25.177505","6501000","淡水區"
"207003","550-UM","2017/08/14 18:49:47","新北市萬里區大鵬里頂社1號","121.657021666667","25.20972","6502800","萬里區"
"207004","225-TW","2017/08/14 18:49:41","新北市萬里區萬里里獅頭路23號","121.693216666667","25.1782516666667","6502800","萬里區"
"252002","178-VK","2017/08/14 18:49:36","新北市三芝區中正路一段112號","121.50483","25.25643","6502100","三芝區"
"252003","249-BX","2017/08/14 18:49:50","新北市三芝區後厝里大片頭109號","121.45814","25.24241","6502100","三芝區"
"252001","292-VK","2017/08/14 18:49:43","新北市三芝區中正路三段15號","121.502923333333","25.2535183333333","6502100","三芝區"
"237004","078-UY","2017/08/14 18:49:45","新北市三峽區有木30號","121.427931666667","24.862945","6500900","三峽區"
"237007","153-BY","2017/08/14 18:49:52","新北市三峽區中正路二段421號","121.363083333333","24.9068716666667","6500900","三峽區"
"237009","210-TH","2017/08/14 18:49:37","新北市三峽區大同路268號","121.365398333333","24.925405","6500900","三峽區"
"237013","252-BX","2017/08/14 18:49:46","新北市三峽區光明路69巷25號","121.376726666667","24.92928","6500900","三峽區"
"237012","275-BY","2017/08/14 18:49:51","新北市三峽區三樹路340號","121.383955","24.943355","6500900","三峽區"
"237008","302-VK","2017/08/14 18:49:44","新北市三峽區白雞33-51號","121.370433333333","24.9129683333333","6500900","三峽區"
"237014","433-BY","2017/08/14 18:49:52","新北市三峽區復興路480巷51-1號","121.360598333333","24.9404933333333","6500900","三峽區"
"237006","5529-G3","2017/08/14 18:49:53","新北市三峽區溪東路233巷2弄3號","121.406981666667","24.9335366666667","6500900","三峽區"
"237011","572-TV","2017/08/14 18:49:50","新北市三峽區介壽路三段235號","121.40702","24.94893","6500900","三峽區"
"237015","649-BX","2017/08/14 18:49:42","新北市三峽區建安71-1號","121.447838333333","24.9266133333333","6500900","三峽區"
"237010","706-TV","2017/08/14 18:49:35","新北市三峽區復興路239-1號","121.368096666667","24.9389466666667","6500900","三峽區"
"237005","AKY-6261","2017/08/14 18:49:49","新北市三峽區新興街22號","121.372703333333","24.9355433333333","6500900","三峽區"
"236069","105-UM","2017/08/14 18:49:45","新北市土城區金城路三段10號","121.464753333333","24.9858733333333","6501300","土城區"
"236042","107-UM","2017/08/14 18:49:53","新北市土城區裕民路92巷25弄12號","121.449913333333","24.9856516666667","6501300","土城區"
"236078","166-UM","2017/08/14 18:49:39","新北市土城區中央路四段185巷40弄1號","121.416283333333","24.9556966666667","6501300","土城區"
"236030","253-BX","2017/08/14 18:49:43","新北市土城區忠義路26巷10號","121.439831666667","24.9699216666667","6501300","土城區"
"236026","269-VK","2017/08/14 18:49:36","新北市土城區興城路48號","121.441343333333","24.9726416666667","6501300","土城區"
"236014","270-VK","2017/08/14 18:49:51","新北市土城區金城路二段354巷16號","121.460915","24.9843383333333","6501300","土城區"
"236036","271-VK","2017/08/14 18:49:49","新北市土城區明德路一段221巷5號","121.463723333333","24.978085","6501300","土城區"
"236020","401-BY","2017/08/14 18:49:36","新北市土城區延吉街253巷17號","121.468033333333","24.9842016666667","6501300","土城區"
"236058","912-UM","2017/08/14 18:49:35","新北市土城區中央路三段141號","121.433465","24.96545","6501300","土城區"
"236048","913-UM","2017/08/14 18:49:36","新北市土城區青雲路13號","121.460321666667","24.989445","6501300","土城區"
"236062","915-UM","2017/08/14 18:49:55","新北市土城區金城路三段153號","121.468725","24.9882533333333","6501300","土城區"
"236053","AAC-216","2017/08/14 18:49:45","新北市土城區裕民路166號","121.452303333333","24.9857566666667","6501300","土城區"
"242002","413-TV","2017/08/14 18:49:37","新北市新莊區新泰路357巷3弄57號","121.441845","25.0394233333333","6500500","新莊區"
"242058","353-BY","2017/08/14 18:49:44","新北市泰山區信華一街37號","121.440348333333","25.0449183333333","6500500","新莊區"
"241031","233-RS","2017/08/14 09:09:31","新北市新莊區環河路48-7號","121.436911666667","25.0098233333333","6500200","三重區"
"242009","351-TH","2017/08/14 18:48:44","新北市新莊區新泰路357巷3弄57號","121.442003333333","25.039455","6500500","新莊區"
"238023","601-UM","2017/08/14 18:49:50","新北市樹林區三福街114號","121.406451666667","25.016335","6500700","樹林區"
"238019","599-UM","2017/08/14 18:49:37","新北市樹林區東榮街147巷27弄5號","121.414801666667","24.98105","6500700","樹林區"
"238018","571-TV","2017/08/14 18:49:48","新北市樹林區鎮前街86巷22號","121.425438333333","24.992375","6500700","樹林區"
"238024","5061-A6","2017/08/14 18:49:47","新北市樹林區太平路200號","121.418848333333","24.9753366666667","6500700","樹林區"
"238022","312-TH","2017/08/14 18:49:53","新北市樹林區中華路379巷64號","121.41368","24.9779133333333","6500700","樹林區"
"238025","303-VK","2017/08/14 18:49:36","新北市樹林區中山路三段22號","121.395643333333","24.972965","6500700","樹林區"
"238014","282-BY","2017/08/14 18:49:39","新北市樹林區保安街一段191號","121.420636666667","24.99577","6500700","樹林區"
"238020","268-VK","2017/08/14 18:49:46","新北市樹林區俊英街280號","121.423786666667","25.01318","6500700","樹林區"
"238026","172-UY","2017/08/14 18:49:39","新北市樹林區中和街26號","121.39029","24.9734916666667","6500700","樹林區"
"238016","169-UY","2017/08/14 18:49:52","新北市樹林區文化街27號","121.41918","24.9876233333333","6500700","樹林區"
"239007","AAC-297","2017/08/14 18:49:52","新北市鶯歌區中正一路建德二巷2號","121.363858333333","24.9565366666667","6500800","鶯歌區"
"239008","527-UM","2017/08/14 18:49:35","新北市鶯歌區國際一路14號","121.336195","24.976565","6500800","鶯歌區"
"239005","526-UM","2017/08/14 18:49:35","新北市鶯歌區鳳吉三街31巷1號","121.327433333333","24.9741016666667","6500800","鶯歌區"
"239001","417-VK","2017/08/14 18:49:44","新北市鶯歌區鶯桃路76號","121.340286666667","24.953405","6500800","鶯歌區"
"239003","360-BY","2017/08/14 18:49:48","新北市鶯歌區鶯桃路624號","121.329788333333","24.9686516666667","6500800","鶯歌區"
"239002","359-BY","2017/08/14 18:49:48","新北市鶯歌區中山路290號","121.343845","24.9570683333333","6500800","鶯歌區"
"239004","193-VK","2017/08/14 18:49:50","新北市鶯歌區中正三路247巷76號","121.33371","24.936405","6500800","鶯歌區"
"221008","489-VK","2017/08/14 18:32:52","新北市汐止區康寧街901號","121.651425","25.07502","6501100","汐止區"
"221036","130-UY","2017/08/14 18:49:46","新北市汐止區水碓街38號","121.66503","25.0687016666667","6501100","汐止區"
"221015","131-UY","2017/08/14 18:49:46","新北市汐止區鄉長路一段55巷22號","121.664733333333","25.07634","6501100","汐止區"
"221010","269-BY","2017/08/14 18:49:44","新北市汐止區汐萬路二段9號","121.649348333333","25.080375","6501100","汐止區"
"221012","278-VK","2017/08/14 18:49:38","新北市汐止區汐萬路一段256巷3號","121.653435","25.0745916666667","6501100","汐止區"
"221023","279-VK","2017/08/14 02:54:23","新北市汐止區康寧街901號","121.651745","25.07499","6501100","汐止區"
"221032","280-BY","2017/08/14 18:49:41","新北市汐止區民權街二段85號","121.61914","25.047695","6501100","汐止區"
"221027","281-BY","2017/08/14 18:49:43","新北市汐止區汐萬路一段256巷3號","121.652533333333","25.0745816666667","6501100","汐止區"
"221038","297-VK","2017/08/14 18:49:50","新北市汐止區汐萬路一段312號","121.650681666667","25.0753083333333","6501100","汐止區"
"221029","298-VK","2017/08/14 18:49:46","新北市汐止區工建路66號","121.640508333333","25.0630516666667","6501100","汐止區"
"221021","299-VK","2017/08/14 18:48:55","新北市汐止區新台五路一段238號","121.657243333333","25.0638433333333","6501100","汐止區"
"221031","353-TW","2017/08/14 18:49:55","新北市汐止區福德一路272巷11號","121.63186","25.0643466666667","6501100","汐止區"
"221035","622-UM","2017/08/14 18:49:49","新北市汐止區汐萬路一段273號","121.650398333333","25.07456","6501100","汐止區"
"221025","623-UM","2017/08/14 18:49:53","新北市汐止區仁愛路65號","121.660745","25.0629","6501100","汐止區"
"221033","647-BX","2017/08/14 18:49:45","新北市汐止區南勢街3號","121.627053333333","25.0373666666667","6501100","汐止區"
"221002","707-TV","2017/08/14 18:49:49","新北市汐止區大同路一段150號","121.631641666667","25.0557166666667","6501100","汐止區"
"221002","753-BX","2017/08/14 18:49:56","新北市汐止區茄興街13號","121.673533333333","25.0672633333333","6501100","汐止區"
"220079","145-BY","2017/08/14 18:49:51","新北市板橋區民權路202巷7弄3號","121.459931666667","25.014685","6500100","板橋區"
"220088","146-RM","2017/08/14 18:49:42","新北市板橋區民生路二段161巷1號","121.469908333333","25.0198983333333","6500100","板橋區"
"220080","200-UY","2017/08/14 18:49:52","新北市板橋區大觀路二段265巷66弄24號","121.441691666667","24.9970083333333","6500100","板橋區"
"220075","256-TC","2017/08/14 18:49:44","新北市板橋區館前西路162號","121.45277","25.0085583333333","6500100","板橋區"
"220103","257-TC","2017/08/14 18:49:43","新北市板橋區民生路二段120號","121.4706","25.019665","6500100","板橋區"
"220094","267-BY","2017/08/14 18:49:38","新北市板橋區民生路二段161巷1號","121.470231666667","25.0200766666667","6500100","板橋區"
"220056","276-BY","2017/08/14 18:49:52","新北市板橋區信義路55號","121.457103333333","24.99573","6500100","板橋區"
"220071","283-VK","2017/08/14 18:49:44","新北市板橋區觀光街4巷2弄2-3號","121.472255","25.015765","6500100","板橋區"
"220053","285-VK","2017/08/14 18:49:46","新北市板橋區民生路二段46號","121.472405","25.0174016666667","6500100","板橋區"
"220083","286-VK","2017/08/14 18:49:48","新北市板橋區大觀路二段22巷28號","121.445228333333","25.0035766666667","6500100","板橋區"
"220081","287-VK","2017/08/14 18:49:39","新北市板橋區南雅西路二段175巷1號","121.451711666667","25.0124866666667","6500100","板橋區"
"220090","288-VK","2017/08/14 18:49:40","新北市板橋區民生路二段161巷1號","121.469998333333","25.01991","6500100","板橋區"
"220061","293-UM","2017/08/14 18:49:38","新北市板橋區民生路二段64號","121.472031666667","25.0179683333333","6500100","板橋區"
"220055","295-UM","2017/08/14 18:49:49","新北市板橋區民生路二段36-1號","121.472593333333","25.0166166666667","6500100","板橋區"
"220084","296-UM","2017/08/14 18:49:48","新北市板橋區大觀路二段148巷68號","121.441815","25.0007916666667","6500100","板橋區"
"220098","299-UM","2017/08/14 18:49:46","新北市板橋區民生路二段161巷9號","121.470055","25.019525","6500100","板橋區"
"220062","303-R5","2017/08/14 18:49:50","新北市板橋區觀光街4巷2弄1號","121.472348333333","25.01592","6500100","板橋區"
"220092","307-R5","2017/08/14 16:40:22","新北市板橋區民生路二段120號","121.470505","25.0196033333333","6500100","板橋區"
"220064","486-VK","2017/08/14 16:44:33","新北市板橋區民生路二段15-1號","121.472896666667","25.0164316666667","6500100","板橋區"
"220089","487-VK","2017/08/14 18:49:43","新北市板橋區民生路二段120號","121.470528333333","25.019635","6500100","板橋區"
"220035","560-BX","2017/08/14 18:49:46","新北市板橋區中正路275巷59-4號","121.453008333333","25.0179883333333","6500100","板橋區"
"220063","609-BX","2017/08/14 18:49:48","新北市板橋區民生路一段135號","121.473583333333","25.0150533333333","6500100","板橋區"
"220091","637-BX","2017/08/14 18:49:42","新北市板橋區民生路二段188號","121.470178333333","25.0202266666667","6500100","板橋區"
"220057","686-BX","2017/08/14 18:49:44","新北市板橋區民生路二段17號","121.47251","25.016455","6500100","板橋區"
"220077","687-BX","2017/08/14 18:49:54","新北市板橋區大觀路二段174巷193弄2號","121.442168333333","25.0039716666667","6500100","板橋區"
"220093","689-BX","2017/08/14 18:49:48","新北市板橋區民生路二段161巷3號","121.470116666667","25.0197416666667","6500100","板橋區"
"220054","741-BX","2017/08/14 18:49:38","新北市板橋區民生路二段15號","121.47242","25.0159883333333","6500100","板橋區"
"220082","806-UM","2017/08/14 18:49:36","新北市板橋區篤行路二段143號","121.429708333333","24.9881666666667","6500100","板橋區"
"220067","829-TW","2017/08/14 18:49:46","新北市板橋區中山路二段50-1號","121.473348333333","25.0153966666667","6500100","板橋區"
"220102","830-TW","2017/08/14 16:41:41","新北市板橋區民生路二段161巷7號","121.470236666667","25.0196966666667","6500100","板橋區"
"220074","895-R6","2017/08/14 18:49:49","新北市板橋區南門街63號","121.457031666667","25.0082083333333","6500100","板橋區"
"220073","985-R7","2017/08/14 18:49:52","新北市板橋區館前西路97號","121.457108333333","25.00734","6500100","板橋區"
"220097","AAC-210","2017/08/14 18:49:41","新北市板橋區民生路二段120號","121.470461666667","25.0196733333333","6500100","板橋區"
"220070","AAC-253","2017/08/14 18:49:48","新北市板橋區民生路二段36-1號","121.472495","25.0168","6500100","板橋區"
