"lineid","car","time","location","longitude","latitude","cityid","cityname"
"234046","148-BY","2017/08/14 19:09:44","新北市永和區秀朗路二段126巷30號","121.524551666667","25.0007566666667","6500400","永和區"
"234013","149-BY","2017/08/14 19:09:37","新北市永和區保福路二段20號","121.510943333333","25.0114983333333","6500400","永和區"
"234007","207-UY","2017/08/14 19:09:45","新北市永和區中山路一段326號","121.506375","25.0065966666667","6500400","永和區"
"234081","298-R6","2017/08/14 19:09:54","新北市永和區永貞路37號","121.521285","25.0065116666667","6500400","永和區"
"234038","336-UY","2017/08/14 19:09:47","新北市永和區環河東路4段84-1號","121.528315","24.9980633333333","6500400","永和區"
"234064","337-UY","2017/08/14 19:09:54","新北市永和區秀朗路二段45號","121.521615","25.00226","6500400","永和區"
"234086","338-UY","2017/08/14 19:09:42","新北市永和區永貞路120號","121.518653333333","25.0045133333333","6500400","永和區"
"234070","552-UM","2017/08/14 19:09:57","新北市永和區豫溪街137號","121.519846666667","25.0104383333333","6500400","永和區"
"234054","553-UM","2017/08/14 19:09:46","新北市永和區竹林路86號","121.519398333333","25.0126933333333","6500400","永和區"
"234017","745-BX","2017/08/14 19:09:58","新北市永和區文化路90巷3弄2號","121.513846666667","25.01562","6500400","永和區"
"234030","746-BX","2017/08/14 19:09:39","新北市永和區厚德街100號","121.523423333333","24.9989666666667","6500400","永和區"
"234061","AAD-866","2017/08/14 19:09:48","新北市永和區安樂路304巷10弄17號","121.515293333333","25.0055583333333","6500400","永和區"
"234042","862-TW","2017/08/14 19:09:57","新北市永和區保平路135號","121.510411666667","25.0062716666667","6500400","永和區"
"234050","863-TW","2017/08/14 19:09:47","新北市永和區仁愛路104巷7弄64號","121.510833333333","25.0143216666667","6500400","永和區"
"234026","9371-KE","2017/08/14 19:09:43","新北市永和區安樂路272巷9弄7號","121.515091666667","25.004655","6500400","永和區"
"234011","9373-KE","2017/08/14 19:09:37","新北市永和區仁愛路141巷21號","121.512256666667","25.0115966666667","6500400","永和區"
"249005","172-UM","2017/08/14 19:09:52","新北市八里區中華路三段99巷1號","121.393621666667","25.1384783333333","6502300","八里區"
"249001","173-UM","2017/08/14 19:09:47","新北市八里區龍米路二段228-1號","121.4327","25.1583533333333","6502300","八里區"
"248016","026-BX","2017/08/14 19:09:58","新北市五股區成泰路三段543巷36弄6號","121.450753333333","25.102855","6501500","五股區"
"248018","225-UY","2017/08/14 19:09:52","新北市五股區民義路一段287巷2號","121.423466666667","25.0901083333333","6501500","五股區"
"248012","247-BX","2017/08/14 19:09:57","新北市五股區中興路四段48巷16號","121.438621666667","25.08348","6501500","五股區"
"248014","261-SL","2017/08/14 19:09:49","新北市五股區民義路一段107巷23號","121.432113333333","25.0844933333333","6501500","五股區"
"248010","272-BY","2017/08/14 19:09:53","新北市五股區水碓一路23號","121.430648333333","25.0713116666667","6501500","五股區"
"248002","655-BX","2017/08/14 19:09:57","新北市五股區凌雲路一段158巷6號","121.447795","25.10305","6501500","五股區"
"248004","677-BX","2017/08/14 19:09:39","新北市五股區民義路一段185-4號","121.431743333333","25.0884683333333","6501500","五股區"
"234023","9380-KE","2017/08/14 19:09:46","新北市永和區中興街10巷17號","121.51585","25.0112","6500400","永和區"
"234077","969-R7","2017/08/14 19:09:57","新北市永和區民權路34號","121.520211666667","24.998895","6500400","永和區"
"234067","AAC-212","2017/08/14 19:09:46","新北市永和區保平路28號","121.512243333333","25.00743","6500400","永和區"
"234003","AAC-295","2017/08/14 19:09:46","新北市永和區保福路一段43號","121.512661666667","25.0093016666667","6500400","永和區"
"244019","403-UM","2017/08/14 19:09:41","新北市林口區麗園二街47巷33號","121.382075","25.06968","6501700","林口區"
"244025","742-UY","2017/08/14 19:09:58","新北市林口區文化北路一段542巷8號","121.368405","25.0794183333333","6501700","林口區"
"244009","410-SL","2017/08/14 19:09:38","新北市林口區林口路226號","121.38687","25.0838133333333","6501700","林口區"
"244023","657-BX","2017/08/14 19:09:44","新北市林口區文林六街27巷9號","121.371083333333","25.0809583333333","6501700","林口區"
"244013","658-BX","2017/08/14 19:09:46","新北市林口區麗園二街23巷15-9號","121.379206666667","25.0702866666667","6501700","林口區"
"244011","701-TV","2017/08/14 19:09:43","新北市林口區中山路95號","121.389586666667","25.0787983333333","6501700","林口區"
"244018","837-TS","2017/08/14 16:50:01","新北市林口區粉寮路二段160巷40號","121.405646666667","25.0912683333333","6501700","林口區"
"243013","AAD-798","2017/08/14 19:09:44","新北市泰山區漢口街3號","121.423296666667","25.0367016666667","6501600","泰山區"
"243009","297-R6","2017/08/14 19:09:39","新北市泰山區明志路一段119號","121.433695","25.0634183333333","6501600","泰山區"
"243015","380-SR","2017/08/14 19:09:42","新北市泰山區明志路一段453號","121.430826666667","25.05622","6501600","泰山區"
"243014","421-VK","2017/08/14 19:09:55","新北市泰山區泰林路二段328號","121.430175","25.0630033333333","6501600","泰山區"
"243010","548-UM","2017/08/14 19:09:45","新北市泰山區明志路一段483巷1弄4號","121.431135","25.0554","6501600","泰山區"
"243011","549-UM","2017/08/14 19:09:52","新北市泰山區明志路二段366號","121.42547","25.0450616666667","6501600","泰山區"
"243012","646-TV","2017/08/14 19:09:59","新北市泰山區辭修路36巷1弄1號","121.428093333333","25.0583633333333","6501600","泰山區"
"243016","680-BX","2017/08/14 19:09:57","新北市泰山區明志路三段1號","121.42483","25.0435133333333","6501600","泰山區"
"222003","436-BY","2017/08/14 19:09:55","新北市深坑區深南路156號","121.623985","25.0148166666667","6501800","深坑區"
"222002","659-BX","2017/08/14 19:09:53","新北市深坑區北深路一段177號","121.63236","25.0106616666667","6501800","深坑區"
"222001","696-SL","2017/08/14 19:09:43","新北市深坑區北深路一段300號","121.623878333333","25.0056566666667","6501800","深坑區"
"231041","002-UM","2017/08/14 19:09:45","新北市新店區溪園路415號","121.524433333333","24.9786666666667","6500600","新店區"
"231056","0291-UT","2017/08/14 19:05:39","新北市新店區自立街62號","121.537813333333","24.9794333333333","6500600","新店區"
"231058","0293-UT","2017/08/14 19:09:52","新北市新店區光明街298號","121.540488333333","24.9647566666667","6500600","新店區"
"231059","046-UY","2017/08/14 19:09:52","新北市新店區安和路二段166-10號","121.519153333333","24.9740883333333","6500600","新店區"
"231061","047-UY","2017/08/14 19:09:45","新北市新店區安康路一段113號","121.528461666667","24.9617433333333","6500600","新店區"
"231060","106-UY","2017/08/14 19:09:46","新北市新店區安康路二段240號","121.509155","24.9590866666667","6500600","新店區"
"231051","107-UY","2017/08/14 19:09:55","新北市新店區中正路384號","121.534748333333","24.9769216666667","6500600","新店區"
"231047","108-UY","2017/08/14 19:09:43","新北市新店區德正街29號","121.544655","24.9713133333333","6500600","新店區"
"231052","187-VK","2017/08/14 19:09:38","新北市新店區新烏路二段50巷22號","121.547298333333","24.9269583333333","6500600","新店區"
"231063","268-BY","2017/08/14 19:09:53","新北市新店區車子路134號","121.505091666667","24.9487816666667","6500600","新店區"
"231046","278-BY","2017/08/14 19:09:55","新北市新店區新潭路一段35號","121.523445","24.9420166666667","6500600","新店區"
"231050","AAD-862","2017/08/14 19:09:54","新北市新店區竹林路2巷32號","121.550165","24.9504083333333","6500600","新店區"
"231067","4772-VM","2017/08/14 19:09:56","新北市新店區安康路一段171-5號","121.526813333333","24.9621233333333","6500600","新店區"
"231065","512-UM","2017/08/14 19:09:43","新北市新店區安祥路109巷6弄55號","121.475653333333","24.956995","6500600","新店區"
"231054","513-UM","2017/08/14 19:09:38","新北市新店區新店路178號","121.537145","24.9558083333333","6500600","新店區"
"231064","515-UM","2017/08/14 19:09:57","新北市新店區安忠路102巷1號","121.510678333333","24.956175","6500600","新店區"
"231042","616-UM","2017/08/14 19:09:42","新北市新店區中興路一段123號","121.541651666667","24.9632066666667","6500600","新店區"
"231040","619-UM","2017/08/14 19:09:40","新北市新店區三民路98-3號","121.533996666667","24.97345","6500600","新店區"
"231049","719-UM","2017/08/14 19:09:40","新北市新店區二十張路25巷18弄2號","121.539248333333","24.981735","6500600","新店區"
"231062","720-UM","2017/08/14 19:09:52","新北市新店區安平路5號","121.524","24.963925","6500600","新店區"
"231044","897-TW","2017/08/14 19:09:44","新北市新店區寶中路45-2號","121.544856666667","24.9794416666667","6500600","新店區"
"231045","898-TW","2017/08/14 19:09:44","新北市新店區北宜路一段109巷2-1號","121.53976","24.9548533333333","6500600","新店區"
"231043","899-TW","2017/08/14 19:09:48","新北市新店區寶橋路97號","121.547135","24.9761783333333","6500600","新店區"
"231066","AKT-0513","2017/08/14 19:09:42","新北市新店區安康路三段359巷12弄2號","121.484548333333","24.9501066666667","6500600","新店區"
"241020","412-TH","2017/08/14 19:09:42","新北市三重區忠孝路二段34號","121.485816666667","25.0710516666667","6500200","三重區"
"241035","462-BY","2017/08/14 19:09:50","新北市三重區捷運路29號","121.485206666667","25.0561783333333","6500200","三重區"
"241026","887-TS","2017/08/14 19:09:58","新北市三重區泉州街70巷1號","121.49497","25.0548","6500200","三重區"
"241029","942-UM","2017/08/14 19:09:52","新北市三重區集美街263號","121.492488333333","25.0557583333333","6500200","三重區"
"235066","003-UY","2017/08/14 19:09:57","新北市中和區廣福路18號","121.50513","25.0026516666667","6500300","中和區"
"235064","005-UY","2017/08/14 19:09:43","新北市中和區泰和街44巷44號","121.498038333333","25.0013783333333","6500300","中和區"
"235063","006-UY","2017/08/14 19:09:39","新北市中和區中正路578號","121.486123333333","24.99477","6500300","中和區"
"235056","096-UM","2017/08/14 19:09:42","新北市中和區員山路570號","121.478923333333","25.011385","6500300","中和區"
"235039","097-UM","2017/08/14 19:09:57","新北市中和區自強路64號","121.520028333333","24.9943983333333","6500300","中和區"
"235065","098-UM","2017/08/14 19:09:50","新北市中和區勝利路35巷22號","121.4991","25.0068966666667","6500300","中和區"
"235040","150-BY","2017/08/14 19:09:47","新北市中和區宜安路23巷20號","121.512285","24.99514","6500300","中和區"
"235058","151-BY","2017/08/14 19:09:56","新北市中和區員山路143巷4-4號","121.48074","24.9961516666667","6500300","中和區"
"235055","183-VK","2017/08/14 19:09:40","新北市中和區德光路77巷21號","121.470003333333","25.0033366666667","6500300","中和區"
"235038","185-VK","2017/08/14 19:09:57","新北市中和區自強路66號","121.519865","24.9942016666667","6500300","中和區"
"235049","186-VK","2017/08/14 19:09:54","新北市中和區明禮街12號","121.504971666667","24.9959133333333","6500300","中和區"
"235067","255-BX","2017/08/14 19:09:47","新北市中和區新生街166巷15號","121.482928333333","25.0001716666667","6500300","中和區"
"235008","293-VK","2017/08/14 19:09:56","新北市中和區中興街202巷57號","121.49857","24.9895183333333","6500300","中和區"
"235072","301-VK","2017/08/14 19:09:55","新北市中和區福祥路12號","121.499581666667","25.0030666666667","6500300","中和區"
"235043","352-BY","2017/08/14 19:09:47","新北市中和區景平路116號","121.51942","24.9916133333333","6500300","中和區"
"235051","376-QA","2017/08/14 19:09:55","新北市中和區忠孝街19巷38號","121.50969","24.98476","6500300","中和區"
"235068","377-QA","2017/08/14 15:40:55","新北市新店區薏仁坑路8-2號","121.499393333333","24.9589183333333","6500300","中和區"
"235061","378-QA","2017/08/14 19:09:58","新北市中和區民有街59號","121.476411666667","25.00357","6500300","中和區"
"235050","4979-A6","2017/08/14 19:09:54","新北市中和區復興路263巷9弄14號","121.503366666667","24.9896666666667","6500300","中和區"
"235069","4980-A6","2017/08/14 19:09:52","新北市中和區廣福路63號","121.502401666667","25.001115","6500300","中和區"
"235042","551-UM","2017/08/14 19:09:54","新北市中和區秀朗路三段22巷15號","121.525515","24.996115","6500300","中和區"
"235070","558-UM","2017/08/14 19:09:51","新北市中和區景新街117號","121.505746666667","24.9976283333333","6500300","中和區"
"235045","565-BX","2017/08/14 19:09:45","新北市中和區景新街467巷20弄23號","121.51501","24.98752","6500300","中和區"
"235054","640-BX","2017/08/14 19:09:39","新北市中和區國光街6巷1號","121.471883333333","25.00025","6500300","中和區"
"235060","647-TV","2017/08/14 19:09:57","新北市中和區民享街91-12號","121.474618333333","25.00071","6500300","中和區"
"235047","732-UM","2017/08/14 19:09:47","新北市中和區興南路一段56巷4號","121.510715","24.9908583333333","6500300","中和區"
"235046","733-UM","2017/08/14 19:09:41","新北市中和區忠孝街1巷84號","121.508208333333","24.98496","6500300","中和區"
"235057","801-TS","2017/08/14 19:09:57","新北市中和區民利街87號","121.47808","24.9980716666667","6500300","中和區"
"235041","802-TS","2017/08/14 19:09:54","新北市中和區宜安路92巷19號","121.511371666667","24.9982633333333","6500300","中和區"
"235052","805-TS","2017/08/14 19:09:43","新北市中和區興南路二段128巷9弄1號","121.503431666667","24.9842366666667","6500300","中和區"
"235048","896-TW","2017/08/14 19:09:41","新北市中和區工專路147號","121.50836","24.9787983333333","6500300","中和區"
"235053","900-TW","2017/08/14 19:09:45","新北市板橋區和平路165號","121.463816666667","24.9960566666667","6500300","中和區"
"235071","911-UM","2017/08/14 19:09:37","新北市中和區員山路105號","121.480845","24.9943866666667","6500300","中和區"
"235037","AAC-213","2017/08/14 19:09:52","新北市中和區秀朗路三段10巷37弄2號","121.524125","24.9961016666667","6500300","中和區"
"235059","AAC-215","2017/08/14 19:09:53","新北市中和區圓通路294巷17-5號","121.488646666667","24.9904933333333","6500300","中和區"
"220068","013-TV","2017/08/14 19:09:43","新北市板橋區中山路二段443巷74號","121.480876666667","25.0221566666667","6500100","板橋區"
"220072","015-TV","2017/08/14 19:09:49","新北市板橋區金門街369巷58號","121.428326666667","24.98183","6500100","板橋區"
"220065","072-UY","2017/08/14 19:09:59","新北市板橋區民族路213號","121.469451666667","25.0074716666667","6500100","板橋區"
"220086","073-UY","2017/08/14 19:09:55","新北市板橋區中正路250巷81號","121.458875","25.0199216666667","6500100","板橋區"
"220106","075-UY","2017/08/14 19:09:45","新北市板橋區文化路二段315號","121.472106666667","25.0296916666667","6500100","板橋區"
"220069","AAD-861","2017/08/14 19:09:44","新北市板橋區東興街2號","121.458718333333","25.0054","6500100","板橋區"
"220096","120-SR","2017/08/14 19:09:43","新北市板橋區雙十路二段45號","121.476485","25.0261333333333","6500100","板橋區"
"226004","312-R5","2017/08/14 19:09:56","新北市平溪區靜安路三段238號","121.775661666667","25.0397733333333","6502400","平溪區"
"241031","251-BX","2017/08/14 05:01:59","新北市石碇區小粗坑(潭邊里)9-2號","121.678858333333","24.9857766666667","6500200","三重區"
"223008","406-TH","2017/08/14 10:41:50","新北市石碇區小粗坑(潭邊里)9-2號","121.678606666667","24.985665","6501900","石碇區"
"228003","097-TW","2017/08/14 19:09:43","新北市貢寮區和美里和美街37號","121.912275","25.087135","6502600","貢寮區"
"228002","585-TW","2017/08/14 19:09:42","新北市貢寮區福隆里福隆街32-1號","121.945108333333","25.0174266666667","6502600","貢寮區"
"228001","670-TC","2017/08/14 19:09:42","新北市貢寮區真理里新港街10號","121.925528333333","25.0543816666667","6502600","貢寮區"
"224010","AGQ-8101","2017/08/14 19:09:55","新北市瑞芳區基山街31巷20號","121.846065","25.11009","6501200","瑞芳區"
"224006","676-BX","2017/08/14 19:09:47","新北市瑞芳區三爪子坑路106巷11號","121.808813333333","25.1045033333333","6501200","瑞芳區"
"224009","285-BY","2017/08/14 19:09:48","新北市瑞芳區長仁路40號","121.864495","25.1180566666667","6501200","瑞芳區"
"224008","275-VK","2017/08/14 19:09:49","新北市瑞芳區瑞芳街82-1號","121.803058333333","25.1099933333333","6501200","瑞芳區"
"224005","271-BY","2017/08/14 19:09:53","新北市瑞芳區海濱路87-2號","121.830486666667","25.12251","6501200","瑞芳區"
"227001","642-TC","2017/08/14 19:09:38","新北市雙溪區平林里外平林10-4號","121.859143333333","25.0380466666667","6502500","雙溪區"
"227008","400-TW","2017/08/14 19:09:42","新北市雙溪區牡丹里中正路30號","121.864588333333","25.0381283333333","6502500","雙溪區"
"253006","032-BX","2017/08/14 19:09:48","新北市石門區海灣新城40號","121.52804","25.285345","6502200","石門區"
"253005","295-VK","2017/08/14 19:09:39","新北市石門區小坑14-3號","121.600933333333","25.2869916666667","6502200","石門區"
"253003","4710-YM","2017/08/14 08:00:16","新北市石門區中山路64-1號","121.56747","25.2905316666667","6502200","石門區"
"208002","742-BX","2017/08/14 19:09:57","新北市金山區中華路122巷14號","121.633831666667","25.2208966666667","6502700","金山區"
"208003","665-BX","2017/08/14 19:09:53","新北市金山區中正路126號","121.632325","25.2216266666667","6502700","金山區"
"208001","761-BX","2017/08/14 19:09:54","新北市金山區福德街16巷4號","121.639131666667","25.2216883333333","6502700","金山區"
"251009","008-UM","2017/08/14 19:09:47","新北市淡水區清水街99-1號","121.440865","25.1706616666667","6501000","淡水區"
"251007","179-VK","2017/08/14 19:09:55","新北市淡水區民生路143號","121.465785","25.138575","6501000","淡水區"
"251013","182-VK","2017/08/14 19:09:44","新北市淡水區安子內12號","121.481528333333","25.2191216666667","6501000","淡水區"
"251010","413-VK","2017/08/14 19:09:51","新北市淡水區中正路一段156巷3號","121.421261666667","25.1803033333333","6501000","淡水區"
"251015","442-VK","2017/08/14 19:09:50","新北市淡水區南勢埔34號","121.484305","25.179975","6501000","淡水區"
"251005","443-VK","2017/08/14 19:09:50","新北市淡水區新民街180-6號","121.436761666667","25.1787883333333","6501000","淡水區"
"251001","559-UM","2017/08/14 19:09:42","新北市淡水區自強路201巷39號","121.462193333333","25.12675","6501000","淡水區"
"251011","650-BX","2017/08/14 19:09:43","新北市淡水區中正東路二段143巷2弄1號","121.460695","25.1474716666667","6501000","淡水區"
"251002","672-BX","2017/08/14 19:09:43","新北市淡水區中山路70-1號","121.443048333333","25.1705016666667","6501000","淡水區"
"251003","766-UM","2017/08/14 19:09:48","新北市淡水區中山北路一段76號","121.44225","25.176025","6501000","淡水區"
"207003","550-UM","2017/08/14 19:09:28","新北市萬里區大鵬里萬里加投24號","121.64947","25.2083316666667","6502800","萬里區"
"207004","225-TW","2017/08/14 19:09:41","新北市萬里區萬里里瑪鋉下街2號","121.691111666667","25.178425","6502800","萬里區"
"252002","178-VK","2017/08/14 19:09:56","新北市三芝區中正路一段16號","121.50288","25.2588833333333","6502100","三芝區"
"252003","249-BX","2017/08/14 19:09:50","新北市三芝區錫板里海尾14-15號","121.477308333333","25.2585316666667","6502100","三芝區"
"252001","292-VK","2017/08/14 19:09:43","新北市三芝區長勤街45巷2號","121.500316666667","25.2551716666667","6502100","三芝區"
"237004","078-UY","2017/08/14 19:09:45","新北市三峽區有木206號","121.43909","24.851495","6500900","三峽區"
"237007","153-BY","2017/08/14 19:09:52","新北市三峽區中正路二段83巷11號","121.367095","24.9178483333333","6500900","三峽區"
"237009","210-TH","2017/08/14 19:09:57","新北市三峽區文化路100號","121.371566666667","24.9362833333333","6500900","三峽區"
"237013","252-BX","2017/08/14 19:09:46","新北市三峽區光明路69巷25號","121.376753333333","24.929275","6500900","三峽區"
"237012","275-BY","2017/08/14 19:09:51","新北市三峽區三樹路222巷254弄42-1號","121.392036666667","24.94391","6500900","三峽區"
"237008","302-VK","2017/08/14 19:09:44","新北市三峽區大同路127號","121.37402","24.926795","6500900","三峽區"
"237014","433-BY","2017/08/14 19:09:52","新北市三峽區中山路257巷39號","121.362123333333","24.93646","6500900","三峽區"
"237006","5529-G3","2017/08/14 19:09:53","新北市三峽區橫溪路95號","121.398408333333","24.9354733333333","6500900","三峽區"
"237011","572-TV","2017/08/14 19:09:50","新北市三峽區介壽路一段233號","121.379226666667","24.9303983333333","6500900","三峽區"
"237015","649-BX","2017/08/14 19:09:42","新北市三峽區建安80-3號","121.451748333333","24.922925","6500900","三峽區"
"237010","706-TV","2017/08/14 19:09:55","新北市三峽區國光街54號","121.374486666667","24.93807","6500900","三峽區"
"237005","AKY-6261","2017/08/14 19:09:49","新北市三峽區中山路459巷163-3號","121.348648333333","24.933","6500900","三峽區"
"236069","105-UM","2017/08/14 19:09:45","新北市土城區裕生路84巷2號","121.447276666667","24.9854216666667","6501300","土城區"
"236078","166-UM","2017/08/14 19:09:39","新北市土城區龍泉路41號","121.415126666667","24.9437333333333","6501300","土城區"
"236026","269-VK","2017/08/14 19:09:56","新北市土城區中正路59號","121.444321666667","24.9755883333333","6501300","土城區"
"236014","270-VK","2017/08/14 19:09:48","新北市土城區學府路一段37巷7號","121.457858333333","24.9880016666667","6501300","土城區"
"236036","271-VK","2017/08/14 19:09:49","新北市土城區清水路145號","121.458381666667","24.9818066666667","6501300","土城區"
"236020","401-BY","2017/08/14 19:09:57","新北市土城區延吉街217巷11弄7號","121.469251666667","24.98446","6501300","土城區"
"236058","912-UM","2017/08/14 19:09:55","新北市土城區金城路二段236號","121.456676666667","24.9830233333333","6501300","土城區"
"236048","913-UM","2017/08/14 19:09:56","新北市土城區明德路一段398-1號","121.453698333333","24.97906","6501300","土城區"
"236053","AAC-216","2017/08/14 19:09:45","新北市土城區學成路24號","121.452886666667","24.9869833333333","6501300","土城區"
"242002","413-TV","2017/08/14 19:09:57","新北市新莊區新泰路357巷3弄57號","121.441878333333","25.039545","6500500","新莊區"
"241031","233-RS","2017/08/14 09:09:31","新北市新莊區環河路48-7號","121.436911666667","25.0098233333333","6500200","三重區"
"242009","351-TH","2017/08/14 18:48:44","新北市新莊區新泰路357巷3弄57號","121.442003333333","25.039455","6500500","新莊區"
"238015","755-BX","2017/08/14 19:09:54","新北市樹林區備內街158巷9號","121.407483333333","24.9899016666667","6500700","樹林區"
"238023","601-UM","2017/08/14 19:09:50","新北市樹林區大慶街88號","121.396046666667","25.0139683333333","6500700","樹林區"
"238019","599-UM","2017/08/14 19:09:57","新北市樹林區東榮街52號","121.417058333333","24.98315","6500700","樹林區"
"238018","571-TV","2017/08/14 19:09:48","新北市樹林區八德街23號","121.418205","24.9841216666667","6500700","樹林區"
"238022","312-TH","2017/08/14 19:09:57","新北市樹林區中山路二段151巷19號","121.407656666667","24.9779","6500700","樹林區"
"238021","311-TH","2017/08/14 19:09:52","新北市樹林區柑園街二段300號","121.373576666667","24.952025","6500700","樹林區"
"238025","303-VK","2017/08/14 19:09:55","新北市樹林區中山路三段120號","121.392421666667","24.97216","6500700","樹林區"
"238017","283-BY","2017/08/14 19:09:56","新北市樹林區保安街二段165號","121.415291666667","25.002915","6500700","樹林區"
"238014","282-BY","2017/08/14 19:09:59","新北市樹林區千歲街92巷7弄31號","121.427505","24.998235","6500700","樹林區"
"238020","268-VK","2017/08/14 19:09:46","新北市樹林區俊英街190號","121.425838333333","25.0080533333333","6500700","樹林區"
"238026","172-UY","2017/08/14 19:09:39","新北市樹林區地政街3號","121.393791666667","24.9718483333333","6500700","樹林區"
"238016","169-UY","2017/08/14 19:09:31","新北市樹林區復興路373巷3弄11號","121.417366666667","24.9868416666667","6500700","樹林區"
"239007","AAC-297","2017/08/14 19:09:52","新北市鶯歌區中正一路230號","121.354063333333","24.957035","6500800","鶯歌區"
"239006","891-R6","2017/08/14 19:09:53","新北市鶯歌區鶯桃路296巷94弄24號","121.33751","24.9616233333333","6500800","鶯歌區"
"239008","527-UM","2017/08/14 19:09:55","新北市鶯歌區國際二路18巷43號","121.33825","24.9759316666667","6500800","鶯歌區"
"239005","526-UM","2017/08/14 19:09:55","新北市鶯歌區鳳吉一街34號","121.32592","24.9736766666667","6500800","鶯歌區"
"239001","417-VK","2017/08/14 19:09:44","新北市鶯歌區永智街41號","121.336631666667","24.9541916666667","6500800","鶯歌區"
"239003","360-BY","2017/08/14 19:09:55","新北市鶯歌區八德路1-2號","121.338786666667","24.9482366666667","6500800","鶯歌區"
"239002","359-BY","2017/08/14 19:09:48","新北市鶯歌區中山路115號","121.350041666667","24.9569466666667","6500800","鶯歌區"
"239004","193-VK","2017/08/14 19:09:50","新北市鶯歌區中正三路363號","121.327608333333","24.934875","6500800","鶯歌區"
"221008","489-VK","2017/08/14 19:09:46","新北市汐止區康寧街504號","121.63298","25.068465","6501100","汐止區"
"221036","130-UY","2017/08/14 19:09:46","新北市汐止區信義路1號","121.662623333333","25.0693466666667","6501100","汐止區"
"221015","131-UY","2017/08/14 19:09:46","新北市汐止區汐萬路一段39-3號","121.654903333333","25.0696383333333","6501100","汐止區"
"221010","269-BY","2017/08/14 19:09:54","新北市汐止區康寧街901號","121.651341666667","25.0751133333333","6501100","汐止區"
"221012","278-VK","2017/08/14 19:09:58","新北市汐止區康寧街901號","121.650803333333","25.0752966666667","6501100","汐止區"
"221023","279-VK","2017/08/14 02:54:23","新北市汐止區康寧街901號","121.651745","25.07499","6501100","汐止區"
"221032","280-BY","2017/08/14 19:09:59","新北市汐止區橫科路407巷30弄21號","121.627185","25.0481366666667","6501100","汐止區"
"221027","281-BY","2017/08/14 18:55:54","新北市汐止區康寧街901號","121.650903333333","25.07526","6501100","汐止區"
"221038","297-VK","2017/08/14 19:09:50","新北市汐止區汐萬路一段312號","121.650685","25.0752966666667","6501100","汐止區"
"221029","298-VK","2017/08/14 19:09:46","新北市汐止區汐萬路一段256巷3號","121.652621666667","25.074525","6501100","汐止區"
"221021","299-VK","2017/08/14 19:09:55","新北市汐止區汐萬路一段278巷7號","121.651505","25.0746233333333","6501100","汐止區"
"221031","353-TW","2017/08/14 19:09:55","新北市汐止區中興路181巷29弄8號","121.629806666667","25.0658616666667","6501100","汐止區"
"221025","623-UM","2017/08/14 19:09:53","新北市汐止區康寧街901號","121.65149","25.075105","6501100","汐止區"
"221033","647-BX","2017/08/14 19:09:45","新北市汐止區南勢街3號","121.627066666667","25.0374083333333","6501100","汐止區"
"221002","707-TV","2017/08/14 19:09:49","新北市汐止區大同路一段160號","121.633191666667","25.0568766666667","6501100","汐止區"
"221002","753-BX","2017/08/14 19:09:56","新北市汐止區汐萬路一段256巷3號","121.65337","25.0746983333333","6501100","汐止區"
"220079","145-BY","2017/08/14 19:09:58","新北市板橋區民權路243號","121.457295","25.0158016666667","6500100","板橋區"
"220088","146-RM","2017/08/14 19:09:42","新北市板橋區文化路二段182巷1弄2號","121.47093","25.0275166666667","6500100","板橋區"
"220080","200-UY","2017/08/14 19:09:52","新北市板橋區大觀路二段7巷96號","121.450045","25.0029333333333","6500100","板橋區"
"220101","245-BX","2017/08/14 19:09:08","新北市板橋區萬板路31-1號","121.470935","25.02122","6500100","板橋區"
"220075","256-TC","2017/08/14 19:09:44","新北市板橋區南雅南路一段5巷17號","121.456331666667","25.0055466666667","6500100","板橋區"
"220103","257-TC","2017/08/14 19:09:44","新北市板橋區文化路一段188巷9弄126號","121.469236666667","25.0190266666667","6500100","板橋區"
"220094","267-BY","2017/08/14 19:09:39","新北市板橋區光武街108-5號","121.465781666667","25.0291166666667","6500100","板橋區"
"220056","276-BY","2017/08/14 19:09:58","新北市板橋區信義路110巷1弄3號","121.458036666667","24.9921883333333","6500100","板橋區"
"220071","283-VK","2017/08/14 19:09:50","新北市板橋區重慶路211號","121.463151666667","25.0015266666667","6500100","板橋區"
"220053","285-VK","2017/08/14 19:09:46","新北市板橋區懷仁街10巷1號","121.475158333333","25.0194966666667","6500100","板橋區"
"220083","286-VK","2017/08/14 19:09:48","新北市板橋區龍興街99巷16號","121.443483333333","25.003255","6500100","板橋區"
"220081","287-VK","2017/08/14 19:09:39","新北市板橋區南雅西路二段110巷30號","121.452916666667","25.0126783333333","6500100","板橋區"
"220090","288-VK","2017/08/14 19:09:55","新北市板橋區裕民街45巷2號","121.461498333333","25.02842","6500100","板橋區"
"220061","293-UM","2017/08/14 19:09:58","新北市板橋區懷仁街85巷2弄1號","121.4777","25.018485","6500100","板橋區"
"220055","295-UM","2017/08/14 19:09:49","新北市板橋區中山路一段130號","121.46332","25.010995","6500100","板橋區"
"220084","296-UM","2017/08/14 19:09:48","新北市板橋區篤行路二段90巷10號","121.431088333333","24.9918533333333","6500100","板橋區"
"220098","299-UM","2017/08/14 19:09:54","新北市板橋區自由路51巷14弄7號","121.464581666667","25.02379","6500100","板橋區"
"220062","303-R5","2017/08/14 19:09:50","新北市板橋區三民路二段245巷83號","121.481395","25.012605","6500100","板橋區"
"220092","307-R5","2017/08/14 19:09:46","新北市板橋區文化路二段225巷60弄46號","121.469193333333","25.0294783333333","6500100","板橋區"
"220064","486-VK","2017/08/14 19:09:56","新北市板橋區板新路35號","121.474243333333","25.0131033333333","6500100","板橋區"
"220089","487-VK","2017/08/14 19:09:58","新北市板橋區文化路二段367號","121.473115","25.0309783333333","6500100","板橋區"
"220035","560-BX","2017/08/14 19:09:46","新北市板橋區中正路381號","121.45413","25.02153","6500100","板橋區"
"220063","609-BX","2017/08/14 19:09:46","新北市板橋區三民路二段226號","121.478813333333","25.0114833333333","6500100","板橋區"
"220091","637-BX","2017/08/14 19:09:38","新北市板橋區縣民大道247巷41號","121.482078333333","25.026955","6500100","板橋區"
"220057","686-BX","2017/08/14 19:09:44","新北市板橋區重慶路91號","121.462028333333","25.0059833333333","6500100","板橋區"
"220077","687-BX","2017/08/14 19:09:56","新北市板橋區大觀路二段141號","121.445816666667","25.0011333333333","6500100","板橋區"
"220093","689-BX","2017/08/14 19:09:49","新北市板橋區民生路三段253號","121.464476666667","25.0292216666667","6500100","板橋區"
"220054","741-BX","2017/08/14 19:09:59","新北市板橋區重慶路93巷14-3號","121.462758333333","25.0057816666667","6500100","板橋區"
"220082","806-UM","2017/08/14 19:09:56","新北市板橋區大觀路三段275號","121.42843","24.9922833333333","6500100","板橋區"
"220067","829-TW","2017/08/14 19:09:46","新北市板橋區三民路二段正隆巷50號","121.47679","25.0139833333333","6500100","板橋區"
"220102","830-TW","2017/08/14 19:09:50","新北市板橋區萬板路818巷20號","121.482898333333","25.026675","6500100","板橋區"
"220074","895-R6","2017/08/14 19:09:45","新北市板橋區中正路43號","121.456288333333","25.0133466666667","6500100","板橋區"
"220073","985-R7","2017/08/14 19:09:50","新北市板橋區中正路307號","121.455206666667","25.019725","6500100","板橋區"
"220097","AAC-210","2017/08/14 19:09:41","新北市板橋區英士路192-1號","121.458603333333","25.0231516666667","6500100","板橋區"
"220070","AAC-253","2017/08/14 19:09:48","新北市板橋區四川路一段265號","121.459593333333","25.0022483333333","6500100","板橋區"
