"lineid","car","time","location","longitude","latitude","cityid","cityname"
"234046","148-BY","2017/08/14 19:19:44","新北市永和區秀朗路二段148巷12弄15號","121.524693333333","25.0008333333333","6500400","永和區"
"234013","149-BY","2017/08/14 19:19:41","新北市永和區信義路79號","121.51229","25.0133633333333","6500400","永和區"
"234007","207-UY","2017/08/14 19:19:45","新北市永和區中山路一段230號","121.50796","25.008175","6500400","永和區"
"234081","298-R6","2017/08/14 19:19:39","新北市永和區福和路52號","121.523448333333","25.008195","6500400","永和區"
"234038","336-UY","2017/08/14 19:19:47","新北市永和區成功路二段69號","121.527496666667","24.9997483333333","6500400","永和區"
"234064","337-UY","2017/08/14 19:19:54","新北市永和區永元路17巷6弄2號","121.52134","25.0006883333333","6500400","永和區"
"234086","338-UY","2017/08/14 19:19:45","新北市永和區永貞路70巷24號","121.519613333333","25.0059016666667","6500400","永和區"
"234070","552-UM","2017/08/14 19:19:57","新北市永和區中正路607號","121.51629","25.0096916666667","6500400","永和區"
"234054","553-UM","2017/08/14 19:19:50","新北市永和區中興街27號","121.516081666667","25.0118866666667","6500400","永和區"
"234017","745-BX","2017/08/14 19:19:50","新北市永和區文化路144巷31弄8號","121.512395","25.0168133333333","6500400","永和區"
"234030","746-BX","2017/08/14 19:19:59","新北市永和區民生路55號","121.522728333333","24.9976283333333","6500400","永和區"
"234061","AAD-866","2017/08/14 19:19:48","新北市永和區秀朗路一段169號","121.516876666667","25.003955","6500400","永和區"
"234042","862-TW","2017/08/14 19:19:57","新北市永和區保平路151巷6弄12號","121.509741666667","25.0051766666667","6500400","永和區"
"234050","863-TW","2017/08/14 19:19:42","新北市永和區信義路87號","121.512261666667","25.0136966666667","6500400","永和區"
"234026","9371-KE","2017/08/14 19:19:43","新北市永和區安樂路68號","121.514818333333","24.9982516666667","6500400","永和區"
"234011","9373-KE","2017/08/14 19:19:57","新北市永和區保福路二段23巷19號","121.510133333333","25.0112066666667","6500400","永和區"
"249005","172-UM","2017/08/14 19:19:53","新北市八里區中華路163號","121.39202","25.1307916666667","6502300","八里區"
"249001","173-UM","2017/08/14 19:19:47","新北市八里區中華路一段298號","121.414868333333","25.1548066666667","6502300","八里區"
"249003","593-UM","2017/08/14 19:19:58","新北市八里區中山路二段466巷11號","121.39858","25.147695","6502300","八里區"
"248018","225-UY","2017/08/14 19:19:52","新北市五股區民義路一段255-5號","121.426123333333","25.091455","6501500","五股區"
"248012","247-BX","2017/08/14 19:19:57","新北市五股區中興路四段48巷16號","121.43862","25.083435","6501500","五股區"
"248014","261-SL","2017/08/14 19:19:49","新北市五股區民義路一段107巷32號","121.432583333333","25.0846383333333","6501500","五股區"
"248010","272-BY","2017/08/14 19:19:53","新北市五股區水碓一路23號","121.430621666667","25.0712966666667","6501500","五股區"
"248002","655-BX","2017/08/14 19:19:57","新北市五股區凌雲路一段158巷6號","121.447811666667","25.103055","6501500","五股區"
"248004","677-BX","2017/08/14 19:19:39","新北市五股區五福路56號","121.433436666667","25.089625","6501500","五股區"
"234023","9380-KE","2017/08/14 19:19:46","新北市永和區竹林路105號","121.519833333333","25.0119016666667","6500400","永和區"
"234077","969-R7","2017/08/14 19:19:54","新北市永和區民權路36巷10號","121.519598333333","24.998945","6500400","永和區"
"234067","AAC-212","2017/08/14 19:19:45","新北市永和區保平路30巷2號","121.51189","25.0073716666667","6500400","永和區"
"234003","AAC-295","2017/08/14 19:19:46","新北市永和區中山路一段105號","121.511006666667","25.0103033333333","6500400","永和區"
"244019","403-UM","2017/08/14 19:19:52","新北市林口區麗園二街3巷1-2號","121.378096666667","25.0695566666667","6501700","林口區"
"244023","657-BX","2017/08/14 19:19:44","新北市林口區文化三路一段555巷40號","121.369885","25.0769383333333","6501700","林口區"
"244013","658-BX","2017/08/14 19:19:46","新北市林口區麗園一街5號","121.376153333333","25.0719966666667","6501700","林口區"
"244011","701-TV","2017/08/14 19:19:43","新北市林口區湖南里70-9號","121.375973333333","25.0897333333333","6501700","林口區"
"244018","837-TS","2017/08/14 16:50:01","新北市林口區粉寮路二段160巷40號","121.405646666667","25.0912683333333","6501700","林口區"
"243013","AAD-798","2017/08/14 19:19:48","新北市泰山區明志路三段145巷2弄15號","121.42505","25.039405","6501600","泰山區"
"243009","297-R6","2017/08/14 19:19:39","新北市泰山區和平街11號","121.434295","25.0645733333333","6501600","泰山區"
"243015","380-SR","2017/08/14 19:19:42","新北市泰山區公園路27巷2號","121.428886666667","25.0543616666667","6501600","泰山區"
"243014","421-VK","2017/08/14 19:19:55","新北市泰山區泰林路二段83號","121.434923333333","25.05869","6501600","泰山區"
"243010","548-UM","2017/08/14 19:19:45","新北市泰山區明志路二段32巷5號","121.429365","25.0535433333333","6501600","泰山區"
"243011","549-UM","2017/08/14 19:19:52","新北市泰山區中央路11巷1號","121.426281666667","25.0427883333333","6501600","泰山區"
"243012","646-TV","2017/08/14 19:19:39","新北市泰山區仁愛路100巷33號","121.433818333333","25.0551316666667","6501600","泰山區"
"243016","680-BX","2017/08/14 19:19:58","新北市泰山區工專路64號","121.422818333333","25.0403516666667","6501600","泰山區"
"222003","436-BY","2017/08/14 19:19:48","新北市深坑區深南路204號","121.626616666667","25.016005","6501800","深坑區"
"222002","659-BX","2017/08/14 19:19:52","新北市深坑區北深路一段177號","121.632578333333","25.0108916666667","6501800","深坑區"
"222001","696-SL","2017/08/14 19:19:43","新北市深坑區北深路二段103號","121.617533333333","25.0034416666667","6501800","深坑區"
"231041","002-UM","2017/08/14 19:19:45","新北市新店區溪園路203號","121.52633","24.9840283333333","6500600","新店區"
"231056","0291-UT","2017/08/14 19:19:55","新北市新店區自立街19號","121.537645","24.9793483333333","6500600","新店區"
"231058","0293-UT","2017/08/14 19:19:40","新北市新店區光明街286巷21號","121.541191666667","24.9634033333333","6500600","新店區"
"231059","046-UY","2017/08/14 19:19:52","新北市新店區安和路三段4號","121.517971666667","24.9809433333333","6500600","新店區"
"231061","047-UY","2017/08/14 19:19:45","新北市新店區安康路一段223號","121.525771666667","24.9630833333333","6500600","新店區"
"231060","106-UY","2017/08/14 19:19:46","新北市新店區安康路二段109號","121.512546666667","24.961855","6500600","新店區"
"231051","107-UY","2017/08/14 19:19:55","新北市新店區中央路81號","121.532256666667","24.97669","6500600","新店區"
"231047","108-UY","2017/08/14 19:19:59","新北市新店區中興路二段81號","121.546865","24.971105","6500600","新店區"
"231052","187-VK","2017/08/14 19:19:38","新北市新店區自強路153號","121.54599","24.9218866666667","6500600","新店區"
"231063","268-BY","2017/08/14 19:19:53","新北市新店區達觀路12號","121.505345","24.9403366666667","6500600","新店區"
"231046","278-BY","2017/08/14 19:19:55","新北市新店區華城路6號","121.530178333333","24.9604716666667","6500600","新店區"
"231050","AAD-862","2017/08/14 19:19:54","新北市新店區竹林路92號","121.553951666667","24.9502166666667","6500600","新店區"
"231067","4772-VM","2017/08/14 19:19:56","新北市新店區薏仁坑路自強巷6號","121.49637","24.9579883333333","6500600","新店區"
"231065","512-UM","2017/08/14 19:19:43","新北市新店區安祥路110巷61號","121.473675","24.9569466666667","6500600","新店區"
"231054","513-UM","2017/08/14 19:19:59","新北市新店區國校路2巷1號","121.537986666667","24.9565383333333","6500600","新店區"
"231064","515-UM","2017/08/14 19:19:48","新北市新店區安忠路57巷26弄68號","121.512038333333","24.95735","6500600","新店區"
"231042","616-UM","2017/08/14 19:19:42","新北市新店區北宜路一段3號","121.538463333333","24.9584483333333","6500600","新店區"
"231040","619-UM","2017/08/14 19:19:40","新北市新店區三民路47號","121.537073333333","24.970935","6500600","新店區"
"231049","719-UM","2017/08/14 19:19:40","新北市新店區明德路64號","121.541548333333","24.9794766666667","6500600","新店區"
"231062","720-UM","2017/08/14 19:19:52","新北市新店區莒光路87巷10號","121.52389","24.9557","6500600","新店區"
"231044","897-TW","2017/08/14 19:19:44","新北市新店區中興路三段304號","121.5424","24.9852683333333","6500600","新店區"
"231045","898-TW","2017/08/14 19:19:49","新北市新店區北宜路二段30號","121.548321666667","24.951465","6500600","新店區"
"231043","899-TW","2017/08/14 19:19:48","新北市新店區北新路二段109號","121.542965","24.974725","6500600","新店區"
"231066","AKT-0513","2017/08/14 19:19:42","新北市新店區安康路三段355巷45號","121.485023333333","24.9493783333333","6500600","新店區"
"241009","060-VK","2017/08/14 19:19:42","新北市三重區溪尾街230巷67號","121.48612","25.0812166666667","6500200","三重區"
"241031","061-VK","2017/08/14 19:19:51","新北市三重區重新路四段216號","121.485995","25.05436","6500200","三重區"
"241017","063-VK","2017/08/14 19:19:58","新北市三重區大同北路217號","121.491568333333","25.066005","6500200","三重區"
"241025","271-UM","2017/08/14 19:19:43","新北市三重區中正北路406號","121.47534","25.0703716666667","6500200","三重區"
"241007","398-BY","2017/08/14 19:19:57","新北市三重區三和路四段163巷77號","121.485945","25.07926","6500200","三重區"
"241020","412-TH","2017/08/14 19:20:02","新北市三重區大智街242號","121.489321666667","25.0730233333333","6500200","三重區"
"241035","462-BY","2017/08/14 19:19:50","新北市三重區新北大道一段7號","121.48984","25.061605","6500200","三重區"
"241030","480-VK","2017/08/14 19:19:50","新北市三重區新興路40號","121.491503333333","25.05344","6500200","三重區"
"241026","887-TS","2017/08/14 19:19:50","新北市三重區重安街170巷6號","121.496436666667","25.054765","6500200","三重區"
"241029","942-UM","2017/08/14 19:19:52","新北市三重區重安街33號","121.49125","25.0569383333333","6500200","三重區"
"235066","003-UY","2017/08/14 19:19:57","新北市中和區中和路101號","121.501433333333","25.000535","6500300","中和區"
"235064","005-UY","2017/08/14 19:19:43","新北市中和區連城路23巷20號","121.499118333333","25.00151","6500300","中和區"
"235063","006-UY","2017/08/14 19:19:59","新北市中和區連城路249巷5號","121.493698333333","24.9967816666667","6500300","中和區"
"235056","096-UM","2017/08/14 19:19:51","新北市中和區中正路1163號","121.481626666667","25.0091866666667","6500300","中和區"
"235039","097-UM","2017/08/14 19:19:57","新北市中和區自立路58巷2號","121.523623333333","24.99162","6500300","中和區"
"235065","098-UM","2017/08/14 19:19:50","新北市中和區中山路二段136巷16號","121.501666666667","25.0040366666667","6500300","中和區"
"235040","150-BY","2017/08/14 19:19:59","新北市中和區保健路46巷2號","121.509725","24.9970733333333","6500300","中和區"
"235058","151-BY","2017/08/14 19:19:56","新北市中和區連城路469巷44弄19號","121.482313333333","24.9946633333333","6500300","中和區"
"235055","183-VK","2017/08/14 19:19:39","新北市中和區德光路82號","121.468993333333","25.003615","6500300","中和區"
"235038","185-VK","2017/08/14 19:19:57","新北市中和區大仁街20巷43號","121.519153333333","24.9931883333333","6500300","中和區"
"235049","186-VK","2017/08/14 19:19:54","新北市中和區景新街235號","121.50813","24.9945416666667","6500300","中和區"
"235067","255-BX","2017/08/14 19:19:49","新北市中和區新生街148巷2號","121.483413333333","25.0006916666667","6500300","中和區"
"235008","293-VK","2017/08/14 19:19:56","新北市中和區中興街230巷1號","121.500098333333","24.9888316666667","6500300","中和區"
"235072","301-VK","2017/08/14 19:19:55","新北市中和區連城路263號","121.491646666667","24.996505","6500300","中和區"
"235043","352-BY","2017/08/14 19:19:47","新北市中和區景平路404號","121.508953333333","24.9931216666667","6500300","中和區"
"235051","376-QA","2017/08/14 19:19:55","新北市中和區和平街2巷2弄1號","121.510108333333","24.990335","6500300","中和區"
"235068","377-QA","2017/08/14 15:40:55","新北市新店區薏仁坑路8-2號","121.499393333333","24.9589183333333","6500300","中和區"
"235061","378-QA","2017/08/14 19:19:58","新北市中和區中山路二段523巷60號","121.482145","25.0028566666667","6500300","中和區"
"235050","4979-A6","2017/08/14 19:19:54","新北市中和區景安路208巷5號","121.503681666667","24.991075","6500300","中和區"
"235069","4980-A6","2017/08/14 19:19:52","新北市中和區福美路301巷17號","121.497585","25.0041333333333","6500300","中和區"
"235042","551-UM","2017/08/14 19:19:54","新北市中和區立人街69巷7弄12號","121.52043","24.99348","6500300","中和區"
"235070","558-UM","2017/08/14 19:19:51","新北市中和區中和路143號","121.502183333333","24.999805","6500300","中和區"
"235045","565-BX","2017/08/14 19:19:45","新北市中和區景新街437巷15號","121.514001666667","24.9892866666667","6500300","中和區"
"235054","640-BX","2017/08/14 19:19:59","新北市中和區民德路140號","121.468703333333","25.0005516666667","6500300","中和區"
"235060","647-TV","2017/08/14 19:19:57","新北市中和區民有街19號","121.475705","25.0053683333333","6500300","中和區"
"235047","732-UM","2017/08/14 19:19:47","新北市中和區景平路241巷35號","121.508698333333","24.9922966666667","6500300","中和區"
"235046","733-UM","2017/08/14 19:19:41","新北市中和區華新街134號","121.508133333333","24.98265","6500300","中和區"
"235057","801-TS","2017/08/14 19:19:57","新北市中和區民利街78號","121.478203333333","24.998165","6500300","中和區"
"235041","802-TS","2017/08/14 19:19:54","新北市中和區宜安路139號","121.509418333333","24.9985116666667","6500300","中和區"
"235052","805-TS","2017/08/14 19:19:42","新北市中和區興南路二段142巷17弄47號","121.502946666667","24.98269","6500300","中和區"
"235048","896-TW","2017/08/14 19:19:38","新北市中和區忠孝街60巷2弄2號","121.511655","24.9837166666667","6500300","中和區"
"235053","900-TW","2017/08/14 19:19:55","新北市中和區華福街57巷4號","121.466796666667","24.9969083333333","6500300","中和區"
"235071","911-UM","2017/08/14 19:19:57","新北市中和區中正路637巷52弄3號","121.485258333333","24.9937233333333","6500300","中和區"
"235037","AAC-213","2017/08/14 19:19:52","新北市中和區秀朗路三段50巷5-1號","121.525968333333","24.9954616666667","6500300","中和區"
"235059","AAC-215","2017/08/14 19:19:53","新北市中和區錦和路195巷1弄2號","121.49116","24.9909066666667","6500300","中和區"
"220068","013-TV","2017/08/14 19:19:56","新北市板橋區翠華街6巷52號","121.481391666667","25.0248516666667","6500100","板橋區"
"220072","015-TV","2017/08/14 19:19:48","新北市板橋區金門街337巷9弄1號","121.430411666667","24.9846766666667","6500100","板橋區"
"220065","072-UY","2017/08/14 19:19:59","新北市板橋區民族路129巷10號","121.467658333333","25.0084683333333","6500100","板橋區"
"220086","073-UY","2017/08/14 19:19:55","新北市板橋區中正路216巷150弄1號","121.46073","25.0194316666667","6500100","板橋區"
"220106","075-UY","2017/08/14 19:19:45","新北市板橋區雙十路三段54號","121.470986666667","25.0314733333333","6500100","板橋區"
"220069","AAD-861","2017/08/14 19:19:43","新北市板橋區大華街71號","121.459471666667","25.0034833333333","6500100","板橋區"
"220096","120-SR","2017/08/14 19:19:43","新北市板橋區大同街23號","121.4775","25.0270416666667","6500100","板橋區"
"226004","312-R5","2017/08/14 19:19:56","新北市平溪區十分里十分街235號","121.778248333333","25.04397","6502400","平溪區"
"241031","251-BX","2017/08/14 05:01:59","新北市石碇區小粗坑(潭邊里)9-2號","121.678858333333","24.9857766666667","6500200","三重區"
"223008","406-TH","2017/08/14 10:41:50","新北市石碇區小粗坑(潭邊里)9-2號","121.678606666667","24.985665","6501900","石碇區"
"228003","097-TW","2017/08/14 19:19:43","新北市貢寮區和美里和美街22-1號","121.912845","25.0826483333333","6502600","貢寮區"
"228002","585-TW","2017/08/14 19:19:42","新北市貢寮區龍門里復興街29-3號","121.927328333333","25.0279116666667","6502600","貢寮區"
"228001","670-TC","2017/08/14 19:19:42","新北市貢寮區真理里新港街10號","121.92557","25.0543916666667","6502600","貢寮區"
"224010","AGQ-8101","2017/08/14 19:19:55","新北市瑞芳區基山街2號","121.84513","25.109825","6501200","瑞芳區"
"224006","676-BX","2017/08/14 19:19:50","新北市瑞芳區中山路161號","121.802035","25.1064583333333","6501200","瑞芳區"
"224009","285-BY","2017/08/14 19:19:48","新北市瑞芳區洞頂路101巷16號","121.86056","25.1218583333333","6501200","瑞芳區"
"224008","275-VK","2017/08/14 19:19:29","新北市瑞芳區一坑路70-10號","121.803468333333","25.108205","6501200","瑞芳區"
"224005","271-BY","2017/08/14 19:19:53","新北市瑞芳區三爪子坑路89-17號","121.812203333333","25.107275","6501200","瑞芳區"
"227001","642-TC","2017/08/14 19:19:38","新北市雙溪區平林里梅竹蹊66-1號","121.860136666667","25.03586","6502500","雙溪區"
"227008","400-TW","2017/08/14 19:19:42","新北市雙溪區新基里新基北街40號","121.868613333333","25.038095","6502500","雙溪區"
"253006","032-BX","2017/08/14 19:19:48","新北市石門區崁子腳27號","121.535601666667","25.2906783333333","6502200","石門區"
"253005","295-VK","2017/08/14 19:19:59","新北市石門區阿里荖18-3號","121.60777","25.2804066666667","6502200","石門區"
"253003","4710-YM","2017/08/14 08:00:16","新北市石門區中山路64-1號","121.56747","25.2905316666667","6502200","石門區"
"208002","742-BX","2017/08/14 19:19:57","新北市金山區環金路376巷2號","121.632088333333","25.2221733333333","6502700","金山區"
"208003","665-BX","2017/08/14 19:19:53","新北市金山區中山路174-1號","121.638246666667","25.221095","6502700","金山區"
"208001","761-BX","2017/08/14 19:19:54","新北市金山區中山路116號","121.63935","25.2198833333333","6502700","金山區"
"251009","008-UM","2017/08/14 19:12:47","新北市淡水區中正路70號","121.442965","25.1696866666667","6501000","淡水區"
"251007","179-VK","2017/08/14 19:19:55","新北市淡水區中正東路二段143巷6弄5號","121.461345","25.14665","6501000","淡水區"
"251013","182-VK","2017/08/14 19:19:44","新北市淡水區安子內12號","121.48153","25.2191183333333","6501000","淡水區"
"251010","413-VK","2017/08/14 19:19:51","新北市淡水區沙崙路97號","121.422121666667","25.182055","6501000","淡水區"
"251015","442-VK","2017/08/14 19:19:50","新北市淡水區山子邊3號","121.484033333333","25.1841933333333","6501000","淡水區"
"251005","443-VK","2017/08/14 19:19:50","新北市淡水區原德路20號","121.44231","25.1717216666667","6501000","淡水區"
"251001","559-UM","2017/08/14 19:19:42","新北市淡水區自強路201巷39號","121.46212","25.126835","6501000","淡水區"
"251011","650-BX","2017/08/14 19:19:43","新北市淡水區中正東路二段143巷2弄1號","121.460631666667","25.1474366666667","6501000","淡水區"
"251002","672-BX","2017/08/14 19:19:43","新北市淡水區文化路65號","121.437783333333","25.1729483333333","6501000","淡水區"
"251003","766-UM","2017/08/14 19:19:48","新北市淡水區中山北路一段49號","121.44169","25.175425","6501000","淡水區"
"207003","550-UM","2017/08/14 19:19:47","新北市萬里區大鵬里萬里加投79-3號","121.647378333333","25.2123533333333","6502800","萬里區"
"207004","225-TW","2017/08/14 19:19:41","新北市萬里區萬里里成功新村44號","121.687613333333","25.1746866666667","6502800","萬里區"
"252002","178-VK","2017/08/14 19:19:56","新北市三芝區埔坪里埔頭坑84號","121.508195","25.2542966666667","6502100","三芝區"
"252003","249-BX","2017/08/14 19:19:50","新北市三芝區埔坪里埔頭坑41號","121.504415","25.2646483333333","6502100","三芝區"
"252001","292-VK","2017/08/14 19:19:43","新北市三芝區長勤街9巷9弄2號","121.501765","25.2549916666667","6502100","三芝區"
"237004","078-UY","2017/08/14 19:19:45","新北市三峽區有木205-1號","121.439063333333","24.8515133333333","6500900","三峽區"
"237007","153-BY","2017/08/14 19:19:52","新北市三峽區麻園24-11號","121.363135","24.91858","6500900","三峽區"
"237009","210-TH","2017/08/14 19:19:57","新北市三峽區文化路144號","121.370566666667","24.9361616666667","6500900","三峽區"
"237013","252-BX","2017/08/14 19:19:46","新北市三峽區光明路75巷20號","121.37752","24.9281916666667","6500900","三峽區"
"237012","275-BY","2017/08/14 19:19:51","新北市三峽區三樹路222巷236弄23號","121.391386666667","24.943095","6500900","三峽區"
"237008","302-VK","2017/08/14 19:19:44","新北市三峽區光明路106巷26號","121.37592","24.9271733333333","6500900","三峽區"
"237014","433-BY","2017/08/14 19:19:52","新北市三峽區中山路270號","121.361738333333","24.937715","6500900","三峽區"
"237006","5529-G3","2017/08/14 19:19:53","新北市三峽區大同路147巷1號","121.371201666667","24.9267683333333","6500900","三峽區"
"237011","572-TV","2017/08/14 19:19:50","新北市三峽區中正路一段290-1號","121.371635","24.925915","6500900","三峽區"
"237015","649-BX","2017/08/14 19:19:42","新北市三峽區建安71-1號","121.44776","24.92666","6500900","三峽區"
"237010","706-TV","2017/08/14 19:19:54","新北市三峽區民生街66號","121.374751666667","24.9360183333333","6500900","三峽區"
"237005","AKY-6261","2017/08/14 19:19:49","新北市三峽區中山路459巷163-3號","121.348651666667","24.932985","6500900","三峽區"
"236069","105-UM","2017/08/14 19:19:45","新北市土城區學成路132號","121.4491","24.9895516666667","6501300","土城區"
"236078","166-UM","2017/08/14 19:19:59","新北市土城區中央路四段464號","121.409758333333","24.9504716666667","6501300","土城區"
"236026","269-VK","2017/08/14 19:19:56","新北市土城區中正路67巷23號","121.444388333333","24.976395","6501300","土城區"
"236014","270-VK","2017/08/14 19:19:54","新北市土城區學府路一段23巷41號","121.457181666667","24.986445","6501300","土城區"
"236020","401-BY","2017/08/14 19:19:56","新北市土城區峰廷街18號","121.469006666667","24.987275","6501300","土城區"
"236058","912-UM","2017/08/14 19:19:55","新北市土城區金城路一段131號","121.444808333333","24.9737433333333","6501300","土城區"
"236048","913-UM","2017/08/14 19:19:56","新北市土城區明德路一段398-1號","121.453648333333","24.9790933333333","6501300","土城區"
"241031","233-RS","2017/08/14 09:09:31","新北市新莊區環河路48-7號","121.436911666667","25.0098233333333","6500200","三重區"
"242009","351-TH","2017/08/14 18:48:44","新北市新莊區新泰路357巷3弄57號","121.442003333333","25.039455","6500500","新莊區"
"238015","755-BX","2017/08/14 19:19:54","新北市樹林區備內街1巷39-12號","121.41181","24.985615","6500700","樹林區"
"238023","601-UM","2017/08/14 19:19:50","新北市樹林區三興路39號","121.395988333333","25.0145266666667","6500700","樹林區"
"238019","599-UM","2017/08/14 19:19:58","新北市樹林區鎮前街411巷20號","121.415755","24.98312","6500700","樹林區"
"238018","571-TV","2017/08/14 19:19:48","新北市樹林區太平路56巷37號","121.418176666667","24.9815066666667","6500700","樹林區"
"238024","5061-A6","2017/08/14 19:19:57","新北市樹林區福德街3號","121.401713333333","24.975745","6500700","樹林區"
"238022","312-TH","2017/08/14 19:19:53","新北市樹林區中山路二段151巷6弄8號","121.406418333333","24.978355","6500700","樹林區"
"238021","311-TH","2017/08/14 19:19:52","新北市樹林區柑園街二段386巷1號","121.367676666667","24.9489933333333","6500700","樹林區"
"238025","303-VK","2017/08/14 19:19:55","新北市樹林區中山路二段157號","121.40628","24.978885","6500700","樹林區"
"238017","283-BY","2017/08/14 19:19:43","新北市樹林區光興街261號","121.407238333333","25.0054916666667","6500700","樹林區"
"238014","282-BY","2017/08/14 19:19:59","新北市樹林區中正路22-1號","121.42769","24.999435","6500700","樹林區"
"238020","268-VK","2017/08/14 19:19:46","新北市樹林區俊英街155巷43弄11-3號","121.42296","25.0114916666667","6500700","樹林區"
"238026","172-UY","2017/08/14 19:19:59","新北市樹林區佳園路二段26號","121.391688333333","24.96316","6500700","樹林區"
"238016","169-UY","2017/08/14 19:19:52","新北市樹林區復興路385號","121.416508333333","24.9866416666667","6500700","樹林區"
"239007","AAC-297","2017/08/14 19:18:52","新北市鶯歌區中山路138巷40號","121.351483333333","24.9600183333333","6500800","鶯歌區"
"239006","891-R6","2017/08/14 19:19:53","新北市鶯歌區鶯桃路242巷6號","121.336448333333","24.9597483333333","6500800","鶯歌區"
"239008","527-UM","2017/08/14 19:19:55","新北市鶯歌區國際二路6巷2號","121.338416666667","24.9736266666667","6500800","鶯歌區"
"239005","526-UM","2017/08/14 19:19:55","新北市鶯歌區大湖路361巷11號","121.331035","24.977415","6500800","鶯歌區"
"239001","417-VK","2017/08/14 19:19:44","新北市鶯歌區鶯桃路97-3號","121.338958333333","24.9539283333333","6500800","鶯歌區"
"239003","360-BY","2017/08/14 19:19:48","新北市鶯歌區建國路310號","121.344251666667","24.95235","6500800","鶯歌區"
"239002","359-BY","2017/08/14 19:19:48","新北市鶯歌區湖山路64巷3號","121.33981","24.97675","6500800","鶯歌區"
"239004","193-VK","2017/08/14 19:19:50","新北市鶯歌區二甲路2號","121.334825","24.9346066666667","6500800","鶯歌區"
"221008","489-VK","2017/08/14 19:19:46","新北市汐止區康寧街384號","121.629233333333","25.0677316666667","6501100","汐止區"
"221036","130-UY","2017/08/14 19:19:46","新北市汐止區汐萬路一段256巷3號","121.653363333333","25.07467","6501100","汐止區"
"221015","131-UY","2017/08/14 19:19:46","新北市汐止區康寧街901號","121.651658333333","25.0748866666667","6501100","汐止區"
"221010","269-BY","2017/08/14 19:19:54","新北市汐止區康寧街901號","121.651348333333","25.0750733333333","6501100","汐止區"
"221012","278-VK","2017/08/14 19:19:58","新北市汐止區汐萬路一段247-1號","121.651488333333","25.0730866666667","6501100","汐止區"
"221023","279-VK","2017/08/14 02:54:23","新北市汐止區康寧街901號","121.651745","25.07499","6501100","汐止區"
"221032","280-BY","2017/08/14 19:19:39","新北市汐止區橫科路241-1號","121.621913333333","25.0492516666667","6501100","汐止區"
"221027","281-BY","2017/08/14 18:55:54","新北市汐止區康寧街901號","121.650903333333","25.07526","6501100","汐止區"
"221038","297-VK","2017/08/14 19:19:50","新北市汐止區汐萬路一段312號","121.650695","25.0752916666667","6501100","汐止區"
"221029","298-VK","2017/08/14 19:19:46","新北市汐止區康寧街901號","121.651433333333","25.075","6501100","汐止區"
"221021","299-VK","2017/08/14 19:09:55","新北市汐止區汐萬路一段278巷7號","121.651505","25.0746233333333","6501100","汐止區"
"221031","353-TW","2017/08/14 19:19:55","新北市汐止區康寧街815巷3號","121.641008333333","25.0749933333333","6501100","汐止區"
"221025","623-UM","2017/08/14 19:19:52","新北市汐止區汐萬路一段273號","121.650455","25.0745433333333","6501100","汐止區"
"221033","647-BX","2017/08/14 19:19:45","新北市汐止區南勢街3號","121.627088333333","25.037345","6501100","汐止區"
"221002","707-TV","2017/08/14 19:19:49","新北市汐止區大同路一段398-1號","121.640055","25.0600066666667","6501100","汐止區"
"220079","145-BY","2017/08/14 19:19:58","新北市板橋區民權路202巷18弄1號","121.460836666667","25.0165833333333","6500100","板橋區"
"220088","146-RM","2017/08/14 19:19:19","新北市板橋區三民路一段129-2號","121.47945","25.0207466666667","6500100","板橋區"
"220080","200-UY","2017/08/14 19:19:53","新北市板橋區大觀路二段7巷110號","121.450493333333","25.0027966666667","6500100","板橋區"
"220101","245-BX","2017/08/14 19:19:58","新北市板橋區莊敬路25巷15號","121.474483333333","25.0271683333333","6500100","板橋區"
"220075","256-TC","2017/08/14 19:19:44","新北市板橋區中正路275巷93號","121.45063","25.0179933333333","6500100","板橋區"
"220103","257-TC","2017/08/14 19:19:44","新北市板橋區文化路一段188巷7弄13號","121.467573333333","25.0197783333333","6500100","板橋區"
"220094","267-BY","2017/08/14 19:19:58","新北市板橋區吳鳳路82號","121.46697","25.031245","6500100","板橋區"
"220056","276-BY","2017/08/14 19:19:58","新北市板橋區信義路85號","121.45728","24.9940316666667","6500100","板橋區"
"220071","283-VK","2017/08/14 19:19:44","新北市板橋區重慶路327巷7弄2號","121.464341666667","24.998645","6500100","板橋區"
"220053","285-VK","2017/08/14 19:19:56","新北市板橋區富山街7巷10-1號","121.478503333333","25.02133","6500100","板橋區"
"220083","286-VK","2017/08/14 19:19:50","新北市板橋區大觀路二段174巷188號","121.442176666667","25.0037733333333","6500100","板橋區"
"220081","287-VK","2017/08/14 19:19:59","新北市板橋區南雅西路一段186號","121.452935","25.0081783333333","6500100","板橋區"
"220090","288-VK","2017/08/14 19:19:59","新北市板橋區長江路一段156巷9弄2號","121.461568333333","25.0297783333333","6500100","板橋區"
"220061","293-UM","2017/08/14 19:19:58","新北市板橋區中山路二段318巷18號","121.480433333333","25.0187566666667","6500100","板橋區"
"220055","295-UM","2017/08/14 19:19:49","新北市板橋區館前東路156巷10號","121.464303333333","25.0072566666667","6500100","板橋區"
"220084","296-UM","2017/08/14 19:19:52","新北市板橋區溪崑二街66巷18號","121.427428333333","24.9907316666667","6500100","板橋區"
"220098","299-UM","2017/08/14 19:19:56","新北市板橋區民有街88號","121.464998333333","25.0273766666667","6500100","板橋區"
"220062","303-R5","2017/08/14 19:19:50","新北市板橋區三民路二段153巷34弄1號","121.481086666667","25.0142","6500100","板橋區"
"220092","307-R5","2017/08/14 19:19:54","新北市板橋區松江街59號","121.468413333333","25.0277066666667","6500100","板橋區"
"220064","486-VK","2017/08/14 19:19:56","新北市板橋區板新路226號","121.468461666667","25.01604","6500100","板橋區"
"220089","487-VK","2017/08/14 19:19:43","新北市板橋區文化路一段413號","121.467565","25.0222233333333","6500100","板橋區"
"220035","560-BX","2017/08/14 19:20:01","新北市板橋區中正路360巷57號","121.456476666667","25.0227433333333","6500100","板橋區"
"220063","609-BX","2017/08/14 19:19:46","新北市板橋區三民路二段32號","121.479281666667","25.0179233333333","6500100","板橋區"
"220091","637-BX","2017/08/14 19:19:42","新北市板橋區萬板路478號","121.480023333333","25.026125","6500100","板橋區"
"220057","686-BX","2017/08/14 19:19:45","新北市板橋區重慶路305號","121.463745","24.99882","6500100","板橋區"
"220077","687-BX","2017/08/14 19:19:54","新北市板橋區大觀路一段28巷72號","121.449825","25.01066","6500100","板橋區"
"220093","689-BX","2017/08/14 19:19:48","新北市板橋區文化路一段479巷42號","121.468031666667","25.0232983333333","6500100","板橋區"
"220054","741-BX","2017/08/14 19:19:59","新北市板橋區四川路一段199號","121.460656666667","25.0036216666667","6500100","板橋區"
"220082","806-UM","2017/08/14 19:19:56","新北市板橋區溪崑二街134號","121.4259","24.9877033333333","6500100","板橋區"
"220067","829-TW","2017/08/14 19:19:46","新北市板橋區長安街138巷1弄54號","121.473978333333","25.0102166666667","6500100","板橋區"
"220102","830-TW","2017/08/14 19:19:59","新北市板橋區文聖街188號","121.47946","25.0267166666667","6500100","板橋區"
"220074","895-R6","2017/08/14 19:19:45","新北市板橋區中正路自強新村91-3號","121.454828333333","25.0135183333333","6500100","板橋區"
"220073","985-R7","2017/08/14 19:19:59","新北市板橋區新生街84號","121.458001666667","25.02146","6500100","板橋區"
"220097","AAC-210","2017/08/14 19:19:45","新北市板橋區幸福路58號","121.461163333333","25.0200883333333","6500100","板橋區"
"220070","AAC-253","2017/08/14 19:19:48","新北市板橋區忠孝路28號","121.460343333333","25.0018583333333","6500100","板橋區"
