"lineid","car","time","location","longitude","latitude","cityid","cityname"
"234046","148-BY","2017/08/14 19:33:44","新北市永和區秀朗路二段68號","121.522781666667","25.0017016666667","6500400","永和區"
"234013","149-BY","2017/08/14 19:34:01","新北市永和區中山路一段184巷9弄19號","121.508141666667","25.00894","6500400","永和區"
"234007","207-UY","2017/08/14 19:34:05","新北市永和區永和路一段22號","121.512995","25.00484","6500400","永和區"
"234081","298-R6","2017/08/14 19:33:59","新北市永和區福和路5-9號","121.525531666667","25.0083366666667","6500400","永和區"
"234038","336-UY","2017/08/14 19:33:55","新北市永和區成功路一段137號","121.52685","25.0016133333333","6500400","永和區"
"234064","337-UY","2017/08/14 19:33:56","新北市永和區中正路428巷30弄54號","121.519851666667","25.00114","6500400","永和區"
"234086","338-UY","2017/08/14 19:33:45","新北市永和區永亨路127號","121.524496666667","25.0041916666667","6500400","永和區"
"234070","552-UM","2017/08/14 19:33:57","新北市永和區中興街1號","121.515563333333","25.012045","6500400","永和區"
"234054","553-UM","2017/08/14 19:33:46","新北市永和區竹林路54號","121.517876666667","25.0140916666667","6500400","永和區"
"234017","745-BX","2017/08/14 19:33:50","新北市永和區環河西路一段1號","121.515245","25.0180283333333","6500400","永和區"
"234030","746-BX","2017/08/14 19:33:54","新北市永和區民生路47巷4號","121.523065","24.9978016666667","6500400","永和區"
"234061","AAD-866","2017/08/14 19:33:48","新北市永和區中正路504號","121.517403333333","25.0044833333333","6500400","永和區"
"234042","862-TW","2017/08/14 19:33:57","新北市永和區水源街30巷2號","121.511446666667","25.00462","6500400","永和區"
"234050","863-TW","2017/08/14 19:34:01","新北市永和區保福路二段148號","121.509563333333","25.0146966666667","6500400","永和區"
"234026","9371-KE","2017/08/14 19:34:03","新北市中和區中安街78號","121.512058333333","25.0020383333333","6500400","永和區"
"249002","305-UY","2017/08/14 19:33:48","新北市八里區頂寮二街117-3號","121.448838333333","25.12681","6502300","八里區"
"249003","593-UM","2017/08/14 19:33:58","新北市八里區華峰三街33巷4號","121.399511666667","25.1457716666667","6502300","八里區"
"248016","026-BX","2017/08/14 19:33:53","新北市五股區成泰路三段544-11號","121.453031666667","25.1023033333333","6501500","五股區"
"248008","095-VK","2017/08/14 19:33:58","新北市五股區四維路155巷3號","121.46735","25.0744016666667","6501500","五股區"
"248018","225-UY","2017/08/14 19:33:12","新北市五股區外寮路9-25號","121.415961666667","25.07895","6501500","五股區"
"248012","247-BX","2017/08/14 19:33:57","新北市五股區成泰路二段91巷11號","121.437585","25.0840316666667","6501500","五股區"
"248014","261-SL","2017/08/14 19:33:56","新北市五股區民義路一段157-22號","121.431371666667","25.0867466666667","6501500","五股區"
"248010","272-BY","2017/08/14 19:33:53","新北市五股區自強路90巷72號","121.430675","25.0712416666667","6501500","五股區"
"248002","655-BX","2017/08/14 19:33:57","新北市五股區凌雲路一段158巷24-2號","121.448255","25.1039366666667","6501500","五股區"
"248004","677-BX","2017/08/14 19:33:59","新北市五股區工商路142號","121.434948333333","25.0866566666667","6501500","五股區"
"234077","969-R7","2017/08/14 19:33:57","新北市永和區民權路60號","121.51968","24.998155","6500400","永和區"
"234067","AAC-212","2017/08/14 19:33:52","新北市永和區永貞路404號","121.509198333333","25.0075883333333","6500400","永和區"
"234003","AAC-295","2017/08/14 19:33:56","新北市永和區秀朗路一段10號","121.513875","25.0070233333333","6500400","永和區"
"244019","403-UM","2017/08/14 19:34:01","新北市林口區仁愛路二段235號","121.375468333333","25.0760966666667","6501700","林口區"
"244023","657-BX","2017/08/14 19:33:44","新北市林口區文化三路二段181-1號","121.375823333333","25.0823333333333","6501700","林口區"
"244011","701-TV","2017/08/14 19:33:43","新北市八里區中山路三段409號","121.368666666667","25.13576","6501700","林口區"
"244018","837-TS","2017/08/14 16:50:01","新北市林口區粉寮路二段160巷40號","121.405646666667","25.0912683333333","6501700","林口區"
"243013","AAD-798","2017/08/14 19:33:48","新北市泰山區貴子路38號","121.426043333333","25.041655","6501600","泰山區"
"243009","297-R6","2017/08/14 19:34:00","新北市五股區成泰路一段7巷1號","121.433593333333","25.0664483333333","6501600","泰山區"
"243015","380-SR","2017/08/14 19:34:02","新北市泰山區文程路1-1號","121.427516666667","25.0502383333333","6501600","泰山區"
"243014","421-VK","2017/08/14 19:33:55","新北市泰山區泰林路二段33-7號","121.435146666667","25.056375","6501600","泰山區"
"243010","548-UM","2017/08/14 19:33:45","新北市泰山區明志路二段51號","121.429426666667","25.0527366666667","6501600","泰山區"
"243011","549-UM","2017/08/14 19:33:52","新北市泰山區貴子路69號","121.430888333333","25.03997","6501600","泰山區"
"243012","646-TV","2017/08/14 19:33:59","新北市泰山區全興路214號","121.434358333333","25.0556916666667","6501600","泰山區"
"243016","680-BX","2017/08/14 19:33:57","新北市泰山區貴陽街3號","121.421","25.033745","6501600","泰山區"
"222003","436-BY","2017/08/14 19:32:30","新北市深坑區深南路51-1號","121.621133333333","25.01006","6501800","深坑區"
"222002","659-BX","2017/08/14 19:33:52","新北市深坑區北深路一段210號","121.632568333333","25.0109283333333","6501800","深坑區"
"222001","696-SL","2017/08/14 19:33:43","新北市深坑區深坑街10號","121.615915","25.0028483333333","6501800","深坑區"
"231041","002-UM","2017/08/14 19:34:00","新北市新店區中正路506號","121.533831666667","24.9828816666667","6500600","新店區"
"231056","0291-UT","2017/08/14 19:33:55","新北市新店區大同街42號","121.538731666667","24.98074","6500600","新店區"
"231058","0293-UT","2017/08/14 19:34:00","新北市新店區北新路二段228巷2號","121.543171666667","24.9772883333333","6500600","新店區"
"231059","046-UY","2017/08/14 19:33:52","新北市新店區安和路三段60-1號","121.518066666667","24.9827316666667","6500600","新店區"
"231061","047-UY","2017/08/14 19:33:45","新北市新店區安民街77-1號","121.516575","24.967415","6500600","新店區"
"231060","106-UY","2017/08/14 19:34:04","新北市新店區安康路二段118號","121.513063333333","24.96278","6500600","新店區"
"231051","107-UY","2017/08/14 19:33:55","新北市新店區中央四街101號","121.525386666667","24.9764033333333","6500600","新店區"
"231047","108-UY","2017/08/14 19:33:59","新北市新店區中興路一段283號","121.545353333333","24.968365","6500600","新店區"
"231052","187-VK","2017/08/14 19:33:58","新北市新店區新烏路二段188號","121.54792","24.9174816666667","6500600","新店區"
"231057","256-BX","2017/08/14 19:33:48","新北市新店區花園一路一段33號","121.549821666667","24.9340716666667","6500600","新店區"
"231063","268-BY","2017/08/14 19:33:53","新北市新店區達觀路30號","121.502045","24.94022","6500600","新店區"
"231046","278-BY","2017/08/14 19:33:55","新北市新店區中正路168號","121.541308333333","24.971935","6500600","新店區"
"231050","AAD-862","2017/08/14 19:33:54","新北市新店區秀水路19號","121.554903333333","24.9549366666667","6500600","新店區"
"231067","4772-VM","2017/08/14 19:33:56","新北市新店區車子路6號","121.50455","24.9554516666667","6500600","新店區"
"231065","512-UM","2017/08/14 19:34:03","新北市新店區安祥路109巷1弄6號","121.4756","24.9590816666667","6500600","新店區"
"231054","513-UM","2017/08/14 19:33:58","新北市新店區文中路51號","121.539756666667","24.9566183333333","6500600","新店區"
"231064","515-UM","2017/08/14 19:33:48","新北市新店區安康路二段1-5號","121.51711","24.96389","6500600","新店區"
"231042","616-UM","2017/08/14 19:34:02","新北市新店區中興路一段204號","121.54373","24.965405","6500600","新店區"
"231040","619-UM","2017/08/14 19:34:00","新北市新店區北新路一段60號","121.541126666667","24.9664666666667","6500600","新店區"
"231049","719-UM","2017/08/14 19:34:00","新北市新店區北新路三段65巷36號","121.54002","24.9811266666667","6500600","新店區"
"231062","720-UM","2017/08/14 19:33:52","新北市新店區精忠路10-1號","121.532606666667","24.9591183333333","6500600","新店區"
"231044","897-TW","2017/08/14 19:34:04","新北市新店區中興路三段141號","121.544513333333","24.979825","6500600","新店區"
"231045","898-TW","2017/08/14 19:33:47","新北市新店區北宜路二段203號","121.55301","24.9534283333333","6500600","新店區"
"231043","899-TW","2017/08/14 19:33:48","新北市新店區北新路二段156號","121.543005","24.9755066666667","6500600","新店區"
"231066","AKT-0513","2017/08/14 19:34:02","新北市新店區安康路三段165巷2弄12號","121.489005","24.9513283333333","6500600","新店區"
"241011","013-R5","2017/08/14 19:34:04","新北市三重區秀江街117號","121.499771666667","25.0722183333333","6500200","三重區"
"241028","022-UY","2017/08/14 19:33:54","新北市三重區中正南路115號","121.494026666667","25.05743","6500200","三重區"
"241009","060-VK","2017/08/14 19:34:01","新北市三重區三和路四段237號","121.481131666667","25.0803483333333","6500200","三重區"
"241031","061-VK","2017/08/14 19:33:51","新北市三重區重新路四段244巷45號","121.48757","25.0536383333333","6500200","三重區"
"241015","062-VK","2017/08/14 19:33:53","新北市三重區三和路一段2號","121.503916666667","25.0642833333333","6500200","三重區"
"241017","063-VK","2017/08/14 19:33:58","新北市三重區重新路三段94號","121.492611666667","25.0610083333333","6500200","三重區"
"241006","156-TC","2017/08/14 19:34:05","新北市三重區車路頭街78號","121.48434","25.07407","6500200","三重區"
"241008","265-UM","2017/08/14 19:34:01","新北市三重區永福街111巷39號","121.477733333333","25.0763483333333","6500200","三重區"
"241022","267-UM","2017/08/14 19:33:42","新北市三重區重陽路二段52巷83弄2號","121.48421","25.0656266666667","6500200","三重區"
"241013","270-UM","2017/08/14 19:33:52","新北市三重區仁愛街125巷17號","121.496488333333","25.0753133333333","6500200","三重區"
"241025","271-UM","2017/08/14 19:34:03","新北市三重區頂崁街210巷12弄29號","121.476425","25.06687","6500200","三重區"
"241007","398-BY","2017/08/14 19:33:57","新北市三重區溪尾街124-1號","121.489386666667","25.0793166666667","6500200","三重區"
"241020","412-TH","2017/08/14 19:34:02","新北市三重區三和路四段24號","121.490941666667","25.074175","6500200","三重區"
"241035","462-BY","2017/08/14 19:33:52","新北市三重區長元西街14號","121.498426666667","25.0657183333333","6500200","三重區"
"241019","478-VK","2017/08/14 19:34:06","新北市三重區六張街255巷13號","121.487113333333","25.0687466666667","6500200","三重區"
"241030","480-VK","2017/08/14 19:33:50","新北市三重區環河南路254巷19號","121.490286666667","25.0510516666667","6500200","三重區"
"241014","543-UM","2017/08/14 19:33:56","新北市三重區長榮路82號","121.50212","25.0690166666667","6500200","三重區"
"241023","545-UM","2017/08/14 19:34:05","新北市三重區金華街82號","121.477136666667","25.0651666666667","6500200","三重區"
"241026","887-TS","2017/08/14 19:33:50","新北市三重區光興街19號","121.49993","25.06033","6500200","三重區"
"241029","942-UM","2017/08/14 19:33:52","新北市三重區同安街97號","121.494783333333","25.0564566666667","6500200","三重區"
"235066","003-UY","2017/08/14 19:33:57","新北市中和區景新街97號","121.505356666667","24.9982316666667","6500300","中和區"
"235064","005-UY","2017/08/14 19:34:03","新北市中和區南山路81巷29號","121.502916666667","24.99821","6500300","中和區"
"235063","006-UY","2017/08/14 19:33:59","新北市中和區連城路231號","121.493968333333","24.9972916666667","6500300","中和區"
"235056","096-UM","2017/08/14 19:34:02","新北市中和區民富街15-2號","121.476558333333","25.0073633333333","6500300","中和區"
"235039","097-UM","2017/08/14 19:33:57","新北市中和區秀峰街119巷6弄2號","121.51965","24.9900033333333","6500300","中和區"
"235065","098-UM","2017/08/14 19:33:50","新北市中和區中山路二段2巷5弄2號","121.504478333333","25.0062766666667","6500300","中和區"
"235040","150-BY","2017/08/14 19:33:47","新北市中和區安平路82號","121.511081666667","24.9967283333333","6500300","中和區"
"235058","151-BY","2017/08/14 19:33:56","新北市中和區連城路469巷14號","121.483583333333","24.9952716666667","6500300","中和區"
"235055","183-VK","2017/08/14 19:33:59","新北市中和區莒光路84巷21號","121.471643333333","25.0019516666667","6500300","中和區"
"235038","185-VK","2017/08/14 19:33:57","新北市中和區景平路126巷2弄13號","121.519651666667","24.9923433333333","6500300","中和區"
"235049","186-VK","2017/08/14 19:33:54","新北市中和區景新街273巷27號","121.510403333333","24.9940033333333","6500300","中和區"
"235067","255-BX","2017/08/14 19:33:47","新北市中和區連城路338號","121.482966666667","24.9958016666667","6500300","中和區"
"235008","293-VK","2017/08/14 19:33:56","新北市中和區景安路202號","121.504085","24.9911933333333","6500300","中和區"
"235072","301-VK","2017/08/14 19:33:55","新北市中和區錦和路93巷4弄1號","121.490536666667","24.9956716666667","6500300","中和區"
"235043","352-BY","2017/08/14 19:33:53","新北市中和區安和路33號","121.510075","24.99459","6500300","中和區"
"235051","376-QA","2017/08/14 19:33:55","新北市中和區景新街141號","121.506155","24.9965683333333","6500300","中和區"
"235068","377-QA","2017/08/14 15:40:55","新北市新店區薏仁坑路8-2號","121.499393333333","24.9589183333333","6500300","中和區"
"235061","378-QA","2017/08/14 19:33:58","新北市中和區民利街61巷3號","121.479206666667","24.9986333333333","6500300","中和區"
"235050","4979-A6","2017/08/14 19:33:54","新北市中和區中正路571巷2弄11號","121.486116666667","24.9938333333333","6500300","中和區"
"235042","551-UM","2017/08/14 19:33:54","新北市中和區中安街175號","121.510918333333","24.999915","6500300","中和區"
"235070","558-UM","2017/08/14 19:34:03","新北市中和區中山路二段248號","121.497745","25.0024783333333","6500300","中和區"
"235045","565-BX","2017/08/14 19:33:45","新北市中和區景新街421號","121.512853333333","24.9891483333333","6500300","中和區"
"235054","640-BX","2017/08/14 19:33:59","新北市中和區國光街112巷16弄2號","121.46985","25.0013633333333","6500300","中和區"
"235060","647-TV","2017/08/14 19:33:57","新北市中和區新生街114巷35號","121.482465","25.002325","6500300","中和區"
"235047","732-UM","2017/08/14 19:33:47","新北市中和區景平路259巷33號","121.50664","24.99273","6500300","中和區"
"235046","733-UM","2017/08/14 19:34:01","新北市中和區忠孝街37巷52號","121.511108333333","24.9849083333333","6500300","中和區"
"235057","801-TS","2017/08/14 19:33:57","新北市中和區員山路423巷26號","121.480258333333","25.0026233333333","6500300","中和區"
"235041","802-TS","2017/08/14 19:33:54","新北市中和區景安路9號","121.507981666667","24.9990966666667","6500300","中和區"
"235052","805-TS","2017/08/14 19:34:03","新北市中和區華新街143巷63弄2號","121.506451666667","24.9791666666667","6500300","中和區"
"235048","896-TW","2017/08/14 19:34:01","新北市中和區忠孝街113巷1號","121.512456666667","24.9873933333333","6500300","中和區"
"235053","900-TW","2017/08/14 19:33:45","新北市板橋區和平路233號","121.465248333333","24.9984016666667","6500300","中和區"
"235071","911-UM","2017/08/14 19:33:57","新北市中和區新生街235號","121.483848333333","24.99905","6500300","中和區"
"235037","AAC-213","2017/08/14 19:33:52","新北市中和區秀朗路三段10巷14弄50號","121.524251666667","24.99651","6500300","中和區"
"235059","AAC-215","2017/08/14 19:33:53","新北市中和區圓通路252號","121.493888333333","24.9911383333333","6500300","中和區"
"220068","013-TV","2017/08/14 19:34:03","新北市板橋區翠華街6巷95號","121.48234","25.0255366666667","6500100","板橋區"
"220072","015-TV","2017/08/14 19:33:48","新北市板橋區篤行路二段137號","121.429911666667","24.98837","6500100","板橋區"
"220065","072-UY","2017/08/14 19:33:39","新北市板橋區國泰街75巷28弄60號","121.467535","25.004525","6500100","板橋區"
"220086","073-UY","2017/08/14 19:33:55","新北市板橋區中正路222號","121.455788333333","25.0185883333333","6500100","板橋區"
"220106","075-UY","2017/08/14 19:33:54","新北市板橋區江寧路三段119號","121.47338","25.0331583333333","6500100","板橋區"
"220069","AAD-861","2017/08/14 19:34:05","新北市板橋區大明街20巷45號","121.45801","25.0037783333333","6500100","板橋區"
"220096","120-SR","2017/08/14 19:34:03","新北市板橋區雙十路二段6-12號","121.476786666667","25.0265983333333","6500100","板橋區"
"247014","057-VK","2017/08/14 19:33:58","新北市蘆洲區三民路139號","121.471988333333","25.0865733333333","6501400","蘆洲區"
"247004","056-VK","2017/08/14 19:24:11","新北市五股區西雲路185巷1弄6號","121.44712","25.0959083333333","6501400","蘆洲區"
"226004","312-R5","2017/08/14 19:33:56","新北市平溪區十分里十分街53號","121.775446666667","25.04122","6502400","平溪區"
"241031","251-BX","2017/08/14 05:01:59","新北市石碇區小粗坑(潭邊里)9-2號","121.678858333333","24.9857766666667","6500200","三重區"
"223008","406-TH","2017/08/14 10:41:50","新北市石碇區小粗坑(潭邊里)9-2號","121.678606666667","24.985665","6501900","石碇區"
"228003","097-TW","2017/08/14 19:33:42","新北市貢寮區和美里和美街71-1號","121.91485","25.0770616666667","6502600","貢寮區"
"228001","670-TC","2017/08/14 19:34:02","新北市貢寮區真理里延平街175號","121.92445","25.0587983333333","6502600","貢寮區"
"224010","AGQ-8101","2017/08/14 19:29:35","新北市瑞芳區基山街128號","121.843878333333","25.10831","6501200","瑞芳區"
"224006","676-BX","2017/08/14 19:33:50","新北市瑞芳區三爪子坑路106巷1-11號","121.808245","25.1051016666667","6501200","瑞芳區"
"224002","639-TC","2017/08/14 19:33:51","新北市瑞芳區三爪子坑路13巷89號","121.81489","25.106365","6501200","瑞芳區"
"227001","642-TC","2017/08/14 19:33:58","新北市雙溪區雙溪里勝利街12號","121.865576666667","25.0356816666667","6502500","雙溪區"
"227008","400-TW","2017/08/14 19:33:42","新北市雙溪區新基里新基北街1號","121.867595","25.040425","6502500","雙溪區"
"253006","032-BX","2017/08/14 19:33:48","新北市石門區尖子鹿116-1號","121.573991666667","25.2973716666667","6502200","石門區"
"253003","4710-YM","2017/08/14 08:00:16","新北市石門區中山路64-1號","121.56747","25.2905316666667","6502200","石門區"
"208002","742-BX","2017/08/14 19:33:57","新北市金山區中正路19號","121.636083333333","25.222265","6502700","金山區"
"208003","665-BX","2017/08/14 19:33:53","新北市金山區中山路263巷14號","121.636406666667","25.22159","6502700","金山區"
"208001","761-BX","2017/08/14 19:34:02","新北市金山區南勢54號","121.628511666667","25.2207933333333","6502700","金山區"
"251009","008-UM","2017/08/14 19:12:47","新北市淡水區中正路70號","121.442965","25.1696866666667","6501000","淡水區"
"251007","179-VK","2017/08/14 19:33:55","新北市淡水區中正東路一段111巷7號","121.45444","25.1605083333333","6501000","淡水區"
"251008","181-VK","2017/08/14 19:33:44","新北市淡水區中正路一段33號","121.426023333333","25.176535","6501000","淡水區"
"251013","182-VK","2017/08/14 19:34:04","新北市淡水區頂田寮路258號","121.464526666667","25.2159333333333","6501000","淡水區"
"251010","413-VK","2017/08/14 19:33:51","新北市淡水區濱海路三段148巷50弄78號","121.430261666667","25.1905583333333","6501000","淡水區"
"251015","442-VK","2017/08/14 19:33:50","新北市淡水區山子頂22-1號","121.492503333333","25.1899383333333","6501000","淡水區"
"251005","443-VK","2017/08/14 19:33:50","新北市淡水區水源街一段71巷13號","121.444445","25.172945","6501000","淡水區"
"251001","559-UM","2017/08/14 19:33:43","新北市淡水區民權路139號","121.46012","25.1365116666667","6501000","淡水區"
"251006","561-UM","2017/08/14 19:34:03","新北市淡水區中山北路一段207巷46號","121.442631666667","25.1791066666667","6501000","淡水區"
"251011","650-BX","2017/08/14 19:34:03","新北市淡水區中正東路二段143巷12弄2-2號","121.462041666667","25.14813","6501000","淡水區"
"251002","672-BX","2017/08/14 19:34:03","新北市淡水區中正路二段31號","121.419216666667","25.181915","6501000","淡水區"
"251003","766-UM","2017/08/14 19:33:48","新北市淡水區中山北路三段116號","121.443858333333","25.1938283333333","6501000","淡水區"
"207003","550-UM","2017/08/14 19:33:47","新北市萬里區大鵬里萬里加投287-11號","121.645821666667","25.2181666666667","6502800","萬里區"
"207004","225-TW","2017/08/14 19:34:01","新北市萬里區萬里里瑪鋉路121號","121.688991666667","25.1780616666667","6502800","萬里區"
"252002","178-VK","2017/08/14 19:33:56","新北市三芝區淡金路二段18-1號","121.502696666667","25.2595233333333","6502100","三芝區"
"252001","292-VK","2017/08/14 19:33:43","新北市三芝區長勤街62-1號","121.50012","25.25614","6502100","三芝區"
"237004","078-UY","2017/08/14 19:33:45","新北市三峽區有木21號","121.42659","24.8631783333333","6500900","三峽區"
"237007","153-BY","2017/08/14 19:33:52","新北市三峽區中正路二段584巷4弄5號","121.359033333333","24.9067783333333","6500900","三峽區"
"237009","210-TH","2017/08/14 19:33:57","新北市三峽區民權街219號","121.367743333333","24.9282433333333","6500900","三峽區"
"237013","252-BX","2017/08/14 19:33:51","新北市三峽區介壽路一段316號","121.38065","24.9302133333333","6500900","三峽區"
"237012","275-BY","2017/08/14 19:33:51","新北市三峽區三樹路110號","121.378341666667","24.9392333333333","6500900","三峽區"
"237008","302-VK","2017/08/14 19:34:04","新北市三峽區中正路一段106號","121.374165","24.929605","6500900","三峽區"
"237014","433-BY","2017/08/14 19:33:52","新北市三峽區中正路二段272號","121.365888333333","24.9117733333333","6500900","三峽區"
"237006","5529-G3","2017/08/14 19:33:53","新北市三峽區中正路一段336巷15弄2號","121.369963333333","24.9249533333333","6500900","三峽區"
"237015","649-BX","2017/08/14 19:34:02","新北市三峽區成福路223號","121.426958333333","24.9264616666667","6500900","三峽區"
"237010","706-TV","2017/08/14 19:33:55","新北市三峽區復興路98號","121.372776666667","24.9375483333333","6500900","三峽區"
"237005","AKY-6261","2017/08/14 19:33:49","新北市三峽區復興路367巷1弄17號","121.364221666667","24.9378116666667","6500900","三峽區"
"236069","105-UM","2017/08/14 19:34:05","新北市土城區裕民路185巷36弄10號","121.454375","24.9845533333333","6501300","土城區"
"236042","107-UM","2017/08/14 19:33:53","新北市土城區裕民路172號","121.452513333333","24.9854333333333","6501300","土城區"
"236078","166-UM","2017/08/14 19:34:00","新北市土城區中州路12巷1號","121.414788333333","24.957335","6501300","土城區"
"236030","253-BX","2017/08/14 19:34:03","新北市土城區中央路二段50巷14號","121.4418","24.9799566666667","6501300","土城區"
"236026","269-VK","2017/08/14 19:33:56","新北市土城區中央路二段61巷22號","121.443168333333","24.978775","6501300","土城區"
"236020","401-BY","2017/08/14 19:33:56","新北市土城區金城路三段200-6號","121.468995","24.98743","6501300","土城區"
"236058","912-UM","2017/08/14 19:33:55","新北市土城區中央路二段134號","121.442018333333","24.9774716666667","6501300","土城區"
"236048","913-UM","2017/08/14 19:33:56","新北市土城區清水路263號","121.46311","24.9846316666667","6501300","土城區"
"242031","415-TV","2017/08/14 19:33:54","新北市新莊區新泰路225巷42號","121.444083333333","25.0389483333333","6500500","新莊區"
"242013","133-UY","2017/08/14 19:34:00","新北市新莊區中和街59巷16號","121.446641666667","25.04688","6500500","新莊區"
"242007","173-VK","2017/08/14 19:33:49","新北市新莊區福壽街336號","121.457776666667","25.0582916666667","6500500","新莊區"
"241031","233-RS","2017/08/14 09:09:31","新北市新莊區環河路48-7號","121.436911666667","25.0098233333333","6500200","三重區"
"242009","351-TH","2017/08/14 18:48:44","新北市新莊區新泰路357巷3弄57號","121.442003333333","25.039455","6500500","新莊區"
"238015","755-BX","2017/08/14 19:33:54","新北市樹林區中興街63-3號","121.421115","24.991515","6500700","樹林區"
"238023","601-UM","2017/08/14 19:33:50","新北市樹林區中正路855號","121.40901","25.0178533333333","6500700","樹林區"
"238019","599-UM","2017/08/14 19:33:57","新北市樹林區東榮街80號","121.416256666667","24.9827216666667","6500700","樹林區"
"238018","571-TV","2017/08/14 19:33:48","新北市樹林區中華路89號","121.422715","24.9828833333333","6500700","樹林區"
"238024","5061-A6","2017/08/14 19:33:57","新北市樹林區中山路三段35號","121.401286666667","24.97545","6500700","樹林區"
"238022","312-TH","2017/08/14 19:33:53","新北市樹林區太平路163號","121.418718333333","24.979355","6500700","樹林區"
"238021","311-TH","2017/08/14 19:33:12","新北市樹林區柑園街二段203巷17號","121.377338333333","24.9516866666667","6500700","樹林區"
"238025","303-VK","2017/08/14 19:33:55","新北市樹林區中山路一段81號","121.423563333333","24.9914433333333","6500700","樹林區"
"238017","283-BY","2017/08/14 19:33:56","新北市樹林區光興街8號","121.412483333333","25.0029016666667","6500700","樹林區"
"238014","282-BY","2017/08/14 19:33:59","新北市樹林區千歲街19巷11號","121.424528333333","24.9958066666667","6500700","樹林區"
"238020","268-VK","2017/08/14 19:33:46","新北市樹林區俊英街123巷2號","121.424425","25.0106583333333","6500700","樹林區"
"238026","172-UY","2017/08/14 19:33:59","新北市樹林區柑園街一段357號","121.388883333333","24.955975","6500700","樹林區"
"238016","169-UY","2017/08/14 19:33:52","新北市樹林區中山路二段144號","121.413001666667","24.98282","6500700","樹林區"
"239007","AAC-297","2017/08/14 19:33:52","新北市鶯歌區大湖路74號","121.342618333333","24.9626316666667","6500800","鶯歌區"
"239006","891-R6","2017/08/14 19:33:53","新北市鶯歌區鶯桃路45號","121.341986666667","24.9513733333333","6500800","鶯歌區"
"239008","527-UM","2017/08/14 19:33:55","新北市鶯歌區大湖路468巷8號","121.33981","24.97258","6500800","鶯歌區"
"239005","526-UM","2017/08/14 19:33:55","新北市鶯歌區中湖街23號","121.347301666667","24.9728533333333","6500800","鶯歌區"
"239001","417-VK","2017/08/14 19:34:04","新北市鶯歌區鶯桃路21號","121.343768333333","24.9505183333333","6500800","鶯歌區"
"239002","359-BY","2017/08/14 19:33:48","新北市鶯歌區大湖路187-6號","121.345325","24.9706283333333","6500800","鶯歌區"
"239004","193-VK","2017/08/14 19:33:50","新北市鶯歌區二甲路38-1號","121.337888333333","24.9349883333333","6500800","鶯歌區"
"221008","489-VK","2017/08/14 19:33:46","新北市汐止區三民街1巷1號","121.624385","25.0667683333333","6501100","汐止區"
"221036","130-UY","2017/08/14 19:34:06","新北市汐止區汐萬路一段256巷1號","121.651745","25.0748433333333","6501100","汐止區"
"221015","131-UY","2017/08/14 19:34:05","新北市汐止區康寧街901號","121.651658333333","25.0748983333333","6501100","汐止區"
"221010","269-BY","2017/08/14 19:33:54","新北市汐止區康寧街901號","121.651373333333","25.0750283333333","6501100","汐止區"
"221012","278-VK","2017/08/14 19:33:20","新北市汐止區大同路三段334號","121.679631666667","25.0708916666667","6501100","汐止區"
"221023","279-VK","2017/08/14 02:54:23","新北市汐止區康寧街901號","121.651745","25.07499","6501100","汐止區"
"221027","281-BY","2017/08/14 19:34:00","新北市汐止區忠孝東路9號","121.658308333333","25.06593","6501100","汐止區"
"221038","297-VK","2017/08/14 19:33:50","新北市汐止區汐萬路一段2號","121.656245","25.0672416666667","6501100","汐止區"
"221029","298-VK","2017/08/14 19:33:46","新北市汐止區康寧街901號","121.651425","25.0750383333333","6501100","汐止區"
"221021","299-VK","2017/08/14 19:33:55","新北市汐止區康寧街901號","121.650785","25.0752533333333","6501100","汐止區"
"221031","353-TW","2017/08/14 19:33:55","新北市汐止區樟樹二路339號","121.640141666667","25.0731333333333","6501100","汐止區"
"221025","623-UM","2017/08/14 19:33:52","新北市汐止區新台五路二段60號","121.66138","25.0655933333333","6501100","汐止區"
"221033","647-BX","2017/08/14 19:33:45","新北市汐止區南勢街1巷1號","121.627043333333","25.03743","6501100","汐止區"
"221002","707-TV","2017/08/14 19:33:49","新北市汐止區大同路一段337巷7號","121.638088333333","25.0597833333333","6501100","汐止區"
"220079","145-BY","2017/08/14 19:33:58","新北市板橋區復興街56-2號","121.458745","25.0175583333333","6500100","板橋區"
"220088","146-RM","2017/08/14 19:33:58","新北市板橋區雙十路二段160號","121.473148333333","25.0294166666667","6500100","板橋區"
"220080","200-UY","2017/08/14 19:33:49","新北市板橋區大觀路二段19巷124-8號","121.450461666667","25.00247","6500100","板橋區"
"220101","245-BX","2017/08/14 19:33:59","新北市板橋區莊敬路259號","121.473685","25.0215766666667","6500100","板橋區"
"220075","256-TC","2017/08/14 19:34:04","新北市板橋區南雅西路二段301巷50弄25號","121.45238","25.01707","6500100","板橋區"
"220103","257-TC","2017/08/14 19:33:44","新北市板橋區文化路一段286巷2弄5號","121.46844","25.0209166666667","6500100","板橋區"
"220094","267-BY","2017/08/14 19:33:58","新北市板橋區吳鳳路50巷75弄12號","121.469976666667","25.0310166666667","6500100","板橋區"
"220056","276-BY","2017/08/14 19:34:04","新北市板橋區信義路1巷4號","121.45736","24.9970233333333","6500100","板橋區"
"220071","283-VK","2017/08/14 19:33:50","新北市板橋區忠孝路48巷9弄28號","121.462093333333","25.0000883333333","6500100","板橋區"
"220053","285-VK","2017/08/14 19:33:51","新北市板橋區富山街53巷1弄114號","121.477746666667","25.0194566666667","6500100","板橋區"
"220083","286-VK","2017/08/14 19:33:54","新北市板橋區龍興街73巷35-4號","121.442405","25.0027616666667","6500100","板橋區"
"220081","287-VK","2017/08/14 19:33:59","新北市板橋區大觀路一段29巷131弄125號","121.451728333333","25.0053583333333","6500100","板橋區"
"220090","288-VK","2017/08/14 19:34:00","新北市板橋區裕民街89號","121.460425","25.0279916666667","6500100","板橋區"
"220061","293-UM","2017/08/14 19:34:01","新北市板橋區成功路6巷23號","121.476178333333","25.01725","6500100","板橋區"
"220055","295-UM","2017/08/14 19:33:49","新北市板橋區重慶路290巷20號","121.46235","24.9989633333333","6500100","板橋區"
"220084","296-UM","2017/08/14 19:33:48","新北市板橋區篤行路三段玉平巷95號","121.428013333333","24.9854866666667","6500100","板橋區"
"220098","299-UM","2017/08/14 19:33:46","新北市板橋區民生路三段281巷2弄4號","121.46364","25.0300033333333","6500100","板橋區"
"220062","303-R5","2017/08/14 19:33:55","新北市板橋區三民路二段109巷24號","121.480541666667","25.015855","6500100","板橋區"
"220092","307-R5","2017/08/14 19:34:06","新北市板橋區陽明街5號","121.466591666667","25.0215616666667","6500100","板橋區"
"220064","486-VK","2017/08/14 19:33:56","新北市板橋區中山路一段26號","121.460391666667","25.0083066666667","6500100","板橋區"
"220089","487-VK","2017/08/14 19:34:03","新北市板橋區光正街45巷34號","121.461421666667","25.0159116666667","6500100","板橋區"
"220035","560-BX","2017/08/14 19:33:46","新北市板橋區中正路385號","121.454335","25.021635","6500100","板橋區"
"220063","609-BX","2017/08/14 19:33:46","新北市板橋區萬安街53巷37號","121.482601666667","25.023545","6500100","板橋區"
"220091","637-BX","2017/08/14 19:34:02","新北市板橋區懷德街199號","121.480301666667","25.0291883333333","6500100","板橋區"
"220057","686-BX","2017/08/14 19:34:04","新北市板橋區五權街20號","121.464451666667","24.9938766666667","6500100","板橋區"
"220077","687-BX","2017/08/14 19:34:02","新北市板橋區僑中二街124巷2號","121.445485","25.00566","6500100","板橋區"
"220093","689-BX","2017/08/14 19:33:48","新北市板橋區英士路49號","121.4611","25.0246916666667","6500100","板橋區"
"220054","741-BX","2017/08/14 19:33:59","新北市板橋區光明街10號","121.460036666667","25.0023166666667","6500100","板橋區"
"220082","806-UM","2017/08/14 19:34:01","新北市板橋區金門街241號","121.432073333333","24.9893583333333","6500100","板橋區"
"220067","829-TW","2017/08/14 19:33:46","新北市板橋區漢生東路279巷8號","121.471886666667","25.0091516666667","6500100","板橋區"
"220102","830-TW","2017/08/14 19:33:59","新北市板橋區松柏街19號","121.47461","25.029925","6500100","板橋區"
"220074","895-R6","2017/08/14 19:33:45","新北市板橋區民權路170巷2號","121.459856666667","25.0128833333333","6500100","板橋區"
"220073","985-R7","2017/08/14 19:33:50","新北市板橋區中正路218號","121.455893333333","25.0184483333333","6500100","板橋區"
"220097","AAC-210","2017/08/14 19:34:00","新北市板橋區陽明街29巷1弄38號","121.463235","25.0223016666667","6500100","板橋區"
"220070","AAC-253","2017/08/14 19:33:48","新北市板橋區忠孝路28號","121.460303333333","25.0019033333333","6500100","板橋區"
