"lineid","car","time","location","longitude","latitude","cityid","cityname"
"244025","837-TS","2017/08/14 20:36:56","新北市林口區粉寮路二段160巷28號","121.405205","25.0907233333333","6501700","林口區"
"231056","0291-UT","2017/08/14 21:19:44","新北市新店區中央七街61巷30號","121.529558333333","24.9757066666667","6500600","新店區"
"231059","046-UY","2017/08/14 21:19:52","新北市新店區安康路一段355-3號","121.519765","24.9617033333333","6500600","新店區"
"231061","047-UY","2017/08/14 21:19:45","新北市新店區溪園路389-12號","121.523298333333","24.9786666666667","6500600","新店區"
"231051","107-UY","2017/08/14 21:19:55","新北市新店區中正路700巷82號","121.535935","24.9932533333333","6500600","新店區"
"231047","108-UY","2017/08/14 21:19:39","新北市新店區中央路98-1號","121.531528333333","24.9756166666667","6500600","新店區"
"231063","268-BY","2017/08/14 21:19:53","新北市新店區玫瑰路57巷31號","121.496813333333","24.9463333333333","6500600","新店區"
"231050","AAD-862","2017/08/14 21:19:54","新北市新店區中華路83巷2弄2號","121.538965","24.968565","6500600","新店區"
"231067","4772-VM","2017/08/14 21:19:35","新北市新店區薏仁坑路自強巷6號","121.496618333333","24.95846","6500600","新店區"
"231065","512-UM","2017/08/14 21:19:43","新北市新店區安豐路74-1號","121.497165","24.9528533333333","6500600","新店區"
"231064","515-UM","2017/08/14 21:19:48","新北市新店區安康路一段355號","121.519801666667","24.9631","6500600","新店區"
"231040","619-UM","2017/08/14 21:19:44","新北市新店區光明街231號","121.540263333333","24.9644083333333","6500600","新店區"
"241011","013-R5","2017/08/14 21:19:44","新北市三重區龍濱路197號","121.501846666667","25.0714233333333","6500200","三重區"
"241028","022-UY","2017/08/14 21:19:54","新北市三重區正義南路169號","121.498983333333","25.0574816666667","6500200","三重區"
"241009","060-VK","2017/08/14 21:19:41","新北市三重區忠孝路三段67號","121.480783333333","25.0660383333333","6500200","三重區"
"241031","061-VK","2017/08/14 21:19:51","新北市三重區重新路五段408巷19號","121.475738333333","25.045575","6500200","三重區"
"241015","062-VK","2017/08/14 21:19:53","新北市三重區龍濱路1-1號","121.503291666667","25.0669616666667","6500200","三重區"
"241017","063-VK","2017/08/14 21:19:38","新北市三重區中正北路25巷2號","121.493251666667","25.0627016666667","6500200","三重區"
"241024","065-VK","2017/08/14 21:19:37","新北市三重區中正北路145巷14號","121.484145","25.0678416666667","6500200","三重區"
"241002","090-VK","2017/08/14 21:19:39","新北市三重區五華街60號","121.494045","25.08153","6500200","三重區"
"241003","091-VK","2017/08/14 21:19:52","新北市三重區仁義街220巷1號","121.495263333333","25.0841816666667","6500200","三重區"
"241006","156-TC","2017/08/14 21:19:45","新北市三重區重陽路二段67號","121.487756666667","25.06382","6500200","三重區"
"241005","262-UM","2017/08/14 21:19:40","新北市三重區三信路196號","121.487163333333","25.0853266666667","6500200","三重區"
"241008","265-UM","2017/08/14 21:19:41","新北市三重區自強路一段60號","121.497363333333","25.0668333333333","6500200","三重區"
"241016","266-UM","2017/08/14 21:19:52","新北市三重區自強路一段101號","121.4957","25.0663683333333","6500200","三重區"
"241018","268-UM","2017/08/14 21:19:49","新北市三重區忠孝路二段31號","121.486181666667","25.0711733333333","6500200","三重區"
"241013","270-UM","2017/08/14 21:19:52","新北市三重區仁愛街64號","121.495846666667","25.0731033333333","6500200","三重區"
"241007","398-BY","2017/08/14 21:19:37","新北市三重區自強路三段72號","121.486838333333","25.0735333333333","6500200","三重區"
"241004","475-VK","2017/08/14 21:19:51","新北市三重區碧華街386號","121.491391666667","25.0845983333333","6500200","三重區"
"241019","478-VK","2017/08/14 21:19:46","新北市三重區重陽路三段7-3號","121.489206666667","25.0665066666667","6500200","三重區"
"241030","480-VK","2017/08/14 21:19:50","新北市三重區五谷王北街50巷2號","121.475975","25.05133","6500200","三重區"
"241014","543-UM","2017/08/14 21:19:36","新北市三重區萬全街16號","121.499268333333","25.069755","6500200","三重區"
"241023","545-UM","2017/08/14 21:19:45","新北市三重區中正北路176巷27號","121.48262","25.06599","6500200","三重區"
"241026","887-TS","2017/08/14 21:19:50","新北市三重區大同南路218號","121.496741666667","25.0562366666667","6500200","三重區"
"241012","941-UM","2017/08/14 21:19:41","新北市三重區龍門路284號","121.501971666667","25.074155","6500200","三重區"
"241033","AAC-255","2017/08/14 21:19:50","新北市三重區光復路二段126巷27號","121.470731666667","25.0588066666667","6500200","三重區"
"235044","293-VK","2017/08/14 21:19:36","新北市五股區中直路13-7號","121.42427","25.110515","6500300","中和區"
"235026","800-TS","2017/08/14 20:28:54","新北市中和區員山路36巷16-3號","121.48479","24.991555","6500300","中和區"
"247020","893-R6","2017/08/14 21:19:49","新北市蘆洲區民族路422巷84號","121.473865","25.0939316666667","6501400","蘆洲區"
"247010","546-UM","2017/08/14 21:19:55","新北市蘆洲區鷺江街16-2號","121.478815","25.0824966666667","6501400","蘆洲區"
"247018","500-BY","2017/08/14 21:19:45","新北市蘆洲區復興路105巷11號","121.476363333333","25.08835","6501400","蘆洲區"
"247008","339-TH","2017/08/14 21:19:54","新北市蘆洲區中山一路97巷24號","121.475916666667","25.0808883333333","6501400","蘆洲區"
"247024","337-TH","2017/08/14 21:19:40","新北市蘆洲區光明路112號","121.463603333333","25.08813","6501400","蘆洲區"
"247002","336-TH","2017/08/14 21:19:45","新北市蘆洲區永樂街38巷20號","121.458255","25.08915","6501400","蘆洲區"
"247006","335-TH","2017/08/14 21:19:39","新北市蘆洲區長安街63號","121.462861666667","25.07986","6501400","蘆洲區"
"247014","057-VK","2017/08/14 21:19:37","新北市蘆洲區保和街25號","121.47069","25.0865266666667","6501400","蘆洲區"
"247004","056-VK","2017/08/14 21:10:31","新北市五股區新城八路26號","121.452178333333","25.08916","6501400","蘆洲區"
"247022","053-VK","2017/08/14 21:19:48","新北市蘆洲區三民路249號","121.468685","25.0892016666667","6501400","蘆洲區"
"247012","007-UY","2017/08/14 21:19:46","新北市蘆洲區中興街114號","121.482295","25.0887683333333","6501400","蘆洲區"
"247016","001-UY","2017/08/14 21:19:38","新北市蘆洲區長樂路1號","121.464186666667","25.0841733333333","6501400","蘆洲區"
"241031","251-BX","2017/08/14 05:01:59","新北市石碇區小粗坑(潭邊里)9-2號","121.678858333333","24.9857766666667","6500200","三重區"
"223008","406-TH","2017/08/14 10:41:50","新北市石碇區小粗坑(潭邊里)9-2號","121.678606666667","24.985665","6501900","石碇區"
"253003","4710-YM","2017/08/14 08:00:16","新北市石門區中山路64-1號","121.56747","25.2905316666667","6502200","石門區"
"251004","009-UM","2017/08/14 21:19:42","新北市淡水區民族路33號","121.462296666667","25.1357966666667","6501000","淡水區"
"251008","181-VK","2017/08/14 21:19:43","新北市淡水區水源街二段222號","121.46","25.1764616666667","6501000","淡水區"
"251013","182-VK","2017/08/14 21:19:44","新北市淡水區行忠路330號","121.460596666667","25.1995783333333","6501000","淡水區"
"251010","413-VK","2017/08/14 21:19:51","新北市淡水區中正路一段156巷51號","121.421858333333","25.180885","6501000","淡水區"
"251012","441-VK","2017/08/14 21:19:53","新北市淡水區石頭埔10-1號","121.452468333333","25.2324766666667","6501000","淡水區"
"251015","442-VK","2017/08/14 21:19:50","新北市淡水區淡金路四段11號","121.449753333333","25.2164316666667","6501000","淡水區"
"251005","443-VK","2017/08/14 21:19:52","新北市淡水區仁愛街18巷2號","121.446803333333","25.17041","6501000","淡水區"
"251001","559-UM","2017/08/14 21:19:42","新北市淡水區中山北路二段227號","121.444295","25.18602","6501000","淡水區"
"251011","650-BX","2017/08/14 21:19:43","新北市淡水區新民街120巷29號","121.438895","25.1787916666667","6501000","淡水區"
"251002","672-BX","2017/08/14 21:19:43","新北市淡水區學府路172巷21號","121.448315","25.1748966666667","6501000","淡水區"
"251003","766-UM","2017/08/14 21:19:48","新北市淡水區崁頂18號","121.439226666667","25.185135","6501000","淡水區"
"241031","233-RS","2017/08/14 09:09:31","新北市新莊區環河路48-7號","121.436911666667","25.0098233333333","6500200","三重區"
"220101","245-BX","2017/08/14 21:19:39","新北市五股區新城三路61號","121.449288333333","25.0944683333333","6500100","板橋區"
"220070","AAC-253","2017/08/14 21:19:28","新北市林口區太平里180號","121.368323333333","25.1342566666667","6500100","板橋區"
