"lineid","car","time","location","longitude","latitude"
"244018","403-UM","2017/06/01 10:39:33","新北市林口區中山路11號","121.39633","25.0781833333333"
"222004","289-BY","2017/06/01 10:39:21","新北市深坑區向天湖12號","121.619936666667","24.991565"
"231008","192-VK","2017/06/01 10:39:36","新北市新店區小坑一路21-1號","121.531591666667","24.9120866666667"
"247001","402-BY","2017/06/01 10:32:57","新北市五股區中興路三段3-6號","121.449626666667","25.0787866666667"
"253003","6232-TK","2017/06/01 10:39:27","新北市石門區小坑9號","121.594336666667","25.288955"
"253001","6251-TK","2017/06/01 10:39:33","新北市石門區尖子鹿104-4號","121.578488333333","25.2973716666667"
"253004","8270-PC","2017/06/01 10:39:24","新北市石門區茂林社區227號","121.59211","25.2708816666667"
"207001","681-TV","2017/06/01 09:07:32","新北市萬里區萬里里成功新村67號","121.689678333333","25.1743516666667"
"237001","159-UY","2017/06/01 10:39:35","新北市三峽區中山路459巷163-1號","121.349353333333","24.933505"
