"lineid","car","time","location","longitude","latitude"
"244018","403-UM","2017/06/01 10:56:42","新北市林口區粉寮69號","121.405038333333","25.090835"
"222004","289-BY","2017/06/01 11:09:21","新北市深坑區昇高坑路30號","121.627343333333","25.0001983333333"
"231008","192-VK","2017/06/01 11:09:16","新北市新店區松林路1號","121.546991666667","24.9121383333333"
"247001","402-BY","2017/06/01 10:32:57","新北市五股區中興路三段3-6號","121.449626666667","25.0787866666667"
"207001","681-TV","2017/06/01 09:07:32","新北市萬里區萬里里成功新村67號","121.689678333333","25.1743516666667"
"237001","159-UY","2017/06/01 11:09:35","新北市三峽區中山路459巷137號","121.349633333333","24.93359"
