"lineid","car","time","location","longitude","latitude"
"249005","172-UM","2017/06/01 17:06:46","新北市八里區大堀湖7-1號","121.424813333333","25.150915"
"249001","173-UM","2017/06/01 17:06:52","新北市八里區中華路二段341-3號","121.399555","25.145205"
"249004","303-UY","2017/06/01 17:06:50","新北市八里區忠孝路353號","121.41646","25.16118"
"249002","305-UY","2017/06/01 17:06:48","新北市八里區米倉13-2號","121.438576666667","25.14957"
"249003","593-UM","2017/06/01 17:06:54","新北市八里區中山路二段349號","121.399243333333","25.1471966666667"
"244007","080-UY","2017/06/01 17:06:44","新北市林口區中湖48-21號","121.380116666667","25.09336"
"244019","403-UM","2017/06/01 17:06:53","新北市林口區中山路156-1號","121.390828333333","25.07875"
"244017","485-VK","2017/06/01 17:06:57","新北市林口區粉寮69號","121.404938333333","25.0909433333333"
"244025","837-TS","2017/06/01 17:06:55","新北市林口區粉寮路二段160巷28號","121.405183333333","25.0907833333333"
"244021","838-TS","2017/06/01 17:06:56","新北市林口區粉寮路60-17號","121.404233333333","25.0902916666667"
"243015","380-SR","2017/06/01 15:53:43","新北市泰山區犁頭窠3-1號","121.422295","25.060565"
"243012","646-TV","2017/06/01 15:42:19","新北市泰山區黎明路25號","121.422148333333","25.0607066666667"
"231007","189-VK","2017/06/01 12:03:41","新北市新店區安華路28-1號","121.519676666667","24.9610933333333"
"231046","278-BY","2017/06/01 17:07:01","新北市新店區直潭一街76號","121.535375","24.939975"
"241011","013-R5","2017/06/01 17:06:59","新北市三重區仁愛街53巷24號","121.497078333333","25.0721966666667"
"241028","022-UY","2017/06/01 17:06:43","新北市三重區重新路三段110號","121.492308333333","25.0602266666667"
"241008","059-VK","2017/06/01 17:06:52","新北市三重區力行路二段136巷35號","121.4803","25.0752566666667"
"241009","060-VK","2017/06/01 17:06:52","新北市三重區三和路四段215巷51號","121.48352","25.0800666666667"
"241031","061-VK","2017/06/01 17:06:55","新北市三重區過圳街5號","121.488991666667","25.0587166666667"
"241015","062-VK","2017/06/01 17:06:58","新北市三重區文化北路61-4號","121.498626666667","25.0664083333333"
"241017","063-VK","2017/06/01 17:06:43","新北市三重區國隆路29號","121.492631666667","25.06434"
"241024","065-VK","2017/06/01 17:06:56","新北市三重區大勇街82巷26弄36號","121.478301666667","25.0718866666667"
"241002","090-VK","2017/06/01 17:07:02","新北市三重區仁義街225巷27號","121.497458333333","25.0826733333333"
"241003","091-VK","2017/06/01 17:06:42","新北市三重區五華街141巷58號","121.493541666667","25.0868066666667"
"241005","262-UM","2017/06/01 17:06:57","新北市三重區碧華街112巷10號","121.484495","25.082135"
"241019","265-UM","2017/06/01 17:06:52","新北市三重區力行路一段123巷31號","121.486691666667","25.0689066666667"
"241016","266-UM","2017/06/01 17:07:01","新北市三重區大同北路98號","121.493546666667","25.0640166666667"
"241022","267-UM","2017/06/01 17:06:46","新北市三重區三民街101號","121.485361666667","25.0634033333333"
"241018","268-UM","2017/06/01 17:06:55","新北市三重區安慶街226-2號","121.49261","25.0682116666667"
"241032","269-UM","2017/06/01 17:06:45","新北市三重區新北大道一段21號","121.486328333333","25.0613533333333"
"241013","270-UM","2017/06/01 17:06:53","新北市三重區仁福街64巷1號","121.497836666667","25.07483"
"241025","271-UM","2017/06/01 17:06:56","新北市三重區中正北路560巷11號","121.470906666667","25.0715583333333"
"241007","398-BY","2017/06/01 17:06:42","新北市三重區三和路四段135巷37號","121.487028333333","25.07866"
"241020","412-TH","2017/06/01 17:07:03","新北市三重區自強路三段34巷9號","121.48647","25.0724416666667"
"241004","475-VK","2017/06/01 17:06:51","新北市三重區五華街98巷9號","121.492108333333","25.0822616666667"
"241030","480-VK","2017/06/01 17:06:58","新北市三重區成功路39號","121.489805","25.05079"
"241014","543-UM","2017/06/01 17:06:56","新北市三重區龍濱路235號","121.50164","25.0722833333333"
"241023","545-UM","2017/06/01 17:07:02","新北市三重區三陽路132號","121.481783333333","25.05892"
"241001","547-UM","2017/06/01 17:07:01","新北市三重區仁愛街208號","121.493741666667","25.0776383333333"
"241006","AAD-863","2017/06/01 17:07:02","新北市三重區車路頭街143巷14號","121.484406666667","25.07682"
"241026","887-TS","2017/06/01 17:06:52","新北市三重區文化南路42號","121.50043","25.0602083333333"
"241012","941-UM","2017/06/01 17:07:01","新北市三重區仁和街149號","121.499345","25.0745533333333"
"241029","942-UM","2017/06/01 17:06:58","新北市三重區重安街66號","121.491291666667","25.0571966666667"
"241033","AAC-255","2017/06/01 17:07:00","新北市三重區中興北街271號","121.469071666667","25.06065"
"235064","005-UY","2017/06/01 16:55:48","新北市中和區員山路36巷16-3號","121.484906666667","24.9913483333333"
"235067","255-BX","2017/06/01 16:28:38","新北市中和區員山路36巷13號","121.484405","24.9912216666667"
"235061","378-QA","2017/06/01 17:02:37","新北市中和區員山路36巷16-2號","121.485316666667","24.991695"
"235026","800-TS","2017/06/01 17:06:58","新北市中和區中正路450號","121.490881666667","24.9941916666667"
"235017","900-TW","2017/06/01 15:25:30","新北市中和區員山路36巷16-2號","121.485153333333","24.9915316666667"
"247020","893-R6","2017/06/01 17:06:59","新北市蘆洲區民族路422巷140號","121.472063333333","25.094765"
"247010","546-UM","2017/06/01 17:06:59","新北市蘆洲區民族路5號","121.475603333333","25.0839116666667"
"247018","500-BY","2017/06/01 17:06:48","新北市蘆洲區復興路164號","121.47759","25.0880933333333"
"247006","341-TH","2017/06/01 17:06:57","新北市蘆洲區長安街102巷10號","121.46225","25.081645"
"247008","339-TH","2017/06/01 17:06:56","新北市蘆洲區民生街25號","121.47556","25.078935"
"247024","337-TH","2017/06/01 17:06:51","新北市蘆洲區長興路22號","121.46435","25.0828483333333"
"247002","336-TH","2017/06/01 17:06:49","新北市蘆洲區永樂街90號","121.456725","25.0886083333333"
"247014","057-VK","2017/06/01 17:06:55","新北市蘆洲區中央路32巷1號","121.473523333333","25.0831916666667"
"247004","056-VK","2017/06/01 17:06:59","新北市蘆洲區長安街150號","121.460015","25.0822233333333"
"247012","007-UY","2017/06/01 17:06:53","新北市蘆洲區信義路296號","121.4777","25.0875316666667"
"247022","002-UY","2017/06/01 17:06:54","新北市蘆洲區民族路528-1號","121.468868333333","25.0898066666667"
"247016","001-UY","2017/06/01 17:06:52","新北市蘆洲區光華路73巷5號","121.468243333333","25.0823966666667"
"228003","097-TW","2017/06/01 17:07:02","新北市貢寮區福隆里東興街11-4號","121.950666666667","25.0185633333333"
"228001","212-TW","2017/06/01 17:06:31","新北市貢寮區龍門里復興街29號","121.926216666667","25.027"
"228002","585-TW","2017/06/01 17:06:43","新北市貢寮區龍崗里嵩陽街55號","121.907551666667","25.0165616666667"
"224010","AGQ-8101","2017/06/01 09:09:29","新北市瑞芳區民權街3-1號","121.80912","25.1084583333333"
"224006","676-BX","2017/06/01 17:06:53","新北市瑞芳區大寮路64號","121.781666666667","25.098955"
"224009","285-BY","2017/06/01 17:06:50","新北市瑞芳區濱二路30號","121.84125","25.1159583333333"
"224008","275-VK","2017/06/01 17:06:51","新北市瑞芳區侯硐路83號","121.830331666667","25.08917"
"224007","273-VK","2017/06/01 17:07:01","新北市瑞芳區粗坑口路6號","121.761798333333","25.098825"
"224005","271-BY","2017/06/01 17:06:57","新北市瑞芳區鼻頭路193號","121.915466666667","25.1234183333333"
"227004","642-TC","2017/06/01 17:06:47","新北市雙溪區長源里柑腳8號","121.804705","25.01458"
"227010","400-TW","2017/06/01 17:07:02","新北市雙溪區牡丹里下坑25號","121.850248333333","25.0566366666667"
"251009","008-UM","2017/06/01 17:01:04","新北市淡水區中正路22巷1號","121.43618","25.17293"
"251004","009-UM","2017/06/01 17:06:58","新北市淡水區重建街87號","121.43978","25.1724866666667"
"251007","179-VK","2017/06/01 17:06:47","新北市淡水區民生路60號","121.462091666667","25.1379216666667"
"251008","181-VK","2017/06/01 17:07:01","新北市淡水區民生路169號","121.469695","25.142095"
"251014","182-VK","2017/06/01 17:06:56","新北市淡水區八里堆9-8號","121.464383333333","25.2233616666667"
"251010","413-VK","2017/06/01 17:06:48","新北市淡水區中正路二段31號","121.419483333333","25.181555"
"251012","441-VK","2017/06/01 17:06:52","新北市淡水區新民街一段117號","121.428013333333","25.1878483333333"
"251016","442-VK","2017/06/01 17:06:55","新北市淡水區北新路三段31-8號","121.482791666667","25.1872116666667"
"251005","443-VK","2017/06/01 17:05:03","新北市淡水區中正東路36-1號","121.448851666667","25.1657383333333"
"251006","561-UM","2017/06/01 17:06:57","新北市淡水區文化路57號","121.43874","25.17286"
"251011","650-BX","2017/06/01 17:06:51","新北市淡水區坪頂路50號","121.457926666667","25.1624633333333"
"207001","681-TV","2017/06/01 09:07:32","新北市萬里區萬里里成功新村67號","121.689678333333","25.1743516666667"
"252002","178-VK","2017/06/01 17:06:45","新北市三芝區忠孝街156號","121.506186666667","25.2586633333333"
"252001","292-VK","2017/06/01 17:06:49","新北市三芝區埔坪里埔頭坑20號","121.501758333333","25.2606116666667"
"242021","AAC-296","2017/06/01 15:06:48","新北市新莊區新泰路357巷3弄57號","121.442255","25.0394816666667"
"242029","986-R7","2017/06/01 17:06:59","新北市新莊區新泰路357巷3弄57號","121.442296666667","25.0393583333333"
"242027","705-TV","2017/06/01 17:06:58","新北市新莊區公園一路67號","121.44247","25.0369466666667"
"242025","615-BX","2017/06/01 17:06:49","新北市新莊區新泰路255巷83號","121.442275","25.0388133333333"
"242023","613-BX","2017/06/01 17:06:44","新北市新莊區新泰路357巷3弄57號","121.44218","25.0392416666667"
"242036","566-BX","2017/06/01 17:07:00","新北市新莊區新泰路357巷3弄57號","121.442033333333","25.0390366666667"
"242042","497-BY","2017/06/01 17:07:01","新北市新莊區新泰路357巷1弄51號","121.442753333333","25.039695"
"242004","442-UM","2017/06/01 10:57:26","新北市新莊區新泰路255巷83號","121.442026666667","25.0388733333333"
"242046","441-UM","2017/06/01 17:06:44","新北市新莊區三和路12-21號","121.442076666667","25.0381983333333"
"242031","415-TV","2017/06/01 17:06:58","新北市新莊區新泰路357巷3弄57號","121.44192","25.0391866666667"
"242039","400-BY","2017/06/01 17:06:45","新北市新莊區新泰路357巷3弄57號","121.44218","25.039605"
"242061","362-BY","2017/06/01 17:06:43","新北市新莊區新泰路255巷83號","121.442413333333","25.0389983333333"
"242058","353-BY","2017/06/01 17:07:04","新北市新莊區新泰路255巷83號","121.442216666667","25.038875"
"242011","132-UY","2017/06/01 17:07:01","新北市新莊區新泰路255巷83號","121.442058333333","25.0388533333333"
"242034","133-UY","2017/06/01 17:06:47","新北市新莊區三和路12-21號","121.442053333333","25.0388133333333"
"242019","135-UY","2017/06/01 14:59:46","新北市新莊區新泰路255巷83號","121.442061666667","25.0388933333333"
"242044","172-VK","2017/06/01 17:06:59","新北市新莊區三和路12-21號","121.441981666667","25.038165"
"242007","173-VK","2017/06/01 10:53:52","新北市新莊區新泰路255巷83號","121.442243333333","25.0389033333333"
"242013","175-VK","2017/06/01 17:06:53","新北市新莊區三和路12-21號","121.441996666667","25.0386183333333"
"242051","346-TH","2017/06/01 17:07:02","新北市新莊區新泰路255巷83號","121.442108333333","25.039015"
"242048","347-TH","2017/06/01 17:06:47","新北市新莊區中正路400號","121.44185","25.0342733333333"
"242053","349-TH","2017/06/01 11:09:47","新北市新莊區三和路12-19號","121.44207","25.037685"
"242009","351-TH","2017/06/01 17:06:59","新北市新莊區新泰路357巷3弄57號","121.442063333333","25.0395183333333"
"238023","601-UM","2017/06/01 17:06:42","新北市樹林區中山路二段191號","121.404701666667","24.9777216666667"
"238018","571-TV","2017/06/01 17:06:49","新北市樹林區水源街58號","121.42578","24.9809883333333"
"238024","5061-A6","2017/06/01 17:06:52","新北市樹林區鎮前街156號","121.424553333333","24.9901433333333"
"238022","312-TH","2017/06/01 17:06:49","新北市樹林區八德街263-1號","121.419286666667","24.9738116666667"
"238012","303-VK","2017/06/01 17:06:48","新北市樹林區中正路22-1號","121.427856666667","24.9993366666667"
"238017","283-BY","2017/06/01 17:06:49","新北市樹林區光武街2-5號","121.415441666667","25.0044433333333"
"238001","282-BY","2017/06/01 17:03:02","新北市樹林區中正路22-1號","121.42773","24.9995683333333"
"238016","169-UY","2017/06/01 17:06:46","新北市樹林區中山路二段10號","121.417536666667","24.9850633333333"
"239007","AAC-297","2017/06/01 17:06:51","新北市鶯歌區文化路116號","121.352126666667","24.9521116666667"
"239006","891-R6","2017/06/01 17:06:47","新北市鶯歌區八德路2巷3-5號","121.337798333333","24.9480583333333"
"239008","527-UM","2017/06/01 17:06:43","新北市鶯歌區尖山路101巷1-5號","121.347731666667","24.9466"
"239005","526-UM","2017/06/01 17:06:52","新北市鶯歌區八德路29號","121.335041666667","24.9525683333333"
"239001","417-VK","2017/06/01 17:06:50","新北市鶯歌區尖山路83號","121.34879","24.9493283333333"
"239003","360-BY","2017/06/01 17:06:56","新北市鶯歌區八德路3-7號","121.338568333333","24.94842"
"239002","359-BY","2017/06/01 17:06:46","新北市鶯歌區建國路158號","121.350506666667","24.9537183333333"
"239004","193-VK","2017/06/01 17:06:45","新北市鶯歌區文化路324巷8弄2衖2號","121.350046666667","24.9450166666667"
"221010","269-BY","2017/06/01 17:06:47","新北市汐止區汐萬路一段256巷3號","121.652103333333","25.074785"
"220028","461-BY","2017/06/01 16:59:20","新北市板橋區華東街1-9號","121.448228333333","24.9948766666667"
