"lineid","car","time","location","longitude","latitude"
"249005","172-UM","2017/06/01 17:28:46","新北市八里區荖阡坑路36號","121.40833","25.1259233333333"
"249001","173-UM","2017/06/01 17:28:52","新北市八里區中華路一段5號","121.422696666667","25.15835"
"249004","303-UY","2017/06/01 17:28:50","新北市八里區賢三街86號","121.417421666667","25.15787"
"249002","305-UY","2017/06/01 17:28:48","新北市八里區龍米路二段56號","121.448078333333","25.1407816666667"
"249003","593-UM","2017/06/01 17:28:53","新北市八里區中山路二段317號","121.400601666667","25.1477016666667"
"244007","080-UY","2017/06/01 17:28:52","新北市林口區湖子20號","121.3858","25.0925383333333"
"244019","403-UM","2017/06/01 17:28:33","新北市林口區文化二路一段350號","121.372958333333","25.07534"
"244013","742-UY","2017/06/01 17:28:41","新北市林口區中山路2號","121.396678333333","25.07848"
"244009","410-SL","2017/06/01 17:28:35","新北市林口區文化北路二段550巷20弄37號","121.37812","25.0910633333333"
"244023","483-VK","2017/06/01 17:28:47","新北市林口區隆林街93號","121.385641666667","25.0751083333333"
"244017","485-VK","2017/06/01 17:28:37","新北市林口區粉寮路二段46-1號","121.40355","25.0871183333333"
"244025","837-TS","2017/06/01 17:28:55","新北市林口區中山路299號","121.384258333333","25.080195"
"244021","838-TS","2017/06/01 17:28:16","新北市林口區粉寮路二段288-1號","121.404993333333","25.0960516666667"
"231007","189-VK","2017/06/01 12:03:41","新北市新店區安華路28-1號","121.519676666667","24.9610933333333"
"241011","013-R5","2017/06/01 17:28:39","新北市三重區河邊北街124巷3號","121.503606666667","25.07152"
"241008","059-VK","2017/06/01 17:28:52","新北市三重區車路頭街139巷12號","121.484263333333","25.0762283333333"
"241015","062-VK","2017/06/01 17:28:58","新北市三重區開元街1號","121.50355","25.0665183333333"
"241017","063-VK","2017/06/01 17:28:43","新北市三重區大同北路34巷50號","121.493615","25.06202"
"241024","065-VK","2017/06/01 17:28:36","新北市三重區中正北路191巷3弄11號","121.477916666667","25.06978"
"241003","091-VK","2017/06/01 17:28:42","新北市三重區富福街11號","121.490215","25.0833016666667"
"241005","262-UM","2017/06/01 17:28:57","新北市三重區永安北路二段25巷2號","121.482303333333","25.0818383333333"
"241019","265-UM","2017/06/01 17:28:53","新北市三重區自強路二段26巷33號","121.488416666667","25.0691316666667"
"241016","266-UM","2017/06/01 17:28:42","新北市三重區大同北路85號","121.4948","25.0636883333333"
"241022","267-UM","2017/06/01 17:28:46","新北市三重區重陽路二段34巷1號","121.486673333333","25.063155"
"241032","269-UM","2017/06/01 17:28:45","新北市三重區中華路2巷3號","121.483028333333","25.060545"
"241025","271-UM","2017/06/01 17:28:43","新北市三重區中正北路213號","121.476285","25.0700933333333"
"241007","398-BY","2017/06/01 17:28:42","新北市三重區三和路四段145巷167號","121.487833333333","25.0791816666667"
"241020","412-TH","2017/06/01 17:28:43","新北市三重區忠孝路一段137號","121.488381666667","25.072175"
"241030","480-VK","2017/06/01 17:28:38","新北市三重區集美街151號","121.49072","25.0532966666667"
"241014","543-UM","2017/06/01 17:28:36","新北市三重區長壽街29號","121.500491666667","25.0680766666667"
"241023","545-UM","2017/06/01 17:28:42","新北市三重區忠孝路三段50巷13號","121.481271666667","25.0654733333333"
"241026","887-TS","2017/06/01 17:28:52","新北市三重區福裕街36-3號","121.498946666667","25.061485"
"241012","941-UM","2017/06/01 17:28:52","新北市三重區仁興街31巷39號","121.500285","25.075465"
"241033","AAC-255","2017/06/01 17:28:40","新北市三重區興德路131巷30號","121.46993","25.053955"
"235064","005-UY","2017/06/01 16:55:48","新北市中和區員山路36巷16-3號","121.484906666667","24.9913483333333"
"235067","255-BX","2017/06/01 16:28:38","新北市中和區員山路36巷13號","121.484405","24.9912216666667"
"235061","378-QA","2017/06/01 17:02:37","新北市中和區員山路36巷16-2號","121.485316666667","24.991695"
"235062","800-TS","2017/06/01 17:28:54","新北市中和區員山路36巷16-3號","121.485071666667","24.9912933333333"
"235017","900-TW","2017/06/01 15:25:30","新北市中和區員山路36巷16-2號","121.485153333333","24.9915316666667"
"247020","893-R6","2017/06/01 17:28:39","新北市蘆洲區仁愛街145巷3-1號","121.469853333333","25.0946033333333"
"247010","546-UM","2017/06/01 17:28:47","新北市蘆洲區信義路187號","121.479661666667","25.082625"
"247018","500-BY","2017/06/01 17:28:48","新北市蘆洲區民權路146號","121.472773333333","25.0892866666667"
"247006","341-TH","2017/06/01 17:28:42","新北市蘆洲區長安街68巷29號","121.463726666667","25.080985"
"247008","339-TH","2017/06/01 17:28:56","新北市蘆洲區信義路34巷152號","121.475948333333","25.0761033333333"
"247024","337-TH","2017/06/01 17:28:48","新北市蘆洲區長興路296-7號","121.460428333333","25.0899883333333"
"247002","336-TH","2017/06/01 17:28:49","新北市蘆洲區永樂街38巷57弄10-1號","121.457923333333","25.0903666666667"
"247014","057-VK","2017/06/01 17:28:35","新北市蘆洲區三民路52號","121.47533","25.0836183333333"
"247004","056-VK","2017/06/01 17:28:39","新北市蘆洲區長安街233巷43號","121.45782","25.081965"
"247012","007-UY","2017/06/01 17:28:52","新北市蘆洲區三民路88號","121.473953333333","25.0851366666667"
"247022","002-UY","2017/06/01 17:28:54","新北市蘆洲區三民路285號","121.467168333333","25.0901816666667"
"247016","001-UY","2017/06/01 17:28:52","新北市蘆洲區光華路46巷28號","121.468158333333","25.08391"
"228003","097-TW","2017/06/01 17:28:42","新北市貢寮區仁理村研海街62-2號","121.92575","25.044395"
"228001","212-TW","2017/06/01 17:28:46","新北市貢寮區仁理村仁愛路29號","121.92474","25.0533333333333"
"228002","585-TW","2017/06/01 17:28:43","新北市貢寮區福隆里福隆街14號","121.94486","25.016305"
"224010","AGQ-8101","2017/06/01 09:09:29","新北市瑞芳區民權街3-1號","121.80912","25.1084583333333"
"224006","676-BX","2017/06/01 17:28:53","新北市瑞芳區傑魚坑路185號","121.788356666667","25.107965"
"224009","285-BY","2017/06/01 17:28:50","新北市瑞芳區汽車路9-2號","121.845571666667","25.10983"
"224008","275-VK","2017/06/01 17:28:50","新北市瑞芳區九芎橋路8號","121.832423333333","25.0902016666667"
"224005","271-BY","2017/06/01 17:28:56","新北市瑞芳區海濱路8-6號","121.83167","25.1261066666667"
"227004","642-TC","2017/06/01 17:28:47","新北市雙溪區平林里外平林72號","121.844306666667","25.0320383333333"
"227010","400-TW","2017/06/01 17:28:43","新北市雙溪區三貂里十三層5-3號","121.85231","25.0767366666667"
"251009","008-UM","2017/06/01 17:27:24","新北市淡水區重建街1巷3號","121.43982","25.1734283333333"
"251004","009-UM","2017/06/01 17:28:38","新北市淡水區中正東路二段88巷15號","121.459145","25.150595"
"251007","179-VK","2017/06/01 17:28:46","新北市淡水區民生路47-4號","121.462093333333","25.13803"
"251008","181-VK","2017/06/01 17:28:41","新北市淡水區大同路100巷6號","121.46265","25.1397266666667"
"251014","182-VK","2017/06/01 17:28:16","新北市淡水區公埔子10號","121.47507","25.2271666666667"
"251010","413-VK","2017/06/01 17:28:48","新北市淡水區中正路二段211號","121.426175","25.18918"
"251012","441-VK","2017/06/01 17:28:52","新北市淡水區北新路84號","121.446755","25.1783933333333"
"251016","442-VK","2017/06/01 17:28:55","新北市淡水區社厝坑6號","121.470443333333","25.18973"
"251005","443-VK","2017/06/01 17:28:55","新北市淡水區鄧公路31巷2號","121.45116","25.1706166666667"
"251001","559-UM","2017/06/01 17:28:41","新北市淡水區中正路382號","121.42919","25.17533"
"251006","561-UM","2017/06/01 17:28:37","新北市淡水區大仁街69號","121.443051666667","25.1763333333333"
"251011","650-BX","2017/06/01 17:28:51","新北市淡水區坪頂路712號","121.482505","25.1585333333333"
"251002","672-BX","2017/06/01 17:28:51","新北市淡水區中正路382號","121.429885","25.175245"
"251003","766-UM","2017/06/01 17:28:41","新北市淡水區中山路159-1號","121.440741666667","25.172945"
"207001","681-TV","2017/06/01 09:07:32","新北市萬里區萬里里成功新村67號","121.689678333333","25.1743516666667"
"207003","550-UM","2017/06/01 17:28:51","新北市萬里區龜吼里翡翠路17號","121.683306666667","25.1879616666667"
"207004","225-TW","2017/06/01 17:28:53","新北市萬里區萬里里景美路16號","121.686888333333","25.173525"
"252002","178-VK","2017/06/01 17:28:45","新北市三芝區忠孝街1-14號","121.505508333333","25.25398"
"252001","292-VK","2017/06/01 17:28:49","新北市三芝區淡金路一段3號","121.49815","25.2596616666667"
"237011","572-TV","2017/06/01 17:28:47","新北市三峽區中山路459巷163-3號","121.34869","24.9330966666667"
"242021","AAC-296","2017/06/01 17:28:54","新北市新莊區中正路197號","121.452705","25.0360366666667"
"242029","986-R7","2017/06/01 17:28:39","新北市新莊區幸福路7號","121.459286666667","25.0493966666667"
"242027","705-TV","2017/06/01 17:28:58","新北市新莊區思源路33號","121.460066666667","25.0396233333333"
"242025","615-BX","2017/06/01 17:28:49","新北市新莊區復興路一段222號","121.453135","25.0437383333333"
"242023","613-BX","2017/06/01 17:28:44","新北市新莊區中華路一段112號","121.452488333333","25.040485"
"242036","566-BX","2017/06/01 17:28:40","新北市新莊區民安路429巷3號","121.433943333333","25.0233383333333"
"242042","497-BY","2017/06/01 17:28:41","新北市新莊區新樹路52-41號","121.435451666667","25.0265233333333"
"242004","442-UM","2017/06/01 17:28:47","新北市新莊區中港路278號","121.453118333333","25.0441316666667"
"242046","441-UM","2017/06/01 17:28:44","新北市新莊區新樹路67巷32號","121.440436666667","25.0301383333333"
"242031","415-TV","2017/06/01 17:28:38","新北市新莊區新泰路381巷38號","121.442463333333","25.0436916666667"
"242002","413-TV","2017/06/01 17:28:37","新北市新莊區新莊路211號","121.455375","25.0354183333333"
"242039","400-BY","2017/06/01 17:28:45","新北市新莊區民安路318號","121.42865","25.0220783333333"
"242061","362-BY","2017/06/01 17:28:43","新北市新莊區瓊林北路55號","121.4387","25.0207866666667"
"242058","353-BY","2017/06/01 17:28:45","新北市新莊區中正路543號","121.435385","25.0328266666667"
"242011","132-UY","2017/06/01 17:28:41","新北市新莊區中港路471號","121.452328333333","25.049175"
"242034","133-UY","2017/06/01 17:28:47","新北市新莊區瓊林路7-1號","121.449818333333","25.0318883333333"
"242019","135-UY","2017/06/01 17:28:44","新北市新莊區中港路61號","121.455298333333","25.0384866666667"
"242044","172-VK","2017/06/01 17:28:39","新北市新莊區富國路87號","121.420535","25.0257983333333"
"242007","173-VK","2017/06/01 17:28:50","新北市新莊區自立街62號","121.454001666667","25.04541"
"242013","175-VK","2017/06/01 17:28:53","新北市新莊區中誠街16巷9號","121.451971666667","25.048655"
"242051","346-TH","2017/06/01 17:28:42","新北市新莊區瓊林南路59-8號","121.43545","25.0164166666667"
"242048","347-TH","2017/06/01 17:28:47","新北市新莊區四維路210號","121.421293333333","25.0200983333333"
"242017","348-TH","2017/06/01 17:28:45","新北市新莊區中華路一段103號","121.452716666667","25.0439433333333"
"242053","349-TH","2017/06/01 17:28:48","新北市新莊區瓊林南路305巷35號","121.435893333333","25.0050466666667"
"242015","350-TH","2017/06/01 17:28:40","新北市新莊區新泰路157號","121.447698333333","25.036915"
"242009","351-TH","2017/06/01 17:28:55","新北市新莊區中原路111號","121.4557","25.0543033333333"
"238015","755-BX","2017/06/01 17:28:54","新北市樹林區大安路267號","121.419061666667","24.9937366666667"
"238023","601-UM","2017/06/01 17:28:42","新北市樹林區中正路433號","121.415036666667","25.00862"
"238019","599-UM","2017/06/01 17:28:58","新北市樹林區太平路1號","121.418911666667","24.98407"
"238018","571-TV","2017/06/01 17:28:49","新北市樹林區鎮前街283號","121.418386666667","24.9848616666667"
"238024","5061-A6","2017/06/01 17:28:52","新北市樹林區鎮前街17號","121.425911666667","24.99268"
"238022","312-TH","2017/06/01 17:28:49","新北市樹林區信義街12號","121.422601666667","24.9818566666667"
"238021","311-TH","2017/06/01 17:23:09","新北市樹林區西圳街一段136號","121.397303333333","24.96358"
"238025","303-VK","2017/06/01 17:28:48","新北市樹林區保安街一段195號","121.420973333333","24.9959666666667"
"238017","283-BY","2017/06/01 17:28:48","新北市樹林區中正路234巷12號","121.418618333333","25.0074733333333"
"238014","282-BY","2017/06/01 17:28:42","新北市樹林區長壽街70巷31弄21號","121.421663333333","24.99503"
"238020","268-VK","2017/06/01 17:28:55","新北市樹林區中正路22-1號","121.427833333333","24.9994216666667"
"238026","172-UY","2017/06/01 17:28:42","新北市樹林區味王街14號","121.402996666667","24.9760416666667"
"238016","169-UY","2017/06/01 17:28:46","新北市樹林區中山路一段2-3號","121.42438","24.9930866666667"
"239007","AAC-297","2017/06/01 17:28:51","新北市鶯歌區中山路315號","121.344078333333","24.9569566666667"
"239006","891-R6","2017/06/01 17:28:47","新北市鶯歌區鳳鳴路71號","121.334168333333","24.9657433333333"
"239008","527-UM","2017/06/01 17:28:43","新北市鶯歌區大湖路590巷11號","121.336075","24.974255"
"239005","526-UM","2017/06/01 17:28:52","新北市鶯歌區福隆一街5號","121.325593333333","24.971825"
"239001","417-VK","2017/06/01 17:28:50","新北市鶯歌區尖山路235號","121.34008","24.943685"
"239003","360-BY","2017/06/01 17:28:36","新北市鶯歌區德昌街5號","121.3338","24.9605383333333"
"239002","359-BY","2017/06/01 17:28:46","新北市鶯歌區國慶街98號","121.350235","24.9544966666667"
"239004","193-VK","2017/06/01 17:28:45","新北市三峽區隆恩街250號","121.3571","24.9407666666667"
"221010","269-BY","2017/06/01 17:28:47","新北市汐止區汐萬路一段256巷3號","121.652153333333","25.0748333333333"
"220028","461-BY","2017/06/01 16:59:20","新北市板橋區華東街1-9號","121.448228333333","24.9948766666667"
