"lineid","car","time","location","longitude","latitude"
"231007","189-VK","2017/06/01 12:03:41","新北市新店區安華路28-1號","121.519676666667","24.9610933333333"
"235026","800-TS","2017/06/01 20:39:46","新北市中和區員山路36巷16-2號","121.485255","24.9913583333333"
"251004","009-UM","2017/06/01 22:19:57","新北市淡水區民族路33號","121.462348333333","25.1358133333333"
"251007","179-VK","2017/06/01 22:19:44","新北市淡水區北新路180號","121.449358333333","25.1787883333333"
"251008","181-VK","2017/06/01 22:19:40","新北市淡水區學府路104號","121.449893333333","25.17179"
"251016","442-VK","2017/06/01 22:19:55","新北市淡水區水碓街7號","121.443176666667","25.1771116666667"
"207001","681-TV","2017/06/01 09:07:32","新北市萬里區萬里里成功新村67號","121.689678333333","25.1743516666667"
"238023","601-UM","2017/06/01 20:51:51","新北市樹林區中山路三段204號","121.386713333333","24.9681866666667"
