"lineid","car","time","location","longitude","latitude","cityid","cityname"
"232019","758-BX","2017/08/11 08:04:10","新北市坪林區坪雙路一段43號","121.711533333333","24.942605","6502000","坪林區"
"244004","248-BX","2017/08/11 08:09:47","新北市林口區嘉寶里97號","121.327713333333","25.1214616666667","6501700","林口區"
"222005","289-BY","2017/08/11 08:09:42","新北市深坑區萬福路147號","121.611","25.016345","6501800","深坑區"
"231009","188-VK","2017/08/11 08:09:35","新北市新店區光明街229號","121.540258333333","24.9643283333333","6500600","新店區"
"231007","719-UM","2017/08/11 08:09:42","新北市新店區新潭路一段2號","121.523115","24.9436816666667","6500600","新店區"
"235023","911-UM","2017/08/11 08:09:40","新北市中和區中山路二段222號","121.499495","25.0026633333333","6500300","中和區"
"220104","015-TV","2017/08/11 08:09:45","新北市五股區新五路三段2號","121.444755","25.088095","6500100","板橋區"
"241031","4501-MT","2017/08/11 01:09:47","新北市平溪區石底里公園街18-3號","121.733541666667","25.0257283333333","6500200","三重區"
"226005","5620-A6","2017/08/11 08:09:49","新北市平溪區南山里六分11號","121.797643333333","25.0498883333333","6502400","平溪區"
"226001","7418-A5","2017/08/11 08:09:43","新北市平溪區南山里南山坪5號","121.761768333333","25.03288","6502400","平溪區"
"226003","AGD-0702","2017/08/11 08:09:39","新北市平溪區十分里十分街58巷20號","121.77468","25.0433916666667","6502400","平溪區"
"223006","022-BY","2017/08/11 08:09:44","新北市坪林區上坑子口21號","121.70324","24.9489316666667","6501900","石碇區"
"223002","198-BX","2017/08/11 08:02:28","新北市石碇區大格門5號","121.667438333333","24.95635","6501900","石碇區"
"223003","205-TH","2017/08/11 08:09:33","新北市石碇區樟空子10-1號","121.66681","24.962825","6501900","石碇區"
"223008","406-TH","2017/08/11 08:09:50","新北市石碇區靜安路一段337號","121.699035","25.0145716666667","6501900","石碇區"
"223001","437-BY","2017/08/11 08:09:45","新北市石碇區樟空子10-2號","121.666918333333","24.962325","6501900","石碇區"
"223004","660-BX","2017/08/11 08:09:37","新北市石碇區外按18-2號","121.651006666667","24.999565","6501900","石碇區"
"223007","661-BX","2017/08/11 08:09:45","新北市石碇區靜安路一段337號","121.699026666667","25.0145983333333","6501900","石碇區"
"227005","282-VK","2017/08/11 08:09:46","新北市雙溪區上林里大瀨10號","121.822286666667","25.022245","6502500","雙溪區"
"253001","4710-YM","2017/08/11 08:09:46","新北市石門區楓林7號","121.53774","25.2949283333333","6502200","石門區"
"252005","073-UM","2017/08/11 08:09:43","新北市三芝區中山路二段50號","121.503163333333","25.254375","6502100","三芝區"
"237001","159-UY","2017/08/11 08:09:36","新北市三峽區學成路265號","121.37565","24.9429933333333","6500900","三峽區"
"236009","165-UM","2017/08/11 08:09:42","新北市土城區石門路56號","121.454206666667","24.95691","6501300","土城區"
"236004","339-SR","2017/08/11 08:09:37","新北市土城區中央路四段183號","121.414928333333","24.9567033333333","6501300","土城區"
"236006","498-BY","2017/08/11 08:09:38","新北市土城區永平街51號","121.427703333333","24.9591233333333","6501300","土城區"
