"lineid","car","time","location","longitude","latitude","cityid","cityname"
"222005","289-BY","2017/08/11 09:19:41","新北市深坑區土庫尖路62號","121.635271666667","25.0173433333333","6501800","深坑區"
"231009","188-VK","2017/08/11 09:19:35","新北市新店區廣興路101號","121.537345","24.9124483333333","6500600","新店區"
"231007","719-UM","2017/08/11 09:19:42","新北市新店區新潭路三段215巷25號","121.50809","24.904065","6500600","新店區"
"235023","911-UM","2017/08/11 09:19:40","新北市中和區連城路249-1號","121.493228333333","24.9967016666667","6500300","中和區"
"223002","198-BX","2017/08/11 09:19:27","新北市石碇區八分寮47-1號","121.642981666667","25.01349","6501900","石碇區"
"223003","205-TH","2017/08/11 09:19:33","新北市石碇區北宜路五段77號","121.645633333333","24.9520466666667","6501900","石碇區"
"223008","406-TH","2017/08/11 09:19:49","新北市石碇區光明路28號","121.695298333333","25.02384","6501900","石碇區"
"223001","437-BY","2017/08/11 09:19:45","新北市石碇區北宜路六段水底寮巷2號","121.657961666667","24.9478216666667","6501900","石碇區"
"223004","660-BX","2017/08/11 09:19:37","新北市石碇區碇坪路二段16號","121.685395","24.976085","6501900","石碇區"
"223007","661-BX","2017/08/11 09:19:45","新北市石碇區光明路22號","121.693506666667","25.0266916666667","6501900","石碇區"
"227005","282-VK","2017/08/11 09:05:26","新北市雙溪區泰平里料角坑9號","121.812435","24.9745666666667","6502500","雙溪區"
"253001","4710-YM","2017/08/11 09:19:45","新北市石門區小坑9號","121.594325","25.2890633333333","6502200","石門區"
"252002","178-VK","2017/08/11 09:19:33","新北市三芝區後厝里陽住坑2號","121.484145","25.2485016666667","6502100","三芝區"
"237001","159-UY","2017/08/11 09:19:36","新北市三峽區大義路380號","121.376726666667","24.9479583333333","6500900","三峽區"
"236009","165-UM","2017/08/11 09:19:42","新北市土城區中山路32號","121.42427","24.963605","6501300","土城區"
"236004","339-SR","2017/08/11 09:19:37","新北市土城區中央路一段264-2號","121.443963333333","24.9837633333333","6501300","土城區"
"236006","498-BY","2017/08/11 09:19:38","新北市土城區中央路三段124號","121.435038333333","24.966215","6501300","土城區"
