"lineid","car","time","location","longitude","latitude","cityid","cityname"
"248002","655-BX","2017/08/11 10:27:43","新北市五股區中興路二段83巷26-3號","121.460043333333","25.07555","6501500","五股區"
"231009","188-VK","2017/08/11 10:27:55","新北市新店區小坑一路56-1號","121.527166666667","24.9089233333333","6500600","新店區"
"231007","719-UM","2017/08/11 10:27:48","新北市新店區小坑三路52-1號","121.51727","24.9082866666667","6500600","新店區"
"227005","282-VK","2017/08/11 09:28:45","新北市雙溪區泰平里溪尾寮2-2號","121.819213333333","24.96431","6502500","雙溪區"
"237001","159-UY","2017/08/11 10:25:36","新北市樹林區中山路三段214號","121.379941666667","24.9676783333333","6500900","三峽區"
"236009","165-UM","2017/08/11 10:27:42","新北市土城區福祥街97號","121.441431666667","24.9813483333333","6501300","土城區"
