"lineid","car","time","location","longitude","latitude","cityid","cityname"
"248002","655-BX","2017/08/11 10:58:29","新北市五股區中興路二段83巷26-6號","121.459808333333","25.0751733333333","6501500","五股區"
"231009","188-VK","2017/08/11 10:59:35","新北市新店區新烏路二段300號","121.54863","24.9128916666667","6500600","新店區"
"231007","719-UM","2017/08/11 10:59:42","新北市新店區新潭路一段160巷17號","121.529631666667","24.9318533333333","6500600","新店區"
"227005","282-VK","2017/08/11 10:58:06","新北市雙溪區泰平里泰平45-5號","121.831236666667","24.977705","6502500","雙溪區"
"236009","165-UM","2017/08/11 10:47:39","新北市土城區永平街51號","121.42792","24.9591566666667","6501300","土城區"
