"lineid","car","time","location","longitude","latitude","cityid","cityname"
"248002","655-BX","2017/08/11 10:58:29","新北市五股區中興路二段83巷26-6號","121.459808333333","25.0751733333333","6501500","五股區"
"231009","188-VK","2017/08/11 11:19:01","新北市新店區成功路105號","121.536828333333","24.8946716666667","6500600","新店區"
"231007","719-UM","2017/08/11 11:29:42","新北市新店區安康路一段70號","121.528516666667","24.9618083333333","6500600","新店區"
"227005","282-VK","2017/08/11 11:29:45","新北市雙溪區魚行里丁子蘭坑6-1號","121.873685","25.0141516666667","6502500","雙溪區"
"236009","165-UM","2017/08/11 10:47:39","新北市土城區永平街51號","121.42792","24.9591566666667","6501300","土城區"
