"lineid","car","time","location","longitude","latitude","cityid","cityname"
"234044","148-BY","2017/08/11 14:19:50","新北市永和區永元路120號","121.52278","25.0027166666667","6500400","永和區"
"234012","149-BY","2017/08/11 14:19:44","新北市中和區橋和路281巷1號","121.495665","25.0078433333333","6500400","永和區"
"234005","207-UY","2017/08/11 14:19:43","新北市永和區中正路401號","121.517135","25.004375","6500400","永和區"
"234078","298-R6","2017/08/11 14:19:48","新北市永和區國中路148號","121.523065","25.007005","6500400","永和區"
"234036","336-UY","2017/08/11 14:19:48","新北市永和區民樂街31巷17弄6號","121.528443333333","25.0018983333333","6500400","永和區"
"234062","337-UY","2017/08/11 14:19:52","新北市永和區得和路130號","121.519118333333","24.999985","6500400","永和區"
"234068","552-UM","2017/08/11 14:19:39","新北市永和區永亨路7號","121.519393333333","25.005645","6500400","永和區"
"234052","553-UM","2017/08/11 14:19:34","新北市永和區光復街2巷26弄1號","121.51763","25.0166466666667","6500400","永和區"
"234028","746-BX","2017/08/11 14:19:49","新北市中和區中正路250號","121.49566","24.9939","6500400","永和區"
"234084","840-RS","2017/08/11 14:19:47","新北市永和區永和路二段239-2號","121.515688333333","25.01465","6500400","永和區"
"234060","AAD-866","2017/08/11 14:19:41","新北市永和區安樂路194巷30號","121.516523333333","25.00117","6500400","永和區"
"234040","862-TW","2017/08/11 14:19:44","新北市中和區中安街178巷2號","121.5109","24.99959","6500400","永和區"
"234048","863-TW","2017/08/11 14:19:45","新北市永和區新生路36號","121.508056666667","25.0157316666667","6500400","永和區"
"234025","9371-KE","2017/08/11 14:19:52","新北市中和區安平路222號","121.513995","25.0002633333333","6500400","永和區"
"248019","225-UY","2017/08/11 14:01:05","新北市五股區凌雲路三段57號","121.425198333333","25.1250333333333","6501500","五股區"
"248002","655-BX","2017/08/11 10:58:29","新北市五股區中興路二段83巷26-6號","121.459808333333","25.0751733333333","6501500","五股區"
"234076","969-R7","2017/08/11 14:19:52","新北市永和區民權路55號","121.520106666667","24.9966183333333","6500400","永和區"
"234072","AAC-211","2017/08/11 14:19:42","新北市永和區環河東路一段126號","121.52071","25.015375","6500400","永和區"
"234066","AAC-212","2017/08/11 14:19:46","新北市永和區保平路236巷12弄7號","121.508728333333","25.0065883333333","6500400","永和區"
"234001","AAC-295","2017/08/11 14:19:46","新北市永和區中正路575號","121.51676","25.0087616666667","6500400","永和區"
"231002","002-UM","2017/08/11 14:19:34","新北市新店區中央路155號","121.529771666667","24.9728416666667","6500600","新店區"
"231025","0291-UT","2017/08/11 14:19:40","新北市新店區二十張路129巷5弄7號","121.536781666667","24.9789866666667","6500600","新店區"
"231028","046-UY","2017/08/11 14:19:39","新北市新店區安和路二段163號","121.518805","24.9742433333333","6500600","新店區"
"231030","047-UY","2017/08/11 14:19:38","新北市新店區安民街15號","121.515378333333","24.9645883333333","6500600","新店區"
"231029","106-UY","2017/08/11 14:19:36","新北市新店區安康路二段202-1號","121.510343333333","24.9596866666667","6500600","新店區"
"231018","107-UY","2017/08/11 14:19:35","新北市新店區中央四街58號","121.527423333333","24.9751766666667","6500600","新店區"
"231012","108-UY","2017/08/11 14:19:35","新北市新店區中興路二段100巷1號","121.547646666667","24.9715633333333","6500600","新店區"
"231035","110-UY","2017/08/11 14:19:38","新北市新店區光華街5巷26號","121.517528333333","24.9681416666667","6500600","新店區"
"231022","187-VK","2017/08/11 14:19:50","新北市新店區桂山路35號","121.559865","24.90273","6500600","新店區"
"231034","268-BY","2017/08/11 14:19:40","新北市新店區黎明路3號","121.50338","24.9523483333333","6500600","新店區"
"231016","AAD-862","2017/08/11 14:19:37","新北市新店區北宜路三段54號","121.572968333333","24.9512783333333","6500600","新店區"
"231027","3712-VJ","2017/08/11 14:19:43","新北市新店區光明街286巷6-2號","121.540641666667","24.963665","6500600","新店區"
"231038","4715-K9","2017/08/11 14:19:36","新北市新店區溪洲路6巷20號","121.533845","24.9626933333333","6500600","新店區"
"231036","512-UM","2017/08/11 14:19:42","新北市新店區安祥路109巷151弄12號","121.47809","24.9589466666667","6500600","新店區"
"231023","513-UM","2017/08/11 14:19:44","新北市新店區北新路一段2-19號","121.538666666667","24.96007","6500600","新店區"
"231006","617-UM","2017/08/11 14:19:43","新北市新店區北宜路二段599號","121.568111666667","24.9555683333333","6500600","新店區"
"231001","619-UM","2017/08/11 14:19:33","新北市新店區北新路一段331號","121.541745","24.9685533333333","6500600","新店區"
"231003","641-BX","2017/08/11 14:19:35","新北市新店區中興路一段216號","121.543971666667","24.965795","6500600","新店區"
"231013","719-UM","2017/08/11 14:19:40","新北市新店區建國路156號","121.538583333333","24.9793733333333","6500600","新店區"
"231032","720-UM","2017/08/11 14:19:31","新北市新店區溪洲路196-6號","121.530298333333","24.966905","6500600","新店區"
"231005","897-TW","2017/08/11 14:19:36","新北市新店區中興路三段217號","121.543618333333","24.98215","6500600","新店區"
"231004","899-TW","2017/08/11 14:19:54","新北市新店區中正路143號","121.541578333333","24.971565","6500600","新店區"
"231037","AKT-0513","2017/08/11 14:19:35","新北市新店區車子路12號","121.504716666667","24.95421","6500600","新店區"
"235030","003-UY","2017/08/11 14:19:45","新北市中和區景新街2號","121.502636666667","24.9996466666667","6500300","中和區"
"235028","005-UY","2017/08/11 14:19:51","新北市中和區中和路139號","121.501936666667","24.9998566666667","6500300","中和區"
"235027","006-UY","2017/08/11 14:19:46","新北市中和區中正路280號","121.494868333333","24.9943933333333","6500300","中和區"
"235020","096-UM","2017/08/11 14:19:46","新北市中和區民富街36號","121.476676666667","25.00662","6500300","中和區"
"235003","097-UM","2017/08/11 14:19:50","新北市中和區秀峰街80號","121.520135","24.99083","6500300","中和區"
"235029","098-UM","2017/08/11 14:19:39","新北市中和區福美路258號","121.498278333333","25.0051566666667","6500300","中和區"
"235004","150-BY","2017/08/11 14:19:52","新北市中和區保健路106巷22弄17號","121.510941666667","24.995585","6500300","中和區"
"235022","151-BY","2017/08/11 14:19:45","新北市中和區中正路637巷52弄7號","121.485165","24.9934966666667","6500300","中和區"
"235019","183-VK","2017/08/11 14:19:39","新北市中和區莒光路3巷5號","121.4721","25.0061266666667","6500300","中和區"
"235002","185-VK","2017/08/11 14:19:42","新北市中和區大仁街20巷22號","121.518685","24.9932266666667","6500300","中和區"
"235013","186-VK","2017/08/11 14:19:44","新北市中和區景新街228-6號","121.508205","24.9942233333333","6500300","中和區"
"235031","255-BX","2017/08/11 14:19:45","新北市中和區新生街168號","121.483691666667","25.0002233333333","6500300","中和區"
"235008","293-VK","2017/08/11 14:19:36","新北市中和區中興街214號","121.49948","24.9900133333333","6500300","中和區"
"235036","301-VK","2017/08/11 14:19:53","新北市中和區光華街31巷22弄28號","121.505905","25.0043016666667","6500300","中和區"
"235007","352-BY","2017/08/11 14:19:18","新北市中和區安樂路60巷11號","121.513011666667","24.9931716666667","6500300","中和區"
"235015","376-QA","2017/08/11 14:19:51","新北市中和區興南路一段71號","121.510151666667","24.9892366666667","6500300","中和區"
"235032","377-QA","2017/08/11 14:19:42","新北市中和區安邦街132號","121.497358333333","24.995595","6500300","中和區"
"235025","378-QA","2017/08/11 14:19:43","新北市中和區民利街61巷11弄1號","121.479028333333","24.9984016666667","6500300","中和區"
"235014","4979-A6","2017/08/11 14:19:04","新北市中和區中正路418號","121.491808333333","24.99407","6500300","中和區"
"235033","4980-A6","2017/08/11 14:19:36","新北市中和區連城路134巷1-1號","121.495528333333","24.9993916666667","6500300","中和區"
"235006","551-UM","2017/08/11 14:19:31","新北市永和區民有街1號","121.515811666667","24.9973066666667","6500300","中和區"
"235034","558-UM","2017/08/11 14:19:34","新北市中和區中和路78號","121.50099","25.0005816666667","6500300","中和區"
"235009","565-BX","2017/08/11 14:19:38","新北市中和區景新街423巷47號","121.514611666667","24.9898083333333","6500300","中和區"
"235018","640-BX","2017/08/11 14:19:52","新北市中和區民德路158號","121.468481666667","25.0001133333333","6500300","中和區"
"235024","647-TV","2017/08/11 14:19:55","新北市中和區民治街6巷1號","121.474906666667","25.0052566666667","6500300","中和區"
"235011","732-UM","2017/08/11 14:19:46","新北市中和區景平路241巷37號","121.50864","24.9922533333333","6500300","中和區"
"235010","733-UM","2017/08/11 14:19:48","新北市中和區忠孝街1巷2-1號","121.509033333333","24.9830033333333","6500300","中和區"
"235026","800-TS","2017/08/11 14:19:33","新北市中和區中山路二段362-6號","121.492135","25.0028666666667","6500300","中和區"
"235021","801-TS","2017/08/11 14:19:39","新北市中和區員山路317號","121.481156666667","25.0004466666667","6500300","中和區"
"235005","802-TS","2017/08/11 14:19:50","新北市中和區宜安路170號","121.508886666667","24.9991433333333","6500300","中和區"
"235016","805-TS","2017/08/11 14:19:52","新北市中和區興南路二段142巷17弄26號","121.502983333333","24.9828833333333","6500300","中和區"
"235012","896-TW","2017/08/11 14:19:34","新北市中和區華新街109巷1號","121.508741666667","24.9824866666667","6500300","中和區"
"235017","900-TW","2017/08/11 14:19:36","新北市中和區華安街17巷37號","121.467725","24.9982916666667","6500300","中和區"
"235035","911-UM","2017/08/11 14:19:37","新北市中和區建三路56號","121.48599","25.0007466666667","6500300","中和區"
"235001","AAC-213","2017/08/11 14:19:41","新北市中和區秀朗路三段50巷17號","121.524913333333","24.995135","6500300","中和區"
"235023","AAC-215","2017/08/11 14:19:52","新北市中和區圓通路252巷34號","121.492505","24.9927883333333","6500300","中和區"
"220016","013-TV","2017/08/11 14:19:45","新北市板橋區翠華街6巷95號","121.482485","25.0254133333333","6500100","板橋區"
"220013","072-UY","2017/08/11 14:19:51","新北市板橋區民族路129巷14號","121.467655","25.008485","6500100","板橋區"
"220034","073-UY","2017/08/11 14:19:44","新北市板橋區中正路216巷22號","121.45681","25.0185216666667","6500100","板橋區"
"220105","075-UY","2017/08/11 14:19:33","新北市板橋區雙十路三段15號","121.471048333333","25.0310566666667","6500100","板橋區"
"220017","AAD-861","2017/08/11 14:19:48","新北市板橋區華興街1號","121.459441666667","25.0045183333333","6500100","板橋區"
"220045","120-SR","2017/08/11 14:19:54","新北市板橋區大同街35巷17號","121.477338333333","25.027745","6500100","板橋區"
"247019","893-R6","2017/08/11 14:19:42","新北市蘆洲區仁愛街64號","121.47146","25.0938833333333","6501400","蘆洲區"
"247009","546-UM","2017/08/11 14:19:46","新北市蘆洲區三民路26巷5號","121.476363333333","25.082825","6501400","蘆洲區"
"247017","500-BY","2017/08/11 14:19:45","新北市蘆洲區民權路109號","121.472543333333","25.0893916666667","6501400","蘆洲區"
"247007","339-TH","2017/08/11 14:19:45","新北市蘆洲區信義路37巷9號","121.47421","25.0799783333333","6501400","蘆洲區"
"247023","337-TH","2017/08/11 14:19:44","新北市蘆洲區三民路341-7號","121.463825","25.0913333333333","6501400","蘆洲區"
"247001","336-TH","2017/08/11 14:19:45","新北市蘆洲區永樂街38巷8號","121.458126666667","25.08884","6501400","蘆洲區"
"247005","335-TH","2017/08/11 14:19:39","新北市蘆洲區永安南路二段132-1號","121.462688333333","25.0784833333333","6501400","蘆洲區"
"247013","057-VK","2017/08/11 14:19:50","新北市蘆洲區中山二路137巷46號","121.472488333333","25.080595","6501400","蘆洲區"
"247003","056-VK","2017/08/11 14:19:32","新北市蘆洲區中原路22號","121.460228333333","25.0830466666667","6501400","蘆洲區"
"247021","053-VK","2017/08/11 14:19:44","新北市蘆洲區仁愛街212巷38號","121.464191666667","25.0945183333333","6501400","蘆洲區"
"247011","007-UY","2017/08/11 14:19:39","新北市蘆洲區民權路3巷26號","121.475323333333","25.0854333333333","6501400","蘆洲區"
"247015","001-UY","2017/08/11 14:19:44","新北市蘆洲區中正路185巷25弄20號","121.46717","25.0837716666667","6501400","蘆洲區"
"241031","7418-A5","2017/08/11 14:19:41","新北市平溪區石底里公園街18-3號","121.733328333333","25.0257966666667","6500200","三重區"
"208004","AAC-292","2017/08/11 14:19:40","新北市金山區六股里下六股59-3號","121.614861666667","25.2220883333333","6502700","金山區"
"207002","749-BX","2017/08/11 14:19:36","新北市萬里區溪底里富士坪路24-2號","121.620101666667","25.152155","6502800","萬里區"
"207001","662-BX","2017/08/11 14:19:40","新北市萬里區磺潭里清水18號","121.637851666667","25.197715","6502800","萬里區"
"236067","105-UM","2017/08/11 14:19:45","新北市土城區明德路一段128巷8號","121.462965","24.9788483333333","6501300","土城區"
"236041","107-UM","2017/08/11 14:19:45","新北市土城區裕生路21巷6弄43號","121.448741666667","24.98667","6501300","土城區"
"236009","165-UM","2017/08/11 14:19:46","新北市土城區中華路二段135號","121.438873333333","24.9763633333333","6501300","土城區"
"236077","166-UM","2017/08/11 14:19:48","新北市土城區中央路三段281巷23弄4號","121.426191666667","24.9619016666667","6501300","土城區"
"236029","253-BX","2017/08/11 14:19:45","新北市土城區中央路二段180巷15號","121.440953333333","24.9765383333333","6501300","土城區"
"236025","269-VK","2017/08/11 14:19:46","新北市土城區承天路18號","121.439425","24.9634216666667","6501300","土城區"
"236013","270-VK","2017/08/11 14:19:40","新北市土城區青雲路39巷7號","121.460343333333","24.9874616666667","6501300","土城區"
"236035","271-VK","2017/08/11 14:19:47","新北市土城區青雲路483巷10弄20號","121.459245","24.972945","6501300","土城區"
"236019","401-BY","2017/08/11 14:19:38","新北市土城區明德路二段135-1號","121.449336666667","24.98254","6501300","土城區"
"236006","498-BY","2017/08/11 14:19:46","新北市土城區中華路一段70巷18號","121.444196666667","24.9890266666667","6501300","土城區"
"236057","912-UM","2017/08/11 14:19:36","新北市土城區中央路四段159-3號","121.41518","24.9568383333333","6501300","土城區"
"236046","913-UM","2017/08/11 14:19:46","新北市土城區明德路一段280號","121.457355","24.9774833333333","6501300","土城區"
"236061","915-UM","2017/08/11 14:19:46","新北市土城區延壽路44巷11號","121.471435","24.9929783333333","6501300","土城區"
"236054","AAC-216","2017/08/11 14:19:35","新北市土城區中華路二段193號","121.43821","24.9743983333333","6501300","土城區"
"241031","276-VK","2017/08/11 13:16:31","新北市汐止區汐萬路一段256巷3號","121.653423333333","25.0746366666667","6500200","三重區"
"241031","280-BY","2017/08/11 14:19:33","新北市汐止區福安街53號","121.66365","25.06399","6500200","三重區"
"221002","753-BX","2017/08/11 14:19:42","新北市新店區安康路二段382號","121.500465","24.9570733333333","6501100","汐止區"
"220027","145-BY","2017/08/11 14:19:45","新北市板橋區民權路202巷21弄1號","121.460635","25.0171933333333","6500100","板橋區"
"220028","200-UY","2017/08/11 14:19:44","新北市板橋區大觀路二段19巷53號","121.44838","25.00306","6500100","板橋區"
"220030","610-BX","2017/08/11 14:19:48","新北市板橋區篤行路三段70號","121.427155","24.9853566666667","6500100","板橋區"
"220050","245-BX","2017/08/11 14:19:38","新北市板橋區雙十路二段49號","121.476553333333","25.0263516666667","6500100","板橋區"
"220004","276-BY","2017/08/11 14:19:47","新北市板橋區干城路135號","121.45992","24.9935466666667","6500100","板橋區"
"220020","277-BY","2017/08/11 14:19:46","新北市板橋區金門街260巷10弄6號","121.429276666667","24.9866816666667","6500100","板橋區"
"220043","283-UM","2017/08/11 14:19:48","新北市板橋區光武街112號","121.465621666667","25.0293583333333","6500100","板橋區"
"220019","283-VK","2017/08/11 14:19:44","新北市板橋區重慶路269巷8號","121.464275","24.9991533333333","6500100","板橋區"
"220001","285-VK","2017/08/11 14:19:41","新北市板橋區富山街18巷2號","121.478476666667","25.0220266666667","6500100","板橋區"
"220031","286-VK","2017/08/11 14:19:50","新北市板橋區大觀路二段174巷166弄14號","121.44238","25.0030833333333","6500100","板橋區"
"220029","287-VK","2017/08/11 14:19:49","新北市板橋區南雅西路一段51號","121.453711666667","25.0049316666667","6500100","板橋區"
"220039","288-VK","2017/08/11 14:19:50","新北市板橋區長江路一段106巷13弄25號","121.461041666667","25.0296383333333","6500100","板橋區"
"220009","293-UM","2017/08/11 14:19:39","新北市板橋區中山路二段255巷7號","121.47701","25.0179066666667","6500100","板橋區"
"220003","295-UM","2017/08/11 14:19:43","新北市板橋區新民街6巷20號","121.465275","25.0100983333333","6500100","板橋區"
"220032","296-UM","2017/08/11 14:19:50","新北市板橋區滿平街136巷2弄24號","121.428036666667","24.9882833333333","6500100","板橋區"
"220023","297-UM","2017/08/11 14:19:40","新北市板橋區南雅南路一段3巷25號","121.456801666667","25.0060533333333","6500100","板橋區"
"220010","303-R5","2017/08/11 14:19:41","新北市板橋區三民路二段居仁巷21號","121.479931666667","25.0134","6500100","板橋區"
"220041","307-R5","2017/08/11 14:19:37","新北市板橋區松江街58號","121.468636666667","25.02746","6500100","板橋區"
"220047","317-R6","2017/08/11 14:19:49","新北市板橋區民有街89巷8弄1號","121.464218333333","25.02739","6500100","板橋區"
"220012","486-VK","2017/08/11 14:19:44","新北市板橋區板新路227號","121.468013333333","25.015925","6500100","板橋區"
"220038","487-VK","2017/08/11 14:19:49","新北市板橋區文化路二段225巷1號","121.470863333333","25.0281633333333","6500100","板橋區"
"220037","491-VK","2017/08/11 14:19:54","新北市板橋區雙十路二段225號","121.473035","25.029185","6500100","板橋區"
"220104","560-BX","2017/08/11 14:19:43","新北市板橋區中正路399巷2號","121.453961666667","25.0223","6500100","板橋區"
"220052","561-BX","2017/08/11 14:19:42","新北市板橋區文化路一段188巷23號","121.467058333333","25.0189183333333","6500100","板橋區"
"220011","609-BX","2017/08/11 14:19:40","新北市板橋區三民路二段204號","121.478876666667","25.0121766666667","6500100","板橋區"
"220040","637-BX","2017/08/11 14:19:44","新北市板橋區文聖街159號","121.478958333333","25.0274433333333","6500100","板橋區"
"220005","686-BX","2017/08/11 14:19:38","新北市板橋區國慶路187-10號","121.46308","24.9968033333333","6500100","板橋區"
"220025","687-BX","2017/08/11 14:19:41","新北市板橋區大觀路二段111號","121.446091666667","25.0015716666667","6500100","板橋區"
"220042","689-BX","2017/08/11 14:19:48","新北市板橋區漢生西路17號","121.46357","25.018105","6500100","板橋區"
"220002","741-BX","2017/08/11 14:19:49","新北市板橋區重慶路182號","121.462546666667","25.0035733333333","6500100","板橋區"
"220014","829-TW","2017/08/11 14:19:50","新北市板橋區漢生東路313巷15號","121.472413333333","25.008325","6500100","板橋區"
"220051","830-TW","2017/08/11 14:19:39","新北市板橋區文化路二段410巷2弄24-1號","121.474083333333","25.030225","6500100","板橋區"
"220022","895-R6","2017/08/11 14:19:50","新北市板橋區民權路117號","121.458696666667","25.01331","6500100","板橋區"
"220021","985-R7","2017/08/11 14:19:31","新北市板橋區中正路377-2號","121.454361666667","25.0215783333333","6500100","板橋區"
"220046","AAC-210","2017/08/11 14:19:41","新北市板橋區漢生西路89巷3弄8號","121.461465","25.0193666666667","6500100","板橋區"
"220018","AAC-253","2017/08/11 14:19:46","新北市板橋區忠孝路105號","121.462648333333","25.0023783333333","6500100","板橋區"
