"lineid","car","time","location","longitude","latitude","cityid","cityname"
"248002","655-BX","2017/08/11 10:58:29","新北市五股區中興路二段83巷26-6號","121.459808333333","25.0751733333333","6501500","五股區"
"231002","002-UM","2017/08/11 15:29:54","新北市新店區環河路152號","121.535503333333","24.9660583333333","6500600","新店區"
"231025","0291-UT","2017/08/11 15:29:40","新北市新店區中央二街81號","121.525698333333","24.975105","6500600","新店區"
"231028","046-UY","2017/08/11 15:29:42","新北市新店區僑信路19號","121.499641666667","24.95195","6500600","新店區"
"231030","047-UY","2017/08/11 15:29:18","新北市新店區新和街52號","121.519663333333","24.9852716666667","6500600","新店區"
"231029","106-UY","2017/08/11 15:29:36","新北市新店區安康路三段628號","121.47842","24.9457516666667","6500600","新店區"
"231018","107-UY","2017/08/11 15:29:35","新北市新店區中央八街86號","121.527","24.9773666666667","6500600","新店區"
"231012","108-UY","2017/08/11 15:29:34","新北市新店區寶元路一段109號","121.545786666667","24.9831383333333","6500600","新店區"
"231035","110-UY","2017/08/11 15:29:38","新北市新店區安興路81號","121.515408333333","24.9752766666667","6500600","新店區"
"231022","187-VK","2017/08/11 15:29:50","新北市新店區花園二路三段9號","121.555321666667","24.93181","6500600","新店區"
"231026","256-BX","2017/08/11 15:29:42","新北市新店區三民路117巷4弄1號","121.534345","24.9714483333333","6500600","新店區"
"231034","268-BY","2017/08/11 15:29:39","新北市新店區富貴街10巷1號","121.494153333333","24.9495233333333","6500600","新店區"
"231036","512-UM","2017/08/11 15:29:42","新北市新店區安祥路69巷41弄54號","121.48226","24.961285","6500600","新店區"
"231023","513-UM","2017/08/11 15:29:44","新北市新店區北新路一段96巷23號","121.542778333333","24.9687283333333","6500600","新店區"
"231006","617-UM","2017/08/11 15:29:43","新北市新店區安康路一段355-3號","121.51942","24.96148","6500600","新店區"
"231003","641-BX","2017/08/11 15:29:35","新北市新店區寶高路116號","121.554546666667","24.9760766666667","6500600","新店區"
"231039","718-UY","2017/08/11 15:29:47","新北市新店區中興路三段228巷28號","121.544768333333","24.983555","6500600","新店區"
"231032","720-UM","2017/08/11 15:29:51","新北市新店區裕合街92號","121.490348333333","24.9487566666667","6500600","新店區"
"231005","897-TW","2017/08/11 15:29:42","新北市新店區建國路293巷2號","121.536941666667","24.9863666666667","6500600","新店區"
"231004","899-TW","2017/08/11 15:29:34","新北市新店區民族路108號","121.538223333333","24.977265","6500600","新店區"
"231037","AKT-0513","2017/08/11 15:29:55","新北市新店區安興路112號","121.514623333333","24.9775783333333","6500600","新店區"
"241017","063-VK","2017/08/11 15:29:37","新北市三重區重新路四段121號","121.484571666667","25.05209","6500200","三重區"
"241013","270-UM","2017/08/11 15:29:49","新北市三重區新北大道一段250號","121.479865","25.061455","6500200","三重區"
"241007","398-BY","2017/08/11 15:29:46","新北市三重區重新路四段121號","121.48526","25.052025","6500200","三重區"
"241029","887-TS","2017/08/11 15:29:45","新北市三重區成功路96號","121.487703333333","25.0515183333333","6500200","三重區"
"241033","AAC-255","2017/08/11 15:29:48","新北市三重區成功路97號","121.488081666667","25.05154","6500200","三重區"
"235033","4980-A6","2017/08/11 15:29:36","新北市中和區員山路353號","121.481018333333","25.0018933333333","6500300","中和區"
"235024","647-TV","2017/08/11 15:11:47","新北市中和區員山路36巷16-3號","121.484805","24.991615","6500300","中和區"
"235026","800-TS","2017/08/11 15:29:53","新北市中和區永和路171號","121.49227","25.0073483333333","6500300","中和區"
"235035","911-UM","2017/08/11 15:29:37","新北市中和區永和路460號","121.483841666667","25.0119333333333","6500300","中和區"
"235001","AAC-213","2017/08/11 15:29:41","新北市新店區溪園路365-8號","121.521111666667","24.9807666666667","6500300","中和區"
"235023","AAC-215","2017/08/11 15:29:52","新北市中和區員山路30號","121.483573333333","24.9878766666667","6500300","中和區"
"220017","AAD-861","2017/08/11 15:29:34","新北市板橋區南雅南路二段1-1號","121.45473","25.003785","6500100","板橋區"
"227003","642-TC","2017/08/11 15:29:47","新北市雙溪區三貂里政光路3-1號","121.850875","25.0632716666667","6502500","雙溪區"
"208004","AAC-292","2017/08/11 15:29:40","新北市金山區南勢15號","121.633993333333","25.2166683333333","6502700","金山區"
"236067","105-UM","2017/08/11 15:29:45","新北市土城區中正路1號","121.44225","24.9750033333333","6501300","土城區"
"236041","107-UM","2017/08/11 15:29:45","新北市土城區學府路一段164巷21號","121.45354","24.9874533333333","6501300","土城區"
"236009","165-UM","2017/08/11 14:44:32","新北市土城區永平街51號","121.427941666667","24.95922","6501300","土城區"
"236077","166-UM","2017/08/11 15:29:48","新北市土城區溪頭路30巷17號","121.412046666667","24.9558233333333","6501300","土城區"
"236029","253-BX","2017/08/11 15:29:45","新北市土城區日新街8巷3號","121.445296666667","24.9872616666667","6501300","土城區"
"236025","269-VK","2017/08/11 15:29:46","新北市土城區中央路一段264-2號","121.44388","24.9836","6501300","土城區"
"236013","270-VK","2017/08/11 15:29:44","新北市土城區廣明街14號","121.455883333333","24.9921316666667","6501300","土城區"
"236035","271-VK","2017/08/11 15:29:47","新北市土城區延吉街294號","121.464608333333","24.9841233333333","6501300","土城區"
"236019","401-BY","2017/08/11 15:29:38","新北市土城區峰廷街3號","121.469038333333","24.987285","6501300","土城區"
"236057","912-UM","2017/08/11 15:29:36","新北市土城區中央路二段280號","121.44083","24.9740216666667","6501300","土城區"
"236046","913-UM","2017/08/11 15:29:46","新北市土城區青雲路147-2號","121.458968333333","24.9836516666667","6501300","土城區"
"236061","915-UM","2017/08/11 15:29:26","新北市土城區金城路三段73巷9弄1號","121.466205","24.9876533333333","6501300","土城區"
"236054","AAC-216","2017/08/11 15:29:42","新北市土城區延平街1號","121.4683","24.990405","6501300","土城區"
"241031","276-VK","2017/08/11 13:16:31","新北市汐止區汐萬路一段256巷3號","121.653423333333","25.0746366666667","6500200","三重區"
"220050","245-BX","2017/08/11 15:29:39","新北市板橋區漢生東路73巷2號","121.466276666667","25.0160133333333","6500100","板橋區"
"220031","286-VK","2017/08/11 14:32:55","新北市板橋區龍興街69號","121.443721666667","25.001655","6500100","板橋區"
"220038","487-VK","2017/08/11 15:29:49","新北市板橋區四維路319號","121.462868333333","25.0290016666667","6500100","板橋區"
"220052","561-BX","2017/08/11 15:29:33","新北市板橋區漢生東路43巷27號","121.466391666667","25.017585","6500100","板橋區"
"220051","830-TW","2017/08/11 15:29:34","新北市板橋區民生路二段120號","121.470675","25.020125","6500100","板橋區"
