"lineid","car","time","location","longitude","latitude","cityid","cityname"
"234026","9371-KE","2017/08/11 17:59:43","新北市永和區永和路一段45-1號","121.51275","25.00625","6500400","永和區"
"249005","172-UM","2017/08/11 17:59:43","新北市八里區荖阡坑路20號","121.39733","25.1363883333333","6502300","八里區"
"249001","173-UM","2017/08/11 17:59:42","新北市八里區龍米路二段30號","121.448666666667","25.1401166666667","6502300","八里區"
"249004","303-UY","2017/08/11 17:59:40","新北市八里區中山路一段58號","121.421761666667","25.159035","6502300","八里區"
"249002","305-UY","2017/08/11 17:59:37","新北市八里區龍米路一段259號","121.450791666667","25.13375","6502300","八里區"
"249003","593-UM","2017/08/11 17:59:44","新北市八里區中山路二段270號","121.405048333333","25.1512566666667","6502300","八里區"
"248006","077-UY","2017/08/11 17:59:41","新北市五股區中興路二段83巷26-6號","121.460043333333","25.0752833333333","6501500","五股區"
"248008","095-VK","2017/08/11 17:59:48","新北市五股區更洲路6號","121.458471666667","25.0786833333333","6501500","五股區"
"248018","225-UY","2017/08/11 17:59:37","新北市五股區中興路二段83巷26-6號","121.460106666667","25.07524","6501500","五股區"
"248002","655-BX","2017/08/11 17:59:53","新北市五股區中興路二段83巷26-3號","121.46009","25.0755033333333","6501500","五股區"
"248004","677-BX","2017/08/11 17:59:32","新北市五股區中興路二段103巷12號","121.459185","25.0764183333333","6501500","五股區"
"232011","375-UM","2017/08/11 17:59:39","新北市坪林區北宜路八段192號","121.708235","24.93471","6502000","坪林區"
"244013","069-UM","2017/08/11 17:59:42","新北市林口區中山路93號","121.389825","25.0787466666667","6501700","林口區"
"244007","080-UY","2017/08/11 17:59:36","新北市林口區林口路80號","121.389048333333","25.0807466666667","6501700","林口區"
"244019","403-UM","2017/08/11 17:59:50","新北市林口區忠孝路563-6號","121.373393333333","25.0680583333333","6501700","林口區"
"244009","410-SL","2017/08/11 17:59:36","新北市林口區寶林路18號","121.386306666667","25.0839416666667","6501700","林口區"
"244023","483-VK","2017/08/11 17:59:44","新北市林口區東湖路41巷26號","121.38635","25.0729516666667","6501700","林口區"
"244017","485-VK","2017/08/11 17:55:57","新北市林口區文化二路一段260巷9-3號","121.371518333333","25.0727966666667","6501700","林口區"
"244011","701-TV","2017/08/11 17:59:39","新北市林口區中正路110號","121.393583333333","25.077315","6501700","林口區"
"244025","837-TS","2017/08/11 17:59:35","新北市林口區忠孝三路69號","121.359666666667","25.0690616666667","6501700","林口區"
"244021","838-TS","2017/08/11 17:59:34","新北市林口區新寮27-5號","121.396636666667","25.0668383333333","6501700","林口區"
"243011","549-UM","2017/08/11 17:59:36","新北市泰山區犁頭窠12-1號","121.421695","25.056185","6501600","泰山區"
"222003","436-BY","2017/08/11 17:59:32","新北市深坑區炮子崙23號","121.607061666667","24.9909016666667","6501800","深坑區"
"222002","659-BX","2017/08/11 17:59:50","新北市深坑區文化街96號","121.61712","25.001905","6501800","深坑區"
"231046","278-BY","2017/08/11 17:59:51","新北市新店區康雅崙路1號","121.54038","24.92606","6500600","新店區"
"241024","065-VK","2017/08/11 17:59:50","新北市三重區車路頭街70號","121.484225","25.0730733333333","6500200","三重區"
"241006","156-TC","2017/08/11 17:59:47","新北市三重區車路頭街135-1號","121.484256666667","25.0761566666667","6500200","三重區"
"241016","266-UM","2017/08/11 17:59:51","新北市三重區大同北路97號","121.494588333333","25.063665","6500200","三重區"
"241030","480-VK","2017/08/11 17:59:38","新北市林口區太平里180號","121.368328333333","25.13439","6500200","三重區"
"241033","AAC-255","2017/08/11 17:59:48","新北市三重區重新路五段561號","121.470431666667","25.0459316666667","6500200","三重區"
"235063","006-UY","2017/08/11 17:59:40","新北市中和區員山路36巷16-3號","121.485045","24.991345","6500300","中和區"
"235065","098-UM","2017/08/11 17:59:42","新北市中和區新生街276號","121.483655","24.9968933333333","6500300","中和區"
"235058","151-BY","2017/08/11 17:59:47","新北市中和區中正路589巷15號","121.485648333333","24.9935316666667","6500300","中和區"
"235038","185-VK","2017/08/11 17:59:50","新北市中和區中正路585號","121.486015","24.9945883333333","6500300","中和區"
"235067","255-BX","2017/08/11 17:35:30","新北市中和區和城路一段271巷1號","121.485525","24.9918966666667","6500300","中和區"
"235061","378-QA","2017/08/11 14:49:22","新北市中和區員山路36巷13號","121.484411666667","24.9913016666667","6500300","中和區"
"235024","647-TV","2017/08/11 17:59:43","新北市中和區員山路36巷16-3號","121.484876666667","24.991845","6500300","中和區"
"235062","800-TS","2017/08/11 17:59:48","新北市中和區中正路637巷52弄11號","121.484841666667","24.9936983333333","6500300","中和區"
"235052","805-TS","2017/08/11 17:59:39","新北市中和區員山路36巷16號","121.484338333333","24.9915916666667","6500300","中和區"
"247020","893-R6","2017/08/11 17:59:48","新北市蘆洲區民權路121巷15弄3號","121.471416666667","25.0892433333333","6501400","蘆洲區"
"247024","337-TH","2017/08/11 17:59:38","新北市蘆洲區長榮路46巷1號","121.46331","25.0834383333333","6501400","蘆洲區"
"247002","336-TH","2017/08/11 17:59:54","新北市蘆洲區永平街32巷69弄4號","121.459298333333","25.0935816666667","6501400","蘆洲區"
"247022","053-VK","2017/08/11 17:59:50","新北市蘆洲區中正路516巷10-1號","121.462258333333","25.098035","6501400","蘆洲區"
"247012","007-UY","2017/08/11 17:59:42","新北市蘆洲區中山二路240-1號","121.469431666667","25.07931","6501400","蘆洲區"
"228002","663-BX","2017/08/11 17:59:37","新北市貢寮區福連里香蘭街2-1號","121.969696666667","25.0236733333333","6502600","貢寮區"
"228001","670-TC","2017/08/11 17:59:49","新北市貢寮區真理里新港街26巷31號","121.929141666667","25.0547483333333","6502600","貢寮區"
"228003","828-UM","2017/08/11 17:59:37","新北市貢寮區真理里美艷山街6-2號","121.928886666667","25.0607183333333","6502600","貢寮區"
"224006","676-BX","2017/08/11 17:59:36","新北市瑞芳區傑魚坑路183號","121.78842","25.10826","6501200","瑞芳區"
"224002","639-TC","2017/08/11 17:59:42","新北市瑞芳區三爪子坑路149號","121.810523333333","25.1063383333333","6501200","瑞芳區"
"241031","285-BY","2017/08/11 17:59:53","新北市瑞芳區山尖路110號","121.852478333333","25.1137833333333","6500200","三重區"
"224008","275-VK","2017/08/11 17:59:48","新北市瑞芳區員山子路23號","121.821405","25.1030533333333","6501200","瑞芳區"
"224007","272-VK","2017/08/11 17:59:41","新北市瑞芳區傑魚坑路70號","121.793055","25.110525","6501200","瑞芳區"
"224005","271-BY","2017/08/11 17:59:51","新北市瑞芳區深澳路197-2號","121.81958","25.1337883333333","6501200","瑞芳區"
"253006","032-BX","2017/08/11 17:59:44","新北市石門區大丘田45-2號","121.549755","25.274845","6502200","石門區"
"253005","295-VK","2017/08/11 17:59:45","新北市石門區中山路62-11號","121.567616666667","25.28969","6502200","石門區"
"208002","742-BX","2017/08/11 17:59:52","新北市金山區三界壇路81號","121.625318333333","25.228475","6502700","金山區"
"208003","665-BX","2017/08/11 17:59:45","新北市金山區磺港里磺港路56號","121.647518333333","25.227995","6502700","金山區"
"208001","761-BX","2017/08/11 17:59:39","新北市金山區磺港里磺港路251號","121.64437","25.22547","6502700","金山區"
"251009","008-UM","2017/08/11 17:59:43","新北市淡水區大仁街8號","121.442361666667","25.1746366666667","6501000","淡水區"
"251004","009-UM","2017/08/11 17:59:34","新北市淡水區民權路82號","121.459195","25.133625","6501000","淡水區"
"251005","010-UM","2017/08/11 17:59:37","新北市淡水區英專路135號","121.446566666667","25.1727683333333","6501000","淡水區"
"251013","180-VK","2017/08/11 17:59:41","新北市淡水區泉洲厝31號","121.479578333333","25.1910483333333","6501000","淡水區"
"251008","181-VK","2017/08/11 17:59:38","新北市淡水區八勢一街43-8號","121.461868333333","25.155825","6501000","淡水區"
"251015","182-VK","2017/08/11 17:59:38","新北市淡水區興福寮88巷1號","121.485623333333","25.1651","6501000","淡水區"
"251010","413-VK","2017/08/11 17:59:34","新北市淡水區淡海路53號","121.42319","25.1803116666667","6501000","淡水區"
"251012","441-VK","2017/08/11 17:59:53","新北市淡水區北新路三段38巷7號","121.48451","25.1870216666667","6501000","淡水區"
"251001","559-UM","2017/08/11 17:59:35","新北市淡水區民權路94巷1號","121.463031666667","25.124705","6501000","淡水區"
"251006","561-UM","2017/08/11 17:59:48","新北市淡水區真理街2號","121.438815","25.1731066666667","6501000","淡水區"
"251007","577-R6","2017/08/11 17:59:42","新北市淡水區中正東路二段153號","121.459606666667","25.1465683333333","6501000","淡水區"
"251011","650-BX","2017/08/11 17:59:47","新北市淡水區三空泉7-1號","121.476385","25.162505","6501000","淡水區"
"251002","672-BX","2017/08/11 17:59:52","新北市淡水區中正東路8-1號","121.447675","25.166935","6501000","淡水區"
"251003","673-BX","2017/08/11 17:59:41","新北市淡水區大忠街79-6號","121.445758333333","25.1772283333333","6501000","淡水區"
"207003","550-UM","2017/08/11 17:59:49","新北市萬里區野柳里港東路151-2號","121.688611666667","25.2051433333333","6502800","萬里區"
"241031","225-TW","2017/08/11 17:59:41","新北市萬里區中幅里中福路48號","121.68326","25.1740233333333","6500200","三重區"
"252002","178-VK","2017/08/11 17:59:38","新北市三芝區中山路二段13號","121.502581666667","25.2556883333333","6502100","三芝區"
"252001","292-VK","2017/08/11 17:59:39","新北市三芝區中興街一段32號","121.497896666667","25.25754","6502100","三芝區"
"237004","078-UY","2017/08/11 17:59:43","新北市三峽區中正路二段340號","121.365961666667","24.9103683333333","6500900","三峽區"
"237007","153-BY","2017/08/11 17:59:52","新北市三峽區中正路二段88號","121.36647","24.9179966666667","6500900","三峽區"
"237009","210-TH","2017/08/11 17:59:53","新北市三峽區中山路106巷37號","121.366031666667","24.936715","6500900","三峽區"
"237013","252-BX","2017/08/11 17:59:46","新北市三峽區介壽路一段159-1號","121.376855","24.9312033333333","6500900","三峽區"
"237012","275-BY","2017/08/11 17:59:37","新北市三峽區民生街27巷2號","121.37598","24.9361883333333","6500900","三峽區"
"237008","302-VK","2017/08/11 17:59:51","新北市三峽區正義街158-7號","121.368378333333","24.9159533333333","6500900","三峽區"
"237014","433-BY","2017/08/11 17:59:53","新北市三峽區和平街36巷7弄6號","121.370843333333","24.9373583333333","6500900","三峽區"
"237006","5529-G3","2017/08/11 17:59:39","新北市三峽區介壽路二段136巷102號","121.39221","24.9331966666667","6500900","三峽區"
"237011","572-TV","2017/08/11 17:59:40","新北市三峽區大同路10號","121.378275","24.9298966666667","6500900","三峽區"
"237015","649-BX","2017/08/11 17:59:42","新北市三峽區紫微路139號","121.407051666667","24.911505","6500900","三峽區"
"237005","AKY-6261","2017/08/11 17:59:50","新北市三峽區復興路119-3號","121.369643333333","24.9386466666667","6500900","三峽區"
"236072","105-UM","2017/08/11 17:59:40","新北市土城區城林路6巷80號","121.438486666667","24.9797833333333","6501300","土城區"
"236043","107-UM","2017/08/11 17:59:42","新北市土城區裕生路84巷2號","121.447328333333","24.9854383333333","6501300","土城區"
"236009","165-UM","2017/08/11 14:44:32","新北市土城區永平街51號","121.427941666667","24.95922","6501300","土城區"
"236079","166-UM","2017/08/11 17:59:44","新北市土城區永寧路32巷10弄29號","121.428678333333","24.961085","6501300","土城區"
"236031","253-BX","2017/08/11 17:59:49","新北市土城區城林路6巷80號","121.43855","24.9796016666667","6501300","土城區"
"236027","269-VK","2017/08/11 17:59:34","新北市土城區承天路18號","121.439438333333","24.9634266666667","6501300","土城區"
"236015","270-VK","2017/08/11 17:59:46","新北市土城區城林路6巷80號","121.438566666667","24.9796816666667","6501300","土城區"
"236039","271-VK","2017/08/11 17:59:48","新北市土城區城林路6巷80號","121.438548333333","24.97961","6501300","土城區"
"236022","401-BY","2017/08/11 17:59:34","新北市土城區城林路6巷80號","121.438711666667","24.979755","6501300","土城區"
"236059","912-UM","2017/08/11 17:59:35","新北市土城區中央路三段171號","121.431651666667","24.9655083333333","6501300","土城區"
"236050","913-UM","2017/08/11 17:59:50","新北市土城區城林路6巷80號","121.438433333333","24.9796833333333","6501300","土城區"
"236063","915-UM","2017/08/11 17:59:45","新北市土城區城林路6巷80號","121.438525","24.9796983333333","6501300","土城區"
"236055","AAC-216","2017/08/11 17:59:34","新北市土城區城林路6巷80號","121.438508333333","24.9796","6501300","土城區"
"242021","AAC-296","2017/08/11 17:59:42","新北市新莊區中華路一段238號","121.452658333333","25.0434166666667","6500500","新莊區"
"242029","986-R7","2017/08/11 17:59:37","新北市新莊區復興路一段12號","121.445796666667","25.0414216666667","6500500","新莊區"
"242048","751-BX","2017/08/11 17:59:51","新北市新莊區萬安街47巷1號","121.421985","25.0245916666667","6500500","新莊區"
"242025","615-BX","2017/08/11 17:59:46","新北市新莊區五工路60號","121.458208333333","25.0633366666667","6500500","新莊區"
"242023","613-BX","2017/08/11 17:59:46","新北市新莊區福壽街72號","121.45826","25.049315","6500500","新莊區"
"242027","612-BX","2017/08/11 17:59:54","新北市新莊區思源路455號","121.45992","25.0534316666667","6500500","新莊區"
"242037","566-BX","2017/08/11 17:59:35","新北市新莊區中正路695號","121.42593","25.029845","6500500","新莊區"
"242041","497-BY","2017/08/11 17:59:32","新北市泰山區壽山路50號","121.420298333333","25.0291816666667","6500500","新莊區"
"242005","442-UM","2017/08/11 17:59:50","新北市新莊區福樂街72巷9號","121.458605","25.0466633333333","6500500","新莊區"
"242046","441-UM","2017/08/11 17:59:48","新北市新莊區福營路165巷35號","121.432585","25.0301466666667","6500500","新莊區"
"242050","440-UM","2017/08/11 17:59:37","新北市新莊區西盛街155號","121.42829","25.0179933333333","6500500","新莊區"
"242032","415-TV","2017/08/11 17:59:49","新北市新莊區新泰路289巷35號","121.443923333333","25.04043","6500500","新莊區"
"242002","413-TV","2017/08/11 17:59:36","新北市新莊區中正路153-3號","121.455835","25.0367366666667","6500500","新莊區"
"242039","400-BY","2017/08/11 17:59:49","新北市新莊區民安西路1號","121.426578333333","25.02192","6500500","新莊區"
"242060","362-BY","2017/08/11 17:59:39","新北市新莊區新樹路254-1號","121.4328","25.01629","6500500","新莊區"
"242058","353-BY","2017/08/11 17:59:40","新北市新莊區雙鳳路134巷28號","121.412493333333","25.028355","6500500","新莊區"
"242019","135-UY","2017/08/11 17:59:48","新北市新莊區明中街14號","121.457566666667","25.03929","6500500","新莊區"
"242044","172-VK","2017/08/11 17:59:48","新北市新莊區雙鳳路92號","121.414708333333","25.0278366666667","6500500","新莊區"
"242007","173-VK","2017/08/11 17:59:41","新北市新莊區自信街32號","121.454385","25.0481066666667","6500500","新莊區"
"242013","175-VK","2017/08/11 17:59:38","新北市新莊區中和街125巷2號","121.447156666667","25.048635","6500500","新莊區"
"242056","176-VK","2017/08/11 17:59:44","新北市新莊區豐年街55-7號","121.446515","25.03089","6500500","新莊區"
"242011","346-TH","2017/08/11 17:59:45","新北市新莊區中榮街56巷12號","121.449266666667","25.0536716666667","6500500","新莊區"
"242034","347-TH","2017/08/11 17:59:46","新北市新莊區中正路421巷19號","121.44466","25.0335033333333","6500500","新莊區"
"242017","348-TH","2017/08/11 17:59:48","新北市新莊區中港路341號","121.452078333333","25.0453983333333","6500500","新莊區"
"242054","349-TH","2017/08/11 17:59:51","新北市新莊區民安西路394號","121.428558333333","25.0103183333333","6500500","新莊區"
"242015","350-TH","2017/08/11 17:59:39","新北市新莊區中平路132巷16號","121.44567","25.0467016666667","6500500","新莊區"
"242009","351-TH","2017/08/11 17:59:42","新北市新莊區中華路二段216號","121.452755","25.05274","6500500","新莊區"
"238015","755-BX","2017/08/11 17:59:37","新北市樹林區文德街2巷17號","121.419691666667","24.9917833333333","6500700","樹林區"
"238023","601-UM","2017/08/11 17:59:42","新北市樹林區龍興街30號","121.402971666667","25.01591","6500700","樹林區"
"238019","599-UM","2017/08/11 17:59:38","新北市樹林區忠孝街25號","121.42352","24.98238","6500700","樹林區"
"238018","571-TV","2017/08/11 17:59:48","新北市樹林區鎮前街130號","121.424826666667","24.9907616666667","6500700","樹林區"
"238022","312-TH","2017/08/11 17:59:41","新北市樹林區太順街62巷3弄35號","121.416438333333","24.9790933333333","6500700","樹林區"
"238021","311-TH","2017/08/11 17:59:43","新北市樹林區柑園街一段67-1號","121.402291666667","24.9602616666667","6500700","樹林區"
"238025","303-VK","2017/08/11 17:59:40","新北市樹林區俊興街209-6號","121.41749","25.0145083333333","6500700","樹林區"
"238017","283-BY","2017/08/11 17:59:48","新北市樹林區三德街30巷25號","121.414775","25.0123783333333","6500700","樹林區"
"238014","282-BY","2017/08/11 17:59:45","新北市樹林區大安路123號","121.422328333333","24.9975183333333","6500700","樹林區"
"238020","268-VK","2017/08/11 17:59:41","新北市樹林區俊興街256號","121.418173333333","25.0164033333333","6500700","樹林區"
"238026","172-UY","2017/08/11 17:59:48","新北市樹林區中洲街28號","121.397025","24.9716233333333","6500700","樹林區"
"238016","169-UY","2017/08/11 17:59:35","新北市樹林區啟智街187巷1號","121.41531","24.9873783333333","6500700","樹林區"
"239007","AAC-297","2017/08/11 17:59:45","新北市鶯歌區尖山埔路163號","121.346115","24.9506833333333","6500800","鶯歌區"
"239006","891-R6","2017/08/11 17:59:44","新北市鶯歌區鶯桃路443號","121.332393333333","24.9653516666667","6500800","鶯歌區"
"239008","527-UM","2017/08/11 17:59:39","新北市鶯歌區明圓街19號","121.336168333333","24.97724","6500800","鶯歌區"
"239005","526-UM","2017/08/11 17:59:37","新北市鶯歌區大湖路361巷81-1號","121.332856666667","24.9748883333333","6500800","鶯歌區"
"239001","417-VK","2017/08/11 17:59:44","新北市鶯歌區中正三路153-1號","121.336598333333","24.940095","6500800","鶯歌區"
"239003","360-BY","2017/08/11 17:59:40","新北市鶯歌區鶯桃路367號","121.333746666667","24.96283","6500800","鶯歌區"
"239002","359-BY","2017/08/11 17:59:45","新北市鶯歌區中山路329巷26弄2號","121.345011666667","24.95648","6500800","鶯歌區"
"239004","193-VK","2017/08/11 17:59:47","新北市鶯歌區尖山路103號","121.348266666667","24.9491433333333","6500800","鶯歌區"
"221008","489-VK","2017/08/11 17:59:40","新北市汐止區明峰街22號","121.634441666667","25.07146","6501100","汐止區"
"221036","130-UY","2017/08/11 17:59:36","新北市汐止區大同路三段40號","121.667115","25.076615","6501100","汐止區"
"221015","131-UY","2017/08/11 17:59:37","新北市汐止區長江街329號","121.66671","25.0817333333333","6501100","汐止區"
"221010","269-BY","2017/08/11 17:59:43","新北市汐止區汐萬路二段247號","121.646415","25.0882616666667","6501100","汐止區"
"241031","276-VK","2017/08/11 13:16:31","新北市汐止區汐萬路一段256巷3號","121.653423333333","25.0746366666667","6500200","三重區"
"241031","278-VK","2017/08/11 17:59:53","新北市汐止區保一街8巷8號","121.673368333333","25.0813","6500200","三重區"
"221023","279-VK","2017/08/11 17:59:46","新北市汐止區民族五街61號","121.628505","25.07063","6501100","汐止區"
"241031","280-BY","2017/08/11 17:59:48","新北市汐止區橫科路73巷14號","121.619601666667","25.0511566666667","6500200","三重區"
"221027","281-BY","2017/08/11 17:59:49","新北市汐止區大同路二段374號","121.657798333333","25.0671033333333","6501100","汐止區"
"221038","297-VK","2017/08/11 17:59:45","新北市汐止區大同路二段184巷13號","121.653621666667","25.063455","6501100","汐止區"
"221029","298-VK","2017/08/11 17:59:48","新北市汐止區樟樹二路342巷2號","121.64177","25.0704966666667","6501100","汐止區"
"221021","299-VK","2017/08/11 15:21:19","新北市汐止區汐萬路一段256巷1號","121.652011666667","25.07488","6501100","汐止區"
"221031","353-TW","2017/08/11 17:59:45","新北市汐止區中興路96巷1-3號","121.635218333333","25.0625883333333","6501100","汐止區"
"221035","622-UM","2017/08/11 17:59:43","新北市汐止區新江北路30巷15號","121.65249","25.069645","6501100","汐止區"
"221025","623-UM","2017/08/11 17:59:51","新北市汐止區仁愛路49-1號","121.65982","25.0632466666667","6501100","汐止區"
"241031","647-BX","2017/08/11 17:59:38","新北市汐止區合順街38號","121.620226666667","25.0431133333333","6500200","三重區"
"241031","707-TV","2017/08/11 17:59:37","新北市汐止區工建路212號","121.636195","25.0621233333333","6500200","三重區"
"221018","753-BX","2017/08/11 17:59:49","新北市汐止區忠孝東路382巷1弄2號","121.665751666667","25.0698633333333","6501100","汐止區"
"220031","286-VK","2017/08/11 14:32:55","新北市板橋區龍興街69號","121.443721666667","25.001655","6500100","板橋區"
