"lineid","car","time","location","longitude","latitude","cityid","cityname"
"234046","148-BY","2017/08/11 19:19:36","新北市永和區秀朗路二段148巷12弄1號","121.525273333333","25.0006633333333","6500400","永和區"
"234013","149-BY","2017/08/11 19:19:43","新北市永和區信義路60號","121.51287","25.012685","6500400","永和區"
"234007","207-UY","2017/08/11 19:19:35","新北市永和區中山路一段148號","121.509826666667","25.0094916666667","6500400","永和區"
"234081","298-R6","2017/08/11 19:19:33","新北市永和區福和路7巷3號","121.5252","25.00809","6500400","永和區"
"234038","336-UY","2017/08/11 19:19:44","新北市永和區民樂街43巷1號","121.527523333333","24.9997816666667","6500400","永和區"
"234064","337-UY","2017/08/11 19:19:46","新北市永和區永元路17巷23號","121.521478333333","25.0012433333333","6500400","永和區"
"234070","552-UM","2017/08/11 19:19:38","新北市永和區中正路666巷40號","121.51823","25.0090966666667","6500400","永和區"
"234054","553-UM","2017/08/11 19:19:47","新北市永和區中興街27號","121.516061666667","25.01189","6500400","永和區"
"234017","745-BX","2017/08/11 19:19:33","新北市永和區文化路144巷31弄7號","121.512075","25.0168316666667","6500400","永和區"
"234030","746-BX","2017/08/11 19:19:51","新北市永和區民生路69號","121.522671666667","24.9972","6500400","永和區"
"234086","840-RS","2017/08/11 19:19:44","新北市永和區永利路4巷1號","121.517505","25.0057683333333","6500400","永和區"
"234061","AAD-866","2017/08/11 19:19:41","新北市永和區秀朗路一段167號","121.516898333333","25.0040783333333","6500400","永和區"
"234042","862-TW","2017/08/11 19:19:38","新北市永和區保平路151巷17號","121.510688333333","25.00507","6500400","永和區"
"234050","863-TW","2017/08/11 19:19:34","新北市永和區保福路二段88巷19號","121.511535","25.0137833333333","6500400","永和區"
"234026","9371-KE","2017/08/11 19:19:46","新北市永和區安樂路146-1號","121.514235","25.0003716666667","6500400","永和區"
"234011","9373-KE","2017/08/11 19:19:48","新北市永和區中山路一段100巷6號","121.511433333333","25.010815","6500400","永和區"
"249005","172-UM","2017/08/11 19:19:43","新北市八里區中華路三段90號","121.393305","25.1393066666667","6502300","八里區"
"249001","173-UM","2017/08/11 19:19:53","新北市八里區中華路二段103-1號","121.409261666667","25.1522816666667","6502300","八里區"
"249003","593-UM","2017/08/11 19:19:47","新北市八里區中山路二段462號","121.399046666667","25.1471533333333","6502300","八里區"
"248016","026-BX","2017/08/11 19:19:42","新北市五股區成洲五路12號","121.452343333333","25.1015066666667","6501500","五股區"
"248018","225-UY","2017/08/11 19:19:37","新北市五股區壟路7-11號","121.41663","25.0911283333333","6501500","五股區"
"248012","247-BX","2017/08/11 19:19:47","新北市五股區中興路四段48巷16號","121.438606666667","25.083465","6501500","五股區"
"248002","655-BX","2017/08/11 19:19:53","新北市五股區凌雲路一段158巷6號","121.447773333333","25.1030883333333","6501500","五股區"
"248004","677-BX","2017/08/11 19:19:32","新北市五股區五福路56號","121.433375","25.089705","6501500","五股區"
"248010","682-TV","2017/08/11 19:19:50","新北市五股區水碓一路23號","121.430668333333","25.0713633333333","6501500","五股區"
"234023","9380-KE","2017/08/11 19:19:52","新北市永和區竹林路109巷8號","121.520286666667","25.0119466666667","6500400","永和區"
"234077","969-R7","2017/08/11 19:19:53","新北市永和區民權路36巷19號","121.518868333333","24.99906","6500400","永和區"
"234074","AAC-211","2017/08/11 19:19:29","新北市永和區竹林路98號","121.519568333333","25.012145","6500400","永和區"
"234067","AAC-212","2017/08/11 19:19:44","新北市永和區保平路44號","121.511371666667","25.0071766666667","6500400","永和區"
"234003","AAC-295","2017/08/11 19:19:48","新北市永和區中山路一段105號","121.510956666667","25.0102983333333","6500400","永和區"
"244013","069-UM","2017/08/11 19:19:42","新北市林口區麗園二街23巷15-9號","121.379146666667","25.0702666666667","6501700","林口區"
"244019","403-UM","2017/08/11 19:19:50","新北市林口區麗園二街10-6號","121.378261666667","25.0694916666667","6501700","林口區"
"244023","483-VK","2017/08/11 19:19:44","新北市林口區文化三路一段636號","121.372075","25.0774033333333","6501700","林口區"
"244011","701-TV","2017/08/11 19:19:39","新北市林口區中山路97巷1號","121.389485","25.0785633333333","6501700","林口區"
"243013","AAD-798","2017/08/11 19:19:43","新北市泰山區明志路三段145巷7號","121.42549","25.03989","6501600","泰山區"
"243009","297-R6","2017/08/11 19:19:45","新北市泰山區和平街9-2號","121.434185","25.064565","6501600","泰山區"
"243015","380-SR","2017/08/11 19:19:47","新北市泰山區公園路71號","121.426291666667","25.0554466666667","6501600","泰山區"
"243014","421-VK","2017/08/11 19:19:48","新北市泰山區泰林路二段85號","121.434821666667","25.058745","6501600","泰山區"
"243010","548-UM","2017/08/11 19:19:46","新北市泰山區明志路一段507號","121.430578333333","25.05448","6501600","泰山區"
"243011","549-UM","2017/08/11 19:19:37","新北市泰山區中央路11巷10號","121.426511666667","25.04252","6501600","泰山區"
"243012","646-TV","2017/08/11 19:19:33","新北市泰山區仁愛路100巷11號","121.433513333333","25.0552366666667","6501600","泰山區"
"243016","680-BX","2017/08/11 19:19:48","新北市泰山區工專路46號","121.423133333333","25.0400683333333","6501600","泰山區"
"222003","436-BY","2017/08/11 19:19:52","新北市深坑區深南路204號","121.626636666667","25.015995","6501800","深坑區"
"222002","659-BX","2017/08/11 19:19:31","新北市深坑區北深路一段177號","121.632543333333","25.01089","6501800","深坑區"
"222001","696-SL","2017/08/11 19:19:49","新北市深坑區北深路二段103號","121.617391666667","25.0034283333333","6501800","深坑區"
"231041","002-UM","2017/08/11 19:19:41","新北市新店區溪園路221號","121.526283333333","24.983995","6500600","新店區"
"231058","0293-UT","2017/08/11 19:19:46","新北市新店區光明街306號","121.540463333333","24.9648533333333","6500600","新店區"
"231059","046-UY","2017/08/11 19:19:48","新北市新店區安和路三段29-3號","121.517438333333","24.98122","6500600","新店區"
"231061","047-UY","2017/08/11 19:19:35","新北市新店區安康路一段228號","121.52317","24.9637383333333","6500600","新店區"
"231060","106-UY","2017/08/11 19:19:47","新北市新店區安康路二段109號","121.512558333333","24.9620333333333","6500600","新店區"
"231051","107-UY","2017/08/11 19:19:52","新北市新店區百忍街90號","121.532691666667","24.9772016666667","6500600","新店區"
"231048","108-UY","2017/08/11 19:19:39","新北市新店區五峰路66號","121.546031666667","24.9681716666667","6500600","新店區"
"231053","187-VK","2017/08/11 19:19:50","新北市新店區櫻花街206號","121.548088333333","24.91905","6500600","新店區"
"231063","268-BY","2017/08/11 19:19:50","新北市新店區達觀路14巷3號","121.503243333333","24.9418766666667","6500600","新店區"
"231046","278-BY","2017/08/11 19:19:51","新北市新店區華城路6號","121.530201666667","24.96041","6500600","新店區"
"231050","AAD-862","2017/08/11 19:19:35","新北市新店區竹林路151號","121.556141666667","24.9486","6500600","新店區"
"231067","4772-VM","2017/08/11 19:19:37","新北市新店區薏仁坑路自強巷6號","121.496323333333","24.9579483333333","6500600","新店區"
"231065","512-UM","2017/08/11 19:19:37","新北市新店區安祥路110巷28號","121.473938333333","24.9560133333333","6500600","新店區"
"231054","513-UM","2017/08/11 19:19:50","新北市新店區國校路2巷1號","121.537968333333","24.9565233333333","6500600","新店區"
"231064","515-UM","2017/08/11 19:19:48","新北市新店區安忠路57巷26弄36號","121.512176666667","24.9579833333333","6500600","新店區"
"231045","617-UM","2017/08/11 19:19:55","新北市新店區北宜路二段6號","121.547703333333","24.9518416666667","6500600","新店區"
"231040","619-UM","2017/08/11 19:19:38","新北市新店區三民路73號","121.53611","24.97148","6500600","新店區"
"231042","641-BX","2017/08/11 19:19:47","新北市新店區中興路一段24號","121.538641666667","24.958345","6500600","新店區"
"231049","719-UM","2017/08/11 19:19:47","新北市新店區明德路111號","121.541528333333","24.9794516666667","6500600","新店區"
"231062","720-UM","2017/08/11 19:19:32","新北市新店區莒光路97號","121.522625","24.95437","6500600","新店區"
"231044","897-TW","2017/08/11 19:19:39","新北市新店區寶元路一段65號","121.542203333333","24.9857766666667","6500600","新店區"
"231043","899-TW","2017/08/11 19:19:32","新北市新店區北新路二段107號","121.542945","24.974415","6500600","新店區"
"231066","AKT-0513","2017/08/11 19:19:55","新北市新店區安康路三段355巷22號","121.484903333333","24.9498083333333","6500600","新店區"
"241009","060-VK","2017/08/11 19:19:44","新北市三重區溪尾街230巷65號","121.486183333333","25.0811883333333","6500200","三重區"
"241031","061-VK","2017/08/11 19:19:51","新北市三重區重新路四段230號","121.485798333333","25.0539483333333","6500200","三重區"
"241017","063-VK","2017/08/11 19:19:37","新北市三重區大同北路217號","121.491603333333","25.06607","6500200","三重區"
"241006","156-TC","2017/08/11 19:19:32","新北市三重區車路頭街139巷10號","121.484151666667","25.0762466666667","6500200","三重區"
"241025","265-UM","2017/08/11 19:19:45","新北市三重區中正北路406號","121.475435","25.07054","6500200","三重區"
"241022","267-UM","2017/08/11 19:19:50","新北市三重區重陽路二段72號","121.487265","25.0640416666667","6500200","三重區"
"241032","269-UM","2017/08/11 19:19:38","新北市三重區新生街90號","121.483845","25.05936","6500200","三重區"
"241026","271-UM","2017/08/11 19:19:34","新北市三重區同安東街58號","121.498136666667","25.057375","6500200","三重區"
"241007","398-BY","2017/08/11 19:19:46","新北市三重區慈愛街50號","121.485995","25.0791633333333","6500200","三重區"
"241030","480-VK","2017/08/11 19:19:37","新北市三重區新興路40號","121.491535","25.0535683333333","6500200","三重區"
"241035","743-BX","2017/08/11 19:19:48","新北市三重區新北大道一段7號","121.489651666667","25.0615216666667","6500200","三重區"
"241029","887-TS","2017/08/11 19:19:38","新北市三重區重安街27號","121.491041666667","25.0571133333333","6500200","三重區"
"235066","003-UY","2017/08/11 19:19:53","新北市中和區中和路151號","121.502593333333","24.9998083333333","6500300","中和區"
"235064","005-UY","2017/08/11 19:19:48","新北市中和區泰和街26號","121.49947","25.0004766666667","6500300","中和區"
"235063","006-UY","2017/08/11 19:19:40","新北市中和區連城路249巷10弄1號","121.493828333333","24.9964016666667","6500300","中和區"
"235056","096-UM","2017/08/11 19:19:32","新北市中和區員山路513號","121.479803333333","25.0065783333333","6500300","中和區"
"235039","097-UM","2017/08/11 19:19:41","新北市中和區景平路64巷14弄15號","121.52288","24.991365","6500300","中和區"
"235065","098-UM","2017/08/11 19:19:22","新北市中和區中山路二段136巷6弄1號","121.502108333333","25.00392","6500300","中和區"
"235040","150-BY","2017/08/11 19:19:37","新北市中和區保健路46巷18號","121.509055","24.9962933333333","6500300","中和區"
"235058","151-BY","2017/08/11 19:19:47","新北市中和區連城路523巷9弄4號","121.48176","24.9945433333333","6500300","中和區"
"235055","183-VK","2017/08/11 19:19:50","新北市中和區德光路95號","121.468645","25.003405","6500300","中和區"
"235038","185-VK","2017/08/11 19:19:50","新北市中和區大仁街10巷27弄4號","121.519253333333","24.992745","6500300","中和區"
"235049","186-VK","2017/08/11 19:19:47","新北市中和區景新街239號","121.508126666667","24.9944633333333","6500300","中和區"
"235067","255-BX","2017/08/11 19:19:44","新北市中和區新生街193巷1號","121.484016666667","25.00031","6500300","中和區"
"235044","293-VK","2017/08/11 19:19:50","新北市中和區中興街235巷1號","121.500786666667","24.9895533333333","6500300","中和區"
"235072","301-VK","2017/08/11 19:19:43","新北市中和區連城路87號","121.496805","25.000325","6500300","中和區"
"235043","352-BY","2017/08/11 19:19:35","新北市中和區景平路406號","121.508763333333","24.9931183333333","6500300","中和區"
"235051","376-QA","2017/08/11 19:19:44","新北市中和區和平街2巷4弄1號","121.510033333333","24.9906716666667","6500300","中和區"
"235068","377-QA","2017/08/11 19:19:52","新北市中和區連城路139巷66號","121.496706666667","24.996735","6500300","中和區"
"235061","378-QA","2017/08/11 19:19:39","新北市中和區員山路150-1號","121.481306666667","24.9973116666667","6500300","中和區"
"235050","4979-A6","2017/08/11 19:19:49","新北市中和區景安路208巷2號","121.503851666667","24.9909916666667","6500300","中和區"
"235069","4980-A6","2017/08/11 19:19:51","新北市中和區景平路999巷2號","121.495463333333","25.00621","6500300","中和區"
"235042","551-UM","2017/08/11 19:19:41","新北市永和區民有街7號","121.516198333333","24.9969583333333","6500300","中和區"
"235070","558-UM","2017/08/11 19:19:38","新北市中和區中和路108號","121.502963333333","24.999735","6500300","中和區"
"235045","565-BX","2017/08/11 19:19:38","新北市中和區景新街422號","121.512973333333","24.98894","6500300","中和區"
"235054","640-BX","2017/08/11 19:19:49","新北市中和區國光街109巷2弄17號","121.469165","25.0006416666667","6500300","中和區"
"235060","647-TV","2017/08/11 19:19:43","新北市中和區民有街59號","121.476248333333","25.00367","6500300","中和區"
"235047","732-UM","2017/08/11 19:19:34","新北市中和區和平街54巷10弄2號","121.50898","24.99145","6500300","中和區"
"235046","733-UM","2017/08/11 19:19:52","新北市中和區忠孝街3號","121.509495","24.982965","6500300","中和區"
"235057","801-TS","2017/08/11 19:19:40","新北市中和區民利街53號","121.479311666667","24.99873","6500300","中和區"
"235041","802-TS","2017/08/11 19:19:42","新北市中和區景安路51號","121.507291666667","24.998295","6500300","中和區"
"235052","805-TS","2017/08/11 19:19:39","新北市中和區興南路二段159巷7號","121.505265","24.9831083333333","6500300","中和區"
"235048","896-TW","2017/08/11 19:19:44","新北市中和區忠孝街93號","121.512118333333","24.9856183333333","6500300","中和區"
"235053","900-TW","2017/08/11 19:19:50","新北市中和區華安街19巷6號","121.46726","24.9979283333333","6500300","中和區"
"235071","911-UM","2017/08/11 19:19:35","新北市中和區中正路637巷52弄1號","121.485341666667","24.9937583333333","6500300","中和區"
"235037","AAC-213","2017/08/11 19:19:43","新北市中和區秀朗路三段50巷5-1號","121.525913333333","24.9954233333333","6500300","中和區"
"235059","AAC-215","2017/08/11 19:19:46","新北市中和區錦和路163號","121.491891666667","24.9916116666667","6500300","中和區"
"220068","013-TV","2017/08/11 19:19:51","新北市板橋區三民路一段1巷49號","121.480796666667","25.0248083333333","6500100","板橋區"
"220065","072-UY","2017/08/11 19:19:54","新北市板橋區民族路129巷10號","121.46764","25.0084483333333","6500100","板橋區"
"220086","073-UY","2017/08/11 19:19:49","新北市板橋區中正路216巷96號","121.458671666667","25.019145","6500100","板橋區"
"220106","075-UY","2017/08/11 19:19:37","新北市板橋區雙十路三段66巷1號","121.470586666667","25.03193","6500100","板橋區"
"220069","AAD-861","2017/08/11 19:19:48","新北市板橋區四川路一段104號","121.459513333333","25.0046366666667","6500100","板橋區"
"220096","120-SR","2017/08/11 19:19:38","新北市板橋區大同街26巷13號","121.478223333333","25.0269166666667","6500100","板橋區"
"226004","205-ST","2017/08/11 19:19:47","新北市平溪區十分里十分街238號","121.778083333333","25.0441466666667","6502400","平溪區"
"228002","663-BX","2017/08/11 19:19:37","新北市貢寮區龍門里復興街14號","121.926535","25.02582","6502600","貢寮區"
"228001","670-TC","2017/08/11 19:19:49","新北市貢寮區真理里新港街10號","121.925585","25.054395","6502600","貢寮區"
"228003","828-UM","2017/08/11 19:19:36","新北市貢寮區和美里和美街22-1號","121.912778333333","25.0826416666667","6502600","貢寮區"
"224010","AGQ-8101","2017/08/11 19:19:44","新北市瑞芳區基山街3號","121.845181666667","25.1098233333333","6501200","瑞芳區"
"224006","676-BX","2017/08/11 19:19:36","新北市瑞芳區中山路216號","121.80064","25.10687","6501200","瑞芳區"
"241031","285-BY","2017/08/11 19:19:53","新北市瑞芳區洞頂路124號","121.8606","25.11875","6500200","三重區"
"224008","275-VK","2017/08/11 19:19:47","新北市瑞芳區一坑路173-4號","121.80114","25.10819","6501200","瑞芳區"
"224005","271-BY","2017/08/11 19:19:31","新北市瑞芳區員山子路23號","121.821566666667","25.1028466666667","6501200","瑞芳區"
"227003","642-TC","2017/08/11 19:19:43","新北市雙溪區平林里梅竹蹊66-1號","121.86014","25.0358416666667","6502500","雙溪區"
"227011","400-TW","2017/08/11 19:19:39","新北市雙溪區新基里新基北街40號","121.868516666667","25.0380383333333","6502500","雙溪區"
"253006","032-BX","2017/08/11 19:19:50","新北市石門區楓林17-10號","121.536406666667","25.2929333333333","6502200","石門區"
"253005","295-VK","2017/08/11 19:19:45","新北市石門區阿里荖14號","121.60833","25.2801416666667","6502200","石門區"
"208002","742-BX","2017/08/11 19:19:51","新北市金山區中正路136號","121.631638333333","25.2217666666667","6502700","金山區"
"208003","665-BX","2017/08/11 19:19:52","新北市金山區中山路141號","121.639105","25.220075","6502700","金山區"
"208001","761-BX","2017/08/11 19:19:39","新北市金山區民生路69號","121.64017","25.2197016666667","6502700","金山區"
"251009","008-UM","2017/08/11 19:08:43","新北市淡水區中正路8巷3號","121.441698333333","25.1697416666667","6501000","淡水區"
"251005","010-UM","2017/08/11 19:19:37","新北市淡水區水源街一段27巷1-5號","121.443145","25.1725366666667","6501000","淡水區"
"251013","180-VK","2017/08/11 19:19:41","新北市淡水區安子內12號","121.48152","25.21907","6501000","淡水區"
"251015","182-VK","2017/08/11 19:19:38","新北市淡水區山子邊5-2號","121.483306666667","25.1843516666667","6501000","淡水區"
"251010","413-VK","2017/08/11 19:19:34","新北市淡水區沙崙路30號","121.421475","25.18148","6501000","淡水區"
"251001","559-UM","2017/08/11 19:19:35","新北市淡水區自強路201巷39號","121.462153333333","25.1268183333333","6501000","淡水區"
"251007","577-R6","2017/08/11 19:19:42","新北市淡水區中正東路二段79號","121.460466666667","25.1539783333333","6501000","淡水區"
"251011","650-BX","2017/08/11 19:19:47","新北市淡水區中正東路二段143巷2弄1號","121.460653333333","25.1474233333333","6501000","淡水區"
"251002","672-BX","2017/08/11 19:19:32","新北市淡水區文化路65號","121.437901666667","25.1728983333333","6501000","淡水區"
"251003","673-BX","2017/08/11 19:19:40","新北市淡水區中山北路一段33號","121.441523333333","25.1752133333333","6501000","淡水區"
"207003","550-UM","2017/08/11 19:19:49","新北市萬里區大鵬里萬里加投79-3號","121.647318333333","25.21236","6502800","萬里區"
"241031","225-TW","2017/08/11 19:19:41","新北市萬里區萬里里瑪鋉路4號","121.687615","25.1750483333333","6500200","三重區"
"252002","178-VK","2017/08/11 19:19:38","新北市三芝區淡金路二段8號","121.502535","25.2593833333333","6502100","三芝區"
"252003","249-BX","2017/08/11 19:19:38","新北市三芝區埔坪里埔頭坑41號","121.504688333333","25.2646633333333","6502100","三芝區"
"252001","292-VK","2017/08/11 19:19:39","新北市三芝區長勤街9巷16號","121.5017","25.255295","6502100","三芝區"
"237004","078-UY","2017/08/11 19:19:42","新北市三峽區有木205-1號","121.43906","24.8515016666667","6500900","三峽區"
"237007","153-BY","2017/08/11 19:19:52","新北市三峽區二鬮路9號","121.359056666667","24.9068683333333","6500900","三峽區"
"237009","210-TH","2017/08/11 19:19:33","新北市三峽區民生街215號","121.371508333333","24.934725","6500900","三峽區"
"237013","252-BX","2017/08/11 19:19:46","新北市三峽區大同路39巷21號","121.377601666667","24.9275116666667","6500900","三峽區"
"237012","275-BY","2017/08/11 19:19:37","新北市三峽區三樹路222巷236弄23號","121.391376666667","24.943055","6500900","三峽區"
"237008","302-VK","2017/08/11 19:19:51","新北市三峽區大同路154號","121.37311","24.9267483333333","6500900","三峽區"
"237014","433-BY","2017/08/11 19:19:52","新北市三峽區中山路63巷8號","121.367043333333","24.9343666666667","6500900","三峽區"
"237006","5529-G3","2017/08/11 19:19:38","新北市三峽區中正路一段336巷15弄2號","121.369963333333","24.9249566666667","6500900","三峽區"
"237011","572-TV","2017/08/11 19:19:40","新北市三峽區文化路209號","121.36623","24.9355","6500900","三峽區"
"237015","649-BX","2017/08/11 19:19:42","新北市三峽區成福路260號","121.427835","24.9234633333333","6500900","三峽區"
"237005","AKY-6261","2017/08/11 19:19:42","新北市三峽區中山路459巷50-1號","121.356188333333","24.9374333333333","6500900","三峽區"
"236072","105-UM","2017/08/11 19:19:40","新北市土城區學成路148號","121.448461666667","24.989445","6501300","土城區"
"236009","165-UM","2017/08/11 14:44:32","新北市土城區永平街51號","121.427941666667","24.95922","6501300","土城區"
"236079","166-UM","2017/08/11 19:19:43","新北市土城區中央路四段440號","121.410676666667","24.9514916666667","6501300","土城區"
"236027","269-VK","2017/08/11 19:19:54","新北市土城區中央路二段190號","121.441981666667","24.9761","6501300","土城區"
"236015","270-VK","2017/08/11 19:19:45","新北市土城區學府路一段21-1號","121.458565","24.9883633333333","6501300","土城區"
"236022","401-BY","2017/08/11 19:19:34","新北市土城區峰廷街3號","121.469225","24.9873866666667","6501300","土城區"
"236059","912-UM","2017/08/11 19:19:35","新北市土城區金城路一段5號","121.439288333333","24.9689466666667","6501300","土城區"
"236050","913-UM","2017/08/11 19:19:30","新北市土城區明德路一段398-1號","121.453901666667","24.978855","6501300","土城區"
"238015","755-BX","2017/08/11 19:19:50","新北市樹林區備內街1巷39-10號","121.411936666667","24.9857316666667","6500700","樹林區"
"238023","601-UM","2017/08/11 19:19:42","新北市樹林區三興路77號","121.392595","25.0144516666667","6500700","樹林區"
"238019","599-UM","2017/08/11 19:19:48","新北市樹林區鎮前街323號","121.417205","24.9845916666667","6500700","樹林區"
"238018","571-TV","2017/08/11 19:19:48","新北市樹林區中華路211號","121.419701666667","24.9814066666667","6500700","樹林區"
"238024","5061-A6","2017/08/11 19:19:42","新北市樹林區福德街18號","121.40096","24.9760466666667","6500700","樹林區"
"238022","312-TH","2017/08/11 19:19:41","新北市樹林區中山路二段121-2號","121.40818","24.9798316666667","6500700","樹林區"
"238021","311-TH","2017/08/11 19:19:47","新北市樹林區柑園街二段378巷1號","121.368765","24.9498","6500700","樹林區"
"238025","303-VK","2017/08/11 19:19:40","新北市樹林區東興街3號","121.409793333333","24.9804166666667","6500700","樹林區"
"238017","283-BY","2017/08/11 19:19:48","新北市樹林區光興街44號","121.409918333333","25.002735","6500700","樹林區"
"238014","282-BY","2017/08/11 19:19:45","新北市樹林區中正路22-1號","121.427718333333","24.999395","6500700","樹林區"
"238020","268-VK","2017/08/11 19:19:41","新北市樹林區俊英街155巷43弄11號","121.422758333333","25.0116216666667","6500700","樹林區"
"238026","172-UY","2017/08/11 19:19:47","新北市樹林區柑園街一段361號","121.38882","24.9559816666667","6500700","樹林區"
"238016","169-UY","2017/08/11 19:19:35","新北市樹林區中山路二段34號","121.417211666667","24.985125","6500700","樹林區"
"239007","AAC-297","2017/08/11 19:19:36","新北市鶯歌區大湖路338巷15號","121.346741666667","24.9689816666667","6500800","鶯歌區"
"239006","891-R6","2017/08/11 19:19:43","新北市鶯歌區建國路512巷54號","121.339078333333","24.951385","6500800","鶯歌區"
"239008","527-UM","2017/08/11 19:19:39","新北市鶯歌區大湖路460巷2弄2號","121.33998","24.9724266666667","6500800","鶯歌區"
"239001","417-VK","2017/08/11 19:19:44","新北市鶯歌區建國路461號","121.339256666667","24.9520333333333","6500800","鶯歌區"
"239003","360-BY","2017/08/11 19:19:45","新北市鶯歌區文化路124號","121.35187","24.9517916666667","6500800","鶯歌區"
"239002","359-BY","2017/08/11 19:19:45","新北市鶯歌區大湖路374號","121.345921666667","24.9729933333333","6500800","鶯歌區"
"239004","193-VK","2017/08/11 19:19:47","新北市鶯歌區二甲路83-5號","121.33995","24.93216","6500800","鶯歌區"
"221008","489-VK","2017/08/11 19:19:40","新北市汐止區康寧街302-1號","121.626291666667","25.06716","6501100","汐止區"
"221036","130-UY","2017/08/11 19:19:36","新北市汐止區汐萬路一段256巷1號","121.651671666667","25.0748516666667","6501100","汐止區"
"221015","131-UY","2017/08/11 19:19:36","新北市汐止區康寧街901號","121.651416666667","25.07494","6501100","汐止區"
"221010","269-BY","2017/08/11 19:19:43","新北市汐止區康寧街901號","121.651323333333","25.07504","6501100","汐止區"
"241031","276-VK","2017/08/11 13:16:31","新北市汐止區汐萬路一段256巷3號","121.653423333333","25.0746366666667","6500200","三重區"
"241031","278-VK","2017/08/11 19:19:33","新北市汐止區汐萬路一段312號","121.650296666667","25.0749816666667","6500200","三重區"
"221023","279-VK","2017/08/11 19:19:46","新北市汐止區康寧街901號","121.651061666667","25.0752766666667","6501100","汐止區"
"221027","281-BY","2017/08/11 19:19:36","新北市汐止區康寧街901號","121.650893333333","25.0752783333333","6501100","汐止區"
"221038","297-VK","2017/08/11 19:19:44","新北市汐止區汐萬路一段312號","121.65068","25.0752833333333","6501100","汐止區"
"221029","298-VK","2017/08/11 19:19:47","新北市汐止區康寧街901號","121.651625","25.0749666666667","6501100","汐止區"
"221021","299-VK","2017/08/11 15:21:19","新北市汐止區汐萬路一段256巷1號","121.652011666667","25.07488","6501100","汐止區"
"221031","353-TW","2017/08/11 19:19:45","新北市汐止區康寧街815巷11號","121.640798333333","25.0748916666667","6501100","汐止區"
"221025","623-UM","2017/08/11 19:19:51","新北市汐止區汐萬路一段273號","121.650426666667","25.0745433333333","6501100","汐止區"
"221033","647-BX","2017/08/11 19:19:38","新北市汐止區南勢街1巷1號","121.627053333333","25.0374166666667","6501100","汐止區"
"241031","707-TV","2017/08/11 19:19:36","新北市汐止區大同路一段339號","121.63861","25.059395","6500200","三重區"
"221018","753-BX","2017/08/11 19:19:49","新北市汐止區康寧街901號","121.651693333333","25.0749316666667","6501100","汐止區"
"220079","145-BY","2017/08/11 19:19:49","新北市板橋區民權路260巷1弄40號","121.458841666667","25.01622","6500100","板橋區"
"220080","200-UY","2017/08/11 19:19:54","新北市板橋區大觀路二段1巷54號","121.450465","25.00354","6500100","板橋區"
"220082","610-BX","2017/08/11 19:19:52","新北市板橋區滿平街84巷116號","121.426915","24.9864166666667","6500100","板橋區"
"220101","245-BX","2017/08/11 19:19:47","新北市板橋區莒光路184號","121.474113333333","25.0227016666667","6500100","板橋區"
"220056","276-BY","2017/08/11 19:19:40","新北市板橋區信義路110巷1弄5號","121.458086666667","24.992205","6500100","板橋區"
"220072","277-BY","2017/08/11 19:19:42","新北市板橋區金門街278-3號","121.429526666667","24.9860483333333","6500100","板橋區"
"220094","283-UM","2017/08/11 19:19:44","新北市板橋區吳鳳路19-7號","121.467043333333","25.0308883333333","6500100","板橋區"
"220071","283-VK","2017/08/11 19:19:44","新北市板橋區重慶路327巷24弄11號","121.464998333333","24.99822","6500100","板橋區"
"220053","285-VK","2017/08/11 19:19:51","新北市板橋區永豐街158號","121.478458333333","25.021205","6500100","板橋區"
"220083","286-VK","2017/08/11 19:19:44","新北市板橋區大觀路二段174巷196弄15號","121.443086666667","25.0036816666667","6500100","板橋區"
"220081","287-VK","2017/08/11 19:19:37","新北市板橋區南雅西路一段140號","121.452453333333","25.0072183333333","6500100","板橋區"
"220090","288-VK","2017/08/11 19:19:40","新北市板橋區長江路一段106巷13弄20號","121.460788333333","25.02943","6500100","板橋區"
"220061","293-UM","2017/08/11 19:19:48","新北市板橋區三民路二段21巷40號","121.480581666667","25.0182233333333","6500100","板橋區"
"220055","295-UM","2017/08/11 19:19:49","新北市板橋區新民街23號","121.464081666667","25.0101183333333","6500100","板橋區"
"220084","296-UM","2017/08/11 19:19:45","新北市板橋區溪崑二街66巷18號","121.427428333333","24.990715","6500100","板橋區"
"220075","297-UM","2017/08/11 19:19:50","新北市板橋區南雅西路一段122號","121.452386666667","25.0065116666667","6500100","板橋區"
"220062","303-R5","2017/08/11 19:19:32","新北市板橋區三民路二段153巷36弄2號","121.481108333333","25.01412","6500100","板橋區"
"220092","307-R5","2017/08/11 19:19:31","新北市板橋區光武街48巷25號","121.467735","25.0269583333333","6500100","板橋區"
"220098","317-R6","2017/08/11 19:19:46","新北市板橋區四維路206號","121.464015","25.02725","6500100","板橋區"
"220064","486-VK","2017/08/11 19:19:54","新北市板橋區中山路二段13號","121.47218","25.01494","6500100","板橋區"
"220089","487-VK","2017/08/11 19:19:34","新北市板橋區文化路二段19號","121.46872","25.024595","6500100","板橋區"
"220088","491-VK","2017/08/11 19:19:42","新北市板橋區雙十路二段79號","121.476016666667","25.0272183333333","6500100","板橋區"
"220035","560-BX","2017/08/11 19:19:34","新北市板橋區中正路362號","121.454475","25.0238683333333","6500100","板橋區"
"220103","561-BX","2017/08/11 19:19:42","新北市板橋區文化路一段188巷7弄14號","121.467623333333","25.0196916666667","6500100","板橋區"
"220063","609-BX","2017/08/11 19:19:42","新北市板橋區三民路二段189號","121.479106666667","25.0141333333333","6500100","板橋區"
"220091","637-BX","2017/08/11 19:19:48","新北市板橋區萬板路478號","121.47993","25.0261216666667","6500100","板橋區"
"220057","686-BX","2017/08/11 19:19:51","新北市板橋區重慶路159號","121.462683333333","25.002875","6500100","板橋區"
"220077","687-BX","2017/08/11 19:19:45","新北市板橋區僑中一街80巷6弄22號","121.44839","25.0113866666667","6500100","板橋區"
"220093","689-BX","2017/08/11 19:19:38","新北市板橋區文化路一段361號","121.466838333333","25.02116","6500100","板橋區"
"220054","741-BX","2017/08/11 19:19:51","新北市板橋區重慶路93巷32號","121.463315","25.0059366666667","6500100","板橋區"
"220067","829-TW","2017/08/11 19:19:43","新北市板橋區三民路二段正隆巷75號","121.475965","25.0129466666667","6500100","板橋區"
"220102","830-TW","2017/08/11 19:19:35","新北市板橋區田單街44號","121.482633333333","25.0277966666667","6500100","板橋區"
"220074","895-R6","2017/08/11 19:19:41","新北市板橋區中正路69巷1弄7號","121.455918333333","25.013715","6500100","板橋區"
"220073","985-R7","2017/08/11 19:19:50","新北市板橋區新生街73號","121.45782","25.02124","6500100","板橋區"
"220097","AAC-210","2017/08/11 19:19:46","新北市板橋區幸福路58號","121.461125","25.020085","6500100","板橋區"
"220070","AAC-253","2017/08/11 19:19:41","新北市板橋區四川路一段467號","121.457185","24.9975583333333","6500100","板橋區"
