"lineid","car","time","location","longitude","latitude","cityid","cityname"
"234046","148-BY","2017/08/11 20:39:36","新北市三重區光復路二段87巷63號","121.475845","25.05812","6500400","永和區"
"234064","337-UY","2017/08/11 20:39:35","新北市永和區福和路1號","121.526461666667","25.009705","6500400","永和區"
"234030","746-BX","2017/08/11 20:39:50","新北市永和區福和路1號","121.52631","25.0096416666667","6500400","永和區"
"234086","840-RS","2017/08/11 20:39:41","新北市永和區永平路305號","121.505441666667","25.014055","6500400","永和區"
"234061","AAD-866","2017/08/11 20:39:41","新北市永和區中正路381號","121.51717","25.003655","6500400","永和區"
"234042","862-TW","2017/08/11 20:39:38","新北市永和區安樂路348號","121.514463333333","25.0064333333333","6500400","永和區"
"249001","173-UM","2017/08/11 20:39:40","新北市八里區中山路三段335號","121.377225","25.1387666666667","6502300","八里區"
"249004","303-UY","2017/08/11 20:39:36","新北市八里區中山路一段157巷26號","121.412965","25.158145","6502300","八里區"
"234023","9380-KE","2017/08/11 20:39:32","新北市永和區竹林路5號","121.516325","25.0149166666667","6500400","永和區"
"234074","AAC-211","2017/08/11 20:39:49","新北市永和區竹林路75巷25弄34號","121.5211","25.0150166666667","6500400","永和區"
"234067","AAC-212","2017/08/11 20:39:44","新北市永和區保平路290號","121.50805","25.004475","6500400","永和區"
"243014","421-VK","2017/08/11 20:39:48","新北市泰山區泰林路三段745巷145號","121.405526666667","25.06771","6501600","泰山區"
"243011","549-UM","2017/08/11 20:39:35","新北市泰山區黎明路47號","121.422356666667","25.057775","6501600","泰山區"
"243016","680-BX","2017/08/11 20:39:48","新北市泰山區泰林路二段2-10號","121.42015","25.06478","6501600","泰山區"
"222003","436-BY","2017/08/11 20:39:46","新北市深坑區阿柔洋21號","121.613","24.9991216666667","6501800","深坑區"
"222002","659-BX","2017/08/11 20:39:50","新北市深坑區萬福路45號","121.599423333333","25.0068633333333","6501800","深坑區"
"222001","696-SL","2017/08/11 20:39:49","新北市深坑區北深路三段234號","121.600621666667","25.0040983333333","6501800","深坑區"
"231041","002-UM","2017/08/11 20:39:41","新北市新店區中正路545號","121.533706666667","24.9876166666667","6500600","新店區"
"231056","0291-UT","2017/08/11 20:39:45","新北市新店區中央路22-1號","121.533266666667","24.9784633333333","6500600","新店區"
"231058","0293-UT","2017/08/11 20:39:45","新北市新店區中正路307巷11號","121.536066666667","24.9739566666667","6500600","新店區"
"231059","046-UY","2017/08/11 20:39:39","新北市新店區僑愛三路37號","121.499083333333","24.9446716666667","6500600","新店區"
"231061","047-UY","2017/08/11 20:39:35","新北市新店區新和街37號","121.519295","24.9849566666667","6500600","新店區"
"231060","106-UY","2017/08/11 20:39:47","新北市新店區安康路三段712號","121.474076666667","24.9421866666667","6500600","新店區"
"231051","107-UY","2017/08/11 20:39:32","新北市新店區中央八街69號","121.527905","24.9766883333333","6500600","新店區"
"231048","108-UY","2017/08/11 20:39:35","新北市新店區寶慶街76號","121.541573333333","24.9867266666667","6500600","新店區"
"231053","187-VK","2017/08/11 20:39:45","新北市新店區廣興路7-10號","121.545655","24.9117383333333","6500600","新店區"
"231057","256-BX","2017/08/11 20:39:45","新北市新店區花園六路二段12號","121.554818333333","24.933395","6500600","新店區"
"231063","268-BY","2017/08/11 20:39:49","新北市新店區玫瑰路4-1號","121.49361","24.9514","6500600","新店區"
"231050","AAD-862","2017/08/11 20:39:55","新北市新店區建安街26號","121.539713333333","24.9754766666667","6500600","新店區"
"231065","512-UM","2017/08/11 20:39:47","新北市新店區安祥路102巷144號","121.486776666667","24.964555","6500600","新店區"
"231054","513-UM","2017/08/11 20:39:36","新北市新店區行政街26號","121.542975","24.9655916666667","6500600","新店區"
"231064","515-UM","2017/08/11 20:39:48","新北市新店區安和路三段169號","121.515945","24.9859616666667","6500600","新店區"
"231045","617-UM","2017/08/11 20:39:35","新北市新店區長春路100號","121.552116666667","24.9597033333333","6500600","新店區"
"231040","619-UM","2017/08/11 20:39:38","新北市新店區中正路263號","121.538635","24.9736416666667","6500600","新店區"
"231042","641-BX","2017/08/11 20:39:47","新北市新店區寶高路120巷3弄4號","121.554738333333","24.9757316666667","6500600","新店區"
"231068","718-UY","2017/08/11 20:39:45","新北市新店區寶元路一段85巷8號","121.54304","24.9858266666667","6500600","新店區"
"231049","719-UM","2017/08/11 20:39:47","新北市新店區永業路81巷11弄1號","121.531188333333","24.950095","6500600","新店區"
"231062","720-UM","2017/08/11 20:39:32","新北市新店區安康路三段148號","121.49061","24.9517416666667","6500600","新店區"
"231044","897-TW","2017/08/11 20:39:39","新北市新店區建國路293巷1號","121.536671666667","24.986165","6500600","新店區"
"231043","899-TW","2017/08/11 20:39:52","新北市新店區博愛街13巷25號","121.540301666667","24.9741783333333","6500600","新店區"
"231066","AKT-0513","2017/08/11 20:39:35","新北市新店區安興路112號","121.514705","24.9776816666667","6500600","新店區"
"241011","013-R5","2017/08/11 20:39:48","新北市三重區龍濱路219巷20號","121.50288","25.0724566666667","6500200","三重區"
"241028","022-UY","2017/08/11 20:39:47","新北市三重區光興街89號","121.49748","25.0599816666667","6500200","三重區"
"241008","059-VK","2017/08/11 20:39:51","新北市三重區下竹圍街42號","121.481028333333","25.074875","6500200","三重區"
"241009","060-VK","2017/08/11 20:39:44","新北市三重區仁愛街578號","121.484855","25.0813133333333","6500200","三重區"
"241031","061-VK","2017/08/11 20:39:51","新北市三重區重陽路一段113巷1弄49號","121.488063333333","25.0585683333333","6500200","三重區"
"241015","062-VK","2017/08/11 20:39:45","新北市三重區雙園街1號","121.497793333333","25.0684516666667","6500200","三重區"
"241017","063-VK","2017/08/11 20:39:37","新北市三重區大同北路265號","121.490893333333","25.067235","6500200","三重區"
"241024","065-VK","2017/08/11 20:39:49","新北市三重區國道路一段58巷20號","121.481306666667","25.0720716666667","6500200","三重區"
"241002","090-VK","2017/08/11 20:39:47","新北市三重區仁義街167巷35號","121.498126666667","25.08211","6500200","三重區"
"241003","091-VK","2017/08/11 20:39:38","新北市三重區五華街141巷58號","121.493541666667","25.0867833333333","6500200","三重區"
"241005","262-UM","2017/08/11 20:39:35","新北市三重區五華街141巷58號","121.493421666667","25.0866783333333","6500200","三重區"
"241025","265-UM","2017/08/11 20:39:45","新北市三重區頂崁街210巷28弄6號","121.475686666667","25.0674816666667","6500200","三重區"
"241016","266-UM","2017/08/11 20:39:44","新北市三重區長壽西街126號","121.49512","25.0669283333333","6500200","三重區"
"241022","267-UM","2017/08/11 20:39:50","新北市三重區中正北路20巷12號","121.487985","25.062445","6500200","三重區"
"241018","268-UM","2017/08/11 20:39:38","新北市三重區重陽路四段18號","121.490976666667","25.0691316666667","6500200","三重區"
"241032","269-UM","2017/08/11 20:39:38","新北市三重區重陽路一段120巷35號","121.485115","25.0601866666667","6500200","三重區"
"241013","270-UM","2017/08/11 20:39:54","新北市三重區大智街161號","121.489848333333","25.072275","6500200","三重區"
"241026","271-UM","2017/08/11 20:39:33","新北市三重區重新路二段36巷33號","121.50002","25.0622633333333","6500200","三重區"
"241007","398-BY","2017/08/11 20:39:46","新北市三重區自強路四段22號","121.488638333333","25.0764183333333","6500200","三重區"
"241004","475-VK","2017/08/11 20:39:41","新北市三重區仁愛街416號","121.490606666667","25.081325","6500200","三重區"
"241019","478-VK","2017/08/11 20:39:51","新北市三重區大智街186號","121.491015","25.0703233333333","6500200","三重區"
"241030","480-VK","2017/08/11 20:39:37","新北市三重區成功路73巷13號","121.48949","25.05196","6500200","三重區"
"241014","543-UM","2017/08/11 20:39:44","新北市三重區萬壽街23號","121.499678333333","25.0694016666667","6500200","三重區"
"241023","545-UM","2017/08/11 20:39:34","新北市三重區自由街53號","121.47862","25.06656","6500200","三重區"
"241001","547-UM","2017/08/11 20:39:32","新北市三重區自強路三段110巷37號","121.485976666667","25.0745916666667","6500200","三重區"
"241035","743-BX","2017/08/11 20:39:48","新北市三重區正義北路296號","121.495478333333","25.0696083333333","6500200","三重區"
"241029","887-TS","2017/08/11 20:39:38","新北市三重區集美街126巷27號","121.490221666667","25.0537883333333","6500200","三重區"
"241012","941-UM","2017/08/11 20:39:41","新北市三重區秀江街31號","121.50201","25.0728966666667","6500200","三重區"
"241033","AAC-255","2017/08/11 20:39:39","新北市三重區光復路二段1號","121.47232","25.0533666666667","6500200","三重區"
"235072","301-VK","2017/08/11 20:39:42","新北市三重區光復路二段188號","121.47104","25.062795","6500300","中和區"
"235050","4979-A6","2017/08/11 20:35:29","新北市中和區中正路78號","121.500336666667","24.993845","6500300","中和區"
"235069","4980-A6","2017/08/11 20:39:50","新北市中和區員山路359巷3號","121.48095","25.0019083333333","6500300","中和區"
"235026","800-TS","2017/08/11 20:38:31","新北市中和區員山路36巷16-3號","121.484903333333","24.9917183333333","6500300","中和區"
"247020","893-R6","2017/08/11 20:39:53","新北市蘆洲區仁愛街75號","121.471396666667","25.0938516666667","6501400","蘆洲區"
"247010","546-UM","2017/08/11 20:39:44","新北市蘆洲區中山一路40號","121.47968","25.081015","6501400","蘆洲區"
"247008","339-TH","2017/08/11 20:39:47","新北市蘆洲區集賢路395號","121.480701666667","25.0819116666667","6501400","蘆洲區"
"247024","337-TH","2017/08/11 20:39:54","新北市蘆洲區長樂路140號","121.462013333333","25.0901516666667","6501400","蘆洲區"
"247002","336-TH","2017/08/11 20:39:34","新北市蘆洲區長榮路396號","121.459568333333","25.08767","6501400","蘆洲區"
"247006","335-TH","2017/08/11 20:39:48","新北市蘆洲區和平路121巷8弄22號","121.466293333333","25.08061","6501400","蘆洲區"
"247014","057-VK","2017/08/11 20:39:46","新北市蘆洲區成功路97號","121.472925","25.08149","6501400","蘆洲區"
"247004","056-VK","2017/08/11 20:39:42","新北市蘆洲區長安街297號","121.458066666667","25.0848483333333","6501400","蘆洲區"
"247022","053-VK","2017/08/11 20:39:52","新北市蘆洲區中正路263巷10號","121.466863333333","25.0871116666667","6501400","蘆洲區"
"247012","007-UY","2017/08/11 20:39:48","新北市蘆洲區集賢路268號","121.481768333333","25.0855683333333","6501400","蘆洲區"
"247016","001-UY","2017/08/11 20:39:43","新北市蘆洲區中山二路288號","121.468786666667","25.0777683333333","6501400","蘆洲區"
"251013","180-VK","2017/08/11 20:39:40","新北市淡水區奎柔山路295號","121.459565","25.20545","6501000","淡水區"
"251015","182-VK","2017/08/11 20:39:37","新北市淡水區淡金路四段542巷17號","121.45266","25.2271016666667","6501000","淡水區"
"251010","413-VK","2017/08/11 20:39:54","新北市淡水區沙崙路181巷13號","121.423653333333","25.1841366666667","6501000","淡水區"
"251012","441-VK","2017/08/11 20:39:33","新北市淡水區興仁路108號","121.451616666667","25.2181716666667","6501000","淡水區"
"251001","559-UM","2017/08/11 20:39:35","新北市淡水區淡金路一段102號","121.45777","25.1742333333333","6501000","淡水區"
"251006","561-UM","2017/08/11 20:39:48","新北市淡水區商工路186巷1號","121.450401666667","25.188325","6501000","淡水區"
"251007","577-R6","2017/08/11 20:39:42","新北市淡水區忠愛街4-1號","121.458868333333","25.1713066666667","6501000","淡水區"
"251011","650-BX","2017/08/11 20:39:47","新北市淡水區新市一路一段359號","121.436225","25.1863016666667","6501000","淡水區"
"251002","672-BX","2017/08/11 20:39:42","新北市淡水區中正路38-1號","121.443665","25.1692783333333","6501000","淡水區"
"251003","673-BX","2017/08/11 20:39:40","新北市淡水區新民街120巷15號","121.438211666667","25.178025","6501000","淡水區"
"252002","178-VK","2017/08/11 20:39:38","新北市三芝區淡金路二段47-2號","121.503688333333","25.260565","6502100","三芝區"
"252001","292-VK","2017/08/11 20:39:39","新北市三芝區長安街24號","121.501991666667","25.255855","6502100","三芝區"
"236009","165-UM","2017/08/11 14:44:32","新北市土城區永平街51號","121.427941666667","24.95922","6501300","土城區"
"242021","AAC-296","2017/08/11 20:39:51","新北市新莊區公園路100號","121.4507","25.0398516666667","6500500","新莊區"
"242029","986-R7","2017/08/11 20:39:44","新北市新莊區昌平街1號","121.454551666667","25.0513633333333","6500500","新莊區"
"242048","751-BX","2017/08/11 20:39:36","新北市新莊區中正路871巷1號","121.418183333333","25.0270583333333","6500500","新莊區"
"242025","615-BX","2017/08/11 20:39:49","新北市三重區疏洪西路399號","121.468951666667","25.0635616666667","6500500","新莊區"
"242023","613-BX","2017/08/11 20:39:52","新北市新莊區化成路127號","121.465583333333","25.047275","6500500","新莊區"
"242027","612-BX","2017/08/11 20:39:44","新北市新莊區思源路63號","121.46","25.04043","6500500","新莊區"
"242037","566-BX","2017/08/11 20:39:35","新北市新莊區建安街16號","121.428598333333","25.0264433333333","6500500","新莊區"
"242041","497-BY","2017/08/11 20:39:52","新北市新莊區天祥街47巷5號","121.416536666667","25.0285666666667","6500500","新莊區"
"242005","442-UM","2017/08/11 20:39:50","新北市新莊區化成路363巷55號","121.46335","25.0568316666667","6500500","新莊區"
"242046","441-UM","2017/08/11 20:39:36","新北市新莊區裕民街136號","121.417941666667","25.022","6500500","新莊區"
"242050","440-UM","2017/08/11 20:39:37","新北市新莊區民安西路173巷7號","121.426578333333","25.0160166666667","6500500","新莊區"
"242032","415-TV","2017/08/11 20:39:52","新北市新莊區新莊路664-2號","121.442365","25.032855","6500500","新莊區"
"242002","413-TV","2017/08/11 20:39:40","新北市新莊區中港路32號","121.455146666667","25.03749","6500500","新莊區"
"242039","400-BY","2017/08/11 20:39:44","新北市新莊區瓊林路204-11號","121.437485","25.0212983333333","6500500","新莊區"
"242060","362-BY","2017/08/11 20:39:41","新北市新莊區新樹路443號","121.432613333333","25.0135633333333","6500500","新莊區"
"242058","353-BY","2017/08/11 20:39:44","新北市新莊區四維路95號","121.423425","25.0237933333333","6500500","新莊區"
"242019","135-UY","2017/08/11 20:39:49","新北市新莊區中港路170號","121.454966666667","25.0416766666667","6500500","新莊區"
"242044","172-VK","2017/08/11 20:39:34","新北市新莊區龍安路108號","121.418356666667","25.02045","6500500","新莊區"
"242007","173-VK","2017/08/11 20:39:49","新北市新莊區思源路123號","121.459793333333","25.0428066666667","6500500","新莊區"
"242013","175-VK","2017/08/11 20:39:38","新北市新莊區中和街191巷1-1號","121.447738333333","25.0512216666667","6500500","新莊區"
"242056","176-VK","2017/08/11 20:39:44","新北市新莊區瓊泰路94巷61號","121.445048333333","25.0294716666667","6500500","新莊區"
"242011","346-TH","2017/08/11 20:39:44","新北市新莊區中榮街122巷3號","121.446518333333","25.0531416666667","6500500","新莊區"
"242034","347-TH","2017/08/11 20:39:46","新北市新莊區中正路334巷25弄2號","121.445353333333","25.035915","6500500","新莊區"
"242017","348-TH","2017/08/11 20:39:51","新北市新莊區中和街64號","121.447773333333","25.0457933333333","6500500","新莊區"
"242054","349-TH","2017/08/11 20:39:51","新北市新莊區民安西路249號","121.426095","25.0135883333333","6500500","新莊區"
"242015","350-TH","2017/08/11 20:39:39","新北市新莊區中和街2號","121.448525","25.0428533333333","6500500","新莊區"
"242009","351-TH","2017/08/11 20:39:43","新北市新莊區幸福路83號","121.456366666667","25.049345","6500500","新莊區"
"238023","601-UM","2017/08/11 20:39:42","新北市樹林區育德街78-1號","121.387516666667","24.9683083333333","6500700","樹林區"
"221008","489-VK","2017/08/11 20:39:40","新北市汐止區康寧街861巷5號","121.645325","25.07615","6501100","汐止區"
"221036","130-UY","2017/08/11 20:39:36","新北市汐止區新昌路35號","121.662355","25.06799","6501100","汐止區"
"221015","131-UY","2017/08/11 20:39:36","新北市汐止區建成路46號","121.66388","25.0728533333333","6501100","汐止區"
"241031","276-VK","2017/08/11 13:16:31","新北市汐止區汐萬路一段256巷3號","121.653423333333","25.0746366666667","6500200","三重區"
"241031","278-VK","2017/08/11 20:39:33","新北市汐止區大同路三段241號","121.672831666667","25.07685","6500200","三重區"
"221023","279-VK","2017/08/11 20:39:45","新北市汐止區翠峰街21巷3弄14號","121.643895","25.0756983333333","6501100","汐止區"
"241031","280-BY","2017/08/11 20:39:48","新北市汐止區橫科路322巷24弄6-1號","121.620363333333","25.05012","6500200","三重區"
"221027","281-BY","2017/08/11 20:39:36","新北市汐止區大同路二段447號","121.659505","25.067595","6501100","汐止區"
"221038","297-VK","2017/08/11 20:39:44","新北市汐止區忠孝東路9號","121.657888333333","25.065695","6501100","汐止區"
"221029","298-VK","2017/08/11 20:39:47","新北市汐止區新台五路一段77號","121.645061666667","25.0615483333333","6501100","汐止區"
"221021","299-VK","2017/08/11 15:21:19","新北市汐止區汐萬路一段256巷1號","121.652011666667","25.07488","6501100","汐止區"
"221031","353-TW","2017/08/11 20:39:45","新北市汐止區中興路27巷4號","121.634993333333","25.0612583333333","6501100","汐止區"
"221035","622-UM","2017/08/11 20:39:43","新北市汐止區長江街101-5號","121.658738333333","25.0731866666667","6501100","汐止區"
"221025","623-UM","2017/08/11 20:39:51","新北市汐止區水源路一段279號","121.654223333333","25.0587433333333","6501100","汐止區"
"221033","647-BX","2017/08/11 20:39:37","新北市汐止區合順街18巷8弄5號","121.620315","25.0419116666667","6501100","汐止區"
"241031","707-TV","2017/08/11 20:39:36","新北市汐止區福德二路169號","121.630841666667","25.0651816666667","6500200","三重區"
"221018","753-BX","2017/08/11 20:39:49","新北市汐止區茄苳路59號","121.666655","25.0707733333333","6501100","汐止區"
"220083","286-VK","2017/08/11 20:39:44","新北市板橋區僑中二街108巷11號","121.445293333333","25.007315","6500100","板橋區"
"220103","561-BX","2017/08/11 20:39:42","新北市板橋區漢生東路63巷1號","121.465826666667","25.0163616666667","6500100","板橋區"
"220070","AAC-253","2017/08/11 20:39:41","新北市板橋區大觀路一段29巷59-5號","121.451643333333","25.007485","6500100","板橋區"
