"lineid","car","time","location","longitude","latitude","cityid","cityname"
"234086","840-RS","2017/08/11 21:09:41","新北市林口區太平里180號","121.367736666667","25.1338316666667","6500400","永和區"
"244025","403-UM","2017/08/11 21:01:03","新北市林口區粉寮69號","121.405126666667","25.0908016666667","6501700","林口區"
"231059","046-UY","2017/08/11 21:09:39","新北市新店區僑信路2巷2號","121.499773333333","24.9534766666667","6500600","新店區"
"231061","047-UY","2017/08/11 21:09:49","新北市新店區永平街31號","121.51665","24.98364","6500600","新店區"
"231060","106-UY","2017/08/11 21:09:40","新北市新店區安康路三段15號","121.493668333333","24.9536266666667","6500600","新店區"
"231051","107-UY","2017/08/11 21:09:52","新北市新店區中正路663巷7弄15號","121.532938333333","24.9900616666667","6500600","新店區"
"231048","108-UY","2017/08/11 21:08:42","新北市新店區文化路26號","121.543748333333","24.97996","6500600","新店區"
"231063","268-BY","2017/08/11 21:09:49","新北市新店區玫瑰路58巷1號","121.49542","24.9465866666667","6500600","新店區"
"231050","AAD-862","2017/08/11 21:09:35","新北市新店區三民路20巷2號","121.537633333333","24.9705633333333","6500600","新店區"
"231067","4772-VM","2017/08/11 21:09:37","新北市新店區安德街148巷42號","121.507681666667","24.9607516666667","6500600","新店區"
"231065","512-UM","2017/08/11 21:09:43","新北市新店區安祥路69巷41弄25號","121.482198333333","24.9612933333333","6500600","新店區"
"231054","513-UM","2017/08/11 21:09:36","新北市新店區大新街7巷26號","121.544073333333","24.9679033333333","6500600","新店區"
"231064","515-UM","2017/08/11 21:09:48","新北市新店區安民街136號","121.516541666667","24.9695","6500600","新店區"
"231040","619-UM","2017/08/11 21:09:38","新北市新店區北新路一段128-3號","121.542106666667","24.9697466666667","6500600","新店區"
"231042","641-BX","2017/08/11 21:09:46","新北市新店區寶興路60巷4號","121.549821666667","24.9718633333333","6500600","新店區"
"231062","720-UM","2017/08/11 21:09:52","新北市新店區安康路二段382號","121.50047","24.957075","6500600","新店區"
"241011","013-R5","2017/08/11 21:09:48","新北市三重區龍濱路114號","121.502193333333","25.0702516666667","6500200","三重區"
"241028","022-UY","2017/08/11 21:09:48","新北市三重區正義南路43號","121.49797","25.0608316666667","6500200","三重區"
"241008","059-VK","2017/08/11 21:09:31","新北市三重區大智街256號","121.489145","25.073435","6500200","三重區"
"241009","060-VK","2017/08/11 21:09:44","新北市三重區忠孝路二段124號","121.483028333333","25.06884","6500200","三重區"
"241031","061-VK","2017/08/11 21:09:51","新北市三重區重新路五段328號","121.477328333333","25.0480433333333","6500200","三重區"
"241015","062-VK","2017/08/11 21:09:46","新北市三重區三和路一段99號","121.50204","25.0663866666667","6500200","三重區"
"241017","063-VK","2017/08/11 21:09:37","新北市三重區國隆路31號","121.492343333333","25.064525","6500200","三重區"
"241024","065-VK","2017/08/11 21:09:49","新北市三重區大勇街49號","121.48133","25.071975","6500200","三重區"
"241002","090-VK","2017/08/11 21:09:47","新北市三重區五華街16號","121.49489","25.08028","6500200","三重區"
"241003","091-VK","2017/08/11 21:09:47","新北市三重區仁義街232號","121.494575","25.0850183333333","6500200","三重區"
"241006","156-TC","2017/08/11 21:09:52","新北市三重區中正北路105號","121.489396666667","25.06333","6500200","三重區"
"241005","262-UM","2017/08/11 21:09:35","新北市三重區三信路182號","121.488025","25.0861683333333","6500200","三重區"
"241025","265-UM","2017/08/11 21:09:45","新北市三重區三民街157巷1號","121.48387","25.064555","6500200","三重區"
"241016","266-UM","2017/08/11 21:09:44","新北市三重區信義西街138號","121.495658333333","25.0643633333333","6500200","三重區"
"241022","267-UM","2017/08/11 21:09:50","新北市三重區中正北路64巷24號","121.48618","25.06368","6500200","三重區"
"241018","268-UM","2017/08/11 21:09:38","新北市三重區正義北路332-1號","121.494373333333","25.07055","6500200","三重區"
"241032","269-UM","2017/08/11 21:09:38","新北市三重區新北大道一段248號","121.481443333333","25.0616066666667","6500200","三重區"
"241013","270-UM","2017/08/11 21:09:34","新北市三重區仁愛街129巷3號","121.495698333333","25.07497","6500200","三重區"
"241026","271-UM","2017/08/11 21:09:33","新北市三重區正義南路181巷1號","121.499355","25.0570883333333","6500200","三重區"
"241007","398-BY","2017/08/11 21:09:46","新北市三重區三和路四段145巷85號","121.486413333333","25.0787283333333","6500200","三重區"
"241004","475-VK","2017/08/11 21:09:38","新北市三重區仁愛街423-1號","121.490376666667","25.0814433333333","6500200","三重區"
"241019","478-VK","2017/08/11 21:09:51","新北市三重區三張街104號","121.48792","25.0699016666667","6500200","三重區"
"241030","480-VK","2017/08/11 21:09:37","新北市三重區五谷王北街20巷15弄1號","121.47507","25.0484883333333","6500200","三重區"
"241014","543-UM","2017/08/11 21:09:44","新北市三重區長安街82-1號","121.501456666667","25.0677166666667","6500200","三重區"
"241023","545-UM","2017/08/11 21:09:54","新北市三重區忠孝路三段50巷41弄66號","121.48225","25.0638233333333","6500200","三重區"
"241001","547-UM","2017/08/11 21:09:53","新北市三重區福隆路44號","121.492376666667","25.0783666666667","6500200","三重區"
"241029","887-TS","2017/08/11 21:09:38","新北市三重區正義南路107號","121.49825","25.0585016666667","6500200","三重區"
"241012","941-UM","2017/08/11 21:09:40","新北市三重區龍門路274巷45號","121.501216666667","25.0755633333333","6500200","三重區"
"241033","AAC-255","2017/08/11 21:09:39","新北市三重區新北大道二段45號","121.47004","25.061365","6500200","三重區"
"235026","800-TS","2017/08/11 21:09:45","新北市中和區員山路36巷16-3號","121.484835","24.9916883333333","6500300","中和區"
"247020","893-R6","2017/08/11 21:09:53","新北市蘆洲區民族路436巷20號","121.472851666667","25.092995","6501400","蘆洲區"
"247010","546-UM","2017/08/11 21:09:44","新北市蘆洲區鷺江街73號","121.477161666667","25.0831183333333","6501400","蘆洲區"
"247018","500-BY","2017/08/11 21:09:36","新北市蘆洲區民族路408巷13號","121.474916666667","25.092095","6501400","蘆洲區"
"247008","339-TH","2017/08/11 21:09:47","新北市蘆洲區民生街30號","121.474766666667","25.0788516666667","6501400","蘆洲區"
"247024","337-TH","2017/08/11 21:09:34","新北市蘆洲區長興路50巷1號","121.463723333333","25.0837783333333","6501400","蘆洲區"
"247002","336-TH","2017/08/11 21:09:38","新北市蘆洲區永平街16號","121.45917","25.0906083333333","6501400","蘆洲區"
"247006","335-TH","2017/08/11 21:09:48","新北市蘆洲區永安南路二段16巷18號","121.467991666667","25.0778683333333","6501400","蘆洲區"
"247014","057-VK","2017/08/11 21:09:52","新北市蘆洲區中央路155號","121.472665","25.0847133333333","6501400","蘆洲區"
"247004","056-VK","2017/08/11 21:09:42","新北市蘆洲區永安南路二段320號","121.457091666667","25.0826566666667","6501400","蘆洲區"
"247022","053-VK","2017/08/11 21:09:52","新北市蘆洲區中正路261號","121.467511666667","25.087405","6501400","蘆洲區"
"247012","007-UY","2017/08/11 21:09:48","新北市蘆洲區復興路66號","121.474678333333","25.0864216666667","6501400","蘆洲區"
"247016","001-UY","2017/08/11 21:09:43","新北市蘆洲區和平路157號","121.466758333333","25.080785","6501400","蘆洲區"
"251009","008-UM","2017/08/11 21:09:43","新北市淡水區民族路112巷38號","121.462015","25.1344366666667","6501000","淡水區"
"251004","009-UM","2017/08/11 21:09:34","新北市淡水區大同路113巷6號","121.46343","25.141575","6501000","淡水區"
"251005","010-UM","2017/08/11 21:09:45","新北市淡水區中正東路35巷23號","121.446708333333","25.1689616666667","6501000","淡水區"
"251013","180-VK","2017/08/11 21:09:40","新北市淡水區行忠路523號","121.466756666667","25.199195","6501000","淡水區"
"251015","182-VK","2017/08/11 21:09:37","新北市淡水區淡金路四段542巷52-2號","121.455575","25.2259","6501000","淡水區"
"251010","413-VK","2017/08/11 21:09:54","新北市淡水區中正路一段63巷11號","121.422235","25.1769783333333","6501000","淡水區"
"251012","441-VK","2017/08/11 21:09:33","新北市淡水區淡金路五段172號","121.457106666667","25.2400316666667","6501000","淡水區"
"251001","559-UM","2017/08/11 21:09:55","新北市淡水區新市一路三段101巷2號","121.446251666667","25.1832466666667","6501000","淡水區"
"251007","577-R6","2017/08/11 21:09:42","新北市淡水區水源街二段194號","121.456821666667","25.1761883333333","6501000","淡水區"
"251011","650-BX","2017/08/11 21:09:47","新北市淡水區新民街180巷7弄10號","121.437423333333","25.1797116666667","6501000","淡水區"
"251002","672-BX","2017/08/11 21:09:42","新北市淡水區學府路172巷21號","121.44783","25.1744083333333","6501000","淡水區"
"251003","673-BX","2017/08/11 21:09:40","新北市淡水區新春街95-3號","121.439615","25.1826483333333","6501000","淡水區"
"236009","165-UM","2017/08/11 14:44:32","新北市土城區永平街51號","121.427941666667","24.95922","6501300","土城區"
"242046","441-UM","2017/08/11 21:09:36","新北市八里區中山路三段382號","121.36846","25.13628","6500500","新莊區"
"242054","349-TH","2017/08/11 21:09:51","新北市新莊區中正路461號","121.442378333333","25.0338416666667","6500500","新莊區"
"241031","276-VK","2017/08/11 13:16:31","新北市汐止區汐萬路一段256巷3號","121.653423333333","25.0746366666667","6500200","三重區"
"221018","753-BX","2017/08/11 21:09:49","新北市汐止區汐萬路一段256巷1號","121.651958333333","25.0748116666667","6501100","汐止區"
"220070","AAC-253","2017/08/11 21:09:41","新北市八里區中山路三段409號","121.36871","25.1345166666667","6500100","板橋區"
