"lineid","car","time","location","longitude","latitude","cityid","cityname"
"244025","403-UM","2017/08/11 21:01:03","新北市林口區粉寮69號","121.405126666667","25.0908016666667","6501700","林口區"
"235026","800-TS","2017/08/11 21:19:08","新北市中和區員山路36巷16-3號","121.484916666667","24.9917483333333","6500300","中和區"
"251004","009-UM","2017/08/11 22:09:34","新北市淡水區民族路33號","121.46226","25.1358283333333","6501000","淡水區"
"251005","010-UM","2017/08/11 22:09:37","新北市淡水區鄧公路19號","121.451355","25.1700316666667","6501000","淡水區"
"251008","181-VK","2017/08/11 22:09:38","新北市淡水區學府路104號","121.449826666667","25.1717933333333","6501000","淡水區"
"251015","182-VK","2017/08/11 22:09:37","新北市淡水區水碓街7號","121.443123333333","25.1771133333333","6501000","淡水區"
"251007","577-R6","2017/08/11 22:09:42","新北市淡水區北新路137號","121.449431666667","25.1788666666667","6501000","淡水區"
"236009","165-UM","2017/08/11 14:44:32","新北市土城區永平街51號","121.427941666667","24.95922","6501300","土城區"
"241031","276-VK","2017/08/11 13:16:31","新北市汐止區汐萬路一段256巷3號","121.653423333333","25.0746366666667","6500200","三重區"
