"lineid","car","time","location","longitude","latitude"
"248003","655-BX","2017/06/05 10:33:35","新北市五股區中興路二段83巷26-6號","121.459715","25.0752566666667"
"244025","837-TS","2017/06/05 09:38:57","新北市林口區粉寮路二段160巷28號","121.4052","25.0907566666667"
"235031","255-BX","2017/06/05 11:45:13","新北市中和區和城路一段271巷1號","121.48552","24.9919966666667"
"227005","282-VK","2017/06/05 11:49:10","新北市雙溪區魚行里丁子蘭坑47號","121.865846666667","24.9989183333333"
"252006","073-UM","2017/06/05 09:23:18","新北市三芝區埔坪里埔頭坑41號","121.504541666667","25.2644566666667"
"220002","741-BX","2017/06/05 10:03:56","新北市板橋區民生路二段36-1號","121.472495","25.0165966666667"
