"lineid","car","time","location","longitude","latitude"
"234005","207-UY","2017/06/05 15:59:17","新北市八里區中華路三段7巷1號","121.397233333333","25.1437283333333"
"244025","837-TS","2017/06/05 09:38:57","新北市林口區粉寮路二段160巷28號","121.4052","25.0907566666667"
"243013","AAD-798","2017/06/05 15:44:11","新北市泰山區黎明路25號","121.422063333333","25.0607833333333"
"243009","297-R6","2017/06/05 15:45:27","新北市泰山區黎明路25號","121.42203","25.060895"
"243015","380-SR","2017/06/05 15:53:58","新北市泰山區犁頭窠3-1號","121.42221","25.0604033333333"
"231025","0291-UT","2017/06/05 15:59:12","新北市新店區薏仁坑路自強巷1號","121.497471666667","24.9576516666667"
"231030","047-UY","2017/06/05 15:59:10","新北市新店區永平街4號","121.51749","24.9835016666667"
"231018","107-UY","2017/06/05 15:59:07","新北市新店區中正路663巷7弄13號","121.532813333333","24.9900233333333"
"231011","108-UY","2017/06/05 15:59:04","新北市新店區自由街2-1號","121.535688333333","24.9756383333333"
"231046","278-BY","2017/06/05 15:59:16","新北市新店區安華路28-1號","121.519738333333","24.9615033333333"
"231014","AAD-862","2017/06/05 15:59:03","新北市新店區中華路141號","121.538295","24.9701133333333"
"231037","4715-K9","2017/06/05 15:59:08","新北市新店區吉安街33號","121.515891666667","24.9660133333333"
"231035","515-UM","2017/06/05 15:59:19","新北市新店區安民街251巷10弄1號","121.516775","24.9727966666667"
"231003","641-BX","2017/06/05 15:59:09","新北市新店區中興路二段139號","121.5467","24.9731183333333"
"231034","645-TV","2017/06/05 15:59:19","新北市新店區吉祥街5巷1號","121.497316666667","24.9478283333333"
"231013","719-UM","2017/06/05 15:59:12","新北市新店區永業路81巷3弄5號","121.530081666667","24.9493583333333"
"231038","AKT-0513","2017/06/05 15:59:02","新北市新店區安康路二段228巷15號","121.50956","24.9599"
"241011","013-R5","2017/06/05 15:59:05","新北市三重區雙園街32號","121.496966666667","25.0680216666667"
"241028","022-UY","2017/06/05 15:59:17","新北市三重區電信街102號","121.495403333333","25.0581416666667"
"241008","059-VK","2017/06/05 15:59:22","新北市三重區重新路四段121號","121.484908333333","25.0519383333333"
"241009","060-VK","2017/06/05 15:59:18","新北市三重區重新路四段121號","121.485005","25.0518966666667"
"241015","062-VK","2017/06/05 15:59:02","新北市三重區重新路四段121號","121.485146666667","25.0520716666667"
"241017","063-VK","2017/06/05 15:59:07","新北市三重區民生街88號","121.489981666667","25.06414"
"241024","065-VK","2017/06/05 15:59:15","新北市三重區中正北路145巷5弄3號","121.484288333333","25.0675516666667"
"241002","090-VK","2017/06/05 15:59:19","新北市三重區長元街105號","121.504633333333","25.0670066666667"
"241005","262-UM","2017/06/05 15:58:58","新北市三重區自強路五段40號","121.493178333333","25.0809733333333"
"241019","265-UM","2017/06/05 15:59:17","新北市三重區重新路四段121號","121.485235","25.0520866666667"
"241016","266-UM","2017/06/05 15:59:09","新北市三重區重新路四段121號","121.485185","25.05207"
"241022","267-UM","2017/06/05 15:59:17","新北市三重區三民街175巷2號","121.483406666667","25.0655166666667"
"241018","268-UM","2017/06/05 15:59:04","新北市三重區大仁街20號","121.491621666667","25.06349"
"241013","270-UM","2017/06/05 15:59:11","新北市三重區正義北路261號","121.495511666667","25.069785"
"241025","271-UM","2017/06/05 15:59:08","新北市三重區三民街195號","121.482113333333","25.065715"
"241007","398-BY","2017/06/05 15:59:14","新北市三重區力行路一段267號","121.482273333333","25.0712666666667"
"241020","412-TH","2017/06/05 15:59:12","新北市三重區忠孝路二段95號","121.484305","25.0700933333333"
"241004","475-VK","2017/06/05 15:59:15","新北市三重區重新路四段121號","121.48488","25.0519416666667"
"241014","543-UM","2017/06/05 15:59:06","新北市三重區重新路四段121號","121.485088333333","25.0520766666667"
"241023","545-UM","2017/06/05 15:59:05","新北市三重區中正北路168-1號","121.484145","25.0660416666667"
"241001","547-UM","2017/06/05 15:59:06","新北市三重區重新路四段121號","121.484538333333","25.052245"
"241006","AAD-863","2017/06/05 15:59:10","新北市三重區重新路四段121號","121.484656666667","25.05215"
"241026","887-TS","2017/06/05 15:59:04","新北市三重區正義南路60-6號","121.498521666667","25.06003"
"241012","941-UM","2017/06/05 15:59:10","新北市三重區正義北路107巷3號","121.497306666667","25.0656566666667"
"241029","942-UM","2017/06/05 15:28:16","新北市三重區泉州街96巷14號","121.495575","25.0541216666667"
"241033","AAC-255","2017/06/05 15:59:11","新北市三重區重新路五段456號","121.474441666667","25.0472116666667"
"235003","097-UM","2017/06/05 15:59:05","新北市林口區汕頭32號","121.366313333333","25.1347483333333"
"235026","800-TS","2017/06/05 15:59:06","新北市中和區橋和路122-1號","121.492703333333","25.0059366666667"
"247008","339-TH","2017/06/05 15:59:02","新北市五股區中興路三段163號","121.449056666667","25.0809883333333"
"224007","273-VK","2017/06/05 15:59:04","新北市瑞芳區楓子瀨路70號","121.767393333333","25.0992183333333"
"224005","271-BY","2017/06/05 10:58:54","新北市瑞芳區大寮路356-1號","121.784585","25.10355"
"227001","642-TC","2017/06/05 15:59:02","新北市雙溪區平林里外平林62號","121.844538333333","25.03492"
"227008","400-TW","2017/06/05 15:59:04","新北市雙溪區三港里雙澳路26號","121.869511666667","25.0482983333333"
"208004","AAC-292","2017/06/05 15:59:23","新北市金山區南勢11號","121.634236666667","25.2167733333333"
"236064","105-UM","2017/06/05 15:59:09","新北市土城區福安街102巷5弄8號","121.41717","24.9647266666667"
"236074","166-UM","2017/06/05 15:59:16","新北市土城區福安街14號","121.420103333333","24.96513"
"236016","401-BY","2017/06/05 15:59:16","新北市土城區金城路三段208號","121.471773333333","24.9895883333333"
"236056","912-UM","2017/06/05 15:59:07","新北市土城區中央路二段99號","121.442181666667","24.9778666666667"
"236044","913-UM","2017/06/05 15:59:20","新北市土城區清水路64號","121.455933333333","24.9815366666667"
"236052","AAC-216","2017/06/05 15:59:11","新北市土城區中華路一段198-1號","121.440481666667","24.98119"
"238002","755-BX","2017/06/05 15:59:18","新北市樹林區啟智街80巷19號","121.418685","24.992525"
"238010","601-UM","2017/06/05 15:59:14","新北市樹林區龍興街32巷29號","121.402038333333","25.015535"
"238006","599-UM","2017/06/05 15:59:05","新北市樹林區水源街32巷45號","121.425343333333","24.9804083333333"
"238005","571-TV","2017/06/05 15:59:17","新北市樹林區鎮前街97巷2-1號","121.424586666667","24.9896983333333"
"238011","5061-A6","2017/06/05 15:59:03","新北市樹林區山佳街57號","121.3929","24.9725466666667"
"238009","312-TH","2017/06/05 15:59:20","新北市樹林區太順街62巷1弄36號","121.41652","24.9788816666667"
"238021","311-TH","2017/06/05 15:59:02","新北市樹林區柑園街二段77號","121.386595","24.9550916666667"
"238012","303-VK","2017/06/05 15:59:17","新北市樹林區保安二街137號","121.42274","24.9955883333333"
"238004","283-BY","2017/06/05 15:59:11","新北市樹林區保安街二段269號","121.41292","25.0052866666667"
"238001","282-BY","2017/06/05 15:59:14","新北市樹林區保安二街37號","121.424835","24.994065"
"238007","268-VK","2017/06/05 15:59:08","新北市樹林區三俊街199巷29-1號","121.420313333333","25.0172983333333"
"238013","172-UY","2017/06/05 15:59:20","新北市樹林區中山路三段125-10號","121.397385","24.9734033333333"
"238003","169-UY","2017/06/05 15:59:15","新北市樹林區日新街156號","121.420263333333","24.9884983333333"
"221010","269-BY","2017/06/05 15:59:11","新北市汐止區汐萬路一段256巷3號","121.652131666667","25.0747766666667"
"220034","630-UY","2017/06/05 15:46:54","新北市板橋區華東街1-10號","121.448508333333","24.99484"
"220003","827-TW","2017/06/05 15:59:11","新北市樹林區八德街247巷24-3號","121.420236666667","24.9734266666667"
