"lineid","car","time","location","longitude","latitude"
"234005","207-UY","2017/06/05 16:09:17","新北市五股區成泰路一段98巷77號","121.451281666667","25.0763516666667"
"244025","837-TS","2017/06/05 09:38:57","新北市林口區粉寮路二段160巷28號","121.4052","25.0907566666667"
"243013","AAD-798","2017/06/05 15:44:11","新北市泰山區黎明路25號","121.422063333333","25.0607833333333"
"243009","297-R6","2017/06/05 15:45:27","新北市泰山區黎明路25號","121.42203","25.060895"
"243015","380-SR","2017/06/05 15:53:58","新北市泰山區犁頭窠3-1號","121.42221","25.0604033333333"
"231025","0291-UT","2017/06/05 16:09:12","新北市新店區安華路3號","121.519186666667","24.959485"
"231030","047-UY","2017/06/05 16:09:10","新北市新店區薏仁坑路自強巷1號","121.497203333333","24.9577916666667"
"231018","107-UY","2017/06/05 16:09:07","新北市新店區中正路680巷51弄25號","121.535383333333","24.9900633333333"
"231046","278-BY","2017/06/05 16:09:16","新北市新店區永業路46號","121.531721666667","24.95377"
"231037","4715-K9","2017/06/05 16:09:08","新北市新店區薏仁坑路6號","121.5001","24.9582166666667"
"231035","515-UM","2017/06/05 16:09:06","新北市新店區薏仁坑路自強巷6號","121.4966","24.95838"
"231034","645-TV","2017/06/05 16:08:59","新北市新店區富貴街20巷17號","121.493191666667","24.9476166666667"
"241011","013-R5","2017/06/05 16:09:05","新北市三重區正義北路366-4號","121.493661666667","25.071435"
"241028","022-UY","2017/06/05 16:09:17","新北市三重區正義南路107號","121.498246666667","25.058565"
"241008","059-VK","2017/06/05 16:09:22","新北市三重區忠孝路三段20號","121.48161","25.0670366666667"
"241009","060-VK","2017/06/05 16:09:18","新北市三重區力行路二段1號","121.482045","25.0718566666667"
"241031","061-VK","2017/06/05 16:09:00","新北市三重區重新路四段121號","121.484648333333","25.0520883333333"
"241015","062-VK","2017/06/05 16:09:02","新北市三重區環河南路99號","121.500726666667","25.057715"
"241017","063-VK","2017/06/05 16:09:07","新北市三重區大同北路148巷2-2號","121.491648333333","25.06489"
"241024","065-VK","2017/06/05 16:09:15","新北市三重區力行路一段48號","121.486025","25.06824"
"241002","090-VK","2017/06/05 16:09:19","新北市三重區仁義街47號","121.498323333333","25.0788416666667"
"241003","091-VK","2017/06/05 16:09:07","新北市三重區自強路五段112號","121.496901666667","25.0835983333333"
"241005","262-UM","2017/06/05 16:09:18","新北市三重區自強路四段53號","121.490035","25.0782216666667"
"241019","265-UM","2017/06/05 16:09:17","新北市三重區重陽路三段2號","121.487843333333","25.0643316666667"
"241016","266-UM","2017/06/05 16:09:09","新北市三重區新北大道一段7號","121.489778333333","25.0612866666667"
"241022","267-UM","2017/06/05 16:09:17","新北市三重區忠孝路三段40巷22弄14號","121.482998333333","25.0664166666667"
"241018","268-UM","2017/06/05 16:09:04","新北市三重區明志街42號","121.49118","25.06379"
"241013","270-UM","2017/06/05 16:09:11","新北市三重區安樂街22號","121.496655","25.0697133333333"
"241025","271-UM","2017/06/05 16:09:08","新北市三重區忠孝路三段40巷18號","121.482243333333","25.0664466666667"
"241007","398-BY","2017/06/05 16:09:14","新北市三重區慈愛街10號","121.484561666667","25.0784033333333"
"241020","412-TH","2017/06/05 16:09:12","新北市三重區三張街272號","121.483706666667","25.07122"
"241004","475-VK","2017/06/05 16:09:15","新北市三重區泉州街84巷18號","121.495818333333","25.0542566666667"
"241014","543-UM","2017/06/05 16:09:06","新北市三重區福德南路152號","121.501161666667","25.0580583333333"
"241023","545-UM","2017/06/05 16:09:05","新北市三重區力行路一段80號","121.484041666667","25.0695283333333"
"241001","547-UM","2017/06/05 16:09:06","新北市三重區忠孝路三段18號","121.48166","25.0671566666667"
"241006","AAD-863","2017/06/05 16:09:10","新北市三重區力行路一段257號","121.482455","25.07099"
"241026","887-TS","2017/06/05 16:09:13","新北市三重區福裕街121號","121.496756666667","25.0613683333333"
"241012","941-UM","2017/06/05 16:09:20","新北市三重區正義北路111號","121.497093333333","25.065785"
"241029","942-UM","2017/06/05 15:28:16","新北市三重區泉州街96巷14號","121.495575","25.0541216666667"
"241033","AAC-255","2017/06/05 16:09:07","新北市三重區五谷王南街11巷23弄21號","121.472396666667","25.0439416666667"
"235003","097-UM","2017/06/05 16:09:05","新北市八里區中山路三段409號","121.368361666667","25.1350216666667"
"235026","800-TS","2017/06/05 16:09:06","新北市中和區永和路191巷19號","121.491358333333","25.0065"
"247008","339-TH","2017/06/05 16:06:52","新北市五股區中興路三段2巷10號","121.449228333333","25.081085"
"224007","273-VK","2017/06/05 16:09:15","新北市瑞芳區粗坑口路86巷14號","121.761181666667","25.0992283333333"
"224005","271-BY","2017/06/05 16:09:19","新北市瑞芳區明燈路二段66號","121.809276666667","25.1076033333333"
"227001","642-TC","2017/06/05 16:09:02","新北市雙溪區上林里內平林18號","121.834563333333","25.0320483333333"
"227008","400-TW","2017/06/05 16:09:04","新北市雙溪區三港里雙澳路69號","121.880851666667","25.0535833333333"
"251004","009-UM","2017/06/05 00:41:05","新北市淡水區中正路二段31號","121.419605","25.1812066666667"
"251008","181-VK","2017/06/05 16:09:04","新北市淡水區中正路二段18號","121.420111666667","25.181145"
"251013","182-VK","2017/06/05 16:09:05","新北市淡水區新民街一段117號","121.428701666667","25.1872683333333"
"236056","912-UM","2017/06/05 16:09:07","新北市土城區中央路三段38號","121.438401666667","24.9687733333333"
"236044","913-UM","2017/06/05 16:09:00","新北市土城區員林街1號","121.44244","24.9781683333333"
"238002","755-BX","2017/06/05 16:09:15","新北市樹林區啟智街86巷9號","121.418336666667","24.9907783333333"
"238010","601-UM","2017/06/05 16:09:14","新北市樹林區龍興街59巷2弄1號","121.40351","25.015245"
"238006","599-UM","2017/06/05 16:09:05","新北市樹林區國凱街136巷4號","121.423431666667","24.980095"
"238005","571-TV","2017/06/05 16:09:20","新北市樹林區博愛街92號","121.426966666667","24.9917516666667"
"238011","5061-A6","2017/06/05 16:09:03","新北市樹林區佳園路一段27號","121.392935","24.9711533333333"
"238009","312-TH","2017/06/05 16:09:06","新北市樹林區太平路150巷23弄20號","121.417231666667","24.9768883333333"
"238021","311-TH","2017/06/05 16:09:02","新北市樹林區柑園街二段175號","121.380466666667","24.9529166666667"
"238012","303-VK","2017/06/05 16:09:11","新北市樹林區保安街一段126號","121.423236666667","24.995035"
"238004","283-BY","2017/06/05 16:09:11","新北市樹林區保安街二段269號","121.412921666667","25.0053466666667"
"238001","282-BY","2017/06/05 16:09:14","新北市樹林區保安二街69號","121.424521666667","24.99504"
"238007","268-VK","2017/06/05 16:09:08","新北市樹林區俊興街286號","121.418661666667","25.017165"
"238013","172-UY","2017/06/05 16:09:21","新北市樹林區佳園路一段81號","121.393316666667","24.9698266666667"
"238003","169-UY","2017/06/05 16:09:15","新北市樹林區復興路373巷7弄12號","121.417805","24.98684"
"221010","269-BY","2017/06/05 16:09:11","新北市汐止區汐萬路一段256巷3號","121.652091666667","25.0747216666667"
"220034","630-UY","2017/06/05 15:46:54","新北市板橋區華東街1-10號","121.448508333333","24.99484"
"220003","827-TW","2017/06/05 16:09:11","新北市板橋區南雅南路二段4巷2號","121.454425","25.0038566666667"
