"lineid","car","time","location","longitude","latitude"
"234086","840-RS","2017/06/05 21:19:07","新北市永和區環河東路三段65號","121.527708333333","25.00562"
"244019","403-UM","2017/06/05 20:37:56","新北市林口區粉寮69號","121.40512","25.0908016666667"
"231059","046-UY","2017/06/05 21:19:01","新北市新店區薏仁坑路6-3號","121.499703333333","24.958665"
"231061","047-UY","2017/06/05 21:19:00","新北市新店區薏仁坑路自強巷1號","121.497665","24.9577016666667"
"231051","107-UY","2017/06/05 21:19:02","新北市新店區中正路680巷33弄1號","121.535081666667","24.98934"
"231063","268-BY","2017/06/05 21:19:09","新北市新店區玫瑰路57巷21號","121.49649","24.9463133333333"
"231050","AAD-862","2017/06/05 21:18:59","新北市新店區中華路117巷2弄1號","121.538291666667","24.9690433333333"
"231040","355-BY","2017/06/05 21:19:15","新北市新店區北新路一段277號","121.541145","24.9668366666667"
"231067","4772-VM","2017/06/05 21:19:00","新北市新店區安德街148巷42號","121.507603333333","24.9608583333333"
"231065","512-UM","2017/06/05 21:19:05","新北市新店區安康路二段458號","121.493993333333","24.9541483333333"
"241011","013-R5","2017/06/05 21:19:05","新北市三重區龍濱路191號","121.501956666667","25.0711766666667"
"241008","059-VK","2017/06/05 21:19:06","新北市三重區自強路一段73號","121.497276666667","25.06686"
"241009","060-VK","2017/06/05 21:19:13","新北市三重區忠孝路二段160號","121.482086666667","25.06796"
"241031","061-VK","2017/06/05 21:19:19","新北市三重區五谷王南街46巷37號","121.475741666667","25.0455316666667"
"241017","063-VK","2017/06/05 21:19:06","新北市三重區大同北路128-1號","121.492561666667","25.0645516666667"
"241024","065-VK","2017/06/05 21:19:15","新北市三重區中正北路145巷14號","121.484123333333","25.0677466666667"
"241002","090-VK","2017/06/05 21:19:18","新北市三重區五華街11號","121.494946666667","25.0803166666667"
"241003","091-VK","2017/06/05 21:19:04","新北市三重區仁義街335號","121.495166666667","25.0847966666667"
"241005","262-UM","2017/06/05 21:19:18","新北市三重區三信路182號","121.488073333333","25.0860683333333"
"241019","265-UM","2017/06/05 21:19:17","新北市三重區重陽路四段2號","121.490288333333","25.06883"
"241016","266-UM","2017/06/05 21:19:01","新北市三重區自強路一段95號","121.495831666667","25.0663416666667"
"241022","267-UM","2017/06/05 21:19:03","新北市三重區新北大道一段7號","121.489616666667","25.06124"
"241018","268-UM","2017/06/05 21:19:04","新北市三重區忠孝路一段101號","121.489421666667","25.07213"
"241032","269-UM","2017/06/05 21:19:03","新北市三重區中興北街47號","121.469525","25.047125"
"241013","270-UM","2017/06/05 21:19:01","新北市三重區仁愛街81號","121.495985","25.0730666666667"
"241007","398-BY","2017/06/05 21:19:14","新北市三重區自強路三段72號","121.486728333333","25.0735333333333"
"241004","475-VK","2017/06/05 21:19:17","新北市三重區仁愛街416號","121.490606666667","25.08136"
"241030","480-VK","2017/06/05 21:19:09","新北市三重區中興南街80巷5號","121.471541666667","25.0437516666667"
"241014","543-UM","2017/06/05 21:19:06","新北市三重區三和路二段173巷55號","121.49948","25.0702066666667"
"241023","545-UM","2017/06/05 21:19:17","新北市三重區中正北路176巷27號","121.482666666667","25.0659716666667"
"241001","547-UM","2017/06/05 21:19:05","新北市三重區福隆路44號","121.492391666667","25.0783983333333"
"241006","AAD-863","2017/06/05 21:19:09","新北市三重區明志街135號","121.489208333333","25.0632383333333"
"241026","887-TS","2017/06/05 21:19:03","新北市三重區大同南路232號","121.49679","25.0561566666667"
"241012","941-UM","2017/06/05 21:19:10","新北市三重區龍門路282號","121.501951666667","25.074085"
"241029","942-UM","2017/06/05 21:19:15","新北市三重區新北大道一段38號","121.48811","25.0614383333333"
"241033","AAC-255","2017/06/05 21:19:06","新北市三重區光復路二段88巷18號","121.471145","25.0574533333333"
"235026","800-TS","2017/06/05 20:34:01","新北市中和區員山路36巷16-3號","121.485011666667","24.9913216666667"
"247020","893-R6","2017/06/05 21:19:17","新北市蘆洲區民族路422巷82弄2號","121.47364","25.09368"
"247010","546-UM","2017/06/05 21:19:06","新北市蘆洲區鷺江街16-2號","121.478836666667","25.0825066666667"
"247018","500-BY","2017/06/05 21:19:19","新北市蘆洲區復興路105巷11號","121.4764","25.088365"
"247006","341-TH","2017/06/05 19:22:14","新北市五股區中興路三段2巷10號","121.448891666667","25.0813683333333"
"247008","339-TH","2017/06/05 21:18:59","新北市蘆洲區民生街31號","121.475483333333","25.0789816666667"
"247024","337-TH","2017/06/05 21:19:01","新北市蘆洲區光明路112號","121.463628333333","25.08814"
"247002","336-TH","2017/06/05 21:19:04","新北市蘆洲區永樂街38巷57弄2號","121.458516666667","25.090195"
"247014","057-VK","2017/06/05 21:19:09","新北市蘆洲區保和街22號","121.470643333333","25.086655"
"247004","056-VK","2017/06/05 21:19:11","新北市蘆洲區永安南路二段324號","121.456956666667","25.0827533333333"
"247006","053-VK","2017/06/05 21:18:13","新北市蘆洲區長安街25號","121.46402","25.0791583333333"
"247012","007-UY","2017/06/05 21:19:13","新北市蘆洲區中興街114號","121.482363333333","25.0888016666667"
"247022","002-UY","2017/06/05 21:19:14","新北市蘆洲區三民路247號","121.468688333333","25.0891583333333"
"247016","001-UY","2017/06/05 21:19:07","新北市蘆洲區中正路185巷19號","121.467443333333","25.0847833333333"
"224011","420-VK","2017/06/05 20:19:37","新北市瑞芳區明燈路二段66號","121.80942","25.107605"
"251004","009-UM","2017/06/05 21:19:11","新北市淡水區民族路33號","121.462315","25.1358033333333"
"251001","011-UM","2017/06/05 21:19:00","新北市淡水區濱海路三段148巷50弄76號","121.430856666667","25.1912483333333"
"251007","179-VK","2017/06/05 21:19:01","新北市淡水區淡金路一段69號","121.458095","25.1734566666667"
"251008","181-VK","2017/06/05 21:19:03","新北市淡水區水源街二段346巷1弄1號","121.464156666667","25.1754983333333"
"251013","182-VK","2017/06/05 21:19:05","新北市淡水區行忠路328號","121.460441666667","25.19962"
"251010","413-VK","2017/06/05 21:19:14","新北市淡水區中正路一段156巷51號","121.42183","25.180945"
"251012","441-VK","2017/06/05 21:19:07","新北市淡水區石頭埔8號","121.45262","25.2345716666667"
"251015","442-VK","2017/06/05 21:19:02","新北市淡水區淡金路四段542巷83弄13號","121.456515","25.226715"
"251005","443-VK","2017/06/05 21:19:09","新北市淡水區博愛街6號","121.446021666667","25.1701966666667"
"251011","650-BX","2017/06/05 21:19:07","新北市淡水區新民街120巷29號","121.43891","25.1788533333333"
"251002","672-BX","2017/06/05 21:19:06","新北市淡水區學府路172巷21號","121.448298333333","25.17504"
"251003","766-UM","2017/06/05 21:19:16","新北市淡水區崁頂15-5號","121.438998333333","25.1858683333333"
"252002","178-VK","2017/06/05 21:08:51","新北市三芝區埔坪里埔頭坑41號","121.504656666667","25.2645966666667"
"242048","751-BX","2017/06/05 21:19:16","新北市樹林區中山路三段208號","121.382735","24.9662583333333"
"242046","441-UM","2017/06/05 21:19:03","新北市樹林區中山路三段214號","121.380278333333","24.968035"
"220034","630-UY","2017/06/05 21:08:58","新北市板橋區華東街1-10號","121.448571666667","24.99484"
"220077","687-BX","2017/06/05 21:19:03","新北市板橋區板城路407號","121.447413333333","24.995065"
