"lineid","car","time","location","longitude","latitude","cityid","cityname"
"232012","291-BY","2017/12/04 06:37:45","新北市坪林區北宜路八段558號","121.71804","24.9092533333333","6502000","坪林區"
"232017","705-BZ","2017/12/04 02:17:23","新北市坪林區北宜路八段558號","121.71783","24.9094","6502000","坪林區"
"232005","758-BX","2017/12/04 06:37:42","新北市坪林區北宜路八段558號","121.718171666667","24.9090783333333","6502000","坪林區"
"223006","022-BY","2017/12/04 06:37:40","新北市石碇區楓子林30號","121.642286666667","25.0097116666667","6501900","石碇區"
"223008","406-TH","2017/12/04 06:37:42","新北市石碇區碇坪路一段149號","121.676313333333","24.9786533333333","6501900","石碇區"
"223001","437-BY","2017/12/04 06:35:24","新北市石碇區小粗坑(潭邊里)10號","121.679186666667","24.98909","6501900","石碇區"
"223007","661-BX","2017/12/04 06:37:45","新北市石碇區石崁1號","121.651793333333","25.00101","6501900","石碇區"
"227005","282-VK","2017/12/04 06:37:45","新北市雙溪區牡丹里聖南32號","121.854085","25.0555733333333","6502500","雙溪區"
"236007","165-UM","2017/12/04 06:37:43","新北市土城區永平街51號","121.427975","24.9591816666667","6501300","土城區"
