"lineid","car","time","location","longitude","latitude","cityid","cityname"
"248005","653-BX","2017/12/04 07:31:46","新北市五股區明德路12巷6號","121.43342","25.071825","6501500","五股區"
"232001","290-BY","2017/12/04 07:31:41","新北市坪林區下坑子口19-2號","121.706996666667","24.9476866666667","6502000","坪林區"
"232012","291-BY","2017/12/04 07:31:45","新北市坪林區金瓜寮3-3號","121.680806666667","24.91786","6502000","坪林區"
"232010","375-UM","2017/12/04 07:31:43","新北市坪林區水聳淒坑18號","121.712451666667","24.9326616666667","6502000","坪林區"
"232017","705-BZ","2017/12/04 07:31:40","新北市坪林區樟空子7-1號","121.725233333333","24.9707266666667","6502000","坪林區"
"232005","758-BX","2017/12/04 07:31:42","新北市坪林區魚堀37-17號","121.699731666667","24.9273966666667","6502000","坪林區"
"244001","657-BX","2017/12/04 07:31:39","新北市林口區頂福里73-6號","121.340663333333","25.0912","6501700","林口區"
"231007","188-VK","2017/12/04 07:31:39","新北市新店區安華路28-1號","121.519428333333","24.9611516666667","6500600","新店區"
"226005","5620-A6","2017/12/04 07:31:37","新北市平溪區嶺腳里中華街34號","121.739241666667","25.025345","6502400","平溪區"
"226001","7418-A5","2017/12/04 07:31:36","新北市平溪區靜安路三段226號","121.77568","25.0395666666667","6502400","平溪區"
"226003","AGD-0702","2017/12/04 07:31:51","新北市平溪區嶺腳里中華街17號","121.739621666667","25.02521","6502400","平溪區"
"223006","022-BY","2017/12/04 07:31:40","新北市石碇區番子坑23號","121.675065","25.0024166666667","6501900","石碇區"
"223002","198-BX","2017/12/04 07:31:36","新北市石碇區北宜路五段大湖巷3號","121.631653333333","24.95002","6501900","石碇區"
"223001","205-TH","2017/12/04 07:31:35","新北市石碇區中楒子腳2-10號","121.63872","24.9717316666667","6501900","石碇區"
"223008","406-TH","2017/12/04 07:31:32","新北市石碇區番子坑36號","121.678116666667","25.01007","6501900","石碇區"
"223001","437-BY","2017/12/04 07:31:44","新北市石碇區內楒仔腳4-1號","121.642155","24.9713216666667","6501900","石碇區"
"223004","660-BX","2017/12/04 07:31:48","新北市石碇區八分寮55-2號","121.644948333333","25.017615","6501900","石碇區"
"223007","661-BX","2017/12/04 07:31:45","新北市石碇區靜安路一段292巷2號","121.691705","25.0060683333333","6501900","石碇區"
"223005","677-TV","2017/12/04 07:31:42","新北市石碇區八分寮31-3號","121.643218333333","25.01211","6501900","石碇區"
"227005","282-VK","2017/12/04 07:31:45","新北市雙溪區雙溪里中正路13號","121.865296666667","25.0365583333333","6502500","雙溪區"
"252006","073-UM","2017/12/04 07:31:41","新北市三芝區埔頭里埔頭38-2號","121.497901666667","25.2607133333333","6502100","三芝區"
"252004","249-BX","2017/12/04 07:31:47","新北市三芝區興華里楓子林50-2號","121.502138333333","25.2107233333333","6502100","三芝區"
"237001","361-BY","2017/12/04 07:31:46","新北市三峽區國慶路142號","121.375823333333","24.9396783333333","6500900","三峽區"
"236007","165-UM","2017/12/04 07:31:43","新北市土城區延壽路2巷5號","121.471886666667","24.9904683333333","6501300","土城區"
"236001","339-SR","2017/12/04 07:31:39","新北市土城區南天母路111巷20號","121.448451666667","24.95574","6501300","土城區"
"242030","AAC-296","2017/12/04 04:21:57","新北市新莊區新泰路357巷3弄57號","121.442246666667","25.0393783333333","6500500","新莊區"
"242028","986-R7","2017/12/04 07:31:39","新北市新莊區新泰路357巷3弄57號","121.442413333333","25.0394833333333","6500500","新莊區"
"242049","751-BX","2017/12/04 07:31:40","新北市新莊區新泰路357巷3弄57號","121.441975","25.0390766666667","6500500","新莊區"
"242022","613-BX","2017/12/04 04:40:35","新北市新莊區新泰路357巷3弄57號","121.44228","25.0394233333333","6500500","新莊區"
"242026","612-BX","2017/12/04 00:11:38","新北市新莊區新泰路357巷3弄57號","121.442005","25.039125","6500500","新莊區"
"242038","566-BX","2017/12/04 01:40:57","新北市新莊區新泰路255巷83號","121.44212","25.0390333333333","6500500","新莊區"
"242052","442-UM","2017/12/04 07:28:18","新北市新莊區新泰路255巷83號","121.442415","25.0389283333333","6500500","新莊區"
"242047","441-UM","2017/12/04 07:31:29","新北市新莊區三和路12-21號","121.442255","25.03786","6500500","新莊區"
"242033","415-TV","2017/12/04 01:28:26","新北市新莊區新泰路357巷3弄57號","121.44214","25.039295","6500500","新莊區"
"242059","362-BY","2017/12/04 07:31:38","新北市新莊區三和路12-21號","121.442093333333","25.0383866666667","6500500","新莊區"
"242057","353-BY","2017/12/04 07:31:35","新北市新莊區三和路12-21號","121.442238333333","25.03866","6500500","新莊區"
"242035","133-UY","2017/12/04 07:31:49","新北市新莊區三和路12-21號","121.441995","25.0387766666667","6500500","新莊區"
"242020","135-UY","2017/12/04 07:31:45","新北市新莊區三和路12-21號","121.442168333333","25.0386833333333","6500500","新莊區"
"242045","172-VK","2017/12/04 05:01:03","新北市新莊區三和路12-21號","121.44207","25.0386933333333","6500500","新莊區"
"242001","173-VK","2017/12/04 00:43:37","新北市新莊區三和路12-21號","121.441928333333","25.0387466666667","6500500","新莊區"
"242014","175-VK","2017/12/04 07:31:41","新北市新莊區三和路12-21號","121.44201","25.0385633333333","6500500","新莊區"
"242012","346-TH","2017/12/04 04:50:02","新北市新莊區三和路12-16號","121.442013333333","25.0374533333333","6500500","新莊區"
"242018","348-TH","2017/12/04 07:31:34","新北市新莊區新泰路357巷3弄57號","121.442026666667","25.03951","6500500","新莊區"
"242010","351-TH","2017/12/04 07:31:41","新北市新莊區新泰路357巷3弄57號","121.442075","25.0394616666667","6500500","新莊區"
"220057","282-UM","2017/12/04 07:31:49","新北市板橋區國光路49巷2號","121.458078333333","25.0180433333333","6500100","板橋區"
