"lineid","car","time","location","longitude","latitude","cityid","cityname"
"248005","653-BX","2017/06/27 08:26:29","新北市五股區明德路10號","121.433496666667","25.0716666666667","6501500","五股區"
"244002","248-BX","2017/06/27 08:39:11","新北市林口區嘉溪雅坑41號","121.315335","25.1213183333333","6501700","林口區"
"222004","289-BY","2017/06/27 08:39:22","新北市深坑區王軍寮1-10號","121.619246666667","24.98923","6501800","深坑區"
"222003","436-BY","2017/06/27 08:39:18","新北市深坑區北深路二段155-3號","121.613496666667","25.0019283333333","6501800","深坑區"
"231009","188-VK","2017/06/27 08:39:24","新北市新店區新烏路三段165巷1號","121.55378","24.9011983333333","6500600","新店區"
"235042","551-UM","2017/06/27 08:39:16","新北市中和區安平路17號","121.509133333333","24.9941366666667","6500300","中和區"
"247002","402-BY","2017/06/27 08:39:24","新北市蘆洲區民族路408巷72號","121.473016666667","25.095065","6501400","蘆洲區"
"226005","5620-A6","2017/06/27 08:39:20","新北市平溪區南山里南山坪21號","121.77273","25.0373783333333","6502400","平溪區"
"226002","7418-A5","2017/06/27 08:39:17","新北市平溪區東勢里芊蓁坑2號","121.746708333333","25.0059833333333","6502400","平溪區"
"226003","AGD-0702","2017/06/27 08:39:26","新北市平溪區十分里十分街238號","121.778061666667","25.0441166666667","6502400","平溪區"
"223006","022-BY","2017/06/27 08:39:26","新北市石碇區靜安路一段97號","121.661445","25.0075433333333","6501900","石碇區"
"223002","198-BX","2017/06/27 08:39:28","新北市石碇區碇格路二段34號","121.638046666667","24.9565183333333","6501900","石碇區"
"223003","205-TH","2017/06/27 08:39:23","新北市石碇區北宜路六段十三股巷1號","121.650043333333","24.945705","6501900","石碇區"
"223008","406-TH","2017/06/27 08:39:21","新北市石碇區串空湖8-2號","121.66919","25.002405","6501900","石碇區"
"223001","592-UM","2017/06/27 08:39:25","新北市石碇區北宜路六段柑腳巷1-1號","121.660486666667","24.9390033333333","6501900","石碇區"
"223004","660-BX","2017/06/27 08:39:24","新北市石碇區崩山24號","121.679338333333","24.96928","6501900","石碇區"
"223007","661-BX","2017/06/27 08:39:15","新北市石碇區靜安路一段138號","121.663895","25.0073966666667","6501900","石碇區"
"223005","677-TV","2017/06/27 08:39:25","新北市石碇區崩山24-2號","121.678596666667","24.96791","6501900","石碇區"
"227009","400-TW","2017/06/27 08:07:37","新北市雙溪區三貂里政光路3-1號","121.850928333333","25.0630516666667","6502500","雙溪區"
"227006","282-VK","2017/06/27 08:39:19","新北市雙溪區上林里大瀨1號","121.829998333333","25.025215","6502500","雙溪區"
"252004","249-BX","2017/06/27 08:39:26","新北市三芝區興華里田心子18-3號","121.494506666667","25.202625","6502100","三芝區"
"252007","AAC-283","2017/06/27 00:11:29","新北市三芝區埔坪里埔頭坑41號","121.504471666667","25.2644566666667","6502100","三芝區"
"237001","159-UY","2017/06/27 01:51:33","新北市三峽區中山路459巷139號","121.350615","24.9325516666667","6500900","三峽區"
"236008","165-UM","2017/06/27 08:39:21","新北市土城區金城路二段46巷1-24號","121.453743333333","24.975145","6501300","土城區"
"236002","339-SR","2017/06/27 08:39:10","新北市土城區中央路四段33號","121.423403333333","24.9621466666667","6501300","土城區"
"236006","498-BY","2017/06/27 08:39:27","新北市土城區永和街27號","121.434988333333","24.9628183333333","6501300","土城區"
