"lineid","car","time","location","longitude","latitude","cityid","cityname"
"248005","653-BX","2017/06/27 09:09:29","新北市五股區水碓路10號","121.433885","25.0722066666667","6501500","五股區"
"222004","289-BY","2017/06/27 09:09:22","新北市深坑區大崙尾1號","121.613856666667","24.97488","6501800","深坑區"
"222003","436-BY","2017/06/27 08:55:13","新北市深坑區深坑街108號","121.613693333333","25.0016283333333","6501800","深坑區"
"231009","188-VK","2017/06/27 09:09:24","新北市新店區廣興路66巷3號","121.538855","24.91369","6500600","新店區"
"235042","551-UM","2017/06/27 09:09:16","新北市中和區忠孝街76號","121.512085","24.9842083333333","6500300","中和區"
"247002","402-BY","2017/06/27 09:09:24","新北市蘆洲區復興路227巷19-1號","121.479413333333","25.0908783333333","6501400","蘆洲區"
"226003","AGD-0702","2017/06/27 09:09:26","新北市平溪區石底里石底街95號","121.73302","25.0236716666667","6502400","平溪區"
"223002","198-BX","2017/06/27 09:09:25","新北市石碇區八分寮31-3號","121.643946666667","25.0122216666667","6501900","石碇區"
"223003","205-TH","2017/06/27 09:09:23","新北市石碇區二格路10號","121.62525","24.963085","6501900","石碇區"
"223008","406-TH","2017/06/27 09:07:20","新北市石碇區光明路16號","121.684021666667","25.0325633333333","6501900","石碇區"
"223004","660-BX","2017/06/27 09:09:24","新北市石碇區磨石坑16-3號","121.687028333333","24.9713283333333","6501900","石碇區"
"223007","661-BX","2017/06/27 09:06:15","新北市石碇區光明路17號","121.684181666667","25.0321333333333","6501900","石碇區"
"223005","677-TV","2017/06/27 09:09:25","新北市石碇區磨石坑33號","121.692663333333","24.9682216666667","6501900","石碇區"
"227009","400-TW","2017/06/27 08:07:37","新北市雙溪區三貂里政光路3-1號","121.850928333333","25.0630516666667","6502500","雙溪區"
"227006","282-VK","2017/06/27 09:09:19","新北市雙溪區上林里內平林133號","121.821138333333","25.0247933333333","6502500","雙溪區"
"252007","050-UM","2017/06/27 09:09:28","新北市鶯歌區中正一路465號","121.371858333333","24.9588483333333","6502100","三芝區"
"252004","249-BX","2017/06/27 09:09:26","新北市三芝區店子里店子30-1號","121.506198333333","25.2090633333333","6502100","三芝區"
"252007","AAC-283","2017/06/27 00:11:29","新北市三芝區埔坪里埔頭坑41號","121.504471666667","25.2644566666667","6502100","三芝區"
"237001","159-UY","2017/06/27 01:51:33","新北市三峽區中山路459巷139號","121.350615","24.9325516666667","6500900","三峽區"
"236008","165-UM","2017/06/27 09:09:21","新北市土城區中央路三段73-2號","121.438706666667","24.96871","6501300","土城區"
"236002","339-SR","2017/06/27 09:09:30","新北市土城區中央路三段185號","121.431126666667","24.9650616666667","6501300","土城區"
"236006","498-BY","2017/06/27 09:09:27","新北市土城區中央路三段76巷47號","121.435555","24.969355","6501300","土城區"
