"lineid","car","time","location","longitude","latitude","cityid","cityname"
"231009","188-VK","2017/06/27 10:29:24","新北市新店區小坑一路12-6號","121.535238333333","24.9126733333333","6500600","新店區"
"247002","402-BY","2017/06/27 10:29:24","新北市五股區成泰路三段553號","121.452068333333","25.101825","6501400","蘆洲區"
"227009","400-TW","2017/06/27 08:07:37","新北市雙溪區三貂里政光路3-1號","121.850928333333","25.0630516666667","6502500","雙溪區"
"227006","282-VK","2017/06/27 10:29:19","新北市雙溪區上林里內平林120-10號","121.823058333333","25.025595","6502500","雙溪區"
"227012","030-BX","2017/06/27 10:29:19","新北市雙溪區泰平里料角坑40號","121.793005","24.959685","6502500","雙溪區"
"252007","050-UM","2017/06/27 10:16:05","新北市鶯歌區鶯桃路30號","121.341991666667","24.9526","6502100","三芝區"
"252007","AAC-283","2017/06/27 00:11:29","新北市三芝區埔坪里埔頭坑41號","121.504471666667","25.2644566666667","6502100","三芝區"
"237001","159-UY","2017/06/27 10:27:13","新北市三峽區大學路156號","121.373553333333","24.9452083333333","6500900","三峽區"
"239001","661-UM","2017/06/27 10:29:19","新北市樹林區中山路三段210-2號","121.381428333333","24.9657366666667","6500800","鶯歌區"
