"lineid","car","time","location","longitude","latitude","cityid","cityname"
"231009","188-VK","2017/06/27 10:39:24","新北市新店區小坑一路71號","121.531395","24.908405","6500600","新店區"
"247002","402-BY","2017/06/27 10:39:24","新北市五股區工商路8號","121.440725","25.0827116666667","6501400","蘆洲區"
"227009","400-TW","2017/06/27 08:07:37","新北市雙溪區三貂里政光路3-1號","121.850928333333","25.0630516666667","6502500","雙溪區"
"227006","282-VK","2017/06/27 10:39:19","新北市雙溪區新基里新基東街15-1號","121.87201","25.041955","6502500","雙溪區"
"227012","030-BX","2017/06/27 10:39:19","新北市雙溪區泰平里料角坑40號","121.792941666667","24.95962","6502500","雙溪區"
"252007","050-UM","2017/06/27 10:39:19","新北市鶯歌區鶯桃路38-1號","121.342003333333","24.9526666666667","6502100","三芝區"
"252007","AAC-283","2017/06/27 00:11:29","新北市三芝區埔坪里埔頭坑41號","121.504471666667","25.2644566666667","6502100","三芝區"
"237001","159-UY","2017/06/27 10:37:33","新北市三峽區國際二街21-5號","121.37315","24.94361","6500900","三峽區"
"239001","661-UM","2017/06/27 10:35:50","新北市樹林區中山路三段210-2號","121.381408333333","24.965755","6500800","鶯歌區"
