"lineid","car","time","location","longitude","latitude","cityid","cityname"
"231009","188-VK","2017/06/27 10:49:04","新北市新店區小坑一路21-1號","121.531075","24.911975","6500600","新店區"
"247002","402-BY","2017/06/27 10:46:22","新北市五股區中興路三段3-6號","121.449545","25.0787266666667","6501400","蘆洲區"
"227009","400-TW","2017/06/27 08:07:37","新北市雙溪區三貂里政光路3-1號","121.850928333333","25.0630516666667","6502500","雙溪區"
"227006","282-VK","2017/06/27 10:49:19","新北市雙溪區新基里新基東街15-2號","121.872515","25.0419883333333","6502500","雙溪區"
"252007","050-UM","2017/06/27 10:49:19","新北市鶯歌區鶯桃路30號","121.341991666667","24.952585","6502100","三芝區"
"252007","AAC-283","2017/06/27 00:11:29","新北市三芝區埔坪里埔頭坑41號","121.504471666667","25.2644566666667","6502100","三芝區"
"237001","159-UY","2017/06/27 10:37:33","新北市三峽區國際二街21-5號","121.37315","24.94361","6500900","三峽區"
"239001","661-UM","2017/06/27 10:47:35","新北市樹林區中山路三段214號","121.380206666667","24.96801","6500800","鶯歌區"
