"lineid","car","time","location","longitude","latitude","cityid","cityname"
"231009","188-VK","2017/06/27 11:28:24","新北市新店區成功路265號","121.528181666667","24.8860283333333","6500600","新店區"
"247002","402-BY","2017/06/27 10:46:22","新北市五股區中興路三段3-6號","121.449545","25.0787266666667","6501400","蘆洲區"
"227009","400-TW","2017/06/27 08:07:37","新北市雙溪區三貂里政光路3-1號","121.850928333333","25.0630516666667","6502500","雙溪區"
"227006","282-VK","2017/06/27 11:29:19","新北市雙溪區魚行里內厝6號","121.890676666667","25.0260033333333","6502500","雙溪區"
"252007","050-UM","2017/06/27 11:29:19","新北市鶯歌區鶯桃路30號","121.341971666667","24.9526083333333","6502100","三芝區"
"252007","AAC-283","2017/06/27 00:11:29","新北市三芝區埔坪里埔頭坑41號","121.504471666667","25.2644566666667","6502100","三芝區"
