"lineid","car","time","location","longitude","latitude","cityid","cityname"
"234044","148-BY","2017/06/27 12:49:16","新北市永和區得和路373巷31弄8號","121.52466","25.0008216666667","6500400","永和區"
"234012","149-BY","2017/06/27 12:49:12","新北市永和區保福路二段118號","121.509843333333","25.0139433333333","6500400","永和區"
"234005","207-UY","2017/06/27 12:49:01","新北市永和區永和路二段218號","121.515681666667","25.0142383333333","6500400","永和區"
"234078","298-R6","2017/06/27 12:49:21","新北市永和區永利路146號","121.522306666667","25.0029416666667","6500400","永和區"
"234036","336-UY","2017/06/27 12:49:08","新北市永和區成功路二段152-2號","121.52653","24.996645","6500400","永和區"
"234062","337-UY","2017/06/27 12:49:06","新北市永和區福和路85號","121.522208333333","25.00781","6500400","永和區"
"234084","338-UY","2017/06/27 12:49:17","新北市永和區中正路83號","121.515163333333","24.9969666666667","6500400","永和區"
"234068","552-UM","2017/06/27 12:49:05","新北市永和區竹林路96巷11號","121.519051666667","25.0120316666667","6500400","永和區"
"234015","745-BX","2017/06/27 12:49:20","新北市永和區永和路二段303號","121.515846666667","25.0164416666667","6500400","永和區"
"234028","746-BX","2017/06/27 12:49:17","新北市永和區得和路327號","121.523485","24.9995966666667","6500400","永和區"
"234060","AAD-866","2017/06/27 12:49:19","新北市永和區福和路297號","121.516505","25.00717","6500400","永和區"
"234040","862-TW","2017/06/27 12:49:05","新北市永和區永貞路306號","121.51184","25.00484","6500400","永和區"
"234048","863-TW","2017/06/27 12:49:05","新北市永和區保安路2號","121.5108","25.017535","6500400","永和區"
"234025","9371-KE","2017/06/27 12:49:02","新北市永和區永平路12巷14號","121.513795","25.0093716666667","6500400","永和區"
"234010","9373-KE","2017/06/27 12:49:09","新北市永和區保福路二段165號","121.509098333333","25.014975","6500400","永和區"
"248017","225-UY","2017/06/27 12:49:06","新北市五股區中興路二段83巷26-6號","121.460103333333","25.0751983333333","6501500","五股區"
"234022","9380-KE","2017/06/27 12:49:19","新北市永和區竹林路119巷45號","121.521833333333","25.01183","6500400","永和區"
"234076","969-R7","2017/06/27 12:49:07","新北市永和區中正路70號","121.513683333333","24.994975","6500400","永和區"
"234072","AAC-211","2017/06/27 12:46:00","新北市永和區福和路1號","121.526536666667","25.0099333333333","6500400","永和區"
"234001","AAC-295","2017/06/27 12:47:55","新北市永和區永和路二段5號","121.514415","25.0100466666667","6500400","永和區"
"231002","002-UM","2017/06/27 12:49:13","新北市新店區安華路28-1號","121.519555","24.9608416666667","6500600","新店區"
"231028","046-UY","2017/06/27 12:49:12","新北市新店區安華路28-1號","121.519566666667","24.9609933333333","6500600","新店區"
"231030","047-UY","2017/06/27 12:49:04","新北市新店區安華路28-1號","121.519265","24.960865","6500600","新店區"
"231018","107-UY","2017/06/27 12:49:15","新北市新店區安華路28-1號","121.519445","24.9611633333333","6500600","新店區"
"231012","108-UY","2017/06/27 12:49:05","新北市新店區安華路28-1號","121.51949","24.9612216666667","6500600","新店區"
"231020","187-VK","2017/06/27 12:49:09","新北市新店區安華路28-1號","121.519533333333","24.9612416666667","6500600","新店區"
"231069","189-VK","2017/06/27 12:01:49","新北市新店區安華路28-1號","121.51977","24.9610933333333","6500600","新店區"
"231010","278-BY","2017/06/27 12:48:40","新北市新店區安華路28-1號","121.519545","24.9611683333333","6500600","新店區"
"231015","AAD-862","2017/06/27 12:49:05","新北市新店區安華路28-1號","121.519718333333","24.961245","6500600","新店區"
"231038","4715-K9","2017/06/27 12:49:05","新北市新店區安華路28-1號","121.519468333333","24.9605783333333","6500600","新店區"
"231036","512-UM","2017/06/27 12:49:18","新北市新店區安華路28-1號","121.519356666667","24.9610383333333","6500600","新店區"
"231023","513-UM","2017/06/27 12:49:10","新北市新店區安華路28-1號","121.519578333333","24.961145","6500600","新店區"
"231035","515-UM","2017/06/27 12:49:16","新北市新店區安華路28-1號","121.519576666667","24.9610966666667","6500600","新店區"
"231003","616-UM","2017/06/27 12:49:12","新北市新店區安華路28-1號","121.519445","24.9605766666667","6500600","新店區"
"231006","617-UM","2017/06/27 12:49:13","新北市新店區安華路28-1號","121.519421666667","24.9608516666667","6500600","新店區"
"231001","619-UM","2017/06/27 12:49:07","新北市新店區安華路28-1號","121.519606666667","24.9609633333333","6500600","新店區"
"231013","719-UM","2017/06/27 12:49:12","新北市新店區安華路28-1號","121.519516666667","24.9614416666667","6500600","新店區"
"231032","720-UM","2017/06/27 12:49:21","新北市新店區安康路一段355-3號","121.519395","24.96154","6500600","新店區"
"231005","897-TW","2017/06/27 12:49:09","新北市新店區安華路28-1號","121.519526666667","24.9607766666667","6500600","新店區"
"231004","899-TW","2017/06/27 12:49:06","新北市新店區安華路28-1號","121.519421666667","24.9608233333333","6500600","新店區"
"231037","AKT-0513","2017/06/27 12:49:20","新北市新店區安華路1-1號","121.51949","24.960495","6500600","新店區"
"235028","005-UY","2017/06/27 12:49:20","新北市中和區員山路36巷16-3號","121.485083333333","24.99139","6500300","中和區"
"235002","185-VK","2017/06/27 12:49:07","新北市中和區員山路36巷16-2號","121.485331666667","24.9917983333333","6500300","中和區"
"235031","255-BX","2017/06/27 12:49:12","新北市中和區中山路二段568巷22號","121.482635","25.0063616666667","6500300","中和區"
"235025","378-QA","2017/06/27 12:47:24","新北市中和區員山路36巷16-2號","121.48533","24.991775","6500300","中和區"
"235035","783-BX","2017/06/27 12:49:05","新北市中和區員山路36巷16-2號","121.485303333333","24.9912016666667","6500300","中和區"
"247002","402-BY","2017/06/27 12:49:07","新北市五股區中興路三段3-6號","121.449636666667","25.0786733333333","6501400","蘆洲區"
"228004","212-TW","2017/06/27 12:49:03","新北市貢寮區吉林里內寮街20-1號","121.889808333333","24.9945866666667","6502600","貢寮區"
"228005","828-UM","2017/06/27 12:47:51","新北市貢寮區福連里福連街34-1號","121.98876","25.0112033333333","6502600","貢寮區"
"227009","400-TW","2017/06/27 08:07:37","新北市雙溪區三貂里政光路3-1號","121.850928333333","25.0630516666667","6502500","雙溪區"
"207002","749-BX","2017/06/27 12:49:09","新北市萬里區雙興里二坪路32號","121.644678333333","25.1686966666667","6502800","萬里區"
"207001","463-BY","2017/06/27 12:49:04","新北市萬里區萬里里瑪鋉頂街34-2號","121.689753333333","25.17939","6502800","萬里區"
"252007","050-UM","2017/06/27 12:00:18","新北市鶯歌區鶯桃路30號","121.341968333333","24.9526016666667","6502100","三芝區"
"252007","AAC-283","2017/06/27 00:11:29","新北市三芝區埔坪里埔頭坑41號","121.504471666667","25.2644566666667","6502100","三芝區"
"236006","498-BY","2017/06/27 12:49:08","新北市土城區永寧路36-1號","121.42803","24.9591233333333","6501300","土城區"
"238020","308-TH","2017/06/27 12:49:18","新北市樹林區育德街76巷1號","121.38876","24.96839","6500700","樹林區"
"221010","276-VK","2017/06/27 12:49:06","新北市汐止區中正路127號","121.660203333333","25.0693166666667","6501100","汐止區"
"221032","280-BY","2017/06/27 12:49:07","新北市汐止區大同路二段533號","121.661785","25.069075","6501100","汐止區"
"221002","753-BX","2017/06/27 12:49:16","新北市汐止區康寧街749號","121.638435","25.0733333333333","6501100","汐止區"
