"lineid","car","time","location","longitude","latitude","cityid","cityname"
"234044","148-BY","2017/06/27 13:19:16","新北市永和區得和路373巷3-1號","121.524725","24.9996766666667","6500400","永和區"
"234012","149-BY","2017/06/27 13:19:12","新北市永和區中興街10巷16號","121.515171666667","25.01109","6500400","永和區"
"234005","207-UY","2017/06/27 13:19:01","新北市永和區中山路一段309號","121.506471666667","25.0065966666667","6500400","永和區"
"234078","298-R6","2017/06/27 13:19:21","新北市永和區林森路10巷31號","121.525853333333","25.00629","6500400","永和區"
"234036","336-UY","2017/06/27 13:19:08","新北市永和區民樂街41巷1號","121.527448333333","25.0001216666667","6500400","永和區"
"234062","337-UY","2017/06/27 13:19:05","新北市永和區永元路17巷6弄2號","121.521376666667","25.0007183333333","6500400","永和區"
"234084","338-UY","2017/06/27 13:19:17","新北市永和區永利路45號","121.519051666667","25.0053683333333","6500400","永和區"
"234068","552-UM","2017/06/27 13:19:05","新北市永和區中正路666巷51號","121.518645","25.009065","6500400","永和區"
"234052","553-UM","2017/06/27 13:19:18","新北市永和區中興街12號","121.515703333333","25.0119683333333","6500400","永和區"
"234015","745-BX","2017/06/27 13:19:20","新北市永和區環河西路一段95巷5號","121.511928333333","25.0176266666667","6500400","永和區"
"234028","746-BX","2017/06/27 13:19:17","新北市永和區四維街85號","121.524725","24.998125","6500400","永和區"
"234060","AAD-866","2017/06/27 13:19:19","新北市永和區秀朗路一段175號","121.517086666667","25.003705","6500400","永和區"
"234040","862-TW","2017/06/27 13:19:05","新北市永和區保平路151巷2弄3號","121.509978333333","25.0054983333333","6500400","永和區"
"234048","863-TW","2017/06/27 13:18:44","新北市永和區保福路二段88巷29號","121.511898333333","25.0137866666667","6500400","永和區"
"234025","9371-KE","2017/06/27 13:19:16","新北市永和區大新街45巷1-1號","121.515591666667","25.0087366666667","6500400","永和區"
"234010","9373-KE","2017/06/27 13:19:09","新北市永和區文化路126巷19號","121.513048333333","25.0160016666667","6500400","永和區"
"248017","225-UY","2017/06/27 13:19:06","新北市五股區御史路120-1號","121.43706","25.0966266666667","6501500","五股區"
"234022","9380-KE","2017/06/27 13:19:18","新北市永和區竹林路91巷15弄1號","121.52025","25.012315","6500400","永和區"
"234076","969-R7","2017/06/27 13:19:08","新北市永和區民有街23巷17號","121.517123333333","24.9966816666667","6500400","永和區"
"234072","AAC-211","2017/06/27 13:19:12","新北市永和區竹林路30-1號","121.516953333333","25.014635","6500400","永和區"
"234001","AAC-295","2017/06/27 13:17:15","新北市永和區保福路一段76號","121.512355","25.0101066666667","6500400","永和區"
"244002","248-BX","2017/06/27 13:19:11","新北市林口區頂福20-16號","121.356951666667","25.0934416666667","6501700","林口區"
"231002","002-UM","2017/06/27 13:19:13","新北市新店區安華路28-1號","121.519661666667","24.960755","6500600","新店區"
"231025","0293-UT","2017/06/27 13:19:07","新北市新店區安康路一段355-3號","121.519751666667","24.9616416666667","6500600","新店區"
"231028","046-UY","2017/06/27 13:19:12","新北市新店區安華路28-1號","121.519591666667","24.9607516666667","6500600","新店區"
"231030","047-UY","2017/06/27 13:19:04","新北市新店區安忠路56巷2號","121.512863333333","24.959235","6500600","新店區"
"231029","106-UY","2017/06/27 13:19:12","新北市新店區安華路28-1號","121.519751666667","24.96084","6500600","新店區"
"231018","107-UY","2017/06/27 13:19:12","新北市新店區環河路29巷1號","121.536518333333","24.961265","6500600","新店區"
"231012","108-UY","2017/06/27 13:19:05","新北市新店區秀山路72號","121.531245","24.9609316666667","6500600","新店區"
"231020","187-VK","2017/06/27 13:19:09","新北市新店區安康路一段75號","121.530176666667","24.9610883333333","6500600","新店區"
"231009","188-VK","2017/06/27 13:19:11","新北市新店區新烏路二段9-1號","121.54537","24.92927","6500600","新店區"
"231069","189-VK","2017/06/27 12:01:49","新北市新店區安華路28-1號","121.51977","24.9610933333333","6500600","新店區"
"231026","256-BX","2017/06/27 13:19:17","新北市新店區安華路30巷1號","121.519543333333","24.9597566666667","6500600","新店區"
"231034","268-BY","2017/06/27 13:19:03","新北市新店區安華路28-1號","121.519395","24.96081","6500600","新店區"
"231010","278-BY","2017/06/27 13:19:00","新北市新店區安康路一段164-1號","121.52601","24.9630233333333","6500600","新店區"
"231015","AAD-862","2017/06/27 13:19:04","新北市新店區安康路一段124號","121.526871666667","24.962685","6500600","新店區"
"231027","3712-VJ","2017/06/27 13:19:06","新北市新店區環河路29巷1-1號","121.535995","24.9610833333333","6500600","新店區"
"231024","3713-VJ","2017/06/27 13:19:10","新北市新店區安康路一段355號","121.519883333333","24.9635366666667","6500600","新店區"
"231038","4715-K9","2017/06/27 13:19:05","新北市新店區安華路1-1號","121.519396666667","24.9604833333333","6500600","新店區"
"231036","512-UM","2017/06/27 13:19:05","新北市新店區安康路二段317-1號","121.499195","24.95657","6500600","新店區"
"231023","513-UM","2017/06/27 13:19:10","新北市新店區安康路一段129號","121.528058333333","24.9618633333333","6500600","新店區"
"231035","515-UM","2017/06/27 13:19:15","新北市新店區安華路28-1號","121.519566666667","24.961385","6500600","新店區"
"231003","616-UM","2017/06/27 13:19:12","新北市新店區力行路11巷57號","121.538638333333","24.96176","6500600","新店區"
"231006","617-UM","2017/06/27 13:19:13","新北市新店區安華路28-1號","121.519413333333","24.9609683333333","6500600","新店區"
"231001","619-UM","2017/06/27 13:19:06","新北市新店區安華路28-1號","121.519455","24.9608083333333","6500600","新店區"
"231013","719-UM","2017/06/27 13:19:12","新北市新店區安康路一段238號","121.521986666667","24.9637583333333","6500600","新店區"
"231032","720-UM","2017/06/27 13:19:01","新北市新店區安華路28-1號","121.519285","24.9612366666667","6500600","新店區"
"231005","897-TW","2017/06/27 13:19:09","新北市新店區安華路28-1號","121.519678333333","24.960825","6500600","新店區"
"231004","899-TW","2017/06/27 13:19:06","新北市新店區安華路28-1號","121.51922","24.9608816666667","6500600","新店區"
"231037","AKT-0513","2017/06/27 13:19:20","新北市新店區安豐路30-1號","121.500665","24.9569083333333","6500600","新店區"
"235030","003-UY","2017/06/27 13:19:15","新北市中和區中山路二段64巷12號","121.503516666667","25.00517","6500300","中和區"
"235028","005-UY","2017/06/27 13:19:20","新北市中和區中正路158號","121.49859","24.9938783333333","6500300","中和區"
"235027","006-UY","2017/06/27 13:19:11","新北市中和區員山路36巷16-3號","121.485041666667","24.9912966666667","6500300","中和區"
"235026","031-BX","2017/06/27 13:19:19","新北市中和區景平路989巷11號","121.495578333333","25.0051433333333","6500300","中和區"
"235003","097-UM","2017/06/27 13:19:04","新北市中和區中正路273-1號","121.49564","24.9936216666667","6500300","中和區"
"235004","150-BY","2017/06/27 13:19:14","新北市中和區中正路21號","121.502738333333","24.99349","6500300","中和區"
"235022","151-BY","2017/06/27 13:19:20","新北市中和區圓通路367巷62-8號","121.493311666667","24.9829783333333","6500300","中和區"
"235019","183-VK","2017/06/27 13:19:16","新北市中和區員山路36巷16-3號","121.485078333333","24.9913483333333","6500300","中和區"
"235002","185-VK","2017/06/27 13:19:07","新北市中和區大智街6號","121.520156666667","24.99191","6500300","中和區"
"235031","255-BX","2017/06/27 13:19:12","新北市中和區員山路148巷39-4號","121.482526666667","24.997175","6500300","中和區"
"235036","301-VK","2017/06/27 13:19:14","新北市中和區員山路36巷16-3號","121.484698333333","24.9914216666667","6500300","中和區"
"235007","352-BY","2017/06/27 13:19:02","新北市中和區錦和路350-1號","121.49056","24.9935833333333","6500300","中和區"
"235015","376-QA","2017/06/27 13:19:17","新北市中和區信義街41巷2號","121.511375","24.9890383333333","6500300","中和區"
"235032","377-QA","2017/06/27 13:19:12","新北市中和區員山路36巷16-3號","121.48508","24.9912133333333","6500300","中和區"
"235025","378-QA","2017/06/27 13:19:04","新北市土城區延壽路32-5號","121.47096","24.9912716666667","6500300","中和區"
"235014","4979-A6","2017/06/27 13:19:02","新北市中和區捷運路61巷28號","121.509071666667","24.9891816666667","6500300","中和區"
"235033","4980-A6","2017/06/27 13:19:03","新北市中和區安邦街12號","121.495891666667","24.9982716666667","6500300","中和區"
"235006","551-UM","2017/06/27 13:19:22","新北市中和區景平路159巷62號","121.512986666667","24.991075","6500300","中和區"
"235009","565-BX","2017/06/27 13:18:57","新北市中和區錦和路350-1號","121.490528333333","24.99356","6500300","中和區"
"235018","640-BX","2017/06/27 13:19:10","新北市中和區莒光路165號","121.472773333333","25.0001716666667","6500300","中和區"
"235011","732-UM","2017/06/27 13:19:06","新北市中和區中正路458號","121.490573333333","24.994195","6500300","中和區"
"235035","783-BX","2017/06/27 13:19:05","新北市中和區永和路333巷1-6號","121.485131666667","25.0113883333333","6500300","中和區"
"235005","802-TS","2017/06/27 13:19:06","新北市中和區景平路363號","121.504475","24.993455","6500300","中和區"
"235016","805-TS","2017/06/27 13:19:14","新北市中和區中正路275號","121.495508333333","24.993695","6500300","中和區"
"235012","896-TW","2017/06/27 13:19:18","新北市中和區員山路36巷16-8號","121.4854","24.9922133333333","6500300","中和區"
"235017","900-TW","2017/06/27 13:19:14","新北市中和區員山路36巷16-2號","121.485295","24.9915716666667","6500300","中和區"
"235001","AAC-213","2017/06/27 13:19:16","新北市中和區景平路155號","121.513593333333","24.992305","6500300","中和區"
"247002","402-BY","2017/06/27 13:19:07","新北市蘆洲區三民路251號","121.468303333333","25.0892716666667","6501400","蘆洲區"
"228004","212-TW","2017/06/27 13:19:03","新北市貢寮區吉林里內寮街35-2號","121.900385","24.981895","6502600","貢寮區"
"228005","828-UM","2017/06/27 13:18:21","新北市貢寮區美豐里丹裡街51-6號","121.912878333333","25.0571916666667","6502600","貢寮區"
"227009","400-TW","2017/06/27 08:07:37","新北市雙溪區三貂里政光路3-1號","121.850928333333","25.0630516666667","6502500","雙溪區"
"207002","749-BX","2017/06/27 13:19:09","新北市萬里區崁腳里崁腳路166號","121.645121666667","25.1560516666667","6502800","萬里區"
"207001","463-BY","2017/06/27 13:19:05","新北市萬里區龜吼里玉田路56-1號","121.680638333333","25.1932683333333","6502800","萬里區"
"252007","050-UM","2017/06/27 13:18:01","新北市鶯歌區鶯桃路30號","121.342105","24.9525033333333","6502100","三芝區"
"252005","AAC-283","2017/06/27 00:11:29","新北市三芝區埔坪里埔頭坑41號","121.504471666667","25.2644566666667","6502100","三芝區"
"236006","498-BY","2017/06/27 13:19:08","新北市土城區大安路138巷22號","121.434105","24.97133","6501300","土城區"
"242044","172-VK","2017/06/27 13:19:12","新北市新莊區福營路397號","121.42236","25.02602","6500500","新莊區"
"238020","308-TH","2017/06/27 13:19:18","新北市樹林區八德街247巷24-3號","121.419628333333","24.9734933333333","6500700","樹林區"
"221010","276-VK","2017/06/27 13:19:06","新北市汐止區汐萬路一段256巷3號","121.653226666667","25.074515","6501100","汐止區"
"221032","280-BY","2017/06/27 13:19:07","新北市汐止區水源路一段56號","121.657445","25.0655616666667","6501100","汐止區"
"221038","646-BX","2017/06/27 13:19:07","新北市汐止區新台五路一段207號","121.656718333333","25.0635966666667","6501100","汐止區"
"221002","753-BX","2017/06/27 13:19:16","新北市汐止區福德一路392巷44號","121.626623333333","25.0624966666667","6501100","汐止區"
"220030","610-BX","2017/06/27 13:19:04","新北市板橋區華東街1-9號","121.448256666667","24.9949033333333","6500100","板橋區"
"220016","568-UM","2017/06/27 13:19:05","新北市板橋區民生路二段15-1號","121.47279","25.016455","6500100","板橋區"
"220011","609-BX","2017/06/27 13:19:17","新北市板橋區民生路二段22號","121.4727","25.0165733333333","6500100","板橋區"
"220005","686-BX","2017/06/27 13:19:20","新北市板橋區民生路二段22號","121.472768333333","25.0166433333333","6500100","板橋區"
