"lineid","car","time","location","longitude","latitude","cityid","cityname"
"234044","148-BY","2017/06/27 13:59:16","新北市永和區成功路一段16巷3號","121.52663","25.0054216666667","6500400","永和區"
"234012","149-BY","2017/06/27 13:59:12","新北市永和區仁愛路271號","121.506081666667","25.0098566666667","6500400","永和區"
"234005","207-UY","2017/06/27 13:59:01","新北市中和區中和路234號","121.506828333333","24.9994883333333","6500400","永和區"
"234078","298-R6","2017/06/27 13:59:15","新北市永和區林森路112巷12弄2號","121.522316666667","25.004315","6500400","永和區"
"234036","336-UY","2017/06/27 13:59:08","新北市永和區成功路一段116號","121.526816666667","25.0024383333333","6500400","永和區"
"234062","337-UY","2017/06/27 13:59:05","新北市永和區秀朗路一段196巷8號","121.519733333333","25.00268","6500400","永和區"
"234084","338-UY","2017/06/27 13:59:17","新北市永和區福和路158號","121.521511666667","25.00795","6500400","永和區"
"234068","552-UM","2017/06/27 13:59:14","新北市永和區大新街109巷2號","121.518463333333","25.0079433333333","6500400","永和區"
"234052","553-UM","2017/06/27 13:59:18","新北市永和區竹林路39巷46號","121.520191666667","25.0152666666667","6500400","永和區"
"234015","745-BX","2017/06/27 13:59:00","新北市永和區文化路84號","121.51398","25.01518","6500400","永和區"
"234028","746-BX","2017/06/27 13:58:57","新北市永和區民生路22巷21號","121.521438333333","24.9969633333333","6500400","永和區"
"234060","AAD-866","2017/06/27 13:58:59","新北市永和區中正路151巷1-1號","121.516313333333","24.99831","6500400","永和區"
"234040","862-TW","2017/06/27 13:59:05","新北市永和區雙和街64巷25號","121.509665","25.0033033333333","6500400","永和區"
"234048","863-TW","2017/06/27 13:59:05","新北市永和區保安路246號","121.50654","25.0126083333333","6500400","永和區"
"234025","9371-KE","2017/06/27 13:59:02","新北市永和區安樂路272巷7弄1號","121.514903333333","25.0043033333333","6500400","永和區"
"234010","9373-KE","2017/06/27 13:59:09","新北市永和區仁愛路352巷92弄18號","121.50138","25.008315","6500400","永和區"
"248017","225-UY","2017/06/27 13:59:06","新北市五股區民義路一段310-13號","121.423811666667","25.0943366666667","6501500","五股區"
"234022","9380-KE","2017/06/27 13:59:03","新北市永和區博愛街32巷17-1號","121.518828333333","25.015315","6500400","永和區"
"234076","969-R7","2017/06/27 13:59:07","新北市永和區民族街61號","121.518306666667","24.9978783333333","6500400","永和區"
"234072","AAC-211","2017/06/27 13:59:12","新北市永和區豫溪街158號","121.523213333333","25.00977","6500400","永和區"
"234066","AAC-212","2017/06/27 13:59:06","新北市永和區中山路一段281巷2弄1號","121.50735","25.0066233333333","6500400","永和區"
"234001","AAC-295","2017/06/27 13:56:55","新北市永和區福和路351號","121.515153333333","25.0071516666667","6500400","永和區"
"231002","002-UM","2017/06/27 13:59:13","新北市新店區中正路610號","121.533975","24.98846","6500600","新店區"
"231025","0291-UT","2017/06/27 13:59:13","新北市新店區中華路145號","121.538315","24.9702683333333","6500600","新店區"
"231028","046-UY","2017/06/27 13:59:12","新北市新店區安和路三段83號","121.51782","24.983825","6500600","新店區"
"231030","047-UY","2017/06/27 13:59:04","新北市新店區安民街65巷21-2號","121.51515","24.9674683333333","6500600","新店區"
"231029","106-UY","2017/06/27 13:59:12","新北市新店區安和路一段9號","121.516798333333","24.9640233333333","6500600","新店區"
"231018","107-UY","2017/06/27 13:59:12","新北市新店區中央路116號","121.531071666667","24.97511","6500600","新店區"
"231012","108-UY","2017/06/27 13:59:20","新北市新店區五峰路93號","121.546131666667","24.96738","6500600","新店區"
"231020","187-VK","2017/06/27 13:59:09","新北市新店區頂石厝路16號","121.536178333333","24.920435","6500600","新店區"
"231069","189-VK","2017/06/27 12:01:49","新北市新店區安華路28-1號","121.51977","24.9610933333333","6500600","新店區"
"231026","256-BX","2017/06/27 13:58:58","新北市新店區安康路一段194號","121.52457","24.9633666666667","6500600","新店區"
"231034","268-BY","2017/06/27 13:59:03","新北市新店區達觀路8巷2號","121.504116666667","24.9425883333333","6500600","新店區"
"231015","AAD-862","2017/06/27 13:59:04","新北市新店區北宜路二段335號","121.557546666667","24.95395","6500600","新店區"
"231027","3712-VJ","2017/06/27 13:59:06","新北市新店區北宜路一段3號","121.538485","24.9584","6500600","新店區"
"231024","3713-VJ","2017/06/27 13:59:10","新北市新店區北新路一段271巷22號","121.540195","24.967155","6500600","新店區"
"231038","4715-K9","2017/06/27 13:59:05","新北市新店區溪洲路121號","121.53118","24.9629016666667","6500600","新店區"
"231036","512-UM","2017/06/27 13:59:04","新北市新店區安祥路109巷1弄59號","121.478188333333","24.960835","6500600","新店區"
"231023","513-UM","2017/06/27 13:59:10","新北市新店區文中路40號","121.539788333333","24.95653","6500600","新店區"
"231035","515-UM","2017/06/27 13:59:15","新北市新店區安和路一段52巷2號","121.517601666667","24.966065","6500600","新店區"
"231003","616-UM","2017/06/27 13:59:12","新北市新店區中興路一段115號","121.541411666667","24.9626983333333","6500600","新店區"
"231006","617-UM","2017/06/27 13:59:13","新北市新店區北宜路二段209號","121.553183333333","24.9533216666667","6500600","新店區"
"231001","619-UM","2017/06/27 13:59:06","新北市新店區三民路24號","121.53715","24.9710033333333","6500600","新店區"
"231013","719-UM","2017/06/27 13:59:12","新北市新店區明德路111號","121.54153","24.97948","6500600","新店區"
"231032","720-UM","2017/06/27 13:59:01","新北市新店區華城路34-1號","121.528956666667","24.9566283333333","6500600","新店區"
"231005","897-TW","2017/06/27 13:59:09","新北市新店區中興路三段172號","121.5443","24.9809966666667","6500600","新店區"
"231004","899-TW","2017/06/27 13:59:06","新北市新店區北新路二段108號","121.543003333333","24.974395","6500600","新店區"
"231037","AKT-0513","2017/06/27 13:59:08","新北市新店區安康路三段242號","121.487813333333","24.9517766666667","6500600","新店區"
"235030","003-UY","2017/06/27 13:59:15","新北市中和區光華街20號","121.504355","25.00412","6500300","中和區"
"235028","005-UY","2017/06/27 13:59:10","新北市中和區泰和街27號","121.499293333333","24.999915","6500300","中和區"
"235027","006-UY","2017/06/27 13:59:11","新北市中和區中正路504號","121.48876","24.9944366666667","6500300","中和區"
"235026","031-BX","2017/06/27 13:58:59","新北市中和區中山路二段362-6號","121.4924","25.002945","6500300","中和區"
"235020","096-UM","2017/06/27 13:59:00","新北市中和區中正路1222號","121.479703333333","25.0109333333333","6500300","中和區"
"235003","097-UM","2017/06/27 13:59:04","新北市中和區景平路64巷13弄22號","121.521558333333","24.9914583333333","6500300","中和區"
"235004","150-BY","2017/06/27 13:59:15","新北市中和區保健路61巷1號","121.509563333333","24.9972683333333","6500300","中和區"
"235022","151-BY","2017/06/27 13:59:00","新北市中和區連城路583巷1號","121.478811666667","24.9941066666667","6500300","中和區"
"235019","183-VK","2017/06/27 13:58:56","新北市板橋區國泰街75巷53號","121.468666666667","25.00506","6500300","中和區"
"235002","185-VK","2017/06/27 13:59:07","新北市中和區立人街14巷10號","121.519463333333","24.9950816666667","6500300","中和區"
"235013","186-VK","2017/06/27 13:59:01","新北市中和區景新街210巷2弄2號","121.507025","24.99417","6500300","中和區"
"235031","255-BX","2017/06/27 13:59:12","新北市中和區民樂路47號","121.483533333333","25.0016166666667","6500300","中和區"
"235008","293-VK","2017/06/27 13:59:09","新北市中和區復興路280巷36弄2號","121.501466666667","24.99188","6500300","中和區"
"235036","301-VK","2017/06/27 13:59:14","新北市永和區保平路268巷51弄12號","121.50623","25.0063866666667","6500300","中和區"
"235007","352-BY","2017/06/27 13:59:02","新北市中和區成功路1號","121.526411666667","24.9943583333333","6500300","中和區"
"235015","376-QA","2017/06/27 13:59:17","新北市中和區忠孝街19巷8號","121.51013","24.983205","6500300","中和區"
"235032","377-QA","2017/06/27 13:59:12","新北市中和區圓通路289號","121.495225","24.9926033333333","6500300","中和區"
"235025","378-QA","2017/06/27 13:59:03","新北市中和區民享街59巷1號","121.474286666667","25.0025733333333","6500300","中和區"
"235014","4979-A6","2017/06/27 13:59:02","新北市中和區興南路二段49號","121.507355","24.9853466666667","6500300","中和區"
"235033","4980-A6","2017/06/27 13:59:02","新北市中和區圓通路109號","121.499411666667","24.99659","6500300","中和區"
"235006","551-UM","2017/06/27 13:59:02","新北市中和區秀朗路三段22巷5號","121.525923333333","24.99625","6500300","中和區"
"235034","558-UM","2017/06/27 13:58:57","新北市中和區圓通路14號","121.501518333333","24.99805","6500300","中和區"
"235009","565-BX","2017/06/27 13:59:17","新北市中和區景新街421號","121.51288","24.9891183333333","6500300","中和區"
"235018","640-BX","2017/06/27 13:59:10","新北市中和區民享街29-1號","121.47401","25.0043116666667","6500300","中和區"
"235024","647-TV","2017/06/27 13:59:14","新北市中和區中山路三段152號","121.473526666667","25.0062466666667","6500300","中和區"
"235011","732-UM","2017/06/27 13:59:06","新北市中和區興南路二段54巷2-4號","121.506091666667","24.9855083333333","6500300","中和區"
"235010","733-UM","2017/06/27 13:59:13","新北市中和區興南路二段11號","121.508236666667","24.9861216666667","6500300","中和區"
"235035","783-BX","2017/06/27 13:59:05","新北市中和區立德街12號","121.490171666667","25.0066533333333","6500300","中和區"
"235021","801-TS","2017/06/27 13:59:14","新北市中和區民利街58巷5號","121.478715","24.9993966666667","6500300","中和區"
"235005","802-TS","2017/06/27 13:59:06","新北市中和區永貞路225號","121.513513333333","25.003655","6500300","中和區"
"235016","805-TS","2017/06/27 13:59:14","新北市中和區興南路二段261巷7-1號","121.503156666667","24.9798666666667","6500300","中和區"
"235012","896-TW","2017/06/27 13:59:18","新北市中和區華新街33號","121.507811666667","24.98476","6500300","中和區"
"235017","900-TW","2017/06/27 13:59:14","新北市中和區民德路292號","121.467501666667","24.9957","6500300","中和區"
"235001","AAC-213","2017/06/27 13:59:16","新北市中和區景平路73號","121.518993333333","24.9913666666667","6500300","中和區"
"235023","AAC-215","2017/06/27 13:59:13","新北市中和區圓通路369巷19弄7號","121.491311666667","24.9883016666667","6500300","中和區"
"220013","072-UY","2017/06/27 13:59:15","新北市板橋區民族路247巷9弄6號","121.471215","25.0080133333333","6500100","板橋區"
"220034","073-UY","2017/06/27 13:59:17","新北市板橋區中正路234-1號","121.455705","25.018975","6500100","板橋區"
"220105","075-UY","2017/06/27 13:59:07","新北市板橋區文化路二段4號","121.468598333333","25.0239033333333","6500100","板橋區"
"247019","893-R6","2017/06/27 13:59:10","新北市蘆洲區民族路422巷84-1號","121.473606666667","25.0938033333333","6501400","蘆洲區"
"247009","546-UM","2017/06/27 13:58:59","新北市蘆洲區集賢路224巷27號","121.48171","25.08712","6501400","蘆洲區"
"247017","500-BY","2017/06/27 13:59:12","新北市蘆洲區民族路327巷73號","121.47528","25.089805","6501400","蘆洲區"
"247002","402-BY","2017/06/27 13:59:07","新北市蘆洲區民族路42號","121.476706666667","25.084355","6501400","蘆洲區"
"247007","339-TH","2017/06/27 13:59:10","新北市三重區永安北路一段13號","121.476135","25.0748733333333","6501400","蘆洲區"
"247001","336-TH","2017/06/27 13:59:10","新北市蘆洲區永平街32巷74號","121.460433333333","25.09366","6501400","蘆洲區"
"247005","335-TH","2017/06/27 13:59:18","新北市蘆洲區永安南路二段60-1號","121.465265","25.0779633333333","6501400","蘆洲區"
"247013","057-VK","2017/06/27 13:59:08","新北市蘆洲區中正路168號","121.468753333333","25.0858633333333","6501400","蘆洲區"
"247003","056-VK","2017/06/27 13:59:12","新北市蘆洲區長榮路19-1號","121.463601666667","25.0823116666667","6501400","蘆洲區"
"247011","007-UY","2017/06/27 13:58:59","新北市蘆洲區民族路154號","121.479718333333","25.0860733333333","6501400","蘆洲區"
"247021","002-UY","2017/06/27 13:59:16","新北市蘆洲區中正路263巷2號","121.467373333333","25.08743","6501400","蘆洲區"
"247015","001-UY","2017/06/27 13:59:14","新北市蘆洲區光華路42號","121.468916666667","25.0831716666667","6501400","蘆洲區"
"228004","212-TW","2017/06/27 13:59:18","新北市貢寮區龍崗里嵩陽街35-5號","121.90719","25.0175783333333","6502600","貢寮區"
"228005","828-UM","2017/06/27 13:58:30","新北市貢寮區美豐里雞母嶺街52-1號","121.888605","25.0682233333333","6502600","貢寮區"
"227009","400-TW","2017/06/27 08:07:37","新北市雙溪區三貂里政光路3-1號","121.850928333333","25.0630516666667","6502500","雙溪區"
"207002","749-BX","2017/06/27 13:59:09","新北市萬里區溪底里溪底路9-1號","121.620426666667","25.1487183333333","6502800","萬里區"
"207001","463-BY","2017/06/27 13:59:04","新北市萬里區磺潭里清水18號","121.637811666667","25.1977466666667","6502800","萬里區"
"252007","050-UM","2017/06/27 13:26:20","新北市鶯歌區鶯桃路30號","121.342053333333","24.9525483333333","6502100","三芝區"
"252005","AAC-283","2017/06/27 00:11:29","新北市三芝區埔坪里埔頭坑41號","121.504471666667","25.2644566666667","6502100","三芝區"
"236065","105-UM","2017/06/27 13:59:11","新北市土城區中正路69號","121.44465","24.975695","6501300","土城區"
"236041","107-UM","2017/06/27 13:58:59","新北市土城區裕生路61號","121.44762","24.9860466666667","6501300","土城區"
"236075","166-UM","2017/06/27 13:58:56","新北市土城區永寧路51號","121.429786666667","24.96143","6501300","土城區"
"236029","253-BX","2017/06/27 13:59:06","新北市土城區興城路75號","121.440071666667","24.9707333333333","6501300","土城區"
"236025","269-VK","2017/06/27 13:59:07","新北市土城區承天路18號","121.43939","24.9633733333333","6501300","土城區"
"236013","270-VK","2017/06/27 13:59:10","新北市土城區中華路二段2號","121.439258333333","24.979645","6501300","土城區"
"236034","271-VK","2017/06/27 13:59:07","新北市土城區城林路6巷80號","121.43836","24.9798066666667","6501300","土城區"
"236017","401-BY","2017/06/27 13:59:18","新北市土城區城林路6巷80號","121.438591666667","24.9797266666667","6501300","土城區"
"236006","498-BY","2017/06/27 13:59:08","新北市土城區中央路一段71號","121.447641666667","24.989695","6501300","土城區"
"236057","912-UM","2017/06/27 13:59:00","新北市土城區永寧路1號","121.430551666667","24.9648716666667","6501300","土城區"
"236045","913-UM","2017/06/27 13:59:09","新北市土城區中華路二段2號","121.439445","24.9796066666667","6501300","土城區"
"236061","915-UM","2017/06/27 13:59:00","新北市土城區城林路6巷80號","121.438368333333","24.97977","6501300","土城區"
"236054","AAC-216","2017/06/27 13:59:09","新北市土城區中央路二段280號","121.440743333333","24.97394","6501300","土城區"
"242044","172-VK","2017/06/27 13:59:12","新北市樹林區中山路三段206-3號","121.382843333333","24.9663583333333","6500500","新莊區"
"238020","308-TH","2017/06/27 13:59:16","新北市樹林區八德街263-1號","121.419403333333","24.9736933333333","6500700","樹林區"
"221010","276-VK","2017/06/27 13:21:27","新北市汐止區汐萬路一段256巷3號","121.653423333333","25.0746033333333","6501100","汐止區"
"220027","145-BY","2017/06/27 13:59:16","新北市板橋區民權路202巷9弄22號","121.459555","25.0156966666667","6500100","板橋區"
"220030","610-BX","2017/06/27 13:59:08","新北市板橋區篤行路二段136號","121.429866666667","24.9885333333333","6500100","板橋區"
"220050","245-BX","2017/06/27 13:59:05","新北市板橋區民生路二段250號","121.468465","25.0232133333333","6500100","板橋區"
"220017","258-TC","2017/06/27 13:59:10","新北市板橋區大華街70號","121.45911","25.00581","6500100","板橋區"
"220004","276-BY","2017/06/27 13:59:13","新北市板橋區信義路147號","121.458205","24.9928383333333","6500100","板橋區"
"220020","277-BY","2017/06/27 13:59:16","新北市板橋區大觀路三段5-4號","121.43272","24.9959366666667","6500100","板橋區"
"220043","283-UM","2017/06/27 13:59:05","新北市板橋區文化路一段362號","121.46913","25.0237383333333","6500100","板橋區"
"220019","283-VK","2017/06/27 13:59:12","新北市板橋區忠孝路176巷5弄2號","121.464745","25.0019533333333","6500100","板橋區"
"220001","285-VK","2017/06/27 13:59:15","新北市板橋區中山路二段89巷60號","121.473683333333","25.01736","6500100","板橋區"
"220031","286-VK","2017/06/27 13:59:04","新北市板橋區大觀路一段38巷156弄61-1號","121.44229","25.0069966666667","6500100","板橋區"
"220029","287-VK","2017/06/27 13:59:16","新北市板橋區南雅西路二段98-5號","121.452506666667","25.0114783333333","6500100","板橋區"
"220039","288-VK","2017/06/27 13:59:17","新北市板橋區四維路177巷2弄2號","121.46412","25.026285","6500100","板橋區"
"220009","293-UM","2017/06/27 13:59:16","新北市板橋區永豐街122號","121.476418333333","25.020815","6500100","板橋區"
"220032","296-UM","2017/06/27 13:59:12","新北市板橋區龍興街63巷4號","121.442955","25.0012933333333","6500100","板橋區"
"220023","297-UM","2017/06/27 13:59:00","新北市板橋區南雅東路100巷6號","121.454143333333","25.00742","6500100","板橋區"
"220041","307-R5","2017/06/27 13:59:07","新北市板橋區文化路一段233號","121.46419","25.017425","6500100","板橋區"
"220047","317-R6","2017/06/27 13:59:15","新北市板橋區民生路三段20號","121.46763","25.0245083333333","6500100","板橋區"
"220012","486-VK","2017/06/27 13:58:56","新北市板橋區漢生東路178號","121.46741","25.0144216666667","6500100","板橋區"
"220038","487-VK","2017/06/27 13:59:00","新北市板橋區民生路二段236號","121.468458333333","25.02317","6500100","板橋區"
"220037","491-VK","2017/06/27 13:59:12","新北市板橋區民生路二段216號","121.469193333333","25.0215966666667","6500100","板橋區"
"220104","560-BX","2017/06/27 13:59:01","新北市板橋區中正路375巷27號","121.4538","25.0201516666667","6500100","板橋區"
"220052","561-BX","2017/06/27 13:59:06","新北市板橋區民生路二段121號","121.470775","25.0183333333333","6500100","板橋區"
"220016","568-UM","2017/06/27 13:59:05","新北市板橋區三民路一段31巷63號","121.481075","25.0230416666667","6500100","板橋區"
"220011","609-BX","2017/06/27 13:58:57","新北市板橋區民生路一段80號","121.47361","25.0155683333333","6500100","板橋區"
"220040","637-BX","2017/06/27 13:59:01","新北市板橋區萬板路165號","121.474163333333","25.023555","6500100","板橋區"
"220005","686-BX","2017/06/27 13:58:59","新北市板橋區民權路45號","121.462095","25.0113033333333","6500100","板橋區"
"220025","687-BX","2017/06/27 13:58:59","新北市板橋區大觀路二段174巷137號","121.441128333333","25.0020166666667","6500100","板橋區"
"220042","689-BX","2017/06/27 13:59:06","新北市板橋區文化路一段479巷42號","121.468055","25.0233666666667","6500100","板橋區"
"220002","741-BX","2017/06/27 13:59:13","新北市板橋區後埔街29號","121.460496666667","25.0064433333333","6500100","板橋區"
"220003","827-TW","2017/06/27 13:59:15","新北市板橋區民安街13號","121.466838333333","25.0118133333333","6500100","板橋區"
"220014","829-TW","2017/06/27 13:59:15","新北市板橋區三民路二段正隆巷12弄16號","121.477825","25.0134316666667","6500100","板橋區"
"220051","830-TW","2017/06/27 13:59:14","新北市板橋區萬板路190-1號","121.476375","25.0241466666667","6500100","板橋區"
"220045","831-TW","2017/06/27 13:58:56","新北市板橋區莊敬路138-3號","121.47112","25.0232133333333","6500100","板橋區"
"220022","895-R6","2017/06/27 13:59:07","新北市板橋區林園街85號","121.453593333333","25.0106883333333","6500100","板橋區"
"220021","985-R7","2017/06/27 13:59:13","新北市板橋區中正路1巷22號","121.455081666667","25.0113866666667","6500100","板橋區"
"220046","AAC-210","2017/06/27 13:59:13","新北市板橋區民生路三段66-3號","121.466748333333","25.0257266666667","6500100","板橋區"
"220018","AAC-253","2017/06/27 13:59:07","新北市板橋區四川路一段89號","121.459666666667","25.0056833333333","6500100","板橋區"
