"lineid","car","time","location","longitude","latitude","cityid","cityname"
"249005","172-UM","2017/06/27 16:48:56","新北市八里區大堀湖2-3號","121.422845","25.1537516666667","6502300","八里區"
"249001","173-UM","2017/06/27 16:48:58","新北市八里區博物館路29號","121.4138","25.1627183333333","6502300","八里區"
"249004","303-UY","2017/06/27 16:48:51","新北市八里區博物館路23號","121.414663333333","25.163265","6502300","八里區"
"249002","305-UY","2017/06/27 16:49:01","新北市八里區牛寮埔33號","121.429911666667","25.1456766666667","6502300","八里區"
"249003","593-UM","2017/06/27 16:49:04","新北市八里區中山路二段210巷128號","121.404393333333","25.1555966666667","6502300","八里區"
"244007","080-UY","2017/06/27 16:48:54","新北市林口區粉寮路37-1號","121.4012","25.0849833333333","6501700","林口區"
"244019","403-UM","2017/06/27 16:48:51","新北市林口區粉寮69號","121.40513","25.0908516666667","6501700","林口區"
"231069","189-VK","2017/06/27 12:01:49","新北市新店區安華路28-1號","121.51977","24.9610933333333","6500600","新店區"
"231046","278-BY","2017/06/27 16:49:10","新北市新店區灣潭路29-5號","121.539641666667","24.9387216666667","6500600","新店區"
"241028","022-UY","2017/06/27 16:49:08","新北市三重區光興街89號","121.497428333333","25.05998","6500200","三重區"
"241009","060-VK","2017/06/27 16:48:54","新北市三重區三和路四段203巷242號","121.487103333333","25.0809066666667","6500200","三重區"
"241031","061-VK","2017/06/27 16:49:05","新北市三重區過圳街42-2號","121.487948333333","25.060115","6500200","三重區"
"241015","062-VK","2017/06/27 16:48:59","新北市三重區文化北路43巷6號","121.499158333333","25.0655183333333","6500200","三重區"
"241017","063-VK","2017/06/27 16:49:12","新北市三重區大同北路60巷8號","121.493945","25.0638333333333","6500200","三重區"
"241024","065-VK","2017/06/27 16:48:57","新北市三重區中正北路317巷18號","121.475316666667","25.0729483333333","6500200","三重區"
"241026","066-VK","2017/06/27 16:49:01","新北市三重區文化南路8-4號","121.50032","25.0620966666667","6500200","三重區"
"241002","090-VK","2017/06/27 16:48:59","新北市三重區仁義街239號","121.49639","25.08267","6500200","三重區"
"241003","091-VK","2017/06/27 16:49:09","新北市三重區五華街87巷36號","121.493076666667","25.0839683333333","6500200","三重區"
"241005","262-UM","2017/06/27 16:49:00","新北市三重區仁華街80巷27號","121.484406666667","25.08391","6500200","三重區"
"241007","265-UM","2017/06/27 16:48:50","新北市三重區三和路四段181巷84號","121.484475","25.0795333333333","6500200","三重區"
"241016","266-UM","2017/06/27 16:49:09","新北市三重區大同北路133巷36號","121.49379","25.06466","6500200","三重區"
"241022","267-UM","2017/06/27 16:48:53","新北市三重區中華路111巷22號","121.484376666667","25.06345","6500200","三重區"
"241018","268-UM","2017/06/27 16:49:05","新北市三重區安樂街85號","121.494628333333","25.0693833333333","6500200","三重區"
"241032","269-UM","2017/06/27 16:48:58","新北市三重區重陽路一段120巷31號","121.485371666667","25.0601483333333","6500200","三重區"
"241013","270-UM","2017/06/27 16:49:05","新北市三重區三和路三段101巷139號","121.49827","25.073545","6500200","三重區"
"241025","271-UM","2017/06/27 16:49:06","新北市三重區中正北路530巷27號","121.47198","25.0702166666667","6500200","三重區"
"241008","412-TH","2017/06/27 16:48:55","新北市三重區永安北路一段17巷22-2號","121.477058333333","25.0751083333333","6500200","三重區"
"241020","413-TH","2017/06/27 16:48:54","新北市三重區忠孝路二段35號","121.485895","25.071045","6500200","三重區"
"241004","475-VK","2017/06/27 16:49:07","新北市三重區仁愛街397巷1號","121.491475","25.0810666666667","6500200","三重區"
"241019","478-VK","2017/06/27 16:49:03","新北市三重區力行路一段179巷17弄1號","121.485021666667","25.0699083333333","6500200","三重區"
"241030","480-VK","2017/06/27 16:49:00","新北市三重區新興路2巷6號","121.492443333333","25.0522366666667","6500200","三重區"
"241014","543-UM","2017/06/27 16:49:01","新北市三重區長榮路75號","121.50258","25.0690866666667","6500200","三重區"
"241023","545-UM","2017/06/27 16:49:05","新北市三重區中華路76巷27號","121.482411666667","25.0626516666667","6500200","三重區"
"241006","AAD-863","2017/06/27 16:49:11","新北市三重區力行路二段184號","121.483356666667","25.0773316666667","6500200","三重區"
"241001","887-TS","2017/06/27 16:49:08","新北市三重區仁政街56號","121.492901666667","25.0770416666667","6500200","三重區"
"241012","941-UM","2017/06/27 16:48:53","新北市三重區仁興街11巷32號","121.500591666667","25.074345","6500200","三重區"
"241029","942-UM","2017/06/27 16:49:02","新北市三重區中正南路201巷12號","121.492378333333","25.0540583333333","6500200","三重區"
"241033","AAC-255","2017/06/27 16:49:03","新北市三重區新北大道二段127號","121.466318333333","25.0613766666667","6500200","三重區"
"235062","031-BX","2017/06/27 16:48:59","新北市中和區員山路36巷16-3號","121.484956666667","24.99148","6500300","中和區"
"235019","183-VK","2017/06/27 15:15:41","新北市中和區員山路36巷16-3號","121.485008333333","24.9913016666667","6500300","中和區"
"247008","339-TH","2017/06/27 16:49:02","新北市蘆洲區中山二路45巷30號","121.474205","25.081235","6501400","蘆洲區"
"247024","337-TH","2017/06/27 16:49:06","新北市蘆洲區長興路255號","121.46051","25.0875116666667","6501400","蘆洲區"
"247006","335-TH","2017/06/27 16:49:07","新北市蘆洲區永安南路二段132-1號","121.462593333333","25.0785416666667","6501400","蘆洲區"
"247014","057-VK","2017/06/27 16:48:58","新北市蘆洲區三民路89號","121.474308333333","25.0845933333333","6501400","蘆洲區"
"247004","056-VK","2017/06/27 16:48:49","新北市蘆洲區長安街249巷42號","121.457791666667","25.0825516666667","6501400","蘆洲區"
"247016","001-UY","2017/06/27 16:49:01","新北市蘆洲區正和街3號","121.47048","25.0827166666667","6501400","蘆洲區"
"228001","212-TW","2017/06/27 16:48:53","新北市貢寮區貢寮里朝陽街2號","121.912113333333","25.0214416666667","6502600","貢寮區"
"228002","585-TW","2017/06/27 16:48:46","新北市貢寮區貢寮里長泰路24-2號","121.903945","25.0238483333333","6502600","貢寮區"
"228003","828-UM","2017/06/27 16:48:13","新北市貢寮區貢寮里朝陽街1-2號","121.912391666667","25.0212583333333","6502600","貢寮區"
"224006","676-BX","2017/06/27 16:49:10","新北市瑞芳區大寮路356-1號","121.784826666667","25.103255","6501200","瑞芳區"
"224009","285-BY","2017/06/27 16:49:02","新北市瑞芳區中山路215號","121.801086666667","25.1067083333333","6501200","瑞芳區"
"224008","275-VK","2017/06/27 16:48:56","新北市瑞芳區明燈路二段89號","121.809788333333","25.108255","6501200","瑞芳區"
"224007","272-VK","2017/06/27 16:48:56","新北市瑞芳區中央路48巷吉祥園8號","121.759481666667","25.1036433333333","6501200","瑞芳區"
"224005","271-BY","2017/06/27 16:49:07","新北市瑞芳區洞頂路157號","121.861328333333","25.1228983333333","6501200","瑞芳區"
"227003","642-TC","2017/06/27 16:49:07","新北市雙溪區外柑里外柑腳71號","121.80713","25.0176133333333","6502500","雙溪區"
"227009","400-TW","2017/06/27 16:49:06","新北市雙溪區牡丹里五分11號","121.865891666667","25.04716","6502500","雙溪區"
"251014","180-VK","2017/06/27 16:48:56","新北市淡水區淡金路三段15號","121.446006666667","25.1972966666667","6501000","淡水區"
"251008","181-VK","2017/06/27 16:48:48","新北市淡水區樹梅坑9號","121.472733333333","25.1427283333333","6501000","淡水區"
"251012","441-VK","2017/06/27 16:48:57","新北市淡水區中正路二段31號","121.419718333333","25.18152","6501000","淡水區"
"251016","442-VK","2017/06/27 16:48:56","新北市淡水區水頭42號","121.47814","25.1852866666667","6501000","淡水區"
"251011","650-BX","2017/06/27 16:48:59","新北市淡水區中正路二段31號","121.419358333333","25.1816633333333","6501000","淡水區"
"252007","050-UM","2017/06/27 15:47:59","新北市鶯歌區鶯桃路30號","121.342011666667","24.9525633333333","6502100","三芝區"
"252002","178-VK","2017/06/27 16:49:05","新北市三芝區埔坪里埔頭坑88-7號","121.506895","25.254835","6502100","三芝區"
"252001","702-TV","2017/06/27 16:48:59","新北市三芝區埔坪里埔頭坑51號","121.507525","25.2656716666667","6502100","三芝區"
"242026","612-BX","2017/06/27 16:49:04","新北市新莊區新泰路255巷83號","121.442371666667","25.0392083333333","6500500","新莊區"
"242042","497-BY","2017/06/27 16:49:00","新北市新莊區新泰路357巷3弄57號","121.442291666667","25.0394883333333","6500500","新莊區"
"242032","415-TV","2017/06/27 16:49:04","新北市新莊區新泰路357巷3弄57號","121.44217","25.0392583333333","6500500","新莊區"
"242017","348-TH","2017/06/27 15:02:00","新北市新莊區新泰路357巷3弄57號","121.441983333333","25.039525","6500500","新莊區"
"238018","571-TV","2017/06/27 16:48:56","新北市樹林區育德街78-1號","121.387296666667","24.96818","6500700","樹林區"
"238007","268-VK","2017/06/27 16:49:09","新北市樹林區八德街842號","121.392256666667","24.9685766666667","6500700","樹林區"
"239007","AAC-297","2017/06/27 16:49:00","新北市鶯歌區二甲路13-16號","121.345021666667","24.93534","6500800","鶯歌區"
"239008","527-UM","2017/06/27 16:49:04","新北市鶯歌區二甲路13-16號","121.345051666667","24.9353633333333","6500800","鶯歌區"
"239001","417-VK","2017/06/27 16:48:57","新北市鶯歌區二甲路12-2號","121.345733333333","24.9351616666667","6500800","鶯歌區"
"239003","360-BY","2017/06/27 16:49:06","新北市鶯歌區二甲路12-2號","121.345606666667","24.935235","6500800","鶯歌區"
"239002","359-BY","2017/06/26 20:56:33","新北市鶯歌區二甲路13號","121.344028333333","24.9354683333333","6500800","鶯歌區"
"221010","276-VK","2017/06/27 13:21:27","新北市汐止區汐萬路一段256巷3號","121.653423333333","25.0746033333333","6501100","汐止區"
