"lineid","car","time","location","longitude","latitude","cityid","cityname"
"234026","9371-KE","2017/06/27 17:58:59","新北市永和區永和路一段45-1號","121.512828333333","25.0062466666667","6500400","永和區"
"234011","9373-KE","2017/06/27 17:58:58","新北市永和區福和路1號","121.526011666667","25.0099183333333","6500400","永和區"
"249005","172-UM","2017/06/27 17:58:56","新北市八里區荖阡坑路22號","121.399203333333","25.1357433333333","6502300","八里區"
"249001","173-UM","2017/06/27 17:58:58","新北市八里區龍米路二段30號","121.448575","25.14002","6502300","八里區"
"249004","303-UY","2017/06/27 17:59:03","新北市八里區龍米路三段15號","121.427921666667","25.1591816666667","6502300","八里區"
"249002","305-UY","2017/06/27 17:59:01","新北市八里區龍米路一段259號","121.450858333333","25.13373","6502300","八里區"
"249003","593-UM","2017/06/27 17:59:04","新北市八里區中山路二段96號","121.408031666667","25.1552783333333","6502300","八里區"
"248014","025-BX","2017/06/27 17:58:47","新北市五股區中興路二段182巷3號","121.455775","25.0781566666667","6501500","五股區"
"248006","077-UY","2017/06/27 17:58:55","新北市五股區中興路二段37巷28號","121.460196666667","25.0750983333333","6501500","五股區"
"248008","095-VK","2017/06/27 17:58:57","新北市五股區更洲路10號","121.458393333333","25.07879","6501500","五股區"
"248020","225-UY","2017/06/27 17:58:55","新北市五股區中興路二段83巷26-6號","121.460056666667","25.075145","6501500","五股區"
"248016","261-SL","2017/06/27 17:59:06","新北市五股區中興路二段83巷26-6號","121.45966","25.0752916666667","6501500","五股區"
"248004","677-BX","2017/06/27 16:14:57","新北市五股區中興路二段37巷28號","121.46011","25.0749183333333","6501500","五股區"
"248002","678-BX","2017/06/27 17:58:59","新北市五股區中興路二段37巷28號","121.460258333333","25.0750733333333","6501500","五股區"
"232011","375-UM","2017/06/27 17:59:08","新北市坪林區北宜路八段363號","121.70996","24.933285","6502000","坪林區"
"244013","069-UM","2017/06/27 17:58:58","新北市林口區中山路99號","121.389248333333","25.0788183333333","6501700","林口區"
"244007","080-UY","2017/06/27 17:58:54","新北市林口區林口路90號","121.38901","25.080985","6501700","林口區"
"244019","403-UM","2017/06/27 17:58:50","新北市林口區文化一路83巷14弄60號","121.372496666667","25.0713633333333","6501700","林口區"
"244009","410-SL","2017/06/27 17:58:56","新北市林口區林口路303號","121.385596666667","25.08518","6501700","林口區"
"244023","483-VK","2017/06/27 17:58:52","新北市林口區育林街30號","121.385885","25.0737233333333","6501700","林口區"
"244017","656-BX","2017/06/27 17:59:03","新北市林口區文化二路一段262-8號","121.371531666667","25.073375","6501700","林口區"
"244021","657-BX","2017/06/27 17:58:52","新北市林口區仁愛路一段29號","121.39837","25.06842","6501700","林口區"
"244011","701-TV","2017/06/27 17:59:05","新北市林口區中正路188號","121.39165","25.0774266666667","6501700","林口區"
"244025","837-TS","2017/06/27 17:58:48","新北市林口區三民路77-6號","121.359018333333","25.06878","6501700","林口區"
"243013","AAD-798","2017/06/27 17:59:02","新北市泰山區自強路39號","121.405228333333","25.0550883333333","6501600","泰山區"
"222003","436-BY","2017/06/27 17:59:08","新北市深坑區炮子崙23號","121.607165","24.9908766666667","6501800","深坑區"
"222002","659-BX","2017/06/27 17:58:57","新北市深坑區深坑街35號","121.615983333333","25.0018266666667","6501800","深坑區"
"222001","696-SL","2017/06/27 17:59:06","新北市深坑區文山路三段110號","121.60866","24.9994933333333","6501800","深坑區"
"231069","189-VK","2017/06/27 12:01:49","新北市新店區安華路28-1號","121.51977","24.9610933333333","6500600","新店區"
"231046","278-BY","2017/06/27 17:58:47","新北市新店區康雅崙路3號","121.5398","24.9256183333333","6500600","新店區"
"241024","065-VK","2017/06/27 17:58:57","新北市三重區國道路一段39巷5號","121.483881666667","25.072935","6500200","三重區"
"241016","266-UM","2017/06/27 17:58:49","新北市新莊區五工一路80巷1號","121.462136666667","25.067495","6500200","三重區"
"241011","462-BY","2017/06/27 17:58:59","新北市三重區龍濱路120-6號","121.50177","25.07132","6500200","三重區"
"241033","AAC-255","2017/06/27 17:59:03","新北市三重區重新路五段640-1號","121.468293333333","25.0445933333333","6500200","三重區"
"235064","005-UY","2017/06/27 17:59:06","新北市中和區員山路36巷16-3號","121.485143333333","24.9913416666667","6500300","中和區"
"235062","031-BX","2017/06/27 17:58:48","新北市中和區和城路一段271巷1號","121.485388333333","24.991755","6500300","中和區"
"235040","150-BY","2017/06/27 17:59:01","新北市中和區和城路一段271巷1號","121.485423333333","24.9917466666667","6500300","中和區"
"235019","183-VK","2017/06/27 15:15:41","新北市中和區員山路36巷16-3號","121.485008333333","24.9913016666667","6500300","中和區"
"235038","185-VK","2017/06/27 17:59:10","新北市中和區中正路395號","121.489671666667","24.9939966666667","6500300","中和區"
"235067","255-BX","2017/06/27 17:59:02","新北市中和區和城路一段271巷1號","121.48546","24.99192","6500300","中和區"
"235051","376-QA","2017/06/27 17:58:54","新北市中和區員山路36巷16-3號","121.484578333333","24.9911516666667","6500300","中和區"
"235061","378-QA","2017/06/27 14:51:01","新北市中和區員山路36巷13號","121.484343333333","24.9911916666667","6500300","中和區"
"235071","783-BX","2017/06/27 17:58:58","新北市中和區員山路36巷16-3號","121.485211666667","24.9911833333333","6500300","中和區"
"235048","896-TW","2017/06/27 17:58:53","新北市中和區員山路36巷16-2號","121.485273333333","24.9916","6500300","中和區"
"247020","893-R6","2017/06/27 17:59:08","新北市蘆洲區民權路131巷8號","121.471436666667","25.0899566666667","6501400","蘆洲區"
"247018","500-BY","2017/06/27 17:59:06","新北市蘆洲區復興路226號","121.479088333333","25.0893233333333","6501400","蘆洲區"
"247002","336-TH","2017/06/27 17:59:01","新北市蘆洲區永平街32巷45弄4號","121.459541666667","25.0925366666667","6501400","蘆洲區"
"247006","335-TH","2017/06/27 17:59:07","新北市蘆洲區中華街22號","121.462968333333","25.0813483333333","6501400","蘆洲區"
"247014","057-VK","2017/06/27 17:58:55","新北市八里區荖阡坑路4-24號","121.398208333333","25.14306","6501400","蘆洲區"
"247022","002-UY","2017/06/27 17:58:54","新北市蘆洲區中正路472號","121.462323333333","25.0954766666667","6501400","蘆洲區"
"228001","212-TW","2017/06/27 17:58:53","新北市貢寮區真理里新港街26巷31號","121.929288333333","25.0546866666667","6502600","貢寮區"
"228002","585-TW","2017/06/27 17:59:06","新北市貢寮區福連里香蘭街3-3號","121.972106666667","25.0246233333333","6502600","貢寮區"
"228003","828-UM","2017/06/27 17:58:13","新北市貢寮區真理里美艷山街6-2號","121.928926666667","25.0607916666667","6502600","貢寮區"
"224006","676-BX","2017/06/27 17:58:50","新北市瑞芳區傑魚坑路183號","121.788463333333","25.1082883333333","6501200","瑞芳區"
"224002","639-TC","2017/06/27 17:58:57","新北市瑞芳區明燈路二段97號","121.80991","25.10802","6501200","瑞芳區"
"224009","285-BY","2017/06/27 17:59:02","新北市瑞芳區山尖路2號","121.854131666667","25.1154883333333","6501200","瑞芳區"
"224008","275-VK","2017/06/27 17:58:56","新北市瑞芳區員山子路23號","121.82139","25.1030166666667","6501200","瑞芳區"
"224005","271-BY","2017/06/27 17:58:47","新北市瑞芳區弘祥新村1號","121.817136666667","25.1288883333333","6501200","瑞芳區"
"253006","032-BX","2017/06/27 17:58:47","新北市石門區大丘田45-2號","121.549821666667","25.27487","6502200","石門區"
"253005","295-VK","2017/06/27 17:59:06","新北市石門區中山路62-11號","121.567578333333","25.2896533333333","6502200","石門區"
"208003","665-BX","2017/06/27 17:59:02","新北市金山區磺港里磺港路202-1號","121.645136666667","25.227495","6502700","金山區"
"208001","761-BX","2017/06/27 17:58:53","新北市金山區磺港里磺港路169號","121.642245","25.22476","6502700","金山區"
"251004","009-UM","2017/06/27 17:58:46","新北市淡水區民權路187巷30弄3號","121.460376666667","25.13316","6501000","淡水區"
"251005","010-UM","2017/06/27 17:59:04","新北市淡水區學府路130號","121.45048","25.1726233333333","6501000","淡水區"
"251014","180-VK","2017/06/27 17:58:56","新北市淡水區公埔子16-6號","121.480956666667","25.224515","6501000","淡水區"
"251008","181-VK","2017/06/27 17:58:48","新北市淡水區八勢路20號","121.460613333333","25.1534283333333","6501000","淡水區"
"251010","413-VK","2017/06/27 17:58:57","新北市淡水區中正路一段132巷22號","121.42301","25.17997","6501000","淡水區"
"251012","441-VK","2017/06/27 17:59:05","新北市淡水區北新路三段23號","121.48364","25.186435","6501000","淡水區"
"251016","442-VK","2017/06/27 17:58:56","新北市淡水區埤島38號","121.451495","25.1962966666667","6501000","淡水區"
"251001","559-UM","2017/06/27 17:58:48","新北市淡水區民權路94巷1號","121.463186666667","25.1251","6501000","淡水區"
"251006","561-UM","2017/06/27 17:58:55","新北市淡水區新生街18-5號","121.438881666667","25.1734783333333","6501000","淡水區"
"251009","575-R6","2017/06/27 17:58:49","新北市淡水區中山路163號","121.440926666667","25.1735233333333","6501000","淡水區"
"251011","650-BX","2017/06/27 17:58:59","新北市淡水區三空泉9-2號","121.474133333333","25.1635466666667","6501000","淡水區"
"251002","672-BX","2017/06/27 17:59:04","新北市淡水區鼻頭街18-5號","121.446825","25.1667616666667","6501000","淡水區"
"251003","766-UM","2017/06/27 17:58:48","新北市淡水區大忠街87號","121.446535","25.17754","6501000","淡水區"
"207003","550-UM","2017/06/27 17:59:02","新北市萬里區港東路野柳風景區攤販66號","121.691336666667","25.20583","6502800","萬里區"
"207004","225-TW","2017/06/27 17:58:59","新北市萬里區中幅里中福路48號","121.683235","25.1740933333333","6502800","萬里區"
"252002","178-VK","2017/06/27 17:59:05","新北市三芝區中山路一段102號","121.502311666667","25.2563666666667","6502100","三芝區"
"252001","702-TV","2017/06/27 17:58:59","新北市三芝區中興街一段43號","121.497736666667","25.2574116666667","6502100","三芝區"
"208002","170-UY","2017/06/27 17:59:02","新北市金山區清泉里清水路10號","121.630408333333","25.2284266666667","6502700","金山區"
"237004","078-UY","2017/06/27 17:58:46","新北市三峽區大埔路80號","121.366431666667","24.90726","6500900","三峽區"
"237007","153-BY","2017/06/27 17:58:49","新北市三峽區中園街108-2號","121.366883333333","24.92309","6500900","三峽區"
"237009","210-TH","2017/06/27 17:58:58","新北市三峽區文化路209號","121.366263333333","24.935675","6500900","三峽區"
"237013","252-BX","2017/06/27 17:58:59","新北市三峽區長泰街70-2號","121.376688333333","24.9335316666667","6500900","三峽區"
"237012","275-BY","2017/06/27 17:58:52","新北市三峽區民生街27巷30號","121.376026666667","24.9360916666667","6500900","三峽區"
"237008","302-VK","2017/06/27 17:58:53","新北市三峽區正義街157號","121.368143333333","24.915015","6500900","三峽區"
"237014","433-BY","2017/06/27 17:59:07","新北市三峽區復興路101巷1弄79號","121.371023333333","24.9376833333333","6500900","三峽區"
"237006","5529-G3","2017/06/27 17:59:03","新北市三峽區介壽路二段136巷68號","121.392506666667","24.9338866666667","6500900","三峽區"
"237011","572-TV","2017/06/27 17:58:52","新北市三峽區光明路61號","121.375486666667","24.9288433333333","6500900","三峽區"
"237016","649-BX","2017/06/27 17:58:52","新北市三峽區紫微路139號","121.406323333333","24.9113933333333","6500900","三峽區"
"237010","706-TV","2017/06/27 17:59:03","新北市三峽區民權街193號","121.367725","24.9290633333333","6500900","三峽區"
"237005","AKY-6261","2017/06/27 17:58:53","新北市三峽區和平街79巷8號","121.369775","24.937535","6500900","三峽區"
"236070","105-UM","2017/06/27 17:59:01","新北市土城區青雲路482-2號","121.46923","24.9646033333333","6501300","土城區"
"236043","107-UM","2017/06/27 17:58:57","新北市土城區明德路二段213號","121.446231666667","24.9837566666667","6501300","土城區"
"236079","166-UM","2017/06/27 17:59:04","新北市土城區永寧路30-1號","121.429255","24.9608533333333","6501300","土城區"
"236031","253-BX","2017/06/27 17:59:02","新北市土城區城林路6巷80號","121.438473333333","24.9798316666667","6501300","土城區"
"236027","269-VK","2017/06/27 17:58:59","新北市土城區承天路67號","121.439508333333","24.9635266666667","6501300","土城區"
"236015","270-VK","2017/06/27 17:58:55","新北市土城區城林路6巷80號","121.438593333333","24.979585","6501300","土城區"
"236038","271-VK","2017/06/27 17:59:00","新北市土城區城林路6巷80號","121.438505","24.9798116666667","6501300","土城區"
"236023","401-BY","2017/06/27 17:59:03","新北市土城區城林路6巷80號","121.438588333333","24.9795733333333","6501300","土城區"
"236059","912-UM","2017/06/27 17:59:02","新北市土城區中央路三段119-1號","121.434101666667","24.96574","6501300","土城區"
"236049","913-UM","2017/06/27 17:59:07","新北市土城區城林路6巷80號","121.438448333333","24.979595","6501300","土城區"
"236063","915-UM","2017/06/27 17:58:59","新北市土城區城林路6巷80號","121.438671666667","24.9796683333333","6501300","土城區"
"236055","AAC-216","2017/06/27 17:59:04","新北市土城區城林路6巷80號","121.438465","24.9795683333333","6501300","土城區"
"242021","AAC-296","2017/06/27 17:59:02","新北市新莊區中正路160號","121.451476666667","25.0359866666667","6500500","新莊區"
"242029","986-R7","2017/06/27 17:59:03","新北市新莊區中平路12號","121.4448","25.0427866666667","6500500","新莊區"
"242048","751-BX","2017/06/27 17:59:06","新北市新莊區萬安街57巷26號","121.42257","25.023845","6500500","新莊區"
"242025","615-BX","2017/06/27 17:58:57","新北市新莊區五工路60號","121.45826","25.06336","6500500","新莊區"
"242023","613-BX","2017/06/27 17:58:57","新北市新莊區福壽街56號","121.45835","25.0488566666667","6500500","新莊區"
"242027","612-BX","2017/06/27 17:59:04","新北市新莊區思源路391號","121.459878333333","25.0516166666667","6500500","新莊區"
"242037","566-BX","2017/06/27 17:58:51","新北市新莊區建福路31號","121.426403333333","25.0286666666667","6500500","新莊區"
"242042","497-BY","2017/06/27 17:59:00","新北市新莊區中正路692-8號","121.419975","25.0284383333333","6500500","新莊區"
"242005","442-UM","2017/06/27 17:59:00","新北市新莊區思源路177巷54號","121.459305","25.046855","6500500","新莊區"
"242046","441-UM","2017/06/27 17:59:01","新北市新莊區福營路186號","121.43128","25.0307616666667","6500500","新莊區"
"242051","440-UM","2017/06/27 17:58:51","新北市新莊區龍安路537號","121.428046666667","25.0175033333333","6500500","新莊區"
"242032","415-TV","2017/06/27 17:59:04","新北市新莊區新泰路289巷20號","121.444578333333","25.0405633333333","6500500","新莊區"
"242002","413-TV","2017/06/27 17:59:01","新北市新莊區大觀街42巷17號","121.454395","25.0360333333333","6500500","新莊區"
"242039","400-BY","2017/06/27 17:58:59","新北市新莊區民安西路38巷21號","121.426665","25.0206","6500500","新莊區"
"242061","362-BY","2017/06/27 17:59:06","新北市新莊區新樹路341號","121.432995","25.0186216666667","6500500","新莊區"
"242058","353-BY","2017/06/27 17:59:05","新北市新莊區雙鳳路134巷5號","121.41267","25.02804","6500500","新莊區"
"242011","132-UY","2017/06/27 17:58:52","新北市新莊區中原路201-3號","121.45116","25.05405","6500500","新莊區"
"242034","133-UY","2017/06/27 17:59:03","新北市新莊區福海街19號","121.445203333333","25.0336483333333","6500500","新莊區"
"242044","172-VK","2017/06/27 17:59:00","新北市新莊區雙鳳路105號","121.414095","25.0280566666667","6500500","新莊區"
"242007","173-VK","2017/06/27 17:58:53","新北市新莊區福樂街156巷12弄20號","121.456826666667","25.0487833333333","6500500","新莊區"
"242013","175-VK","2017/06/27 17:59:05","新北市新莊區中誠街181號","121.44764","25.047155","6500500","新莊區"
"242056","176-VK","2017/06/27 17:59:05","新北市新莊區豐年街55-9號","121.446541666667","25.0308116666667","6500500","新莊區"
"242019","346-TH","2017/06/27 17:59:09","新北市新莊區明中街45-2號","121.457486666667","25.0393066666667","6500500","新莊區"
"242017","348-TH","2017/06/27 17:59:06","新北市新莊區中港路339巷38號","121.450505","25.045165","6500500","新莊區"
"242054","349-TH","2017/06/27 17:58:58","新北市新莊區光華街27號","121.428836666667","25.0110316666667","6500500","新莊區"
"242015","350-TH","2017/06/27 17:58:51","新北市新莊區中平路119巷6號","121.444355","25.046675","6500500","新莊區"
"242009","351-TH","2017/06/27 17:59:03","新北市新莊區中華路二段210巷22號","121.453738333333","25.05238","6500500","新莊區"
"238015","755-BX","2017/06/27 17:58:58","新北市樹林區文德街2巷17號","121.419661666667","24.991775","6500700","樹林區"
"238023","601-UM","2017/06/27 17:59:03","新北市樹林區龍興街30號","121.40292","25.0159","6500700","樹林區"
"238019","599-UM","2017/06/27 17:58:57","新北市樹林區八德街321-1號","121.41955","24.974375","6500700","樹林區"
"238018","571-TV","2017/06/27 17:58:56","新北市樹林區樹新路81號","121.42761","24.9952716666667","6500700","樹林區"
"238024","5061-A6","2017/06/27 17:56:06","新北市樹林區中山路三段210-2號","121.380955","24.9660416666667","6500700","樹林區"
"238022","312-TH","2017/06/27 17:59:03","新北市樹林區福順街75-1號","121.416156666667","24.97812","6500700","樹林區"
"238021","311-TH","2017/06/27 17:58:04","新北市樹林區柑園街一段68號","121.402293333333","24.9602833333333","6500700","樹林區"
"238025","303-VK","2017/06/27 17:58:54","新北市樹林區俊興街211巷7弄27號","121.416723333333","25.0134083333333","6500700","樹林區"
"238017","283-BY","2017/06/27 17:58:55","新北市樹林區俊德街31號","121.415305","25.0139883333333","6500700","樹林區"
"238014","282-BY","2017/06/27 17:58:56","新北市樹林區大安路125巷27號","121.423323333333","24.9968","6500700","樹林區"
"238007","268-VK","2017/06/27 17:58:49","新北市樹林區三俊街199巷14號","121.420356666667","25.017015","6500700","樹林區"
"238026","172-UY","2017/06/27 17:59:03","新北市樹林區中洲街30巷13弄17號","121.398105","24.9721216666667","6500700","樹林區"
"238016","169-UY","2017/06/27 17:58:51","新北市樹林區復興路372巷7號","121.415138333333","24.9861066666667","6500700","樹林區"
"239007","AAC-297","2017/06/27 17:59:00","新北市鶯歌區尖山埔路199號","121.345256666667","24.9505016666667","6500800","鶯歌區"
"239006","891-R6","2017/06/27 17:58:58","新北市鶯歌區鶯桃路455巷10弄2號","121.33162","24.9641783333333","6500800","鶯歌區"
"239008","527-UM","2017/06/27 17:59:04","新北市鶯歌區朝陽街46巷7號","121.336765","24.9777933333333","6500800","鶯歌區"
"239005","526-UM","2017/06/27 17:59:02","新北市鶯歌區鶯桃路668巷74-1號","121.329911666667","24.97163","6500800","鶯歌區"
"239001","417-VK","2017/06/27 17:58:57","新北市鶯歌區中正三路82號","121.338338333333","24.9410766666667","6500800","鶯歌區"
"239003","360-BY","2017/06/27 17:59:06","新北市鶯歌區鶯桃路334號","121.334028333333","24.9621866666667","6500800","鶯歌區"
"239002","359-BY","2017/06/27 17:58:48","新北市鶯歌區光明街94號","121.34636","24.9556383333333","6500800","鶯歌區"
"239004","193-VK","2017/06/27 17:58:57","新北市鶯歌區尖山路103-8號","121.347948333333","24.9488083333333","6500800","鶯歌區"
"221008","489-VK","2017/06/27 17:59:02","新北市汐止區明峰街21號","121.634518333333","25.0713383333333","6501100","汐止區"
"221036","130-UY","2017/06/27 17:58:58","新北市汐止區大同路三段34號","121.667066666667","25.0765383333333","6501100","汐止區"
"221015","131-UY","2017/06/27 17:58:55","新北市汐止區長江街347號","121.667283333333","25.0820116666667","6501100","汐止區"
"221010","269-BY","2017/06/27 17:59:00","新北市汐止區汐萬路二段245巷50號","121.644908333333","25.0876216666667","6501100","汐止區"
"221010","276-VK","2017/06/27 13:21:27","新北市汐止區汐萬路一段256巷3號","121.653423333333","25.0746033333333","6501100","汐止區"
"221031","277-VK","2017/06/27 00:09:53","新北市汐止區汐萬路一段256巷3號","121.652553333333","25.0746416666667","6501100","汐止區"
"221012","278-VK","2017/06/27 17:58:54","新北市汐止區長興街二段28號","121.67321","25.0813416666667","6501100","汐止區"
"221023","279-VK","2017/06/27 15:09:03","新北市汐止區康寧街901號","121.6521","25.0754133333333","6501100","汐止區"
"221032","280-BY","2017/06/27 17:58:50","新北市汐止區橫科路73巷2-2號","121.619408333333","25.0506883333333","6501100","汐止區"
"221027","281-BY","2017/06/27 17:59:05","新北市汐止區大同路二段350號","121.656841666667","25.0671216666667","6501100","汐止區"
"221029","298-VK","2017/06/27 17:59:02","新北市汐止區樟樹二路327號","121.641103333333","25.0703866666667","6501100","汐止區"
"221021","299-VK","2017/06/27 17:56:28","新北市汐止區大同路二段314號","121.655563333333","25.0668233333333","6501100","汐止區"
"221002","488-VK","2017/06/27 17:58:59","新北市汐止區樟樹二路106-1號","121.639561666667","25.0641166666667","6501100","汐止區"
"221035","622-UM","2017/06/27 17:58:59","新北市汐止區新江北路17號","121.652886666667","25.07055","6501100","汐止區"
"221025","623-UM","2017/06/27 17:58:56","新北市汐止區仁愛路39號","121.659488333333","25.0634233333333","6501100","汐止區"
"221038","646-BX","2017/06/27 17:59:04","新北市汐止區大同路二段184巷8號","121.653286666667","25.0641583333333","6501100","汐止區"
"221033","647-BX","2017/06/27 17:59:04","新北市汐止區合順街39巷2號","121.620798333333","25.0432866666667","6501100","汐止區"
"221018","753-BX","2017/06/27 17:58:56","新北市汐止區招商街20號","121.666698333333","25.0684433333333","6501100","汐止區"
