"lineid","car","time","location","longitude","latitude","cityid","cityname"
"234007","207-UY","2017/06/27 18:19:33","新北市永和區環河東路二段30號","121.522743333333","25.012705","6500400","永和區"
"234026","9371-KE","2017/06/27 18:19:39","新北市永和區豫溪街42巷1號","121.51556","25.009675","6500400","永和區"
"234011","9373-KE","2017/06/27 18:19:38","新北市永和區保安路13號","121.510458333333","25.0169466666667","6500400","永和區"
"249005","172-UM","2017/06/27 18:19:36","新北市八里區荖阡坑路15號","121.401596666667","25.1398933333333","6502300","八里區"
"249001","173-UM","2017/06/27 18:19:38","新北市八里區龍米路一段135號","121.452085","25.12697","6502300","八里區"
"249004","303-UY","2017/06/27 18:19:31","新北市八里區文心街33號","121.428951666667","25.1608933333333","6502300","八里區"
"249002","305-UY","2017/06/27 18:19:21","新北市八里區龍形五街21號","121.450121666667","25.133065","6502300","八里區"
"249003","593-UM","2017/06/27 18:19:24","新北市八里區松子腳4-3號","121.402938333333","25.1440766666667","6502300","八里區"
"248014","025-BX","2017/06/27 18:19:26","新北市五股區自強路19巷5-1號","121.43475","25.07389","6501500","五股區"
"248006","077-UY","2017/06/27 18:19:35","新北市五股區中興路一段181號","121.464378333333","25.0738366666667","6501500","五股區"
"248008","095-VK","2017/06/27 18:19:37","新北市五股區更洲路32巷8弄14號","121.459263333333","25.0796466666667","6501500","五股區"
"248020","225-UY","2017/06/27 18:19:34","新北市五股區孝義路47巷22號","121.451198333333","25.1091516666667","6501500","五股區"
"248012","247-BX","2017/06/27 18:19:10","新北市五股區御史路1巷19號","121.441278333333","25.090365","6501500","五股區"
"248016","261-SL","2017/06/27 18:19:40","新北市五股區凌雲路一段109巷36弄9號","121.44906","25.1003883333333","6501500","五股區"
"248010","272-BY","2017/06/27 18:19:28","新北市五股區成泰路一段139巷2弄2號","121.43508","25.0729416666667","6501500","五股區"
"248004","677-BX","2017/06/27 18:19:30","新北市五股區成泰路二段222-2號","121.439073333333","25.0854416666667","6501500","五股區"
"248002","678-BX","2017/06/27 18:19:39","新北市五股區西雲路84號","121.443843333333","25.092195","6501500","五股區"
"232011","375-UM","2017/06/27 18:18:26","新北市坪林區坪雙路一段43號","121.711735","24.9424883333333","6502000","坪林區"
"244013","069-UM","2017/06/27 18:19:38","新北市林口區中山路160巷7號","121.391066666667","25.0794083333333","6501700","林口區"
"244007","080-UY","2017/06/27 18:19:34","新北市林口區林口路124巷13號","121.389038333333","25.0818833333333","6501700","林口區"
"244019","403-UM","2017/06/27 18:19:31","新北市林口區文化一路一段40號","121.371123333333","25.0693966666667","6501700","林口區"
"244009","410-SL","2017/06/27 18:19:36","新北市林口區竹林路614號","121.38648","25.0824583333333","6501700","林口區"
"244023","483-VK","2017/06/27 18:19:32","新北市林口區東湖路165號","121.382745","25.0739316666667","6501700","林口區"
"244017","656-BX","2017/06/27 18:19:43","新北市林口區八德路48巷76號","121.36721","25.0674016666667","6501700","林口區"
"244021","657-BX","2017/06/27 18:19:32","新北市林口區自強三街21號","121.397745","25.077515","6501700","林口區"
"244011","701-TV","2017/06/27 18:19:25","新北市林口區中正路74巷5弄2號","121.39463","25.0780083333333","6501700","林口區"
"244025","837-TS","2017/06/27 18:19:28","新北市林口區南勢四街48號","121.354796666667","25.0697116666667","6501700","林口區"
"243013","AAD-798","2017/06/27 18:19:22","新北市泰山區南林路93號","121.415508333333","25.05115","6501600","泰山區"
"222003","436-BY","2017/06/27 18:19:28","新北市深坑區文山路二段3號","121.622908333333","25.0003566666667","6501800","深坑區"
"222002","659-BX","2017/06/27 18:19:37","新北市深坑區文化街17巷7弄18號","121.620836666667","25.0002383333333","6501800","深坑區"
"222001","696-SL","2017/06/27 18:19:26","新北市深坑區北深路二段51-1號","121.619021666667","25.004075","6501800","深坑區"
"231041","002-UM","2017/06/27 18:19:21","新北市新店區安華路28-1號","121.519528333333","24.9607583333333","6500600","新店區"
"231056","0291-UT","2017/06/27 18:19:41","新北市新店區環河路119號","121.532283333333","24.9708566666667","6500600","新店區"
"231059","046-UY","2017/06/27 18:19:23","新北市新店區安華路28-1號","121.51966","24.9609216666667","6500600","新店區"
"231061","047-UY","2017/06/27 18:19:29","新北市新店區安華路28-1號","121.519198333333","24.9609583333333","6500600","新店區"
"231060","106-UY","2017/06/27 18:19:41","新北市新店區安華路28-1號","121.519691666667","24.9608033333333","6500600","新店區"
"231051","107-UY","2017/06/27 18:19:35","新北市新店區安康路一段355-3號","121.519356666667","24.9617616666667","6500600","新店區"
"231048","108-UY","2017/06/27 18:19:36","新北市新店區安華路28-1號","121.519518333333","24.9612966666667","6500600","新店區"
"231069","189-VK","2017/06/27 12:01:49","新北市新店區安華路28-1號","121.51977","24.9610933333333","6500600","新店區"
"231057","256-BX","2017/06/27 18:19:32","新北市新店區安華路28-1號","121.519651666667","24.961105","6500600","新店區"
"231063","268-BY","2017/06/27 18:19:43","新北市新店區安華路28-1號","121.519383333333","24.960705","6500600","新店區"
"231046","278-BY","2017/06/27 18:19:27","新北市新店區直潭七街60號","121.532318333333","24.93991","6500600","新店區"
"231050","AAD-862","2017/06/27 18:19:40","新北市新店區安華路28-1號","121.519711666667","24.9612466666667","6500600","新店區"
"231058","3712-VJ","2017/06/27 18:19:23","新北市新店區環河路1-1號","121.537941666667","24.9613066666667","6500600","新店區"
"231055","3713-VJ","2017/06/27 18:19:39","新北市新店區安康路一段48號","121.530478333333","24.96106","6500600","新店區"
"231067","4772-VM","2017/06/27 18:19:23","新北市新店區安華路28-1號","121.519188333333","24.9606633333333","6500600","新店區"
"231065","512-UM","2017/06/27 18:19:25","新北市新店區安華路28-1號","121.519241666667","24.9612866666667","6500600","新店區"
"231054","513-UM","2017/06/27 18:19:32","新北市新店區安華路28-1號","121.51962","24.96094","6500600","新店區"
"231003","616-UM","2017/06/27 18:19:29","新北市新店區安華路1-1號","121.51944","24.960515","6500600","新店區"
"231045","617-UM","2017/06/27 18:19:21","新北市新店區安華路28-1號","121.519408333333","24.9610066666667","6500600","新店區"
"231040","619-UM","2017/06/27 18:19:26","新北市新店區安華路28-1號","121.519586666667","24.961105","6500600","新店區"
"231049","719-UM","2017/06/27 18:19:26","新北市新店區安華路28-1號","121.519551666667","24.9612883333333","6500600","新店區"
"231062","720-UM","2017/06/27 18:19:35","新北市新店區安華路28-1號","121.519236666667","24.9611733333333","6500600","新店區"
"231044","897-TW","2017/06/27 18:19:41","新北市新店區安華路28-1號","121.519438333333","24.9607933333333","6500600","新店區"
"231043","899-TW","2017/06/27 16:20:42","新北市新店區安華路28-1號","121.519043333333","24.9608266666667","6500600","新店區"
"231066","AKT-0513","2017/06/27 18:19:38","新北市新店區安華路28-1號","121.519463333333","24.9606083333333","6500600","新店區"
"241011","462-BY","2017/06/27 18:19:39","新北市三重區龍濱路118-5號","121.502026666667","25.0706316666667","6500200","三重區"
"241033","AAC-255","2017/06/27 18:19:43","新北市三重區光復路一段61巷27號","121.473581666667","25.0490466666667","6500200","三重區"
"235066","003-UY","2017/06/27 18:19:32","新北市中和區水源路2號","121.50281","25.00356","6500300","中和區"
"235064","005-UY","2017/06/27 18:19:27","新北市中和區中興街55號","121.500548333333","24.9938066666667","6500300","中和區"
"235063","006-UY","2017/06/27 18:19:33","新北市中和區中正路637巷52弄1號","121.485475","24.9937216666667","6500300","中和區"
"235062","031-BX","2017/06/27 18:19:28","新北市中和區景平路999巷3號","121.495363333333","25.005915","6500300","中和區"
"235056","096-UM","2017/06/27 18:19:24","新北市中和區中山路二段479號","121.483026666667","25.0049966666667","6500300","中和區"
"235039","097-UM","2017/06/27 18:19:37","新北市中和區景平路357號","121.504633333333","24.9934916666667","6500300","中和區"
"235040","150-BY","2017/06/27 18:19:01","新北市中和區南山路263巷7弄2號","121.50405","24.9930283333333","6500300","中和區"
"235058","151-BY","2017/06/27 18:19:24","新北市中和區圓通路367巷29號","121.492205","24.9853183333333","6500300","中和區"
"235019","183-VK","2017/06/27 18:19:35","新北市中和區員山路36巷16-3號","121.485043333333","24.9912816666667","6500300","中和區"
"235038","185-VK","2017/06/27 18:19:30","新北市中和區大智街26號","121.521013333333","24.9919883333333","6500300","中和區"
"235049","186-VK","2017/06/27 18:19:29","新北市中和區中正路637巷60弄61號","121.485421666667","24.9932566666667","6500300","中和區"
"235067","255-BX","2017/06/27 18:19:22","新北市中和區和城路一段271巷1號","121.48542","24.9917983333333","6500300","中和區"
"235043","352-BY","2017/06/27 18:19:25","新北市中和區景平路375號","121.504191666667","24.99342","6500300","中和區"
"235051","376-QA","2017/06/27 18:19:34","新北市中和區信義街1號","121.510823333333","24.9898833333333","6500300","中和區"
"235068","377-QA","2017/06/27 18:19:29","新北市中和區員山路36巷16-3號","121.485138333333","24.9913166666667","6500300","中和區"
"235061","378-QA","2017/06/27 18:19:41","新北市中和區莒光路213號","121.46896","24.994595","6500300","中和區"
"235050","4979-A6","2017/06/27 18:17:06","新北市中和區捷運路58-9號","121.50746","24.9908366666667","6500300","中和區"
"235069","4980-A6","2017/06/27 18:19:37","新北市中和區連勝街14號","121.498895","24.9984533333333","6500300","中和區"
"235042","551-UM","2017/06/27 18:19:24","新北市中和區大仁街2號","121.517725","24.9924166666667","6500300","中和區"
"235070","558-UM","2017/06/27 18:19:30","新北市中和區中正路305號","121.492641666667","24.993855","6500300","中和區"
"235045","565-BX","2017/06/27 18:19:23","新北市中和區中正路1號","121.50323","24.9933933333333","6500300","中和區"
"235054","640-BX","2017/06/27 18:19:31","新北市中和區莒光路213號","121.46903","24.9946216666667","6500300","中和區"
"235047","732-UM","2017/06/27 18:19:27","新北市中和區中正路637巷60弄61號","121.485475","24.9933133333333","6500300","中和區"
"235071","783-BX","2017/06/27 18:19:38","新北市中和區員山路36巷16-3號","121.485233333333","24.9911716666667","6500300","中和區"
"235057","801-TS","2017/06/27 18:19:25","新北市中和區員山路261號","121.48125","24.9991516666667","6500300","中和區"
"235052","805-TS","2017/06/27 18:19:28","新北市中和區南山路493號","121.508028333333","24.9878183333333","6500300","中和區"
"235048","896-TW","2017/06/27 18:19:33","新北市中和區員山路36巷16-2號","121.48533","24.99153","6500300","中和區"
"235037","AAC-213","2017/06/27 18:19:29","新北市中和區景平路149號","121.5139","24.9921983333333","6500300","中和區"
"247006","335-TH","2017/06/27 18:19:26","新北市八里區中山路三段112號","121.38804","25.146675","6501400","蘆洲區"
"247014","057-VK","2017/06/27 18:19:35","新北市八里區中華路三段7巷5號","121.397768333333","25.14351","6501400","蘆洲區"
"226004","312-R5","2017/06/27 18:19:34","新北市平溪區靜安路二段7巷8號","121.708436666667","25.0188166666667","6502400","平溪區"
"228001","212-TW","2017/06/27 18:19:33","新北市貢寮區真理里新港街26巷55弄2-1號","121.927376666667","25.0528433333333","6502600","貢寮區"
"228002","585-TW","2017/06/27 18:19:26","新北市貢寮區福連里福興街24-1號","121.991125","25.01205","6502600","貢寮區"
"228003","828-UM","2017/06/27 18:19:33","新北市貢寮區真理里美艷山街63-1號","121.920531666667","25.0721783333333","6502600","貢寮區"
"224006","676-BX","2017/06/27 18:19:30","新北市瑞芳區民權街3-2號","121.80812","25.1074683333333","6501200","瑞芳區"
"224002","639-TC","2017/06/27 18:19:40","新北市瑞芳區三爪子坑路97號","121.811171666667","25.10727","6501200","瑞芳區"
"224011","420-VK","2017/06/27 18:19:19","新北市瑞芳區崙頂路3-1號","121.847001666667","25.1047133333333","6501200","瑞芳區"
"224009","285-BY","2017/06/27 18:19:29","新北市瑞芳區金光路93號","121.854876666667","25.1063816666667","6501200","瑞芳區"
"224008","275-VK","2017/06/27 18:19:34","新北市瑞芳區逢甲路206號","121.80684","25.1102433333333","6501200","瑞芳區"
"224007","272-VK","2017/06/27 18:19:25","新北市瑞芳區四腳亭坑路39-2號","121.773801666667","25.1093966666667","6501200","瑞芳區"
"224005","271-BY","2017/06/27 18:19:40","新北市瑞芳區建基路二段23號","121.807131666667","25.13315","6501200","瑞芳區"
"227003","642-TC","2017/06/27 18:19:31","新北市雙溪區共和里中山路2號","121.863831666667","25.0337983333333","6502500","雙溪區"
"227009","400-TW","2017/06/27 18:19:30","新北市雙溪區牡丹里牡丹73號","121.851753333333","25.059345","6502500","雙溪區"
"253006","032-BX","2017/06/27 18:19:35","新北市石門區老梅路49號","121.545426666667","25.289295","6502200","石門區"
"253005","295-VK","2017/06/27 18:19:34","新北市石門區中央路3-1號","121.565945","25.291515","6502200","石門區"
"208003","665-BX","2017/06/27 18:19:22","新北市金山區民生路200號","121.645113333333","25.2218833333333","6502700","金山區"
"208001","761-BX","2017/06/27 18:19:33","新北市金山區中山路16號","121.641328333333","25.2176516666667","6502700","金山區"
"251004","009-UM","2017/06/27 18:17:26","新北市淡水區民族路31巷9號","121.462315","25.1363366666667","6501000","淡水區"
"251005","010-UM","2017/06/27 18:19:24","新北市淡水區中正東路35巷23號","121.44668","25.169","6501000","淡水區"
"251014","180-VK","2017/06/27 18:19:36","新北市淡水區崙頂13號","121.492166666667","25.2201183333333","6501000","淡水區"
"251008","181-VK","2017/06/27 18:19:29","新北市淡水區淡金路10-2號","121.457868333333","25.1601033333333","6501000","淡水區"
"251010","413-VK","2017/06/27 18:19:37","新北市淡水區淡海路201號","121.42039","25.1849033333333","6501000","淡水區"
"251012","441-VK","2017/06/27 18:19:36","新北市淡水區北新路二段77-5號","121.480555","25.1855516666667","6501000","淡水區"
"251016","442-VK","2017/06/27 18:19:36","新北市淡水區淡金路三段212號","121.448923333333","25.2044133333333","6501000","淡水區"
"251001","559-UM","2017/06/27 18:19:28","新北市淡水區自強路307巷2號","121.462438333333","25.13185","6501000","淡水區"
"251006","561-UM","2017/06/27 18:19:35","新北市淡水區新民街76巷36弄1號","121.439376666667","25.17794","6501000","淡水區"
"251011","650-BX","2017/06/27 18:19:38","新北市淡水區淡金路33-8號","121.457263333333","25.16218","6501000","淡水區"
"251002","672-BX","2017/06/27 18:19:40","新北市淡水區中正東路一段55號","121.452803333333","25.1627266666667","6501000","淡水區"
"251003","766-UM","2017/06/27 18:19:37","新北市淡水區北新路169巷4號","121.45023","25.1795883333333","6501000","淡水區"
"207003","550-UM","2017/06/27 18:19:42","新北市萬里區野柳里港東路13號","121.687113333333","25.2035683333333","6502800","萬里區"
"207004","225-TW","2017/06/27 18:19:39","新北市萬里區中幅里中福路32號","121.679023333333","25.1669966666667","6502800","萬里區"
"252002","178-VK","2017/06/27 18:19:25","新北市三芝區中山路二段39號","121.502961666667","25.2551183333333","6502100","三芝區"
"252003","249-BX","2017/06/27 18:19:39","新北市三芝區錫板里南勢崗5-6號","121.479695","25.262375","6502100","三芝區"
"252001","702-TV","2017/06/27 18:19:39","新北市三芝區中興街二段2號","121.4983","25.256695","6502100","三芝區"
"208002","170-UY","2017/06/27 18:19:28","新北市金山區清泉里西勢2號","121.627806666667","25.235995","6502700","金山區"
"237004","078-UY","2017/06/27 18:19:26","新北市三峽區五寮61號","121.36112","24.8604266666667","6500900","三峽區"
"237007","153-BY","2017/06/27 18:19:29","新北市三峽區中正路二段548號","121.36","24.9062133333333","6500900","三峽區"
"237009","210-TH","2017/06/27 18:19:38","新北市三峽區大勇路36巷19號","121.365761666667","24.937075","6500900","三峽區"
"237013","252-BX","2017/06/27 18:19:38","新北市三峽區永安街9巷66號","121.375881666667","24.9294216666667","6500900","三峽區"
"237012","275-BY","2017/06/27 18:19:33","新北市三峽區民生街1巷6-9號","121.377016666667","24.9357","6500900","三峽區"
"237008","302-VK","2017/06/27 18:19:33","新北市三峽區白雞64-8號","121.384846666667","24.912595","6500900","三峽區"
"237014","433-BY","2017/06/27 18:19:27","新北市三峽區復興路59號","121.373076666667","24.9372033333333","6500900","三峽區"
"237006","5529-G3","2017/06/27 18:19:23","新北市三峽區溪東路238巷9號","121.408193333333","24.9313516666667","6500900","三峽區"
"237011","572-TV","2017/06/27 18:19:32","新北市三峽區溪東路218巷2-1號","121.407286666667","24.9322583333333","6500900","三峽區"
"237016","649-BX","2017/06/27 18:19:32","新北市三峽區紫微路19號","121.424173333333","24.9207116666667","6500900","三峽區"
"237010","706-TV","2017/06/27 18:19:23","新北市三峽區中山路257巷1號","121.362558333333","24.9372616666667","6500900","三峽區"
"237005","AKY-6261","2017/06/27 18:19:33","新北市三峽區民族街3號","121.369145","24.93132","6500900","三峽區"
"236070","105-UM","2017/06/27 18:19:21","新北市土城區明德路一段128巷19號","121.462966666667","24.9787833333333","6501300","土城區"
"236043","107-UM","2017/06/27 18:19:37","新北市土城區裕生路21巷6弄20號","121.448526666667","24.9866966666667","6501300","土城區"
"236079","166-UM","2017/06/27 18:19:37","新北市土城區中央路三段281巷11弄3號","121.426418333333","24.9628983333333","6501300","土城區"
"236031","253-BX","2017/06/27 18:19:22","新北市土城區順風路41號","121.440695","24.97676","6501300","土城區"
"236027","269-VK","2017/06/27 18:19:39","新北市土城區承天路67號","121.439543333333","24.96349","6501300","土城區"
"236015","270-VK","2017/06/27 18:19:35","新北市土城區立清街69號","121.460263333333","24.9873316666667","6501300","土城區"
"236038","271-VK","2017/06/27 18:19:20","新北市土城區青雲路483巷10弄13號","121.459431666667","24.973235","6501300","土城區"
"236023","401-BY","2017/06/27 18:19:23","新北市土城區裕民路124號","121.451261666667","24.986405","6501300","土城區"
"236059","912-UM","2017/06/27 18:19:21","新北市土城區中央路四段201號","121.414546666667","24.95637","6501300","土城區"
"236049","913-UM","2017/06/27 18:19:27","新北市土城區明德路一段361-3號","121.456341666667","24.977705","6501300","土城區"
"236063","915-UM","2017/06/27 18:19:19","新北市土城區金城路三段185-1號","121.469741666667","24.98873","6501300","土城區"
"236055","AAC-216","2017/06/27 18:19:24","新北市土城區中華路二段96號","121.438173333333","24.9744833333333","6501300","土城區"
"242021","AAC-296","2017/06/27 18:19:42","新北市新莊區新興街24巷2號","121.4509","25.0367316666667","6500500","新莊區"
"242029","986-R7","2017/06/27 18:19:21","新北市新莊區幸福路838號","121.444853333333","25.0490666666667","6500500","新莊區"
"242025","615-BX","2017/06/27 18:19:37","新北市新莊區五權一路12巷12號","121.457283333333","25.0645383333333","6500500","新莊區"
"242042","497-BY","2017/06/27 18:19:39","新北市新莊區天祥街81巷24號","121.41512","25.0285333333333","6500500","新莊區"
"242046","441-UM","2017/06/27 18:19:21","新北市新莊區中正路829巷7號","121.421125","25.02774","6500500","新莊區"
"242032","415-TV","2017/06/27 18:19:24","新北市新莊區新泰路277巷43弄10號","121.443706666667","25.0399383333333","6500500","新莊區"
"242002","413-TV","2017/06/27 18:19:41","新北市新莊區思明街6號","121.455695","25.035","6500500","新莊區"
"242061","362-BY","2017/06/27 18:19:22","新北市新莊區民安路93號","121.424276666667","25.0255416666667","6500500","新莊區"
"242058","353-BY","2017/06/27 18:19:25","桃園市龜山區萬壽路一段42號","121.40872","25.01906","6500500","新莊區"
"242011","132-UY","2017/06/27 18:19:31","新北市新莊區中榮街49巷5號","121.449553333333","25.05225","6500500","新莊區"
"242044","172-VK","2017/06/27 18:19:40","新北市新莊區雙鳳路92號","121.414733333333","25.0278416666667","6500500","新莊區"
"242007","173-VK","2017/06/27 18:19:31","新北市新莊區自強街37巷1號","121.454491666667","25.04642","6500500","新莊區"
"242056","176-VK","2017/06/27 18:19:25","新北市新莊區瓊林路56-70號","121.443193333333","25.0252916666667","6500500","新莊區"
"242017","348-TH","2017/06/27 18:19:31","新北市新莊區中正路150號","121.4518","25.0363833333333","6500500","新莊區"
"242054","349-TH","2017/06/27 18:19:30","新北市新莊區民安西路410巷19號","121.42755","25.00911","6500500","新莊區"
"242015","350-TH","2017/06/27 18:19:30","新北市新莊區中和街123號","121.447251666667","25.048595","6500500","新莊區"
"238015","755-BX","2017/06/27 18:19:38","新北市樹林區文化街112巷34號","121.417831666667","24.99088","6500700","樹林區"
"238023","601-UM","2017/06/27 18:19:36","新北市樹林區三福街85巷8號","121.407203333333","25.0154783333333","6500700","樹林區"
"238019","599-UM","2017/06/27 18:19:36","新北市樹林區國凱街136巷26號","121.42368","24.9795983333333","6500700","樹林區"
"238018","571-TV","2017/06/27 18:19:36","新北市樹林區博愛一街10號","121.425321666667","24.99102","6500700","樹林區"
"238024","5061-A6","2017/06/27 18:19:26","新北市樹林區文化街91巷1號","121.416231666667","24.98951","6500700","樹林區"
"238022","312-TH","2017/06/27 18:19:23","新北市樹林區太平路174巷29弄1號","121.417735","24.9766483333333","6500700","樹林區"
"238021","311-TH","2017/06/27 18:06:04","新北市樹林區田尾街82號","121.409043333333","24.9582516666667","6500700","樹林區"
"238025","303-VK","2017/06/27 18:19:40","新北市樹林區保安街一段247號","121.419838333333","24.996725","6500700","樹林區"
"238017","283-BY","2017/06/27 18:19:35","新北市樹林區保安街三段12號","121.412615","25.0110816666667","6500700","樹林區"
"238014","282-BY","2017/06/27 18:19:36","新北市樹林區潭興街107巷18號","121.424628333333","24.9993233333333","6500700","樹林區"
"238007","268-VK","2017/06/27 18:19:29","新北市樹林區三俊街65巷42號","121.413673333333","25.017845","6500700","樹林區"
"238026","172-UY","2017/06/27 18:19:24","新北市樹林區佳園路一段81號","121.393393333333","24.9697633333333","6500700","樹林區"
"238016","169-UY","2017/06/27 18:19:31","新北市樹林區文化街28號","121.419365","24.98781","6500700","樹林區"
"239007","AAC-297","2017/06/27 18:19:40","新北市鶯歌區育英街67號","121.347476666667","24.9522033333333","6500800","鶯歌區"
"239006","891-R6","2017/06/27 18:19:38","新北市鶯歌區德昌街140巷3號","121.33205","24.9606633333333","6500800","鶯歌區"
"239008","527-UM","2017/06/27 18:19:24","新北市鶯歌區國際一路179號","121.336205","24.9765166666667","6500800","鶯歌區"
"239005","526-UM","2017/06/27 18:19:42","新北市鶯歌區鶯桃路668巷52弄21號","121.329786666667","24.9703266666667","6500800","鶯歌區"
"239001","417-VK","2017/06/27 18:19:38","新北市鶯歌區國中街178號","121.338255","24.9392183333333","6500800","鶯歌區"
"239003","360-BY","2017/06/27 18:19:26","新北市鶯歌區福安街58號","121.335573333333","24.96525","6500800","鶯歌區"
"239002","359-BY","2017/06/27 18:19:28","新北市鶯歌區中正一路159號","121.352658333333","24.95641","6500800","鶯歌區"
"239004","193-VK","2017/06/27 18:19:37","新北市鶯歌區尖山路卓厝巷1號","121.342045","24.94581","6500800","鶯歌區"
"221008","489-VK","2017/06/27 18:19:22","新北市汐止區汐萬路一段312號","121.650113333333","25.07559","6501100","汐止區"
"221036","130-UY","2017/06/27 18:19:37","新北市汐止區長安路48號","121.668603333333","25.07834","6501100","汐止區"
"221015","131-UY","2017/06/27 18:19:31","新北市汐止區長江街367-1號","121.66812","25.0826633333333","6501100","汐止區"
"221010","269-BY","2017/06/27 18:19:20","新北市汐止區祥雲街33號","121.646853333333","25.0900466666667","6501100","汐止區"
"221010","276-VK","2017/06/27 13:21:27","新北市汐止區汐萬路一段256巷3號","121.653423333333","25.0746033333333","6501100","汐止區"
"221031","277-VK","2017/06/27 00:09:53","新北市汐止區汐萬路一段256巷3號","121.652553333333","25.0746416666667","6501100","汐止區"
"221012","278-VK","2017/06/27 18:19:35","新北市汐止區保長路33號","121.672548333333","25.0795233333333","6501100","汐止區"
"221023","279-VK","2017/06/27 15:09:03","新北市汐止區康寧街901號","121.6521","25.0754133333333","6501100","汐止區"
"221032","280-BY","2017/06/27 18:19:30","新北市汐止區民權街二段109巷32號","121.619945","25.04626","6501100","汐止區"
"221027","281-BY","2017/06/27 18:19:38","新北市汐止區和平街11號","121.663108333333","25.07074","6501100","汐止區"
"221029","298-VK","2017/06/27 18:19:22","新北市汐止區樟樹二路330巷72-1號","121.643041666667","25.0699466666667","6501100","汐止區"
"221021","299-VK","2017/06/27 18:09:28","新北市汐止區龍安路202巷24號","121.652745","25.06347","6501100","汐止區"
"221002","488-VK","2017/06/27 18:19:39","新北市汐止區福德一路201巷30號","121.635931666667","25.06496","6501100","汐止區"
"221035","622-UM","2017/06/27 18:19:39","新北市汐止區大同路二段179號","121.65209","25.06423","6501100","汐止區"
"221025","623-UM","2017/06/27 18:19:37","新北市汐止區秀峰路143號","121.660408333333","25.062195","6501100","汐止區"
"221038","646-BX","2017/06/27 18:19:24","新北市汐止區仁愛路148號","121.663756666667","25.06457","6501100","汐止區"
"221033","647-BX","2017/06/27 18:19:24","新北市汐止區宜興街59巷7號","121.622023333333","25.0427516666667","6501100","汐止區"
"221018","753-BX","2017/06/27 18:19:35","新北市汐止區茄苳路88巷32號","121.667613333333","25.0699166666667","6501100","汐止區"
"220068","568-UM","2017/06/27 18:19:24","新北市板橋區民生路二段36-1號","121.47254","25.0166166666667","6500100","板橋區"
"220054","741-BX","2017/06/27 16:40:19","新北市板橋區民生路二段22號","121.472691666667","25.0166716666667","6500100","板橋區"
