"lineid","car","time","location","longitude","latitude","cityid","cityname"
"234046","148-BY","2017/06/27 18:48:53","新北市永和區秀朗路二段126巷30號","121.52466","25.0008466666667","6500400","永和區"
"234013","149-BY","2017/06/27 18:49:01","新北市永和區保福路二段133巷32號","121.508948333333","25.0134616666667","6500400","永和區"
"234007","207-UY","2017/06/27 18:48:54","新北市永和區永和路二段198號","121.515666666667","25.0137733333333","6500400","永和區"
"234081","298-R6","2017/06/27 18:48:59","新北市永和區永利路130號","121.521788333333","25.0030016666667","6500400","永和區"
"234038","336-UY","2017/06/27 18:48:57","新北市永和區成功路二段103號","121.526756666667","24.9989816666667","6500400","永和區"
"234064","337-UY","2017/06/27 18:48:51","新北市永和區福和路1號","121.525613333333","25.009335","6500400","永和區"
"234086","338-UY","2017/06/27 18:49:04","新北市永和區中正路5號","121.513901666667","24.9956166666667","6500400","永和區"
"234070","552-UM","2017/06/27 18:48:57","新北市永和區竹林路96巷4號","121.51911","25.0121683333333","6500400","永和區"
"234054","553-UM","2017/06/27 18:49:04","新北市永和區竹林路64號","121.51826","25.01351","6500400","永和區"
"234030","746-BX","2017/06/27 18:49:04","新北市永和區得和路321號","121.523393333333","24.9995966666667","6500400","永和區"
"234061","AAD-866","2017/06/27 18:48:49","新北市永和區福和路311號","121.51621","25.0070533333333","6500400","永和區"
"234042","862-TW","2017/06/27 18:48:54","新北市永和區永貞路306號","121.51189","25.004875","6500400","永和區"
"234050","863-TW","2017/06/27 18:48:56","新北市永和區保安路2號","121.510855","25.0174716666667","6500400","永和區"
"234011","9373-KE","2017/06/27 18:48:58","新北市永和區文化路126巷10弄2號","121.513125","25.0158616666667","6500400","永和區"
"249005","172-UM","2017/06/27 18:48:56","新北市八里區長道坑7-3號","121.393345","25.1238366666667","6502300","八里區"
"249001","173-UM","2017/06/27 18:48:58","新北市八里區龍米路二段7號","121.448746666667","25.1392433333333","6502300","八里區"
"248014","025-BX","2017/06/27 18:48:46","新北市五股區成泰路二段250號","121.440291666667","25.0872133333333","6501500","五股區"
"248006","077-UY","2017/06/27 18:48:55","新北市五股區中興路一段171巷67號","121.464745","25.071135","6501500","五股區"
"248008","095-VK","2017/06/27 18:48:56","新北市五股區中興路一段151巷47號","121.465181666667","25.0719","6501500","五股區"
"248020","225-UY","2017/06/27 18:42:15","新北市五股區孝義路87號","121.444555","25.1199533333333","6501500","五股區"
"248012","247-BX","2017/06/27 18:48:50","新北市五股區成泰路二段147巷23-13號","121.438056666667","25.08741","6501500","五股區"
"248016","261-SL","2017/06/27 18:49:05","新北市五股區凌雲路一段149巷42號","121.448651666667","25.100985","6501500","五股區"
"248010","272-BY","2017/06/27 18:49:08","新北市五股區水碓五路81號","121.42998","25.0719283333333","6501500","五股區"
"248004","677-BX","2017/06/27 18:48:51","新北市五股區民義路二段52-22號","121.409468333333","25.1052583333333","6501500","五股區"
"248002","678-BX","2017/06/27 18:48:59","新北市五股區成泰路三段433號","121.449841666667","25.0977983333333","6501500","五股區"
"234023","9380-KE","2017/06/27 18:48:56","新北市永和區竹林路119巷22弄39號","121.522655","25.0112383333333","6500400","永和區"
"234077","969-R7","2017/06/27 18:49:02","新北市永和區中正路2巷27號","121.513868333333","24.99352","6500400","永和區"
"234074","AAC-211","2017/06/27 18:49:05","新北市永和區福和路1號","121.526465","25.0098116666667","6500400","永和區"
"234067","AAC-212","2017/06/27 18:48:57","新北市中和區永貞路264號","121.513766666667","25.0036233333333","6500400","永和區"
"234003","AAC-295","2017/06/27 18:47:14","新北市永和區中正路688號","121.516618333333","25.009535","6500400","永和區"
"232011","375-UM","2017/06/27 18:48:50","新北市坪林區坪雙路一段5號","121.711256666667","24.940255","6502000","坪林區"
"244013","069-UM","2017/06/27 18:48:58","新北市林口區中正路514巷6弄1號","121.382233333333","25.0781283333333","6501700","林口區"
"244007","080-UY","2017/06/27 18:48:54","新北市林口區太平里5-12號","121.379981666667","25.1132566666667","6501700","林口區"
"244019","403-UM","2017/06/27 18:48:50","新北市林口區忠孝路604巷18號","121.376593333333","25.0673033333333","6501700","林口區"
"244009","410-SL","2017/06/27 18:48:56","新北市林口區文化二路二段369號","121.381146666667","25.0866933333333","6501700","林口區"
"244023","483-VK","2017/06/27 18:48:52","新北市林口區文化三路二段211巷95-1號","121.375286666667","25.08436","6501700","林口區"
"244017","656-BX","2017/06/27 18:49:03","新北市林口區文化二路一段20巷21號","121.365666666667","25.067615","6501700","林口區"
"244011","701-TV","2017/06/27 18:49:05","新北市林口區中正路57巷12弄23號","121.39471","25.0762466666667","6501700","林口區"
"244025","837-TS","2017/06/27 18:49:08","新北市林口區南勢街192巷1號","121.360865","25.07476","6501700","林口區"
"243013","AAD-798","2017/06/27 18:49:02","新北市泰山區明志路三段206巷1號","121.42332","25.03791","6501600","泰山區"
"243015","380-SR","2017/06/27 18:49:02","新北市泰山區美寧街58號","121.430505","25.064745","6501600","泰山區"
"243014","421-VK","2017/06/27 18:49:03","新北市泰山區犁頭窠3-1號","121.422131666667","25.0605716666667","6501600","泰山區"
"243010","548-UM","2017/06/27 18:49:01","新北市泰山區公園路4號","121.429926666667","25.0539566666667","6501600","泰山區"
"243012","646-TV","2017/06/27 18:48:53","新北市泰山區福興三街13號","121.434398333333","25.0577616666667","6501600","泰山區"
"243016","680-BX","2017/06/27 18:49:05","新北市泰山區明志路二段135號","121.427696666667","25.0508183333333","6501600","泰山區"
"222003","436-BY","2017/06/27 18:48:47","新北市深坑區翠谷街17巷30號","121.625941666667","25.0097433333333","6501800","深坑區"
"222002","659-BX","2017/06/27 18:48:57","新北市深坑區文山路一段62巷3號","121.622888333333","25.0008566666667","6501800","深坑區"
"222001","696-SL","2017/06/27 18:49:06","新北市深坑區松柏街30巷1號","121.63868","25.0113233333333","6501800","深坑區"
"231041","002-UM","2017/06/27 18:49:01","新北市新店區安華路28-1號","121.519853333333","24.9606933333333","6500600","新店區"
"231056","0291-UT","2017/06/27 18:49:01","新北市新店區建國路150號","121.538761666667","24.97926","6500600","新店區"
"231059","046-UY","2017/06/27 18:49:03","新北市新店區安華路28-1號","121.519615","24.96081","6500600","新店區"
"231061","047-UY","2017/06/27 18:48:49","新北市新店區安忠路56巷3號","121.51243","24.9588633333333","6500600","新店區"
"231060","106-UY","2017/06/27 18:49:01","新北市新店區安華路28-1號","121.51967","24.9606616666667","6500600","新店區"
"231051","107-UY","2017/06/27 18:48:55","新北市新店區中央路81號","121.53231","24.9767016666667","6500600","新店區"
"231048","108-UY","2017/06/27 18:48:55","新北市新店區寶橋路6巷4號","121.543391666667","24.9735016666667","6500600","新店區"
"231053","187-VK","2017/06/27 18:49:04","新北市新店區長興路21號","121.546501666667","24.939885","6500600","新店區"
"231069","189-VK","2017/06/27 12:01:49","新北市新店區安華路28-1號","121.51977","24.9610933333333","6500600","新店區"
"231063","268-BY","2017/06/27 18:49:03","新北市新店區安忠路205巷8號","121.510206666667","24.9554933333333","6500600","新店區"
"231046","278-BY","2017/06/27 18:49:07","新北市新店區直潭路47號","121.53329","24.9424566666667","6500600","新店區"
"231050","AAD-862","2017/06/27 18:48:59","新北市新店區安康路一段255號","121.524566666667","24.9633283333333","6500600","新店區"
"231058","3712-VJ","2017/06/27 18:49:03","新北市新店區北宜路一段105巷2號","121.539506666667","24.9554433333333","6500600","新店區"
"231055","3713-VJ","2017/06/27 18:48:59","新北市新店區新生街12號","121.540111666667","24.9661683333333","6500600","新店區"
"231067","4772-VM","2017/06/27 18:49:03","新北市新店區安康路一段76巷20-1號","121.528595","24.9631966666667","6500600","新店區"
"231065","512-UM","2017/06/27 18:49:05","新北市新店區安豐路48號","121.500345","24.9541516666667","6500600","新店區"
"231054","513-UM","2017/06/27 18:48:52","新北市新店區安康路一段79巷1號","121.529788333333","24.9612466666667","6500600","新店區"
"231064","515-UM","2017/06/27 18:49:04","新北市新店區安華路28-1號","121.519671666667","24.9608183333333","6500600","新店區"
"231042","616-UM","2017/06/27 18:48:49","新北市新店區中正路71號","121.543498333333","24.9696516666667","6500600","新店區"
"231045","617-UM","2017/06/27 18:49:01","新北市新店區安華路28-1號","121.519388333333","24.9608733333333","6500600","新店區"
"231040","619-UM","2017/06/27 18:49:06","新北市新店區中央路91號","121.531938333333","24.976145","6500600","新店區"
"231049","719-UM","2017/06/27 18:49:06","新北市新店區中正路454-5號","121.534481666667","24.9790283333333","6500600","新店區"
"231062","720-UM","2017/06/27 18:48:55","新北市新店區安忠路57巷11弄14號","121.515358333333","24.9579533333333","6500600","新店區"
"231044","897-TW","2017/06/27 18:49:01","新北市新店區中興路二段188號","121.548193333333","24.9729033333333","6500600","新店區"
"231043","899-TW","2017/06/27 18:49:05","新北市新店區安康路一段235號","121.525241666667","24.96317","6500600","新店區"
"231066","AKT-0513","2017/06/27 18:48:58","新北市新店區安康路二段345號","121.496071666667","24.954975","6500600","新店區"
"235066","003-UY","2017/06/27 18:48:52","新北市中和區水源路7巷29號","121.504048333333","25.0039733333333","6500300","中和區"
"235064","005-UY","2017/06/27 18:49:06","新北市中和區連城路109巷1號","121.49658","24.9993683333333","6500300","中和區"
"235063","006-UY","2017/06/27 18:48:53","新北市中和區連城路367號","121.487423333333","24.9962516666667","6500300","中和區"
"235062","031-BX","2017/06/27 18:48:48","新北市中和區景平路703巷2弄2號","121.496205","25.0034966666667","6500300","中和區"
"235056","096-UM","2017/06/27 18:49:04","新北市板橋區民生路一段10號","121.478368333333","25.0112466666667","6500300","中和區"
"235039","097-UM","2017/06/27 18:48:57","新北市中和區宜安路18巷6號","121.513586666667","24.9961416666667","6500300","中和區"
"235040","150-BY","2017/06/27 18:49:01","新北市中和區安平路63號","121.50997","24.9954316666667","6500300","中和區"
"235058","151-BY","2017/06/27 18:48:43","新北市中和區連城路534巷10號","121.475205","24.9921283333333","6500300","中和區"
"235019","183-VK","2017/06/27 18:48:55","新北市板橋區民族路276巷3弄4號","121.469966666667","25.0061233333333","6500300","中和區"
"235038","185-VK","2017/06/27 18:48:50","新北市中和區立人街14巷40弄1號","121.518858333333","24.9955733333333","6500300","中和區"
"235049","186-VK","2017/06/27 18:48:49","新北市中和區景安路163號","121.505435","24.994535","6500300","中和區"
"235067","255-BX","2017/06/27 18:49:02","新北市中和區中正路879號","121.484378333333","25.0040683333333","6500300","中和區"
"235044","293-VK","2017/06/27 18:48:49","新北市中和區復興路280巷15號","121.502245","24.9913816666667","6500300","中和區"
"235072","301-VK","2017/06/27 18:49:07","新北市中和區中山路二段129號","121.502546666667","25.0033483333333","6500300","中和區"
"235043","352-BY","2017/06/27 18:49:05","新北市中和區成功路139號","121.526056666667","24.990325","6500300","中和區"
"235051","376-QA","2017/06/27 18:48:54","新北市中和區華新街143巷55弄30號","121.507808333333","24.9802233333333","6500300","中和區"
"235068","377-QA","2017/06/27 18:48:49","新北市中和區中正路167巷13號","121.498285","24.9929316666667","6500300","中和區"
"235061","378-QA","2017/06/27 18:49:00","新北市中和區民享街91-6號","121.474561666667","25.0010733333333","6500300","中和區"
"235050","4979-A6","2017/06/27 18:49:06","新北市中和區忠孝街62巷18號","121.51246","24.9834583333333","6500300","中和區"
"235069","4980-A6","2017/06/27 18:48:57","新北市中和區連城路67-1號","121.497588333333","25.0012366666667","6500300","中和區"
"235042","551-UM","2017/06/27 18:49:04","新北市中和區秀朗路三段110號","121.52541","24.9929033333333","6500300","中和區"
"235070","558-UM","2017/06/27 18:48:50","新北市中和區南華路19號","121.5028","24.99586","6500300","中和區"
"235045","565-BX","2017/06/27 18:49:03","新北市中和區南山路389號","121.506485","24.9903016666667","6500300","中和區"
"235054","640-BX","2017/06/27 18:48:51","新北市中和區民享街56號","121.47406","25.0024","6500300","中和區"
"235060","647-TV","2017/06/27 18:48:57","新北市中和區中山路三段35號","121.478895","25.005765","6500300","中和區"
"235047","732-UM","2017/06/27 18:48:47","新北市中和區興南路二段97號","121.506138333333","24.9846833333333","6500300","中和區"
"235046","733-UM","2017/06/27 18:48:53","新北市中和區忠孝街101巷5號","121.511633333333","24.986015","6500300","中和區"
"235071","783-BX","2017/06/27 18:48:58","新北市中和區員山路36巷16-2號","121.485406666667","24.991115","6500300","中和區"
"235057","801-TS","2017/06/27 18:49:06","新北市中和區民安街22巷3號","121.480225","25.00092","6500300","中和區"
"235041","802-TS","2017/06/27 18:48:53","新北市中和區中和路260號","121.507901666667","24.9992383333333","6500300","中和區"
"235052","805-TS","2017/06/27 18:48:48","新北市中和區興南路二段399巷86號","121.499955","24.9783883333333","6500300","中和區"
"235048","896-TW","2017/06/27 18:48:53","新北市中和區南山路250巷2號","121.507711666667","24.989045","6500300","中和區"
"235053","900-TW","2017/06/27 18:49:07","新北市中和區華安街16巷18號","121.46589","24.997345","6500300","中和區"
"235037","AAC-213","2017/06/27 18:48:49","新北市中和區景平路111巷9弄2號","121.516626666667","24.9911433333333","6500300","中和區"
"235059","AAC-215","2017/06/27 18:49:00","新北市中和區圓通路385號","121.490225","24.989195","6500300","中和區"
"220065","072-UY","2017/06/27 18:48:50","新北市板橋區民生路二段15-1號","121.472685","25.016415","6500100","板橋區"
"220086","073-UY","2017/06/27 18:49:07","新北市板橋區南雅西路二段180巷14號","121.452266666667","25.013955","6500100","板橋區"
"220106","075-UY","2017/06/27 18:48:59","新北市板橋區民生路二段89-6號","121.47054","25.0193633333333","6500100","板橋區"
"247006","335-TH","2017/06/27 18:48:43","新北市五股區新五路二段279號","121.442778333333","25.0860766666667","6501400","蘆洲區"
"247014","057-VK","2017/06/27 18:43:40","新北市五股區中興路三段163號","121.44944","25.0809016666667","6501400","蘆洲區"
"226004","312-R5","2017/06/27 18:48:54","新北市平溪區靜安路二段393號","121.738685","25.0246783333333","6502400","平溪區"
"228001","212-TW","2017/06/27 18:48:53","新北市貢寮區仁理村研海街12-1號","121.923805","25.0516333333333","6502600","貢寮區"
"228002","585-TW","2017/06/27 18:49:06","新北市貢寮區福隆里東興街6-11號","121.950741666667","25.021095","6502600","貢寮區"
"228003","828-UM","2017/06/27 18:47:53","新北市貢寮區和美里龍洞街60號","121.913605","25.11537","6502600","貢寮區"
"224006","676-BX","2017/06/27 18:48:50","新北市瑞芳區中正路100號","121.80512","25.1077033333333","6501200","瑞芳區"
"224011","420-VK","2017/06/27 18:48:59","新北市瑞芳區崙頂路1-6號","121.847176666667","25.1047766666667","6501200","瑞芳區"
"224009","285-BY","2017/06/27 18:49:02","新北市瑞芳區祈堂路2號","121.859768333333","25.1116733333333","6501200","瑞芳區"
"224008","275-VK","2017/06/27 18:48:56","新北市瑞芳區逢甲路412-2號","121.797965","25.1145016666667","6501200","瑞芳區"
"224007","272-VK","2017/06/27 18:48:45","新北市瑞芳區大埔路76號","121.76237","25.1013966666667","6501200","瑞芳區"
"224005","271-BY","2017/06/27 18:49:07","新北市瑞芳區瑞濱路55-3號","121.825281666667","25.12088","6501200","瑞芳區"
"227003","642-TC","2017/06/27 18:48:51","新北市雙溪區平林里梅竹蹊32號","121.861521666667","25.0359833333333","6502500","雙溪區"
"227009","400-TW","2017/06/27 18:48:50","新北市雙溪區牡丹里聖南19號","121.857115","25.0528","6502500","雙溪區"
"253006","032-BX","2017/06/27 18:48:47","新北市石門區下員坑16號","121.510668333333","25.28379","6502200","石門區"
"253005","295-VK","2017/06/27 18:49:06","新北市石門區中山路28-3號","121.565748333333","25.2898433333333","6502200","石門區"
"208003","665-BX","2017/06/27 18:48:42","新北市金山區中山路393號","121.633445","25.2252116666667","6502700","金山區"
"208001","761-BX","2017/06/27 18:48:53","新北市金山區文化三路66巷2弄1號","121.634296666667","25.225665","6502700","金山區"
"251014","180-VK","2017/06/27 18:48:56","新北市淡水區崙頂17號","121.486465","25.2230966666667","6501000","淡水區"
"251008","181-VK","2017/06/27 18:49:08","新北市淡水區北投子65號","121.454466666667","25.181425","6501000","淡水區"
"251010","413-VK","2017/06/27 18:48:57","新北市淡水區沙崙路13號","121.421143333333","25.181285","6501000","淡水區"
"251012","441-VK","2017/06/27 18:48:57","新北市淡水區北新路10號","121.444546666667","25.1776","6501000","淡水區"
"251016","442-VK","2017/06/27 18:48:56","新北市淡水區下圭柔山71-3號","121.447091666667","25.206145","6501000","淡水區"
"251001","559-UM","2017/06/27 18:49:08","新北市淡水區自強路112號","121.462828333333","25.1320283333333","6501000","淡水區"
"251009","575-R6","2017/06/27 18:48:49","新北市淡水區重建街162號","121.440711666667","25.1738083333333","6501000","淡水區"
"251007","577-R6","2017/06/27 18:48:58","新北市淡水區民生路140號","121.46436","25.1383716666667","6501000","淡水區"
"251011","650-BX","2017/06/27 18:48:59","新北市淡水區鄧公路30-6號","121.45195","25.1694733333333","6501000","淡水區"
"251002","672-BX","2017/06/27 18:49:07","新北市淡水區學府路88號","121.448986666667","25.17071","6501000","淡水區"
"251003","766-UM","2017/06/27 18:48:48","新北市淡水區中山北路一段149巷24號","121.442913333333","25.1780016666667","6501000","淡水區"
"207003","550-UM","2017/06/27 18:49:05","新北市萬里區大鵬里頂社1-2號","121.657361666667","25.2096716666667","6502800","萬里區"
"207004","225-TW","2017/06/27 18:48:59","新北市萬里區萬里里獅頭路23號","121.693213333333","25.1782916666667","6502800","萬里區"
"252002","178-VK","2017/06/27 18:48:45","新北市三芝區中正路一段99號","121.504575","25.2565833333333","6502100","三芝區"
"252003","249-BX","2017/06/27 18:48:59","新北市三芝區後厝里土地公坑73-2號","121.460828333333","25.2474","6502100","三芝區"
"252001","702-TV","2017/06/27 18:48:59","新北市三芝區中正路三段9號","121.502936666667","25.2540016666667","6502100","三芝區"
"208002","170-UY","2017/06/27 18:49:02","新北市金山區信義路66號","121.63565","25.2189566666667","6502700","金山區"
"237004","078-UY","2017/06/27 18:49:06","新北市三峽區有木150-1號","121.449796666667","24.8469483333333","6500900","三峽區"
"237007","153-BY","2017/06/27 18:48:49","新北市三峽區柑樹路9號","121.362251666667","24.9060766666667","6500900","三峽區"
"237013","252-BX","2017/06/27 18:48:59","新北市三峽區光明路69巷25號","121.376706666667","24.92921","6500900","三峽區"
"237012","275-BY","2017/06/27 18:48:52","新北市三峽區三樹路340號","121.383961666667","24.943345","6500900","三峽區"
"237008","302-VK","2017/06/27 18:48:53","新北市三峽區白雞67號","121.396406666667","24.9110566666667","6500900","三峽區"
"237014","433-BY","2017/06/27 18:49:06","新北市三峽區隆恩街232號","121.357791666667","24.94114","6500900","三峽區"
"237006","5529-G3","2017/06/27 18:49:02","新北市三峽區溪東路233巷11弄8號","121.406628333333","24.9339433333333","6500900","三峽區"
"237011","572-TV","2017/06/27 18:48:52","新北市三峽區介壽路三段163-1號","121.401158333333","24.94344","6500900","三峽區"
"237016","649-BX","2017/06/27 18:48:52","新北市三峽區竹崙路96號","121.43337","24.9148366666667","6500900","三峽區"
"237010","706-TV","2017/06/27 18:49:03","新北市三峽區國光街364巷21號","121.371138333333","24.940375","6500900","三峽區"
"237005","AKY-6261","2017/06/27 18:48:53","新北市三峽區中山路321號","121.36077","24.93772","6500900","三峽區"
"236070","105-UM","2017/06/27 18:49:01","新北市土城區延和路21巷41號","121.463593333333","24.98926","6501300","土城區"
"236043","107-UM","2017/06/27 18:48:57","新北市土城區裕民路92巷25弄3號","121.449688333333","24.9858666666667","6501300","土城區"
"236079","166-UM","2017/06/27 18:49:04","新北市土城區中央路四段125巷2弄3號","121.416791666667","24.957005","6501300","土城區"
"236031","253-BX","2017/06/27 18:49:02","新北市土城區中央路三段59號","121.439021666667","24.96948","6501300","土城區"
"236027","269-VK","2017/06/27 18:48:59","新北市土城區興城路48號","121.441378333333","24.9727183333333","6501300","土城區"
"236015","270-VK","2017/06/27 18:48:55","新北市土城區金城路二段354巷18號","121.460955","24.9841866666667","6501300","土城區"
"236038","271-VK","2017/06/27 18:49:00","新北市土城區明德路一段238號","121.460218333333","24.9772966666667","6501300","土城區"
"236023","401-BY","2017/06/27 18:49:03","新北市土城區延吉街253巷17號","121.468","24.9841933333333","6501300","土城區"
"236059","912-UM","2017/06/27 18:49:02","新北市土城區中央路三段165號","121.431826666667","24.9653983333333","6501300","土城區"
"236049","913-UM","2017/06/27 18:48:46","新北市板橋區廣權路2號","121.460233333333","24.9906983333333","6501300","土城區"
"236063","915-UM","2017/06/27 18:48:59","新北市土城區延和路191-1號","121.469368333333","24.990295","6501300","土城區"
"236055","AAC-216","2017/06/27 18:49:06","新北市土城區裕民路100號","121.450536666667","24.9868533333333","6501300","土城區"
"242007","173-VK","2017/06/27 18:48:51","新北市板橋區大觀路三段131-1號","121.435091666667","24.992195","6500500","新莊區"
"242054","349-TH","2017/06/27 18:48:50","新北市樹林區八德街395號","121.415403333333","24.97138","6500500","新莊區"
"238023","601-UM","2017/06/27 18:48:56","新北市樹林區三福街114號","121.406485","25.0162883333333","6500700","樹林區"
"238019","599-UM","2017/06/27 18:48:57","新北市樹林區東榮街171巷2弄1號","121.414145","24.98102","6500700","樹林區"
"238018","571-TV","2017/06/27 18:48:56","新北市樹林區鎮前街156號","121.42449","24.9901783333333","6500700","樹林區"
"238024","5061-A6","2017/06/27 18:49:06","新北市樹林區太平路148號","121.418565","24.9781916666667","6500700","樹林區"
"238022","312-TH","2017/06/27 18:49:03","新北市樹林區中華路379巷78弄9號","121.413203333333","24.977075","6500700","樹林區"
"238025","303-VK","2017/06/27 18:48:48","新北市樹林區中山路三段22號","121.395615","24.972935","6500700","樹林區"
"238017","283-BY","2017/06/27 18:48:55","新北市樹林區光興街50號","121.409845","25.002735","6500700","樹林區"
"238014","282-BY","2017/06/27 18:48:56","新北市樹林區大安路111巷11號","121.423126666667","24.9976166666667","6500700","樹林區"
"238007","268-VK","2017/06/27 18:48:49","新北市樹林區俊英街280號","121.423713333333","25.0132433333333","6500700","樹林區"
"238026","172-UY","2017/06/27 18:49:03","新北市樹林區信和街136-2號","121.390536666667","24.9720433333333","6500700","樹林區"
"238016","169-UY","2017/06/27 18:48:51","新北市樹林區文化街28號","121.419343333333","24.987705","6500700","樹林區"
"239007","AAC-297","2017/06/27 18:49:00","新北市鶯歌區成功街36號","121.358231666667","24.957735","6500800","鶯歌區"
"239006","891-R6","2017/06/27 18:48:58","新北市鶯歌區鶯桃路268巷16弄9號","121.336273333333","24.96023","6500800","鶯歌區"
"239008","527-UM","2017/06/27 18:49:04","新北市鶯歌區晨曦街4號","121.337181666667","24.97654","6500800","鶯歌區"
"239005","526-UM","2017/06/27 18:49:02","新北市鶯歌區鳳吉一街138號","121.328181666667","24.975075","6500800","鶯歌區"
"239001","417-VK","2017/06/27 18:48:57","新北市鶯歌區永明街60巷7號","121.340633333333","24.9554316666667","6500800","鶯歌區"
"239003","360-BY","2017/06/27 18:48:46","新北市鶯歌區永和街251-1號","121.335476666667","24.9711533333333","6500800","鶯歌區"
"239002","359-BY","2017/06/27 18:48:48","新北市鶯歌區中正一路276號","121.355406666667","24.9571","6500800","鶯歌區"
"239004","193-VK","2017/06/27 18:48:57","新北市鶯歌區中正三路293-1號","121.329371666667","24.936235","6500800","鶯歌區"
"221008","489-VK","2017/06/27 18:49:02","新北市汐止區康寧街901號","121.65133","25.0750016666667","6501100","汐止區"
"221036","130-UY","2017/06/27 18:48:48","新北市汐止區水碓街47號","121.665205","25.0694716666667","6501100","汐止區"
"221010","269-BY","2017/06/27 18:49:00","新北市汐止區汐萬路一段312號","121.650063333333","25.075105","6501100","汐止區"
"221010","276-VK","2017/06/27 13:21:27","新北市汐止區汐萬路一段256巷3號","121.653423333333","25.0746033333333","6501100","汐止區"
"221031","277-VK","2017/06/27 00:09:53","新北市汐止區汐萬路一段256巷3號","121.652553333333","25.0746416666667","6501100","汐止區"
"221012","278-VK","2017/06/27 18:48:54","新北市汐止區康寧街901號","121.650846666667","25.0752533333333","6501100","汐止區"
"221023","279-VK","2017/06/27 18:48:32","新北市汐止區康寧街901號","121.651138333333","25.07551","6501100","汐止區"
"221032","280-BY","2017/06/27 18:48:50","新北市汐止區橫科路241-6號","121.622638333333","25.0485183333333","6501100","汐止區"
"221027","281-BY","2017/06/27 18:48:59","新北市汐止區汐萬路一段256巷3號","121.653318333333","25.074635","6501100","汐止區"
"221029","298-VK","2017/06/27 18:49:02","新北市汐止區樟樹一路93號","121.642285","25.0633183333333","6501100","汐止區"
"221021","299-VK","2017/06/27 18:32:48","新北市汐止區連興街24號","121.655208333333","25.0634866666667","6501100","汐止區"
"221002","488-VK","2017/06/27 18:48:59","新北市汐止區大同路一段99號","121.628441666667","25.054415","6501100","汐止區"
"221035","622-UM","2017/06/27 18:48:59","新北市汐止區汐萬路一段144號","121.653148333333","25.07108","6501100","汐止區"
"221025","623-UM","2017/06/27 18:48:56","新北市汐止區大同路二段341-1號","121.65614","25.0671916666667","6501100","汐止區"
"221038","646-BX","2017/06/27 18:49:04","新北市汐止區康寧街901號","121.651618333333","25.07503","6501100","汐止區"
"221033","647-BX","2017/06/27 18:49:04","新北市汐止區南勢街1巷1號","121.627023333333","25.03741","6501100","汐止區"
"221018","753-BX","2017/06/27 18:48:56","新北市汐止區茄苳路42號","121.66584","25.0707983333333","6501100","汐止區"
"220079","145-BY","2017/06/27 18:48:57","新北市板橋區民權路202巷2弄1號","121.459571666667","25.0141833333333","6500100","板橋區"
"220082","610-BX","2017/06/27 18:48:55","新北市板橋區篤行路二段69號","121.431818333333","24.9921016666667","6500100","板橋區"
"220101","245-BX","2017/06/27 15:37:47","新北市板橋區民生路二段120號","121.470576666667","25.0195133333333","6500100","板橋區"
"220069","258-TC","2017/06/27 18:48:50","新北市板橋區民生路二段36-1號","121.472533333333","25.0165566666667","6500100","板橋區"
"220056","276-BY","2017/06/27 18:48:58","新北市板橋區四川路二段47巷2號","121.453873333333","24.9952966666667","6500100","板橋區"
"220072","277-BY","2017/06/27 18:49:04","新北市板橋區金門街31巷15號","121.434171666667","24.9939283333333","6500100","板橋區"
"220094","283-UM","2017/06/27 18:49:05","新北市板橋區民生路二段120號","121.470395","25.0196866666667","6500100","板橋區"
"220071","283-VK","2017/06/27 18:48:46","新北市板橋區民生路二段36-1號","121.472611666667","25.01656","6500100","板橋區"
"220053","285-VK","2017/06/27 18:48:57","新北市板橋區民生路二段15-1號","121.472748333333","25.0162566666667","6500100","板橋區"
"220083","286-VK","2017/06/27 18:49:05","新北市板橋區大觀路二段21號","121.446845","25.00331","6500100","板橋區"
"220081","287-VK","2017/06/27 18:48:57","新北市板橋區大觀路一段35巷1號","121.449375","25.008445","6500100","板橋區"
"220090","288-VK","2017/06/27 18:48:58","新北市板橋區民生路二段120號","121.470428333333","25.01979","6500100","板橋區"
"220061","293-UM","2017/06/27 18:48:58","新北市板橋區民生路二段15-1號","121.472671666667","25.0164016666667","6500100","板橋區"
"220084","296-UM","2017/06/27 18:48:59","新北市板橋區大觀路二段148巷23號","121.441878333333","25.000105","6500100","板橋區"
"220075","297-UM","2017/06/27 18:49:00","新北市板橋區大觀路一段28巷106-3號","121.451136666667","25.01074","6500100","板橋區"
"220062","305-R5","2017/06/27 15:25:55","新北市板橋區民生路二段15-1號","121.472793333333","25.0163466666667","6500100","板橋區"
"220092","307-R5","2017/06/27 18:49:01","新北市板橋區民生路二段120號","121.470473333333","25.0196316666667","6500100","板橋區"
"220098","317-R6","2017/06/27 18:48:58","新北市板橋區民生路二段161巷5號","121.470258333333","25.0197416666667","6500100","板橋區"
"220064","486-VK","2017/06/27 15:18:23","新北市板橋區民生路二段17號","121.472625","25.0165033333333","6500100","板橋區"
"220089","487-VK","2017/06/27 18:49:05","新北市板橋區民生路二段120號","121.470605","25.01946","6500100","板橋區"
"220088","491-VK","2017/06/27 18:48:49","新北市板橋區民生路二段161巷3號","121.470061666667","25.0197466666667","6500100","板橋區"
"220035","560-BX","2017/06/27 18:49:02","新北市板橋區中正路275巷77號","121.452253333333","25.0180683333333","6500100","板橋區"
"220103","561-BX","2017/06/27 18:49:08","新北市板橋區民生路二段161巷5號","121.47026","25.0197166666667","6500100","板橋區"
"220068","568-UM","2017/06/27 18:49:04","新北市板橋區民生路二段36-1號","121.472476666667","25.0165783333333","6500100","板橋區"
"220063","609-BX","2017/06/27 18:48:51","新北市板橋區民生路二段15-1號","121.472686666667","25.016465","6500100","板橋區"
"220057","686-BX","2017/06/27 18:49:03","新北市板橋區民生路二段36-1號","121.472531666667","25.016545","6500100","板橋區"
"220077","687-BX","2017/06/27 18:49:03","新北市板橋區大觀路二段174巷135-1號","121.441281666667","25.0022633333333","6500100","板橋區"
"220093","689-BX","2017/06/27 18:48:53","新北市板橋區民生路二段120號","121.470616666667","25.0197033333333","6500100","板橋區"
"220054","741-BX","2017/06/27 18:48:53","新北市板橋區民生路二段36-1號","121.472545","25.0167233333333","6500100","板橋區"
"220055","827-TW","2017/06/27 18:48:48","新北市板橋區民生路二段15-1號","121.472896666667","25.016155","6500100","板橋區"
"220067","829-TW","2017/06/27 18:48:50","新北市板橋區民生路二段36-1號","121.472543333333","25.0165583333333","6500100","板橋區"
"220102","830-TW","2017/06/27 15:39:12","新北市板橋區民生路二段120號","121.47054","25.0195983333333","6500100","板橋區"
"220096","831-TW","2017/06/27 15:25:44","新北市板橋區民生路二段120號","121.470348333333","25.0196666666667","6500100","板橋區"
"220074","895-R6","2017/06/27 18:48:49","新北市板橋區南雅南路二段18號","121.454621666667","25.003505","6500100","板橋區"
"220073","985-R7","2017/06/27 18:48:56","新北市板橋區館前西路47號","121.457976666667","25.00696","6500100","板橋區"
"220097","AAC-210","2017/06/27 18:48:57","新北市板橋區民生路二段120號","121.470435","25.01971","6500100","板橋區"
"220070","AAC-253","2017/06/27 18:49:00","新北市板橋區民生路二段17號","121.472558333333","25.0163033333333","6500100","板橋區"
