"lineid","car","time","location","longitude","latitude","cityid","cityname"
"234046","148-BY","2017/06/27 19:18:53","新北市永和區秀朗路二段148巷7弄2號","121.525271666667","25.000445","6500400","永和區"
"234013","149-BY","2017/06/27 19:19:01","新北市永和區仁愛路122號","121.511515","25.0131716666667","6500400","永和區"
"234007","207-UY","2017/06/27 19:18:53","新北市永和區永貞路422號","121.508576666667","25.0083916666667","6500400","永和區"
"234081","298-R6","2017/06/27 19:19:04","新北市永和區福和路57巷14弄1號","121.522775","25.0070016666667","6500400","永和區"
"234038","336-UY","2017/06/27 19:18:58","新北市永和區民樂街45巷1號","121.527548333333","24.9994816666667","6500400","永和區"
"234064","337-UY","2017/06/27 19:18:51","新北市永和區永元路50號","121.522241666667","25.0009933333333","6500400","永和區"
"234086","338-UY","2017/06/27 19:19:04","新北市永和區永亨路7號","121.519308333333","25.005765","6500400","永和區"
"234070","552-UM","2017/06/27 19:18:57","新北市永和區中正路682號","121.516755","25.0093033333333","6500400","永和區"
"234054","553-UM","2017/06/27 19:19:04","新北市永和區中興街32號","121.51626","25.0116983333333","6500400","永和區"
"234017","745-BX","2017/06/27 19:19:03","新北市永和區環河西路一段95巷19弄23號","121.511858333333","25.017045","6500400","永和區"
"234030","746-BX","2017/06/27 19:19:04","新北市永和區厚德街79號","121.52452","24.9987683333333","6500400","永和區"
"234061","AAD-866","2017/06/27 19:19:09","新北市永和區秀朗路一段120號","121.517088333333","25.00362","6500400","永和區"
"234042","862-TW","2017/06/27 19:18:54","新北市永和區保平路151巷2弄7-2號","121.509641666667","25.0052","6500400","永和區"
"234050","863-TW","2017/06/27 19:18:56","新北市永和區保福路二段88巷29號","121.511921666667","25.0137916666667","6500400","永和區"
"234026","9371-KE","2017/06/27 19:18:59","新北市永和區安樂路84號","121.514535","24.9986333333333","6500400","永和區"
"234011","9373-KE","2017/06/27 19:18:58","新北市永和區仁愛路141巷3弄21號","121.512141666667","25.012535","6500400","永和區"
"249005","172-UM","2017/06/27 19:18:56","新北市八里區中華路三段145巷11號","121.39256","25.13294","6502300","八里區"
"249001","173-UM","2017/06/27 19:18:58","新北市八里區中華路一段272號","121.416073333333","25.155345","6502300","八里區"
"249003","593-UM","2017/06/27 19:18:52","新北市八里區中山路二段466巷36弄20號","121.398753333333","25.1485783333333","6502300","八里區"
"248020","225-UY","2017/06/27 19:18:54","新北市五股區凌雲路三段57號","121.425321666667","25.1250066666667","6501500","五股區"
"248012","247-BX","2017/06/27 19:18:50","新北市五股區中興路四段48巷9號","121.438236666667","25.083355","6501500","五股區"
"248016","261-SL","2017/06/27 19:19:05","新北市五股區成洲五路12號","121.4524","25.1015483333333","6501500","五股區"
"248010","272-BY","2017/06/27 19:19:08","新北市五股區自強路90巷72號","121.430701666667","25.0712416666667","6501500","五股區"
"248004","677-BX","2017/06/27 19:18:51","新北市五股區五福路43號","121.433251666667","25.0895833333333","6501500","五股區"
"248002","678-BX","2017/06/27 19:18:59","新北市五股區凌雲路一段158巷14-1號","121.447808333333","25.103485","6501500","五股區"
"234023","9380-KE","2017/06/27 19:18:59","新北市永和區竹林路126號","121.519868333333","25.01139","6500400","永和區"
"234077","969-R7","2017/06/27 19:19:02","新北市永和區民族街41巷17號","121.519298333333","24.99894","6500400","永和區"
"234074","AAC-211","2017/06/27 19:19:05","新北市永和區復興街91號","121.517718333333","25.0142033333333","6500400","永和區"
"234067","AAC-212","2017/06/27 19:19:02","新北市永和區保平路30巷4號","121.511888333333","25.0074116666667","6500400","永和區"
"234003","AAC-295","2017/06/27 19:16:34","新北市永和區永平路152巷4號","121.511576666667","25.0089033333333","6500400","永和區"
"244013","069-UM","2017/06/27 19:18:58","新北市林口區麗園一街1號","121.375841666667","25.0723833333333","6501700","林口區"
"244019","403-UM","2017/06/27 19:18:50","新北市林口區麗園二街60巷16號","121.380971666667","25.0679183333333","6501700","林口區"
"244009","410-SL","2017/06/27 19:18:56","新北市林口區台電新村3號","121.388121666667","25.0863866666667","6501700","林口區"
"244023","483-VK","2017/06/27 19:18:52","新北市林口區民有街30號","121.372128333333","25.07663","6501700","林口區"
"244011","701-TV","2017/06/27 19:19:05","新北市林口區中正路268號","121.389346666667","25.0779166666667","6501700","林口區"
"243013","AAD-798","2017/06/27 19:19:02","新北市泰山區明志路三段161號","121.424785","25.0395066666667","6501600","泰山區"
"243009","297-R6","2017/06/27 19:18:50","新北市泰山區和平街9-2號","121.434115","25.064625","6501600","泰山區"
"243015","380-SR","2017/06/27 19:18:55","新北市泰山區公園路71號","121.426335","25.055375","6501600","泰山區"
"243014","421-VK","2017/06/27 19:19:03","新北市泰山區泰林路二段222號","121.432626666667","25.0619266666667","6501600","泰山區"
"243010","548-UM","2017/06/27 19:19:01","新北市泰山區明志路二段34號","121.42967","25.05329","6501600","泰山區"
"243011","549-UM","2017/06/27 19:19:04","新北市泰山區貴子路15巷1弄6號","121.426335","25.04216","6501600","泰山區"
"243012","646-TV","2017/06/27 19:18:53","新北市泰山區仁愛路65號","121.433035","25.0554633333333","6501600","泰山區"
"243016","680-BX","2017/06/27 19:19:05","新北市泰山區工專路7號","121.423715","25.03955","6501600","泰山區"
"222003","436-BY","2017/06/27 19:18:47","新北市深坑區深南路204號","121.626641666667","25.016045","6501800","深坑區"
"222002","659-BX","2017/06/27 19:18:57","新北市深坑區北深路一段177號","121.63255","25.0109333333333","6501800","深坑區"
"222001","696-SL","2017/06/27 19:19:06","新北市深坑區北深路二段70號","121.618181666667","25.0038033333333","6501800","深坑區"
"231041","002-UM","2017/06/27 19:19:01","新北市新店區溪園路245-6號","121.52534","24.9832066666667","6500600","新店區"
"231059","046-UY","2017/06/27 19:19:03","新北市新店區安和路三段4巷1-3號","121.518228333333","24.9806016666667","6500600","新店區"
"231061","047-UY","2017/06/27 19:18:49","新北市新店區安康路一段279號","121.523706666667","24.9635083333333","6500600","新店區"
"231060","106-UY","2017/06/27 19:19:01","新北市新店區安康路二段156號","121.512335","24.9608916666667","6500600","新店區"
"231051","107-UY","2017/06/27 19:18:55","新北市新店區百忍街59號","121.532821666667","24.9768766666667","6500600","新店區"
"231048","108-UY","2017/06/27 19:18:55","新北市新店區中興路二段79巷19號","121.545975","24.9714066666667","6500600","新店區"
"231053","187-VK","2017/06/27 19:19:04","新北市新店區自強路219號","121.546886666667","24.9194266666667","6500600","新店區"
"231069","189-VK","2017/06/27 12:01:49","新北市新店區安華路28-1號","121.51977","24.9610933333333","6500600","新店區"
"231063","268-BY","2017/06/27 19:19:03","新北市新店區達觀路16號","121.503066666667","24.94077","6500600","新店區"
"231046","278-BY","2017/06/27 19:19:07","新北市新店區華城路6號","121.530181666667","24.9605066666667","6500600","新店區"
"231050","AAD-862","2017/06/27 19:18:59","新北市新店區竹林路90號","121.554148333333","24.9501683333333","6500600","新店區"
"231058","3712-VJ","2017/06/27 19:19:03","新北市新店區光明街286巷2號","121.540593333333","24.9638733333333","6500600","新店區"
"231067","4772-VM","2017/06/27 19:19:03","新北市新店區安康路二段414巷2號","121.495838333333","24.9577816666667","6500600","新店區"
"231065","512-UM","2017/06/27 19:19:05","新北市新店區安祥路108巷35號","121.474961666667","24.9572083333333","6500600","新店區"
"231054","513-UM","2017/06/27 19:18:52","新北市新店區國校路37巷2號","121.537926666667","24.9557566666667","6500600","新店區"
"231064","515-UM","2017/06/27 19:19:04","新北市新店區安忠路57巷26弄45號","121.512005","24.95766","6500600","新店區"
"231042","616-UM","2017/06/27 19:18:49","新北市新店區北宜路一段3號","121.538396666667","24.9585266666667","6500600","新店區"
"231045","617-UM","2017/06/27 19:19:01","新北市新店區北宜路一段260號","121.545656666667","24.9527733333333","6500600","新店區"
"231040","619-UM","2017/06/27 19:19:06","新北市新店區三民路24號","121.537056666667","24.9709716666667","6500600","新店區"
"231049","719-UM","2017/06/27 19:19:06","新北市新店區明德路66號","121.54159","24.97952","6500600","新店區"
"231062","720-UM","2017/06/27 19:18:55","新北市新店區莒光路61巷1號","121.52367","24.95807","6500600","新店區"
"231044","897-TW","2017/06/27 19:19:01","新北市新店區中興路三段324號","121.542073333333","24.9862333333333","6500600","新店區"
"231043","899-TW","2017/06/27 19:19:05","新北市新店區寶橋路25號","121.543988333333","24.9740066666667","6500600","新店區"
"231066","AKT-0513","2017/06/27 19:18:58","新北市新店區安康路三段355巷17號","121.484863333333","24.9503866666667","6500600","新店區"
"241009","060-VK","2017/06/27 19:18:53","新北市三重區仁美街115號","121.48568","25.0810416666667","6500200","三重區"
"241031","061-VK","2017/06/27 19:19:05","新北市三重區重新路四段101-5號","121.485751666667","25.0540933333333","6500200","三重區"
"241017","063-VK","2017/06/27 19:18:51","新北市三重區大同北路217號","121.491628333333","25.0659766666667","6500200","三重區"
"241026","066-VK","2017/06/27 19:19:05","新北市三重區重安街139號","121.495408333333","25.0546783333333","6500200","三重區"
"241007","265-UM","2017/06/27 19:18:54","新北市三重區慈愛街52號","121.486301666667","25.07928","6500200","三重區"
"241022","267-UM","2017/06/27 19:19:05","新北市三重區中正北路58號","121.48693","25.0643833333333","6500200","三重區"
"241032","269-UM","2017/06/27 19:18:54","新北市三重區新生街93-3號","121.483641666667","25.0594433333333","6500200","三重區"
"241020","413-TH","2017/06/27 19:18:54","新北市三重區後竹圍街103號","121.489071666667","25.0728783333333","6500200","三重區"
"241006","AAD-863","2017/06/27 19:19:00","新北市三重區車路頭街149-2號","121.48374","25.076855","6500200","三重區"
"241035","743-BX","2017/06/27 19:18:51","新北市三重區新北大道一段7號","121.489873333333","25.061375","6500200","三重區"
"241029","942-UM","2017/06/27 19:18:52","新北市三重區重安街15-1號","121.490631666667","25.05764","6500200","三重區"
"235066","003-UY","2017/06/27 19:18:52","新北市中和區枋寮街43號","121.501735","25.0007633333333","6500300","中和區"
"235064","005-UY","2017/06/27 19:19:06","新北市中和區連城路21號","121.498875","25.0020316666667","6500300","中和區"
"235063","006-UY","2017/06/27 19:18:53","新北市中和區連城路259號","121.492678333333","24.9967483333333","6500300","中和區"
"235056","096-UM","2017/06/27 19:19:04","新北市中和區中山路二段569號","121.480538333333","25.0057633333333","6500300","中和區"
"235039","097-UM","2017/06/27 19:18:57","新北市中和區景平路64巷13弄22號","121.521436666667","24.9914633333333","6500300","中和區"
"235040","150-BY","2017/06/27 19:19:01","新北市中和區保健路71-2號","121.510385","24.99691","6500300","中和區"
"235058","151-BY","2017/06/27 19:19:03","新北市中和區連城路469巷22弄5號","121.483185","24.9950816666667","6500300","中和區"
"235019","183-VK","2017/06/27 19:18:55","新北市中和區德光路16號","121.471251666667","25.0044966666667","6500300","中和區"
"235038","185-VK","2017/06/27 19:18:50","新北市中和區大仁街20巷25弄8號","121.518563333333","24.9935183333333","6500300","中和區"
"235049","186-VK","2017/06/27 19:18:49","新北市中和區景新街224-15號","121.507795","24.994645","6500300","中和區"
"235067","255-BX","2017/06/27 19:19:02","新北市中和區新生街176巷2號","121.483496666667","24.99998","6500300","中和區"
"235044","293-VK","2017/06/27 19:18:49","新北市中和區復興路331號","121.500646666667","24.99019","6500300","中和區"
"235072","301-VK","2017/06/27 19:18:47","新北市中和區連城路76號","121.497326666667","25.00121","6500300","中和區"
"235043","352-BY","2017/06/27 19:19:05","新北市中和區景平路280號","121.513605","24.9925433333333","6500300","中和區"
"235051","376-QA","2017/06/27 19:18:54","新北市中和區捷運路6號","121.510191666667","24.9897233333333","6500300","中和區"
"235068","377-QA","2017/06/27 19:18:49","新北市中和區連城路89巷60號","121.49772","24.9982783333333","6500300","中和區"
"235061","378-QA","2017/06/27 19:19:00","新北市中和區員山路314巷7弄5號","121.481953333333","25.0030733333333","6500300","中和區"
"235050","4979-A6","2017/06/27 19:16:46","新北市中和區景安路208巷46號","121.502428333333","24.9921616666667","6500300","中和區"
"235069","4980-A6","2017/06/27 19:18:57","新北市中和區廣福路71巷38號","121.502581666667","25.00035","6500300","中和區"
"235042","551-UM","2017/06/27 19:19:04","新北市中和區大勇街60巷14弄4-2號","121.518561666667","24.994465","6500300","中和區"
"235070","558-UM","2017/06/27 19:18:50","新北市中和區中和路102-1號","121.502245","24.9995633333333","6500300","中和區"
"235045","565-BX","2017/06/27 19:19:03","新北市中和區景新街437巷5號","121.513546666667","24.9891466666667","6500300","中和區"
"235054","640-BX","2017/06/27 19:18:51","新北市中和區民德路132號","121.46874","25.000755","6500300","中和區"
"235060","647-TV","2017/06/27 19:18:57","新北市中和區民有街49號","121.475945","25.0047066666667","6500300","中和區"
"235047","732-UM","2017/06/27 19:13:27","新北市中和區仁愛街8號","121.510523333333","24.9890733333333","6500300","中和區"
"235046","733-UM","2017/06/27 19:18:53","新北市中和區華新街131號","121.506761666667","24.9819266666667","6500300","中和區"
"235071","783-BX","2017/06/27 19:18:58","新北市中和區中正路637巷52弄1號","121.485505","24.99398","6500300","中和區"
"235057","801-TS","2017/06/27 19:19:05","新北市中和區民利街80號","121.478188333333","24.9981666666667","6500300","中和區"
"235041","802-TS","2017/06/27 19:18:53","新北市中和區宜安路116號","121.51037","24.998125","6500300","中和區"
"235052","805-TS","2017/06/27 19:18:48","新北市中和區興南路二段142巷17弄15號","121.503268333333","24.9831216666667","6500300","中和區"
"235048","896-TW","2017/06/27 19:18:53","新北市中和區忠孝街37-1號","121.510803333333","24.98336","6500300","中和區"
"235053","900-TW","2017/06/27 19:18:47","新北市中和區華福街83號","121.467568333333","24.9964866666667","6500300","中和區"
"235037","AAC-213","2017/06/27 19:19:09","新北市中和區自強路50號","121.520211666667","24.9948883333333","6500300","中和區"
"235059","AAC-215","2017/06/27 19:19:00","新北市中和區錦和路195巷1弄1號","121.490846666667","24.9907916666667","6500300","中和區"
"220065","072-UY","2017/06/27 19:18:50","新北市板橋區民族路219巷77號","121.46886","25.0089733333333","6500100","板橋區"
"220086","073-UY","2017/06/27 19:19:07","新北市板橋區中正路216巷150弄11號","121.460808333333","25.019015","6500100","板橋區"
"220106","075-UY","2017/06/27 19:18:59","新北市板橋區雙十路三段18巷1弄1號","121.471648333333","25.0306433333333","6500100","板橋區"
"247006","335-TH","2017/06/27 19:00:33","新北市五股區中興路三段163號","121.449193333333","25.0808283333333","6501400","蘆洲區"
"247014","057-VK","2017/06/27 19:19:03","新北市蘆洲區復興路30-1號","121.472418333333","25.0850366666667","6501400","蘆洲區"
"226004","312-R5","2017/06/27 19:18:54","新北市平溪區十分里十分街210號","121.779178333333","25.0444716666667","6502400","平溪區"
"228001","212-TW","2017/06/27 19:18:53","新北市貢寮區真理里新港街10號","121.925506666667","25.054385","6502600","貢寮區"
"228002","585-TW","2017/06/27 19:19:06","新北市貢寮區龍門里復興街46-4號","121.927826666667","25.028815","6502600","貢寮區"
"228003","828-UM","2017/06/27 19:18:13","新北市貢寮區和美里和美街19-2號","121.912805","25.0826066666667","6502600","貢寮區"
"224010","AGQ-8101","2017/06/27 19:18:05","新北市瑞芳區基山街31巷2號","121.845763333333","25.1092533333333","6501200","瑞芳區"
"224006","676-BX","2017/06/27 19:18:50","新北市瑞芳區中山路203號","121.801406666667","25.1067016666667","6501200","瑞芳區"
"224011","420-VK","2017/06/27 19:18:59","新北市瑞芳區崙頂路1-6號","121.847043333333","25.1046966666667","6501200","瑞芳區"
"224009","285-BY","2017/06/27 19:19:02","新北市瑞芳區洞頂路148號","121.85945","25.118","6501200","瑞芳區"
"224005","271-BY","2017/06/27 19:19:07","新北市瑞芳區員山子路3-7號","121.819503333333","25.1043183333333","6501200","瑞芳區"
"227003","642-TC","2017/06/27 19:18:51","新北市雙溪區平林里梅竹蹊66-1號","121.860148333333","25.035835","6502500","雙溪區"
"227009","400-TW","2017/06/27 19:19:00","新北市雙溪區新基里新基北街40號","121.868656666667","25.0380866666667","6502500","雙溪區"
"253006","032-BX","2017/06/27 19:19:07","新北市石門區楓林23-10號","121.538698333333","25.2911733333333","6502200","石門區"
"253005","295-VK","2017/06/27 19:19:06","新北市石門區阿里荖4-7號","121.612653333333","25.2790566666667","6502200","石門區"
"208003","665-BX","2017/06/27 19:19:02","新北市金山區中山路103號","121.639591666667","25.2191533333333","6502700","金山區"
"208001","761-BX","2017/06/27 19:18:53","新北市金山區慈護街25號","121.639501666667","25.2199966666667","6502700","金山區"
"251005","010-UM","2017/06/27 19:19:04","新北市淡水區水源街一段34巷1號","121.443195","25.17225","6501000","淡水區"
"251014","180-VK","2017/06/27 19:18:56","新北市淡水區小中寮19-7號","121.484781666667","25.2296283333333","6501000","淡水區"
"251010","413-VK","2017/06/27 19:18:57","新北市淡水區沙崙路30號","121.421513333333","25.1815233333333","6501000","淡水區"
"251016","442-VK","2017/06/27 19:18:56","新北市淡水區下圭柔山119-51號","121.450741666667","25.2084283333333","6501000","淡水區"
"251001","559-UM","2017/06/27 19:19:08","新北市淡水區民權路92巷35-1號","121.462065","25.1268083333333","6501000","淡水區"
"251009","575-R6","2017/06/27 19:18:49","新北市淡水區中山路141號","121.440883333333","25.1716833333333","6501000","淡水區"
"251007","577-R6","2017/06/27 19:18:58","新北市淡水區八勢路50巷8弄46號","121.463358333333","25.1525666666667","6501000","淡水區"
"251011","650-BX","2017/06/27 19:18:59","新北市淡水區中正東路二段143巷2弄1號","121.460621666667","25.147345","6501000","淡水區"
"251002","672-BX","2017/06/27 19:19:04","新北市淡水區中正路32巷1號","121.43099","25.1753033333333","6501000","淡水區"
"251003","766-UM","2017/06/27 19:19:03","新北市淡水區中山北路一段166號","121.444255","25.1783716666667","6501000","淡水區"
"207003","550-UM","2017/06/27 19:19:02","新北市萬里區大鵬里萬里加投79-3號","121.647378333333","25.2123433333333","6502800","萬里區"
"207004","225-TW","2017/06/27 19:18:59","新北市萬里區萬里里瑪鋉路4號","121.687633333333","25.17507","6502800","萬里區"
"252002","178-VK","2017/06/27 19:18:45","新北市三芝區埔坪里埔頭坑84號","121.508283333333","25.2542533333333","6502100","三芝區"
"252003","249-BX","2017/06/27 19:18:59","新北市三芝區埔坪里埔頭坑41號","121.504556666667","25.26466","6502100","三芝區"
"252001","702-TV","2017/06/27 19:18:59","新北市三芝區長勤街9巷9弄2號","121.501755","25.25496","6502100","三芝區"
"208002","170-UY","2017/06/27 19:19:02","新北市金山區環金路378號","121.631723333333","25.22235","6502700","金山區"
"237004","078-UY","2017/06/27 19:19:06","新北市三峽區有木205-1號","121.439058333333","24.8515633333333","6500900","三峽區"
"237007","153-BY","2017/06/27 19:18:49","新北市三峽區二鬮路57-1號","121.360946666667","24.9092333333333","6500900","三峽區"
"237009","210-TH","2017/06/27 19:18:58","新北市三峽區信義街18號","121.370841666667","24.935655","6500900","三峽區"
"237013","252-BX","2017/06/27 19:18:58","新北市三峽區大同路39巷22弄2號","121.377126666667","24.9276566666667","6500900","三峽區"
"237012","275-BY","2017/06/27 19:18:52","新北市三峽區三樹路222巷236弄8-3號","121.391375","24.9429733333333","6500900","三峽區"
"237008","302-VK","2017/06/27 19:18:59","新北市三峽區大同路114號","121.374181666667","24.9269016666667","6500900","三峽區"
"237014","433-BY","2017/06/27 19:19:06","新北市三峽區中山路63巷8號","121.36691","24.93433","6500900","三峽區"
"237006","5529-G3","2017/06/27 19:19:02","新北市三峽區介壽路二段26號","121.390695","24.9352183333333","6500900","三峽區"
"237011","572-TV","2017/06/27 19:18:52","新北市三峽區中園街149號","121.367315","24.9228083333333","6500900","三峽區"
"237016","649-BX","2017/06/27 19:18:52","新北市三峽區安坑64號","121.470405","24.929085","6500900","三峽區"
"237010","706-TV","2017/06/27 19:19:03","新北市三峽區復興路29號","121.373775","24.9364783333333","6500900","三峽區"
"237005","AKY-6261","2017/06/27 19:18:53","新北市三峽區中山路459巷24號","121.357498333333","24.9385266666667","6500900","三峽區"
"236070","105-UM","2017/06/27 19:19:01","新北市土城區中央路一段69巷2號","121.447911666667","24.989495","6501300","土城區"
"236079","166-UM","2017/06/27 19:19:04","新北市土城區中央路四段321巷32-1號","121.411715","24.9513483333333","6501300","土城區"
"236027","269-VK","2017/06/27 19:18:59","新北市土城區中央路二段149巷4號","121.442285","24.9765116666667","6501300","土城區"
"236015","270-VK","2017/06/27 19:18:55","新北市土城區學府路一段23巷23號","121.45779","24.9870283333333","6501300","土城區"
"236023","401-BY","2017/06/27 19:19:03","新北市土城區金城路三段198號","121.46863","24.9878366666667","6501300","土城區"
"236059","912-UM","2017/06/27 19:19:02","新北市土城區中央路三段38號","121.438576666667","24.9687033333333","6501300","土城區"
"236049","913-UM","2017/06/27 19:18:46","新北市土城區明德路一段398-1號","121.453661666667","24.9790766666667","6501300","土城區"
"242007","173-VK","2017/06/27 19:18:51","新北市新莊區新樹路613號","121.435623333333","25.0034983333333","6500500","新莊區"
"238015","755-BX","2017/06/27 19:18:50","新北市樹林區備內街49號","121.41213","24.9874583333333","6500700","樹林區"
"238023","601-UM","2017/06/27 19:18:56","新北市樹林區大慶街3號","121.396423333333","25.0143616666667","6500700","樹林區"
"238019","599-UM","2017/06/27 19:18:57","新北市樹林區鎮前街411巷20號","121.415798333333","24.9830166666667","6500700","樹林區"
"238018","571-TV","2017/06/27 19:18:56","新北市樹林區中華路257號","121.418118333333","24.9806166666667","6500700","樹林區"
"238024","5061-A6","2017/06/27 19:18:46","新北市樹林區味王街10-1號","121.402926666667","24.976125","6500700","樹林區"
"238022","312-TH","2017/06/27 19:19:03","新北市樹林區中山路二段151巷6弄1號","121.406731666667","24.97856","6500700","樹林區"
"238021","311-TH","2017/06/27 18:57:21","新北市樹林區西圳街二段30號","121.38854","24.9617783333333","6500700","樹林區"
"238025","303-VK","2017/06/27 19:18:48","新北市樹林區東興街2號","121.408866666667","24.9801633333333","6500700","樹林區"
"238017","283-BY","2017/06/27 19:18:55","新北市樹林區光興街50號","121.40985","25.002765","6500700","樹林區"
"238014","282-BY","2017/06/27 19:18:56","新北市樹林區中正路22-1號","121.42782","24.9994166666667","6500700","樹林區"
"238007","268-VK","2017/06/27 19:18:49","新北市樹林區俊英街181號","121.423703333333","25.0122516666667","6500700","樹林區"
"238026","172-UY","2017/06/27 19:19:03","新北市樹林區佳園路二段34號","121.391428333333","24.9623033333333","6500700","樹林區"
"238016","169-UY","2017/06/27 19:18:51","新北市樹林區中山路一段414號","121.417901666667","24.9853316666667","6500700","樹林區"
"239007","AAC-297","2017/06/27 19:19:00","新北市鶯歌區大湖路51號","121.342683333333","24.9622083333333","6500800","鶯歌區"
"239006","891-R6","2017/06/27 19:18:58","新北市鶯歌區鶯桃路35號","121.343105","24.9505516666667","6500800","鶯歌區"
"239008","527-UM","2017/06/27 19:19:04","新北市鶯歌區大湖路542號","121.336915","24.9728666666667","6500800","鶯歌區"
"239005","526-UM","2017/06/27 19:19:02","新北市鶯歌區中湖街313號","121.346511666667","24.9781666666667","6500800","鶯歌區"
"239001","417-VK","2017/06/27 19:19:01","新北市鶯歌區鶯桃路16號","121.342255","24.9516133333333","6500800","鶯歌區"
"239003","360-BY","2017/06/27 19:19:06","新北市鶯歌區尖山路174巷35弄20衖5號","121.343411666667","24.9488616666667","6500800","鶯歌區"
"239002","359-BY","2017/06/27 19:18:48","新北市鶯歌區大湖路424號","121.34228","24.9728983333333","6500800","鶯歌區"
"239004","193-VK","2017/06/27 19:18:57","新北市鶯歌區二甲路35號","121.340486666667","24.9371216666667","6500800","鶯歌區"
"221008","489-VK","2017/06/27 19:19:02","新北市汐止區康寧街301號","121.626933333333","25.067335","6501100","汐止區"
"221036","130-UY","2017/06/27 19:18:48","新北市汐止區汐萬路一段256巷3號","121.652551666667","25.0745416666667","6501100","汐止區"
"221010","269-BY","2017/06/27 19:19:00","新北市汐止區康寧街901號","121.651331666667","25.0749916666667","6501100","汐止區"
"221010","276-VK","2017/06/27 13:21:27","新北市汐止區汐萬路一段256巷3號","121.653423333333","25.0746033333333","6501100","汐止區"
"221031","277-VK","2017/06/27 00:09:53","新北市汐止區汐萬路一段256巷3號","121.652553333333","25.0746416666667","6501100","汐止區"
"221012","278-VK","2017/06/27 19:18:54","新北市汐止區汐萬路一段312號","121.650661666667","25.07529","6501100","汐止區"
"221023","279-VK","2017/06/27 19:07:13","新北市汐止區康寧街901號","121.651196666667","25.0757116666667","6501100","汐止區"
"221027","281-BY","2017/06/27 19:18:56","新北市汐止區康寧街901號","121.650886666667","25.0752733333333","6501100","汐止區"
"221029","298-VK","2017/06/27 19:19:02","新北市汐止區汐萬路一段256巷1號","121.651675","25.0748583333333","6501100","汐止區"
"221021","299-VK","2017/06/27 18:59:08","新北市汐止區汐萬路一段256巷3號","121.652046666667","25.074805","6501100","汐止區"
"221002","488-VK","2017/06/27 19:18:59","新北市汐止區大同路一段330號","121.6377","25.0589566666667","6501100","汐止區"
"221025","623-UM","2017/06/27 19:18:56","新北市汐止區康寧街901號","121.651436666667","25.07499","6501100","汐止區"
"221038","646-BX","2017/06/27 19:19:04","新北市汐止區康寧街901號","121.651695","25.0750383333333","6501100","汐止區"
"221033","647-BX","2017/06/27 19:19:04","新北市汐止區南勢街1巷1號","121.627023333333","25.037365","6501100","汐止區"
"220079","145-BY","2017/06/27 19:18:57","新北市板橋區民權路202巷17弄6號","121.460461666667","25.0166183333333","6500100","板橋區"
"220082","610-BX","2017/06/27 19:19:04","新北市板橋區滿平街62巷10弄8號","121.427015","24.9892116666667","6500100","板橋區"
"220101","245-BX","2017/06/27 19:18:52","新北市板橋區莒光路215號","121.47421","25.0228383333333","6500100","板橋區"
"220069","258-TC","2017/06/27 19:18:50","新北市板橋區華興街64號","121.457553333333","25.00489","6500100","板橋區"
"220056","276-BY","2017/06/27 19:18:58","新北市板橋區信義路215號","121.459461666667","24.9914683333333","6500100","板橋區"
"220072","277-BY","2017/06/27 19:19:04","新北市板橋區金門街260巷23號","121.429331666667","24.98669","6500100","板橋區"
"220094","283-UM","2017/06/27 19:19:05","新北市板橋區光武街110巷45-4號","121.467048333333","25.0302433333333","6500100","板橋區"
"220071","283-VK","2017/06/27 19:19:06","新北市板橋區重慶路245巷21號","121.464313333333","25.0008016666667","6500100","板橋區"
"220053","285-VK","2017/06/27 19:19:04","新北市板橋區富山街16號","121.478398333333","25.021815","6500100","板橋區"
"220083","286-VK","2017/06/27 19:19:05","新北市板橋區龍興街97巷15號","121.443446666667","25.002915","6500100","板橋區"
"220081","287-VK","2017/06/27 19:18:57","新北市板橋區南雅西路二段156巷2號","121.451723333333","25.0133783333333","6500100","板橋區"
"220090","288-VK","2017/06/27 19:18:58","新北市板橋區長江路一段106巷13弄35號","121.461351666667","25.0298383333333","6500100","板橋區"
"220061","293-UM","2017/06/27 19:18:58","新北市板橋區三民路二段21巷29號","121.480211666667","25.0182216666667","6500100","板橋區"
"220084","296-UM","2017/06/27 19:18:59","新北市板橋區溪崑二街56巷36號","121.428293333333","24.9915083333333","6500100","板橋區"
"220075","297-UM","2017/06/27 19:19:00","新北市板橋區南雅西路一段10巷12號","121.454631666667","25.0047233333333","6500100","板橋區"
"220062","305-R5","2017/06/27 18:56:02","新北市板橋區新民街13號","121.464028333333","25.0099283333333","6500100","板橋區"
"220092","307-R5","2017/06/27 19:19:00","新北市板橋區光武街36巷11號","121.467846666667","25.026255","6500100","板橋區"
"220098","317-R6","2017/06/27 19:18:58","新北市板橋區民有街88號","121.464956666667","25.02742","6500100","板橋區"
"220064","486-VK","2017/06/27 19:19:05","新北市板橋區板新路192號","121.469425","25.0159233333333","6500100","板橋區"
"220089","487-VK","2017/06/27 19:19:05","新北市板橋區文化路二段76號","121.469213333333","25.0250783333333","6500100","板橋區"
"220088","491-VK","2017/06/27 19:18:09","新北市板橋區文化路二段181號","121.470878333333","25.0279583333333","6500100","板橋區"
"220035","560-BX","2017/06/27 19:19:02","新北市板橋區中正路360巷50號","121.45622","25.022795","6500100","板橋區"
"220103","561-BX","2017/06/27 19:18:47","新北市板橋區介壽街42號","121.468601666667","25.0197816666667","6500100","板橋區"
"220068","568-UM","2017/06/27 19:19:04","新北市板橋區三民路一段1巷49號","121.480771666667","25.0248216666667","6500100","板橋區"
"220063","609-BX","2017/06/27 19:18:51","新北市板橋區三民路一段129號","121.479325","25.0210583333333","6500100","板橋區"
"220091","637-BX","2017/06/27 19:19:05","新北市板橋區縣民大道三段187巷11號","121.479141666667","25.0251416666667","6500100","板橋區"
"220057","686-BX","2017/06/27 19:19:03","新北市板橋區重慶路265號","121.463378333333","24.99994","6500100","板橋區"
"220077","687-BX","2017/06/27 19:19:00","新北市板橋區大觀路一段24號","121.450145","25.00858","6500100","板橋區"
"220093","689-BX","2017/06/27 19:18:53","新北市板橋區文化路一段383號","121.46726","25.021765","6500100","板橋區"
"220054","741-BX","2017/06/27 19:18:53","新北市板橋區實踐路33-2號","121.463696666667","25.0070916666667","6500100","板橋區"
"220055","827-TW","2017/06/27 19:18:49","新北市板橋區新民街1號","121.463861666667","25.0094316666667","6500100","板橋區"
"220067","829-TW","2017/06/27 19:18:50","新北市板橋區長安街178巷10號","121.474175","25.01102","6500100","板橋區"
"220102","830-TW","2017/06/27 19:18:55","新北市板橋區田單街25號","121.482268333333","25.0289866666667","6500100","板橋區"
"220096","831-TW","2017/06/27 19:18:59","新北市板橋區大同街8巷54-2號","121.477885","25.0263033333333","6500100","板橋區"
"220074","895-R6","2017/06/27 19:19:05","新北市板橋區中正路自強新村43-2號","121.454991666667","25.013865","6500100","板橋區"
"220073","985-R7","2017/06/27 19:19:00","新北市板橋區新生街89巷14號","121.457676666667","25.0223883333333","6500100","板橋區"
"220097","AAC-210","2017/06/27 19:18:57","新北市板橋區漢生西路89巷3弄2號","121.461481666667","25.0192816666667","6500100","板橋區"
"220070","AAC-253","2017/06/27 19:19:00","新北市板橋區四川路一段373號","121.458243333333","24.9995316666667","6500100","板橋區"
