"lineid","car","time","location","longitude","latitude","cityid","cityname"
"234046","148-BY","2017/06/27 20:18:53","新北市永和區永元路2號","121.522046666667","24.9998516666667","6500400","永和區"
"234013","149-BY","2017/06/27 20:19:01","新北市永和區保生路54號","121.505601666667","25.0086283333333","6500400","永和區"
"234007","207-UY","2017/06/27 20:18:53","新北市永和區環河西路二段217巷3號","121.501508333333","25.01006","6500400","永和區"
"234081","298-R6","2017/06/27 20:18:59","新北市永和區國中路104巷13弄2號","121.524701666667","25.0072016666667","6500400","永和區"
"234038","336-UY","2017/06/27 20:18:57","新北市永和區成功路一段47巷28號","121.527685","25.003815","6500400","永和區"
"234064","337-UY","2017/06/27 20:18:51","新北市永和區得和路245號","121.520468333333","25.000035","6500400","永和區"
"234086","338-UY","2017/06/27 20:19:04","新北市永和區永和路二段105號","121.514978333333","25.0118016666667","6500400","永和區"
"234070","552-UM","2017/06/27 20:18:57","新北市永和區永安街19號","121.519221666667","25.00684","6500400","永和區"
"234054","553-UM","2017/06/27 20:19:04","新北市永和區光復街2巷24號","121.517606666667","25.016515","6500400","永和區"
"234017","745-BX","2017/06/27 20:19:03","新北市永和區仁愛路89號","121.513038333333","25.0132183333333","6500400","永和區"
"234030","746-BX","2017/06/27 20:19:04","新北市永和區民有街75巷10弄3號","121.518463333333","24.996235","6500400","永和區"
"234061","AAD-866","2017/06/27 20:18:49","新北市永和區安樂路72巷4號","121.514911666667","24.99848","6500400","永和區"
"234042","862-TW","2017/06/27 20:18:53","新北市永和區雙和街2號","121.509873333333","25.00176","6500400","永和區"
"234050","863-TW","2017/06/27 20:18:55","新北市永和區文化路224號","121.509935","25.0169266666667","6500400","永和區"
"249005","172-UM","2017/06/27 20:18:56","新北市八里區下罟子2號","121.387425","25.14134","6502300","八里區"
"249001","173-UM","2017/06/27 20:18:58","新北市八里區中華路二段341-10號","121.3993","25.1448883333333","6502300","八里區"
"249004","303-UY","2017/06/27 20:18:47","新北市八里區中山路一段131號","121.413353333333","25.1592466666667","6502300","八里區"
"249002","305-UY","2017/06/27 20:19:01","新北市八里區龍米路一段100巷17號","121.453646666667","25.12513","6502300","八里區"
"249003","593-UM","2017/06/27 20:18:52","新北市八里區中山路二段447巷5號","121.396976666667","25.1456133333333","6502300","八里區"
"248014","025-BX","2017/06/27 20:16:49","新北市五股區成洲一路23號","121.450145","25.0956416666667","6501500","五股區"
"248008","095-VK","2017/06/27 20:18:56","新北市五股區四維路2號","121.467205","25.0699216666667","6501500","五股區"
"248012","247-BX","2017/06/27 20:09:10","新北市五股區六合街83號","121.430758333333","25.0898133333333","6501500","五股區"
"248016","261-SL","2017/06/27 20:18:45","新北市五股區凌雲路一段158巷39弄12號","121.446495","25.1040483333333","6501500","五股區"
"248010","272-BY","2017/06/27 20:19:08","新北市泰山區新五路一段104號","121.440425","25.0615133333333","6501500","五股區"
"248004","677-BX","2017/06/27 20:18:51","新北市五股區成泰路二段64號","121.437325","25.08207","6501500","五股區"
"248002","678-BX","2017/06/27 20:18:59","新北市五股區成泰路三段165號","121.445266666667","25.09182","6501500","五股區"
"234023","9380-KE","2017/06/27 20:18:56","新北市永和區永和路二段332號","121.516293333333","25.0165516666667","6500400","永和區"
"234077","969-R7","2017/06/27 20:19:02","新北市永和區民享街5號","121.515135","24.99552","6500400","永和區"
"234074","AAC-211","2017/06/27 20:19:05","新北市永和區豫溪街189巷1號","121.52259","25.0103116666667","6500400","永和區"
"234067","AAC-212","2017/06/27 20:18:57","新北市永和區保平路214巷8弄1號","121.509516666667","25.006255","6500400","永和區"
"234003","AAC-295","2017/06/27 20:16:34","新北市永和區自強街4號","121.514223333333","25.0080116666667","6500400","永和區"
"243013","AAD-798","2017/06/27 20:19:05","新北市泰山區新民路14巷5號","121.42636","25.0444733333333","6501600","泰山區"
"243009","297-R6","2017/06/27 20:18:51","新北市泰山區泰林路二段109-1號","121.434515","25.0592466666667","6501600","泰山區"
"243015","380-SR","2017/06/27 20:19:02","新北市泰山區仁德路2號","121.434946666667","25.057175","6501600","泰山區"
"243014","421-VK","2017/06/27 20:19:03","新北市泰山區泰林路二段394號","121.427915","25.0641216666667","6501600","泰山區"
"243010","548-UM","2017/06/27 20:19:01","新北市泰山區明志路二段254巷16弄5號","121.426131666667","25.0481416666667","6501600","泰山區"
"243011","549-UM","2017/06/27 20:19:04","新北市泰山區新北大道六段313巷13弄11號","121.424681666667","25.0339083333333","6501600","泰山區"
"243012","646-TV","2017/06/27 20:18:53","新北市泰山區楓江路67-5號","121.43669","25.0633616666667","6501600","泰山區"
"243016","680-BX","2017/06/27 20:19:05","新北市泰山區新生路10號","121.428495","25.0448516666667","6501600","泰山區"
"222003","436-BY","2017/06/27 20:18:47","新北市深坑區文化街76號","121.618116666667","25.0019916666667","6501800","深坑區"
"222002","659-BX","2017/06/27 20:18:57","新北市深坑區萬福路69號","121.601835","25.0082766666667","6501800","深坑區"
"222001","696-SL","2017/06/27 20:19:06","新北市深坑區北深路三段213號","121.600453333333","25.004025","6501800","深坑區"
"231041","002-UM","2017/06/27 20:19:01","新北市新店區民權路39號","121.54065","24.98288","6500600","新店區"
"231056","0291-UT","2017/06/27 20:19:01","新北市新店區中正路275巷19號","121.537135","24.97337","6500600","新店區"
"231059","046-UY","2017/06/27 20:19:03","新北市新店區安德街116巷42號","121.508418333333","24.9611233333333","6500600","新店區"
"231061","047-UY","2017/06/27 20:18:49","新北市新店區安興路32號","121.515735","24.9703333333333","6500600","新店區"
"231060","106-UY","2017/06/27 20:19:01","新北市新店區錦秀路1-3號","121.47905","24.9454583333333","6500600","新店區"
"231051","107-UY","2017/06/27 20:18:55","新北市新店區中央六街54號","121.52805","24.9757583333333","6500600","新店區"
"231048","108-UY","2017/06/27 20:18:55","新北市新店區寶橋路80號","121.54613","24.975605","6500600","新店區"
"231053","187-VK","2017/06/27 20:19:04","新北市新店區松林路6-6號","121.546786666667","24.91107","6500600","新店區"
"231069","189-VK","2017/06/27 12:01:49","新北市新店區安華路28-1號","121.51977","24.9610933333333","6500600","新店區"
"231057","256-BX","2017/06/27 20:18:51","新北市新店區花園五路一段24號","121.552321666667","24.9340083333333","6500600","新店區"
"231063","268-BY","2017/06/27 20:19:02","新北市新店區安康路二段320巷6號","121.504555","24.9595883333333","6500600","新店區"
"231050","AAD-862","2017/06/27 20:18:59","新北市新店區北宜路一段127巷10號","121.54181","24.95294","6500600","新店區"
"231055","3713-VJ","2017/06/27 20:18:59","新北市新店區新明街26巷12號","121.541515","24.968995","6500600","新店區"
"231067","4772-VM","2017/06/27 20:19:03","新北市新店區溪洲路8-1號","121.533678333333","24.9608166666667","6500600","新店區"
"231065","512-UM","2017/06/27 20:19:05","新北市新店區安祥路104-4號","121.480035","24.9623416666667","6500600","新店區"
"231054","513-UM","2017/06/27 20:18:52","新北市新店區檳榔路109號","121.544463333333","24.96166","6500600","新店區"
"231064","515-UM","2017/06/27 20:19:04","新北市新店區安和路二段120-6號","121.519098333333","24.9710066666667","6500600","新店區"
"231042","616-UM","2017/06/27 20:18:49","新北市新店區中興路二段231-2號","121.54784","24.975015","6500600","新店區"
"231045","617-UM","2017/06/27 20:19:01","新北市新店區五峰路138號","121.544506666667","24.9658566666667","6500600","新店區"
"231040","619-UM","2017/06/27 20:19:06","新北市新店區中正路146號","121.541711666667","24.9716216666667","6500600","新店區"
"231068","718-UY","2017/06/27 20:19:02","新北市新店區寶安街30號","121.542066666667","24.9823183333333","6500600","新店區"
"231049","719-UM","2017/06/27 20:19:06","新北市新店區北新路二段68號","121.542908333333","24.972365","6500600","新店區"
"231062","720-UM","2017/06/27 20:18:55","新北市新店區安泰路7巷16號","121.485635","24.95099","6500600","新店區"
"231044","897-TW","2017/06/27 20:19:01","新北市新店區北新路三段63號","121.54179","24.9809416666667","6500600","新店區"
"231043","899-TW","2017/06/27 20:19:05","新北市新店區建國路133號","121.539336666667","24.978295","6500600","新店區"
"231066","AKT-0513","2017/06/27 20:18:58","新北市新店區安興路105號","121.514761666667","24.9777633333333","6500600","新店區"
"241011","013-R5","2017/06/27 20:18:51","新北市三重區龍門路128號","121.498065","25.0729466666667","6500200","三重區"
"241028","022-UY","2017/06/27 20:18:59","新北市三重區大同南路133號","121.496428333333","25.0577416666667","6500200","三重區"
"241009","060-VK","2017/06/27 20:18:54","新北市三重區三和路四段382巷41號","121.48138","25.0785816666667","6500200","三重區"
"241031","061-VK","2017/06/27 20:19:05","新北市三重區三寧街25號","121.48956","25.0598216666667","6500200","三重區"
"241015","062-VK","2017/06/27 20:19:03","新北市三重區重新路一段116號","121.500583333333","25.0630933333333","6500200","三重區"
"241017","063-VK","2017/06/27 20:18:51","新北市三重區中正北路105號","121.48944","25.0633133333333","6500200","三重區"
"241024","065-VK","2017/06/27 20:18:57","新北市三重區忠孝路三段15巷12號","121.481088333333","25.0675183333333","6500200","三重區"
"241026","066-VK","2017/06/27 20:19:05","新北市三重區重新路一段52號","121.502678333333","25.0635783333333","6500200","三重區"
"241002","090-VK","2017/06/27 20:18:59","新北市三重區仁義街101巷2號","121.49786","25.0801116666667","6500200","三重區"
"241003","091-VK","2017/06/27 20:18:49","新北市三重區富華街55-3號","121.491021666667","25.083375","6500200","三重區"
"241005","262-UM","2017/06/27 20:19:00","新北市三重區分子尾街81號","121.489055","25.0824116666667","6500200","三重區"
"241007","265-UM","2017/06/27 20:18:54","新北市三重區溪尾街108巷71號","121.487093333333","25.0781616666667","6500200","三重區"
"241016","266-UM","2017/06/27 20:19:01","新北市三重區大同北路97-1號","121.494511666667","25.0636483333333","6500200","三重區"
"241022","267-UM","2017/06/27 20:19:05","新北市三重區市前街14號","121.489141666667","25.0624283333333","6500200","三重區"
"241018","268-UM","2017/06/27 20:19:04","新北市三重區雙園街83號","121.49412","25.0673983333333","6500200","三重區"
"241032","269-UM","2017/06/27 20:18:53","新北市三重區捷運路19巷6弄6號","121.484788333333","25.0569333333333","6500200","三重區"
"241013","270-UM","2017/06/27 20:19:03","新北市三重區三和路三段167巷4號","121.492076666667","25.0741666666667","6500200","三重區"
"241025","271-UM","2017/06/27 20:18:58","新北市三重區三民街272巷15號","121.478651666667","25.0676783333333","6500200","三重區"
"241008","412-TH","2017/06/27 20:18:55","新北市三重區永福街211巷13號","121.479415","25.074155","6500200","三重區"
"241020","413-TH","2017/06/27 20:18:54","新北市三重區三和路三段168號","121.492655","25.0731083333333","6500200","三重區"
"241004","475-VK","2017/06/27 20:18:49","新北市三重區溪尾街165巷46-1號","121.490501666667","25.080655","6500200","三重區"
"241019","478-VK","2017/06/27 20:18:51","新北市三重區忠孝路一段33號","121.491485","25.0719283333333","6500200","三重區"
"241030","480-VK","2017/06/27 20:18:58","新北市三重區集美街89巷2號","121.488695","25.0530666666667","6500200","三重區"
"241014","543-UM","2017/06/27 20:18:48","新北市三重區龍濱路251號","121.501503333333","25.072705","6500200","三重區"
"241023","545-UM","2017/06/27 20:19:04","新北市三重區忠孝路三段93巷12號","121.47866","25.0649033333333","6500200","三重區"
"241006","AAD-863","2017/06/27 20:18:59","新北市三重區車路頭街135-1號","121.484268333333","25.0761333333333","6500200","三重區"
"241035","743-BX","2017/06/27 20:19:01","新北市三重區正義北路120號","121.49679","25.06543","6500200","三重區"
"241001","887-TS","2017/06/27 20:18:54","新北市三重區自強路四段3巷7號","121.489076666667","25.0761","6500200","三重區"
"241012","941-UM","2017/06/27 20:18:53","新北市三重區河邊北街262號","121.501678333333","25.07644","6500200","三重區"
"241029","942-UM","2017/06/27 20:18:49","新北市三重區重安街98號","121.492688333333","25.0561066666667","6500200","三重區"
"241033","AAC-255","2017/06/27 20:18:51","新北市三重區五谷王北街50巷42號","121.475113333333","25.0513883333333","6500200","三重區"
"235066","003-UY","2017/06/27 20:18:52","新北市中和區南工路102號","121.507298333333","25.003345","6500300","中和區"
"235039","097-UM","2017/06/27 20:18:57","新北市中和區大勇街29巷12-1號","121.515963333333","24.9945816666667","6500300","中和區"
"235019","183-VK","2017/06/27 20:18:55","新北市中和區民生街33號","121.470351666667","25.0054383333333","6500300","中和區"
"235044","293-VK","2017/06/27 20:18:49","新北市中和區復興路56號","121.50384","24.9904783333333","6500300","中和區"
"235068","377-QA","2017/06/27 20:18:49","新北市中和區福祥路111號","121.498821666667","25.0064866666667","6500300","中和區"
"235050","4979-A6","2017/06/27 20:19:06","新北市中和區景平路392-2號","121.510301666667","24.9928983333333","6500300","中和區"
"235069","4980-A6","2017/06/27 20:18:57","新北市中和區南山路81巷56號","121.503908333333","24.9981366666667","6500300","中和區"
"235070","558-UM","2017/06/27 20:16:50","新北市中和區圓通路173號","121.49757","24.995205","6500300","中和區"
"235041","802-TS","2017/06/27 20:18:53","新北市中和區中安街104-1號","121.511688333333","25.00108","6500300","中和區"
"235037","AAC-213","2017/06/27 20:18:49","新北市中和區秀朗路三段74-3號","121.526236666667","24.994095","6500300","中和區"
"235059","AAC-215","2017/06/27 20:19:00","新北市中和區圓通路367巷13弄31號","121.49334","24.9881216666667","6500300","中和區"
"220065","072-UY","2017/06/27 20:19:01","新北市板橋區區運路72號","121.466771666667","25.0099633333333","6500100","板橋區"
"247020","893-R6","2017/06/27 20:18:45","新北市蘆洲區仁愛街92號","121.470495","25.09454","6501400","蘆洲區"
"247010","546-UM","2017/06/27 20:18:59","新北市蘆洲區信義路188巷18弄4號","121.480313333333","25.0843383333333","6501400","蘆洲區"
"247018","500-BY","2017/06/27 20:19:02","新北市蘆洲區民族路253-1號","121.476596666667","25.09025","6501400","蘆洲區"
"247008","339-TH","2017/06/27 20:18:56","新北市蘆洲區集賢路236-2號","121.48203","25.08594","6501400","蘆洲區"
"247024","337-TH","2017/06/27 20:18:55","新北市蘆洲區長興路50巷5號","121.464083333333","25.0840833333333","6501400","蘆洲區"
"247002","336-TH","2017/06/27 20:18:57","新北市蘆洲區長安街313巷6弄11號","121.456578333333","25.08657","6501400","蘆洲區"
"247006","335-TH","2017/06/27 20:18:55","新北市蘆洲區九芎街140號","121.464983333333","25.0789283333333","6501400","蘆洲區"
"247014","057-VK","2017/06/27 20:19:03","新北市蘆洲區成功路61號","121.472656666667","25.08068","6501400","蘆洲區"
"247004","056-VK","2017/06/27 20:18:57","新北市蘆洲區長安街230號","121.458328333333","25.08543","6501400","蘆洲區"
"247012","007-UY","2017/06/27 20:18:52","新北市蘆洲區民族路202號","121.479796666667","25.0875116666667","6501400","蘆洲區"
"247022","002-UY","2017/06/27 20:19:00","新北市蘆洲區中正路192巷2弄2號","121.46759","25.08837","6501400","蘆洲區"
"247016","001-UY","2017/06/27 20:19:01","新北市蘆洲區光華路132巷3號","121.466256666667","25.0826133333333","6501400","蘆洲區"
"224011","420-VK","2017/06/27 20:18:58","新北市瑞芳區汽車路101-2號","121.841291666667","25.1084516666667","6501200","瑞芳區"
"251014","180-VK","2017/06/27 20:18:55","新北市淡水區石頭厝1號","121.458741666667","25.2355483333333","6501000","淡水區"
"251008","181-VK","2017/06/27 20:18:48","新北市淡水區淡海路180巷22號","121.42154","25.18454","6501000","淡水區"
"251012","441-VK","2017/06/27 20:19:02","新北市淡水區淡金路三段403號","121.44905","25.2082516666667","6501000","淡水區"
"251016","442-VK","2017/06/27 20:19:00","新北市淡水區淡金路四段507號","121.451343333333","25.2283266666667","6501000","淡水區"
"251001","559-UM","2017/06/27 20:18:48","新北市淡水區新市二路四段265號","121.44576","25.192475","6501000","淡水區"
"251006","561-UM","2017/06/27 20:18:55","新北市淡水區北新路167號","121.450223333333","25.1794483333333","6501000","淡水區"
"251009","575-R6","2017/06/27 20:18:49","新北市淡水區中山路94號","121.442651666667","25.1705483333333","6501000","淡水區"
"251002","672-BX","2017/06/27 20:19:03","新北市淡水區中正路188號","121.440236666667","25.1699816666667","6501000","淡水區"
"251003","766-UM","2017/06/27 20:18:48","新北市淡水區中山北路一段166號","121.444225","25.1785083333333","6501000","淡水區"
"207004","225-TW","2017/06/27 20:18:59","新北市萬里區北基里仁四街2號","121.682078333333","25.17536","6502800","萬里區"
"252002","178-VK","2017/06/27 20:18:45","新北市三芝區利民街2號","121.50314","25.2592433333333","6502100","三芝區"
"252001","702-TV","2017/06/27 20:18:59","新北市三芝區中山路一段14號","121.5007","25.25802","6502100","三芝區"
"237007","153-BY","2017/06/27 20:18:49","新北市三峽區麻園9-21號","121.362393333333","24.9179166666667","6500900","三峽區"
"237008","302-VK","2017/06/27 20:18:53","新北市三峽區中正路一段174巷9號","121.37191","24.928895","6500900","三峽區"
"237006","5529-G3","2017/06/27 20:19:02","新北市三峽區嘉添1號","121.368341666667","24.9118483333333","6500900","三峽區"
"237016","649-BX","2017/06/27 20:18:52","新北市三峽區介壽路二段138巷45-2號","121.395295","24.9330933333333","6500900","三峽區"
"236070","105-UM","2017/06/27 20:19:00","新北市土城區亞洲路59號","121.433293333333","24.9710133333333","6501300","土城區"
"236043","107-UM","2017/06/27 20:18:57","新北市土城區學享街36號","121.451801666667","24.9869316666667","6501300","土城區"
"236079","166-UM","2017/06/27 20:19:04","新北市土城區金安街77號","121.42044","24.965125","6501300","土城區"
"236031","253-BX","2017/06/27 20:19:02","新北市土城區中央路一段45巷9號","121.449025","24.9900966666667","6501300","土城區"
"236027","269-VK","2017/06/27 20:18:59","新北市土城區裕生路67巷2弄2號","121.447338333333","24.9846166666667","6501300","土城區"
"236015","270-VK","2017/06/27 20:18:55","新北市土城區廣明街90巷18號","121.4554","24.9944716666667","6501300","土城區"
"236038","271-VK","2017/06/27 20:19:00","新北市土城區明德路一段137號","121.465176666667","24.9803433333333","6501300","土城區"
"236023","401-BY","2017/06/27 20:19:03","新北市土城區和城路二段255巷140號","121.47563","24.98772","6501300","土城區"
"236059","912-UM","2017/06/27 20:19:01","新北市土城區中央路二段259號","121.439943333333","24.9712333333333","6501300","土城區"
"236055","AAC-216","2017/06/27 20:18:44","新北市土城區中華路二段32-1號","121.439195","24.97808","6501300","土城區"
"242021","AAC-296","2017/06/27 20:18:54","新北市新莊區中正路200號","121.449385","25.0354966666667","6500500","新莊區"
"242029","986-R7","2017/06/27 20:19:03","新北市新莊區中原路303號","121.447346666667","25.0542366666667","6500500","新莊區"
"242048","751-BX","2017/06/27 20:19:05","新北市新莊區龍安路261號","121.420068333333","25.0199866666667","6500500","新莊區"
"242025","615-BX","2017/06/27 20:18:57","新北市新莊區五工二路70巷7號","121.460518333333","25.06616","6500500","新莊區"
"242023","613-BX","2017/06/27 20:19:04","新北市新莊區化成路694號","121.465881666667","25.0562966666667","6500500","新莊區"
"242027","612-BX","2017/06/27 20:18:57","新北市新莊區幸福路698號","121.450001666667","25.0492683333333","6500500","新莊區"
"242037","566-BX","2017/06/27 20:19:06","新北市新莊區建安街70號","121.426881666667","25.0244433333333","6500500","新莊區"
"242042","497-BY","2017/06/27 20:18:59","新北市新莊區壽山路69號","121.410081666667","25.0327033333333","6500500","新莊區"
"242005","442-UM","2017/06/27 20:19:00","新北市新莊區化成路546號","121.466255","25.053655","6500500","新莊區"
"242046","441-UM","2017/06/27 20:19:01","新北市新莊區中正路新生巷59號","121.417351666667","25.0226433333333","6500500","新莊區"
"242051","440-UM","2017/06/27 20:18:56","新北市新莊區民安西路208號","121.42585","25.0149666666667","6500500","新莊區"
"242032","415-TV","2017/06/27 20:18:49","新北市新莊區中正路418號","121.441088333333","25.0337833333333","6500500","新莊區"
"242002","413-TV","2017/06/27 20:18:46","新北市新莊區化成路31號","121.465111666667","25.0438683333333","6500500","新莊區"
"242039","400-BY","2017/06/27 20:18:59","新北市新莊區成功街71號","121.424748333333","25.0200816666667","6500500","新莊區"
"242061","362-BY","2017/06/27 20:19:04","新北市新莊區新樹路234巷12號","121.43207","25.0195716666667","6500500","新莊區"
"242058","353-BY","2017/06/27 20:18:55","新北市新莊區龍安路278巷8號","121.422041666667","25.0188916666667","6500500","新莊區"
"242011","132-UY","2017/06/27 20:18:51","新北市新莊區幸福路710巷5弄6號","121.449645","25.0497333333333","6500500","新莊區"
"242034","133-UY","2017/06/27 20:18:57","新北市新莊區建中街90巷7弄1號","121.44679","25.0376816666667","6500500","新莊區"
"242044","172-VK","2017/06/27 20:19:00","新北市新莊區中正路893巷1-11號","121.412893333333","25.0215183333333","6500500","新莊區"
"242007","173-VK","2017/06/27 20:19:02","新北市新莊區福壽街94巷13弄4號","121.459078333333","25.0503216666667","6500500","新莊區"
"242013","175-VK","2017/06/27 20:18:58","新北市新莊區幸福路710巷5弄6號","121.449641666667","25.04978","6500500","新莊區"
"242056","176-VK","2017/06/27 20:19:05","新北市新莊區豐年街30號","121.446228333333","25.0323316666667","6500500","新莊區"
"242019","346-TH","2017/06/27 20:18:55","新北市新莊區銘德街83號","121.456223333333","25.0434883333333","6500500","新莊區"
"242017","348-TH","2017/06/27 20:18:48","新北市新莊區中港一街92號","121.449316666667","25.045445","6500500","新莊區"
"242054","349-TH","2017/06/27 20:19:04","新北市新莊區西盛街382巷1號","121.4276","25.0130166666667","6500500","新莊區"
"242015","350-TH","2017/06/27 20:19:00","新北市新莊區永樂街235巷4號","121.44663","25.044275","6500500","新莊區"
"242009","351-TH","2017/06/27 20:18:58","新北市新莊區昌盛街81巷2弄1號","121.455498333333","25.0503116666667","6500500","新莊區"
"238023","601-UM","2017/06/27 20:16:56","新北市樹林區中山路三段214號","121.380006666667","24.96777","6500700","樹林區"
"238021","311-TH","2017/06/27 19:30:43","新北市樹林區柑園街二段337-1號","121.369816666667","24.949985","6500700","樹林區"
"221008","489-VK","2017/06/27 20:19:04","新北市汐止區康寧街397號","121.629473333333","25.067875","6501100","汐止區"
"221036","130-UY","2017/06/27 20:18:48","新北市汐止區仁愛路152巷31號","121.664943333333","25.063805","6501100","汐止區"
"221015","131-UY","2017/06/27 20:18:51","新北市汐止區建成路142巷19弄10號","121.66209","25.0739633333333","6501100","汐止區"
"221010","269-BY","2017/06/27 20:19:00","新北市汐止區八連路二段280號","121.630775","25.09794","6501100","汐止區"
"221010","276-VK","2017/06/27 13:21:27","新北市汐止區汐萬路一段256巷3號","121.653423333333","25.0746033333333","6501100","汐止區"
"221031","277-VK","2017/06/27 00:09:53","新北市汐止區汐萬路一段256巷3號","121.652553333333","25.0746416666667","6501100","汐止區"
"221012","278-VK","2017/06/27 20:18:54","新北市汐止區保新街267號","121.690366666667","25.0681666666667","6501100","汐止區"
"221023","279-VK","2017/06/27 19:07:13","新北市汐止區康寧街901號","121.651196666667","25.0757116666667","6501100","汐止區"
"221032","280-BY","2017/06/27 20:18:50","新北市汐止區民權街二段58號","121.619325","25.04874","6501100","汐止區"
"221027","281-BY","2017/06/27 20:18:56","新北市汐止區大同路二段355號","121.657033333333","25.067295","6501100","汐止區"
"221029","298-VK","2017/06/27 20:19:02","新北市汐止區樟樹一路99巷7弄3號","121.641151666667","25.0635033333333","6501100","汐止區"
"221021","299-VK","2017/06/27 20:09:29","新北市汐止區連興街148巷4號","121.653756666667","25.0614266666667","6501100","汐止區"
"221002","488-VK","2017/06/27 20:18:59","新北市汐止區福德三路99號","121.635831666667","25.068825","6501100","汐止區"
"221035","622-UM","2017/06/27 20:18:59","新北市汐止區長江街97號","121.65818","25.07267","6501100","汐止區"
"221002","623-UM","2017/06/27 20:18:56","新北市汐止區水源路二段32號","121.654755","25.0572466666667","6501100","汐止區"
"221038","646-BX","2017/06/27 20:19:04","新北市汐止區大同路三段103號","121.668311666667","25.07774","6501100","汐止區"
"221033","647-BX","2017/06/27 20:19:04","新北市汐止區東勢街201巷102號","121.633591666667","25.04312","6501100","汐止區"
"221018","753-BX","2017/06/27 20:18:55","新北市汐止區茄安路43號","121.67436","25.068795","6501100","汐止區"
"220069","258-TC","2017/06/27 20:18:58","新北市板橋區大明街25巷2弄1號","121.458061666667","25.0022233333333","6500100","板橋區"
"220071","283-VK","2017/06/27 20:18:46","新北市板橋區和平路174巷35號","121.465161666667","24.99416","6500100","板橋區"
"220083","286-VK","2017/06/27 20:19:05","新北市板橋區僑中二街88巷26號","121.445028333333","25.00968","6500100","板橋區"
"220081","287-VK","2017/06/27 20:19:00","新北市板橋區僑中一街124巷18弄25號","121.44719","25.0137266666667","6500100","板橋區"
"220061","293-UM","2017/06/27 20:18:58","新北市板橋區中山路一段166號","121.467351666667","25.0126","6500100","板橋區"
"220092","307-R5","2017/06/27 20:19:00","新北市板橋區民權路174號","121.459628333333","25.0133333333333","6500100","板橋區"
"220089","487-VK","2017/06/27 20:19:05","新北市板橋區四維路243號","121.463711666667","25.0274983333333","6500100","板橋區"
"220103","561-BX","2017/06/27 20:18:50","新北市板橋區陽明街279巷13號","121.461578333333","25.0258033333333","6500100","板橋區"
"220055","827-TW","2017/06/27 20:18:48","新北市板橋區重慶路290巷48號","121.461466666667","24.9987166666667","6500100","板橋區"
"220102","830-TW","2017/06/27 20:18:55","新北市板橋區漢生東路53巷6號","121.466093333333","25.0167383333333","6500100","板橋區"
"220074","895-R6","2017/06/27 20:18:56","新北市板橋區府後街2號","121.459253333333","25.0098933333333","6500100","板橋區"
"220097","AAC-210","2017/06/27 20:18:59","新北市板橋區光正街45巷2弄18號","121.461076666667","25.0173816666667","6500100","板橋區"
"220070","AAC-253","2017/06/27 20:19:00","新北市板橋區德興街16號","121.453401666667","24.994375","6500100","板橋區"
