"lineid","car","time","location","longitude","latitude","cityid","cityname"
"224011","AGQ-8101","2017/09/10 13:19:15","新北市瑞芳區明燈路二段44-1號","121.809498333333","25.1082133333333","6501200","瑞芳區"
"251013","179-VK","2017/09/10 18:09:30","新北市淡水區竹圍子10號","121.476185","25.1941933333333","6501000","淡水區"
"251014","180-VK","2017/09/10 18:09:23","新北市淡水區南平14-3號","121.487266666667","25.2200983333333","6501000","淡水區"
"251015","182-VK","2017/09/10 18:09:26","新北市淡水區興福寮88巷1號","121.485658333333","25.1651216666667","6501000","淡水區"
"251016","442-VK","2017/09/10 18:09:25","新北市淡水區下圭柔山15-5號","121.452285","25.20164","6501000","淡水區"
