"lineid","car","time","location","longitude","latitude","cityid","cityname"
"224011","AGQ-8101","2017/09/10 18:37:12","新北市瑞芳區烏勢巷116號","121.846266666667","25.1080366666667","6501200","瑞芳區"
"251013","179-VK","2017/09/10 18:39:10","新北市淡水區奎柔山路1262號","121.482488333333","25.2056783333333","6501000","淡水區"
"251014","180-VK","2017/09/10 18:39:23","新北市淡水區崙頂12-8號","121.4956","25.2172616666667","6501000","淡水區"
"251015","182-VK","2017/09/10 18:39:26","新北市淡水區興福寮66巷309號","121.485228333333","25.1618966666667","6501000","淡水區"
"251016","442-VK","2017/09/10 18:39:25","新北市淡水區下圭柔山102號","121.440995","25.2087716666667","6501000","淡水區"
