"lineid","car","time","location","longitude","latitude","cityid","cityname"
"224011","AGQ-8101","2017/09/10 18:59:32","新北市瑞芳區基山街38號","121.844878333333","25.1084216666667","6501200","瑞芳區"
"251013","179-VK","2017/09/10 18:59:30","新北市淡水區安子內3號","121.487566666667","25.215665","6501000","淡水區"
"251014","180-VK","2017/09/10 18:59:23","新北市淡水區崙頂4號","121.49308","25.2239616666667","6501000","淡水區"
"251015","182-VK","2017/09/10 18:59:26","新北市淡水區糞箕湖118號","121.487581666667","25.1718066666667","6501000","淡水區"
"251016","442-VK","2017/09/10 18:59:25","新北市淡水區淡金路三段333號","121.448786666667","25.2063016666667","6501000","淡水區"
