"lineid","car","time","location","longitude","latitude","cityid","cityname"
"248005","653-BX","2017/12/01 09:17:50","新北市五股區水碓三路43號","121.43036","25.0714566666667","6501500","五股區"
"222005","289-BY","2017/12/01 08:57:15","新北市深坑區土庫尖路75-1號","121.631166666667","25.0181966666667","6501800","深坑區"
"231007","188-VK","2017/12/01 09:17:37","新北市新店區新潭路三段220號","121.503813333333","24.90502","6500600","新店區"
"231009","192-VK","2017/12/01 09:17:48","新北市新店區廣興路136號","121.53524","24.9111116666667","6500600","新店區"
"226001","7418-A5","2017/12/01 09:17:38","新北市平溪區靜安路二段277號","121.728476666667","25.0231433333333","6502400","平溪區"
"226003","AGD-0702","2017/12/01 09:17:43","新北市平溪區靜安路二段295號","121.732665","25.024415","6502400","平溪區"
"223001","205-TH","2017/12/01 09:17:36","新北市石碇區北宜路四段30號","121.6243","24.9564716666667","6501900","石碇區"
"223004","660-BX","2017/12/01 09:17:49","新北市石碇區碇坪路二段28號","121.687306666667","24.9739816666667","6501900","石碇區"
"223007","661-BX","2017/12/01 09:14:41","新北市石碇區西勢坑7號","121.692041666667","24.990575","6501900","石碇區"
"223005","677-TV","2017/12/01 09:17:32","新北市石碇區碇坪路二段25號","121.683661666667","24.97606","6501900","石碇區"
"227005","282-VK","2017/12/01 09:08:30","新北市雙溪區泰平里料角坑9號","121.81204","24.9745016666667","6502500","雙溪區"
"237001","159-UY","2017/12/01 09:17:35","新北市三峽區學成路317號","121.377403333333","24.9442516666667","6500900","三峽區"
"236010","165-UM","2017/12/01 09:17:41","新北市土城區中央路三段205號","121.429905","24.9647283333333","6501300","土城區"
"236006","498-BY","2017/12/01 09:17:36","新北市土城區中央路三段126巷34號","121.434663333333","24.9679366666667","6501300","土城區"
