"lineid","car","time","location","longitude","latitude","cityid","cityname"
"234044","148-BY","2017/12/01 13:39:49","新北市永和區永利路183號","121.526108333333","25.003445","6500400","永和區"
"234012","149-BY","2017/12/01 13:39:44","新北市永和區仁愛路238號","121.508398333333","25.0116866666667","6500400","永和區"
"234005","207-UY","2017/12/01 13:39:39","新北市永和區永和路一段100號","121.513335","25.0068366666667","6500400","永和區"
"234078","298-R6","2017/12/01 13:39:45","新北市永和區永亨路98號","121.523018333333","25.00483","6500400","永和區"
"234036","336-UY","2017/12/01 13:39:52","新北市永和區民樂街39巷11號","121.528165","25.0005216666667","6500400","永和區"
"234062","337-UY","2017/12/01 13:39:54","新北市永和區秀朗路一段192巷6弄14號","121.51905","25.0022916666667","6500400","永和區"
"234084","338-UY","2017/12/01 13:39:46","新北市永和區永亨路100號","121.523256666667","25.004635","6500400","永和區"
"234068","552-UM","2017/12/01 13:39:43","新北市永和區永和路二段201號","121.515315","25.01355","6500400","永和區"
"234052","553-UM","2017/12/01 13:39:53","新北市永和區竹林路39巷22號","121.518951666667","25.0147083333333","6500400","永和區"
"234015","745-BX","2017/12/01 13:39:57","新北市永和區永和路二段405巷3號","121.515298333333","25.0171783333333","6500400","永和區"
"234028","746-BX","2017/12/01 13:39:49","新北市永和區民權路52號","121.520098333333","24.9984733333333","6500400","永和區"
"234060","AAD-866","2017/12/01 13:39:52","新北市永和區中正路472號","121.517386666667","25.00329","6500400","永和區"
"234040","862-TW","2017/12/01 13:39:40","新北市永和區中和路573號","121.511685","25.0033833333333","6500400","永和區"
"234048","863-TW","2017/12/01 13:39:57","新北市永和區保安路41號","121.509668333333","25.01608","6500400","永和區"
"234025","9371-KE","2017/12/01 13:39:53","新北市永和區自由街54號","121.513721666667","25.0060266666667","6500400","永和區"
"234010","9373-KE","2017/12/01 13:39:39","新北市永和區保福路二段15巷15號","121.51051","25.0109266666667","6500400","永和區"
"248019","225-UY","2017/12/01 13:38:46","新北市五股區孝義路118號","121.441705","25.1200433333333","6501500","五股區"
"234022","9380-KE","2017/12/01 13:39:42","新北市永和區中正路702巷20弄1號","121.516516666667","25.0105433333333","6500400","永和區"
"234076","969-R7","2017/12/01 13:39:50","新北市永和區民權路30號","121.520228333333","24.9991016666667","6500400","永和區"
"234072","AAC-211","2017/12/01 13:39:45","新北市永和區竹林路213巷18號","121.521723333333","25.0089033333333","6500400","永和區"
"234066","AAC-212","2017/12/01 13:39:41","新北市永和區永貞路406巷26號","121.509715","25.007945","6500400","永和區"
"234001","AAC-295","2017/12/01 13:39:49","新北市永和區福和路352號","121.514776666667","25.0074816666667","6500400","永和區"
"244004","657-BX","2017/12/01 13:39:49","新北市林口區頂福里85-1號","121.351178333333","25.0802683333333","6501700","林口區"
"231002","001-UM","2017/12/01 13:39:50","新北市新店區溪園路405號","121.524096666667","24.9782633333333","6500600","新店區"
"231025","0293-UT","2017/12/01 13:39:58","新北市新店區中央六街56號","121.527926666667","24.9756866666667","6500600","新店區"
"231028","046-UY","2017/12/01 13:39:48","新北市新店區安和路二段120號","121.519045","24.970695","6500600","新店區"
"231030","047-UY","2017/12/01 13:39:54","新北市新店區安康路一段107-2號","121.52875","24.9615733333333","6500600","新店區"
"231029","106-UY","2017/12/01 13:39:37","新北市新店區安康路二段167號","121.509923333333","24.9593683333333","6500600","新店區"
"231018","107-UY","2017/12/01 13:39:47","新北市新店區百忍街12號","121.534708333333","24.975615","6500600","新店區"
"231012","108-UY","2017/12/01 13:39:43","新北市新店區德正街27巷29弄76號","121.545846666667","24.9732983333333","6500600","新店區"
"231022","187-VK","2017/12/01 13:39:40","新北市新店區永興路132-3號","121.544798333333","24.931555","6500600","新店區"
"231016","KEA-2219","2017/12/01 13:39:51","新北市新店區竹林路23號","121.551008333333","24.9517533333333","6500600","新店區"
"231026","256-BX","2017/12/01 13:39:45","新北市新店區中華路1號","121.54129","24.9671983333333","6500600","新店區"
"231034","268-BY","2017/12/01 13:39:42","新北市新店區車子路109號","121.505325","24.9522466666667","6500600","新店區"
"231010","278-BY","2017/12/01 13:39:35","新北市新店區中正路307巷2號","121.536445","24.9746016666667","6500600","新店區"
"231023","AAD-862","2017/12/01 13:39:49","新北市新店區新店路203號","121.537051666667","24.9564866666667","6500600","新店區"
"231027","3712-VJ","2017/12/01 13:39:51","新北市新店區北宜路一段105巷4弄1號","121.539873333333","24.955465","6500600","新店區"
"231024","4716-K9","2017/12/01 13:39:35","新北市新店區華興街21號","121.53772","24.969265","6500600","新店區"
"231038","4715-K9","2017/12/01 13:39:51","新北市新店區安華路30巷1號","121.519598333333","24.95927","6500600","新店區"
"231035","515-UM","2017/12/01 13:39:58","新北市新店區安忠路102巷2號","121.510815","24.9564933333333","6500600","新店區"
"231003","616-UM","2017/12/01 13:39:40","新北市新店區中正路96號","121.543546666667","24.970525","6500600","新店區"
"231006","617-UM","2017/12/01 13:39:51","新北市新店區北宜路一段118號","121.539175","24.9551266666667","6500600","新店區"
"231001","619-UM","2017/12/01 13:39:51","新北市新店區中正路349-1號","121.535313333333","24.9759233333333","6500600","新店區"
"231013","719-UM","2017/12/01 13:39:41","新北市新店區中正路454-5號","121.534456666667","24.9790233333333","6500600","新店區"
"231036","719-UY","2017/12/01 13:39:52","新北市新店區安祥路190巷47號","121.477008333333","24.9556116666667","6500600","新店區"
"231032","720-UM","2017/12/01 13:39:57","新北市新店區莒光路12號","121.527155","24.9609466666667","6500600","新店區"
"231005","897-TW","2017/12/01 13:39:44","新北市新店區寶中路77號","121.547691666667","24.9806483333333","6500600","新店區"
"231004","899-TW","2017/12/01 13:39:50","新北市新店區北新路二段7號","121.542668333333","24.9713016666667","6500600","新店區"
"231037","AKT-0513","2017/12/01 13:39:54","新北市新店區安康路三段131號","121.490156666667","24.95181","6500600","新店區"
"235030","003-UY","2017/12/01 13:39:53","新北市中和區水源路34巷2號","121.504756666667","25.00356","6500300","中和區"
"235027","006-UY","2017/12/01 13:39:39","新北市中和區連城路389巷9號","121.486608333333","24.99531","6500300","中和區"
"235020","096-UM","2017/12/01 13:39:39","新北市中和區員山路466巷15號","121.480606666667","25.0067183333333","6500300","中和區"
"235003","097-UM","2017/12/01 13:39:42","新北市中和區大勇街25巷29弄3號","121.515103333333","24.993655","6500300","中和區"
"235029","098-UM","2017/12/01 13:39:39","新北市中和區莊敬路33巷17號","121.500373333333","25.006985","6500300","中和區"
"235004","150-BY","2017/12/01 13:38:05","新北市中和區安平路31號","121.509341666667","24.994675","6500300","中和區"
"235022","151-BY","2017/12/01 13:39:43","新北市中和區員山路32號","121.481043333333","24.987655","6500300","中和區"
"235019","183-VK","2017/12/01 13:39:53","新北市中和區莒光路120巷56號","121.47166","25.0009733333333","6500300","中和區"
"235002","185-VK","2017/12/01 13:39:39","新北市中和區立人街14巷39號","121.51925","24.9954216666667","6500300","中和區"
"235013","186-VK","2017/12/01 13:39:40","新北市中和區明義街11巷10弄1號","121.5038","24.9947283333333","6500300","中和區"
"235031","255-BX","2017/12/01 13:39:43","新北市中和區新生街222號","121.483838333333","24.9984466666667","6500300","中和區"
"235008","293-VK","2017/12/01 13:39:52","新北市中和區復興路276號","121.502725","24.9907666666667","6500300","中和區"
"235036","301-VK","2017/12/01 13:39:47","新北市中和區連城路263號","121.491871666667","24.9964966666667","6500300","中和區"
"235007","352-BY","2017/12/01 13:39:42","新北市中和區景平路161號","121.512435","24.9923283333333","6500300","中和區"
"235032","377-QA","2017/12/01 13:38:29","新北市中和區中正路211巷13弄14號","121.49748","24.9931416666667","6500300","中和區"
"235025","378-QA","2017/12/01 13:39:40","新北市中和區民享街92巷1號","121.47465","24.9998716666667","6500300","中和區"
"235035","269-TV","2017/12/01 13:39:48","新北市中和區光環路二段302號","121.485695","25.0137016666667","6500300","中和區"
"235014","4979-A6","2017/12/01 13:39:57","新北市中和區景新街496巷28弄45號","121.51261","24.985855","6500300","中和區"
"235033","4980-A6","2017/12/01 13:39:51","新北市中和區南山路81巷6號","121.502353333333","24.9980683333333","6500300","中和區"
"235006","551-UM","2017/12/01 13:39:39","新北市中和區成功路51巷1號","121.526571666667","24.992885","6500300","中和區"
"235034","558-UM","2017/12/01 13:39:45","新北市中和區景新街133號","121.506125","24.9971816666667","6500300","中和區"
"235009","565-BX","2017/12/01 13:39:47","新北市中和區復興路11號","121.505946666667","24.9896883333333","6500300","中和區"
"235018","640-BX","2017/12/01 13:39:45","新北市中和區民享街86巷14號","121.47384","25.0008266666667","6500300","中和區"
"235024","647-TV","2017/12/01 13:39:48","新北市中和區中山路三段1號","121.479995","25.0057983333333","6500300","中和區"
"235011","732-UM","2017/12/01 13:39:54","新北市中和區興南路二段5號","121.508065","24.9863683333333","6500300","中和區"
"235010","733-UM","2017/12/01 13:39:44","新北市中和區捷運路111號","121.507918333333","24.9903416666667","6500300","中和區"
"235026","800-TS","2017/12/01 13:39:45","新北市中和區中山路二段308號","121.495783333333","25.0023416666667","6500300","中和區"
"235021","801-TS","2017/12/01 13:39:50","新北市中和區民享街97巷16號","121.475306666667","24.9997916666667","6500300","中和區"
"235005","802-TS","2017/12/01 13:39:49","新北市永和區中和路517號","121.511066666667","25.0026383333333","6500300","中和區"
"235016","805-TS","2017/12/01 13:39:55","新北市中和區興南路三段52巷1號","121.493531666667","24.976185","6500300","中和區"
"235012","896-TW","2017/12/01 13:39:44","新北市中和區中正路83號","121.500681666667","24.993405","6500300","中和區"
"235017","900-TW","2017/12/01 13:39:49","新北市土城區延壽路109巷2號","121.469113333333","24.993515","6500300","中和區"
"235028","911-UM","2017/12/01 13:39:42","新北市中和區連城路109巷79號","121.497436666667","24.9976883333333","6500300","中和區"
"235001","157-BY","2017/12/01 13:39:51","新北市中和區華新街143巷106弄30號","121.506136666667","24.9787466666667","6500300","中和區"
"235001","AAC-213","2017/12/01 13:39:39","新北市中和區景德街141號","121.514601666667","24.9910016666667","6500300","中和區"
"235023","AAC-215","2017/12/01 13:39:42","新北市中和區員山路36巷16-3號","121.48511","24.9914216666667","6500300","中和區"
"220016","013-TV","2017/11/30 21:32:21","新北市板橋區民生路二段161巷9號","121.47035","25.0194766666667","6500100","板橋區"
"220013","072-UY","2017/12/01 13:39:53","新北市板橋區縣民大道二段86號","121.466256666667","25.0149466666667","6500100","板橋區"
"220034","073-UY","2017/12/01 13:39:44","新北市板橋區南雅西路二段192巷3號","121.45204","25.014465","6500100","板橋區"
"220017","AAD-861","2017/12/01 13:39:39","新北市板橋區華東街1-10號","121.448341666667","24.99513","6500100","板橋區"
"220051","120-SR","2017/12/01 13:39:53","新北市板橋區民生路二段120號","121.47054","25.0196283333333","6500100","板橋區"
"247007","341-TH","2017/12/01 13:39:36","新北市蘆洲區中正路520巷9號","121.462993333333","25.0997916666667","6501400","蘆洲區"
"247009","339-TH","2017/12/01 13:39:35","新北市五股區中興路三段163號","121.448446666667","25.081195","6501400","蘆洲區"
"247001","337-TH","2017/12/01 13:39:46","新北市蘆洲區三民路550號","121.461806666667","25.0935816666667","6501400","蘆洲區"
"247003","336-TH","2017/12/01 13:39:49","新北市蘆洲區中原路66號","121.458583333333","25.0821033333333","6501400","蘆洲區"
"247015","057-VK","2017/12/01 13:39:55","新北市五股區凌雲路一段21號","121.452528333333","25.100225","6501400","蘆洲區"
"247005","056-VK","2017/12/01 13:39:38","新北市五股區中興路二段182巷15弄13號","121.457005","25.081695","6501400","蘆洲區"
"247017","001-UY","2017/12/01 13:39:42","新北市五股區中興路三段5號","121.449571666667","25.07976","6501400","蘆洲區"
"223001","205-TH","2017/12/01 10:24:56","新北市石碇區小粗坑(潭邊里)9-2號","121.678445","24.9857066666667","6501900","石碇區"
"208004","AAC-292","2017/12/01 13:39:58","新北市金山區中信北路41巷11號","121.59505","25.2079266666667","6502700","金山區"
"208002","742-BX","2017/12/01 13:39:32","新北市新店區檳榔路172號","121.543885","24.9616616666667","6502700","金山區"
"207002","749-BX","2017/12/01 13:39:53","新北市萬里區崁腳里崁腳路166號","121.645176666667","25.156005","6502800","萬里區"
"207001","662-BX","2017/12/01 13:39:38","新北市萬里區磺潭里公館崙18-1號","121.638381666667","25.21412","6502800","萬里區"
"236067","105-UM","2017/12/01 13:39:39","新北市土城區城林路6巷80號","121.438471666667","24.9797333333333","6501300","土城區"
"236040","107-UM","2017/12/01 13:39:49","新北市土城區城林路6巷80號","121.438438333333","24.97985","6501300","土城區"
"236077","166-UM","2017/12/01 12:18:52","新北市土城區城林路6巷80號","121.438805","24.9795833333333","6501300","土城區"
"236013","270-VK","2017/12/01 13:39:43","新北市土城區城林路6巷80號","121.438655","24.9797333333333","6501300","土城區"
"236019","401-BY","2017/12/01 13:39:43","新北市土城區城林路6巷80號","121.438625","24.9797383333333","6501300","土城區"
"236006","498-BY","2017/12/01 13:39:52","新北市土城區慶祥街66號","121.436368333333","24.9738016666667","6501300","土城區"
"236061","915-UM","2017/12/01 13:39:38","新北市土城區城林路6巷80號","121.438486666667","24.97973","6501300","土城區"
"236054","AAC-216","2017/12/01 13:39:37","新北市土城區城林路6巷80號","121.438488333333","24.97976","6501300","土城區"
"221012","276-VK","2017/12/01 13:29:12","新北市汐止區汐萬路一段256巷3號","121.653463333333","25.074665","6501100","汐止區"
"221032","280-BY","2017/12/01 13:39:55","新北市汐止區仁愛路10號","121.659376666667","25.0636216666667","6501100","汐止區"
"220027","145-BY","2017/12/01 13:39:50","新北市板橋區南雅西路二段216號","121.452008333333","25.0152716666667","6500100","板橋區"
"220030","610-BX","2017/12/01 13:39:55","新北市板橋區大觀路二段265巷9號","121.442356666667","24.9947816666667","6500100","板橋區"
"220004","276-BY","2017/12/01 13:39:34","新北市板橋區四川路二段140巷2號","121.449761666667","24.993105","6500100","板橋區"
"220020","277-BY","2017/12/01 13:39:55","新北市板橋區華東街1-10號","121.448315","24.9950483333333","6500100","板橋區"
"220019","283-VK","2017/12/01 13:39:48","新北市板橋區華東街1-9號","121.448076666667","24.9949083333333","6500100","板橋區"
"220043","285-UM","2017/12/01 13:39:47","新北市板橋區民生路二段161巷3號","121.47019","25.0198333333333","6500100","板橋區"
"220001","285-VK","2017/12/01 13:39:50","新北市板橋區民生路二段120號","121.470515","25.01992","6500100","板橋區"
"220031","286-VK","2017/12/01 13:39:54","新北市板橋區華東街1-10號","121.448441666667","24.995065","6500100","板橋區"
"220029","287-VK","2017/12/01 13:39:45","新北市板橋區華東街1-10號","121.448256666667","24.9950183333333","6500100","板橋區"
"220009","293-UM","2017/12/01 13:39:40","新北市板橋區民生路二段120號","121.470461666667","25.0198216666667","6500100","板橋區"
"220032","296-UM","2017/12/01 13:39:42","新北市板橋區大觀路二段266號","121.44848","24.9969433333333","6500100","板橋區"
"220023","297-UM","2017/12/01 13:39:38","新北市板橋區南雅南路二段144巷60號","121.450221666667","24.9973383333333","6500100","板橋區"
"220010","303-R5","2017/12/01 13:39:48","新北市板橋區民生路二段120號","121.470336666667","25.0198016666667","6500100","板橋區"
"220010","305-R5","2017/12/01 13:39:57","新北市板橋區民生路二段121號","121.470726666667","25.0184783333333","6500100","板橋區"
"220047","317-R6","2017/12/01 13:39:48","新北市板橋區民生路二段161巷3號","121.470158333333","25.01979","6500100","板橋區"
"220012","486-VK","2017/12/01 13:39:52","新北市板橋區觀光街12巷1弄2號","121.471913333333","25.01676","6500100","板橋區"
"220104","560-BX","2017/12/01 13:39:52","新北市板橋區南雅西路二段145巷10號","121.451591666667","25.0119","6500100","板橋區"
"220011","609-BX","2017/12/01 13:39:37","新北市板橋區民生路二段161巷1號","121.470083333333","25.020225","6500100","板橋區"
"220005","686-BX","2017/12/01 13:39:42","新北市板橋區華東街1-9號","121.448216666667","24.994935","6500100","板橋區"
"220025","687-BX","2017/12/01 13:39:55","新北市板橋區沙崙街25號","121.431328333333","24.994215","6500100","板橋區"
"220002","741-BX","2017/12/01 13:39:44","新北市板橋區華東街1-9號","121.44813","24.9949083333333","6500100","板橋區"
"220003","827-TW","2017/12/01 13:39:40","新北市板橋區華東街1-9號","121.448176666667","24.9949316666667","6500100","板橋區"
"220014","829-TW","2017/12/01 13:39:38","新北市板橋區民生路二段120號","121.470408333333","25.0196516666667","6500100","板橋區"
"220022","895-R6","2017/12/01 13:39:56","新北市板橋區南雅南路二段38號","121.454276666667","25.0029366666667","6500100","板橋區"
"220021","985-R7","2017/12/01 13:39:55","新北市板橋區南雅南路二段140號","121.451728333333","24.9962516666667","6500100","板橋區"
"220018","AAC-253","2017/12/01 13:39:37","新北市板橋區華東街1-9號","121.448256666667","24.99488","6500100","板橋區"
