"lineid","car","time","location","longitude","latitude","cityid","cityname"
"234040","862-TW","2017/12/01 14:56:38","新北市永和區福和路1號","121.526588333333","25.0096866666667","6500400","永和區"
"231030","047-UY","2017/12/01 15:49:54","新北市新店區永平街87號","121.516285","24.9855033333333","6500600","新店區"
"231018","107-UY","2017/12/01 15:49:47","新北市新店區中正路663巷7弄15號","121.532951666667","24.9901","6500600","新店區"
"231012","108-UY","2017/12/01 15:49:50","新北市新店區寶強路5號","121.54291","24.9791266666667","6500600","新店區"
"231022","187-VK","2017/12/01 15:49:40","新北市新店區新烏路一段73-1號","121.546561666667","24.9423116666667","6500600","新店區"
"231016","KEA-2219","2017/12/01 15:49:47","新北市新店區中華路1號","121.541316666667","24.96716","6500600","新店區"
"231026","256-BX","2017/12/01 15:49:36","新北市新店區中正路541-1號","121.533418333333","24.9866816666667","6500600","新店區"
"231034","268-BY","2017/12/01 15:49:41","新北市新店區玫瑰路57巷5號","121.495968333333","24.9463366666667","6500600","新店區"
"231046","278-BY","2017/12/01 15:49:49","新北市新店區安華路28-1號","121.51954","24.9611483333333","6500600","新店區"
"231038","4715-K9","2017/12/01 15:49:51","新北市新店區安康路二段152-1號","121.512301666667","24.96099","6500600","新店區"
"231035","515-UM","2017/12/01 15:49:38","新北市新店區安民街365巷10弄4號","121.515968333333","24.97581","6500600","新店區"
"231003","616-UM","2017/12/01 15:49:40","新北市新店區寶興路60巷3號","121.549925","24.9717766666667","6500600","新店區"
"231013","719-UM","2017/12/01 15:49:54","新北市新店區永業路81巷9弄2號","121.531071666667","24.95025","6500600","新店區"
"231032","720-UM","2017/12/01 15:49:47","新北市新店區雙城路60巷1-1號","121.492186666667","24.9478516666667","6500600","新店區"
"231037","AKT-0513","2017/12/01 15:49:54","新北市新店區安興路112號","121.514693333333","24.9776833333333","6500600","新店區"
"241028","022-UY","2017/12/01 15:49:39","新北市三重區中正南路46號","121.493961666667","25.0600216666667","6500200","三重區"
"241015","062-VK","2017/12/01 15:49:55","新北市三重區重新路四段121號","121.485156666667","25.052015","6500200","三重區"
"241017","063-VK","2017/12/01 15:49:38","新北市三重區大仁街1號","121.49164","25.0634933333333","6500200","三重區"
"241024","065-VK","2017/12/01 15:49:49","新北市三重區新北大道一段250號","121.479915","25.0613","6500200","三重區"
"241003","091-VK","2017/12/01 15:49:40","新北市三重區長元街105號","121.50465","25.06708","6500200","三重區"
"241005","262-UM","2017/12/01 15:49:43","新北市三重區環河北路二段298號","121.500123333333","25.0806933333333","6500200","三重區"
"241011","265-UM","2017/12/01 15:49:51","新北市三重區文化北路248號","121.49738","25.0699","6500200","三重區"
"241016","266-UM","2017/12/01 15:49:54","新北市三重區重新路四段121號","121.48518","25.0519766666667","6500200","三重區"
"241022","267-UM","2017/12/01 15:49:44","新北市三重區重新路四段121號","121.485276666667","25.05051","6500200","三重區"
"241013","270-UM","2017/12/01 15:49:54","新北市三重區六張街19號","121.495325","25.070675","6500200","三重區"
"241007","398-BY","2017/12/01 15:49:54","新北市三重區重新路四段121號","121.48448","25.0519183333333","6500200","三重區"
"241014","543-UM","2017/12/01 15:49:42","新北市三重區重新路四段121號","121.4851","25.0521216666667","6500200","三重區"
"241023","545-UM","2017/12/01 15:49:47","新北市三重區朝陽街4巷23號","121.48244","25.055985","6500200","三重區"
"241006","AAD-863","2017/12/01 15:49:50","新北市三重區重新路四段121號","121.484696666667","25.0522083333333","6500200","三重區"
"241012","941-UM","2017/12/01 15:49:55","新北市三重區文化北路83巷2-2號","121.498451666667","25.0669033333333","6500200","三重區"
"241029","942-UM","2017/12/01 15:49:52","新北市三重區大同南路242號","121.496886666667","25.0558983333333","6500200","三重區"
"241033","AAC-255","2017/12/01 15:49:50","新北市三重區光復路一段99巷23號","121.47418","25.0508766666667","6500200","三重區"
"235035","269-TV","2017/12/01 15:49:47","新北市中和區中正路637巷60弄61號","121.485411666667","24.9930583333333","6500300","中和區"
"235033","4980-A6","2017/12/01 15:49:51","新北市中和區連城路469巷44弄18號","121.482835","24.9941016666667","6500300","中和區"
"235001","AAC-213","2017/12/01 15:49:39","新北市林口區太平里180號","121.3684","25.1339083333333","6500300","中和區"
"235023","AAC-215","2017/12/01 15:49:42","新北市中和區員山路49-13號","121.479575","24.9910516666667","6500300","中和區"
"223001","205-TH","2017/12/01 10:24:56","新北市石碇區小粗坑(潭邊里)9-2號","121.678445","24.9857066666667","6501900","石碇區"
"224007","273-VK","2017/12/01 15:49:58","新北市瑞芳區大寮路356-1號","121.78473","25.1031833333333","6501200","瑞芳區"
"227003","642-TC","2017/12/01 15:49:46","新北市雙溪區平林里外平林44號","121.852941666667","25.03635","6502500","雙溪區"
"227011","400-TW","2017/12/01 15:49:51","新北市雙溪區牡丹里中正路54號","121.865408333333","25.0402083333333","6502500","雙溪區"
"236067","105-UM","2017/12/01 15:49:39","新北市土城區金安街65號","121.420421666667","24.965065","6501300","土城區"
"236025","269-VK","2017/12/01 15:49:45","新北市土城區城林路6巷80號","121.438676666667","24.9799983333333","6501300","土城區"
"236019","401-BY","2017/12/01 15:49:43","新北市土城區延吉街111巷12弄15-3號","121.471658333333","24.9849383333333","6501300","土城區"
"236057","912-UM","2017/12/01 15:49:41","新北市土城區中央路一段306號","121.443295","24.9818016666667","6501300","土城區"
"236054","AAC-216","2017/12/01 15:49:42","新北市土城區中華路一段200號","121.440445","24.98119","6501300","土城區"
"221012","276-VK","2017/12/01 13:29:12","新北市汐止區汐萬路一段256巷3號","121.653463333333","25.074665","6501100","汐止區"
"220010","305-R5","2017/12/01 15:49:41","新北市板橋區民生路二段56-6號","121.471006666667","25.018795","6500100","板橋區"
