"lineid","car","time","location","longitude","latitude","cityid","cityname"
"234040","862-TW","2017/12/01 14:56:38","新北市永和區福和路1號","121.526588333333","25.0096866666667","6500400","永和區"
"249001","173-UM","2017/12/01 16:49:43","新北市八里區仁愛路12號","121.412778333333","25.1620316666667","6502300","八里區"
"249004","303-UY","2017/12/01 16:49:48","新北市八里區中山路二段210巷166號","121.404545","25.156635","6502300","八里區"
"249002","305-UY","2017/12/01 16:49:43","新北市八里區牛寮埔31號","121.429821666667","25.1457","6502300","八里區"
"249003","759-BX","2017/12/01 16:49:49","新北市八里區中山路二段165號","121.404991666667","25.1507016666667","6502300","八里區"
"244013","069-UM","2017/12/01 16:49:52","新北市林口區粉寮69號","121.405076666667","25.090845","6501700","林口區"
"231046","278-BY","2017/12/01 16:49:52","新北市新店區灣潭路15-8號","121.541026666667","24.93912","6500600","新店區"
"241028","022-UY","2017/12/01 16:49:39","新北市三重區光興街93號","121.497315","25.0598933333333","6500200","三重區"
"241008","059-VK","2017/12/01 16:49:53","新北市三重區永安北路一段11巷20號","121.477335","25.0748316666667","6500200","三重區"
"241009","060-VK","2017/12/01 16:49:43","新北市三重區三和路四段203巷260號","121.487408333333","25.081065","6500200","三重區"
"241031","061-VK","2017/12/01 16:49:39","新北市三重區過圳街42-1號","121.48833","25.0596733333333","6500200","三重區"
"241015","062-VK","2017/12/01 16:49:55","新北市三重區長元街2-1號","121.498998333333","25.06584","6500200","三重區"
"241017","063-VK","2017/12/01 16:49:58","新北市三重區大同北路60巷29號","121.493515","25.0637683333333","6500200","三重區"
"241024","065-VK","2017/12/01 16:49:49","新北市三重區中正北路317巷1號","121.474086666667","25.071935","6500200","三重區"
"241026","066-VK","2017/12/01 16:49:58","新北市三重區文化南路12號","121.500301666667","25.062045","6500200","三重區"
"241002","090-VK","2017/12/01 16:49:51","新北市三重區仁義街207號","121.496843333333","25.0816933333333","6500200","三重區"
"241003","091-VK","2017/12/01 16:49:40","新北市三重區五華街75巷6號","121.492803333333","25.0833366666667","6500200","三重區"
"241005","262-UM","2017/12/01 16:49:43","新北市三重區仁華街77號","121.485486666667","25.08297","6500200","三重區"
"241011","265-UM","2017/12/01 16:49:51","新北市三重區仁愛街53巷136號","121.499265","25.0726633333333","6500200","三重區"
"241016","266-UM","2017/12/01 16:49:54","新北市三重區大同北路135巷38號","121.493701666667","25.0648716666667","6500200","三重區"
"241022","267-UM","2017/12/01 16:49:45","新北市三重區中華路111巷20號","121.484315","25.0634883333333","6500200","三重區"
"241018","268-UM","2017/12/01 16:49:49","新北市三重區安慶街149巷11號","121.49453","25.06927","6500200","三重區"
"241032","269-UM","2017/12/01 16:49:53","新北市三重區重陽路一段120巷16號","121.485958333333","25.06012","6500200","三重區"
"241013","270-UM","2017/12/01 16:49:54","新北市三重區仁壽街38號","121.49731","25.07363","6500200","三重區"
"241025","271-UM","2017/12/01 16:49:44","新北市三重區中正北路530巷5-1號","121.472011666667","25.0711866666667","6500200","三重區"
"241007","398-BY","2017/12/01 16:49:54","新北市三重區三和路四段181巷134號","121.48547","25.0798316666667","6500200","三重區"
"241030","KEA-2210","2017/12/01 16:49:42","新北市三重區中正南路271號","121.49267","25.05259","6500200","三重區"
"241020","413-TH","2017/12/01 16:49:54","新北市三重區忠孝路二段51號","121.485653333333","25.071035","6500200","三重區"
"241004","475-VK","2017/12/01 16:49:51","新北市三重區仁愛街423-1號","121.490363333333","25.0815283333333","6500200","三重區"
"241019","478-VK","2017/12/01 16:49:51","新北市三重區忠孝路二段38巷18號","121.485781666667","25.0700633333333","6500200","三重區"
"241014","543-UM","2017/12/01 16:49:42","新北市三重區長壽街120巷11號","121.50252","25.069095","6500200","三重區"
"241023","545-UM","2017/12/01 16:49:57","新北市三重區新北大道一段190號","121.48257","25.061995","6500200","三重區"
"241001","547-UM","2017/12/01 16:49:45","新北市三重區仁政街51號","121.492998333333","25.0771033333333","6500200","三重區"
"241006","AAD-863","2017/12/01 16:49:50","新北市三重區力行路二段182-3號","121.483463333333","25.077545","6500200","三重區"
"241012","941-UM","2017/12/01 16:49:55","新北市三重區仁興街11巷78號","121.501846666667","25.0748533333333","6500200","三重區"
"241029","942-UM","2017/12/01 16:49:52","新北市三重區集美街257號","121.492395","25.0556366666667","6500200","三重區"
"241033","AAC-255","2017/12/01 16:49:50","新北市三重區新北大道二段95-1號","121.467155","25.06148","6500200","三重區"
"247002","337-TH","2017/12/01 16:49:46","新北市蘆洲區永平街20號","121.459148333333","25.0907633333333","6501400","蘆洲區"
"247004","336-TH","2017/12/01 16:49:42","新北市蘆洲區長榮路207號","121.461006666667","25.08483","6501400","蘆洲區"
"247016","057-VK","2017/12/01 16:49:40","新北市蘆洲區中正路57號","121.47048","25.08283","6501400","蘆洲區"
"247006","056-VK","2017/12/01 16:49:38","新北市蘆洲區永安南路二段150號","121.461928333333","25.0788483333333","6501400","蘆洲區"
"247014","053-VK","2017/12/01 16:49:52","新北市蘆洲區三民路95號","121.473651666667","25.08448","6501400","蘆洲區"
"223001","205-TH","2017/12/01 10:24:56","新北市石碇區小粗坑(潭邊里)9-2號","121.678445","24.9857066666667","6501900","石碇區"
"228002","663-BX","2017/12/01 16:49:47","新北市貢寮區貢寮里朝陽街122號","121.907995","25.0226933333333","6502600","貢寮區"
"224010","AGQ-8101","2017/12/01 09:29:59","新北市瑞芳區明燈路二段44-1號","121.809598333333","25.10823","6501200","瑞芳區"
"224006","676-BX","2017/12/01 16:49:48","新北市瑞芳區大寮路356-1號","121.784596666667","25.1032933333333","6501200","瑞芳區"
"224009","285-BY","2017/12/01 16:49:54","新北市瑞芳區傑魚坑路77-1號","121.792935","25.1104733333333","6501200","瑞芳區"
"224008","275-VK","2017/12/01 16:49:55","新北市瑞芳區逢甲路17號","121.80938","25.1084166666667","6501200","瑞芳區"
"224007","273-VK","2017/12/01 16:49:58","新北市瑞芳區中央路48巷164號","121.759251666667","25.103375","6501200","瑞芳區"
"224005","271-BY","2017/12/01 16:49:43","新北市瑞芳區明里路122號","121.863901666667","25.122435","6501200","瑞芳區"
"227003","642-TC","2017/12/01 16:49:46","新北市雙溪區外柑里外柑腳71號","121.807131666667","25.0175733333333","6502500","雙溪區"
"227011","400-TW","2017/12/01 16:49:51","新北市雙溪區牡丹里石1號","121.864713333333","25.05268","6502500","雙溪區"
"251013","180-VK","2017/12/01 16:49:39","新北市淡水區泉洲厝32號","121.489403333333","25.1925216666667","6501000","淡水區"
"251008","181-VK","2017/12/01 16:49:54","新北市淡水區樹梅坑45號","121.47476","25.1445833333333","6501000","淡水區"
"251015","182-VK","2017/12/01 16:49:49","新北市淡水區忠愛街5-2號","121.460625","25.171675","6501000","淡水區"
"251007","577-R6","2017/12/01 16:49:39","新北市淡水區中正路二段31號","121.419518333333","25.1816383333333","6501000","淡水區"
"251011","650-BX","2017/12/01 16:49:53","新北市淡水區中正路二段31號","121.419316666667","25.18168","6501000","淡水區"
"252001","292-VK","2017/12/01 16:49:53","新北市三芝區淡金路二段76-2號","121.504135","25.2610866666667","6502100","三芝區"
"252002","AAC-283","2017/12/01 16:49:48","新北市三芝區忠孝街145號","121.506145","25.2608433333333","6502100","三芝區"
"242027","612-BX","2017/12/01 16:49:57","新北市新莊區新泰路357巷3弄57號","121.442071666667","25.03934","6500500","新莊區"
"242048","441-UM","2017/12/01 16:49:36","新北市新莊區三和路12-21號","121.441916666667","25.03839","6500500","新莊區"
"242034","415-TV","2017/12/01 15:26:15","新北市新莊區新泰路357巷3弄57號","121.442103333333","25.0391816666667","6500500","新莊區"
"242060","362-BY","2017/12/01 16:49:37","新北市新莊區新泰路255巷83號","121.442423333333","25.0387083333333","6500500","新莊區"
"242046","172-VK","2017/12/01 04:41:28","新北市新莊區三和路12-21號","121.441806666667","25.0387183333333","6500500","新莊區"
"242019","348-TH","2017/12/01 16:49:40","新北市新莊區新泰路357巷3弄57號","121.442221666667","25.039495","6500500","新莊區"
"242011","351-TH","2017/12/01 16:49:50","新北市新莊區新泰路357巷3弄57號","121.441923333333","25.03967","6500500","新莊區"
"239007","AAC-297","2017/12/01 04:35:24","新北市鶯歌區二甲路13-16號","121.344878333333","24.9351216666667","6500800","鶯歌區"
"239008","527-UM","2017/12/01 10:49:13","新北市鶯歌區二甲路13-16號","121.345093333333","24.9353066666667","6500800","鶯歌區"
"239005","526-UM","2017/12/01 03:17:26","新北市鶯歌區二甲路13-16號","121.345176666667","24.9351833333333","6500800","鶯歌區"
"239001","417-VK","2017/12/01 11:02:15","新北市鶯歌區二甲路13號","121.343955","24.9354816666667","6500800","鶯歌區"
"239002","359-BY","2017/12/01 16:49:46","新北市鶯歌區二甲路171-1號","121.34407","24.93582","6500800","鶯歌區"
"221012","276-VK","2017/12/01 13:29:12","新北市汐止區汐萬路一段256巷3號","121.653463333333","25.074665","6501100","汐止區"
"220010","305-R5","2017/12/01 15:54:36","新北市板橋區民生路二段56-6號","121.4711","25.0188516666667","6500100","板橋區"
