"lineid","car","time","location","longitude","latitude","cityid","cityname"
"234007","207-UY","2017/12/01 18:07:35","新北市永和區豫溪街217巷1號","121.525223333333","25.009765","6500400","永和區"
"234040","862-TW","2017/12/01 14:56:38","新北市永和區福和路1號","121.526588333333","25.0096866666667","6500400","永和區"
"234026","9371-KE","2017/12/01 18:07:35","新北市永和區秀朗路一段10巷21號","121.513223333333","25.0062566666667","6500400","永和區"
"249005","172-UM","2017/12/01 18:07:26","新北市八里區荖阡坑路15號","121.40169","25.1398116666667","6502300","八里區"
"249001","173-UM","2017/12/01 18:07:43","新北市八里區龍米路二段36號","121.448543333333","25.1401083333333","6502300","八里區"
"249004","303-UY","2017/12/01 18:07:28","新北市八里區龍米路二段200巷5號","121.433695","25.1588266666667","6502300","八里區"
"249002","305-UY","2017/12/01 18:07:43","新北市八里區龍米路一段356巷46號","121.45214","25.1303383333333","6502300","八里區"
"249003","759-BX","2017/12/01 18:07:29","新北市八里區中華路二段205巷20弄20-6號","121.406086666667","25.1485616666667","6502300","八里區"
"248006","077-UY","2017/12/01 18:07:45","新北市五股區中興路二段95號","121.460386666667","25.0775066666667","6501500","五股區"
"248008","095-VK","2017/12/01 18:07:25","新北市蘆洲區永安南路二段320號","121.457013333333","25.082635","6501500","五股區"
"248018","225-UY","2017/12/01 18:07:44","新北市五股區新五路二段258號","121.441061666667","25.0821716666667","6501500","五股區"
"248004","677-BX","2017/12/01 18:07:28","新北市五股區中興路四段17號","121.44018","25.0822733333333","6501500","五股區"
"232011","375-UM","2017/12/01 18:07:25","新北市坪林區水柳腳66號","121.710066666667","24.9355766666667","6502000","坪林區"
"244013","069-UM","2017/12/01 18:07:32","新北市林口區中山路65號","121.393823333333","25.078455","6501700","林口區"
"244007","080-UY","2017/12/01 18:07:36","新北市林口區林口路156號","121.387865","25.0822483333333","6501700","林口區"
"244019","403-UM","2017/12/01 18:07:37","新北市林口區麗園路121號","121.371591666667","25.06752","6501700","林口區"
"244009","410-SL","2017/12/01 18:07:42","新北市林口區竹林路606巷13號","121.385768333333","25.08275","6501700","林口區"
"244023","483-VK","2017/12/01 18:07:32","新北市林口區東湖一街107號","121.38387","25.0720016666667","6501700","林口區"
"244017","485-VK","2017/12/01 18:07:34","新北市林口區忠孝路377號","121.369321666667","25.0714333333333","6501700","林口區"
"244011","701-TV","2017/12/01 18:07:29","新北市林口區中正路150號","121.39253","25.0773666666667","6501700","林口區"
"244025","837-TS","2017/12/01 18:07:33","新北市林口區文化北路一段299巷25號","121.359321666667","25.0733933333333","6501700","林口區"
"244021","838-TS","2017/12/01 18:07:41","新北市林口區自強四街1號","121.398703333333","25.0768416666667","6501700","林口區"
"243013","646-TV","2017/12/01 18:07:23","新北市泰山區犁頭窠29鄰16號","121.421433333333","25.0554","6501600","泰山區"
"222003","436-BY","2017/12/01 18:07:41","新北市深坑區腳坑5-3號","121.609296666667","24.9950983333333","6501800","深坑區"
"222002","659-BX","2017/12/01 18:07:26","新北市深坑區文化街42號","121.619076666667","25.00174","6501800","深坑區"
"231059","046-UY","2017/12/01 18:07:42","新北市新店區安華路28-1號","121.519591666667","24.9607466666667","6500600","新店區"
"231060","106-UY","2017/12/01 18:07:36","新北市新店區安華路28-1號","121.519653333333","24.9608533333333","6500600","新店區"
"231053","187-VK","2017/12/01 18:07:27","新北市新店區安華路28-1號","121.519538333333","24.96109","6500600","新店區"
"231046","278-BY","2017/12/01 18:07:29","新北市新店區直潭路113號","121.531673333333","24.93609","6500600","新店區"
"231058","3712-VJ","2017/12/01 18:07:36","新北市新店區安華路28-1號","121.519195","24.9607183333333","6500600","新店區"
"231040","619-UM","2017/12/01 18:07:18","新北市新店區安華路28-1號","121.519383333333","24.9609366666667","6500600","新店區"
"241024","065-VK","2017/12/01 18:07:29","新北市三重區中正北路193巷35弄25號","121.477101666667","25.0710133333333","6500200","三重區"
"241022","267-UM","2017/12/01 17:38:52","新北市三重區重新路四段121號","121.484665","25.0520316666667","6500200","三重區"
"241033","AAC-255","2017/12/01 18:07:35","新北市三重區中興北街50-5號","121.469353333333","25.0504216666667","6500200","三重區"
"235066","003-UY","2017/12/01 18:07:42","新北市中和區圓通路207號","121.497021666667","24.9943833333333","6500300","中和區"
"235063","006-UY","2017/12/01 18:07:24","新北市中和區員山路36巷16-3號","121.485","24.9912783333333","6500300","中和區"
"235065","098-UM","2017/12/01 18:07:37","新北市中和區中山路二段375號","121.487258333333","25.0048383333333","6500300","中和區"
"235040","150-BY","2017/12/01 16:18:53","新北市中和區和城路一段271巷1號","121.485488333333","24.9918266666667","6500300","中和區"
"235058","151-BY","2017/12/01 18:07:41","新北市中和區圓通路367巷33弄12號","121.49434","24.9848783333333","6500300","中和區"
"235038","185-VK","2017/12/01 18:07:42","新北市中和區景平路365號","121.50441","24.99335","6500300","中和區"
"235067","255-BX","2017/12/01 18:07:34","新北市中和區和城路一段271巷1號","121.485395","24.9919866666667","6500300","中和區"
"235061","378-QA","2017/12/01 18:07:39","新北市中和區員山路72-1號","121.481088333333","24.9935","6500300","中和區"
"235069","4980-A6","2017/12/01 18:07:36","新北市中和區中正路501號","121.48883","24.9941066666667","6500300","中和區"
"235042","551-UM","2017/12/01 18:07:24","新北市中和區景平路375號","121.50417","24.9933533333333","6500300","中和區"
"235070","558-UM","2017/12/01 18:07:28","新北市中和區中正路637巷60弄61號","121.485416666667","24.99263","6500300","中和區"
"235054","640-BX","2017/12/01 18:07:39","新北市中和區員山路72-1號","121.481093333333","24.9935333333333","6500300","中和區"
"235046","733-UM","2017/12/01 18:07:31","新北市中和區員山路36巷13號","121.48415","24.99087","6500300","中和區"
"235062","800-TS","2017/12/01 18:07:27","新北市中和區中正路832號","121.484765","25.00421","6500300","中和區"
"235057","801-TS","2017/12/01 18:07:28","新北市中和區員山路36巷16-3號","121.485083333333","24.9913116666667","6500300","中和區"
"235052","805-TS","2017/12/01 18:07:39","新北市中和區中正路87號","121.500516666667","24.9934666666667","6500300","中和區"
"235053","900-TW","2017/12/01 18:07:33","新北市中和區員山路36巷16-3號","121.485163333333","24.9914","6500300","中和區"
"235064","911-UM","2017/12/01 18:07:38","新北市中和區中正路637巷52弄1號","121.485473333333","24.993325","6500300","中和區"
"235037","157-BY","2017/12/01 18:07:34","新北市中和區中正路169號","121.497948333333","24.9935","6500300","中和區"
"235037","AAC-213","2017/12/01 18:07:38","新北市中和區中正路161巷2號","121.4986","24.9936466666667","6500300","中和區"
"247022","893-R6","2017/12/01 18:07:35","新北市蘆洲區中正路264巷21號","121.466051666667","25.0900933333333","6501400","蘆洲區"
"247012","546-UM","2017/12/01 18:07:41","新北市蘆洲區中山一路276號","121.471551666667","25.0792216666667","6501400","蘆洲區"
"247016","057-VK","2017/12/01 18:07:40","新北市蘆洲區中正路297號","121.466705","25.088155","6501400","蘆洲區"
"226004","205-ST","2017/12/01 18:07:40","新北市平溪區菁桐里菁桐街165號","121.723033333333","25.0235933333333","6502400","平溪區"
"223001","205-TH","2017/12/01 10:24:56","新北市石碇區小粗坑(潭邊里)9-2號","121.678445","24.9857066666667","6501900","石碇區"
"228002","663-BX","2017/12/01 18:07:27","新北市貢寮區福連里馬崗街1號","121.996653333333","25.016835","6502600","貢寮區"
"228001","670-TC","2017/12/01 18:07:40","新北市貢寮區真理里新港街26巷55弄2-1號","121.927361666667","25.0528733333333","6502600","貢寮區"
"228003","828-UM","2017/12/01 18:07:36","新北市貢寮區真理里美艷山街6-2號","121.928888333333","25.0606833333333","6502600","貢寮區"
"224006","676-BX","2017/12/01 18:07:28","新北市瑞芳區中山路251號","121.798625","25.1089533333333","6501200","瑞芳區"
"224002","639-TC","2017/12/01 18:07:40","新北市瑞芳區三爪子坑路94-2號","121.809438333333","25.1053116666667","6501200","瑞芳區"
"224009","285-BY","2017/12/01 18:07:34","新北市瑞芳區金光路115號","121.853531666667","25.1062416666667","6501200","瑞芳區"
"224008","275-VK","2017/12/01 18:07:35","新北市瑞芳區員山子路23號","121.821388333333","25.1030033333333","6501200","瑞芳區"
"224007","273-VK","2017/12/01 18:07:42","新北市瑞芳區四腳亭埔路18號","121.778023333333","25.1026233333333","6501200","瑞芳區"
"224005","271-BY","2017/12/01 18:07:43","新北市瑞芳區建基路一段62巷24-1號","121.81655","25.12849","6501200","瑞芳區"
"253005","032-BX","2017/12/01 18:07:31","新北市石門區福安街53號","121.568375","25.2916266666667","6502200","石門區"
"253006","295-VK","2017/12/01 18:07:37","新北市石門區老梅路52巷25弄2-1號","121.546601666667","25.2876383333333","6502200","石門區"
"222001","KEA-2212","2017/12/01 18:07:39","新北市深坑區北深路二段190號","121.61383","25.0023716666667","6501800","深坑區"
"208002","742-BX","2017/12/01 18:07:34","新北市金山區六股里潭子內11號","121.613585","25.226655","6502700","金山區"
"208003","665-BX","2017/12/01 18:07:36","新北市金山區磺港里磺港路11號","121.649676666667","25.230585","6502700","金山區"
"208001","761-BX","2017/12/01 18:07:42","新北市金山區磺港里磺港路63號","121.647115","25.2270483333333","6502700","金山區"
"251004","009-UM","2017/12/01 18:07:31","新北市淡水區民族路110巷10號","121.462028333333","25.1355216666667","6501000","淡水區"
"251005","010-UM","2017/12/01 18:07:30","新北市淡水區學府路88號","121.449155","25.1710316666667","6501000","淡水區"
"251013","180-VK","2017/12/01 18:07:38","新北市淡水區口湖子6號","121.476393333333","25.1914516666667","6501000","淡水區"
"251008","181-VK","2017/12/01 18:07:34","新北市淡水區淡金路12-3號","121.458383333333","25.1603383333333","6501000","淡水區"
"251015","182-VK","2017/12/01 18:07:29","新北市淡水區興福寮88巷1號","121.485571666667","25.1650666666667","6501000","淡水區"
"251010","413-VK","2017/12/01 18:07:32","新北市淡水區中正路二段50巷10號","121.419901666667","25.1833533333333","6501000","淡水區"
"251012","441-VK","2017/12/01 18:07:47","新北市淡水區北新路三段171-1號","121.491683333333","25.1914733333333","6501000","淡水區"
"251001","559-UM","2017/12/01 18:07:38","新北市淡水區自立路10號","121.463065","25.1297033333333","6501000","淡水區"
"251006","561-UM","2017/12/01 18:07:25","新北市淡水區真理街3巷26-2號","121.437931666667","25.1766233333333","6501000","淡水區"
"251009","575-R6","2017/12/01 18:07:33","新北市淡水區大忠街34巷13號","121.443906666667","25.1756233333333","6501000","淡水區"
"251011","650-BX","2017/12/01 18:07:33","新北市淡水區三空泉9-2號","121.474091666667","25.1634633333333","6501000","淡水區"
"251002","672-BX","2017/12/01 18:07:44","新北市淡水區中正路一段29-1號","121.452008333333","25.1631466666667","6501000","淡水區"
"251003","673-BX","2017/12/01 18:07:36","新北市淡水區北新路180號","121.449446666667","25.1786683333333","6501000","淡水區"
"207003","550-UM","2017/12/01 18:07:27","新北市萬里區野柳里港西路7號","121.685186666667","25.20352","6502800","萬里區"
"207004","225-TW","2017/12/01 18:07:35","新北市萬里區中幅里中福路89號","121.676275","25.170975","6502800","萬里區"
"252003","249-BX","2017/12/01 18:07:36","新北市三芝區北海路二段167號","121.50316","25.2615633333333","6502100","三芝區"
"252001","292-VK","2017/12/01 18:07:41","新北市三芝區中興街二段2號","121.498391666667","25.256675","6502100","三芝區"
"252002","AAC-283","2017/12/01 18:07:28","新北市三芝區中山路二段41號","121.50297","25.2550733333333","6502100","三芝區"
"237004","078-UY","2017/12/01 18:07:27","新北市三峽區圳頭28號","121.375775","24.8889233333333","6500900","三峽區"
"237007","153-BY","2017/12/01 18:07:44","新北市三峽區中正路二段370巷37號","121.364735","24.9107433333333","6500900","三峽區"
"237009","210-TH","2017/12/01 18:07:38","新北市三峽區大仁路6號","121.366796666667","24.9376766666667","6500900","三峽區"
"237013","252-BX","2017/12/01 18:07:29","新北市三峽區長泰街78巷16-3號","121.376813333333","24.933585","6500900","三峽區"
"237012","275-BY","2017/12/01 18:07:37","新北市三峽區民生街19巷7弄37號","121.377376666667","24.9354966666667","6500900","三峽區"
"237008","302-VK","2017/12/01 18:07:41","新北市三峽區白雞44-3號","121.378815","24.9098216666667","6500900","三峽區"
"237014","433-BY","2017/12/01 18:07:36","新北市三峽區復興路80巷14弄2號","121.37355","24.93765","6500900","三峽區"
"237006","5529-G3","2017/12/01 18:07:46","新北市三峽區溪東路34巷13號","121.400436666667","24.934615","6500900","三峽區"
"237011","572-TV","2017/12/01 18:00:31","新北市三峽區介壽路三段20號","121.395991666667","24.9362183333333","6500900","三峽區"
"237015","649-BX","2017/12/01 18:07:28","新北市三峽區紫微路30號","121.419773333333","24.9186483333333","6500900","三峽區"
"237010","706-TV","2017/12/01 18:05:51","新北市三峽區民族街27號","121.3696","24.9304383333333","6500900","三峽區"
"237005","AKY-6261","2017/12/01 18:07:31","新北市三峽區文化路186號","121.36967","24.9370516666667","6500900","三峽區"
"236072","105-UM","2017/12/01 18:07:32","新北市土城區中央路一段289號","121.444331666667","24.9842483333333","6501300","土城區"
"236043","107-UM","2017/12/01 18:07:33","新北市土城區城林路6巷80號","121.438316666667","24.979495","6501300","土城區"
"236079","166-UM","2017/12/01 17:58:56","新北市土城區永寧路32巷10弄3號","121.428833333333","24.9610116666667","6501300","土城區"
"236027","269-VK","2017/12/01 18:07:33","新北市土城區承天路18號","121.439186666667","24.9633216666667","6501300","土城區"
"236015","270-VK","2017/12/01 18:06:17","新北市土城區學府路二段71號","121.448863333333","24.981355","6501300","土城區"
"236039","271-VK","2017/12/01 18:07:28","新北市土城區明德路一段398號","121.453103333333","24.979545","6501300","土城區"
"236022","401-BY","2017/12/01 18:07:34","新北市土城區城林路6巷80號","121.4386","24.9797483333333","6501300","土城區"
"236059","912-UM","2017/12/01 18:07:34","新北市土城區中央路四段3號","121.425571666667","24.962885","6501300","土城區"
"236050","913-UM","2017/12/01 18:07:35","新北市土城區學士路123號","121.446511666667","24.975845","6501300","土城區"
"236063","915-UM","2017/12/01 18:07:33","新北市土城區金城路二段312號","121.459051666667","24.9843383333333","6501300","土城區"
"236055","AAC-216","2017/12/01 18:07:27","新北市土城區城林路6巷80號","121.438453333333","24.9796216666667","6501300","土城區"
"242032","AAC-296","2017/12/01 18:07:28","新北市新莊區新泰路277巷67號","121.443135","25.04003","6500500","新莊區"
"242029","986-R7","2017/12/01 18:07:31","新北市新莊區中平路92巷2號","121.444763333333","25.0453483333333","6500500","新莊區"
"242050","751-BX","2017/12/01 18:07:30","新北市新莊區民安西路155巷7弄3號","121.42681","25.0166","6500500","新莊區"
"242025","615-BX","2017/12/01 18:07:41","新北市新莊區五權一路98號","121.45962","25.067465","6500500","新莊區"
"242023","613-BX","2017/12/01 18:07:30","新北市新莊區幸福路600號","121.453133333333","25.0492833333333","6500500","新莊區"
"242027","612-BX","2017/12/01 18:07:41","新北市新莊區福壽街175號","121.458031666667","25.0539683333333","6500500","新莊區"
"242039","566-BX","2017/12/01 18:07:41","新北市新莊區民安西路38巷32號","121.426391666667","25.0203333333333","6500500","新莊區"
"242044","497-BY","2017/12/01 18:07:44","新北市新莊區天泉二街24巷1號","121.414613333333","25.0255083333333","6500500","新莊區"
"242048","441-UM","2017/12/01 18:07:45","新北市新莊區民安路98巷21號","121.423435","25.0252666666667","6500500","新莊區"
"242054","440-UM","2017/12/01 18:07:38","新北市新莊區光華街3號","121.428746666667","25.0106033333333","6500500","新莊區"
"242034","415-TV","2017/12/01 18:07:38","新北市新莊區中正路377巷1弄5號","121.446466666667","25.0343366666667","6500500","新莊區"
"242005","413-TV","2017/12/01 18:07:31","新北市新莊區自由街36號","121.455786666667","25.0464133333333","6500500","新莊區"
"242041","400-BY","2017/12/01 18:07:44","新北市新莊區中正路694巷1弄2號","121.418826666667","25.0283216666667","6500500","新莊區"
"242060","362-BY","2017/12/01 18:07:37","新北市新莊區新樹路525-2號","121.432746666667","25.01011","6500500","新莊區"
"242058","353-BY","2017/12/01 18:07:26","新北市新莊區壽山路160巷21號","121.417493333333","25.0319566666667","6500500","新莊區"
"242037","133-UY","2017/12/01 18:07:25","新北市新莊區後港一路65號","121.426471666667","25.026575","6500500","新莊區"
"242021","135-UY","2017/12/01 18:07:33","新北市新莊區新興街45巷1號","121.450585","25.039","6500500","新莊區"
"242046","172-VK","2017/12/01 18:07:30","新北市新莊區福營路197號","121.43113","25.0305066666667","6500500","新莊區"
"242009","173-VK","2017/12/01 18:07:34","新北市新莊區昌平街71巷15號","121.453706666667","25.0535916666667","6500500","新莊區"
"242015","175-VK","2017/12/01 18:07:40","新北市新莊區中平路127號","121.44463","25.046965","6500500","新莊區"
"242007","347-TH","2017/12/01 18:07:30","新北市新莊區自信街24號","121.454081666667","25.0481183333333","6500500","新莊區"
"242019","348-TH","2017/12/01 18:07:40","新北市新莊區民樂街13號","121.457616666667","25.039795","6500500","新莊區"
"242056","349-TH","2017/12/01 18:07:40","新北市新莊區豐年街豐1巷13號","121.447105","25.0312","6500500","新莊區"
"242017","350-TH","2017/12/01 18:07:32","新北市新莊區永樂街44號","121.451403333333","25.04505","6500500","新莊區"
"242011","351-TH","2017/12/01 18:07:29","新北市新莊區中榮街47號","121.449433333333","25.0526983333333","6500500","新莊區"
"238015","755-BX","2017/12/01 18:07:34","新北市樹林區大安路325號","121.417393333333","24.9917466666667","6500700","樹林區"
"238023","601-UM","2017/12/01 18:07:41","新北市樹林區龍興街58號","121.403168333333","25.0152583333333","6500700","樹林區"
"238019","599-UM","2017/12/01 18:07:32","新北市樹林區水源街32巷74號","121.424925","24.9801833333333","6500700","樹林區"
"238018","571-TV","2017/12/01 18:07:29","新北市樹林區中正路7-1號","121.430218333333","24.99762","6500700","樹林區"
"238024","5061-A6","2017/12/01 18:07:40","新北市樹林區中山路三段125-3號","121.396911666667","24.9733933333333","6500700","樹林區"
"238021","KEA-2217","2017/12/01 18:07:40","新北市樹林區柑園街一段132巷18號","121.399423333333","24.95869","6500700","樹林區"
"238022","KEA-2213","2017/12/01 18:07:30","新北市樹林區太平路148號","121.418583333333","24.978165","6500700","樹林區"
"238025","303-VK","2017/12/01 18:07:33","新北市樹林區保安街二段181號","121.415006666667","25.0034466666667","6500700","樹林區"
"238017","283-BY","2017/12/01 18:07:35","新北市樹林區中正路592號","121.41047","25.0155033333333","6500700","樹林區"
"238020","268-VK","2017/12/01 18:07:40","新北市樹林區俊興街286號","121.41869","25.0170383333333","6500700","樹林區"
"238026","172-UY","2017/12/01 18:07:41","新北市樹林區育德街38-8號","121.390191666667","24.96965","6500700","樹林區"
"238016","169-UY","2017/12/01 18:07:29","新北市樹林區育英街135巷1弄1號","121.419655","24.9890766666667","6500700","樹林區"
"239007","AAC-297","2017/12/01 18:07:36","新北市鶯歌區尖山埔路159號","121.34617","24.950905","6500800","鶯歌區"
"239006","891-R6","2017/12/01 18:07:39","新北市鶯歌區鶯桃路367號","121.333751666667","24.962905","6500800","鶯歌區"
"239008","527-UM","2017/12/01 18:07:37","新北市鶯歌區朝陽街59號","121.338173333333","24.9784133333333","6500800","鶯歌區"
"239005","526-UM","2017/12/01 18:07:32","新北市鶯歌區鶯桃路668巷73號","121.329875","24.9717433333333","6500800","鶯歌區"
"239001","417-VK","2017/12/01 18:07:26","新北市鶯歌區中正三路5巷19號","121.34019","24.9427616666667","6500800","鶯歌區"
"239003","360-BY","2017/12/01 18:07:40","新北市鶯歌區福安街30號","121.334545","24.964095","6500800","鶯歌區"
"239002","359-BY","2017/12/01 18:07:26","新北市鶯歌區中山路329巷6弄10號","121.343613333333","24.955995","6500800","鶯歌區"
"239004","193-VK","2017/12/01 18:07:32","新北市鶯歌區尖山路103-6號","121.348075","24.9488116666667","6500800","鶯歌區"
"221008","489-VK","2017/12/01 18:07:44","新北市汐止區明峰街194號","121.627988333333","25.069555","6501100","汐止區"
"221036","130-UY","2017/12/01 18:07:37","新北市汐止區大同路三段259號","121.67345","25.0758683333333","6501100","汐止區"
"221010","269-BY","2017/12/01 18:07:46","新北市汐止區汐萬路二段273號","121.64606","25.088985","6501100","汐止區"
"221012","276-VK","2017/12/01 13:29:12","新北市汐止區汐萬路一段256巷3號","121.653463333333","25.074665","6501100","汐止區"
"221012","278-VK","2017/12/01 18:07:38","新北市汐止區保一街67號","121.674261666667","25.0799266666667","6501100","汐止區"
"221023","279-VK","2017/12/01 18:07:43","新北市汐止區明峰街179-1號","121.628568333333","25.069975","6501100","汐止區"
"221032","280-BY","2017/12/01 18:07:40","新北市汐止區橫科路19號","121.617816666667","25.0512916666667","6501100","汐止區"
"221027","281-BY","2017/12/01 18:07:34","新北市汐止區大同路二段516號","121.660963333333","25.0683716666667","6501100","汐止區"
"221029","298-VK","2017/12/01 18:07:26","新北市汐止區樟樹二路251巷46號","121.640488333333","25.0671933333333","6501100","汐止區"
"221021","299-VK","2017/12/01 18:07:38","新北市汐止區復興路13號","121.655765","25.0647233333333","6501100","汐止區"
"221015","567-BX","2017/12/01 18:07:31","新北市汐止區鄉長路二段63號","121.66678","25.08439","6501100","汐止區"
"221035","622-UM","2017/12/01 18:07:33","新北市汐止區大同路二段206號","121.653515","25.06488","6501100","汐止區"
"221025","623-UM","2017/12/01 18:07:36","新北市汐止區秀峰路151巷1號","121.660868333333","25.0619866666667","6501100","汐止區"
"221038","646-BX","2017/12/01 18:07:41","新北市汐止區南興路83巷12號","121.653503333333","25.05904","6501100","汐止區"
"221033","647-BX","2017/12/01 18:07:30","新北市汐止區林森街21號","121.621776666667","25.04056","6501100","汐止區"
"221002","707-TV","2017/12/01 18:07:34","新北市汐止區福德一路260號","121.633103333333","25.0643966666667","6501100","汐止區"
"221018","753-BX","2017/12/01 18:07:35","新北市汐止區忠孝東路384號","121.665595","25.070205","6501100","汐止區"
"220010","305-R5","2017/12/01 15:54:36","新北市板橋區民生路二段56-6號","121.4711","25.0188516666667","6500100","板橋區"
"242002","280-VK","2017/12/01 18:07:43","新北市新莊區新莊路187號","121.455838333333","25.0358166666667","6500500","新莊區"
