"lineid","car","time","location","longitude","latitude","cityid","cityname"
"234007","207-UY","2017/12/01 18:19:55","新北市永和區環河西路二段219號","121.501293333333","25.010085","6500400","永和區"
"234040","862-TW","2017/12/01 18:19:55","新北市永和區福和路1號","121.526411666667","25.0096716666667","6500400","永和區"
"234026","9371-KE","2017/12/01 18:19:45","新北市永和區豫溪街42巷14號","121.515365","25.0092983333333","6500400","永和區"
"234011","9373-KE","2017/12/01 18:19:48","新北市永和區環河東路一段124號","121.520811666667","25.0154883333333","6500400","永和區"
"249005","172-UM","2017/12/01 18:19:46","新北市八里區荖阡坑路15-11號","121.400408333333","25.1402866666667","6502300","八里區"
"249001","173-UM","2017/12/01 18:19:43","新北市八里區龍米路一段135號","121.452045","25.1269683333333","6502300","八里區"
"249004","303-UY","2017/12/01 18:19:48","新北市八里區忠二街25號","121.427041666667","25.1610466666667","6502300","八里區"
"249002","305-UY","2017/12/01 18:16:43","新北市八里區龍形二街35號","121.450421666667","25.1328833333333","6502300","八里區"
"249003","759-BX","2017/12/01 18:19:49","新北市八里區中華路二段331號","121.401948333333","25.1456983333333","6502300","八里區"
"248016","026-BX","2017/12/01 18:19:48","新北市五股區成泰路三段477巷9號","121.449895","25.0988633333333","6501500","五股區"
"248006","077-UY","2017/12/01 18:19:45","新北市五股區中興路一段152號","121.464496666667","25.0738433333333","6501500","五股區"
"248008","095-VK","2017/12/01 18:19:45","新北市五股區更洲路32巷8弄17號","121.459271666667","25.0796066666667","6501500","五股區"
"248018","225-UY","2017/12/01 18:19:44","新北市五股區御史路162號","121.42906","25.1035766666667","6501500","五股區"
"248012","247-BX","2017/12/01 18:19:54","新北市五股區御史路1巷101弄2號","121.441018333333","25.0911566666667","6501500","五股區"
"248014","261-SL","2017/12/01 18:19:56","新北市五股區成泰路一段171巷15號","121.434341666667","25.0743833333333","6501500","五股區"
"248010","272-BY","2017/12/01 18:19:40","新北市五股區成泰路一段189巷5號","121.434561666667","25.076555","6501500","五股區"
"248004","677-BX","2017/12/01 18:19:48","新北市五股區成泰路二段156號","121.438331666667","25.0841","6501500","五股區"
"248002","678-BX","2017/12/01 18:19:44","新北市五股區西雲路47號","121.443481666667","25.0908933333333","6501500","五股區"
"232011","375-UM","2017/12/01 18:19:16","新北市坪林區坪雙路一段43號","121.71174","24.9424383333333","6502000","坪林區"
"244013","069-UM","2017/12/01 18:19:52","新北市林口區中山路154號","121.390998333333","25.078765","6501700","林口區"
"244007","080-UY","2017/12/01 18:19:55","新北市林口區林口路78號","121.389155","25.08055","6501700","林口區"
"244019","403-UM","2017/12/01 18:19:37","新北市林口區文化一路一段89-5號","121.372145","25.0703933333333","6501700","林口區"
"244009","410-SL","2017/12/01 18:19:42","新北市林口區福林路54號","121.379048333333","25.0888866666667","6501700","林口區"
"244023","483-VK","2017/12/01 18:19:52","新北市林口區仁愛路二段14號","121.385683333333","25.0761883333333","6501700","林口區"
"244017","485-VK","2017/12/01 18:19:54","新北市林口區文化一路一段43號","121.370998333333","25.0695616666667","6501700","林口區"
"244011","701-TV","2017/12/01 18:19:49","新北市林口區中正路74巷5弄1號","121.39464","25.0779616666667","6501700","林口區"
"244025","837-TS","2017/12/01 18:19:53","新北市林口區南勢六街55號","121.35571","25.071355","6501700","林口區"
"244021","838-TS","2017/12/01 18:19:41","新北市林口區自強一街8號","121.398088333333","25.0784016666667","6501700","林口區"
"243013","646-TV","2017/12/01 18:19:43","新北市泰山區南林路93號","121.415488333333","25.0511583333333","6501600","泰山區"
"222003","436-BY","2017/12/01 18:19:41","新北市深坑區旺耽路67號","121.626271666667","25.0030083333333","6501800","深坑區"
"222002","659-BX","2017/12/01 18:19:46","新北市深坑區雲鄉路75號","121.622488333333","24.99869","6501800","深坑區"
"231059","046-UY","2017/12/01 18:19:42","新北市新店區安華路28-1號","121.519523333333","24.96081","6500600","新店區"
"231061","047-UY","2017/12/01 18:19:41","新北市新店區安華路28-1號","121.519108333333","24.9609416666667","6500600","新店區"
"231060","106-UY","2017/12/01 18:19:56","新北市新店區安華路28-1號","121.519711666667","24.9608433333333","6500600","新店區"
"231051","107-UY","2017/12/01 18:19:51","新北市新店區安康路一段319號","121.522185","24.9636733333333","6500600","新店區"
"231048","108-UY","2017/12/01 16:25:35","新北市新店區安華路28-1號","121.519491666667","24.96114","6500600","新店區"
"231053","187-VK","2017/12/01 18:19:48","新北市新店區安康路一段285號","121.523265","24.9635966666667","6500600","新店區"
"231050","KEA-2219","2017/12/01 18:19:56","新北市新店區安華路28-1號","121.519916666667","24.961175","6500600","新店區"
"231063","268-BY","2017/12/01 18:19:44","新北市新店區安華路1-1號","121.519341666667","24.96045","6500600","新店區"
"231046","278-BY","2017/12/01 18:19:49","新北市新店區直潭路93號","121.532086666667","24.9398383333333","6500600","新店區"
"231054","AAD-862","2017/12/01 16:31:07","新北市新店區安華路28-1號","121.519798333333","24.9612116666667","6500600","新店區"
"231058","3712-VJ","2017/12/01 18:19:56","新北市新店區環河路17號","121.537621666667","24.9613516666667","6500600","新店區"
"231056","3713-VJ","2017/12/01 18:19:38","新北市新店區中央路181-1號","121.53576","24.969085","6500600","新店區"
"231055","4716-K9","2017/12/01 18:19:51","新北市新店區安康路一段3-1號","121.535591666667","24.961005","6500600","新店區"
"231067","4772-VM","2017/12/01 18:19:42","新北市新店區安華路1-1號","121.519305","24.9604916666667","6500600","新店區"
"231064","515-UM","2017/12/01 16:27:28","新北市新店區安華路28-1號","121.519628333333","24.961315","6500600","新店區"
"231042","616-UM","2017/12/01 18:19:57","新北市新店區安華路1-1號","121.519406666667","24.96045","6500600","新店區"
"231045","617-UM","2017/12/01 18:16:22","新北市新店區安華路28-1號","121.51958","24.9609333333333","6500600","新店區"
"231040","619-UM","2017/12/01 18:19:37","新北市新店區安華路28-1號","121.519645","24.9608716666667","6500600","新店區"
"231049","719-UM","2017/12/01 18:19:47","新北市新店區安華路28-1號","121.5195","24.961195","6500600","新店區"
"231065","719-UY","2017/12/01 18:19:55","新北市新店區安華路28-1號","121.51928","24.9612183333333","6500600","新店區"
"231062","720-UM","2017/12/01 18:19:55","新北市新店區安華路28-1號","121.519223333333","24.96115","6500600","新店區"
"231044","897-TW","2017/12/01 18:19:53","新北市新店區安華路28-1號","121.519796666667","24.9606266666667","6500600","新店區"
"231043","899-TW","2017/12/01 18:19:55","新北市新店區安華路28-1號","121.519226666667","24.9610083333333","6500600","新店區"
"231066","AKT-0513","2017/12/01 18:19:38","新北市新店區安華路28-1號","121.519516666667","24.960575","6500600","新店區"
"241024","065-VK","2017/12/01 18:19:49","新北市三重區新北大道一段7號","121.489475","25.0613133333333","6500200","三重區"
"241022","267-UM","2017/12/01 17:38:52","新北市三重區重新路四段121號","121.484665","25.0520316666667","6500200","三重區"
"241033","AAC-255","2017/12/01 18:19:50","新北市三重區中興北街42巷17號","121.468873333333","25.0493783333333","6500200","三重區"
"235066","003-UY","2017/12/01 18:19:42","新北市中和區中山路二段134-5號","121.502111666667","25.0032833333333","6500300","中和區"
"235063","006-UY","2017/12/01 18:19:44","新北市中和區中正路585號","121.485975","24.9944933333333","6500300","中和區"
"235039","097-UM","2017/12/01 18:19:41","新北市中和區中正路275號","121.495503333333","24.993825","6500300","中和區"
"235065","098-UM","2017/12/01 18:19:56","新北市中和區莊敬路49巷18號","121.50161","25.006145","6500300","中和區"
"235040","150-BY","2017/12/01 18:18:01","新北市中和區中正路368號","121.493126666667","24.9942966666667","6500300","中和區"
"235058","151-BY","2017/12/01 18:19:48","新北市中和區圓通路367巷21-1號","121.492521666667","24.986245","6500300","中和區"
"235055","183-VK","2017/12/01 18:19:52","新北市中和區中正路637巷52弄1號","121.485386666667","24.9935466666667","6500300","中和區"
"235038","185-VK","2017/12/01 18:19:52","新北市中和區大智街36號","121.521646666667","24.9921183333333","6500300","中和區"
"235049","186-VK","2017/12/01 18:19:49","新北市中和區中正路589巷15號","121.485653333333","24.993605","6500300","中和區"
"235067","255-BX","2017/12/01 18:19:54","新北市中和區和城路一段271巷1號","121.485406666667","24.991955","6500300","中和區"
"235072","301-VK","2017/12/01 18:19:53","新北市中和區中正路589巷1號","121.485888333333","24.9944266666667","6500300","中和區"
"235043","352-BY","2017/12/01 18:19:42","新北市中和區中正路271-1號","121.495791666667","24.9935633333333","6500300","中和區"
"235068","377-QA","2017/12/01 16:08:05","新北市中和區員山路36巷16-3號","121.485105","24.991215","6500300","中和區"
"235061","378-QA","2017/12/01 18:19:40","新北市中和區民德路218號","121.468136666667","24.9979333333333","6500300","中和區"
"235050","4979-A6","2017/12/01 18:19:53","新北市中和區捷運路65號","121.508883333333","24.9898916666667","6500300","中和區"
"235069","4980-A6","2017/12/01 18:19:56","新北市中和區連勝街49號","121.498041666667","24.9974266666667","6500300","中和區"
"235042","551-UM","2017/12/01 18:19:44","新北市中和區大仁街20巷25弄19號","121.518605","24.9935883333333","6500300","中和區"
"235070","558-UM","2017/12/01 18:19:48","新北市中和區中正路273號","121.495668333333","24.9938483333333","6500300","中和區"
"235045","565-BX","2017/12/01 18:19:41","新北市中和區板南路170號","121.501343333333","24.9927033333333","6500300","中和區"
"235054","640-BX","2017/12/01 18:19:39","新北市中和區莒光路185號","121.47262","24.99899","6500300","中和區"
"235060","647-TV","2017/12/01 18:19:34","新北市中和區員山路72號","121.480833333333","24.99369","6500300","中和區"
"235047","732-UM","2017/12/01 18:19:45","新北市中和區中正路133號","121.49963","24.9934933333333","6500300","中和區"
"235046","733-UM","2017/12/01 18:19:51","新北市中和區員山路36巷13號","121.484133333333","24.9908616666667","6500300","中和區"
"235062","800-TS","2017/12/01 18:19:47","新北市中和區景平路999巷1號","121.495445","25.0060333333333","6500300","中和區"
"235057","801-TS","2017/12/01 18:19:48","新北市中和區員山路163號","121.481153333333","24.9967166666667","6500300","中和區"
"235041","802-TS","2017/12/01 18:19:39","新北市中和區錦和路350-1號","121.490176666667","24.9935633333333","6500300","中和區"
"235052","805-TS","2017/12/01 18:18:21","新北市中和區興南路二段96號","121.505211666667","24.9842066666667","6500300","中和區"
"235048","896-TW","2017/12/01 18:19:38","新北市中和區中正路589巷15號","121.485645","24.9934983333333","6500300","中和區"
"235053","900-TW","2017/12/01 18:19:53","新北市中和區中正路637巷60弄61號","121.485451666667","24.9931066666667","6500300","中和區"
"235064","911-UM","2017/12/01 18:19:38","新北市中和區中正路87號","121.500505","24.9935483333333","6500300","中和區"
"235037","157-BY","2017/12/01 18:19:54","新北市中和區南山路272號","121.507951666667","24.988075","6500300","中和區"
"235037","AAC-213","2017/12/01 18:19:38","新北市中和區景平路73-2號","121.518648333333","24.9913233333333","6500300","中和區"
"235059","AAC-215","2017/12/01 18:19:49","新北市中和區員山路36巷16-3號","121.485055","24.9912433333333","6500300","中和區"
"247022","893-R6","2017/12/01 18:19:55","新北市蘆洲區中正路314號","121.464388333333","25.091245","6501400","蘆洲區"
"226004","205-ST","2017/12/01 18:19:58","新北市平溪區薯榔里薯榔寮32-3號","121.71106","25.0195816666667","6502400","平溪區"
"223001","205-TH","2017/12/01 10:24:56","新北市石碇區小粗坑(潭邊里)9-2號","121.678445","24.9857066666667","6501900","石碇區"
"228002","663-BX","2017/12/01 18:19:49","新北市貢寮區福連里福興街39-1號","121.99185","25.012165","6502600","貢寮區"
"228001","670-TC","2017/12/01 18:19:40","新北市貢寮區真理里新港街26巷55弄2-1號","121.927368333333","25.0528633333333","6502600","貢寮區"
"228003","828-UM","2017/12/01 18:19:56","新北市貢寮區真理里美艷山街64-2號","121.919883333333","25.0723633333333","6502600","貢寮區"
"224006","676-BX","2017/12/01 18:19:48","新北市瑞芳區民權街3-2號","121.80808","25.107365","6501200","瑞芳區"
"224002","639-TC","2017/12/01 18:19:40","新北市瑞芳區三爪子坑路149巷30號","121.811733333333","25.1066416666667","6501200","瑞芳區"
"224009","285-BY","2017/12/01 18:19:54","新北市瑞芳區新山路43號","121.855918333333","25.1083383333333","6501200","瑞芳區"
"224008","275-VK","2017/12/01 18:19:35","新北市瑞芳區逢甲路38號","121.811378333333","25.1084283333333","6501200","瑞芳區"
"224007","273-VK","2017/12/01 18:19:54","新北市瑞芳區大埔路28號","121.76493","25.10219","6501200","瑞芳區"
"224005","271-BY","2017/12/01 18:19:43","新北市瑞芳區建基路二段78-1號","121.814593333333","25.1290783333333","6501200","瑞芳區"
"227003","642-TC","2017/12/01 18:19:46","新北市雙溪區共和里中山路2號","121.86381","25.033785","6502500","雙溪區"
"227011","400-TW","2017/12/01 18:19:51","新北市雙溪區牡丹里牡丹73號","121.8517","25.0593366666667","6502500","雙溪區"
"253005","032-BX","2017/12/01 18:19:52","新北市石門區石門街1-1號","121.565766666667","25.291375","6502200","石門區"
"253006","295-VK","2017/12/01 18:19:37","新北市石門區老梅路67號","121.545881666667","25.2892316666667","6502200","石門區"
"222001","KEA-2212","2017/12/01 18:19:39","新北市深坑區北深路二段55巷1弄3號","121.619145","25.0037716666667","6501800","深坑區"
"208002","742-BX","2017/12/01 18:19:52","新北市金山區清泉里清水路60巷19號","121.63409","25.2341333333333","6502700","金山區"
"208003","665-BX","2017/12/01 18:19:47","新北市金山區民生路196號","121.645826666667","25.2217816666667","6502700","金山區"
"208001","761-BX","2017/12/01 18:19:42","新北市金山區環金路19號","121.64096","25.21769","6502700","金山區"
"251004","009-UM","2017/12/01 18:19:51","新北市淡水區民族路31巷21-3號","121.462065","25.1364366666667","6501000","淡水區"
"251005","010-UM","2017/12/01 18:19:50","新北市淡水區學府路73巷10號","121.447481666667","25.1702733333333","6501000","淡水區"
"251013","180-VK","2017/12/01 18:19:39","新北市淡水區行忠路590號","121.468036666667","25.1991766666667","6501000","淡水區"
"251008","181-VK","2017/12/01 18:19:54","新北市淡水區水源街二段194號","121.457208333333","25.175485","6501000","淡水區"
"251015","182-VK","2017/12/01 18:19:49","新北市淡水區興福寮88巷1號","121.485415","25.16501","6501000","淡水區"
"251010","413-VK","2017/12/01 18:19:52","新北市淡水區淡海路189巷1號","121.420406666667","25.1843683333333","6501000","淡水區"
"251012","441-VK","2017/12/01 18:19:47","新北市淡水區北新路二段77-5號","121.480521666667","25.1855633333333","6501000","淡水區"
"251001","559-UM","2017/12/01 18:19:59","新北市淡水區自強路110-8號","121.461655","25.13137","6501000","淡水區"
"251006","561-UM","2017/12/01 18:19:45","新北市淡水區新民街30號","121.439691666667","25.1758033333333","6501000","淡水區"
"251011","650-BX","2017/12/01 18:19:53","新北市淡水區坪頂路52巷10號","121.457795","25.1624916666667","6501000","淡水區"
"251002","672-BX","2017/12/01 18:19:44","新北市淡水區中正東路一段79號","121.452826666667","25.1620583333333","6501000","淡水區"
"251003","673-BX","2017/12/01 18:19:36","新北市淡水區北新路169巷14號","121.449691666667","25.1801466666667","6501000","淡水區"
"207003","550-UM","2017/12/01 18:19:47","新北市萬里區野柳里港東路23號","121.687278333333","25.2036966666667","6502800","萬里區"
"207004","225-TW","2017/12/01 18:19:35","新北市萬里區中幅里中福路127號","121.675455","25.16581","6502800","萬里區"
"252003","249-BX","2017/12/01 18:19:36","新北市三芝區錫板里南勢崗5-6號","121.479768333333","25.2623783333333","6502100","三芝區"
"252001","292-VK","2017/12/01 18:19:41","新北市三芝區中興街二段2號","121.4984","25.256645","6502100","三芝區"
"252002","AAC-283","2017/12/01 18:19:48","新北市三芝區中山路二段41號","121.502956666667","25.2550566666667","6502100","三芝區"
"237004","078-UY","2017/12/01 18:19:47","新北市三峽區五寮36-7號","121.372645","24.8686133333333","6500900","三峽區"
"237007","153-BY","2017/12/01 18:19:44","新北市三峽區中正路三段70巷16號","121.355868333333","24.904595","6500900","三峽區"
"237009","210-TH","2017/12/01 18:19:58","新北市三峽區大同路221巷1號","121.367578333333","24.9268783333333","6500900","三峽區"
"237013","252-BX","2017/12/01 18:19:49","新北市三峽區永安街5號","121.377831666667","24.9299583333333","6500900","三峽區"
"237012","275-BY","2017/12/01 18:19:37","新北市三峽區民生街1巷3-5號","121.37704","24.936445","6500900","三峽區"
"237008","302-VK","2017/12/01 18:19:41","新北市三峽區白雞68-193號","121.389931666667","24.9084583333333","6500900","三峽區"
"237014","433-BY","2017/12/01 18:19:56","新北市三峽區復興路36-3號","121.374053333333","24.9365283333333","6500900","三峽區"
"237006","5529-G3","2017/12/01 18:19:45","新北市三峽區溪東路300號","121.409956666667","24.9306716666667","6500900","三峽區"
"237011","572-TV","2017/12/01 18:00:31","新北市三峽區介壽路三段20號","121.395991666667","24.9362183333333","6500900","三峽區"
"237015","649-BX","2017/12/01 18:19:48","新北市三峽區紫微南路5號","121.425363333333","24.920045","6500900","三峽區"
"237010","706-TV","2017/12/01 18:05:51","新北市三峽區民族街27號","121.3696","24.9304383333333","6500900","三峽區"
"237005","AKY-6261","2017/12/01 18:19:51","新北市三峽區忠孝街25-6號","121.371263333333","24.9342566666667","6500900","三峽區"
"236072","105-UM","2017/12/01 18:19:52","新北市土城區明德路一段93巷4號","121.46596","24.9831916666667","6501300","土城區"
"236043","107-UM","2017/12/01 18:19:34","新北市土城區裕生路21巷6弄2-1號","121.448771666667","24.9871183333333","6501300","土城區"
"236079","166-UM","2017/12/01 17:58:56","新北市土城區永寧路32巷10弄3號","121.428833333333","24.9610116666667","6501300","土城區"
"236031","253-BX","2017/12/01 18:19:49","新北市土城區順風路28號","121.440338333333","24.9769683333333","6501300","土城區"
"236027","269-VK","2017/12/01 18:19:53","新北市土城區承天路83-6號","121.440858333333","24.962525","6501300","土城區"
"236015","270-VK","2017/12/01 18:19:57","新北市土城區立清街69號","121.460388333333","24.9873","6501300","土城區"
"236039","271-VK","2017/12/01 18:19:48","新北市土城區青雲路451巷4號","121.459435","24.9746733333333","6501300","土城區"
"236022","401-BY","2017/12/01 18:19:54","新北市土城區明德路二段56號","121.448876666667","24.9828616666667","6501300","土城區"
"236059","912-UM","2017/12/01 18:19:54","新北市土城區信義路2號","121.412928333333","24.9545383333333","6501300","土城區"
"236050","913-UM","2017/12/01 18:19:55","新北市土城區明德路一段280-1號","121.457186666667","24.9774983333333","6501300","土城區"
"236063","915-UM","2017/12/01 18:19:53","新北市土城區金城路三段189-2號","121.469935","24.9888333333333","6501300","土城區"
"236055","AAC-216","2017/12/01 18:19:47","新北市土城區中華路二段92號","121.438183333333","24.9747483333333","6501300","土城區"
"242032","AAC-296","2017/12/01 18:19:48","新北市新莊區新泰路255巷51號","121.44403","25.03949","6500500","新莊區"
"242029","986-R7","2017/12/01 18:19:51","新北市新莊區中平路202-1號","121.44472","25.0487983333333","6500500","新莊區"
"242050","751-BX","2017/12/01 18:19:50","新北市新莊區民本街29巷21號","121.429025","25.01891","6500500","新莊區"
"242025","615-BX","2017/12/01 18:19:41","新北市新莊區五權一路12巷12號","121.45728","25.0645916666667","6500500","新莊區"
"242023","613-BX","2017/12/01 18:19:50","新北市新莊區新泰路255巷83號","121.442315","25.03922","6500500","新莊區"
"242027","612-BX","2017/12/01 18:19:37","新北市新莊區幸福路73號","121.456943333333","25.04931","6500500","新莊區"
"242044","497-BY","2017/12/01 18:19:45","新北市新莊區新北大道七段838號","121.41356","25.023935","6500500","新莊區"
"242048","441-UM","2017/12/01 18:19:56","新北市新莊區後港一路3號","121.424156666667","25.02632","6500500","新莊區"
"242054","440-UM","2017/12/01 18:19:37","新北市新莊區光華街60巷1號","121.428341666667","25.0117266666667","6500500","新莊區"
"242034","415-TV","2017/12/01 18:19:58","新北市新莊區新泰路22號","121.449618333333","25.033715","6500500","新莊區"
"242005","413-TV","2017/12/01 18:19:48","新北市新莊區幸福路914號","121.442428333333","25.0490666666667","6500500","新莊區"
"242041","400-BY","2017/12/01 18:19:44","新北市新莊區天祥街53號","121.414846666667","25.0304333333333","6500500","新莊區"
"242060","362-BY","2017/12/01 18:19:36","新北市新莊區新樹路267號","121.434288333333","25.0208666666667","6500500","新莊區"
"242058","353-BY","2017/12/01 18:19:46","新北市新莊區新北大道七段842號","121.413713333333","25.0237066666667","6500500","新莊區"
"242037","133-UY","2017/12/01 18:19:45","新北市新莊區後港一路31巷3弄2號","121.425071666667","25.0266383333333","6500500","新莊區"
"242021","135-UY","2017/12/01 18:19:52","新北市新莊區中正路261號","121.449795","25.0354966666667","6500500","新莊區"
"242046","172-VK","2017/12/01 18:19:50","新北市新莊區中正路651-8號","121.429998333333","25.03023","6500500","新莊區"
"242015","175-VK","2017/12/01 18:19:40","新北市新莊區中平路152巷36號","121.446241666667","25.0473133333333","6500500","新莊區"
"242007","347-TH","2017/12/01 18:19:46","新北市新莊區自強街37巷14弄15號","121.454106666667","25.0470183333333","6500500","新莊區"
"242019","348-TH","2017/12/01 18:19:39","新北市新莊區中港路132巷12號","121.45586","25.04054","6500500","新莊區"
"242056","349-TH","2017/12/01 18:19:40","新北市新莊區瓊林路13-2號","121.449101666667","25.0312716666667","6500500","新莊區"
"242011","351-TH","2017/12/01 18:19:50","新北市新莊區中榮街49巷1號","121.449435","25.0525333333333","6500500","新莊區"
"238015","755-BX","2017/12/01 18:19:54","新北市樹林區大安路320號","121.417196666667","24.9914866666667","6500700","樹林區"
"238023","601-UM","2017/12/01 18:19:44","新北市樹林區三福街67巷16號","121.40755","25.0156966666667","6500700","樹林區"
"238019","599-UM","2017/12/01 18:19:52","新北市樹林區中華路190-16號","121.411765","24.9805916666667","6500700","樹林區"
"238018","571-TV","2017/12/01 18:19:49","新北市板橋區大觀路三段271號","121.428803333333","24.992505","6500700","樹林區"
"238024","5061-A6","2017/12/01 18:19:40","新北市樹林區保安街一段220號","121.420881666667","24.996245","6500700","樹林區"
"238021","KEA-2217","2017/12/01 18:19:42","新北市樹林區柑園街二段176號","121.381311666667","24.9538666666667","6500700","樹林區"
"238022","KEA-2213","2017/12/01 18:19:50","新北市樹林區太順街110巷1-1號","121.415601666667","24.9776366666667","6500700","樹林區"
"238025","303-VK","2017/12/01 18:19:53","新北市樹林區保安二街8-1號","121.425056666667","24.9942083333333","6500700","樹林區"
"238017","283-BY","2017/12/01 18:19:55","新北市樹林區中正路510號","121.412035","25.013415","6500700","樹林區"
"238020","268-VK","2017/12/01 18:19:40","新北市樹林區三俊街65巷9號","121.413446666667","25.01631","6500700","樹林區"
"238026","172-UY","2017/12/01 18:19:41","新北市樹林區佳園路一段75巷11弄50號","121.395186666667","24.9697566666667","6500700","樹林區"
"238016","169-UY","2017/12/01 18:19:49","新北市樹林區文化街23號","121.419275","24.98764","6500700","樹林區"
"239007","AAC-297","2017/12/01 18:19:56","新北市鶯歌區重慶街67號","121.349416666667","24.9517083333333","6500800","鶯歌區"
"239006","891-R6","2017/12/01 18:19:42","新北市鶯歌區鶯桃路296巷46-1號","121.335733333333","24.9613083333333","6500800","鶯歌區"
"239008","527-UM","2017/12/01 18:19:57","新北市鶯歌區國際一路179號","121.336208333333","24.9765016666667","6500800","鶯歌區"
"239005","526-UM","2017/12/01 18:19:52","桃園市八德區桃鶯路74號","121.327435","24.970635","6500800","鶯歌區"
"239001","417-VK","2017/12/01 18:19:46","新北市鶯歌區國中街197號","121.338221666667","24.9391683333333","6500800","鶯歌區"
"239003","360-BY","2017/12/01 18:19:40","新北市鶯歌區福安街58號","121.335596666667","24.965175","6500800","鶯歌區"
"239002","359-BY","2017/12/01 18:19:46","新北市鶯歌區重慶街29號","121.351503333333","24.9522933333333","6500800","鶯歌區"
"239004","193-VK","2017/12/01 18:19:52","新北市鶯歌區尖山路168巷9號","121.344905","24.948395","6500800","鶯歌區"
"221008","489-VK","2017/12/01 18:19:44","新北市汐止區康寧街747號","121.638336666667","25.0729983333333","6501100","汐止區"
"221036","130-UY","2017/12/01 18:19:58","新北市汐止區長安路59號","121.668668333333","25.0783833333333","6501100","汐止區"
"221010","269-BY","2017/12/01 18:19:46","新北市汐止區祥雲街20號","121.646651666667","25.0900616666667","6501100","汐止區"
"221012","276-VK","2017/12/01 13:29:12","新北市汐止區汐萬路一段256巷3號","121.653463333333","25.074665","6501100","汐止區"
"221012","278-VK","2017/12/01 18:19:58","新北市汐止區保長路23號","121.672186666667","25.0797966666667","6501100","汐止區"
"221023","279-VK","2017/12/01 18:19:43","新北市汐止區中興路244號","121.629525","25.068125","6501100","汐止區"
"221032","280-BY","2017/12/01 18:19:40","新北市汐止區橫科路69號","121.618955","25.0508183333333","6501100","汐止區"
"221027","281-BY","2017/12/01 18:19:57","新北市汐止區和平街2巷5號","121.66354","25.071275","6501100","汐止區"
"221029","298-VK","2017/12/01 18:19:46","新北市汐止區樟樹二路330巷68號","121.642945","25.0698716666667","6501100","汐止區"
"221021","299-VK","2017/12/01 18:19:58","新北市汐止區連興街52號","121.653878333333","25.0630233333333","6501100","汐止區"
"221015","567-BX","2017/12/01 18:19:51","新北市汐止區鄉長路二段23巷12號","121.667508333333","25.083035","6501100","汐止區"
"221035","622-UM","2017/12/01 18:19:53","新北市汐止區大同路二段137號","121.651193333333","25.064405","6501100","汐止區"
"221025","623-UM","2017/12/01 18:19:36","新北市汐止區勤進路12巷15號","121.659403333333","25.06206","6501100","汐止區"
"221038","646-BX","2017/12/01 18:19:41","新北市汐止區仁愛路313號","121.664658333333","25.0675516666667","6501100","汐止區"
"221033","647-BX","2017/12/01 18:19:50","新北市汐止區宜興街59巷33-1號","121.621648333333","25.04276","6501100","汐止區"
"221002","707-TV","2017/12/01 18:19:54","新北市汐止區福德一路201巷19號","121.636001666667","25.0648216666667","6501100","汐止區"
"221018","753-BX","2017/12/01 18:19:35","新北市汐止區茄苳路118號","121.66816","25.070265","6501100","汐止區"
"220010","305-R5","2017/12/01 15:54:36","新北市板橋區民生路二段56-6號","121.4711","25.0188516666667","6500100","板橋區"
