"lineid","car","time","location","longitude","latitude","cityid","cityname"
"234046","148-BY","2017/12/01 19:39:47","新北市永和區永元路107號","121.522613333333","25.002505","6500400","永和區"
"234013","149-BY","2017/12/01 19:39:41","新北市永和區中山路一段184巷7號","121.508588333333","25.0093183333333","6500400","永和區"
"234007","207-UY","2017/12/01 19:39:55","新北市中和區中和路442號","121.511975","25.0036033333333","6500400","永和區"
"234081","298-R6","2017/12/01 19:39:52","新北市永和區林森路52號","121.524561666667","25.0043916666667","6500400","永和區"
"234038","336-UY","2017/12/01 19:39:45","新北市永和區民樂街31巷4號","121.527766666667","25.0014366666667","6500400","永和區"
"234064","337-UY","2017/12/01 19:39:43","新北市永和區秀朗路一段192巷6弄14號","121.519125","25.0022883333333","6500400","永和區"
"234086","338-UY","2017/12/01 19:39:52","新北市永和區永亨路165巷10號","121.52622","25.0041883333333","6500400","永和區"
"234070","552-UM","2017/12/01 19:39:46","新北市永和區永和路二段233號","121.515526666667","25.0142183333333","6500400","永和區"
"234054","553-UM","2017/12/01 19:39:48","新北市永和區竹林路39巷18號","121.518693333333","25.0146216666667","6500400","永和區"
"234017","745-BX","2017/12/01 19:39:40","新北市永和區永和路二段425巷57弄7號","121.513603333333","25.0171683333333","6500400","永和區"
"234030","746-BX","2017/12/01 19:39:40","新北市永和區民生路37巷14號","121.523485","24.9980066666667","6500400","永和區"
"234061","AAD-866","2017/12/01 19:39:45","新北市永和區中正路446號","121.517435","25.0028733333333","6500400","永和區"
"234042","862-TW","2017/12/01 19:39:47","新北市永和區中和路373號","121.50838","24.999745","6500400","永和區"
"234050","863-TW","2017/12/01 19:39:43","新北市永和區保安路134號","121.508666666667","25.015405","6500400","永和區"
"234026","9371-KE","2017/12/01 19:39:45","新北市永和區中和路501巷5號","121.51048","25.00267","6500400","永和區"
"234011","9373-KE","2017/12/01 19:39:48","新北市永和區保安路292號","121.505055","25.0117516666667","6500400","永和區"
"249004","303-UY","2017/12/01 19:39:53","新北市八里區中山路一段268巷5弄40號","121.414343333333","25.1607983333333","6502300","八里區"
"249002","305-UY","2017/12/01 19:39:43","新北市八里區頂寮二街33-1號","121.450326666667","25.12513","6502300","八里區"
"249003","759-BX","2017/12/01 19:39:42","新北市八里區華峰三街31號","121.399361666667","25.1458666666667","6502300","八里區"
"248016","026-BX","2017/12/01 19:39:39","新北市五股區成泰路3段651-1號","121.452906666667","25.1053016666667","6501500","五股區"
"248008","095-VK","2017/12/01 19:39:45","新北市五股區四維路159號","121.467848333333","25.0747766666667","6501500","五股區"
"248018","225-UY","2017/12/01 19:36:44","新北市五股區外寮路1-1號","121.425731666667","25.0767466666667","6501500","五股區"
"248012","247-BX","2017/12/01 19:39:54","新北市五股區成泰路二段91巷23-1號","121.437413333333","25.084455","6501500","五股區"
"248014","261-SL","2017/12/01 19:39:48","新北市五股區工商路164-1號","121.433481666667","25.0880533333333","6501500","五股區"
"248010","272-BY","2017/12/01 19:39:40","新北市五股區自強路90巷72號","121.430731666667","25.0711733333333","6501500","五股區"
"248004","677-BX","2017/12/01 19:39:48","新北市五股區工商路99巷1號","121.43724","25.08539","6501500","五股區"
"248002","678-BX","2017/12/01 19:39:44","新北市五股區成泰路三段577巷49號","121.450738333333","25.103175","6501500","五股區"
"234077","969-R7","2017/12/01 19:39:52","新北市永和區民權路52號","121.520058333333","24.9984233333333","6500400","永和區"
"234074","AAC-211","2017/12/01 19:39:47","新北市永和區竹林路239號","121.520858333333","25.0081633333333","6500400","永和區"
"234067","AAC-212","2017/12/01 19:39:55","新北市永和區中山路一段191巷2弄1號","121.50944","25.0086016666667","6500400","永和區"
"234003","AAC-295","2017/12/01 19:39:57","新北市永和區自由街20號","121.514506666667","25.0065816666667","6500400","永和區"
"244019","403-UM","2017/12/01 19:39:57","新北市林口區文化一路一段237號","121.379831666667","25.0766666666667","6501700","林口區"
"243011","267-VK","2017/12/01 19:39:42","新北市泰山區中山路二段567號","121.429673333333","25.03998","6501600","泰山區"
"243012","AAD-798","2017/12/01 19:39:50","新北市泰山區仁愛路100巷31號","121.433595","25.0549266666667","6501600","泰山區"
"243009","297-R6","2017/12/01 19:39:47","新北市泰山區美寧街60號","121.430895","25.064685","6501600","泰山區"
"243015","380-SR","2017/12/01 19:39:49","新北市泰山區民權街51號","121.429013333333","25.0504616666667","6501600","泰山區"
"243014","421-VK","2017/12/01 19:39:51","新北市泰山區泰林路二段33-7號","121.435163333333","25.0564183333333","6501600","泰山區"
"243010","KEA-2215","2017/12/01 19:39:38","新北市泰山區民生路66號","121.432023333333","25.051615","6501600","泰山區"
"243013","646-TV","2017/12/01 19:39:43","新北市泰山區應化街13號","121.42383","25.0437033333333","6501600","泰山區"
"243016","680-BX","2017/12/01 19:39:42","新北市泰山區中山路三段114號","121.41798","25.0321066666667","6501600","泰山區"
"222003","436-BY","2017/12/01 19:32:41","新北市深坑區深南路51-1號","121.62114","25.0100233333333","6501800","深坑區"
"222002","659-BX","2017/12/01 19:39:46","新北市深坑區北深路一段177號","121.632563333333","25.0109116666667","6501800","深坑區"
"231041","001-UM","2017/12/01 19:39:48","新北市新店區中正路487號","121.533883333333","24.9821516666667","6500600","新店區"
"231059","046-UY","2017/12/01 19:39:41","新北市新店區安和路二段240號","121.51653","24.9782933333333","6500600","新店區"
"231061","047-UY","2017/12/01 19:39:41","新北市新店區安民街195號","121.517051666667","24.971625","6500600","新店區"
"231060","106-UY","2017/12/01 19:39:56","新北市新店區安康路二段161號","121.510263333333","24.959395","6500600","新店區"
"231051","107-UY","2017/12/01 19:39:51","新北市新店區中央四街36號","121.528323333333","24.97448","6500600","新店區"
"231048","108-UY","2017/12/01 19:39:40","新北市新店區五峰路61巷13號","121.549461666667","24.96954","6500600","新店區"
"231053","187-VK","2017/12/01 19:39:48","新北市新店區松林路1號","121.547586666667","24.9124316666667","6500600","新店區"
"231050","KEA-2219","2017/12/01 19:39:36","新北市新店區郵政路99號","121.554366666667","24.9513833333333","6500600","新店區"
"231057","256-BX","2017/12/01 19:39:52","新北市新店區橘園一路11號","121.54791","24.9340366666667","6500600","新店區"
"231063","268-BY","2017/12/01 19:39:44","新北市新店區達觀路40號","121.503201666667","24.9385933333333","6500600","新店區"
"231046","278-BY","2017/12/01 19:39:49","新北市新店區自由街31號","121.535083333333","24.97411","6500600","新店區"
"231054","AAD-862","2017/12/01 19:39:51","新北市新店區文中路34號","121.539","24.9569716666667","6500600","新店區"
"231058","3712-VJ","2017/12/01 19:39:56","新北市新店區北新路一段343號","121.54191","24.9689883333333","6500600","新店區"
"231056","3713-VJ","2017/12/01 19:39:38","新北市新店區薏仁坑路自強巷1號","121.496945","24.958015","6500600","新店區"
"231055","4716-K9","2017/12/01 19:39:51","新北市新店區新生街13巷42-1號","121.538916666667","24.96649","6500600","新店區"
"231064","515-UM","2017/12/01 19:39:36","新北市新店區安和路一段52巷2號","121.51765","24.96621","6500600","新店區"
"231042","616-UM","2017/12/01 19:39:37","新北市新店區中興路一段212號","121.543751666667","24.9656533333333","6500600","新店區"
"231045","617-UM","2017/12/01 19:39:50","新北市新店區北宜路二段423-1號","121.560403333333","24.9543883333333","6500600","新店區"
"231040","619-UM","2017/12/01 19:39:38","新北市新店區北新路一段96巷23號","121.543018333333","24.968835","6500600","新店區"
"231049","719-UM","2017/12/01 19:39:47","新北市新店區建國路128巷3-1號","121.539001666667","24.9793116666667","6500600","新店區"
"231065","719-UY","2017/12/01 19:39:35","新北市新店區安祥路109巷90弄96號","121.47592","24.95762","6500600","新店區"
"231062","720-UM","2017/12/01 19:39:35","新北市新店區永業路11號","121.533541666667","24.9558133333333","6500600","新店區"
"231044","897-TW","2017/12/01 19:39:53","新北市新店區順安街17號","121.54089","24.9854866666667","6500600","新店區"
"231043","899-TW","2017/12/01 19:39:55","新北市新店區中正路121號","121.542093333333","24.971185","6500600","新店區"
"231066","AKT-0513","2017/12/01 19:39:38","新北市新店區安康路二段341巷5號","121.49688","24.955065","6500600","新店區"
"241028","022-UY","2017/12/01 19:39:54","新北市三重區中正南路157號","121.49387","25.0560983333333","6500200","三重區"
"241008","059-VK","2017/12/01 19:39:54","新北市三重區永福街125巷2號","121.478811666667","25.0770033333333","6500200","三重區"
"241009","060-VK","2017/12/01 19:39:40","新北市三重區三和路四段400巷30號","121.480075","25.0791166666667","6500200","三重區"
"241031","061-VK","2017/12/01 19:39:39","新北市三重區重新路四段246-2號","121.485983333333","25.0535","6500200","三重區"
"241015","062-VK","2017/12/01 19:39:44","新北市三重區福德北路46號","121.50198","25.0655866666667","6500200","三重區"
"241017","063-VK","2017/12/01 19:39:58","新北市三重區大同北路182號","121.491496666667","25.0657816666667","6500200","三重區"
"241026","066-VK","2017/12/01 19:39:47","新北市三重區文化南路63號","121.50001","25.0608616666667","6500200","三重區"
"241011","265-UM","2017/12/01 19:39:52","新北市三重區秀江街228號","121.496976666667","25.0714983333333","6500200","三重區"
"241022","267-UM","2017/12/01 19:39:45","新北市三重區新北大道一段7號","121.489436666667","25.0613","6500200","三重區"
"241032","269-UM","2017/12/01 19:39:50","新北市三重區重陽路一段60巷73號","121.48432","25.0582233333333","6500200","三重區"
"241013","270-UM","2017/12/01 19:39:35","新北市三重區仁賢街12號","121.495885","25.0746383333333","6500200","三重區"
"241025","271-UM","2017/12/01 19:39:38","新北市三重區忠孝路三段99巷11號","121.480091666667","25.0645316666667","6500200","三重區"
"241007","398-BY","2017/12/01 19:39:41","新北市三重區仁美街63號","121.486585","25.0783566666667","6500200","三重區"
"241030","KEA-2210","2017/12/01 19:39:47","新北市三重區新興路30-1號","121.491843333333","25.0531133333333","6500200","三重區"
"241019","478-VK","2017/12/01 19:39:51","新北市三重區六張街194巷2弄1號","121.488578333333","25.0682666666667","6500200","三重區"
"241014","543-UM","2017/12/01 19:39:42","新北市三重區河邊北街70-3號","121.504185","25.06839","6500200","三重區"
"241023","545-UM","2017/12/01 19:39:39","新北市三重區忠孝路三段99巷16號","121.479588333333","25.0642266666667","6500200","三重區"
"241001","547-UM","2017/12/01 19:39:47","新北市三重區仁愛街315巷17號","121.49347","25.0797366666667","6500200","三重區"
"241006","AAD-863","2017/12/01 19:39:44","新北市三重區三和路四段160巷67號","121.486126666667","25.0752383333333","6500200","三重區"
"241035","743-BX","2017/12/01 19:39:39","新北市三重區正義北路61-3號","121.497658333333","25.064545","6500200","三重區"
"241012","941-UM","2017/12/01 19:39:55","新北市三重區仁興街33巷42號","121.500295","25.0759266666667","6500200","三重區"
"241029","942-UM","2017/12/01 19:39:47","新北市三重區光明路122號","121.492918333333","25.055915","6500200","三重區"
"235066","003-UY","2017/12/01 19:39:42","新北市中和區中和路196巷6號","121.505018333333","24.999195","6500300","中和區"
"235063","006-UY","2017/12/01 19:39:44","新北市中和區連勝街95號","121.49519","24.9961033333333","6500300","中和區"
"235056","096-UM","2017/12/01 19:39:39","新北市中和區員山路581巷2弄1號","121.477901666667","25.0092566666667","6500300","中和區"
"235039","097-UM","2017/12/01 19:39:41","新北市中和區秀峰街103巷8弄8號","121.519876666667","24.989605","6500300","中和區"
"235065","098-UM","2017/12/01 19:39:57","新北市中和區永和路1-4號","121.499688333333","25.0030683333333","6500300","中和區"
"235040","150-BY","2017/12/01 19:39:42","新北市中和區保健路44巷12號","121.50907","24.9969116666667","6500300","中和區"
"235058","151-BY","2017/12/01 19:39:48","新北市中和區連城路374巷13號","121.481485","24.9959416666667","6500300","中和區"
"235055","183-VK","2017/12/01 19:39:52","新北市中和區中山路三段179巷11號","121.473188333333","25.00588","6500300","中和區"
"235038","185-VK","2017/12/01 19:39:42","新北市中和區自立路99巷1號","121.521946666667","24.9948316666667","6500300","中和區"
"235049","186-VK","2017/12/01 19:39:49","新北市中和區明禮街24號","121.504398333333","24.9961683333333","6500300","中和區"
"235067","255-BX","2017/12/01 19:39:34","新北市中和區新生街188號","121.483671666667","24.9996166666667","6500300","中和區"
"235044","293-VK","2017/12/01 19:39:45","新北市中和區南山路286號","121.507835","24.9875133333333","6500300","中和區"
"235072","301-VK","2017/12/01 19:39:53","新北市中和區連城路263巷4弄12號","121.491818333333","24.9952716666667","6500300","中和區"
"235043","352-BY","2017/12/01 19:39:42","新北市中和區興南路一段25號","121.511215","24.9907833333333","6500300","中和區"
"235068","377-QA","2017/12/01 19:39:55","新北市中和區中和路59號","121.5007","25.0014","6500300","中和區"
"235061","378-QA","2017/12/01 19:39:40","新北市中和區員山路152-1號","121.481328333333","24.99839","6500300","中和區"
"235071","269-TV","2017/12/01 19:39:45","新北市中和區中正路839巷29號","121.483586666667","25.00232","6500300","中和區"
"235050","4979-A6","2017/12/01 19:39:53","新北市中和區中正路589巷15號","121.48599","24.9935866666667","6500300","中和區"
"235069","4980-A6","2017/12/01 19:39:56","新北市中和區中正路673號","121.485225","24.9971416666667","6500300","中和區"
"235042","551-UM","2017/12/01 19:39:51","新北市中和區保健路19巷4弄7號","121.509175","24.9983866666667","6500300","中和區"
"235070","558-UM","2017/12/01 19:39:48","新北市中和區圓通路57號","121.500641666667","24.9974083333333","6500300","中和區"
"235045","565-BX","2017/12/01 19:39:41","新北市中和區景新街469號","121.513483333333","24.9880216666667","6500300","中和區"
"235054","640-BX","2017/12/01 19:39:39","新北市中和區國光街102巷13號","121.470796666667","25.0007966666667","6500300","中和區"
"235060","647-TV","2017/12/01 19:39:54","新北市中和區中山路二段523巷13號","121.48179","25.004105","6500300","中和區"
"235047","732-UM","2017/12/01 19:39:44","新北市中和區景平路357號","121.504668333333","24.9933316666667","6500300","中和區"
"235046","733-UM","2017/12/01 19:39:51","新北市中和區忠孝街122-2號","121.512101666667","24.986045","6500300","中和區"
"235057","801-TS","2017/12/01 19:39:48","新北市中和區員山路362號","121.481031666667","25.0037916666667","6500300","中和區"
"235041","802-TS","2017/12/01 19:39:39","新北市中和區永貞路249巷12號","121.512496666667","25.003695","6500300","中和區"
"235052","805-TS","2017/12/01 19:39:50","新北市中和區華新街192巷8號","121.506651666667","24.9826433333333","6500300","中和區"
"235048","896-TW","2017/12/01 19:39:38","新北市中和區忠孝街2-8號","121.509201666667","24.9829783333333","6500300","中和區"
"235053","900-TW","2017/12/01 19:39:53","新北市中和區國光街205巷2號","121.466776666667","25.0019566666667","6500300","中和區"
"235064","911-UM","2017/12/01 19:39:58","新北市中和區南華路22號","121.502961666667","24.9958366666667","6500300","中和區"
"235037","157-BY","2017/12/01 19:39:54","新北市中和區板南路170號","121.501361666667","24.992765","6500300","中和區"
"235037","AAC-213","2017/12/01 19:39:58","新北市中和區秀朗路三段10巷29弄11號","121.525126666667","24.9959583333333","6500300","中和區"
"235059","AAC-215","2017/12/01 19:39:48","新北市中和區圓通路270-1號","121.49252","24.990945","6500300","中和區"
"220068","013-TV","2017/12/01 19:00:13","新北市板橋區縣民大道三段260-1號","121.478001666667","25.023105","6500100","板橋區"
"220065","072-UY","2017/12/01 19:39:46","新北市板橋區國泰街35號","121.468608333333","25.0066833333333","6500100","板橋區"
"220086","073-UY","2017/12/01 19:39:56","新北市板橋區中正路79號","121.456395","25.01419","6500100","板橋區"
"220106","075-UY","2017/12/01 19:39:51","新北市板橋區文化路二段464號","121.474866666667","25.0326183333333","6500100","板橋區"
"220069","AAD-861","2017/12/01 19:39:44","新北市板橋區縣民大道一段64巷7號","121.455566666667","25.0036866666667","6500100","板橋區"
"220102","120-SR","2017/12/01 19:39:53","新北市板橋區松柏街36巷19號","121.475416666667","25.0296333333333","6500100","板橋區"
"247004","337-TH","2017/12/01 19:39:50","新北市蘆洲區三民路593-1號","121.460953333333","25.0935233333333","6501400","蘆洲區"
"247004","336-TH","2017/12/01 19:39:41","新北市蘆洲區長安街102巷67號","121.462636666667","25.0823666666667","6501400","蘆洲區"
"226004","205-ST","2017/12/01 19:39:38","新北市平溪區十分里十分街65號","121.775958333333","25.041805","6502400","平溪區"
"223001","205-TH","2017/12/01 10:24:56","新北市石碇區小粗坑(潭邊里)9-2號","121.678445","24.9857066666667","6501900","石碇區"
"228001","670-TC","2017/12/01 19:39:40","新北市貢寮區真理里延平街83號","121.92459","25.05614","6502600","貢寮區"
"228003","828-UM","2017/12/01 19:39:35","新北市貢寮區真理里美艷山街15-3號","121.923701666667","25.0680233333333","6502600","貢寮區"
"224002","639-TC","2017/12/01 19:39:40","新北市瑞芳區民享新村2號","121.817398333333","25.1055166666667","6501200","瑞芳區"
"227003","642-TC","2017/12/01 19:39:46","新北市雙溪區雙溪里太平路50號","121.864598333333","25.0353283333333","6502500","雙溪區"
"227011","400-TW","2017/12/01 19:39:51","新北市雙溪區新基里新基北街19巷14號","121.867126666667","25.0380966666667","6502500","雙溪區"
"222001","KEA-2212","2017/12/01 19:39:39","新北市深坑區北深路二段103號","121.617543333333","25.0034","6501800","深坑區"
"208002","742-BX","2017/12/01 19:39:52","新北市金山區三民街17號","121.634671666667","25.22295","6502700","金山區"
"208003","665-BX","2017/12/01 19:39:39","新北市金山區仁愛路13號","121.637806666667","25.2194816666667","6502700","金山區"
"208001","761-BX","2017/12/01 19:39:40","新北市金山區重和里六股林口21-7號","121.6041","25.220005","6502700","金山區"
"251004","009-UM","2017/12/01 19:39:42","新北市淡水區民權路59號","121.459673333333","25.13882","6501000","淡水區"
"251005","010-UM","2017/12/01 19:39:50","新北市淡水區原德路94號","121.443065","25.17325","6501000","淡水區"
"251013","180-VK","2017/12/01 19:39:38","新北市淡水區頂田寮路139號","121.460716666667","25.2174716666667","6501000","淡水區"
"251008","181-VK","2017/12/01 19:39:40","新北市淡水區中正路一段8巷2弄2號","121.428131666667","25.17716","6501000","淡水區"
"251015","182-VK","2017/12/01 19:39:49","新北市淡水區泉洲厝25-5號","121.484253333333","25.18984","6501000","淡水區"
"251010","413-VK","2017/12/01 19:39:52","新北市淡水區崁頂92號","121.429271666667","25.2024533333333","6501000","淡水區"
"251012","441-VK","2017/12/01 19:39:46","新北市淡水區中山北路三段156號","121.445591666667","25.1954633333333","6501000","淡水區"
"251001","559-UM","2017/12/01 19:39:58","新北市淡水區民權路49號","121.459791666667","25.1391933333333","6501000","淡水區"
"251006","561-UM","2017/12/01 19:39:45","新北市淡水區中山北路一段207巷33號","121.443231666667","25.17921","6501000","淡水區"
"251009","575-R6","2017/12/01 19:39:54","新北市淡水區中山北路一段217號","121.444425","25.1792316666667","6501000","淡水區"
"251007","577-R6","2017/12/01 19:39:48","新北市淡水區中正東路一段111巷28號","121.45553","25.1609016666667","6501000","淡水區"
"251011","650-BX","2017/12/01 19:39:42","新北市淡水區八勢一街7-16號","121.460638333333","25.15716","6501000","淡水區"
"207003","550-UM","2017/12/01 19:39:46","新北市萬里區大鵬里下社49號","121.648608333333","25.2160233333333","6502800","萬里區"
"207004","225-TW","2017/12/01 19:39:35","新北市萬里區萬里里瑪鋉路11號","121.687051666667","25.1754633333333","6502800","萬里區"
"252001","292-VK","2017/12/01 19:39:41","新北市三芝區公正街9號","121.49978","25.2575166666667","6502100","三芝區"
"252002","AAC-283","2017/12/01 19:39:53","新北市三芝區中正路一段18巷34-1號","121.503821666667","25.25927","6502100","三芝區"
"237004","078-UY","2017/12/01 19:39:47","新北市三峽區金敏16號","121.390346666667","24.8746333333333","6500900","三峽區"
"237007","153-BY","2017/12/01 19:39:44","新北市三峽區二鬮路136巷2弄30號","121.359608333333","24.90872","6500900","三峽區"
"237009","210-TH","2017/12/01 19:39:58","新北市三峽區中園街77號","121.367971666667","24.9252533333333","6500900","三峽區"
"237013","252-BX","2017/12/01 19:39:49","新北市三峽區介壽路二段36號","121.391058333333","24.935265","6500900","三峽區"
"237012","275-BY","2017/12/01 19:39:37","新北市三峽區民生街3號","121.37455","24.9353766666667","6500900","三峽區"
"237008","302-VK","2017/12/01 19:39:41","新北市三峽區大同路217號","121.370281666667","24.9269666666667","6500900","三峽區"
"237014","433-BY","2017/12/01 19:39:36","新北市三峽區添福59-1號","121.374883333333","24.9035033333333","6500900","三峽區"
"237006","5529-G3","2017/12/01 19:39:45","新北市三峽區中正路一段336巷15弄2號","121.369945","24.9249433333333","6500900","三峽區"
"237015","649-BX","2017/12/01 19:39:48","新北市三峽區溪東路493號","121.414445","24.9277583333333","6500900","三峽區"
"237005","AKY-6261","2017/12/01 19:39:51","新北市三峽區中山路169巷9號","121.364295","24.9359866666667","6500900","三峽區"
"236072","105-UM","2017/12/01 19:39:52","新北市土城區學士路17號","121.45358","24.9827966666667","6501300","土城區"
"236043","107-UM","2017/12/01 19:39:53","新北市土城區學士路17號","121.453551666667","24.98279","6501300","土城區"
"236079","166-UM","2017/12/01 19:30:25","新北市土城區中州路24巷5號","121.414781666667","24.957625","6501300","土城區"
"236031","253-BX","2017/12/01 19:39:38","新北市土城區福祥街101巷11號","121.441481666667","24.9815166666667","6501300","土城區"
"236027","269-VK","2017/12/01 19:39:53","新北市土城區中央路二段61巷22號","121.443153333333","24.9787533333333","6501300","土城區"
"236039","271-VK","2017/12/01 19:39:48","新北市土城區清水路98巷3弄38號","121.458676666667","24.980845","6501300","土城區"
"236022","401-BY","2017/12/01 19:39:34","新北市土城區峰廷街3號","121.469113333333","24.987335","6501300","土城區"
"236050","913-UM","2017/12/01 19:39:55","新北市土城區明德路一段78號","121.464971666667","24.9800316666667","6501300","土城區"
"236063","915-UM","2017/12/01 19:39:53","新北市土城區延平街64號","121.467858333333","24.9927733333333","6501300","土城區"
"236055","AAC-216","2017/12/01 19:39:57","新北市土城區學府路一段93號","121.4564","24.987995","6501300","土城區"
"242032","AAC-296","2017/12/01 19:39:58","新北市新莊區新泰路213巷68號","121.444248333333","25.0385016666667","6500500","新莊區"
"242044","497-BY","2017/12/01 19:39:45","新北市新莊區中山路三段619號","121.412865","25.0253166666667","6500500","新莊區"
"242005","413-TV","2017/12/01 19:39:48","新北市新莊區化成路25-9號","121.464065","25.0434916666667","6500500","新莊區"
"242013","346-TH","2017/12/01 19:39:50","新北市新莊區中誠街121巷5號","121.449521666667","25.0473116666667","6500500","新莊區"
"242019","348-TH","2017/12/01 19:39:46","新北市新莊區新泰路277巷69號","121.443025","25.0400283333333","6500500","新莊區"
"242011","351-TH","2017/12/01 19:39:43","新北市新莊區中平路441號","121.444181666667","25.0556416666667","6500500","新莊區"
"238015","755-BX","2017/12/01 19:39:52","新北市樹林區育英街70號","121.420901666667","24.98923","6500700","樹林區"
"238023","601-UM","2017/12/01 19:39:53","新北市樹林區三福街127巷1號","121.404898333333","25.0158883333333","6500700","樹林區"
"238018","571-TV","2017/12/01 19:39:49","新北市樹林區八德街1146號","121.390828333333","24.9684916666667","6500700","樹林區"
"238024","5061-A6","2017/12/01 19:39:40","新北市樹林區育德街19巷30號","121.392611666667","24.969945","6500700","樹林區"
"238021","KEA-2217","2017/12/01 19:39:39","新北市樹林區學林路1號","121.37705","24.9485916666667","6500700","樹林區"
"238022","KEA-2213","2017/12/01 19:39:49","新北市樹林區國凱街32-2號","121.419726666667","24.9786183333333","6500700","樹林區"
"238025","303-VK","2017/12/01 19:39:53","新北市樹林區中山路二段110-6號","121.413861666667","24.9831733333333","6500700","樹林區"
"238017","283-BY","2017/12/01 19:39:55","新北市樹林區保安街二段45巷19號","121.414806666667","24.9999333333333","6500700","樹林區"
"238014","282-BY","2017/12/01 19:39:50","新北市樹林區千歲街30巷8號","121.426018333333","24.996305","6500700","樹林區"
"238020","268-VK","2017/12/01 19:39:40","新北市樹林區中正路243號","121.43012","24.998495","6500700","樹林區"
"239006","891-R6","2017/12/01 19:39:39","新北市鶯歌區中正一路阿南巷2號","121.377818333333","24.9628066666667","6500800","鶯歌區"
"239002","359-BY","2017/12/01 19:39:46","新北市鶯歌區中山路300號","121.342916666667","24.9572766666667","6500800","鶯歌區"
"221008","489-VK","2017/12/01 19:39:53","新北市汐止區康寧街61巷22弄7號","121.619705","25.0670216666667","6501100","汐止區"
"221036","130-UY","2017/12/01 19:39:57","新北市汐止區汐萬路一段256巷1號","121.651753333333","25.0749","6501100","汐止區"
"221010","269-BY","2017/12/01 19:39:46","新北市汐止區汐萬路二段23巷2號","121.649546666667","25.0811066666667","6501100","汐止區"
"221012","276-VK","2017/12/01 13:29:12","新北市汐止區汐萬路一段256巷3號","121.653463333333","25.074665","6501100","汐止區"
"221012","278-VK","2017/12/01 19:39:38","新北市汐止區汐平路一段5號","121.680786666667","25.0711783333333","6501100","汐止區"
"221023","279-VK","2017/12/01 19:39:47","新北市汐止區中興路248-1號","121.629486666667","25.06856","6501100","汐止區"
"221032","280-BY","2017/12/01 19:39:40","新北市汐止區橫科路119號","121.62023","25.0502983333333","6501100","汐止區"
"221027","281-BY","2017/12/01 19:39:54","新北市汐止區忠孝東路9號","121.658261666667","25.065885","6501100","汐止區"
"221029","298-VK","2017/12/01 19:39:46","新北市汐止區康寧街901號","121.651591666667","25.0749383333333","6501100","汐止區"
"221021","299-VK","2017/12/01 19:39:38","新北市汐止區南興路6巷1號","121.651776666667","25.0634666666667","6501100","汐止區"
"221015","567-BX","2017/12/01 19:39:51","新北市汐止區康寧街901號","121.650836666667","25.0752633333333","6501100","汐止區"
"221025","623-UM","2017/12/01 19:39:36","新北市汐止區福安街20巷19號","121.662241666667","25.0646266666667","6501100","汐止區"
"221038","646-BX","2017/12/01 19:39:41","新北市汐止區忠孝東路218號","121.662171666667","25.066655","6501100","汐止區"
"221033","647-BX","2017/12/01 19:39:50","新北市汐止區南勢街1巷1號","121.627021666667","25.0373966666667","6501100","汐止區"
"221002","707-TV","2017/12/01 19:39:54","新北市汐止區大同路一段219巷27號","121.63329","25.058395","6501100","汐止區"
"221018","753-BX","2017/12/01 19:39:55","新北市汐止區康寧街901號","121.651338333333","25.0750116666667","6501100","汐止區"
"220079","145-BY","2017/12/01 19:39:43","新北市板橋區建國街107號","121.460193333333","25.0175366666667","6500100","板橋區"
"220082","610-BX","2017/12/01 19:39:49","新北市板橋區大觀路三段220巷22號","121.429426666667","24.9929466666667","6500100","板橋區"
"220101","245-BX","2017/12/01 19:39:54","新北市板橋區縣民大道三段37號","121.473945","25.0209616666667","6500100","板橋區"
"220091","267-BY","2017/12/01 19:39:52","新北市板橋區懷德街139巷8號","121.479463333333","25.0304883333333","6500100","板橋區"
"220056","276-BY","2017/12/01 19:39:50","新北市板橋區四川路二段47巷3弄2號","121.454295","24.99456","6500100","板橋區"
"220072","277-BY","2017/12/01 19:39:52","新北市板橋區金門街215巷41號","121.433351666667","24.9896233333333","6500100","板橋區"
"220071","283-VK","2017/12/01 19:39:44","新北市板橋區四川路一段479號","121.4571","24.99737","6500100","板橋區"
"220094","285-UM","2017/12/01 19:39:45","新北市板橋區銘傳街96-3號","121.469645","25.0315866666667","6500100","板橋區"
"220053","285-VK","2017/12/01 19:39:51","新北市板橋區民享街93號","121.47709","25.0159833333333","6500100","板橋區"
"220083","286-VK","2017/12/01 19:39:36","新北市板橋區龍興街65巷19號","121.442975","25.0016233333333","6500100","板橋區"
"220081","287-VK","2017/12/01 19:39:52","新北市板橋區大觀路一段29巷179弄12號","121.449003333333","25.0047866666667","6500100","板橋區"
"220090","288-VK","2017/12/01 19:39:50","新北市板橋區長江路一段48巷19弄2號","121.459538333333","25.0278683333333","6500100","板橋區"
"220061","293-UM","2017/12/01 19:39:40","新北市板橋區中山路一段285號","121.470348333333","25.014095","6500100","板橋區"
"220084","296-UM","2017/12/01 19:39:42","新北市板橋區滿平二街2巷1弄38號","121.42482","24.98753","6500100","板橋區"
"220075","297-UM","2017/12/01 19:39:44","新北市板橋區大勇街65號","121.453366666667","25.0167333333333","6500100","板橋區"
"220096","299-UM","2017/12/01 19:39:46","新北市板橋區民生路二段234巷2弄1號","121.469416666667","25.02255","6500100","板橋區"
"220062","303-R5","2017/12/01 19:39:46","新北市板橋區三民路二段81巷4號","121.479725","25.016625","6500100","板橋區"
"220010","305-R5","2017/12/01 15:54:36","新北市板橋區民生路二段56-6號","121.4711","25.0188516666667","6500100","板橋區"
"220092","307-R5","2017/12/01 19:39:46","新北市板橋區文化路一段389號","121.467083333333","25.0219066666667","6500100","板橋區"
"220098","317-R6","2017/12/01 19:39:51","新北市板橋區四維路279巷60號","121.46058","25.02755","6500100","板橋區"
"220080","461-BY","2017/12/01 19:39:44","新北市板橋區大觀路二段37巷52號","121.449071666667","25.0025516666667","6500100","板橋區"
"220064","486-VK","2017/12/01 19:39:39","新北市板橋區中山路一段137號","121.462521666667","25.010885","6500100","板橋區"
"220089","487-VK","2017/12/01 19:39:54","新北市板橋區英士路153號","121.45968","25.02396","6500100","板橋區"
"220088","491-VK","2017/12/01 19:39:52","新北市板橋區民治街12號","121.47754","25.034365","6500100","板橋區"
"220035","560-BX","2017/12/01 19:39:46","新北市板橋區金華街102號","121.458511666667","25.0207683333333","6500100","板橋區"
"220103","561-BX","2017/12/01 19:39:47","新北市板橋區文化路一段286巷13號","121.468076666667","25.0214333333333","6500100","板橋區"
"220063","609-BX","2017/12/01 19:39:43","新北市板橋區中山路二段422-2號","121.483243333333","25.0211183333333","6500100","板橋區"
"220057","686-BX","2017/12/01 19:39:38","新北市中和區和平路250號","121.464638333333","24.9970966666667","6500100","板橋區"
"220077","687-BX","2017/12/01 19:39:46","新北市板橋區僑中一街134號","121.445501666667","25.0117166666667","6500100","板橋區"
"220093","689-BX","2017/12/01 19:39:56","新北市板橋區長江路一段44號","121.458631666667","25.02907","6500100","板橋區"
"220054","741-BX","2017/12/01 19:39:54","新北市中和區德光路109號","121.468211666667","25.00326","6500100","板橋區"
"220055","827-TW","2017/12/01 19:39:39","新北市板橋區國慶路149巷2弄1-3號","121.461313333333","24.9966316666667","6500100","板橋區"
"220067","829-TW","2017/12/01 19:39:49","新北市板橋區漢生東路193巷53號","121.471703333333","25.01166","6500100","板橋區"
"220074","895-R6","2017/12/01 19:39:49","新北市板橋區府中路123號","121.45616","25.0095916666667","6500100","板橋區"
"220073","985-R7","2017/12/01 19:39:54","新北市板橋區大仁街11號","121.455818333333","25.0169333333333","6500100","板橋區"
"220097","AAC-210","2017/12/01 19:39:49","新北市板橋區幸福路32巷8號","121.461528333333","25.020655","6500100","板橋區"
"220070","AAC-253","2017/12/01 19:39:42","新北市板橋區民族路282號","121.470158333333","25.0068516666667","6500100","板橋區"
