"lineid","car","time","location","longitude","latitude","cityid","cityname"
"234046","148-BY","2017/12/01 19:49:47","新北市永和區永利路133號","121.52396","25.00322","6500400","永和區"
"234013","149-BY","2017/12/01 19:49:41","新北市永和區仁愛路240號","121.508311666667","25.0116233333333","6500400","永和區"
"234007","207-UY","2017/12/01 19:49:34","新北市中和區中和路232號","121.506781666667","24.9995066666667","6500400","永和區"
"234081","298-R6","2017/12/01 19:49:51","新北市永和區永利路81巷21號","121.52228","25.003825","6500400","永和區"
"234038","336-UY","2017/12/01 19:49:45","新北市永和區秀朗路二段289號","121.526203333333","24.9981233333333","6500400","永和區"
"234064","337-UY","2017/12/01 19:49:43","新北市永和區中正路368巷20弄2號","121.518373333333","25.0006733333333","6500400","永和區"
"234086","338-UY","2017/12/01 19:49:52","新北市永和區永利路45號","121.519088333333","25.005405","6500400","永和區"
"234070","552-UM","2017/12/01 19:49:46","新北市永和區竹林路88號","121.519441666667","25.01259","6500400","永和區"
"234054","553-UM","2017/12/01 19:49:48","新北市永和區竹林路75巷25弄8號","121.520181666667","25.0143733333333","6500400","永和區"
"234017","745-BX","2017/12/01 19:49:40","新北市永和區永和路二段310號","121.516296666667","25.01606","6500400","永和區"
"234030","746-BX","2017/12/01 19:49:46","新北市永和區民生路67巷56號","121.52551","24.9975416666667","6500400","永和區"
"234061","AAD-866","2017/12/01 19:49:45","新北市永和區中正路98號","121.514176666667","24.9955933333333","6500400","永和區"
"234042","862-TW","2017/12/01 19:49:47","新北市永和區中和路389巷10號","121.508086666667","25.0009733333333","6500400","永和區"
"234050","863-TW","2017/12/01 19:49:43","新北市永和區保安路144號","121.508526666667","25.0148583333333","6500400","永和區"
"234026","9371-KE","2017/12/01 19:49:47","新北市永和區雙和街27號","121.509093333333","25.0021716666667","6500400","永和區"
"234011","9373-KE","2017/12/01 19:49:48","新北市永和區仁愛路352巷94號","121.501118333333","25.007985","6500400","永和區"
"249001","173-UM","2017/12/01 19:49:44","新北市八里區中華路二段252號","121.405386666667","25.1496833333333","6502300","八里區"
"249004","303-UY","2017/12/01 19:49:53","新北市八里區中華路一段333-1號","121.413068333333","25.1540816666667","6502300","八里區"
"249002","305-UY","2017/12/01 19:49:43","新北市八里區頂寮五街20號","121.45136","25.1262616666667","6502300","八里區"
"249003","759-BX","2017/12/01 19:49:42","新北市八里區華峰三街37號","121.398573333333","25.145395","6502300","八里區"
"248016","026-BX","2017/12/01 19:49:39","新北市五股區成泰路三段601巷17-1號","121.451745","25.1033","6501500","五股區"
"248008","095-VK","2017/12/01 19:49:45","新北市五股區四維路155巷36弄16號","121.466928333333","25.0752","6501500","五股區"
"248018","225-UY","2017/12/01 19:49:23","新北市五股區外寮路1-5號","121.42626","25.0769933333333","6501500","五股區"
"248012","247-BX","2017/12/01 19:49:54","新北市五股區蓬萊路24號","121.433873333333","25.0799233333333","6501500","五股區"
"248014","261-SL","2017/12/01 19:49:48","新北市五股區五福路42巷22號","121.434823333333","25.0899233333333","6501500","五股區"
"248010","272-BY","2017/12/01 19:49:40","新北市五股區登林路貿商巷1弄1號","121.430506666667","25.069685","6501500","五股區"
"248004","677-BX","2017/12/01 19:49:48","新北市五股區成泰路一段219號","121.435275","25.0770866666667","6501500","五股區"
"248002","678-BX","2017/12/01 19:49:44","新北市五股區成泰路四段15-2號","121.453066666667","25.10673","6501500","五股區"
"234077","969-R7","2017/12/01 19:49:52","新北市永和區中正路151巷1-1號","121.516421666667","24.998255","6500400","永和區"
"234074","AAC-211","2017/12/01 19:49:51","新北市永和區竹林路179巷20-1號","121.521473333333","25.0099266666667","6500400","永和區"
"234067","AAC-212","2017/12/01 19:49:41","新北市永和區永貞路418號","121.508836666667","25.007985","6500400","永和區"
"234003","AAC-295","2017/12/01 19:49:37","新北市永和區福和路316號","121.516153333333","25.0073416666667","6500400","永和區"
"244019","403-UM","2017/12/01 19:49:37","新北市林口區工四路45號","121.40055","25.083405","6501700","林口區"
"243011","267-VK","2017/12/01 19:49:42","新北市泰山區明志路三段204巷10弄6號","121.423348333333","25.0385016666667","6501600","泰山區"
"243012","AAD-798","2017/12/01 19:49:50","新北市泰山區全興路20號","121.432285","25.0589133333333","6501600","泰山區"
"243009","297-R6","2017/12/01 19:49:47","新北市泰山區美寧街60號","121.43088","25.064685","6501600","泰山區"
"243015","380-SR","2017/12/01 19:49:49","新北市泰山區明志路二段246巷18弄17號","121.426775","25.0483383333333","6501600","泰山區"
"243014","421-VK","2017/12/01 19:49:51","新北市泰山區泰林路二段33-7號","121.435198333333","25.0564466666667","6501600","泰山區"
"243010","KEA-2215","2017/12/01 19:49:38","新北市泰山區民生路33號","121.430606666667","25.0521533333333","6501600","泰山區"
"243013","646-TV","2017/12/01 19:48:59","新北市泰山區應化街13號","121.423833333333","25.04369","6501600","泰山區"
"243016","680-BX","2017/12/01 19:49:42","新北市泰山區新北大道七段93號","121.417986666667","25.03204","6501600","泰山區"
"222003","436-BY","2017/12/01 19:32:41","新北市深坑區深南路51-1號","121.62114","25.0100233333333","6501800","深坑區"
"222002","659-BX","2017/12/01 19:49:46","新北市深坑區北深路二段2巷1號","121.621355","25.0046566666667","6501800","深坑區"
"222001","696-SL","2017/12/01 19:49:59","新北市深坑區北深路二段179-1號","121.612395","25.0012016666667","6501800","深坑區"
"231041","001-UM","2017/12/01 19:49:48","新北市新店區中央路218號","121.529815","24.9730283333333","6500600","新店區"
"231059","046-UY","2017/12/01 19:49:41","新北市新店區安和路一段53號","121.517481666667","24.966","6500600","新店區"
"231061","047-UY","2017/12/01 19:49:41","新北市新店區安民街335號","121.51729","24.97486","6500600","新店區"
"231060","106-UY","2017/12/01 19:49:56","新北市新店區安康路二段225號","121.50857","24.9587283333333","6500600","新店區"
"231051","107-UY","2017/12/01 19:49:51","新北市新店區中央三街54號","121.527326666667","24.9746016666667","6500600","新店區"
"231048","108-UY","2017/12/01 19:49:40","新北市新店區寶興路47號","121.549143333333","24.9734483333333","6500600","新店區"
"231053","187-VK","2017/12/01 19:49:48","新北市新店區新烏路二段422號","121.55181","24.9090466666667","6500600","新店區"
"231050","KEA-2219","2017/12/01 19:49:36","新北市新店區北宜路二段579巷2號","121.565385","24.9541316666667","6500600","新店區"
"231057","256-BX","2017/12/01 19:49:57","新北市新店區梅崗三路1號","121.558143333333","24.931155","6500600","新店區"
"231063","268-BY","2017/12/01 19:49:43","新北市新店區黎明路3號","121.503398333333","24.95236","6500600","新店區"
"231046","278-BY","2017/12/01 19:49:49","新北市新店區三民路159巷19弄46號","121.532181666667","24.9732216666667","6500600","新店區"
"231054","AAD-862","2017/12/01 19:49:52","新北市新店區光明街136號","121.539441666667","24.9612716666667","6500600","新店區"
"231058","3712-VJ","2017/12/01 19:49:56","新北市新店區安興路121號","121.515555","24.979155","6500600","新店區"
"231056","3713-VJ","2017/12/01 19:49:38","新北市新店區中央一街2號","121.528975","24.972085","6500600","新店區"
"231055","4716-K9","2017/12/01 19:49:51","新北市新店區新生街1號","121.54043","24.9657","6500600","新店區"
"231067","4772-VM","2017/12/01 19:49:42","新北市新店區精忠路10-1號","121.532703333333","24.9590383333333","6500600","新店區"
"231064","515-UM","2017/12/01 19:49:56","新北市新店區安和路二段113巷3弄3號","121.518038333333","24.9701133333333","6500600","新店區"
"231042","616-UM","2017/12/01 19:49:57","新北市新店區中興路一段269號","121.545013333333","24.9680666666667","6500600","新店區"
"231045","617-UM","2017/12/01 19:49:50","新北市新店區北宜路二段382號","121.564485","24.95293","6500600","新店區"
"231040","619-UM","2017/12/01 19:49:38","新北市新店區中正路75巷71號","121.543113333333","24.96886","6500600","新店區"
"231068","718-UY","2017/12/01 19:49:43","新北市新店區安華路28-1號","121.5193","24.961215","6500600","新店區"
"231049","719-UM","2017/12/01 19:49:47","新北市新店區二十張路46巷37弄21-2號","121.535743333333","24.9816483333333","6500600","新店區"
"231065","719-UY","2017/12/01 19:49:35","新北市新店區安祥路109巷151弄12號","121.478125","24.9588733333333","6500600","新店區"
"231062","720-UM","2017/12/01 19:49:55","新北市新店區華潭街24號","121.52917","24.9529116666667","6500600","新店區"
"231044","897-TW","2017/12/01 19:49:53","新北市新店區復興路97號","121.534718333333","24.987815","6500600","新店區"
"231043","899-TW","2017/12/01 19:49:55","新北市新店區中正路263-2號","121.538465","24.973765","6500600","新店區"
"231066","AKT-0513","2017/12/01 19:49:38","新北市新店區安德街60巷19-1號","121.510416666667","24.9632333333333","6500600","新店區"
"241028","022-UY","2017/12/01 19:49:54","新北市三重區中正南路157號","121.493805","25.056135","6500200","三重區"
"241008","059-VK","2017/12/01 19:49:54","新北市三重區永福街100號","121.478905","25.0758616666667","6500200","三重區"
"241009","060-VK","2017/12/01 19:49:40","新北市三重區三和路四段396巷31號","121.480118333333","25.0788516666667","6500200","三重區"
"241031","061-VK","2017/12/01 19:49:39","新北市三重區重新路四段246-2號","121.485988333333","25.053505","6500200","三重區"
"241015","062-VK","2017/12/01 19:49:44","新北市三重區三和路一段2號","121.50386","25.064215","6500200","三重區"
"241017","063-VK","2017/12/01 19:49:38","新北市三重區重陽路三段27巷1號","121.489618333333","25.066525","6500200","三重區"
"241026","066-VK","2017/12/01 19:49:57","新北市三重區中央南路52號","121.501406666667","25.0618616666667","6500200","三重區"
"241003","091-VK","2017/12/01 19:49:43","新北市三重區五華街93巷18號","121.492648333333","25.0841616666667","6500200","三重區"
"241011","265-UM","2017/12/01 19:49:52","新北市三重區介壽路113號","121.499966666667","25.07045","6500200","三重區"
"241016","266-UM","2017/12/01 19:49:42","新北市三重區正德街41巷1號","121.495981666667","25.0627383333333","6500200","三重區"
"241022","267-UM","2017/12/01 19:49:45","新北市三重區新北大道一段7號","121.489796666667","25.0616","6500200","三重區"
"241018","268-UM","2017/12/01 19:49:53","新北市三重區正義北路244巷94號","121.493461666667","25.067545","6500200","三重區"
"241032","269-UM","2017/12/01 19:49:50","新北市三重區重陽路一段44巷10號","121.486023333333","25.0577416666667","6500200","三重區"
"241013","270-UM","2017/12/01 19:49:55","新北市三重區仁愛街92巷13號","121.494733333333","25.073845","6500200","三重區"
"241025","271-UM","2017/12/01 19:49:38","新北市三重區大有街1-1號","121.477666666667","25.0653016666667","6500200","三重區"
"241007","398-BY","2017/12/01 19:49:41","新北市三重區三和路四段143-1號","121.484508333333","25.0783683333333","6500200","三重區"
"241030","KEA-2210","2017/12/01 19:49:47","新北市三重區環河南路254巷36-1號","121.489983333333","25.0511516666667","6500200","三重區"
"241004","475-VK","2017/12/01 19:49:51","新北市三重區五華街74號","121.493385","25.08204","6500200","三重區"
"241019","478-VK","2017/12/01 19:49:51","新北市三重區自強路二段74巷23-1號","121.487771666667","25.069685","6500200","三重區"
"241014","543-UM","2017/12/01 19:49:42","新北市三重區三和路二段37-8號","121.501278333333","25.0675733333333","6500200","三重區"
"241023","545-UM","2017/12/01 19:49:57","新北市三重區大有街1-1號","121.477618333333","25.065675","6500200","三重區"
"241001","547-UM","2017/12/01 19:49:47","新北市三重區仁愛街327巷29號","121.492993333333","25.079955","6500200","三重區"
"241006","AAD-863","2017/12/01 19:49:44","新北市三重區力行路二段76巷1弄2號","121.481543333333","25.0735716666667","6500200","三重區"
"241035","743-BX","2017/12/01 19:49:39","新北市三重區大榮街53號","121.49924","25.06356","6500200","三重區"
"241012","941-UM","2017/12/01 19:49:55","新北市三重區仁興街56巷16號","121.498588333333","25.0756083333333","6500200","三重區"
"241029","942-UM","2017/12/01 19:49:47","新北市三重區重安街16號","121.490526666667","25.0584066666667","6500200","三重區"
"241033","AAC-255","2017/12/01 19:49:53","新北市三重區中興南街66號","121.47063","25.04398","6500200","三重區"
"235066","003-UY","2017/12/01 19:49:42","新北市中和區南工路56號","121.506008333333","25.0016233333333","6500300","中和區"
"235063","006-UY","2017/12/01 19:49:44","新北市中和區連城路263巷9弄2號","121.492381666667","24.9954816666667","6500300","中和區"
"235056","096-UM","2017/12/01 19:49:39","新北市中和區中山路三段114巷46號","121.475821666667","25.0073233333333","6500300","中和區"
"235039","097-UM","2017/12/01 19:49:41","新北市中和區景平路172號","121.517046666667","24.9926583333333","6500300","中和區"
"235065","098-UM","2017/12/01 19:49:56","新北市中和區莊敬路33巷3弄8號","121.499525","25.0063266666667","6500300","中和區"
"235040","150-BY","2017/12/01 19:49:42","新北市中和區安平路59號","121.5094","24.99518","6500300","中和區"
"235058","151-BY","2017/12/01 19:49:48","新北市中和區員山路146巷18號","121.48219","24.9967783333333","6500300","中和區"
"235055","183-VK","2017/12/01 19:49:52","新北市中和區莒光路37巷5號","121.47257","25.0052","6500300","中和區"
"235038","185-VK","2017/12/01 19:49:43","新北市中和區大智街55巷30弄56號","121.522003333333","24.9933516666667","6500300","中和區"
"235049","186-VK","2017/12/01 19:49:49","新北市中和區中正路76號","121.500686666667","24.9937216666667","6500300","中和區"
"235067","255-BX","2017/12/01 19:49:54","新北市中和區新生街186巷1弄8號","121.483348333333","24.9993266666667","6500300","中和區"
"235044","293-VK","2017/12/01 19:49:45","新北市中和區南山路231號","121.503528333333","24.9931883333333","6500300","中和區"
"235072","301-VK","2017/12/01 19:49:53","新北市中和區中正路432巷30號","121.490865","24.99577","6500300","中和區"
"235043","352-BY","2017/12/01 19:49:42","新北市中和區華新街232巷2號","121.506031666667","24.981825","6500300","中和區"
"235068","377-QA","2017/12/01 19:49:43","新北市中和區永和路56號","121.49935","25.0042816666667","6500300","中和區"
"235061","378-QA","2017/12/01 19:49:40","新北市中和區民安街2巷37弄1號","121.479916666667","25.0014583333333","6500300","中和區"
"235071","269-TV","2017/12/01 19:49:45","新北市中和區中山路二段437號","121.484763333333","25.0048383333333","6500300","中和區"
"235050","4979-A6","2017/12/01 19:49:53","新北市中和區景平路241巷82弄40號","121.506171666667","24.992635","6500300","中和區"
"235069","4980-A6","2017/12/01 19:49:56","新北市中和區中正路589巷1號","121.485875","24.9943683333333","6500300","中和區"
"235042","551-UM","2017/12/01 19:49:43","新北市中和區保健路2巷30號","121.507038333333","24.9974766666667","6500300","中和區"
"235070","558-UM","2017/12/01 19:49:48","新北市中和區景平路513號","121.499228333333","24.998575","6500300","中和區"
"235045","565-BX","2017/12/01 19:49:41","新北市中和區景平路183號","121.51177","24.9924283333333","6500300","中和區"
"235054","640-BX","2017/12/01 19:49:39","新北市中和區民德路2號","121.468781666667","25.0033683333333","6500300","中和區"
"235060","647-TV","2017/12/01 19:49:34","新北市中和區員山路396號","121.480563333333","25.0046133333333","6500300","中和區"
"235047","732-UM","2017/12/01 19:43:27","新北市中和區南山路291號","121.50451","24.9919766666667","6500300","中和區"
"235046","733-UM","2017/12/01 19:49:51","新北市中和區仁愛街73號","121.511595","24.9874483333333","6500300","中和區"
"235057","801-TS","2017/12/01 19:49:48","新北市中和區員山路146-3號","121.481333333333","24.9969883333333","6500300","中和區"
"235041","802-TS","2017/12/01 19:49:40","新北市中和區中安街34號","121.513161666667","25.0027383333333","6500300","中和區"
"235052","805-TS","2017/12/01 19:49:50","新北市中和區華新街142號","121.507875","24.9826283333333","6500300","中和區"
"235048","896-TW","2017/12/01 19:49:58","新北市中和區興南路一段129號","121.508846666667","24.987725","6500300","中和區"
"235053","900-TW","2017/12/01 19:49:53","新北市中和區國光街189巷12弄2號","121.467406666667","25.0015133333333","6500300","中和區"
"235064","911-UM","2017/12/01 19:49:38","新北市中和區南山路127巷33號","121.503711666667","24.9975616666667","6500300","中和區"
"235037","157-BY","2017/12/01 19:49:34","新北市中和區中興街180巷52弄3號","121.498453333333","24.9882783333333","6500300","中和區"
"235037","AAC-213","2017/12/01 19:49:38","新北市中和區秀朗路三段143號","121.524991666667","24.992305","6500300","中和區"
"235059","AAC-215","2017/12/01 19:49:51","新北市中和區圓通路305巷25弄8號","121.494858333333","24.9895833333333","6500300","中和區"
"220068","013-TV","2017/12/01 19:49:53","新北市板橋區中山路二段412巷7號","121.483285","25.0207216666667","6500100","板橋區"
"220065","072-UY","2017/12/01 19:49:42","新北市板橋區民族路276號","121.469906666667","25.006825","6500100","板橋區"
"220086","073-UY","2017/12/01 19:49:48","新北市板橋區館前西路160巷3號","121.452606666667","25.008895","6500100","板橋區"
"220106","075-UY","2017/12/01 19:49:50","新北市板橋區文化路二段608巷64號","121.480138333333","25.0340616666667","6500100","板橋區"
"220069","AAD-861","2017/12/01 19:49:54","新北市板橋區南雅南路二段11-23號","121.453913333333","25.00202","6500100","板橋區"
"220102","120-SR","2017/12/01 19:49:58","新北市板橋區松柏街31-4號","121.475266666667","25.030205","6500100","板橋區"
"247008","341-TH","2017/12/01 19:49:43","新北市蘆洲區中山一路63號","121.478468333333","25.0810066666667","6501400","蘆洲區"
"247004","337-TH","2017/12/01 19:49:50","新北市蘆洲區永樂街38巷57弄1號","121.45839","25.0901016666667","6501400","蘆洲區"
"247004","336-TH","2017/12/01 19:49:41","新北市蘆洲區中原路53號","121.459168333333","25.0822233333333","6501400","蘆洲區"
"247016","057-VK","2017/12/01 19:49:50","新北市蘆洲區中正路261號","121.467553333333","25.0873016666667","6501400","蘆洲區"
"247006","056-VK","2017/12/01 19:49:51","新北市蘆洲區永安南路二段26號","121.467251666667","25.0771416666667","6501400","蘆洲區"
"247014","053-VK","2017/12/01 19:49:37","新北市蘆洲區中央路87號","121.472841666667","25.0842783333333","6501400","蘆洲區"
"226004","205-ST","2017/12/01 19:49:38","新北市平溪區南山里南山坪15號","121.767441666667","25.0332783333333","6502400","平溪區"
"223001","205-TH","2017/12/01 10:24:56","新北市石碇區小粗坑(潭邊里)9-2號","121.678445","24.9857066666667","6501900","石碇區"
"228001","670-TC","2017/12/01 19:49:40","新北市貢寮區仁理村仁愛路95-1號","121.927656666667","25.055465","6502600","貢寮區"
"228003","828-UM","2017/12/01 19:49:55","新北市貢寮區真理里延平街62號","121.92497","25.0574533333333","6502600","貢寮區"
"224010","AGQ-8101","2017/12/01 19:49:54","新北市瑞芳區輕便路338號","121.840163333333","25.108565","6501200","瑞芳區"
"224002","639-TC","2017/12/01 19:49:40","新北市瑞芳區三爪子坑路319號","121.818183333333","25.1042583333333","6501200","瑞芳區"
"227003","642-TC","2017/12/01 19:49:46","新北市雙溪區雙溪里內挖路47號","121.863283333333","25.036685","6502500","雙溪區"
"227011","400-TW","2017/12/01 19:49:51","新北市雙溪區新基里自強路7號","121.866261666667","25.0390166666667","6502500","雙溪區"
"222001","KEA-2212","2017/12/01 19:49:44","新北市深坑區北深路二段115號","121.616918333333","25.0032266666667","6501800","深坑區"
"208002","742-BX","2017/12/01 19:49:52","新北市金山區中華路364號","121.633233333333","25.2244166666667","6502700","金山區"
"208003","665-BX","2017/12/01 19:49:56","新北市金山區清泉里清水路32-1號","121.629943333333","25.2307283333333","6502700","金山區"
"208001","761-BX","2017/12/01 19:49:56","新北市金山區重和里茅埔頭22號","121.601331666667","25.213085","6502700","金山區"
"251004","009-UM","2017/12/01 19:49:41","新北市淡水區民權路185巷17號","121.46043","25.13391","6501000","淡水區"
"251005","010-UM","2017/12/01 19:49:50","新北市淡水區中正東路6號","121.446993333333","25.1671516666667","6501000","淡水區"
"251013","180-VK","2017/12/01 19:49:38","新北市淡水區頂田寮18號","121.461556666667","25.2142666666667","6501000","淡水區"
"251008","181-VK","2017/12/01 19:49:40","新北市淡水區中正路二段24巷2-1號","121.426781666667","25.1768666666667","6501000","淡水區"
"251015","182-VK","2017/12/01 19:49:49","新北市淡水區商工路352號","121.467013333333","25.1855266666667","6501000","淡水區"
"251012","441-VK","2017/12/01 19:49:46","新北市淡水區淡金路三段31號","121.446356666667","25.19733","6501000","淡水區"
"251001","559-UM","2017/12/01 19:49:38","新北市淡水區中正東路二段37號","121.459278333333","25.1562216666667","6501000","淡水區"
"251006","561-UM","2017/12/01 19:49:45","新北市淡水區水碓街15號","121.44348","25.1769533333333","6501000","淡水區"
"251009","575-R6","2017/12/01 19:49:53","新北市淡水區中正路38-1號","121.443686666667","25.1692533333333","6501000","淡水區"
"251007","577-R6","2017/12/01 19:49:48","新北市淡水區中正東路一段39-1號","121.452173333333","25.1663183333333","6501000","淡水區"
"251011","650-BX","2017/12/01 19:49:42","新北市淡水區淡金路二段401號","121.446898333333","25.18656","6501000","淡水區"
"207003","550-UM","2017/12/01 19:49:46","新北市萬里區磺潭里公館崙4號","121.64218","25.214545","6502800","萬里區"
"207004","225-TW","2017/12/01 19:49:55","新北市萬里區萬里里瑪鋉路261號","121.68986","25.1797616666667","6502800","萬里區"
"252001","292-VK","2017/12/01 19:49:41","新北市三芝區公正街9號","121.499775","25.25752","6502100","三芝區"
"252002","AAC-283","2017/12/01 19:49:48","新北市三芝區三民街20號","121.504538333333","25.2585916666667","6502100","三芝區"
"237004","078-UY","2017/12/01 19:49:47","新北市三峽區添福111-2號","121.374053333333","24.9014166666667","6500900","三峽區"
"237007","153-BY","2017/12/01 19:49:44","新北市三峽區二鬮路136巷125號","121.356075","24.91053","6500900","三峽區"
"237009","210-TH","2017/12/01 19:49:38","新北市三峽區民族街78巷2弄4號","121.368666666667","24.92982","6500900","三峽區"
"237013","252-BX","2017/12/01 19:49:49","新北市三峽區溪北街16號","121.39646","24.936295","6500900","三峽區"
"237012","275-BY","2017/12/01 19:49:37","新北市三峽區中華路11巷2號","121.373971666667","24.9323","6500900","三峽區"
"237008","302-VK","2017/12/01 19:49:41","新北市三峽區中正路一段174巷4弄12號","121.372566666667","24.92899","6500900","三峽區"
"237014","433-BY","2017/12/01 19:49:36","新北市三峽區中正路一段53號","121.375458333333","24.9304116666667","6500900","三峽區"
"237006","5529-G3","2017/12/01 19:49:52","新北市三峽區中正路一段328-4號","121.371168333333","24.92473","6500900","三峽區"
"237015","649-BX","2017/12/01 19:49:48","新北市三峽區橫溪路99巷30號","121.400093333333","24.936615","6500900","三峽區"
"237005","AKY-6261","2017/12/01 19:49:52","新北市三峽區長泰街18巷1號","121.379068333333","24.9317066666667","6500900","三峽區"
"236072","105-UM","2017/12/01 19:49:52","新北市土城區中央路二段192巷14號","121.441395","24.976035","6501300","土城區"
"236043","107-UM","2017/12/01 19:49:53","新北市土城區金城路二段245巷42號","121.45545","24.98325","6501300","土城區"
"236079","166-UM","2017/12/01 19:30:25","新北市土城區中州路24巷5號","121.414781666667","24.957625","6501300","土城區"
"236031","253-BX","2017/12/01 19:49:38","新北市土城區中央路一段286號","121.443655","24.9826116666667","6501300","土城區"
"236027","269-VK","2017/12/01 19:49:53","新北市土城區中央路二段61巷62號","121.444681666667","24.9780933333333","6501300","土城區"
"236039","271-VK","2017/12/01 19:49:48","新北市土城區國際路158巷49號","121.468193333333","24.9753366666667","6501300","土城區"
"236022","401-BY","2017/12/01 19:49:54","新北市土城區峰廷街3號","121.469251666667","24.9873966666667","6501300","土城區"
"236059","912-UM","2017/12/01 19:49:34","新北市土城區中央路一段324號","121.443201666667","24.981465","6501300","土城區"
"236050","913-UM","2017/12/01 19:49:55","新北市土城區青雲路182號","121.459163333333","24.9823033333333","6501300","土城區"
"236063","915-UM","2017/12/01 19:49:53","新北市土城區延和路107號","121.467648333333","24.9903533333333","6501300","土城區"
"236055","AAC-216","2017/12/01 19:49:48","新北市土城區延和路112號","121.467263333333","24.9898866666667","6501300","土城區"
"242032","AAC-296","2017/12/01 19:49:39","新北市新莊區仁愛街73號","121.443963333333","25.0377666666667","6500500","新莊區"
"242027","612-BX","2017/12/01 19:49:39","新北市新莊區中平路181號","121.444691666667","25.048945","6500500","新莊區"
"242044","497-BY","2017/12/01 19:49:44","新北市新莊區新北大道七段365號","121.412376666667","25.02666","6500500","新莊區"
"242048","441-UM","2017/12/01 19:49:46","新北市新莊區建安街92巷33號","121.425571666667","25.02483","6500500","新莊區"
"242034","415-TV","2017/12/01 19:49:47","新北市新莊區仁愛街56號","121.444333333333","25.03708","6500500","新莊區"
"242005","413-TV","2017/12/01 19:49:48","新北市新莊區化成路37號","121.465181666667","25.0445233333333","6500500","新莊區"
"242060","362-BY","2017/12/01 19:49:57","新北市新莊區新莊路771巷10號","121.441895","25.03183","6500500","新莊區"
"242021","135-UY","2017/12/01 19:49:42","新北市新莊區新泰路130號","121.44805","25.036785","6500500","新莊區"
"242013","346-TH","2017/12/01 19:49:38","新北市新莊區中誠街53巷38號","121.451375","25.047105","6500500","新莊區"
"242019","348-TH","2017/12/01 19:49:53","新北市新莊區中港路180號","121.454953333333","25.0420583333333","6500500","新莊區"
"242017","350-TH","2017/12/01 19:49:39","新北市新莊區中華路一段182號","121.45266","25.042605","6500500","新莊區"
"242011","351-TH","2017/12/01 19:49:43","新北市新莊區中信街88號","121.447963333333","25.053385","6500500","新莊區"
"238015","755-BX","2017/12/01 19:49:52","新北市樹林區樹德街11-1號","121.42268","24.9914933333333","6500700","樹林區"
"238023","601-UM","2017/12/01 19:49:40","新北市樹林區中正路757號","121.410268333333","25.01519","6500700","樹林區"
"238024","5061-A6","2017/12/01 19:48:00","新北市樹林區中山路三段214號","121.380045","24.9678483333333","6500700","樹林區"
"238021","KEA-2217","2017/12/01 19:49:40","新北市樹林區佳園路3段219巷9-2號","121.387251666667","24.9460833333333","6500700","樹林區"
"238025","303-VK","2017/12/01 19:49:53","新北市樹林區八德街321-1號","121.419501666667","24.973665","6500700","樹林區"
"238017","283-BY","2017/12/01 19:49:55","新北市樹林區中山路二段131號","121.407273333333","24.979525","6500700","樹林區"
"238020","268-VK","2017/12/01 19:49:40","新北市樹林區八德街491-8號","121.403001666667","24.9693283333333","6500700","樹林區"
"239002","359-BY","2017/12/01 19:49:46","新北市鶯歌區環河路155-1號","121.346533333333","24.9384816666667","6500800","鶯歌區"
"221008","489-VK","2017/12/01 19:49:53","新北市汐止區康寧街39號","121.618526666667","25.0667833333333","6501100","汐止區"
"221036","130-UY","2017/12/01 19:49:37","新北市汐止區汐萬路一段191號","121.652393333333","25.0717416666667","6501100","汐止區"
"221010","269-BY","2017/12/01 19:49:46","新北市汐止區八連路一段72號","121.647036666667","25.0810433333333","6501100","汐止區"
"221012","276-VK","2017/12/01 13:29:12","新北市汐止區汐萬路一段256巷3號","121.653463333333","25.074665","6501100","汐止區"
"221012","278-VK","2017/12/01 19:49:38","新北市汐止區大同路三段400號","121.681753333333","25.071755","6501100","汐止區"
"221023","279-VK","2017/12/01 19:49:43","新北市汐止區民族六街3巷1號","121.629453333333","25.0703366666667","6501100","汐止區"
"221032","280-BY","2017/12/01 19:49:40","新北市汐止區橫科路119號","121.620221666667","25.0502966666667","6501100","汐止區"
"221027","281-BY","2017/12/01 19:49:54","新北市汐止區忠孝東路9號","121.658263333333","25.065895","6501100","汐止區"
"221029","298-VK","2017/12/01 19:49:46","新北市汐止區康寧街901號","121.651573333333","25.07493","6501100","汐止區"
"221021","299-VK","2017/12/01 19:49:44","新北市汐止區新興路83-5號","121.65783","25.0617233333333","6501100","汐止區"
"221015","567-BX","2017/12/01 19:49:51","新北市汐止區忠孝東路363號","121.665603333333","25.070815","6501100","汐止區"
"221035","622-UM","2017/12/01 19:49:53","新北市汐止區長江街13巷6弄1號","121.654688333333","25.07175","6501100","汐止區"
"221025","623-UM","2017/12/01 19:49:56","新北市汐止區秀峰路81巷46號","121.661655","25.0647916666667","6501100","汐止區"
"221038","646-BX","2017/12/01 19:49:41","新北市汐止區忠孝東路325號","121.664831666667","25.0694433333333","6501100","汐止區"
"221033","647-BX","2017/12/01 19:49:55","新北市汐止區東勢街216巷22弄23號","121.634468333333","25.0389316666667","6501100","汐止區"
"221018","753-BX","2017/12/01 19:49:35","新北市汐止區大同路二段534號","121.661328333333","25.0686316666667","6501100","汐止區"
"220079","145-BY","2017/12/01 19:49:43","新北市板橋區中正路183巷46號","121.454986666667","25.01601","6500100","板橋區"
"220082","610-BX","2017/12/01 19:49:49","新北市板橋區溪北路63號","121.427953333333","24.9896933333333","6500100","板橋區"
"220101","245-BX","2017/12/01 19:49:54","新北市板橋區莊敬路261號","121.473881666667","25.02153","6500100","板橋區"
"220091","267-BY","2017/12/01 19:49:48","新北市板橋區懷德街127巷25號","121.479621666667","25.0312883333333","6500100","板橋區"
"220072","277-BY","2017/12/01 19:49:51","新北市板橋區篤行路二段77巷12弄2號","121.432238333333","24.99178","6500100","板橋區"
"220071","283-VK","2017/12/01 19:49:44","新北市板橋區五權街30巷37弄5號","121.4636","24.9925533333333","6500100","板橋區"
"220094","285-UM","2017/12/01 19:49:44","新北市板橋區長江路一段114號","121.459891666667","25.02973","6500100","板橋區"
"220053","285-VK","2017/12/01 19:49:51","新北市板橋區中山路二段60巷1弄21號","121.475011666667","25.0157216666667","6500100","板橋區"
"220083","286-VK","2017/12/01 19:49:56","新北市板橋區僑中二街102巷2號","121.44613","25.0083133333333","6500100","板橋區"
"220081","287-VK","2017/12/01 19:49:58","新北市板橋區大觀路一段28巷107-1號","121.449896666667","25.0122066666667","6500100","板橋區"
"220090","288-VK","2017/12/01 19:49:50","新北市板橋區龍泉街54巷7弄7號","121.456535","25.0264233333333","6500100","板橋區"
"220061","293-UM","2017/12/01 19:49:41","新北市板橋區漢生東路113巷6弄2號","121.467633333333","25.0152216666667","6500100","板橋區"
"220084","296-UM","2017/12/01 19:49:49","新北市板橋區滿平街28號","121.426576666667","24.9899266666667","6500100","板橋區"
"220075","297-UM","2017/12/01 19:49:41","新北市板橋區金華街10巷13號","121.456315","25.020075","6500100","板橋區"
"220096","299-UM","2017/12/01 19:49:46","新北市板橋區莊敬路78-2號","121.471655","25.0250566666667","6500100","板橋區"
"220062","303-R5","2017/12/01 19:49:45","新北市板橋區中山路二段416巷38弄27號","121.481885","25.0194816666667","6500100","板橋區"
"220010","305-R5","2017/12/01 15:54:36","新北市板橋區民生路二段56-6號","121.4711","25.0188516666667","6500100","板橋區"
"220092","307-R5","2017/12/01 19:49:40","新北市板橋區四維路259巷19號","121.462396666667","25.027575","6500100","板橋區"
"220098","317-R6","2017/12/01 19:49:51","新北市板橋區新海路385巷18號","121.458211666667","25.0258383333333","6500100","板橋區"
"220080","461-BY","2017/12/01 19:49:51","新北市板橋區大觀路二段163巷22號","121.44621","25.00014","6500100","板橋區"
"220064","486-VK","2017/12/01 19:49:39","新北市板橋區館前東路112號","121.463415","25.00755","6500100","板橋區"
"220089","487-VK","2017/12/01 19:49:54","新北市板橋區綠堤街39-4號","121.455288333333","25.0263766666667","6500100","板橋區"
"242002","280-VK","2017/12/01 19:49:41","新北市新莊區新泰路2-11號","121.450108333333","25.0324716666667","6500500","新莊區"
"220088","491-VK","2017/12/01 19:49:42","新北市板橋區文聖街105號","121.4778","25.029415","6500100","板橋區"
"220035","560-BX","2017/12/01 19:49:46","新北市板橋區新生街23巷1弄1號","121.456111666667","25.0214966666667","6500100","板橋區"
"220103","561-BX","2017/12/01 19:49:47","新北市板橋區陽明街27巷1號","121.465643333333","25.0218466666667","6500100","板橋區"
"220063","609-BX","2017/12/01 19:49:54","新北市板橋區三民路一段66號","121.47959","25.02233","6500100","板橋區"
"220057","686-BX","2017/12/01 19:49:38","新北市板橋區國慶路162-3號","121.46212","24.996135","6500100","板橋區"
"220077","687-BX","2017/12/01 19:49:46","新北市板橋區僑中一街124巷29號","121.446445","25.0149416666667","6500100","板橋區"
"220093","689-BX","2017/12/01 19:49:53","新北市板橋區長江路二段243號","121.468863333333","25.0326816666667","6500100","板橋區"
"220054","741-BX","2017/12/01 19:49:54","新北市板橋區忠孝路忠義巷15弄92-2號","121.465448333333","25.00558","6500100","板橋區"
"220055","827-TW","2017/12/01 19:49:59","新北市板橋區國慶路120號","121.460633333333","24.9958583333333","6500100","板橋區"
"220067","829-TW","2017/12/01 19:49:48","新北市板橋區漢生東路193巷62號","121.473058333333","25.0119516666667","6500100","板橋區"
"220074","895-R6","2017/12/01 19:49:40","新北市板橋區府中路29-2號","121.458481666667","25.0080816666667","6500100","板橋區"
"220073","985-R7","2017/12/01 19:49:54","新北市板橋區南雅西路二段156巷2號","121.451831666667","25.0133483333333","6500100","板橋區"
"220097","AAC-210","2017/12/01 19:49:55","新北市板橋區文化路一段285巷26號","121.463833333333","25.0194733333333","6500100","板橋區"
"220070","AAC-253","2017/12/01 19:49:41","新北市板橋區館前東路116號","121.463656666667","25.007755","6500100","板橋區"
