"lineid","car","time","location","longitude","latitude","cityid","cityname"
"234046","148-BY","2017/12/01 20:09:50","新北市永和區得和路358號","121.524005","24.99944","6500400","永和區"
"234013","149-BY","2017/12/01 20:09:41","新北市永和區永貞路435號","121.506885","25.0098266666667","6500400","永和區"
"234007","207-UY","2017/12/01 20:09:35","新北市永和區保生路24號","121.506705","25.0075516666667","6500400","永和區"
"234081","298-R6","2017/12/01 20:09:51","新北市永和區永亨路100號","121.523091666667","25.0048666666667","6500400","永和區"
"234038","336-UY","2017/12/01 20:09:52","新北市永和區成功路一段47巷3號","121.527368333333","25.0040716666667","6500400","永和區"
"234064","337-UY","2017/12/01 20:09:43","新北市永和區永元路54號","121.522301666667","25.0011433333333","6500400","永和區"
"234086","338-UY","2017/12/01 20:09:52","新北市永和區福和路175號","121.519828333333","25.00759","6500400","永和區"
"234070","552-UM","2017/12/01 20:09:46","新北市永和區福和路183巷1號","121.519996666667","25.0072683333333","6500400","永和區"
"234054","553-UM","2017/12/01 20:09:48","新北市永和區博愛街19巷2號","121.517483333333","25.0158433333333","6500400","永和區"
"234017","745-BX","2017/12/01 20:09:40","新北市永和區文化路123號","121.51229","25.0153483333333","6500400","永和區"
"234030","746-BX","2017/12/01 20:09:40","新北市永和區民權路49巷32號","121.521771666667","24.997495","6500400","永和區"
"234061","AAD-866","2017/12/01 20:09:45","新北市永和區安樂路58巷2號","121.515208333333","24.9979966666667","6500400","永和區"
"234042","862-TW","2017/12/01 20:09:47","新北市永和區雙和街4號","121.509788333333","25.001715","6500400","永和區"
"234050","863-TW","2017/12/01 20:09:55","新北市永和區環河西路二段121號","121.506145","25.0144483333333","6500400","永和區"
"234011","9373-KE","2017/12/01 20:09:48","新北市永和區仁愛路352巷122弄11號","121.500691666667","25.0087766666667","6500400","永和區"
"249005","172-UM","2017/12/01 20:09:46","新北市八里區下罟子58-8號","121.387641666667","25.1378033333333","6502300","八里區"
"249001","173-UM","2017/12/01 20:09:45","新北市八里區中華路二段318號","121.40347","25.1481616666667","6502300","八里區"
"249004","303-UY","2017/12/01 20:00:13","新北市八里區中山路一段157巷67號","121.412275","25.1577983333333","6502300","八里區"
"249002","305-UY","2017/12/01 20:09:45","新北市八里區龍米路一段50號","121.456518333333","25.1191883333333","6502300","八里區"
"249003","759-BX","2017/12/01 20:09:42","新北市八里區中山路二段540巷3號","121.397068333333","25.14687","6502300","八里區"
"248016","026-BX","2017/12/01 20:09:39","新北市五股區凌雲路一段158巷50弄2號","121.447125","25.1044383333333","6501500","五股區"
"248018","225-UY","2017/12/01 20:09:44","新北市五股區登林路77-18號","121.424775","25.0705183333333","6501500","五股區"
"248012","247-BX","2017/12/01 20:09:54","新北市五股區民義路一段212號","121.430485","25.0895033333333","6501500","五股區"
"248014","261-SL","2017/12/01 20:09:48","新北市五股區五福路6巷43號","121.436728333333","25.0883566666667","6501500","五股區"
"248010","272-BY","2017/12/01 20:09:40","新北市五股區成泰路一段7巷11號","121.433063333333","25.0668333333333","6501500","五股區"
"248004","677-BX","2017/12/01 20:09:48","新北市五股區成泰路一段42號","121.435271666667","25.0685583333333","6501500","五股區"
"248002","678-BX","2017/12/01 20:09:44","新北市五股區成泰路三段286號","121.447561666667","25.0944233333333","6501500","五股區"
"234023","9380-KE","2017/12/01 20:09:53","新北市永和區永和路二段97號","121.514861666667","25.01155","6500400","永和區"
"234077","969-R7","2017/12/01 20:09:52","新北市永和區民光街20巷1號","121.515871666667","24.9958516666667","6500400","永和區"
"234074","AAC-211","2017/12/01 20:09:47","新北市永和區豫溪街136巷1號","121.52124","25.010365","6500400","永和區"
"234067","AAC-212","2017/12/01 20:09:45","新北市永和區保平路214巷10弄2號","121.509355","25.006385","6500400","永和區"
"234003","AAC-295","2017/12/01 20:09:54","新北市永和區自強街28巷1號","121.515675","25.0080683333333","6500400","永和區"
"244019","403-UM","2017/12/01 19:55:10","新北市林口區粉寮69號","121.404975","25.0908766666667","6501700","林口區"
"243011","267-VK","2017/12/01 20:09:42","新北市泰山區明志路三段452號","121.42097","25.0325183333333","6501600","泰山區"
"243012","AAD-798","2017/12/01 20:09:50","新北市泰山區楓江路91號","121.437616666667","25.0636683333333","6501600","泰山區"
"243009","297-R6","2017/12/01 20:09:47","新北市泰山區泰林路二段114號","121.434776666667","25.05934","6501600","泰山區"
"243015","380-SR","2017/12/01 20:09:49","新北市泰山區明志路一段453-1號","121.430861666667","25.05633","6501600","泰山區"
"243014","421-VK","2017/12/01 20:09:51","新北市泰山區明志路一段24號","121.433616666667","25.0654816666667","6501600","泰山區"
"243010","KEA-2215","2017/12/01 20:09:58","新北市泰山區明志路二段188號","121.426948333333","25.0502683333333","6501600","泰山區"
"243013","646-TV","2017/12/01 20:09:41","新北市泰山區民國街8號","121.425385","25.0435083333333","6501600","泰山區"
"243016","680-BX","2017/12/01 20:09:42","新北市泰山區貴陽街6號","121.42152","25.03303","6501600","泰山區"
"222003","436-BY","2017/12/01 20:09:40","新北市深坑區埔新街62號","121.620155","25.0024083333333","6501800","深坑區"
"222002","659-BX","2017/12/01 20:09:46","新北市深坑區北深路三段158巷32弄1號","121.601611666667","25.0044783333333","6501800","深坑區"
"222001","696-SL","2017/12/01 20:09:51","新北市深坑區北深路三段191號","121.60122","25.0037","6501800","深坑區"
"231041","001-UM","2017/12/01 20:09:48","新北市新店區中正路468號","121.534021666667","24.9794066666667","6500600","新店區"
"231059","046-UY","2017/12/01 20:09:41","新北市新店區安德街60巷26號","121.511156666667","24.9639716666667","6500600","新店區"
"231061","047-UY","2017/12/01 20:09:41","新北市新店區安興路32號","121.5158","24.9703766666667","6500600","新店區"
"231060","106-UY","2017/12/01 20:09:36","新北市新店區安康路三段456號","121.48428","24.9512133333333","6500600","新店區"
"231051","107-UY","2017/12/01 20:09:51","新北市新店區中央六街7號","121.530245","24.9745166666667","6500600","新店區"
"231048","108-UY","2017/12/01 20:09:52","新北市新店區永華街36號","121.54473","24.9754216666667","6500600","新店區"
"231053","187-VK","2017/12/01 20:09:48","新北市新店區新烏路三段寶島巷2弄3號","121.552013333333","24.8986083333333","6500600","新店區"
"231050","KEA-2219","2017/12/01 20:09:36","新北市新店區北新路一段96巷23號","121.542828333333","24.968725","6500600","新店區"
"231057","256-BX","2017/12/01 20:09:52","新北市新店區花園一路一段2號","121.553123333333","24.9324516666667","6500600","新店區"
"231063","268-BY","2017/12/01 20:09:43","新北市新店區黎明路51巷2號","121.502081666667","24.9488916666667","6500600","新店區"
"231054","AAD-862","2017/12/01 20:09:51","新北市新店區檳榔路42號","121.541611666667","24.9637133333333","6500600","新店區"
"231056","3713-VJ","2017/12/01 20:09:38","新北市新店區北新路二段75號","121.542876666667","24.9736816666667","6500600","新店區"
"231055","4716-K9","2017/12/01 20:09:51","新北市新店區中華路48巷40號","121.54126","24.96944","6500600","新店區"
"231067","4772-VM","2017/12/01 20:09:42","新北市新店區溪洲路85號","121.533128333333","24.96104","6500600","新店區"
"231064","515-UM","2017/12/01 20:09:56","新北市新店區安德街20號","121.512465","24.963005","6500600","新店區"
"231042","616-UM","2017/12/01 20:09:57","新北市新店區中興路二段210號","121.548181666667","24.974745","6500600","新店區"
"231045","617-UM","2017/12/01 20:09:50","新北市新店區北宜路一段171號","121.544593333333","24.9532083333333","6500600","新店區"
"231040","619-UM","2017/12/01 20:09:38","新北市新店區中正路86號","121.543568333333","24.9703683333333","6500600","新店區"
"231068","718-UY","2017/12/01 20:09:43","新北市新店區北新路二段268號","121.542593333333","24.97868","6500600","新店區"
"231049","719-UM","2017/12/01 20:09:47","新北市新店區北新路二段97巷7號","121.542235","24.974145","6500600","新店區"
"231065","719-UY","2017/12/01 20:09:55","新北市新店區安祥路106巷248號","121.473308333333","24.959365","6500600","新店區"
"231062","720-UM","2017/12/01 20:09:35","新北市新店區安豐路72號","121.497076666667","24.9530666666667","6500600","新店區"
"231044","897-TW","2017/12/01 20:09:53","新北市新店區寶元路一段15巷11號","121.54199","24.9871183333333","6500600","新店區"
"231043","899-TW","2017/12/01 20:09:55","新北市新店區民族路213號","121.536951666667","24.9759966666667","6500600","新店區"
"231066","AKT-0513","2017/12/01 20:09:38","新北市新店區安民街172號","121.5169","24.970775","6500600","新店區"
"241028","022-UY","2017/12/01 20:09:54","新北市三重區仁化街125號","121.494671666667","25.0575466666667","6500200","三重區"
"241008","059-VK","2017/12/01 20:09:34","新北市三重區永福街197巷15-1號","121.478983333333","25.0743716666667","6500200","三重區"
"241009","060-VK","2017/12/01 20:09:40","新北市三重區永福街125巷12號","121.478468333333","25.0771233333333","6500200","三重區"
"241031","061-VK","2017/12/01 20:09:39","新北市三重區過圳街9-1號","121.488755","25.0601066666667","6500200","三重區"
"241015","062-VK","2017/12/01 20:09:44","新北市三重區福德北路39號","121.50236","25.0647883333333","6500200","三重區"
"241017","063-VK","2017/12/01 20:09:38","新北市三重區大智街108-4號","121.492961666667","25.0666316666667","6500200","三重區"
"241024","065-VK","2017/12/01 20:09:56","新北市三重區中正北路302號","121.479711666667","25.0689566666667","6500200","三重區"
"241026","066-VK","2017/12/01 20:09:50","新北市三重區中央南路100號","121.501598333333","25.06061","6500200","三重區"
"241002","090-VK","2017/12/01 20:09:51","新北市三重區仁義街225巷6號","121.496763333333","25.08252","6500200","三重區"
"241003","091-VK","2017/12/01 20:09:43","新北市三重區富華街18號","121.48961","25.0824766666667","6500200","三重區"
"241005","262-UM","2017/12/01 20:09:43","新北市三重區碧華街249號","121.489276666667","25.0830283333333","6500200","三重區"
"241011","265-UM","2017/12/01 20:09:52","新北市三重區仁愛街51號","121.496511666667","25.0718166666667","6500200","三重區"
"241016","266-UM","2017/12/01 20:09:43","新北市三重區大同北路97-3號","121.494346666667","25.0635933333333","6500200","三重區"
"241022","267-UM","2017/12/01 20:09:45","新北市三重區新北大道一段58號","121.487306666667","25.0614966666667","6500200","三重區"
"241018","268-UM","2017/12/01 20:09:53","新北市三重區長壽西街143-3號","121.49432","25.0665916666667","6500200","三重區"
"241032","269-UM","2017/12/01 20:09:50","新北市三重區捷運路67號","121.483353333333","25.0554933333333","6500200","三重區"
"241013","270-UM","2017/12/01 20:09:55","新北市三重區三和路三段139巷36號","121.493953333333","25.0740933333333","6500200","三重區"
"241025","271-UM","2017/12/01 20:09:38","新北市三重區中正北路169號","121.478401666667","25.0692733333333","6500200","三重區"
"241007","398-BY","2017/12/01 20:09:41","新北市三重區三和路四段111-33號","121.486276666667","25.0773816666667","6500200","三重區"
"241030","KEA-2210","2017/12/01 20:09:47","新北市三重區成功路145巷35號","121.487768333333","25.0532666666667","6500200","三重區"
"241004","475-VK","2017/12/01 20:09:51","新北市三重區自強路四段80號","121.490616666667","25.0789116666667","6500200","三重區"
"241019","478-VK","2017/12/01 20:09:51","新北市三重區自強路二段33巷44號","121.490493333333","25.0698016666667","6500200","三重區"
"241014","543-UM","2017/12/01 20:09:42","新北市三重區長樂街100號","121.501488333333","25.069485","6500200","三重區"
"241023","545-UM","2017/12/01 20:09:37","新北市三重區頂崁街220巷2號","121.476926666667","25.06806","6500200","三重區"
"241001","547-UM","2017/12/01 20:09:47","新北市三重區溪尾街24號","121.490655","25.0762133333333","6500200","三重區"
"241006","AAD-863","2017/12/01 20:09:44","新北市三重區車路頭街139巷14號","121.484296666667","25.07619","6500200","三重區"
"241035","743-BX","2017/12/01 20:09:39","新北市三重區平安街3號","121.498943333333","25.0643316666667","6500200","三重區"
"241012","941-UM","2017/12/01 20:09:55","新北市三重區仁愛街125巷113號","121.499225","25.076495","6500200","三重區"
"241029","942-UM","2017/12/01 20:09:47","新北市三重區光明路32巷14號","121.491695","25.0586616666667","6500200","三重區"
"241033","AAC-255","2017/12/01 20:09:53","新北市三重區光復路一段70號","121.471898333333","25.0494","6500200","三重區"
"235066","003-UY","2017/12/01 20:09:42","新北市中和區水源路109號","121.507711666667","25.0032016666667","6500300","中和區"
"235039","097-UM","2017/12/01 20:09:41","新北市中和區大勇街29巷21號","121.515623333333","24.9947016666667","6500300","中和區"
"235065","098-UM","2017/12/01 20:09:56","新北市中和區永和路112號","121.496478333333","25.0060116666667","6500300","中和區"
"235040","150-BY","2017/12/01 20:09:52","新北市中和區保健路31號","121.508758333333","24.9977766666667","6500300","中和區"
"235072","301-VK","2017/12/01 20:09:53","新北市新店區車子路18-1號","121.505766666667","24.95462","6500300","中和區"
"235068","377-QA","2017/12/01 20:09:43","新北市中和區福祥路125號","121.498766666667","25.0067583333333","6500300","中和區"
"235050","4979-A6","2017/12/01 20:09:53","新北市中和區安樂路11號","121.511668333333","24.9920066666667","6500300","中和區"
"235069","4980-A6","2017/12/01 20:09:36","新北市中和區南山路81巷32號","121.503141666667","24.998205","6500300","中和區"
"235042","551-UM","2017/12/01 20:09:43","新北市新店區安德街148巷31號","121.506831666667","24.96103","6500300","中和區"
"235070","558-UM","2017/12/01 20:09:48","新北市中和區中正路250號","121.495661666667","24.9939116666667","6500300","中和區"
"235037","157-BY","2017/12/01 20:09:54","新北市中和區復興路277-1號","121.502301666667","24.9903633333333","6500300","中和區"
"235037","AAC-213","2017/12/01 20:09:38","新北市中和區立人街1號","121.521946666667","24.99383","6500300","中和區"
"235059","AAC-215","2017/12/01 20:09:48","新北市中和區圓通路367巷13弄39號","121.493563333333","24.98788","6500300","中和區"
"220068","013-TV","2017/12/01 20:09:53","新北市板橋區中山路二段318巷4號","121.480166666667","25.0191866666667","6500100","板橋區"
"220065","072-UY","2017/12/01 20:09:46","新北市板橋區縣民大道二段86號","121.466406666667","25.0150133333333","6500100","板橋區"
"220106","075-UY","2017/12/01 20:09:50","新北市板橋區文聖街5號","121.47543","25.0323733333333","6500100","板橋區"
"220069","AAD-861","2017/12/01 20:09:44","新北市板橋區大明街25巷4弄5號","121.457828333333","25.0020416666667","6500100","板橋區"
"220102","120-SR","2017/12/01 20:09:37","新北市板橋區民治街135號","121.477651666667","25.030755","6500100","板橋區"
"247022","893-R6","2017/12/01 20:09:54","新北市蘆洲區三民路171巷1號","121.470925","25.08702","6501400","蘆洲區"
"247012","546-UM","2017/12/01 20:09:53","新北市蘆洲區民族路191-1號","121.47863","25.0889683333333","6501400","蘆洲區"
"247020","500-BY","2017/12/01 20:09:24","新北市蘆洲區民義街68巷24號","121.473941666667","25.08927","6501400","蘆洲區"
"247008","341-TH","2017/12/01 20:09:43","新北市蘆洲區三民路1號","121.475775","25.0816416666667","6501400","蘆洲區"
"247010","339-TH","2017/12/01 20:09:40","新北市蘆洲區信義路150號","121.47938","25.0832766666667","6501400","蘆洲區"
"247004","337-TH","2017/12/01 20:09:50","新北市蘆洲區永康街30號","121.458545","25.0855216666667","6501400","蘆洲區"
"247004","336-TH","2017/12/01 20:09:41","新北市蘆洲區永安南路二段328巷2號","121.45709","25.0830866666667","6501400","蘆洲區"
"247024","335-TH","2017/12/01 20:09:51","新北市蘆洲區光明路139號","121.464196666667","25.0884733333333","6501400","蘆洲區"
"247016","057-VK","2017/12/01 20:09:50","新北市蘆洲區光華路167號","121.46505","25.08204","6501400","蘆洲區"
"247006","056-VK","2017/12/01 20:09:51","新北市蘆洲區中山二路300巷1號","121.468526666667","25.07694","6501400","蘆洲區"
"247014","053-VK","2017/12/01 20:09:37","新北市蘆洲區中山二路212號","121.470065","25.0800166666667","6501400","蘆洲區"
"247018","001-UY","2017/12/01 20:09:43","新北市蘆洲區民族路314巷24號","121.47797","25.0904566666667","6501400","蘆洲區"
"223001","205-TH","2017/12/01 10:24:56","新北市石碇區小粗坑(潭邊里)9-2號","121.678445","24.9857066666667","6501900","石碇區"
"208003","665-BX","2017/12/01 20:09:36","新北市金山區香園6號","121.634301666667","25.2472416666667","6502700","金山區"
"251004","009-UM","2017/12/01 20:09:42","新北市淡水區民族路31巷35號","121.462158333333","25.1366016666667","6501000","淡水區"
"251013","180-VK","2017/12/01 20:09:47","新北市淡水區奎柔山路576號","121.468333333333","25.2050933333333","6501000","淡水區"
"251008","181-VK","2017/12/01 20:09:40","新北市淡水區淡海路72巷30弄17號","121.425078333333","25.1825983333333","6501000","淡水區"
"251015","182-VK","2017/12/01 20:09:49","新北市淡水區中山北路三段156號","121.445768333333","25.1953566666667","6501000","淡水區"
"251010","413-VK","2017/12/01 20:09:52","新北市淡水區新市二路二段2號","121.426358333333","25.1959183333333","6501000","淡水區"
"251012","441-VK","2017/12/01 20:09:46","新北市淡水區淡金路三段266號","121.448918333333","25.206715","6501000","淡水區"
"251006","561-UM","2017/12/01 20:09:45","新北市淡水區北新路141巷29號","121.448173333333","25.1795933333333","6501000","淡水區"
"251009","575-R6","2017/12/01 20:09:52","新北市淡水區中山路46-1號","121.444265","25.1702533333333","6501000","淡水區"
"251002","672-BX","2017/12/01 20:09:54","新北市淡水區中正路298號","121.437405","25.1721416666667","6501000","淡水區"
"207003","550-UM","2017/12/01 20:09:47","新北市萬里區大鵬里萬里加投166號","121.64354","25.215465","6502800","萬里區"
"207004","225-TW","2017/12/01 20:09:35","新北市萬里區北基里愛三街11號","121.681821666667","25.1766266666667","6502800","萬里區"
"252001","292-VK","2017/12/01 20:09:41","新北市三芝區公正街9號","121.499766666667","25.2574783333333","6502100","三芝區"
"252002","AAC-283","2017/12/01 20:09:48","新北市三芝區三民街39巷36號","121.505458333333","25.25746","6502100","三芝區"
"237007","153-BY","2017/12/01 20:09:55","新北市三峽區麻園40號","121.363795","24.9208283333333","6500900","三峽區"
"237012","275-BY","2017/12/01 20:09:37","新北市三峽區大同路196-2號","121.371008333333","24.9272216666667","6500900","三峽區"
"237006","5529-G3","2017/12/01 20:09:45","新北市三峽區嘉添181-3號","121.370261666667","24.9113183333333","6500900","三峽區"
"237015","649-BX","2017/12/01 20:09:48","新北市三峽區介壽路二段165號","121.394143333333","24.9359983333333","6500900","三峽區"
"237005","AKY-6261","2017/12/01 20:09:51","新北市三峽區三樹路98巷111號","121.382205","24.9387066666667","6500900","三峽區"
"236072","105-UM","2017/12/01 20:09:52","新北市土城區中央路三段185-5號","121.431566666667","24.964835","6501300","土城區"
"236043","107-UM","2017/12/01 20:09:53","新北市土城區學成路10號","121.453388333333","24.9865766666667","6501300","土城區"
"236079","166-UM","2017/12/01 19:30:25","新北市土城區中州路24巷5號","121.414781666667","24.957625","6501300","土城區"
"236031","253-BX","2017/12/01 20:09:38","新北市土城區中央路一段141號","121.446805","24.9879816666667","6501300","土城區"
"236027","269-VK","2017/12/01 20:09:53","新北市土城區裕生路83巷25號","121.447973333333","24.98391","6501300","土城區"
"236015","270-VK","2017/12/01 20:09:37","新北市土城區德興街135號","121.455121666667","24.9917316666667","6501300","土城區"
"236039","271-VK","2017/12/01 20:09:48","新北市土城區延吉街294號","121.46459","24.9841383333333","6501300","土城區"
"236022","401-BY","2017/12/01 20:09:54","新北市土城區延吉街75巷7號","121.472383333333","24.9869933333333","6501300","土城區"
"236059","912-UM","2017/12/01 20:09:54","新北市土城區中央路二段72號","121.442496666667","24.9790783333333","6501300","土城區"
"236050","913-UM","2017/12/01 20:09:55","新北市土城區金城路三段17號","121.465011666667","24.9863416666667","6501300","土城區"
"236063","915-UM","2017/12/01 20:09:53","新北市土城區金城路二段364號","121.462356666667","24.9853716666667","6501300","土城區"
"236055","AAC-216","2017/12/01 20:09:54","新北市土城區中華路一段22號","121.447491666667","24.9903066666667","6501300","土城區"
"242032","AAC-296","2017/12/01 20:09:39","新北市新莊區忠孝街29巷4號","121.443635","25.035725","6500500","新莊區"
"242029","986-R7","2017/12/01 20:09:41","新北市新莊區中榮街132號","121.445961666667","25.0528616666667","6500500","新莊區"
"242050","751-BX","2017/12/01 20:09:50","新北市新莊區民安西路172巷1弄1號","121.425768333333","25.015955","6500500","新莊區"
"242023","613-BX","2017/12/01 20:09:43","新北市新莊區化成路540-4號","121.466245","25.0534466666667","6500500","新莊區"
"242027","612-BX","2017/12/01 20:09:39","新北市新莊區中平路183號","121.444796666667","25.0494216666667","6500500","新莊區"
"242039","566-BX","2017/12/01 20:09:54","新北市新莊區民安西路79號","121.427253333333","25.0194833333333","6500500","新莊區"
"242044","497-BY","2017/12/01 20:09:44","桃園市龜山區萬壽路一段9號","121.410371666667","25.020925","6500500","新莊區"
"242048","441-UM","2017/12/01 20:09:46","新北市新莊區四維路150巷9號","121.42235","25.02331","6500500","新莊區"
"242054","440-UM","2017/12/01 20:09:41","新北市新莊區西盛街395巷40號","121.429105","25.0119683333333","6500500","新莊區"
"242034","415-TV","2017/12/01 20:09:56","新北市新莊區中正路318巷16號","121.446448333333","25.035965","6500500","新莊區"
"242005","413-TV","2017/12/01 20:09:48","新北市新莊區頭前路82號","121.466245","25.0523983333333","6500500","新莊區"
"242041","400-BY","2017/12/01 20:09:53","新北市新莊區中正路694巷134號","121.41601","25.0302516666667","6500500","新莊區"
"242060","362-BY","2017/12/01 20:09:57","新北市新莊區瓊林路瓊英巷1弄1號","121.443771666667","25.02729","6500500","新莊區"
"242058","353-BY","2017/12/01 20:09:46","新北市新莊區八德街135號","121.423826666667","25.0203166666667","6500500","新莊區"
"242037","133-UY","2017/12/01 20:09:45","新北市新莊區建安街17巷13號","121.429705","25.026585","6500500","新莊區"
"242021","135-UY","2017/12/01 20:09:42","新北市新莊區中興街42號","121.449266666667","25.0369516666667","6500500","新莊區"
"242046","172-VK","2017/12/01 20:09:51","新北市新莊區裕民街85巷18號","121.419333333333","25.0233366666667","6500500","新莊區"
"242009","173-VK","2017/12/01 20:09:33","新北市新莊區昌盛街35巷3弄1號","121.4541","25.0504033333333","6500500","新莊區"
"242015","175-VK","2017/12/01 20:09:39","新北市新莊區中平路26巷23號","121.446078333333","25.043265","6500500","新莊區"
"242013","346-TH","2017/12/01 20:09:38","新北市新莊區幸福路710巷5弄1號","121.449101666667","25.0498183333333","6500500","新莊區"
"242007","347-TH","2017/12/01 20:09:46","新北市新莊區福壽街184巷26號","121.459346666667","25.05322","6500500","新莊區"
"242019","348-TH","2017/12/01 20:09:46","新北市新莊區博愛路1巷2號","121.456521666667","25.042775","6500500","新莊區"
"242056","349-TH","2017/12/01 20:09:39","新北市新莊區新莊路649巷15弄1號","121.445025","25.0315483333333","6500500","新莊區"
"242017","350-TH","2017/12/01 20:09:40","新北市新莊區中港路371號","121.451746666667","25.0464583333333","6500500","新莊區"
"242011","351-TH","2017/12/01 20:09:43","新北市新莊區中信街53號","121.449658333333","25.0507133333333","6500500","新莊區"
"238021","KEA-2217","2017/12/01 20:09:39","新北市樹林區田尾街192巷10-1號","121.40017","24.9495733333333","6500700","樹林區"
"238025","303-VK","2017/12/01 20:09:53","新北市樹林區中山路三段204號","121.387113333333","24.9683683333333","6500700","樹林區"
"238020","268-VK","2017/12/01 20:09:40","新北市樹林區中山路三段204號","121.387268333333","24.968335","6500700","樹林區"
"239002","359-BY","2017/12/01 20:09:46","新北市鶯歌區二甲路12-2號","121.345561666667","24.9347466666667","6500800","鶯歌區"
"221008","489-VK","2017/12/01 20:09:53","台北市內湖區康樂街133號","121.619671666667","25.0739583333333","6501100","汐止區"
"221036","130-UY","2017/12/01 20:09:37","新北市汐止區新台五路二段118號","121.663126666667","25.066255","6501100","汐止區"
"221010","269-BY","2017/12/01 20:09:46","新北市汐止區八連路一段317號","121.639671666667","25.0860633333333","6501100","汐止區"
"221012","276-VK","2017/12/01 13:29:12","新北市汐止區汐萬路一段256巷3號","121.653463333333","25.074665","6501100","汐止區"
"221012","278-VK","2017/12/01 20:09:38","新北市汐止區汐平路二段62號","121.69725","25.0616716666667","6501100","汐止區"
"221023","279-VK","2017/12/01 20:09:43","新北市汐止區明峰街324號","121.624995","25.06737","6501100","汐止區"
"221032","280-BY","2017/12/01 20:09:40","新北市汐止區弘道街8巷5弄6號","121.617378333333","25.047855","6501100","汐止區"
"221027","281-BY","2017/12/01 20:09:54","新北市汐止區中正路119號","121.660393333333","25.06935","6501100","汐止區"
"221029","298-VK","2017/12/01 20:09:46","新北市汐止區樟樹一路119巷8-6號","121.641306666667","25.0644","6501100","汐止區"
"221021","299-VK","2017/12/01 20:09:38","新北市汐止區新台五路一段173號","121.65494","25.0628933333333","6501100","汐止區"
"221031","353-TW","2017/12/01 20:09:42","新北市汐止區中興路214巷7弄2號","121.631496666667","25.0667283333333","6501100","汐止區"
"221015","567-BX","2017/12/01 20:09:51","新北市汐止區建成路13號","121.664556666667","25.0726066666667","6501100","汐止區"
"221035","622-UM","2017/12/01 20:09:53","新北市汐止區長江街79巷17號","121.657696666667","25.07296","6501100","汐止區"
"221025","623-UM","2017/12/01 20:09:36","新北市汐止區水源路二段32號","121.654823333333","25.0572616666667","6501100","汐止區"
"221038","646-BX","2017/12/01 20:09:41","新北市汐止區大同路三段66-3號","121.66806","25.07728","6501100","汐止區"
"221033","647-BX","2017/12/01 20:09:50","新北市汐止區東勢街201巷104號","121.633551666667","25.0429533333333","6501100","汐止區"
"221018","753-BX","2017/12/01 20:09:55","新北市汐止區茄苳路324號","121.67361","25.0664183333333","6501100","汐止區"
"220101","245-BX","2017/12/01 20:09:54","新北市板橋區莒光路165巷12號","121.474093333333","25.0242033333333","6500100","板橋區"
"220071","283-VK","2017/12/01 20:09:44","新北市板橋區干城路167號","121.461243333333","24.9916366666667","6500100","板橋區"
"220083","286-VK","2017/12/01 20:09:56","新北市板橋區僑中二街90巷12號","121.445725","25.0093116666667","6500100","板橋區"
"220081","287-VK","2017/12/01 20:09:52","新北市板橋區僑中一街102巷5弄5號","121.446525","25.0125866666667","6500100","板橋區"
"220061","293-UM","2017/12/01 20:09:40","新北市板橋區縣民大道二段200巷32號","121.470218333333","25.017455","6500100","板橋區"
"220084","296-UM","2017/12/01 20:09:42","新北市板橋區金門街338號","121.428126666667","24.98457","6500100","板橋區"
"220010","305-R5","2017/12/01 15:54:36","新北市板橋區民生路二段56-6號","121.4711","25.0188516666667","6500100","板橋區"
"220092","307-R5","2017/12/01 20:09:40","新北市板橋區民權路202巷2弄10號","121.459496666667","25.0136933333333","6500100","板橋區"
"220064","486-VK","2017/12/01 20:09:39","新北市板橋區長安街331巷3號","121.474256666667","25.0121533333333","6500100","板橋區"
"220089","487-VK","2017/12/01 20:09:54","新北市板橋區互助街68號","121.461043333333","25.026615","6500100","板橋區"
"242002","280-VK","2017/12/01 20:09:52","新北市新莊區中正路145號","121.459698333333","25.0383783333333","6500500","新莊區"
"220088","491-VK","2017/12/01 20:09:42","新北市板橋區民治街85號","121.47957","25.0321866666667","6500100","板橋區"
"220103","561-BX","2017/12/01 20:09:47","新北市板橋區自由路24號","121.465751666667","25.0227416666667","6500100","板橋區"
"220057","686-BX","2017/12/01 20:09:40","新北市板橋區四川路二段130巷13號","121.44966","24.9940133333333","6500100","板橋區"
"220093","689-BX","2017/12/01 20:09:57","新北市板橋區長江路一段146巷2號","121.4608","25.02993","6500100","板橋區"
"220055","827-TW","2017/12/01 20:09:39","新北市板橋區仁愛路75號","121.460928333333","24.99975","6500100","板橋區"
"220067","829-TW","2017/12/01 20:09:48","新北市板橋區中山路二段113號","121.474825","25.01625","6500100","板橋區"
"220074","895-R6","2017/12/01 20:09:53","新北市板橋區華興街91巷4號","121.456446666667","25.0052016666667","6500100","板橋區"
"220097","AAC-210","2017/12/01 20:09:50","新北市板橋區光正街20巷5號","121.462585","25.0178133333333","6500100","板橋區"
"220070","AAC-253","2017/12/01 20:09:47","新北市板橋區四川路二段245巷57號","121.45229","24.9924416666667","6500100","板橋區"
