"lineid","car","time","location","longitude","latitude","cityid","cityname"
"234013","149-BY","2017/12/01 20:19:49","新北市永和區保生路46號","121.505661666667","25.0084883333333","6500400","永和區"
"234007","207-UY","2017/12/01 20:19:55","新北市永和區仁愛路264號","121.504355","25.0085433333333","6500400","永和區"
"234081","298-R6","2017/12/01 20:19:51","新北市永和區國中路146號","121.523103333333","25.0069783333333","6500400","永和區"
"234038","336-UY","2017/12/01 20:19:45","新北市永和區成功路一段93巷11號","121.52756","25.0027183333333","6500400","永和區"
"234064","337-UY","2017/12/01 20:19:43","新北市永和區得和路106號","121.517998333333","25.00012","6500400","永和區"
"234086","338-UY","2017/12/01 20:19:52","新北市永和區永和路二段70號","121.514885","25.011235","6500400","永和區"
"234070","552-UM","2017/12/01 20:19:48","新北市永和區福和路263巷11號","121.517948333333","25.0067866666667","6500400","永和區"
"234054","553-UM","2017/12/01 20:19:48","新北市永和區光復街2巷23號","121.51718","25.0166566666667","6500400","永和區"
"234017","745-BX","2017/12/01 20:19:40","新北市永和區仁愛路8號","121.515036666667","25.0135333333333","6500400","永和區"
"234030","746-BX","2017/12/01 20:19:40","新北市永和區民有街75巷10弄49號","121.519575","24.996015","6500400","永和區"
"234061","AAD-866","2017/12/01 20:19:45","新北市永和區得和路51-4號","121.516781666667","25.0000433333333","6500400","永和區"
"234042","862-TW","2017/12/01 20:19:47","新北市永和區安樂路208-1號","121.515083333333","25.00195","6500400","永和區"
"234050","863-TW","2017/12/01 20:19:43","新北市永和區新生路27號","121.509233333333","25.016675","6500400","永和區"
"234011","9373-KE","2017/12/01 20:19:48","新北市永和區保生路55-1號","121.50452","25.0108883333333","6500400","永和區"
"249005","172-UM","2017/12/01 20:19:46","新北市八里區中山路三段131號","121.388568333333","25.1423983333333","6502300","八里區"
"249001","173-UM","2017/12/01 20:19:44","新北市八里區中華路二段536-4號","121.399106666667","25.1450616666667","6502300","八里區"
"249004","303-UY","2017/12/01 20:19:53","新北市八里區中山路一段129巷45號","121.413898333333","25.1585816666667","6502300","八里區"
"249002","305-UY","2017/12/01 20:19:43","新北市八里區龍米路二段32巷18號","121.448918333333","25.1408033333333","6502300","八里區"
"249003","759-BX","2017/12/01 20:19:42","新北市八里區中山路二段447巷28號","121.397385","25.1451483333333","6502300","八里區"
"248012","247-BX","2017/12/01 20:19:54","新北市五股區民義路一段216-1號","121.430341666667","25.0895366666667","6501500","五股區"
"248010","272-BY","2017/12/01 20:19:40","新北市五股區成泰路一段34巷1號","121.435293333333","25.0685183333333","6501500","五股區"
"248004","677-BX","2017/12/01 20:19:48","新北市五股區成泰路一段239號","121.436908333333","25.0809066666667","6501500","五股區"
"248002","678-BX","2017/12/01 20:19:44","新北市五股區成泰路三段101-1號","121.444095","25.0903183333333","6501500","五股區"
"234023","9380-KE","2017/12/01 20:19:53","新北市永和區永和路二段278號","121.51596","25.01534","6500400","永和區"
"234077","969-R7","2017/12/01 20:19:52","新北市永和區民享街11號","121.515403333333","24.9953483333333","6500400","永和區"
"234074","AAC-211","2017/12/01 20:19:47","新北市永和區竹林路201巷24弄1號","121.522353333333","25.00964","6500400","永和區"
"234067","AAC-212","2017/12/01 20:19:40","新北市永和區保平路262號","121.508883333333","25.0051916666667","6500400","永和區"
"234003","AAC-295","2017/12/01 20:19:37","新北市永和區大新街50號","121.516013333333","25.0082666666667","6500400","永和區"
"244019","403-UM","2017/12/01 19:55:10","新北市林口區粉寮69號","121.404975","25.0908766666667","6501700","林口區"
"243011","267-VK","2017/12/01 20:19:42","新北市新莊區壽山路160巷21號","121.417445","25.0318816666667","6501600","泰山區"
"243012","AAD-798","2017/12/01 20:19:50","新北市泰山區和平街80號","121.43523","25.0643933333333","6501600","泰山區"
"243009","297-R6","2017/12/01 20:19:47","新北市泰山區泰林路二段292巷13號","121.431195","25.06369","6501600","泰山區"
"243015","380-SR","2017/12/01 20:19:49","新北市泰山區泰林路二段109-1號","121.434566666667","25.0591983333333","6501600","泰山區"
"243014","421-VK","2017/12/01 20:19:52","新北市泰山區泰林路二段418號","121.427115","25.0643433333333","6501600","泰山區"
"243010","KEA-2215","2017/12/01 20:19:58","新北市泰山區明志路二段273巷12號","121.427305","25.04719","6501600","泰山區"
"243013","646-TV","2017/12/01 20:19:41","新北市泰山區中央路5巷17弄6號","121.427276666667","25.0436166666667","6501600","泰山區"
"243016","680-BX","2017/12/01 20:19:42","新北市泰山區明志路三段3號","121.424821666667","25.0433683333333","6501600","泰山區"
"222003","436-BY","2017/12/01 20:19:40","新北市深坑區文化街86號","121.617633333333","25.0019166666667","6501800","深坑區"
"222002","659-BX","2017/12/01 20:19:46","新北市深坑區萬福路75巷26號","121.599021666667","25.009725","6501800","深坑區"
"222001","696-SL","2017/12/01 20:19:51","新北市深坑區北深路三段260號","121.599516666667","25.004405","6501800","深坑區"
"231041","001-UM","2017/12/01 20:19:48","新北市新店區民權路46-1號","121.540083333333","24.9829583333333","6500600","新店區"
"231059","046-UY","2017/12/01 20:19:54","新北市新店區安德街155號","121.508335","24.9596733333333","6500600","新店區"
"231061","047-UY","2017/12/01 20:19:41","新北市新店區安民街133巷26號","121.515498333333","24.9693983333333","6500600","新店區"
"231060","106-UY","2017/12/01 20:19:56","新北市新店區錦秀路11巷92弄2號","121.480301666667","24.9427883333333","6500600","新店區"
"231051","107-UY","2017/12/01 20:19:51","新北市新店區中央六街30號","121.529206666667","24.9750666666667","6500600","新店區"
"231048","108-UY","2017/12/01 20:19:40","新北市新店區中興路三段242號","121.543068333333","24.983735","6500600","新店區"
"231053","187-VK","2017/12/01 20:19:48","新北市新店區新烏路三段7號","121.552485","24.9061633333333","6500600","新店區"
"231050","KEA-2219","2017/12/01 20:19:36","新北市新店區北新路一段96巷23號","121.542746666667","24.9686783333333","6500600","新店區"
"231057","256-BX","2017/12/01 20:19:52","新北市新店區花園十二路1號","121.55479","24.934735","6500600","新店區"
"231063","268-BY","2017/12/01 20:19:43","新北市新店區薏仁坑路自強巷6號","121.496646666667","24.95846","6500600","新店區"
"231054","AAD-862","2017/12/01 20:19:51","新北市新店區檳榔路123號","121.544725","24.9614816666667","6500600","新店區"
"231056","3713-VJ","2017/12/01 20:19:38","新北市新店區中正路275巷27號","121.536998333333","24.97309","6500600","新店區"
"231055","4716-K9","2017/12/01 20:19:51","新北市新店區北新路一段303號","121.541336666667","24.9674933333333","6500600","新店區"
"231067","4772-VM","2017/12/01 20:19:42","新北市新店區溪洲路8巷120-1號","121.533096666667","24.9631433333333","6500600","新店區"
"231064","515-UM","2017/12/01 20:19:56","新北市新店區安利街26號","121.519241666667","24.974575","6500600","新店區"
"231042","616-UM","2017/12/01 20:19:37","新北市新店區中興路二段231號","121.547733333333","24.9748166666667","6500600","新店區"
"231045","617-UM","2017/12/01 20:19:50","新北市新店區新坡一街80-3號","121.547741666667","24.9645116666667","6500600","新店區"
"231040","619-UM","2017/12/01 20:19:38","新北市新店區中正路218號","121.540265","24.9726","6500600","新店區"
"231068","718-UY","2017/12/01 20:19:43","新北市新店區寶安街18號","121.542115","24.98188","6500600","新店區"
"231049","719-UM","2017/12/01 20:19:47","新北市新店區安康路一段9-2號","121.53374","24.9606483333333","6500600","新店區"
"231065","719-UY","2017/12/01 20:19:35","新北市新店區安祥路104巷6弄24號","121.482458333333","24.9625066666667","6500600","新店區"
"231062","720-UM","2017/12/01 20:19:55","新北市新店區安泰路7巷16號","121.48569","24.95099","6500600","新店區"
"231044","897-TW","2017/12/01 20:19:53","新北市新店區北新路三段118號","121.54164","24.9817216666667","6500600","新店區"
"231043","899-TW","2017/12/01 20:19:55","新北市新店區建國路131號","121.539401666667","24.97815","6500600","新店區"
"231066","AKT-0513","2017/12/01 20:19:38","新北市新店區安興路112號","121.514586666667","24.9776416666667","6500600","新店區"
"241028","022-UY","2017/12/01 20:19:54","新北市三重區大同南路128號","121.496341666667","25.0582883333333","6500200","三重區"
"241008","059-VK","2017/12/01 20:19:34","新北市三重區永福街144號","121.480181666667","25.0745283333333","6500200","三重區"
"241009","060-VK","2017/12/01 20:19:40","新北市三重區三和路四段382巷51號","121.481196666667","25.0785466666667","6500200","三重區"
"241031","061-VK","2017/12/01 20:19:39","新北市三重區三寧街15號","121.489495","25.0597983333333","6500200","三重區"
"241015","062-VK","2017/12/01 20:19:44","新北市三重區重新路一段138號","121.500226666667","25.0628216666667","6500200","三重區"
"241017","063-VK","2017/12/01 20:19:38","新北市三重區自強路一段167號","121.493093333333","25.0673266666667","6500200","三重區"
"241024","065-VK","2017/12/01 20:19:49","新北市三重區忠孝路二段160號","121.482118333333","25.067935","6500200","三重區"
"241026","066-VK","2017/12/01 20:19:47","新北市三重區福德南路24巷2號","121.503108333333","25.0633616666667","6500200","三重區"
"241002","090-VK","2017/12/01 20:19:51","新北市三重區五華街21巷7號","121.495126666667","25.08079","6500200","三重區"
"241003","091-VK","2017/12/01 20:19:43","新北市三重區富華街138號","121.492056666667","25.0842433333333","6500200","三重區"
"241005","262-UM","2017/12/01 20:19:43","新北市三重區碧華街328號","121.490176666667","25.083785","6500200","三重區"
"241011","265-UM","2017/12/01 20:19:52","新北市三重區龍門路180號","121.499276666667","25.07334","6500200","三重區"
"241016","266-UM","2017/12/01 20:19:38","新北市三重區大同北路56-3號","121.494116666667","25.0637683333333","6500200","三重區"
"241022","267-UM","2017/12/01 20:19:53","新北市三重區市前街2號","121.489045","25.0619333333333","6500200","三重區"
"241018","268-UM","2017/12/01 20:19:53","新北市三重區自強路一段155-1號","121.493563333333","25.0670683333333","6500200","三重區"
"241032","269-UM","2017/12/01 20:19:50","新北市三重區捷運路19巷8弄14號","121.484421666667","25.0572383333333","6500200","三重區"
"241013","270-UM","2017/12/01 20:19:35","新北市三重區三和路三段167巷14號","121.492413333333","25.0742333333333","6500200","三重區"
"241025","271-UM","2017/12/01 20:19:39","新北市三重區頂崁街210巷26號","121.476013333333","25.068015","6500200","三重區"
"241007","398-BY","2017/12/01 20:19:41","新北市三重區溪尾街108巷53號","121.487663333333","25.0782716666667","6500200","三重區"
"241030","KEA-2210","2017/12/01 20:19:47","新北市三重區環河南路254巷61號","121.487873333333","25.0523233333333","6500200","三重區"
"241004","475-VK","2017/12/01 20:19:51","新北市三重區自強路四段107號","121.491528333333","25.0798383333333","6500200","三重區"
"241019","478-VK","2017/12/01 20:19:51","新北市三重區忠孝路一段75號","121.490588333333","25.0720483333333","6500200","三重區"
"241014","543-UM","2017/12/01 20:19:42","新北市三重區龍濱路249號","121.501511666667","25.0724983333333","6500200","三重區"
"241023","545-UM","2017/12/01 20:19:37","新北市三重區忠孝路三段99巷4號","121.480225","25.0642683333333","6500200","三重區"
"241001","547-UM","2017/12/01 20:19:47","新北市三重區溪尾街38號","121.490685","25.0768083333333","6500200","三重區"
"241035","743-BX","2017/12/01 20:19:41","新北市三重區重新路二段1-2號","121.499583333333","25.062815","6500200","三重區"
"241012","941-UM","2017/12/01 20:19:55","新北市三重區河邊北街262號","121.501548333333","25.0763533333333","6500200","三重區"
"241029","942-UM","2017/12/01 20:19:58","新北市三重區重安街83號","121.492633333333","25.0559316666667","6500200","三重區"
"241033","AAC-255","2017/12/01 20:19:53","新北市三重區五谷王北街50巷34號","121.475276666667","25.0514016666667","6500200","三重區"
"235066","003-UY","2017/12/01 20:19:42","新北市中和區中山路二段3巷22弄12號","121.506031666667","25.004925","6500300","中和區"
"235039","097-UM","2017/12/01 20:19:41","新北市中和區立人街24-5號","121.518795","24.9941166666667","6500300","中和區"
"235065","098-UM","2017/12/01 20:19:56","新北市中和區福美路315號","121.496793333333","25.0046916666667","6500300","中和區"
"235040","150-BY","2017/12/01 20:19:41","新北市中和區安平路38號","121.50995","24.9950016666667","6500300","中和區"
"235050","4979-A6","2017/12/01 20:19:53","新北市中和區景平路404號","121.509131666667","24.99315","6500300","中和區"
"235069","4980-A6","2017/12/01 20:19:56","新北市中和區中正路432巷28號","121.490958333333","24.995525","6500300","中和區"
"235042","551-UM","2017/12/01 20:19:43","新北市新店區安德街60巷35號","121.511035","24.9637","6500300","中和區"
"235070","558-UM","2017/12/01 20:19:48","新北市中和區中正路830號","121.484848333333","25.0041466666667","6500300","中和區"
"235059","AAC-215","2017/12/01 20:19:48","新北市中和區員山路8-6號","121.484893333333","24.9813083333333","6500300","中和區"
"220065","072-UY","2017/12/01 20:19:46","新北市板橋區民治街57巷32-1號","121.481548333333","25.0364083333333","6500100","板橋區"
"220102","120-SR","2017/12/01 20:19:45","新北市板橋區文化路一段247號","121.464353333333","25.01802","6500100","板橋區"
"247022","893-R6","2017/12/01 20:19:46","新北市蘆洲區民族路556號","121.467591666667","25.0888983333333","6501400","蘆洲區"
"247012","546-UM","2017/12/01 20:19:56","新北市蘆洲區中興街15巷10號","121.480463333333","25.0873316666667","6501400","蘆洲區"
"247020","500-BY","2017/12/01 20:19:44","新北市蘆洲區仁愛街145巷3-1號","121.469921666667","25.0947666666667","6501400","蘆洲區"
"247008","341-TH","2017/12/01 20:19:43","新北市蘆洲區集賢路227-1號","121.482365","25.0862066666667","6501400","蘆洲區"
"247010","339-TH","2017/12/01 20:19:57","新北市蘆洲區信義路269號","121.478956666667","25.08505","6501400","蘆洲區"
"247004","337-TH","2017/12/01 20:19:50","新北市蘆洲區長安街331巷36號","121.455873333333","25.0866383333333","6501400","蘆洲區"
"247004","336-TH","2017/12/01 20:19:41","新北市蘆洲區長安街220巷9號","121.459323333333","25.0850183333333","6501400","蘆洲區"
"247024","335-TH","2017/12/01 20:19:51","新北市蘆洲區光榮路120巷8弄39號","121.464586666667","25.087955","6501400","蘆洲區"
"247016","057-VK","2017/12/01 20:19:50","新北市蘆洲區光華路132巷26號","121.465845","25.0834566666667","6501400","蘆洲區"
"247006","056-VK","2017/12/01 20:19:55","新北市蘆洲區九芎街167巷6號","121.464983333333","25.07857","6501400","蘆洲區"
"247014","053-VK","2017/12/01 20:19:57","新北市蘆洲區中山一路275號","121.472306666667","25.0798266666667","6501400","蘆洲區"
"247018","001-UY","2017/12/01 20:19:43","新北市蘆洲區民族路408巷16號","121.475031666667","25.092135","6501400","蘆洲區"
"223001","205-TH","2017/12/01 10:24:56","新北市石碇區小粗坑(潭邊里)9-2號","121.678445","24.9857066666667","6501900","石碇區"
"251004","009-UM","2017/12/01 20:19:41","新北市淡水區中正東路二段143巷6弄1號","121.461093333333","25.1474183333333","6501000","淡水區"
"251013","180-VK","2017/12/01 20:19:38","新北市淡水區相公山1-3號","121.474203333333","25.206695","6501000","淡水區"
"251008","181-VK","2017/12/01 20:19:40","新北市淡水區淡海路180巷29號","121.42189","25.1845466666667","6501000","淡水區"
"251015","182-VK","2017/12/01 20:19:49","新北市淡水區淡金路四段542巷17號","121.452611666667","25.2270866666667","6501000","淡水區"
"251010","413-VK","2017/12/01 20:19:52","新北市淡水區新民街一段132號","121.428011666667","25.1886283333333","6501000","淡水區"
"251012","441-VK","2017/12/01 20:19:46","新北市淡水區興仁路40巷7號","121.453076666667","25.2161933333333","6501000","淡水區"
"251006","561-UM","2017/12/01 20:19:45","新北市淡水區北新路169巷6號","121.450191666667","25.17958","6501000","淡水區"
"251002","672-BX","2017/12/01 20:19:23","新北市淡水區中正路148號","121.440841666667","25.169675","6501000","淡水區"
"251003","673-BX","2017/12/01 20:19:36","新北市淡水區中山北路一段229號","121.444463333333","25.179445","6501000","淡水區"
"207004","225-TW","2017/12/01 20:19:55","新北市萬里區北基里仁一街2號","121.682836666667","25.1757233333333","6502800","萬里區"
"252001","292-VK","2017/12/01 20:19:41","新北市三芝區中山路一段14號","121.500691666667","25.258015","6502100","三芝區"
"252002","AAC-283","2017/12/01 20:19:48","新北市三芝區中正路一段18巷6號","121.503365","25.2589283333333","6502100","三芝區"
"237006","5529-G3","2017/12/01 20:19:45","新北市三峽區中正路二段39號","121.366765","24.9188433333333","6500900","三峽區"
"237005","AKY-6261","2017/12/01 20:19:50","新北市三峽區三樹路98巷93號","121.38199","24.939935","6500900","三峽區"
"236072","105-UM","2017/12/01 20:19:52","新北市土城區福安街31號","121.419443333333","24.9647066666667","6501300","土城區"
"236031","253-BX","2017/12/01 20:19:38","新北市土城區學成路128巷11號","121.449553333333","24.9900833333333","6501300","土城區"
"236027","269-VK","2017/12/01 20:19:53","新北市土城區中央路一段211巷6弄6號","121.446256666667","24.98618","6501300","土城區"
"236015","270-VK","2017/12/01 20:19:57","新北市土城區四川路2號","121.455863333333","24.9962433333333","6501300","土城區"
"236039","271-VK","2017/12/01 20:19:48","新北市土城區明德路一段232號","121.460581666667","24.97741","6501300","土城區"
"236022","401-BY","2017/12/01 20:19:56","新北市土城區延吉街55號","121.472236666667","24.9875683333333","6501300","土城區"
"236059","912-UM","2017/12/01 20:19:54","新北市土城區中央路三段46號","121.437303333333","24.96772","6501300","土城區"
"242032","AAC-296","2017/12/01 20:19:43","新北市新莊區義豐街35-1號","121.441203333333","25.035335","6500500","新莊區"
"242029","986-R7","2017/12/01 20:19:41","新北市新莊區中原路512號","121.447028333333","25.0546283333333","6500500","新莊區"
"242050","751-BX","2017/12/01 20:19:50","新北市新莊區民安西路231號","121.426091666667","25.0141566666667","6500500","新莊區"
"242023","613-BX","2017/12/01 20:19:51","新北市新莊區化成路758號","121.465371666667","25.0585216666667","6500500","新莊區"
"242027","612-BX","2017/12/01 20:19:39","新北市新莊區幸福路610號","121.451775","25.0491983333333","6500500","新莊區"
"242039","566-BX","2017/12/01 20:19:41","新北市新莊區龍安路469號","121.42502","25.0183116666667","6500500","新莊區"
"242044","497-BY","2017/12/01 20:19:44","新北市新莊區中正路新建巷28弄20號","121.413628333333","25.0214266666667","6500500","新莊區"
"242048","441-UM","2017/12/01 20:19:45","新北市新莊區四維路182巷8號","121.421863333333","25.0218316666667","6500500","新莊區"
"242054","440-UM","2017/12/01 20:19:42","新北市新莊區民安西路265號","121.426141666667","25.0129983333333","6500500","新莊區"
"242034","415-TV","2017/12/01 20:19:47","新北市新莊區仁愛街54巷12號","121.444953333333","25.0369916666667","6500500","新莊區"
"242005","413-TV","2017/12/01 20:19:48","新北市新莊區化成路554巷18號","121.467108333333","25.053945","6500500","新莊區"
"242041","400-BY","2017/12/01 20:19:57","新北市新莊區天祥街54巷1弄1號","121.41661","25.0292533333333","6500500","新莊區"
"242060","362-BY","2017/12/01 20:19:36","新北市新莊區新莊路751巷92號","121.442433333333","25.0305766666667","6500500","新莊區"
"242058","353-BY","2017/12/01 20:19:46","新北市新莊區龍安路266巷11號","121.42149","25.0187366666667","6500500","新莊區"
"242037","133-UY","2017/12/01 20:19:45","新北市新莊區建安街62巷1弄11號","121.426491666667","25.0245216666667","6500500","新莊區"
"242021","135-UY","2017/12/01 20:19:42","新北市新莊區和興街43號","121.446653333333","25.0405016666667","6500500","新莊區"
"242046","172-VK","2017/12/01 20:19:49","新北市新莊區中正路新生巷43號","121.417501666667","25.0233133333333","6500500","新莊區"
"242009","173-VK","2017/12/01 20:19:53","新北市新莊區昌平街1號","121.454785","25.0513666666667","6500500","新莊區"
"242015","175-VK","2017/12/01 20:19:39","新北市新莊區中和街31巷22號","121.447131666667","25.0438683333333","6500500","新莊區"
"242013","346-TH","2017/12/01 20:19:41","新北市新莊區中平路270巷7弄16號","121.445656666667","25.0508866666667","6500500","新莊區"
"242007","347-TH","2017/12/01 20:19:46","新北市新莊區福壽街124巷41弄6號","121.459303333333","25.051515","6500500","新莊區"
"242019","348-TH","2017/12/01 20:19:46","新北市新莊區銘德街11號","121.459065","25.043745","6500500","新莊區"
"242056","349-TH","2017/12/01 20:19:39","新北市新莊區新莊路649巷7號","121.445186666667","25.032305","6500500","新莊區"
"242017","350-TH","2017/12/01 20:19:56","新北市新莊區中港一街131號","121.448258333333","25.0451416666667","6500500","新莊區"
"242011","351-TH","2017/12/01 20:19:44","新北市新莊區中信街3號","121.451418333333","25.0507283333333","6500500","新莊區"
"238020","268-VK","2017/12/01 20:19:40","新北市樹林區中山路三段204號","121.387101666667","24.9683916666667","6500700","樹林區"
"221008","489-VK","2017/12/01 20:19:54","新北市汐止區康寧街309號","121.6271","25.0673983333333","6501100","汐止區"
"221036","130-UY","2017/12/01 20:19:37","新北市汐止區福安街61巷14號","121.664926666667","25.0637116666667","6501100","汐止區"
"221010","269-BY","2017/12/01 20:19:46","新北市汐止區八連路二段551巷2號","121.628226666667","25.1078466666667","6501100","汐止區"
"221012","276-VK","2017/12/01 13:29:12","新北市汐止區汐萬路一段256巷3號","121.653463333333","25.074665","6501100","汐止區"
"221012","278-VK","2017/12/01 20:19:38","新北市汐止區保新街159號","121.688476666667","25.0691366666667","6501100","汐止區"
"221023","279-VK","2017/12/01 20:19:47","新北市汐止區湖東街5巷37號","121.635036666667","25.0736066666667","6501100","汐止區"
"221032","280-BY","2017/12/01 20:19:40","新北市汐止區民權街二段37號","121.619495","25.04958","6501100","汐止區"
"221027","281-BY","2017/12/01 20:19:54","新北市汐止區大同路二段477號","121.660566666667","25.0682083333333","6501100","汐止區"
"221029","298-VK","2017/12/01 20:19:46","新北市汐止區樟樹二路101-1號","121.63995","25.063075","6501100","汐止區"
"221021","299-VK","2017/12/01 20:19:38","新北市汐止區水源路一段291巷1號","121.654406666667","25.0583816666667","6501100","汐止區"
"221031","353-TW","2017/12/01 20:19:42","新北市汐止區中興路150巷13號","121.633045","25.0649833333333","6501100","汐止區"
"221015","567-BX","2017/12/01 20:19:51","新北市汐止區建成路160巷16號","121.6619","25.073965","6501100","汐止區"
"221035","622-UM","2017/12/01 20:19:52","新北市汐止區長江街101-5號","121.65868","25.0731983333333","6501100","汐止區"
"221025","623-UM","2017/12/01 20:19:56","新北市汐止區水源路二段72巷9弄3號","121.655726666667","25.0556633333333","6501100","汐止區"
"221038","646-BX","2017/12/01 20:19:41","新北市汐止區忠孝東路480號","121.666318333333","25.0737516666667","6501100","汐止區"
"221033","647-BX","2017/12/01 20:19:50","新北市汐止區東勢街201巷92號","121.63394","25.04315","6501100","汐止區"
"221018","753-BX","2017/12/01 20:19:55","新北市汐止區茄苳路252號","121.671541666667","25.0684016666667","6501100","汐止區"
"220101","245-BX","2017/12/01 20:19:54","新北市板橋區雙十路二段110號","121.474228333333","25.0286216666667","6500100","板橋區"
"220083","286-VK","2017/12/01 20:19:56","新北市板橋區僑中二街102巷16號","121.445466666667","25.008345","6500100","板橋區"
"220061","293-UM","2017/12/01 20:19:39","新北市板橋區中山路一段34號","121.460476666667","25.0086416666667","6500100","板橋區"
"220010","305-R5","2017/12/01 15:54:36","新北市板橋區民生路二段56-6號","121.4711","25.0188516666667","6500100","板橋區"
"220089","487-VK","2017/12/01 20:19:54","新北市板橋區四維路152號","121.46493","25.0257533333333","6500100","板橋區"
"242002","280-VK","2017/12/01 20:19:47","新北市新莊區化成路7號","121.464866666667","25.0428916666667","6500500","新莊區"
"220103","561-BX","2017/12/01 20:19:47","新北市板橋區新海路69號","121.461775","25.0217966666667","6500100","板橋區"
"220055","827-TW","2017/12/01 20:19:39","新北市板橋區仁愛路21號","121.458861666667","24.9994533333333","6500100","板橋區"
"220097","AAC-210","2017/12/01 20:19:49","新北市板橋區光正街45巷6弄1號","121.461691666667","25.01696","6500100","板橋區"
"220070","AAC-253","2017/12/01 20:19:41","新北市板橋區南雅南路二段152號","121.451716666667","24.9957316666667","6500100","板橋區"
