"lineid","car","time","location","longitude","latitude","cityid","cityname"
"234064","337-UY","2017/12/01 20:39:43","新北市永和區永和路二段304號","121.516218333333","25.0159216666667","6500400","永和區"
"234030","746-BX","2017/12/01 20:39:40","新北市永和區得和路320號","121.52293","24.999315","6500400","永和區"
"234011","9373-KE","2017/12/01 20:39:48","新北市永和區保生路55-1號","121.504485","25.0109","6500400","永和區"
"249001","173-UM","2017/12/01 20:39:44","新北市八里區下罟子15-9號","121.380513333333","25.139645","6502300","八里區"
"249004","303-UY","2017/12/01 20:39:53","新北市八里區中山路一段63號","121.418321666667","25.1594916666667","6502300","八里區"
"249002","305-UY","2017/12/01 20:39:43","新北市八里區中華路二段103-1號","121.409503333333","25.1522116666667","6502300","八里區"
"234023","9380-KE","2017/12/01 20:39:53","新北市永和區竹林路25巷34號","121.518158333333","25.0149416666667","6500400","永和區"
"234074","AAC-211","2017/12/01 20:39:47","新北市永和區竹林路97號","121.51969","25.0120666666667","6500400","永和區"
"244019","403-UM","2017/12/01 19:55:10","新北市林口區粉寮69號","121.404975","25.0908766666667","6501700","林口區"
"243011","267-VK","2017/12/01 20:39:42","新北市泰山區明志路二段247號","121.42709","25.0478633333333","6501600","泰山區"
"222003","436-BY","2017/12/01 20:39:40","新北市深坑區文山路二段30巷31號","121.615366666667","24.9986366666667","6501800","深坑區"
"222002","659-BX","2017/12/01 20:39:46","新北市深坑區萬福路43號","121.599378333333","25.0068816666667","6501800","深坑區"
"222001","696-SL","2017/12/01 20:39:51","新北市深坑區北深路三段234號","121.60063","25.00406","6501800","深坑區"
"231041","001-UM","2017/12/01 20:39:58","新北市新店區中正路566號","121.533848333333","24.987645","6500600","新店區"
"231059","046-UY","2017/12/01 20:39:42","新北市新店區僑愛三路5號","121.499791666667","24.9445916666667","6500600","新店區"
"231061","047-UY","2017/12/01 20:39:41","新北市新店區新和街39號","121.519326666667","24.9850316666667","6500600","新店區"
"231060","106-UY","2017/12/01 20:39:56","新北市新店區安康路三段738號","121.473875","24.9419633333333","6500600","新店區"
"231051","107-UY","2017/12/01 20:39:51","新北市新店區中央八街80號","121.527385","24.9770966666667","6500600","新店區"
"231048","108-UY","2017/12/01 20:39:40","新北市新店區寶元路一段109號","121.54574","24.9831266666667","6500600","新店區"
"231053","187-VK","2017/12/01 20:39:51","新北市新店區廣興路2號","121.546516666667","24.9118566666667","6500600","新店區"
"231050","KEA-2219","2017/12/01 20:39:56","新北市新店區建興街7號","121.539951666667","24.9764133333333","6500600","新店區"
"231057","256-BX","2017/12/01 20:39:52","新北市新店區花園六路二段9-2號","121.555696666667","24.93289","6500600","新店區"
"231063","268-BY","2017/12/01 20:39:43","新北市新店區玫瑰路4-1號","121.493593333333","24.9513933333333","6500600","新店區"
"231054","AAD-862","2017/12/01 20:39:51","新北市新店區行政街8-1號","121.542631666667","24.9667466666667","6500600","新店區"
"231056","3713-VJ","2017/12/01 20:39:38","新北市新店區中正路468號","121.533913333333","24.9794766666667","6500600","新店區"
"231064","515-UM","2017/12/01 20:39:47","新北市新店區安和路三段171號","121.515953333333","24.98608","6500600","新店區"
"231042","616-UM","2017/12/01 20:39:37","新北市新店區寶高路118號","121.554535","24.9759216666667","6500600","新店區"
"231045","617-UM","2017/12/01 20:39:50","新北市新店區長春路557-1號","121.552641666667","24.9599916666667","6500600","新店區"
"231040","619-UM","2017/12/01 20:39:37","新北市新店區中正路272號","121.538896666667","24.9735983333333","6500600","新店區"
"231068","718-UY","2017/12/01 20:39:43","新北市新店區寶慶街35巷6號","121.543095","24.9863133333333","6500600","新店區"
"231049","719-UM","2017/12/01 20:39:47","新北市新店區永業路81巷1弄15號","121.530235","24.950295","6500600","新店區"
"231065","719-UY","2017/12/01 20:39:55","新北市新店區安祥路102巷21號","121.484845","24.9645933333333","6500600","新店區"
"231062","720-UM","2017/12/01 20:39:55","新北市新店區雙城路2巷1號","121.491256666667","24.9512466666667","6500600","新店區"
"231044","897-TW","2017/12/01 20:39:53","新北市新店區建國路293巷2號","121.53698","24.9858216666667","6500600","新店區"
"231043","899-TW","2017/12/01 20:39:55","新北市新店區建國路8-1號","121.539971666667","24.973485","6500600","新店區"
"231066","AKT-0513","2017/12/01 20:39:38","新北市新店區安興路105-1號","121.514598333333","24.9776816666667","6500600","新店區"
"241028","022-UY","2017/12/01 20:39:54","新北市三重區光興街95號","121.497273333333","25.0599266666667","6500200","三重區"
"241008","059-VK","2017/12/01 20:39:54","新北市三重區下竹圍街42號","121.481028333333","25.0748516666667","6500200","三重區"
"241009","060-VK","2017/12/01 20:39:40","新北市三重區碧華街51號","121.484646666667","25.0812566666667","6500200","三重區"
"241031","061-VK","2017/12/01 20:39:19","新北市三重區重陽路一段43巷30號","121.488255","25.05858","6500200","三重區"
"241015","062-VK","2017/12/01 20:39:44","新北市三重區文化北路119號","121.497793333333","25.06865","6500200","三重區"
"241017","063-VK","2017/12/01 20:39:38","新北市三重區大同北路261號","121.490931666667","25.0671666666667","6500200","三重區"
"241024","065-VK","2017/12/01 20:39:51","新北市三重區中正北路171號","121.478195","25.0694566666667","6500200","三重區"
"241002","090-VK","2017/12/01 20:39:51","新北市三重區仁義街167巷22號","121.497843333333","25.0820366666667","6500200","三重區"
"241005","262-UM","2017/12/01 20:39:43","新北市三重區集賢路87-1號","121.49395","25.0869683333333","6500200","三重區"
"241011","265-UM","2017/12/01 20:39:53","新北市三重區龍濱路219巷8號","121.502133333333","25.0721116666667","6500200","三重區"
"241016","266-UM","2017/12/01 20:39:39","新北市三重區長壽西街89號","121.49502","25.06699","6500200","三重區"
"241022","267-UM","2017/12/01 20:39:45","新北市三重區過圳街27-5號","121.487958333333","25.06233","6500200","三重區"
"241018","268-UM","2017/12/01 20:39:53","新北市三重區重陽路四段11號","121.491098333333","25.06911","6500200","三重區"
"241032","269-UM","2017/12/01 20:39:50","新北市三重區重陽路一段120巷37號","121.484995","25.0602316666667","6500200","三重區"
"241013","270-UM","2017/12/01 20:39:35","新北市三重區仁愛街129巷2號","121.49563","25.0750133333333","6500200","三重區"
"241025","271-UM","2017/12/01 20:39:37","新北市三重區忠孝路三段93巷12號","121.478636666667","25.0649366666667","6500200","三重區"
"241007","398-BY","2017/12/01 20:39:41","新北市三重區自強路四段2號","121.48833","25.0760066666667","6500200","三重區"
"241030","KEA-2210","2017/12/01 20:39:47","新北市三重區成功路73巷11號","121.489453333333","25.051915","6500200","三重區"
"241004","475-VK","2017/12/01 20:39:51","新北市三重區仁愛街426號","121.489796666667","25.0817483333333","6500200","三重區"
"241019","478-VK","2017/12/01 20:39:51","新北市三重區安慶街四段66號","121.491816666667","25.0706166666667","6500200","三重區"
"241014","543-UM","2017/12/01 20:39:42","新北市三重區萬全街19號","121.499798333333","25.069625","6500200","三重區"
"241023","545-UM","2017/12/01 20:39:37","新北市三重區自由街61號","121.478105","25.0665","6500200","三重區"
"241001","547-UM","2017/12/01 20:39:47","新北市三重區自強路三段110巷19號","121.486263333333","25.074575","6500200","三重區"
"241035","743-BX","2017/12/01 20:39:56","新北市三重區正義北路351號","121.493268333333","25.0719516666667","6500200","三重區"
"241012","941-UM","2017/12/01 20:39:55","新北市三重區龍濱路243巷12號","121.501966666667","25.0728483333333","6500200","三重區"
"241029","942-UM","2017/12/01 20:39:47","新北市三重區集美街126巷23號","121.48988","25.0537116666667","6500200","三重區"
"241033","AAC-255","2017/12/01 20:39:53","新北市三重區光復路二段3-1號","121.474233333333","25.05381","6500200","三重區"
"235069","4980-A6","2017/12/01 20:39:36","新北市中和區員山路381巷1弄2號","121.480901666667","25.00238","6500300","中和區"
"235042","551-UM","2017/12/01 20:39:23","新北市中和區中正路637巷60弄61號","121.485363333333","24.99325","6500300","中和區"
"247022","893-R6","2017/12/01 20:39:46","新北市蘆洲區中正路263巷9號","121.46671","25.0869266666667","6501400","蘆洲區"
"247012","546-UM","2017/12/01 20:39:53","新北市蘆洲區集賢路224巷64弄3號","121.480778333333","25.0886733333333","6501400","蘆洲區"
"247020","500-BY","2017/12/01 20:39:44","新北市蘆洲區民族路331號","121.473743333333","25.091785","6501400","蘆洲區"
"247008","341-TH","2017/12/01 20:39:42","新北市蘆洲區重陽街14號","121.480761666667","25.0814316666667","6501400","蘆洲區"
"247010","339-TH","2017/12/01 20:39:40","新北市蘆洲區中山一路122巷1號","121.476805","25.0816283333333","6501400","蘆洲區"
"247004","337-TH","2017/12/01 20:39:50","新北市蘆洲區永樂街81號","121.455741666667","25.0885066666667","6501400","蘆洲區"
"247004","336-TH","2017/12/01 20:39:41","新北市蘆洲區長安街297號","121.458066666667","25.084825","6501400","蘆洲區"
"247024","335-TH","2017/12/01 20:39:51","新北市蘆洲區長樂路70號","121.462611666667","25.0869183333333","6501400","蘆洲區"
"247016","057-VK","2017/12/01 20:39:50","新北市蘆洲區中山一路286號","121.470878333333","25.0785733333333","6501400","蘆洲區"
"247006","056-VK","2017/12/01 20:39:51","新北市蘆洲區和平路121巷8弄16號","121.466545","25.08032","6501400","蘆洲區"
"247014","053-VK","2017/12/01 20:39:57","新北市蘆洲區三民路97號","121.473588333333","25.0852433333333","6501400","蘆洲區"
"223001","205-TH","2017/12/01 10:24:56","新北市石碇區小粗坑(潭邊里)9-2號","121.678445","24.9857066666667","6501900","石碇區"
"251013","180-VK","2017/12/01 20:39:38","新北市淡水區番子厝16號","121.459983333333","25.2061133333333","6501000","淡水區"
"251008","181-VK","2017/12/01 20:39:40","新北市淡水區新民街276號","121.435646666667","25.18118","6501000","淡水區"
"251015","182-VK","2017/12/01 20:39:49","新北市淡水區淡金路四段542巷17號","121.452678333333","25.22707","6501000","淡水區"
"251010","413-VK","2017/12/01 20:39:52","新北市淡水區沙崙路181巷15號","121.42399","25.1844166666667","6501000","淡水區"
"251012","441-VK","2017/12/01 20:39:46","新北市淡水區興仁路99號","121.451646666667","25.2181133333333","6501000","淡水區"
"251001","559-UM","2017/12/01 20:39:38","新北市淡水區淡金路57號","121.456075","25.1613183333333","6501000","淡水區"
"251006","561-UM","2017/12/01 20:39:45","新北市淡水區商工路196巷9號","121.451655","25.18661","6501000","淡水區"
"251011","650-BX","2017/12/01 20:39:42","新北市淡水區新市一路一段361號","121.43619","25.1862166666667","6501000","淡水區"
"251002","672-BX","2017/12/01 20:39:43","新北市淡水區中正路38-1號","121.443741666667","25.1692433333333","6501000","淡水區"
"251003","673-BX","2017/12/01 20:39:36","新北市淡水區新民街152巷6弄22號","121.438745","25.1785","6501000","淡水區"
"252001","292-VK","2017/12/01 20:39:41","新北市三芝區中山路一段83號","121.501053333333","25.256625","6502100","三芝區"
"252002","AAC-283","2017/12/01 20:39:48","新北市三芝區淡金路二段47-1號","121.503628333333","25.2604266666667","6502100","三芝區"
"242032","AAC-296","2017/12/01 20:39:47","新北市新莊區中正路508巷5弄2號","121.435031666667","25.0338516666667","6500500","新莊區"
"242029","986-R7","2017/12/01 20:39:40","新北市新莊區昌平街31巷9號","121.454258333333","25.0513633333333","6500500","新莊區"
"242050","751-BX","2017/12/01 20:39:50","新北市新莊區西盛街260號","121.42802","25.0158233333333","6500500","新莊區"
"242023","613-BX","2017/12/01 20:39:43","新北市新莊區化成路372號","121.465883333333","25.0497416666667","6500500","新莊區"
"242027","612-BX","2017/12/01 20:39:39","新北市新莊區思源路131號","121.459805","25.0431566666667","6500500","新莊區"
"242039","566-BX","2017/12/01 20:39:53","新北市新莊區民安路343號","121.430836666667","25.02297","6500500","新莊區"
"242044","497-BY","2017/12/01 20:39:44","新北市新莊區龍安路108號","121.418403333333","25.0204916666667","6500500","新莊區"
"242048","441-UM","2017/12/01 20:39:45","新北市新莊區龍安路252-5號","121.421076666667","25.01915","6500500","新莊區"
"242054","440-UM","2017/12/01 20:39:41","新北市新莊區西盛街323巷9號","121.428793333333","25.0147333333333","6500500","新莊區"
"242034","415-TV","2017/12/01 20:39:47","新北市新莊區建中街118號","121.44567","25.0365266666667","6500500","新莊區"
"242005","413-TV","2017/12/01 20:39:48","新北市新莊區化成路293巷39號","121.463673333333","25.0550816666667","6500500","新莊區"
"242041","400-BY","2017/12/01 20:39:37","新北市新莊區天祥街47巷7號","121.416475","25.0284833333333","6500500","新莊區"
"242060","362-BY","2017/12/01 20:39:56","新北市新莊區新樹路244巷72-1號","121.431113333333","25.0199716666667","6500500","新莊區"
"242058","353-BY","2017/12/01 20:39:46","新北市新莊區四維路149號","121.422663333333","25.0220883333333","6500500","新莊區"
"242037","133-UY","2017/12/01 20:39:45","新北市新莊區後港一路94巷4號","121.427815","25.026405","6500500","新莊區"
"242021","135-UY","2017/12/01 20:39:42","新北市新莊區公園路130號","121.452006666667","25.040385","6500500","新莊區"
"242046","172-VK","2017/12/01 20:39:49","新北市新莊區裕民街83-6號","121.418473333333","25.0236383333333","6500500","新莊區"
"242009","173-VK","2017/12/01 20:39:53","新北市新莊區昌隆街67號","121.457083333333","25.05106","6500500","新莊區"
"242015","175-VK","2017/12/01 20:39:39","新北市新莊區中平路82巷36-2號","121.446375","25.0448933333333","6500500","新莊區"
"242013","346-TH","2017/12/01 20:39:38","新北市新莊區中榮街103號","121.444885","25.0528133333333","6500500","新莊區"
"242007","347-TH","2017/12/01 20:39:46","新北市新莊區思源路287巷1弄5號","121.459371666667","25.048095","6500500","新莊區"
"242019","348-TH","2017/12/01 20:39:46","新北市新莊區中港路五守新村1巷11號","121.455235","25.0380333333333","6500500","新莊區"
"242056","349-TH","2017/12/01 20:39:39","新北市新莊區瓊林路72-1號","121.445041666667","25.02866","6500500","新莊區"
"242011","351-TH","2017/12/01 20:39:44","新北市新莊區中平路256-1號","121.444866666667","25.0496133333333","6500500","新莊區"
"221008","489-VK","2017/12/01 20:39:53","新北市汐止區康寧街647號","121.637458333333","25.0720916666667","6501100","汐止區"
"221036","130-UY","2017/12/01 20:39:57","新北市汐止區新昌路13號","121.662001666667","25.0673466666667","6501100","汐止區"
"221012","276-VK","2017/12/01 13:29:12","新北市汐止區汐萬路一段256巷3號","121.653463333333","25.074665","6501100","汐止區"
"221012","278-VK","2017/12/01 20:39:38","新北市汐止區汐萬路一段39號","121.654973333333","25.0690616666667","6501100","汐止區"
"221023","279-VK","2017/12/01 20:39:43","新北市汐止區汐萬路一段312號","121.650108333333","25.0755333333333","6501100","汐止區"
"221032","280-BY","2017/12/01 20:39:40","新北市汐止區橫科路119號","121.620031666667","25.0502566666667","6501100","汐止區"
"221027","281-BY","2017/12/01 20:39:54","新北市汐止區大同路二段555號","121.662488333333","25.0696716666667","6501100","汐止區"
"221029","298-VK","2017/12/01 20:39:46","新北市汐止區大同路一段421號","121.642601666667","25.06118","6501100","汐止區"
"221021","299-VK","2017/12/01 20:39:38","新北市汐止區水源路一段284號","121.654198333333","25.0582566666667","6501100","汐止區"
"221031","353-TW","2017/12/01 20:39:42","新北市汐止區中興路27巷22號","121.63407","25.0608166666667","6501100","汐止區"
"221015","567-BX","2017/12/01 20:39:51","新北市汐止區建成路34號","121.664181666667","25.0728916666667","6501100","汐止區"
"221035","622-UM","2017/12/01 20:39:52","新北市汐止區長江街101-5號","121.658865","25.0731816666667","6501100","汐止區"
"221025","623-UM","2017/12/01 20:39:36","新北市汐止區水源路二段219-5號","121.6588","25.0509966666667","6501100","汐止區"
"221038","646-BX","2017/12/01 20:39:41","新北市汐止區汐萬路一段167號","121.652753333333","25.0708833333333","6501100","汐止區"
"221033","647-BX","2017/12/01 20:39:50","新北市汐止區合順街18巷8弄5號","121.620311666667","25.0418866666667","6501100","汐止區"
"221018","753-BX","2017/12/01 20:39:55","新北市汐止區茄苳路107號","121.667735","25.071365","6501100","汐止區"
"220010","305-R5","2017/12/01 15:54:36","新北市板橋區民生路二段56-6號","121.4711","25.0188516666667","6500100","板橋區"
"242002","280-VK","2017/12/01 20:39:40","新北市新莊區中港路五守新村37巷2號","121.454623333333","25.0389033333333","6500500","新莊區"
"220103","561-BX","2017/12/01 20:39:47","新北市板橋區漢生東路53巷28號","121.466718333333","25.0173783333333","6500100","板橋區"
"220070","AAC-253","2017/12/01 20:38:41","新北市五股區中直路21號","121.421146666667","25.112005","6500100","板橋區"
