"lineid","car","time","location","longitude","latitude","cityid","cityname"
"234011","9373-KE","2017/12/01 20:59:48","新北市永和區福和路1號","121.525535","25.009175","6500400","永和區"
"249002","305-UY","2017/12/01 20:59:43","新北市八里區中山路三段409號","121.368778333333","25.1340533333333","6502300","八里區"
"244019","403-UM","2017/12/01 19:55:10","新北市林口區粉寮69號","121.404975","25.0908766666667","6501700","林口區"
"231059","046-UY","2017/12/01 20:59:41","新北市新店區僑信路82號","121.499663333333","24.9483016666667","6500600","新店區"
"231061","047-UY","2017/12/01 20:59:41","新北市新店區永安街58-2號","121.5188","24.98691","6500600","新店區"
"231060","106-UY","2017/12/01 20:59:56","新北市新店區安康路三段517號","121.482208333333","24.9484033333333","6500600","新店區"
"231051","107-UY","2017/12/01 20:59:51","新北市新店區復興路131-2號","121.531368333333","24.988645","6500600","新店區"
"231048","108-UY","2017/12/01 20:59:40","新北市新店區文化路88號","121.544898333333","24.9824616666667","6500600","新店區"
"231050","KEA-2219","2017/12/01 20:59:36","新北市新店區三民路117巷6弄1號","121.53415","24.9712366666667","6500600","新店區"
"231063","268-BY","2017/12/01 20:59:43","新北市新店區玫瑰路16號","121.495001666667","24.9503116666667","6500600","新店區"
"231054","AAD-862","2017/12/01 20:59:51","新北市新店區北新路一段126巷21號","121.542848333333","24.969605","6500600","新店區"
"231067","4772-VM","2017/12/01 20:59:42","新北市新店區安康路二段316號","121.50529","24.9581083333333","6500600","新店區"
"231064","515-UM","2017/12/01 20:59:56","新北市新店區安和路二段179號","121.518406666667","24.9747133333333","6500600","新店區"
"231042","616-UM","2017/12/01 20:59:57","新北市新店區中興路二段196號","121.548323333333","24.97371","6500600","新店區"
"231040","619-UM","2017/12/01 20:59:58","新北市新店區北新路一段100號","121.542061666667","24.96934","6500600","新店區"
"231068","718-UY","2017/12/01 20:59:43","新北市新店區寶中路63號","121.547171666667","24.9803833333333","6500600","新店區"
"231065","719-UY","2017/12/01 20:59:55","新北市新店區安祥路67巷17號","121.484335","24.9598466666667","6500600","新店區"
"231062","720-UM","2017/12/01 20:59:55","新北市新店區雙城路60巷1-1號","121.492393333333","24.9477933333333","6500600","新店區"
"231043","899-TW","2017/12/01 20:59:55","新北市新店區中正路348號","121.536306666667","24.975415","6500600","新店區"
"231066","AKT-0513","2017/12/01 20:59:38","新北市新店區吉安街12巷2號","121.516881666667","24.9659766666667","6500600","新店區"
"241028","022-UY","2017/12/01 20:59:54","新北市三重區新北大道一段7號","121.489826666667","25.06153","6500200","三重區"
"241008","059-VK","2017/12/01 20:59:54","新北市三重區力行路二段162巷3號","121.482743333333","25.0765816666667","6500200","三重區"
"241009","060-VK","2017/12/01 20:59:40","新北市三重區三和路四段386號","121.482256666667","25.0790816666667","6500200","三重區"
"241031","061-VK","2017/12/01 20:59:39","新北市三重區重陽路一段113巷2弄2號","121.487566666667","25.0599016666667","6500200","三重區"
"241015","062-VK","2017/12/01 20:59:44","新北市三重區福德北路46號","121.502028333333","25.0655433333333","6500200","三重區"
"241017","063-VK","2017/12/01 20:59:38","新北市三重區大仁街52號","121.492043333333","25.064745","6500200","三重區"
"241024","065-VK","2017/12/01 20:59:49","新北市三重區國道路一段58巷20號","121.481231666667","25.0720483333333","6500200","三重區"
"241026","066-VK","2017/12/01 20:59:47","新北市三重區文化南路45號","121.50023","25.0614533333333","6500200","三重區"
"241002","090-VK","2017/12/01 20:59:51","新北市三重區五華街1巷1號","121.49578","25.0797833333333","6500200","三重區"
"241003","091-VK","2017/12/01 20:59:43","新北市三重區進安街198號","121.493875","25.08598","6500200","三重區"
"241005","262-UM","2017/12/01 20:59:43","新北市三重區三信路182號","121.488046666667","25.086155","6500200","三重區"
"241011","265-UM","2017/12/01 20:59:52","新北市三重區秀江街115號","121.499795","25.072225","6500200","三重區"
"241016","266-UM","2017/12/01 20:59:39","新北市三重區正義北路81號","121.497088333333","25.0650416666667","6500200","三重區"
"241022","267-UM","2017/12/01 20:59:45","新北市三重區過圳街27-5號","121.487936666667","25.0624083333333","6500200","三重區"
"241018","268-UM","2017/12/01 20:59:53","新北市三重區自強路一段157號","121.49342","25.067105","6500200","三重區"
"241032","269-UM","2017/12/01 20:59:50","新北市三重區三陽路135號","121.483106666667","25.0588766666667","6500200","三重區"
"241013","270-UM","2017/12/01 20:59:35","新北市三重區仁愛街129巷2號","121.495638333333","25.0750233333333","6500200","三重區"
"241025","271-UM","2017/12/01 20:59:37","新北市三重區貴陽街14號","121.484216666667","25.0618766666667","6500200","三重區"
"241007","398-BY","2017/12/01 20:59:41","新北市三重區三和路四段145巷80號","121.486265","25.0790033333333","6500200","三重區"
"241030","KEA-2210","2017/12/01 20:59:47","新北市三重區中正南路281號","121.493125","25.0521666666667","6500200","三重區"
"241004","475-VK","2017/12/01 20:59:51","新北市三重區仁愛街420號","121.490396666667","25.08141","6500200","三重區"
"241019","478-VK","2017/12/01 20:59:51","新北市三重區三張街104號","121.487898333333","25.0698733333333","6500200","三重區"
"241014","543-UM","2017/12/01 20:59:42","新北市三重區長榮路75號","121.502591666667","25.069035","6500200","三重區"
"241023","545-UM","2017/12/01 20:59:37","新北市三重區忠孝路三段50巷41弄64號","121.482428333333","25.063735","6500200","三重區"
"241001","547-UM","2017/12/01 20:59:47","新北市三重區三和路四段146號","121.488416666667","25.0755083333333","6500200","三重區"
"241006","AAD-863","2017/12/01 20:59:44","新北市三重區永福街23號","121.48172","25.0781833333333","6500200","三重區"
"241012","941-UM","2017/12/01 20:59:34","新北市三重區仁信街27號","121.501281666667","25.0755416666667","6500200","三重區"
"241029","942-UM","2017/12/01 20:59:47","新北市三重區正義南路107號","121.498206666667","25.0585483333333","6500200","三重區"
"241033","AAC-255","2017/12/01 20:59:53","新北市三重區光復路二段1號","121.472265","25.0532966666667","6500200","三重區"
"247022","893-R6","2017/12/01 20:59:46","新北市蘆洲區中正路263巷2號","121.467393333333","25.0874016666667","6501400","蘆洲區"
"247012","546-UM","2017/12/01 20:59:54","新北市蘆洲區民權路6-1號","121.476876666667","25.0856933333333","6501400","蘆洲區"
"247020","500-BY","2017/12/01 20:59:44","新北市蘆洲區民族路371號","121.471048333333","25.0912116666667","6501400","蘆洲區"
"247008","341-TH","2017/12/01 20:59:42","新北市蘆洲區民生街74號","121.472786666667","25.0790816666667","6501400","蘆洲區"
"247010","339-TH","2017/12/01 20:59:40","新北市蘆洲區鷺江街76號","121.476961666667","25.083815","6501400","蘆洲區"
"247004","337-TH","2017/12/01 20:59:50","新北市蘆洲區永樂街38巷36號","121.458455","25.089725","6501400","蘆洲區"
"247004","336-TH","2017/12/01 20:59:41","新北市蘆洲區永安南路二段268號","121.458591666667","25.0807033333333","6501400","蘆洲區"
"247024","335-TH","2017/12/01 20:59:51","新北市蘆洲區長興路198號","121.460833333333","25.0869616666667","6501400","蘆洲區"
"247016","057-VK","2017/12/01 20:59:55","新北市蘆洲區正和街80號","121.468401666667","25.0810533333333","6501400","蘆洲區"
"247006","056-VK","2017/12/01 20:59:51","新北市蘆洲區永安南路二段16巷18號","121.468005","25.077765","6501400","蘆洲區"
"247014","053-VK","2017/12/01 20:59:37","新北市蘆洲區中山二路36巷36號","121.47413","25.08341","6501400","蘆洲區"
"247018","001-UY","2017/12/01 20:59:43","新北市蘆洲區民權路144號","121.472776666667","25.0891816666667","6501400","蘆洲區"
"223001","205-TH","2017/12/01 10:24:56","新北市石碇區小粗坑(潭邊里)9-2號","121.678445","24.9857066666667","6501900","石碇區"
"251005","010-UM","2017/12/01 20:59:50","新北市淡水區學府路51巷2弄16號","121.4481","25.1699216666667","6501000","淡水區"
"251013","180-VK","2017/12/01 20:59:38","新北市淡水區埤島45號","121.454836666667","25.1982216666667","6501000","淡水區"
"251008","181-VK","2017/12/01 20:59:40","新北市淡水區北投子101號","121.465043333333","25.177765","6501000","淡水區"
"251015","182-VK","2017/12/01 20:59:49","新北市淡水區淡金路四段542巷17號","121.452651666667","25.2270633333333","6501000","淡水區"
"251010","413-VK","2017/12/01 20:59:52","新北市淡水區淡海路22號","121.423961666667","25.17871","6501000","淡水區"
"251012","441-VK","2017/12/01 20:59:46","新北市淡水區淡金路五段72號","121.454653333333","25.233595","6501000","淡水區"
"251001","559-UM","2017/12/01 20:59:58","新北市淡水區淡金路一段567號","121.453171666667","25.1807216666667","6501000","淡水區"
"251007","577-R6","2017/12/01 20:59:51","新北市淡水區仁愛街2巷33號","121.446528333333","25.1712566666667","6501000","淡水區"
"251011","650-BX","2017/12/01 20:59:42","新北市淡水區新民街278號","121.435316666667","25.1818183333333","6501000","淡水區"
"251002","672-BX","2017/12/01 20:59:43","新北市淡水區水源街一段110號","121.446628333333","25.172","6501000","淡水區"
"251003","673-BX","2017/12/01 20:59:56","新北市淡水區新春街103-35號","121.441211666667","25.1828933333333","6501000","淡水區"
"252002","AAC-283","2017/12/01 20:59:48","新北市三芝區埔坪里埔頭坑41號","121.504555","25.2646066666667","6502100","三芝區"
"242048","441-UM","2017/12/01 20:59:45","新北市新莊區建國一路138號","121.434931666667","25.02689","6500500","新莊區"
"242037","133-UY","2017/12/01 20:59:44","新北市新莊區中正路449-1號","121.442971666667","25.0340916666667","6500500","新莊區"
"242007","347-TH","2017/12/01 20:59:46","新北市新莊區碧江街3號","121.456465","25.0352966666667","6500500","新莊區"
"221012","276-VK","2017/12/01 13:29:12","新北市汐止區汐萬路一段256巷3號","121.653463333333","25.074665","6501100","汐止區"
"221029","298-VK","2017/12/01 20:59:46","新北市汐止區康寧街901號","121.651651666667","25.0749366666667","6501100","汐止區"
"220010","305-R5","2017/12/01 15:54:36","新北市板橋區民生路二段56-6號","121.4711","25.0188516666667","6500100","板橋區"
"220070","AAC-253","2017/12/01 20:59:41","新北市八里區中山路三段409號","121.368768333333","25.1341533333333","6500100","板橋區"
