"lineid","car","time","location","longitude","latitude","cityid","cityname"
"249002","305-UY","2017/12/01 21:19:43","新北市八里區中山路三段409號","121.369083333333","25.13609","6502300","八里區"
"244019","403-UM","2017/12/01 19:55:10","新北市林口區粉寮69號","121.404975","25.0908766666667","6501700","林口區"
"231059","046-UY","2017/12/01 21:19:41","新北市新店區薏仁坑路自強巷1號","121.497825","24.9578283333333","6500600","新店區"
"231061","047-UY","2017/12/01 21:19:41","新北市新店區安德街148巷31號","121.50648","24.9608166666667","6500600","新店區"
"231051","107-UY","2017/12/01 21:19:51","新北市新店區中正路680巷51弄19號","121.53543","24.9899366666667","6500600","新店區"
"231048","108-UY","2017/12/01 21:19:40","新北市新店區溪園路395號","121.523698333333","24.9772233333333","6500600","新店區"
"231050","KEA-2219","2017/12/01 21:19:56","新北市新店區華興街2號","121.5381","24.970035","6500600","新店區"
"231063","268-BY","2017/12/01 21:19:43","新北市新店區玫瑰路57巷23號","121.49653","24.9463416666667","6500600","新店區"
"231040","619-UM","2017/12/01 21:19:48","新北市新店區光明街306號","121.540591666667","24.9649","6500600","新店區"
"231065","719-UY","2017/12/01 21:19:55","新北市新店區薏仁坑路自強巷6號","121.496703333333","24.9584666666667","6500600","新店區"
"241028","022-UY","2017/12/01 21:19:54","新北市三重區正義南路165-1號","121.498893333333","25.0575233333333","6500200","三重區"
"241008","059-VK","2017/12/01 21:19:34","新北市三重區文化北路132巷49號","121.497328333333","25.06652","6500200","三重區"
"241009","060-VK","2017/12/01 21:19:40","新北市三重區忠孝路三段28號","121.481305","25.06687","6500200","三重區"
"241031","061-VK","2017/12/01 21:19:39","新北市三重區重新路五段408巷19號","121.475745","25.0455533333333","6500200","三重區"
"241017","063-VK","2017/12/01 21:19:38","新北市三重區中正北路25巷2號","121.493218333333","25.0626533333333","6500200","三重區"
"241024","065-VK","2017/12/01 21:19:48","新北市三重區中正北路145巷14號","121.484133333333","25.0677833333333","6500200","三重區"
"241026","066-VK","2017/12/01 21:19:47","新北市三重區大同南路218號","121.496831666667","25.056265","6500200","三重區"
"241002","090-VK","2017/12/01 21:19:51","新北市三重區自強路五段99號","121.495503333333","25.0823733333333","6500200","三重區"
"241003","091-VK","2017/12/01 21:19:43","新北市三重區仁義街317號","121.49547","25.0842116666667","6500200","三重區"
"241005","262-UM","2017/12/01 21:19:43","新北市三重區仁華街118巷48號","121.48559","25.0840483333333","6500200","三重區"
"241011","265-UM","2017/12/01 21:19:52","新北市三重區龍濱路197號","121.501946666667","25.0714266666667","6500200","三重區"
"241016","266-UM","2017/12/01 21:19:39","新北市三重區自強路一段95號","121.495886666667","25.0663416666667","6500200","三重區"
"241018","268-UM","2017/12/01 21:19:53","新北市三重區忠孝路二段34號","121.485695","25.0709133333333","6500200","三重區"
"241032","269-UM","2017/12/01 21:19:50","新北市三重區光復路二段146-2號","121.472015","25.05989","6500200","三重區"
"241013","270-UM","2017/12/01 21:19:55","新北市三重區仁愛街66號","121.495815","25.0731366666667","6500200","三重區"
"241025","271-UM","2017/12/01 21:19:37","新北市三重區忠孝路三段40巷16弄10號","121.482351666667","25.0668716666667","6500200","三重區"
"241007","398-BY","2017/12/01 21:19:41","新北市三重區自強路三段47號","121.4869","25.072995","6500200","三重區"
"241030","KEA-2210","2017/12/01 21:19:47","新北市三重區五谷王北街42巷18號","121.475136666667","25.049255","6500200","三重區"
"241004","475-VK","2017/12/01 21:19:51","新北市三重區碧華街317號","121.491025","25.0843016666667","6500200","三重區"
"241019","478-VK","2017/12/01 21:19:51","新北市三重區重陽路三段128號","121.489065","25.066665","6500200","三重區"
"241014","543-UM","2017/12/01 21:19:41","新北市三重區萬全街15號","121.499433333333","25.0696566666667","6500200","三重區"
"241023","545-UM","2017/12/01 21:19:57","新北市三重區中正北路176巷27號","121.48263","25.065935","6500200","三重區"
"241001","547-UM","2017/12/01 21:19:47","新北市三重區仁愛街455號","121.489921666667","25.08176","6500200","三重區"
"241006","AAD-863","2017/12/01 21:19:44","新北市三重區新北大道一段98號","121.485475","25.0615783333333","6500200","三重區"
"241012","941-UM","2017/12/01 21:19:54","新北市三重區龍門路282號","121.501911666667","25.0741416666667","6500200","三重區"
"241033","AAC-255","2017/12/01 21:19:53","新北市三重區光復路二段96號","121.472096666667","25.058085","6500200","三重區"
"247022","893-R6","2017/12/01 21:19:46","新北市蘆洲區民族路504號","121.46952","25.09026","6501400","蘆洲區"
"247012","546-UM","2017/12/01 21:19:53","新北市蘆洲區民族路236巷35號","121.480276666667","25.0886783333333","6501400","蘆洲區"
"247020","500-BY","2017/12/01 21:19:44","新北市蘆洲區民族路422巷82弄2號","121.473591666667","25.0936283333333","6501400","蘆洲區"
"247008","341-TH","2017/12/01 21:19:42","新北市蘆洲區中山一路103巷20號","121.475811666667","25.08111","6501400","蘆洲區"
"247010","339-TH","2017/12/01 21:19:40","新北市蘆洲區鷺江街23號","121.478878333333","25.08242","6501400","蘆洲區"
"247004","337-TH","2017/12/01 21:19:50","新北市蘆洲區永樂街80號","121.456756666667","25.088585","6501400","蘆洲區"
"247004","336-TH","2017/12/01 21:19:41","新北市蘆洲區永安南路二段322號","121.457018333333","25.082775","6501400","蘆洲區"
"247024","335-TH","2017/12/01 21:19:51","新北市蘆洲區光明路98號","121.463138333333","25.0879766666667","6501400","蘆洲區"
"247006","056-VK","2017/12/01 21:19:51","新北市蘆洲區長安街60號","121.462973333333","25.0798883333333","6501400","蘆洲區"
"247014","053-VK","2017/12/01 21:19:37","新北市蘆洲區保和街50-6號","121.469848333333","25.086325","6501400","蘆洲區"
"247018","001-UY","2017/12/01 21:19:43","新北市蘆洲區復興路105巷11號","121.476441666667","25.088365","6501400","蘆洲區"
"223001","205-TH","2017/12/01 10:24:56","新北市石碇區小粗坑(潭邊里)9-2號","121.678445","24.9857066666667","6501900","石碇區"
"251004","009-UM","2017/12/01 21:19:35","新北市淡水區民族路33號","121.462241666667","25.1357333333333","6501000","淡水區"
"251005","010-UM","2017/12/01 21:19:50","新北市淡水區水源街一段122巷37號","121.447071666667","25.17048","6501000","淡水區"
"251013","180-VK","2017/12/01 21:19:38","新北市淡水區行忠路328號","121.460463333333","25.199625","6501000","淡水區"
"251008","181-VK","2017/12/01 21:19:40","新北市淡水區水源街二段225號","121.460295","25.1764383333333","6501000","淡水區"
"251015","182-VK","2017/12/01 21:19:49","新北市淡水區牛埔子11-1號","121.450148333333","25.2193583333333","6501000","淡水區"
"251010","413-VK","2017/12/01 21:19:52","新北市淡水區中正路一段156巷51號","121.421885","25.180895","6501000","淡水區"
"251012","441-VK","2017/12/01 21:19:46","新北市淡水區石頭埔8號","121.452626666667","25.2345783333333","6501000","淡水區"
"251001","559-UM","2017/12/01 21:19:38","新北市淡水區中山北路二段213號","121.444228333333","25.1857266666667","6501000","淡水區"
"251006","561-UM","2017/12/01 21:19:54","新北市淡水區中正路一段108號","121.423798333333","25.1779483333333","6501000","淡水區"
"251009","575-R6","2017/12/01 21:19:54","新北市淡水區民族路65巷58號","121.463416666667","25.1357433333333","6501000","淡水區"
"251011","650-BX","2017/12/01 21:19:42","新北市淡水區新民街120巷29號","121.438851666667","25.178835","6501000","淡水區"
"251002","672-BX","2017/12/01 21:19:43","新北市淡水區英專路151號","121.44837","25.17487","6501000","淡水區"
"251003","673-BX","2017/12/01 21:19:56","新北市淡水區崁頂15-5號","121.438985","25.1858833333333","6501000","淡水區"
"221012","276-VK","2017/12/01 13:29:12","新北市汐止區汐萬路一段256巷3號","121.653463333333","25.074665","6501100","汐止區"
"220010","305-R5","2017/12/01 15:54:36","新北市板橋區民生路二段56-6號","121.4711","25.0188516666667","6500100","板橋區"
"220070","AAC-253","2017/12/01 21:19:41","新北市八里區下罟子1-13號","121.389683333333","25.1421766666667","6500100","板橋區"
