"lineid","car","time","location","longitude","latitude","cityid","cityname"
"244019","403-UM","2017/12/01 19:55:10","新北市林口區粉寮69號","121.404975","25.0908766666667","6501700","林口區"
"241035","743-BX","2017/12/01 22:57:35","新北市三重區長壽西街42號","121.497168333333","25.0672916666667","6500200","三重區"
"247001","337-TH","2017/12/01 22:33:29","新北市五股區中興路三段163號","121.449033333333","25.0809233333333","6501400","蘆洲區"
"247003","336-TH","2017/12/01 22:11:44","新北市五股區中興路三段2巷10號","121.449163333333","25.081015","6501400","蘆洲區"
"223001","205-TH","2017/12/01 10:24:56","新北市石碇區小粗坑(潭邊里)9-2號","121.678445","24.9857066666667","6501900","石碇區"
"251015","182-VK","2017/12/01 22:57:49","新北市淡水區下圭柔山90-8號","121.431375","25.2103816666667","6501000","淡水區"
"221012","276-VK","2017/12/01 13:29:12","新北市汐止區汐萬路一段256巷3號","121.653463333333","25.074665","6501100","汐止區"
"220010","305-R5","2017/12/01 15:54:36","新北市板橋區民生路二段56-6號","121.4711","25.0188516666667","6500100","板橋區"
"220070","AAC-253","2017/12/01 22:02:33","新北市板橋區華東街1-9號","121.44825","24.9948416666667","6500100","板橋區"
