"lineid","car","time","location","longitude","latitude","cityid","cityname"
"248005","653-BX","2017/12/02 06:59:46","新北市五股區更洲路47號","121.456845","25.0791283333333","6501500","五股區"
"232004","290-BY","2017/12/02 06:59:34","新北市坪林區九芎坑15號","121.737698333333","24.949065","6502000","坪林區"
"232016","291-BY","2017/12/02 06:59:40","新北市坪林區仁里10-2號","121.691958333333","24.9316783333333","6502000","坪林區"
"232010","375-UM","2017/12/02 06:59:36","新北市坪林區北宜路八段373號","121.708315","24.9302933333333","6502000","坪林區"
"232009","758-BX","2017/12/02 06:59:34","新北市坪林區九芎林25-5號","121.703371666667","24.92395","6502000","坪林區"
"244005","657-BX","2017/12/02 06:59:43","新北市林口區民族路67-1號","121.365683333333","25.0753083333333","6501700","林口區"
"235049","186-VK","2017/12/02 06:59:29","新北市中和區捷運路58-9號","121.507378333333","24.9909383333333","6500300","中和區"
"226001","7418-A5","2017/12/02 06:59:29","新北市平溪區石底里公園街18-3號","121.733545","25.025665","6502400","平溪區"
"223002","198-BX","2017/12/02 06:59:38","新北市石碇區小粗坑(格頭里)4號","121.652703333333","24.9597616666667","6501900","石碇區"
"223008","406-TH","2017/12/02 06:59:31","新北市石碇區排寮1-2號","121.668993333333","25.00662","6501900","石碇區"
"223001","437-BY","2017/12/02 06:59:37","新北市石碇區石崁35-3號","121.658091666667","24.9929666666667","6501900","石碇區"
"223004","660-BX","2017/12/02 06:59:38","新北市石碇區碇坪路一段60號","121.657083333333","24.9914366666667","6501900","石碇區"
"227006","282-VK","2017/12/02 06:59:30","新北市雙溪區新基里自強路4號","121.866213333333","25.0389433333333","6502500","雙溪區"
"252007","AAC-283","2017/12/02 06:59:43","新北市三芝區中興街二段76號","121.499943333333","25.2545916666667","6502100","三芝區"
"236011","165-UM","2017/12/02 06:59:31","新北市土城區永平街51號","121.42798","24.9591583333333","6501300","土城區"
"220080","461-BY","2017/12/02 06:45:53","新北市板橋區國光路67巷14號","121.459028333333","25.01877","6500100","板橋區"
