"lineid","car","time","location","longitude","latitude","cityid","cityname"
"234044","148-BY","2017/06/10 12:49:32","新北市永和區得和路373巷31弄8號","121.524736666667","25.0007966666667","6500400","永和區"
"234012","149-BY","2017/06/10 12:49:34","新北市永和區中山路一段91巷1號","121.511733333333","25.010735","6500400","永和區"
"234005","207-UY","2017/06/10 12:49:28","新北市永和區文化路72號","121.51423","25.0151166666667","6500400","永和區"
"234078","298-R6","2017/06/10 12:49:32","新北市永和區林森路52號","121.524561666667","25.0044366666667","6500400","永和區"
"234036","336-UY","2017/06/10 12:49:36","新北市永和區成功路二段207號","121.526623333333","24.9958916666667","6500400","永和區"
"234062","337-UY","2017/06/10 12:49:28","新北市永和區福和路8巷1號","121.525013333333","25.0090716666667","6500400","永和區"
"234084","338-UY","2017/06/10 12:49:24","新北市永和區中正路87號","121.51527","24.9970233333333","6500400","永和區"
"234068","552-UM","2017/06/10 12:49:33","新北市永和區竹林路96巷7號","121.519186666667","25.0120733333333","6500400","永和區"
"234052","553-UM","2017/06/10 12:49:27","新北市永和區竹林路64號","121.518293333333","25.01349","6500400","永和區"
"234015","745-BX","2017/06/10 12:49:36","新北市永和區永和路二段303號","121.515908333333","25.01654","6500400","永和區"
"234028","746-BX","2017/06/10 12:49:23","新北市永和區得和路331號","121.523583333333","24.999555","6500400","永和區"
"234060","AAD-866","2017/06/10 12:49:39","新北市永和區福和路301號","121.5164","25.0072033333333","6500400","永和區"
"234040","862-TW","2017/06/10 12:49:20","新北市永和區永貞路271號","121.511746666667","25.0048433333333","6500400","永和區"
"234048","863-TW","2017/06/10 12:49:28","新北市永和區環河西路一段107號","121.511028333333","25.017425","6500400","永和區"
"234025","9371-KE","2017/06/10 12:49:23","新北市永和區中正路659號","121.514653333333","25.0102883333333","6500400","永和區"
"234010","9373-KE","2017/06/10 12:49:20","新北市永和區保福路二段156號","121.509151666667","25.0150183333333","6500400","永和區"
"248017","225-UY","2017/06/10 12:49:29","新北市五股區中興路二段83巷26-6號","121.460076666667","25.0753033333333","6501500","五股區"
"234022","9380-KE","2017/06/10 12:49:20","新北市永和區竹林路119巷45號","121.521968333333","25.01182","6500400","永和區"
"234076","969-R7","2017/06/10 12:49:37","新北市永和區中正路4號","121.512416666667","24.993715","6500400","永和區"
"234072","AAC-211","2017/06/10 12:49:30","新北市永和區福和路1號","121.526636666667","25.0099766666667","6500400","永和區"
"234066","AAC-212","2017/06/10 12:49:29","新北市永和區永和路一段2號","121.51274","25.004505","6500400","永和區"
"234001","AAC-295","2017/06/10 12:47:33","新北市永和區中正路736號","121.515236666667","25.0101766666667","6500400","永和區"
"231030","047-UY","2017/06/10 12:49:29","新北市新店區安華路28-1號","121.51927","24.9609116666667","6500600","新店區"
"231012","108-UY","2017/06/10 12:49:25","新北市新店區安康路一段355-3號","121.519411666667","24.9615","6500600","新店區"
"231010","278-BY","2017/06/10 00:44:30","新北市新店區安華路28-1號","121.519731666667","24.9611583333333","6500600","新店區"
"231017","AAD-862","2017/06/10 12:49:36","新北市新店區安華路28-1號","121.519693333333","24.9614116666667","6500600","新店區"
"231037","4715-K9","2017/06/10 12:49:36","新北市新店區安華路28-1號","121.519215","24.9606233333333","6500600","新店區"
"231036","512-UM","2017/06/10 12:49:25","新北市新店區安華路28-1號","121.519018333333","24.9612583333333","6500600","新店區"
"231023","513-UM","2017/06/10 12:49:28","新北市新店區安華路28-1號","121.519673333333","24.9612233333333","6500600","新店區"
"231006","617-UM","2017/06/10 12:49:20","新北市新店區安華路28-1號","121.519455","24.9610566666667","6500600","新店區"
"231003","641-BX","2017/06/10 12:49:22","新北市新店區安華路28-1號","121.519666666667","24.9606166666667","6500600","新店區"
"231013","719-UM","2017/06/10 12:49:33","新北市新店區安華路8號","121.519806666667","24.961675","6500600","新店區"
"231033","720-UM","2017/06/10 12:49:27","新北市新店區安華路28-1號","121.51938","24.9612116666667","6500600","新店區"
"231005","897-TW","2017/06/10 12:49:20","新北市新店區安華路28-1號","121.519553333333","24.96091","6500600","新店區"
"235022","151-BY","2017/06/10 12:49:36","新北市中和區員山路36巷16-2號","121.485301666667","24.99156","6500300","中和區"
"235002","185-VK","2017/06/10 12:49:21","新北市中和區中正路563號","121.486871666667","24.9943233333333","6500300","中和區"
"235031","255-BX","2017/06/10 12:49:32","新北市中和區中山路二段568巷46號","121.482321666667","25.0071583333333","6500300","中和區"
"235025","378-QA","2017/06/10 12:43:05","新北市中和區員山路36巷16-2號","121.485198333333","24.9917916666667","6500300","中和區"
"235035","783-BX","2017/06/10 12:49:34","新北市中和區員山路36巷16-3號","121.485285","24.9911083333333","6500300","中和區"
"247002","402-BY","2017/06/10 10:24:46","新北市五股區中興路三段3-6號","121.44983","25.0788233333333","6501400","蘆洲區"
"228005","097-TW","2017/06/10 12:49:35","新北市貢寮區福連里福連街34-1號","121.988661666667","25.0111","6502600","貢寮區"
"228004","212-TW","2017/06/10 12:49:20","新北市貢寮區吉林里內寮街20號","121.889765","24.994365","6502600","貢寮區"
"251001","155-BY","2017/06/10 12:49:30","新北市淡水區中正路23巷1號","121.435645","25.1732216666667","6501000","淡水區"
"207002","749-BX","2017/06/10 12:49:24","新北市萬里區雙興里二坪路32號","121.644955","25.168705","6502800","萬里區"
"207001","463-BY","2017/06/10 12:49:32","新北市萬里區萬里里瑪鋉路272-1號","121.688733333333","25.1808933333333","6502800","萬里區"
"236006","498-BY","2017/06/10 12:49:21","新北市土城區永寧路36-1號","121.428045","24.95912","6501300","土城區"
"221032","280-BY","2017/06/10 12:49:29","新北市汐止區大同路二段341-1號","121.656166666667","25.0672066666667","6501100","汐止區"
"221038","297-VK","2017/06/10 12:49:19","新北市汐止區汐萬路一段256巷3號","121.652143333333","25.0749533333333","6501100","汐止區"
