"lineid","car","time","location","longitude","latitude","cityid","cityname"
"234044","148-BY","2017/06/10 12:59:32","新北市永和區得和路373巷16弄11號","121.52559","25.000055","6500400","永和區"
"234012","149-BY","2017/06/10 12:59:34","新北市永和區永和路二段35號","121.514525","25.0103266666667","6500400","永和區"
"234005","207-UY","2017/06/10 12:59:28","新北市永和區永和路二段35號","121.5145","25.0103166666667","6500400","永和區"
"234078","298-R6","2017/06/10 12:59:30","新北市永和區永利路112號","121.52128","25.003245","6500400","永和區"
"234036","336-UY","2017/06/10 12:59:37","新北市永和區民樂街77巷1號","121.52739","24.99674","6500400","永和區"
"234062","337-UY","2017/06/10 12:59:28","新北市永和區秀朗路一段198號","121.519428333333","25.0031666666667","6500400","永和區"
"234084","338-UY","2017/06/10 12:59:24","新北市永和區永利路18號","121.518031666667","25.0057416666667","6500400","永和區"
"234068","552-UM","2017/06/10 12:59:37","新北市永和區豫溪街57巷10弄12號","121.517833333333","25.01075","6500400","永和區"
"234052","553-UM","2017/06/10 12:59:27","新北市永和區竹林路66巷15-7號","121.518361666667","25.0132716666667","6500400","永和區"
"234015","745-BX","2017/06/10 12:59:36","新北市永和區永和路二段298號","121.516201666667","25.0157366666667","6500400","永和區"
"234028","746-BX","2017/06/10 12:59:23","新北市永和區四維街46號","121.525113333333","24.9981783333333","6500400","永和區"
"234060","AAD-866","2017/06/10 12:59:29","新北市永和區福和路309巷1號","121.516348333333","25.0071016666667","6500400","永和區"
"234040","862-TW","2017/06/10 12:59:20","新北市永和區永貞路271號","121.511746666667","25.004835","6500400","永和區"
"234048","863-TW","2017/06/10 12:59:28","新北市永和區文化路194號","121.510788333333","25.0163583333333","6500400","永和區"
"234025","9371-KE","2017/06/10 12:59:23","新北市永和區水源街2巷14號","121.512268333333","25.0055716666667","6500400","永和區"
"234010","9373-KE","2017/06/10 12:59:20","新北市永和區文化路9巷22弄40號","121.514261666667","25.0145316666667","6500400","永和區"
"248017","225-UY","2017/06/10 12:59:29","新北市五股區中興路二段83巷26-6號","121.460028333333","25.0752616666667","6501500","五股區"
"234022","9380-KE","2017/06/10 12:59:26","新北市永和區竹林路75巷15-2號","121.519705","25.0137","6500400","永和區"
"234076","969-R7","2017/06/10 12:59:36","新北市永和區民享街8號","121.515226666667","24.9953866666667","6500400","永和區"
"234072","AAC-211","2017/06/10 12:59:30","新北市永和區環河東路二段100號","121.524125","25.0103366666667","6500400","永和區"
"234066","AAC-212","2017/06/10 12:59:29","新北市永和區永和路一段7號","121.512945","25.0052683333333","6500400","永和區"
"234001","AAC-295","2017/06/10 12:58:13","新北市永和區永平路29號","121.513276666667","25.0087766666667","6500400","永和區"
"244005","248-BX","2017/06/10 12:59:28","新北市林口區粉寮路60-16號","121.404343333333","25.0898366666667","6501700","林口區"
"231002","002-UM","2017/06/10 12:59:19","新北市新店區安華路28-1號","121.519441666667","24.9610466666667","6500600","新店區"
"231025","0291-UT","2017/06/10 12:59:26","新北市新店區安華路28-1號","121.519261666667","24.960585","6500600","新店區"
"231030","047-UY","2017/06/10 12:59:29","新北市新店區安華路28-1號","121.519153333333","24.9609","6500600","新店區"
"231029","106-UY","2017/06/10 02:55:34","新北市新店區安華路28-1號","121.519746666667","24.9607616666667","6500600","新店區"
"231018","107-UY","2017/06/10 12:59:28","新北市新店區安華路28-1號","121.519641666667","24.9615","6500600","新店區"
"231012","108-UY","2017/06/10 12:59:25","新北市新店區安華路28-1號","121.51935","24.9613283333333","6500600","新店區"
"231020","187-VK","2017/06/10 12:59:32","新北市新店區安華路28-1號","121.519591666667","24.9615133333333","6500600","新店區"
"231008","192-VK","2017/06/10 12:59:31","新北市新店區松林路16巷41號","121.545545","24.9071516666667","6500600","新店區"
"231034","268-BY","2017/06/10 12:59:22","新北市新店區安華路28-1號","121.519448333333","24.960645","6500600","新店區"
"231010","278-BY","2017/06/10 00:44:30","新北市新店區安華路28-1號","121.519731666667","24.9611583333333","6500600","新店區"
"231017","AAD-862","2017/06/10 12:59:36","新北市新店區安華路28-1號","121.519716666667","24.9612983333333","6500600","新店區"
"231027","3712-VJ","2017/06/10 12:59:29","新北市新店區安華路28-1號","121.519306666667","24.9607316666667","6500600","新店區"
"231037","4715-K9","2017/06/10 12:59:36","新北市新店區安華路28-1號","121.519325","24.960735","6500600","新店區"
"231036","512-UM","2017/06/10 12:59:25","新北市新店區安華路28-1號","121.519103333333","24.961215","6500600","新店區"
"231035","515-UM","2017/06/10 12:59:30","新北市新店區安華路28-1號","121.519738333333","24.96123","6500600","新店區"
"231006","617-UM","2017/06/10 12:59:20","新北市新店區安華路28-1號","121.519466666667","24.9610383333333","6500600","新店區"
"231001","619-UM","2017/06/10 12:59:38","新北市新店區安華路28-1號","121.519418333333","24.96106","6500600","新店區"
"231003","641-BX","2017/06/10 12:59:22","新北市新店區安華路28-1號","121.519606666667","24.9606216666667","6500600","新店區"
"231013","719-UM","2017/06/10 12:59:33","新北市新店區安華路28-1號","121.519776666667","24.9615416666667","6500600","新店區"
"231033","720-UM","2017/06/10 12:59:27","新北市新店區安華路28-1號","121.519333333333","24.961205","6500600","新店區"
"231005","897-TW","2017/06/10 12:59:20","新北市新店區安華路28-1號","121.519505","24.9608183333333","6500600","新店區"
"231004","899-TW","2017/06/10 12:59:33","新北市新店區安華路28-1號","121.5192","24.9608783333333","6500600","新店區"
"235027","006-UY","2017/06/10 12:59:32","新北市中和區員山路36巷16-3號","121.48502","24.9912966666667","6500300","中和區"
"235029","098-UM","2017/06/10 12:59:17","新北市中和區錦和路97號","121.490025","24.995505","6500300","中和區"
"235004","150-BY","2017/06/10 12:59:37","新北市中和區和城路一段271巷1號","121.485551666667","24.9918816666667","6500300","中和區"
"235022","151-BY","2017/06/10 12:59:35","新北市中和區錦和路350-1號","121.490541666667","24.9935233333333","6500300","中和區"
"235002","185-VK","2017/06/10 12:59:21","新北市中和區成功路17號","121.526295","24.9937583333333","6500300","中和區"
"235031","255-BX","2017/06/10 12:59:32","新北市中和區中正路885號","121.48431","25.0043233333333","6500300","中和區"
"235005","375-QA","2017/06/10 12:59:21","新北市中和區中正路527號","121.487723333333","24.9935183333333","6500300","中和區"
"235025","378-QA","2017/06/10 12:43:05","新北市中和區員山路36巷16-2號","121.485198333333","24.9917916666667","6500300","中和區"
"235035","783-BX","2017/06/10 12:59:34","新北市中和區民樂路81號","121.484868333333","25.0013016666667","6500300","中和區"
"247002","402-BY","2017/06/10 12:59:25","新北市五股區中興路三段5號","121.449335","25.0792966666667","6501400","蘆洲區"
"228005","097-TW","2017/06/10 12:59:35","新北市貢寮區福隆里東興街31-1號","121.953693333333","25.0210916666667","6502600","貢寮區"
"228004","212-TW","2017/06/10 12:59:20","新北市貢寮區吉林里內寮街10號","121.888346666667","24.990095","6502600","貢寮區"
"208004","AAC-292","2017/06/10 12:59:29","新北市金山區磺港里青年路1號","121.64162","25.22499","6502700","金山區"
"251001","155-BY","2017/06/10 12:59:30","新北市淡水區中正路21號","121.442606666667","25.1695333333333","6501000","淡水區"
"207002","749-BX","2017/06/10 12:58:44","新北市萬里區雙興里大坪路39號","121.625926666667","25.1714283333333","6502800","萬里區"
"207001","463-BY","2017/06/10 12:59:32","新北市萬里區萬里里獅頭路23號","121.69327","25.1782616666667","6502800","萬里區"
"236006","498-BY","2017/06/10 12:59:21","新北市土城區亞洲路32巷3號","121.435726666667","24.9744516666667","6501300","土城區"
"221032","280-BY","2017/06/10 12:59:28","新北市汐止區建成路57巷18號","121.662273333333","25.0728816666667","6501100","汐止區"
"221038","297-VK","2017/06/10 12:59:19","新北市汐止區秀峰路57號","121.65953","25.065445","6501100","汐止區"
"221002","753-BX","2017/06/10 12:59:28","新北市汐止區康寧街749號","121.638496666667","25.0732433333333","6501100","汐止區"
