"lineid","car","time","location","longitude","latitude","cityid","cityname"
"234044","148-BY","2017/06/10 13:09:32","新北市永和區永元路18巷5號","121.522771666667","25.000335","6500400","永和區"
"234012","149-BY","2017/06/10 13:09:34","新北市永和區仁愛路122號","121.511611666667","25.0130833333333","6500400","永和區"
"234005","207-UY","2017/06/10 13:09:28","新北市永和區中山路一段175-1號","121.509605","25.0090216666667","6500400","永和區"
"234078","298-R6","2017/06/10 13:09:23","新北市永和區永貞路19號","121.520991666667","25.0070533333333","6500400","永和區"
"234036","336-UY","2017/06/10 13:09:36","新北市永和區民樂街59巷5號","121.52797","24.998315","6500400","永和區"
"234062","337-UY","2017/06/10 13:09:28","新北市永和區秀朗路二段43號","121.521538333333","25.0023616666667","6500400","永和區"
"234084","338-UY","2017/06/10 13:09:24","新北市永和區永貞路118號","121.518706666667","25.00451","6500400","永和區"
"234068","552-UM","2017/06/10 13:09:33","新北市永和區豫溪街90號","121.518573333333","25.0100183333333","6500400","永和區"
"234052","553-UM","2017/06/10 13:09:27","新北市永和區竹林路74號","121.519148333333","25.0128616666667","6500400","永和區"
"234015","745-BX","2017/06/10 13:09:36","新北市永和區文化路90巷17號","121.513635","25.016115","6500400","永和區"
"234028","746-BX","2017/06/10 13:09:31","新北市永和區厚德街83號","121.524283333333","24.9988183333333","6500400","永和區"
"234060","AAD-866","2017/06/10 13:09:29","新北市永和區安樂路304巷7號","121.514423333333","25.0052","6500400","永和區"
"234040","862-TW","2017/06/10 13:09:20","新北市永和區永貞路307號","121.510468333333","25.005835","6500400","永和區"
"234048","863-TW","2017/06/10 13:09:28","新北市永和區文化路135巷32弄3號","121.510736666667","25.0140216666667","6500400","永和區"
"234025","9371-KE","2017/06/10 13:09:23","新北市永和區自由街58號","121.513868333333","25.0058833333333","6500400","永和區"
"234010","9373-KE","2017/06/10 13:09:20","新北市永和區文化路122號","121.513163333333","25.0153516666667","6500400","永和區"
"248017","225-UY","2017/06/10 13:09:29","新北市五股區成泰路三段101-1號","121.444206666667","25.0903016666667","6501500","五股區"
"234022","9380-KE","2017/06/10 13:09:34","新北市永和區中興街10巷31號","121.516578333333","25.0109866666667","6500400","永和區"
"234076","969-R7","2017/06/10 13:09:36","新北市永和區民光街4號","121.51525","24.9962866666667","6500400","永和區"
"234072","AAC-211","2017/06/10 13:09:30","新北市永和區竹林路217號","121.520658333333","25.00867","6500400","永和區"
"234066","AAC-212","2017/06/10 13:09:29","新北市永和區保平路43號","121.511963333333","25.0072233333333","6500400","永和區"
"234001","AAC-295","2017/06/10 13:07:33","新北市永和區永和路二段3號","121.514415","25.00988","6500400","永和區"
"244005","248-BX","2017/06/10 13:09:28","新北市林口區中山路492號","121.37977","25.0826166666667","6501700","林口區"
"231002","002-UM","2017/06/10 13:09:20","新北市新店區安華路28-1號","121.519548333333","24.9610166666667","6500600","新店區"
"231025","0291-UT","2017/06/10 13:09:26","新北市新店區安華路28-1號","121.519245","24.9605816666667","6500600","新店區"
"231028","046-UY","2017/06/10 13:09:21","新北市新店區安華路28-1號","121.51957","24.9609366666667","6500600","新店區"
"231030","047-UY","2017/06/10 13:07:06","新北市新店區安康路一段299-1號","121.522255","24.9636266666667","6500600","新店區"
"231029","106-UY","2017/06/10 13:09:25","新北市新店區安華路28-1號","121.519668333333","24.96102","6500600","新店區"
"231018","107-UY","2017/06/10 13:09:28","新北市新店區安康路一段355-3號","121.519623333333","24.9616916666667","6500600","新店區"
"231012","108-UY","2017/06/10 13:09:26","新北市新店區安華路28-1號","121.519648333333","24.961365","6500600","新店區"
"231023","110-UY","2017/06/10 13:09:34","新北市新店區安華路28-1號","121.519581666667","24.9611833333333","6500600","新店區"
"231020","187-VK","2017/06/10 13:09:32","新北市新店區安華路28-1號","121.519646666667","24.9613583333333","6500600","新店區"
"231008","192-VK","2017/06/10 13:09:31","新北市新店區屈尺路161-3號","121.542191666667","24.9219383333333","6500600","新店區"
"231026","256-BX","2017/06/10 13:09:17","新北市新店區安華路28-1號","121.51965","24.9612116666667","6500600","新店區"
"231034","268-BY","2017/06/10 13:09:22","新北市新店區安華路1-1號","121.519488333333","24.9605216666667","6500600","新店區"
"231010","278-BY","2017/06/10 00:44:30","新北市新店區安華路28-1號","121.519731666667","24.9611583333333","6500600","新店區"
"231017","AAD-862","2017/06/10 13:09:36","新北市新店區安華路28-1號","121.519713333333","24.9613516666667","6500600","新店區"
"231027","3712-VJ","2017/06/10 13:09:29","新北市新店區安華路28-1號","121.519343333333","24.96062","6500600","新店區"
"231024","3713-VJ","2017/06/10 13:09:28","新北市新店區安華路28-1號","121.519098333333","24.9606433333333","6500600","新店區"
"231037","4715-K9","2017/06/10 13:09:36","新北市新店區安華路28-1號","121.519411666667","24.9606783333333","6500600","新店區"
"231036","512-UM","2017/06/10 13:09:25","新北市新店區安康路二段269號","121.504556666667","24.9574516666667","6500600","新店區"
"231035","515-UM","2017/06/10 13:09:30","新北市新店區安華路28-1號","121.519653333333","24.9612516666667","6500600","新店區"
"231006","617-UM","2017/06/10 13:09:20","新北市新店區安華路28-1號","121.51956","24.9610516666667","6500600","新店區"
"231001","619-UM","2017/06/10 13:09:38","新北市新店區安華路28-1號","121.51957","24.9611433333333","6500600","新店區"
"231003","641-BX","2017/06/10 13:09:22","新北市新店區安華路28-1號","121.519615","24.9605883333333","6500600","新店區"
"231013","719-UM","2017/06/10 13:09:33","新北市新店區安華路28-1號","121.519646666667","24.961495","6500600","新店區"
"231033","720-UM","2017/06/10 13:09:27","新北市新店區安華路28-1號","121.51929","24.961185","6500600","新店區"
"231005","897-TW","2017/06/10 13:09:20","新北市新店區安華路28-1號","121.519578333333","24.9609366666667","6500600","新店區"
"231004","899-TW","2017/06/10 13:09:33","新北市新店區安華路28-1號","121.519323333333","24.9609083333333","6500600","新店區"
"235027","006-UY","2017/06/10 13:09:32","新北市中和區員山路36巷16-3號","121.485065","24.9913216666667","6500300","中和區"
"235029","098-UM","2017/06/10 13:09:37","新北市中和區橋和路282號","121.49624","25.0068066666667","6500300","中和區"
"235004","150-BY","2017/06/10 13:09:37","新北市中和區和城路一段271巷1號","121.48544","24.9917783333333","6500300","中和區"
"235022","151-BY","2017/06/10 13:09:35","新北市中和區圓通路367巷33弄15號","121.495098333333","24.9851616666667","6500300","中和區"
"235019","183-VK","2017/06/10 03:43:43","新北市中和區員山路36巷16-3號","121.484943333333","24.9912","6500300","中和區"
"235002","185-VK","2017/06/10 13:09:21","新北市中和區自立路23號","121.522261666667","24.995805","6500300","中和區"
"235031","255-BX","2017/06/10 13:09:32","新北市中和區新生街177巷7號","121.484165","25.0007166666667","6500300","中和區"
"235005","375-QA","2017/06/10 13:09:21","新北市中和區中和路104號","121.502821666667","24.99975","6500300","中和區"
"235015","376-QA","2017/06/10 13:09:16","新北市中和區中正路271號","121.496018333333","24.9936516666667","6500300","中和區"
"235025","378-QA","2017/06/10 12:43:05","新北市中和區員山路36巷16-2號","121.485198333333","24.9917916666667","6500300","中和區"
"235014","4979-A6","2017/06/10 13:09:34","新北市中和區錦和路350-1號","121.490486666667","24.993675","6500300","中和區"
"235033","4980-A6","2017/06/10 13:09:22","新北市中和區中正路589巷15號","121.485628333333","24.9934266666667","6500300","中和區"
"235006","551-UM","2017/06/10 13:09:38","新北市中和區景平路159巷17弄5號","121.512771666667","24.9918433333333","6500300","中和區"
"235018","640-BX","2017/06/10 13:09:17","新北市中和區中正路589巷15號","121.485715","24.9933033333333","6500300","中和區"
"235010","733-UM","2017/06/10 13:09:27","新北市中和區員山路36巷13號","121.484093333333","24.9909183333333","6500300","中和區"
"235035","783-BX","2017/06/10 13:09:14","新北市中和區立德街199號","121.484143333333","25.0094366666667","6500300","中和區"
"235026","800-TS","2017/06/10 13:09:32","新北市中和區中山路二段454號","121.488866666667","25.0051166666667","6500300","中和區"
"235021","801-TS","2017/06/10 13:09:26","新北市中和區員山路36巷16-3號","121.485138333333","24.9914466666667","6500300","中和區"
"235001","AAC-213","2017/06/10 13:09:29","新北市中和區中正路283號","121.493846666667","24.9938466666667","6500300","中和區"
"220013","072-UY","2017/06/10 03:55:23","新北市板橋區民生路二段17號","121.472353333333","25.016395","6500100","板橋區"
"247002","402-BY","2017/06/10 13:09:25","新北市蘆洲區永康街63號","121.45624","25.0852","6501400","蘆洲區"
"247007","339-TH","2017/06/10 13:09:29","新北市五股區中興路三段2巷10號","121.448705","25.0815583333333","6501400","蘆洲區"
"228005","097-TW","2017/06/10 13:09:35","新北市貢寮區仁理村仁和路214號","121.923655","25.05312","6502600","貢寮區"
"228004","212-TW","2017/06/10 13:09:20","新北市貢寮區吉林里內寮街61號","121.891771666667","24.97612","6502600","貢寮區"
"208004","AAC-292","2017/06/10 13:09:29","新北市金山區中山路192號","121.637866666667","25.2214433333333","6502700","金山區"
"251001","155-BY","2017/06/10 13:09:30","新北市淡水區中正路21號","121.44266","25.1695016666667","6501000","淡水區"
"207002","749-BX","2017/06/10 13:09:24","新北市萬里區崁腳里內崁路2-3號","121.638348333333","25.1607866666667","6502800","萬里區"
"207001","463-BY","2017/06/10 13:09:32","新北市萬里區萬里里獅頭路22-1號","121.693096666667","25.1782383333333","6502800","萬里區"
"252005","073-UM","2017/06/10 13:09:25","新北市三芝區智成街120號","121.506058333333","25.2554066666667","6502100","三芝區"
"236006","498-BY","2017/06/10 13:09:21","新北市土城區亞洲路55號","121.433378333333","24.9712283333333","6501300","土城區"
"221032","280-BY","2017/06/10 13:09:28","新北市汐止區龍安路204號","121.652648333333","25.0629683333333","6501100","汐止區"
"221038","297-VK","2017/06/10 13:09:19","新北市汐止區仁愛路113巷8號","121.662203333333","25.0638283333333","6501100","汐止區"
"221002","753-BX","2017/06/10 13:09:28","新北市汐止區環河街1號","121.63207","25.063695","6501100","汐止區"
