"lineid","car","time","location","longitude","latitude","cityid","cityname"
"234044","148-BY","2017/06/10 13:39:32","新北市永和區成功路二段6號","121.526625","25.00105","6500400","永和區"
"234012","149-BY","2017/06/10 13:39:34","新北市永和區仁愛路240號","121.50829","25.011615","6500400","永和區"
"234005","207-UY","2017/06/10 13:39:28","新北市永和區永和路一段66號","121.513046666667","25.006045","6500400","永和區"
"234078","298-R6","2017/06/10 13:39:23","新北市永和區國中路104巷9號","121.524511666667","25.00706","6500400","永和區"
"234036","336-UY","2017/06/10 13:39:36","新北市永和區環河東路四段44號","121.528483333333","24.998745","6500400","永和區"
"234062","337-UY","2017/06/10 13:39:28","新北市永和區秀朗路一段192巷6弄14號","121.51903","25.0022733333333","6500400","永和區"
"234084","338-UY","2017/06/10 13:39:24","新北市永和區林森路41巷1號","121.525178333333","25.00458","6500400","永和區"
"234068","552-UM","2017/06/10 13:39:33","新北市永和區竹林路58-2號","121.518025","25.013825","6500400","永和區"
"234052","553-UM","2017/06/10 13:39:27","新北市永和區竹林路39巷24弄16號","121.519176666667","25.014145","6500400","永和區"
"234015","745-BX","2017/06/10 13:39:36","新北市永和區永和路二段425巷57弄5號","121.513668333333","25.0171016666667","6500400","永和區"
"234028","746-BX","2017/06/10 13:39:23","新北市永和區四維街103巷11號","121.523945","24.9976983333333","6500400","永和區"
"234060","AAD-866","2017/06/10 13:39:29","新北市永和區中正路163號","121.51652","24.9984633333333","6500400","永和區"
"234040","862-TW","2017/06/10 13:39:30","新北市永和區中和路305巷16弄2號","121.507375","25.0013866666667","6500400","永和區"
"234048","863-TW","2017/06/10 13:39:28","新北市永和區保安路86號","121.509696666667","25.01624","6500400","永和區"
"234025","9371-KE","2017/06/10 13:39:23","新北市永和區保安路264號","121.505816666667","25.0123366666667","6500400","永和區"
"234010","9373-KE","2017/06/10 13:39:20","新北市永和區保福路二段23巷19號","121.510235","25.0112183333333","6500400","永和區"
"248017","225-UY","2017/06/10 13:39:29","新北市五股區民義路二段93-9號","121.406985","25.106835","6501500","五股區"
"234022","9380-KE","2017/06/10 13:39:21","新北市永和區中正路702巷4號","121.516321666667","25.010165","6500400","永和區"
"234076","969-R7","2017/06/10 13:39:36","新北市永和區民權路28號","121.520303333333","24.999125","6500400","永和區"
"234072","AAC-211","2017/06/10 13:39:30","新北市永和區竹林路213巷31號","121.522731666667","25.0091366666667","6500400","永和區"
"234066","AAC-212","2017/06/10 13:39:29","新北市永和區中山路一段201號","121.509038333333","25.0086383333333","6500400","永和區"
"234001","AAC-295","2017/06/10 13:37:53","新北市永和區自強街8巷5弄2號","121.51461","25.0074933333333","6500400","永和區"
"244005","248-BX","2017/06/10 13:39:28","新北市林口區竹林路326巷24弄4號","121.391948333333","25.0814783333333","6501700","林口區"
"231002","002-UM","2017/06/10 13:39:19","新北市新店區中央三街127號","121.524101666667","24.976885","6500600","新店區"
"231025","0291-UT","2017/06/10 13:39:26","新北市新店區中正路265號","121.53808","24.97387","6500600","新店區"
"231028","046-UY","2017/06/10 13:39:21","新北市新店區安和路二段190號","121.518705","24.9745083333333","6500600","新店區"
"231030","047-UY","2017/06/10 13:39:32","新北市新店區秀山路72號","121.531226666667","24.96093","6500600","新店區"
"231029","106-UY","2017/06/10 13:39:28","新北市新店區安康路二段240號","121.509195","24.959155","6500600","新店區"
"231018","107-UY","2017/06/10 13:39:28","新北市新店區百忍街11號","121.534726666667","24.9755616666667","6500600","新店區"
"231012","108-UY","2017/06/10 13:39:25","新北市新店區德正街29號","121.544561666667","24.9713266666667","6500600","新店區"
"231023","110-UY","2017/06/10 13:39:34","新北市新店區新店路122號","121.537148333333","24.954895","6500600","新店區"
"231020","187-VK","2017/06/10 13:39:32","新北市新店區永興路90號","121.544365","24.9315116666667","6500600","新店區"
"231026","256-BX","2017/06/10 13:39:37","新北市新店區中正路111號","121.54249","24.970805","6500600","新店區"
"231034","268-BY","2017/06/10 13:39:22","新北市新店區達觀路12號","121.505366666667","24.9405983333333","6500600","新店區"
"231010","278-BY","2017/06/10 13:39:39","新北市新店區中正路307巷2號","121.536491666667","24.9746033333333","6500600","新店區"
"231017","AAD-862","2017/06/10 13:39:36","新北市新店區竹林路28號","121.551806666667","24.9513983333333","6500600","新店區"
"231027","3712-VJ","2017/06/10 13:39:29","新北市新店區北宜路一段129號","121.540641666667","24.95329","6500600","新店區"
"231024","3713-VJ","2017/06/10 13:39:28","新北市新店區華興街25號","121.537533333333","24.969065","6500600","新店區"
"231037","4715-K9","2017/06/10 13:39:36","新北市新店區安康路二段345號","121.49603","24.9549816666667","6500600","新店區"
"231036","512-UM","2017/06/10 13:39:17","新北市新店區安祥路147巷18號","121.475643333333","24.956025","6500600","新店區"
"231035","515-UM","2017/06/10 13:39:30","新北市新店區安忠路56巷6號","121.512918333333","24.9594116666667","6500600","新店區"
"231006","617-UM","2017/06/10 13:39:20","新北市新店區北宜路一段66號","121.538513333333","24.9558766666667","6500600","新店區"
"231001","619-UM","2017/06/10 13:39:18","新北市新店區中正路376號","121.534936666667","24.9767183333333","6500600","新店區"
"231003","641-BX","2017/06/10 13:39:22","新北市新店區中正路31號","121.54517","24.969595","6500600","新店區"
"231013","719-UM","2017/06/10 13:39:33","新北市新店區中正路454-5號","121.534456666667","24.9790866666667","6500600","新店區"
"231033","720-UM","2017/06/10 13:39:27","新北市新店區莒光路44巷21弄11-6號","121.518641666667","24.95224","6500600","新店區"
"231005","897-TW","2017/06/10 13:39:20","新北市新店區寶中路83號","121.54781","24.98064","6500600","新店區"
"231004","899-TW","2017/06/10 13:39:33","新北市新店區北新路二段1號","121.54267","24.97125","6500600","新店區"
"231038","AKT-0513","2017/06/10 13:39:29","新北市新店區安華路30巷1號","121.519571666667","24.9592383333333","6500600","新店區"
"235030","003-UY","2017/06/10 13:39:27","新北市中和區水源路37號","121.504488333333","25.0036216666667","6500300","中和區"
"235027","006-UY","2017/06/10 13:39:32","新北市中和區連城路347巷3號","121.48835","24.9954783333333","6500300","中和區"
"235020","096-UM","2017/06/10 13:39:27","新北市中和區員山路466巷18號","121.480988333333","25.006575","6500300","中和區"
"235003","097-UM","2017/06/10 13:39:30","新北市中和區大勇街25巷17號","121.515715","24.9937066666667","6500300","中和區"
"235029","098-UM","2017/06/10 13:39:37","新北市中和區莊敬路33巷36弄2號","121.500086666667","25.0064633333333","6500300","中和區"
"235004","150-BY","2017/06/10 13:39:37","新北市中和區安平路59號","121.509446666667","24.9950716666667","6500300","中和區"
"235022","151-BY","2017/06/10 13:39:36","新北市中和區圓通路369巷66號","121.490463333333","24.9824916666667","6500300","中和區"
"235019","183-VK","2017/06/10 13:39:36","新北市中和區莒光路120巷15弄1號","121.471688333333","25.0012516666667","6500300","中和區"
"235002","185-VK","2017/06/10 13:39:29","新北市中和區自強路20號","121.520236666667","24.9954783333333","6500300","中和區"
"235013","186-VK","2017/06/10 13:39:29","新北市中和區景安路123號","121.505735","24.9961766666667","6500300","中和區"
"235031","255-BX","2017/06/10 13:39:32","新北市中和區新生街242巷9號","121.482948333333","24.99781","6500300","中和區"
"235036","301-VK","2017/06/10 13:39:38","新北市中和區連城路237-1號","121.49381","24.99731","6500300","中和區"
"235007","352-BY","2017/06/10 13:39:31","新北市中和區景平路161-1號","121.512571666667","24.9923933333333","6500300","中和區"
"235005","375-QA","2017/06/10 13:39:21","新北市中和區中和路390號","121.511143333333","25.0026016666667","6500300","中和區"
"235015","376-QA","2017/06/10 13:39:35","新北市中和區華新街143巷1號","121.506478333333","24.9815816666667","6500300","中和區"
"235032","377-QA","2017/06/10 13:39:01","新北市中和區圓通路261號","121.49596","24.9932766666667","6500300","中和區"
"235025","378-QA","2017/06/10 13:39:26","新北市中和區民享街92巷16號","121.474383333333","24.9998416666667","6500300","中和區"
"235014","4979-A6","2017/06/10 13:38:13","新北市中和區景新街496巷32弄26號","121.512566666667","24.98544","6500300","中和區"
"235033","4980-A6","2017/06/10 13:39:22","新北市中和區連城路65巷2號","121.497705","25.0011183333333","6500300","中和區"
"235006","551-UM","2017/06/10 13:39:17","新北市中和區成功路51巷1號","121.526538333333","24.9928633333333","6500300","中和區"
"235034","558-UM","2017/06/10 13:39:30","新北市中和區景平路429-2號","121.501248333333","24.9954133333333","6500300","中和區"
"235009","565-BX","2017/06/10 13:39:30","新北市中和區南山路236巷24弄56號","121.50436","24.9886816666667","6500300","中和區"
"235018","640-BX","2017/06/10 13:39:37","新北市中和區民享街93巷3號","121.47517","25.0005583333333","6500300","中和區"
"235024","647-TV","2017/06/10 13:39:22","新北市中和區員山路449號","121.480551666667","25.0041133333333","6500300","中和區"
"235011","732-UM","2017/06/10 13:39:25","新北市中和區南山路320巷10弄11號","121.506806666667","24.9866283333333","6500300","中和區"
"235010","733-UM","2017/06/10 13:39:27","新北市中和區南山路399巷10號","121.507086666667","24.9904666666667","6500300","中和區"
"235035","783-BX","2017/06/10 13:39:34","新北市中和區中山路二段482巷45號","121.490648333333","25.0068733333333","6500300","中和區"
"235026","800-TS","2017/06/10 13:39:32","新北市中和區中山路二段312巷33弄22號","121.494951666667","25.0043566666667","6500300","中和區"
"235021","801-TS","2017/06/10 13:39:26","新北市中和區民享街97巷18號","121.475305","24.9999083333333","6500300","中和區"
"235016","805-TS","2017/06/10 13:39:30","新北市中和區興南路三段52-1號","121.494016666667","24.9756066666667","6500300","中和區"
"235012","896-TW","2017/06/10 13:39:38","新北市中和區中正路81號","121.500725","24.9934066666667","6500300","中和區"
"235017","900-TW","2017/06/10 13:39:29","新北市中和區民享街457號","121.470415","24.993205","6500300","中和區"
"235001","AAC-213","2017/06/10 13:39:28","新北市中和區景新街383巷50號","121.51453","24.9907533333333","6500300","中和區"
"235023","AAC-215","2017/06/10 13:39:33","新北市中和區員山路36巷16-3號","121.484953333333","24.9913183333333","6500300","中和區"
"220013","072-UY","2017/06/10 13:39:38","新北市板橋區民生路二段16號","121.473125","25.01652","6500100","板橋區"
"220034","073-UY","2017/06/10 13:39:26","新北市板橋區華東街260號","121.452608333333","25.0015966666667","6500100","板橋區"
"220045","120-SR","2017/06/10 13:39:23","新北市板橋區民生路二段120號","121.470493333333","25.0197616666667","6500100","板橋區"
"247002","402-BY","2017/06/10 13:39:25","新北市蘆洲區復興路45號","121.475216666667","25.0870433333333","6501400","蘆洲區"
"247005","341-TH","2017/06/10 13:39:33","新北市蘆洲區中原路90號","121.457283333333","25.0815766666667","6501400","蘆洲區"
"247007","339-TH","2017/06/10 13:39:29","新北市蘆洲區復興路323巷168-12號","121.477733333333","25.09653","6501400","蘆洲區"
"247013","057-VK","2017/06/10 13:37:10","新北市五股區凌雲路一段21號","121.45436","25.0996216666667","6501400","蘆洲區"
"247003","056-VK","2017/06/10 13:39:18","新北市五股區中興路二段182巷15弄13號","121.456883333333","25.081785","6501400","蘆洲區"
"247015","001-UY","2017/06/10 13:39:38","新北市五股區凌雲路一段21號","121.455061666667","25.09783","6501400","蘆洲區"
"228005","097-TW","2017/06/10 13:39:35","新北市貢寮區美豐里文秀坑8號","121.90254","25.0504016666667","6502600","貢寮區"
"228004","212-TW","2017/06/10 13:39:20","新北市貢寮區龍崗里石壁坑街24號","121.911523333333","24.9979633333333","6502600","貢寮區"
"208004","AAC-292","2017/06/10 13:39:29","新北市金山區山城路10巷10號","121.593583333333","25.2020166666667","6502700","金山區"
"251001","155-BY","2017/06/10 13:39:30","新北市淡水區中山路129巷26號","121.441805","25.1701383333333","6501000","淡水區"
"207002","749-BX","2017/06/10 13:39:24","新北市萬里區崁腳里崁腳路166號","121.645005","25.1557833333333","6502800","萬里區"
"207001","463-BY","2017/06/10 13:39:32","新北市萬里區大鵬里萬里加投78號","121.646198333333","25.2117583333333","6502800","萬里區"
"252005","073-UM","2017/06/10 13:39:25","新北市三芝區圓山里八連溪頭6-2號","121.526641666667","25.221805","6502100","三芝區"
"236041","107-UM","2017/06/10 13:39:34","新北市土城區城林路6巷80號","121.438403333333","24.979775","6501300","土城區"
"236075","166-UM","2017/06/10 13:39:35","新北市土城區城林路6巷80號","121.438458333333","24.979745","6501300","土城區"
"236029","253-BX","2017/06/10 13:39:36","新北市土城區城林路6巷80號","121.43846","24.9798316666667","6501300","土城區"
"236013","270-VK","2017/06/10 13:39:34","新北市土城區城林路6巷80號","121.438466666667","24.9797366666667","6501300","土城區"
"236017","401-BY","2017/06/10 13:39:22","新北市土城區城林路6巷80號","121.438691666667","24.9797416666667","6501300","土城區"
"236006","498-BY","2017/06/10 13:39:22","新北市土城區學府路二段171-1號","121.446255","24.9788833333333","6501300","土城區"
"236057","912-UM","2017/06/10 13:39:35","新北市土城區城林路6巷80號","121.438426666667","24.9798616666667","6501300","土城區"
"236061","915-UM","2017/06/10 13:39:24","新北市土城區城林路6巷80號","121.438373333333","24.979765","6501300","土城區"
"236047","970-R7","2017/06/10 13:39:33","新北市土城區城林路6巷80號","121.438718333333","24.9798066666667","6501300","土城區"
"236054","AAC-216","2017/06/10 13:39:32","新北市土城區城林路6巷80號","121.438481666667","24.9797316666667","6501300","土城區"
"221032","280-BY","2017/06/10 13:39:28","新北市汐止區大同路二段314號","121.655608333333","25.06678","6501100","汐止區"
"221038","297-VK","2017/06/10 13:39:19","新北市汐止區新台五路一段91-2號","121.650385","25.0613566666667","6501100","汐止區"
"221002","753-BX","2017/06/10 13:39:28","新北市汐止區原興路60巷8-1號","121.63316","25.06582","6501100","汐止區"
"220027","145-BY","2017/06/10 13:39:17","新北市板橋區南雅南路二段116號","121.452476666667","25.0005433333333","6500100","板橋區"
"220030","610-BX","2017/06/10 13:39:29","新北市板橋區華東街1-10號","121.448263333333","24.9949383333333","6500100","板橋區"
"220039","257-TC","2017/06/10 13:39:34","新北市板橋區民生路二段120號","121.47065","25.0198833333333","6500100","板橋區"
"220043","267-BY","2017/06/10 13:39:34","新北市板橋區民生路二段182號","121.470971666667","25.020415","6500100","板橋區"
"220020","277-BY","2017/06/10 13:39:28","新北市板橋區華東街1-10號","121.448345","24.9951266666667","6500100","板橋區"
"220019","283-VK","2017/06/10 13:39:23","新北市板橋區民生路二段30號","121.472671666667","25.0170116666667","6500100","板橋區"
"220040","285-UM","2017/06/10 13:39:24","新北市板橋區民生路二段188號","121.470428333333","25.0206183333333","6500100","板橋區"
"220031","286-VK","2017/06/10 13:39:37","新北市板橋區華東街1-9號","121.44825","24.9949016666667","6500100","板橋區"
"220029","287-VK","2017/06/10 13:39:40","新北市板橋區華東街1-10號","121.448263333333","24.9950583333333","6500100","板橋區"
"220009","293-UM","2017/06/10 13:39:37","新北市板橋區民生路二段36-1號","121.472516666667","25.01677","6500100","板橋區"
"220032","296-UM","2017/06/10 13:39:35","新北市板橋區華東街1-9號","121.448203333333","24.994915","6500100","板橋區"
"220023","297-UM","2017/06/10 13:39:37","新北市板橋區華東街1-9號","121.448188333333","24.994965","6500100","板橋區"
"220004","303-R5","2017/06/10 13:39:36","新北市板橋區四川路二段245巷43號","121.451838333333","24.992555","6500100","板橋區"
"220028","461-BY","2017/06/10 13:39:23","新北市板橋區華東街1-9號","121.448243333333","24.994885","6500100","板橋區"
"220104","560-BX","2017/06/10 13:39:26","新北市板橋區南雅西路二段145巷10號","121.451565","25.0119233333333","6500100","板橋區"
"220011","609-BX","2017/06/10 00:10:04","新北市板橋區民生路二段15-1號","121.472735","25.0163416666667","6500100","板橋區"
"220005","686-BX","2017/06/10 13:39:26","新北市板橋區民生路二段36-1號","121.47265","25.016535","6500100","板橋區"
"220025","687-BX","2017/06/10 13:39:35","新北市板橋區大觀路三段240號","121.429335","24.9926316666667","6500100","板橋區"
"220002","741-BX","2017/06/10 13:39:20","新北市板橋區民生路二段17號","121.472538333333","25.0163166666667","6500100","板橋區"
"220051","830-TW","2017/06/10 12:51:25","新北市板橋區民生路二段120號","121.470358333333","25.0196316666667","6500100","板橋區"
"220022","895-R6","2017/06/10 13:39:38","新北市板橋區南門街36號","121.457036666667","25.0083433333333","6500100","板橋區"
"220021","985-R7","2017/06/10 13:39:26","新北市板橋區華東街1-10號","121.448311666667","24.995055","6500100","板橋區"
