"lineid","car","time","location","longitude","latitude","cityid","cityname"
"234062","337-UY","2017/06/10 14:49:28","新北市五股區中興路三段1-7號","121.452228333333","25.0753583333333","6500400","永和區"
"234028","746-BX","2017/06/10 14:49:23","新北市五股區孝義路9-12號","121.449996666667","25.106905","6500400","永和區"
"234025","9371-KE","2017/06/10 14:49:23","新北市永和區雙和街25巷7號","121.508983333333","25.00178","6500400","永和區"
"248017","225-UY","2017/06/10 14:40:08","新北市五股區外寮路13-1號","121.4244","25.0813783333333","6501500","五股區"
"234022","9380-KE","2017/06/10 14:29:49","新北市永和區保生路55-1號","121.504471666667","25.0109233333333","6500400","永和區"
"234066","AAC-212","2017/06/10 14:49:30","新北市永和區新生路273巷1-1號","121.504823333333","25.0127616666667","6500400","永和區"
"231002","002-UM","2017/06/10 14:49:19","新北市新店區民權路72號","121.538076666667","24.9829866666667","6500600","新店區"
"231025","0291-UT","2017/06/10 14:49:26","新北市新店區民族路163號","121.537651666667","24.9766533333333","6500600","新店區"
"231028","046-UY","2017/06/10 14:49:21","新北市新店區安德街169號","121.50859","24.959195","6500600","新店區"
"231030","047-UY","2017/06/10 14:49:27","新北市新店區安興路56號","121.516415","24.9749266666667","6500600","新店區"
"231029","106-UY","2017/06/10 14:49:25","新北市新店區錦秀路11巷66號","121.480581666667","24.943425","6500600","新店區"
"231018","107-UY","2017/06/10 14:49:28","新北市新店區中央一街29號","121.52796","24.9733766666667","6500600","新店區"
"231012","108-UY","2017/06/10 14:49:25","新北市新店區永華街59號","121.544675","24.9755783333333","6500600","新店區"
"231023","110-UY","2017/06/10 14:49:34","新北市新店區檳榔路105號","121.544635","24.96183","6500600","新店區"
"231020","187-VK","2017/06/10 14:49:32","新北市新店區金興路12-1號","121.550318333333","24.9290016666667","6500600","新店區"
"231026","256-BX","2017/06/10 14:49:24","新北市新店區安康路一段231號","121.525438333333","24.963115","6500600","新店區"
"231034","268-BY","2017/06/10 14:49:22","新北市新店區安康路二段335號","121.498068333333","24.9557666666667","6500600","新店區"
"231017","AAD-862","2017/06/10 14:49:36","新北市新店區長峰路61號","121.588505","24.9520733333333","6500600","新店區"
"231037","4715-K9","2017/06/10 14:49:36","新北市新店區柴埕路52巷9號","121.511746666667","24.964905","6500600","新店區"
"231036","512-UM","2017/06/10 14:49:37","新北市新店區安祥路104巷1弄9號","121.480661666667","24.96252","6500600","新店區"
"231035","515-UM","2017/06/10 14:49:30","新北市新店區安和路二段166-2號","121.519595","24.9739116666667","6500600","新店區"
"231006","617-UM","2017/06/10 14:49:26","新北市新店區北宜路一段161號","121.542583333333","24.9529616666667","6500600","新店區"
"231001","619-UM","2017/06/10 14:49:18","新北市新店區三民路123號","121.534731666667","24.9723633333333","6500600","新店區"
"231003","641-BX","2017/06/10 14:49:22","新北市新店區中興路一段298號","121.546206666667","24.969335","6500600","新店區"
"231039","718-UY","2017/06/10 14:49:30","新北市新店區秀山路72號","121.531305","24.9608766666667","6500600","新店區"
"231013","719-UM","2017/06/10 14:49:33","新北市新店區北新路二段29巷1弄2號","121.54253","24.9725516666667","6500600","新店區"
"231033","720-UM","2017/06/10 14:49:27","新北市新店區安泰路7巷16號","121.485611666667","24.950935","6500600","新店區"
"231005","897-TW","2017/06/10 14:49:20","新北市新店區復興路2號","121.532365","24.9882683333333","6500600","新店區"
"231004","899-TW","2017/06/10 14:49:33","新北市新店區民族路161號","121.537715","24.9768683333333","6500600","新店區"
"235030","003-UY","2017/06/10 14:49:27","新北市中和區南工路60號","121.50621","25.001785","6500300","中和區"
"235020","096-UM","2017/06/10 14:49:27","新北市中和區民富街94號","121.476958333333","25.0086083333333","6500300","中和區"
"235003","097-UM","2017/06/10 14:49:31","新北市中和區安平路155號","121.512255","24.9981666666667","6500300","中和區"
"235029","098-UM","2017/06/10 14:49:37","新北市中和區福美路246號","121.498676666667","25.0052283333333","6500300","中和區"
"235004","150-BY","2017/06/10 14:49:16","新北市中和區保健路50巷66號","121.509383333333","24.9951666666667","6500300","中和區"
"235022","151-BY","2017/06/10 14:49:35","新北市中和區員山路142巷24號","121.482381666667","24.99651","6500300","中和區"
"235019","183-VK","2017/06/10 14:49:36","新北市中和區民生街85巷3弄1號","121.46913","25.0043566666667","6500300","中和區"
"235002","185-VK","2017/06/10 14:49:21","新北市中和區自立路139巷8號","121.522566666667","24.9938133333333","6500300","中和區"
"235013","186-VK","2017/06/10 14:49:29","新北市中和區景平路562號","121.502005","24.9951566666667","6500300","中和區"
"235031","255-BX","2017/06/10 14:49:31","新北市中和區新生街184號","121.483673333333","24.999685","6500300","中和區"
"235008","293-VK","2017/06/10 14:49:37","新北市中和區捷運路16-2號","121.508813333333","24.9901166666667","6500300","中和區"
"235036","301-VK","2017/06/10 14:49:19","新北市中和區中和路74號","121.50076","25.0001333333333","6500300","中和區"
"235007","352-BY","2017/06/10 14:49:31","新北市中和區安和路9號","121.511595","24.993585","6500300","中和區"
"235015","376-QA","2017/06/10 14:49:35","新北市中和區中興街180巷37號","121.498173333333","24.9892833333333","6500300","中和區"
"235032","377-QA","2017/06/10 14:49:21","新北市中和區福祥路68號","121.499291666667","25.0052083333333","6500300","中和區"
"235014","4979-A6","2017/06/10 14:49:33","新北市中和區景平路241巷69號","121.507698333333","24.992075","6500300","中和區"
"235033","4980-A6","2017/06/10 14:49:22","新北市中和區圓通路76號","121.500125","24.997135","6500300","中和區"
"235034","558-UM","2017/06/10 14:42:10","新北市中和區中和路100號","121.502038333333","24.9994316666667","6500300","中和區"
"235018","640-BX","2017/06/10 14:49:37","新北市中和區莒光路93-4號","121.472495","25.0032283333333","6500300","中和區"
"235024","647-TV","2017/06/10 14:49:22","新北市中和區員山路394巷16號","121.481371666667","25.0045866666667","6500300","中和區"
"235011","732-UM","2017/06/10 14:40:05","新北市中和區南山路156號","121.504321666667","24.9919983333333","6500300","中和區"
"235010","733-UM","2017/06/10 14:49:27","新北市中和區仁愛街79號","121.5116","24.9873466666667","6500300","中和區"
"235035","783-BX","2017/06/10 14:49:34","新北市中和區員山路36巷16-3號","121.48516","24.9912316666667","6500300","中和區"
"235026","800-TS","2017/06/10 14:49:32","新北市中和區橋和路88-12號","121.489968333333","25.0052533333333","6500300","中和區"
"235021","801-TS","2017/06/10 14:49:26","新北市中和區員山路150號","121.481311666667","24.9972216666667","6500300","中和區"
"235016","805-TS","2017/06/10 14:49:30","新北市中和區華新街192巷18號","121.50649","24.9829416666667","6500300","中和區"
"235012","896-TW","2017/06/10 14:49:18","新北市中和區忠孝街99-3號","121.512048333333","24.9861833333333","6500300","中和區"
"235017","900-TW","2017/06/10 14:49:29","新北市中和區國光街215巷71-2號","121.467846666667","24.9996033333333","6500300","中和區"
"235001","AAC-213","2017/06/10 14:49:28","新北市中和區秀朗路三段10巷14弄47號","121.523796666667","24.996485","6500300","中和區"
"235023","AAC-215","2017/06/10 14:49:33","新北市中和區圓通路305巷5弄7號","121.493865","24.9903166666667","6500300","中和區"
"220016","013-TV","2017/06/10 14:49:37","新北市板橋區中山路二段412巷29弄33號","121.484875","25.0199916666667","6500100","板橋區"
"220013","072-UY","2017/06/10 14:49:38","新北市板橋區國泰街39巷2弄1號","121.468461666667","25.0062283333333","6500100","板橋區"
"220034","073-UY","2017/06/10 14:49:39","新北市板橋區中正路216巷133號","121.460633333333","25.0195416666667","6500100","板橋區"
"220105","075-UY","2017/06/10 14:49:22","新北市板橋區民治街57巷32-1號","121.480215","25.034305","6500100","板橋區"
"220045","120-SR","2017/06/10 14:49:23","新北市板橋區莒光路40巷16號","121.470103333333","25.023695","6500100","板橋區"
"247002","402-BY","2017/06/10 14:49:25","新北市蘆洲區光榮路112號","121.464313333333","25.089345","6501400","蘆洲區"
"247007","339-TH","2017/06/10 14:49:28","新北市蘆洲區中山一路355號","121.470245","25.0778183333333","6501400","蘆洲區"
"247001","336-TH","2017/06/10 14:49:34","新北市蘆洲區永康街2巷31號","121.458958333333","25.0866483333333","6501400","蘆洲區"
"247013","057-VK","2017/06/10 14:49:29","新北市蘆洲區正和街76號","121.468581666667","25.0810433333333","6501400","蘆洲區"
"247003","056-VK","2017/06/10 14:49:38","新北市五股區天乙路101-6號","121.444848333333","25.1069633333333","6501400","蘆洲區"
"247015","001-UY","2017/06/10 14:49:18","新北市蘆洲區長榮路1號","121.463801666667","25.08205","6501400","蘆洲區"
"228005","097-TW","2017/06/10 14:49:35","新北市貢寮區美豐里文秀坑1-3號","121.905733333333","25.054715","6502600","貢寮區"
"228004","212-TW","2017/06/10 14:49:20","新北市貢寮區福隆里裕隆街1號","121.947188333333","25.0150966666667","6502600","貢寮區"
"227010","400-TW","2017/06/10 14:49:33","新北市雙溪區三貂里政光路3-1號","121.851171666667","25.0632633333333","6502500","雙溪區"
"208004","AAC-292","2017/06/10 14:49:29","新北市金山區半嶺41號","121.602121666667","25.239755","6502700","金山區"
"251001","155-BY","2017/06/10 14:49:30","新北市淡水區淡金路三段33號","121.446685","25.1978483333333","6501000","淡水區"
"207002","749-BX","2017/06/10 14:49:24","新北市萬里區崁腳里崁腳路73號","121.647555","25.159555","6502800","萬里區"
"207001","463-BY","2017/06/10 14:49:32","新北市萬里區雙興里二坪路1-3號","121.649813333333","25.1772066666667","6502800","萬里區"
"252005","073-UM","2017/06/10 14:49:25","新北市三芝區橫山里大坑26號","121.525258333333","25.2546233333333","6502100","三芝區"
"236068","105-UM","2017/06/10 14:49:38","新北市土城區金城路三段10號","121.464706666667","24.9860616666667","6501300","土城區"
"236041","107-UM","2017/06/10 14:49:33","新北市土城區裕民路92巷25弄6號","121.449683333333","24.9858283333333","6501300","土城區"
"236075","166-UM","2017/06/10 14:49:36","新北市土城區中央路四段185巷53號","121.416485","24.95589","6501300","土城區"
"236029","253-BX","2017/06/10 14:49:36","新北市土城區忠義路26巷10號","121.439878333333","24.9699033333333","6501300","土城區"
"236025","269-VK","2017/06/10 14:49:36","新北市土城區慶安街58號","121.440913333333","24.9731383333333","6501300","土城區"
"236013","270-VK","2017/06/10 14:49:34","新北市土城區金城路二段356號","121.46181","24.9851066666667","6501300","土城區"
"236035","271-VK","2017/06/10 14:49:34","新北市土城區明德路一段221巷3號","121.46365","24.9779966666667","6501300","土城區"
"236017","401-BY","2017/06/10 14:49:29","新北市土城區延吉街253巷9號","121.46791","24.9844466666667","6501300","土城區"
"236057","912-UM","2017/06/10 14:49:35","新北市土城區中央路三段143號","121.432963333333","24.9653616666667","6501300","土城區"
"236045","913-UM","2017/06/10 14:48:51","新北市土城區廣福街68巷32-1號","121.458791666667","24.990145","6501300","土城區"
"236061","915-UM","2017/06/10 14:49:28","新北市土城區金城路三段207巷6弄1號","121.470173333333","24.9899583333333","6501300","土城區"
"236047","970-R7","2017/06/10 14:49:32","新北市土城區裕民路136巷4弄1號","121.451083333333","24.98566","6501300","土城區"
"236054","AAC-216","2017/06/10 14:49:32","新北市土城區裕民路159號","121.452381666667","24.9858433333333","6501300","土城區"
"221038","297-VK","2017/06/10 14:49:19","新北市汐止區新台五路一段83號","121.64632","25.0608316666667","6501100","汐止區"
"220027","145-BY","2017/06/10 14:49:37","新北市板橋區中正路48號","121.456461666667","25.0141033333333","6500100","板橋區"
"220042","146-RM","2017/06/10 14:49:22","新北市板橋區長江路一段109號","121.45971","25.0297766666667","6500100","板橋區"
"220030","610-BX","2017/06/10 14:49:30","新北市板橋區金門街204-4號","121.432525","24.99022","6500100","板橋區"
"220050","245-BX","2017/06/10 14:49:32","新北市板橋區莊敬路255號","121.473566666667","25.021505","6500100","板橋區"
"220039","257-TC","2017/06/10 14:49:34","新北市板橋區新海路431巷20號","121.457766666667","25.0268783333333","6500100","板橋區"
"220017","258-TC","2017/06/10 14:49:19","新北市板橋區縣民大道一段64巷17號","121.455888333333","25.00337","6500100","板橋區"
"220043","267-BY","2017/06/10 14:49:34","新北市板橋區長江路一段112號","121.459785","25.0296516666667","6500100","板橋區"
"220020","277-BY","2017/06/10 14:49:28","新北市板橋區金門街253巷17弄2號","121.43309","24.9884916666667","6500100","板橋區"
"220012","280-UM","2017/06/10 14:49:23","新北市板橋區實踐路37號","121.463818333333","25.0070066666667","6500100","板橋區"
"220040","285-UM","2017/06/10 14:49:28","新北市板橋區懷德街127巷56號","121.480596666667","25.0318683333333","6500100","板橋區"
"220001","285-VK","2017/06/10 14:49:35","新北市板橋區民生路一段56號","121.474318333333","25.01502","6500100","板橋區"
"220031","286-VK","2017/06/10 14:49:37","新北市板橋區僑中一街125巷6弄2號","121.445468333333","25.0114383333333","6500100","板橋區"
"220029","287-VK","2017/06/10 14:49:35","新北市板橋區大觀路一段28巷87號","121.450096666667","25.0113416666667","6500100","板橋區"
"220009","293-UM","2017/06/10 14:49:37","新北市板橋區觀光街3巷16-4號","121.471271666667","25.0155316666667","6500100","板橋區"
"220032","296-UM","2017/06/10 14:49:34","新北市板橋區溪崑二街124巷5號","121.425663333333","24.98822","6500100","板橋區"
"220023","297-UM","2017/06/10 14:49:37","新北市板橋區中正路274號","121.455418333333","25.01995","6500100","板橋區"
"220046","299-UM","2017/06/10 14:49:29","新北市板橋區文化路一段285巷20號","121.463833333333","25.0193683333333","6500100","板橋區"
"220004","303-R5","2017/06/10 14:49:36","新北市板橋區大觀路三段50巷49號","121.432276666667","24.995865","6500100","板橋區"
"220010","305-R5","2017/06/10 14:49:24","新北市板橋區中山路二段416巷52-1號","121.483","25.0192283333333","6500100","板橋區"
"220041","307-R5","2017/06/10 14:49:37","新北市板橋區四維路105號","121.46547","25.0244966666667","6500100","板橋區"
"220047","317-R6","2017/06/10 14:49:30","新北市板橋區四維路269巷84號","121.459945","25.026785","6500100","板橋區"
"220028","461-BY","2017/06/10 14:49:23","新北市板橋區大觀路二段153巷39號","121.446901666667","25.0004583333333","6500100","板橋區"
"220038","487-VK","2017/06/10 14:49:25","新北市板橋區龍泉街114號","121.456955","25.0244366666667","6500100","板橋區"
"220037","491-VK","2017/06/10 14:49:01","新北市板橋區仁化街174號","121.478363333333","25.033785","6500100","板橋區"
"220104","560-BX","2017/06/10 14:49:25","新北市板橋區金華街51號","121.456866666667","25.0206033333333","6500100","板橋區"
"220052","561-BX","2017/06/10 14:49:38","新北市板橋區陽明街29巷13號","121.464768333333","25.02198","6500100","板橋區"
"220011","609-BX","2017/06/10 14:49:40","新北市板橋區中山路二段391號","121.480383333333","25.019365","6500100","板橋區"
"220005","686-BX","2017/06/10 14:49:26","新北市板橋區廣和街112號","121.462553333333","24.9928833333333","6500100","板橋區"
"220025","687-BX","2017/06/10 14:49:35","新北市板橋區僑中三街31號","121.445538333333","25.004675","6500100","板橋區"
"220002","741-BX","2017/06/10 14:49:20","新北市板橋區實踐路65巷32號","121.465086666667","25.0063116666667","6500100","板橋區"
"220003","827-TW","2017/06/10 14:49:31","新北市板橋區仁愛路62巷14弄1-3號","121.45995","24.99849","6500100","板橋區"
"220014","829-TW","2017/06/10 14:49:35","新北市板橋區中山路一段206巷74號","121.472465","25.013495","6500100","板橋區"
"220051","830-TW","2017/06/10 14:49:29","新北市板橋區仁化街56號","121.475678333333","25.03173","6500100","板橋區"
"220022","895-R6","2017/06/10 14:49:28","新北市板橋區府中路27號","121.458998333333","25.0086","6500100","板橋區"
"220021","985-R7","2017/06/10 14:49:26","新北市板橋區南雅西路二段206號","121.451836666667","25.01496","6500100","板橋區"
"220018","AAC-253","2017/06/10 14:49:34","新北市板橋區民族路194號","121.468101666667","25.0076066666667","6500100","板橋區"
