"lineid","car","time","location","longitude","latitude","cityid","cityname"
"248017","225-UY","2017/06/10 15:09:28","新北市五股區登林路101號","121.411568333333","25.0778133333333","6501500","五股區"
"234022","9380-KE","2017/06/10 14:29:49","新北市永和區保生路55-1號","121.504471666667","25.0109233333333","6500400","永和區"
"231002","002-UM","2017/06/10 15:09:39","新北市新店區中正路547號","121.533801666667","24.9877483333333","6500600","新店區"
"231025","0291-UT","2017/06/10 15:09:26","新北市新店區二十張路28巷2號","121.538113333333","24.98189","6500600","新店區"
"231028","046-UY","2017/06/10 15:09:33","新北市新店區僑愛七路14號","121.501165","24.9445183333333","6500600","新店區"
"231030","047-UY","2017/06/10 15:09:27","新北市新店區安民街339號","121.516881666667","24.9748383333333","6500600","新店區"
"231029","106-UY","2017/06/10 15:09:25","新北市新店區安康路三段738號","121.473865","24.941975","6500600","新店區"
"231018","107-UY","2017/06/10 15:09:28","新北市新店區中央六街55號","121.528036666667","24.9758933333333","6500600","新店區"
"231012","108-UY","2017/06/10 15:09:25","新北市新店區寶元路一段65號","121.542141666667","24.9857833333333","6500600","新店區"
"231023","110-UY","2017/06/10 15:09:34","新北市新店區檳榔路29巷2號","121.541983333333","24.9635866666667","6500600","新店區"
"231020","187-VK","2017/06/10 15:09:32","新北市新店區永福路81號","121.560538333333","24.93042","6500600","新店區"
"231026","256-BX","2017/06/10 15:09:24","新北市新店區建興街9巷1號","121.53988","24.9763183333333","6500600","新店區"
"231034","268-BY","2017/06/10 15:09:22","新北市新店區玫瑰路4-1號","121.493563333333","24.95139","6500600","新店區"
"231017","AAD-862","2017/06/10 15:07:16","新北市新店區明山路5號","121.563285","24.9554233333333","6500600","新店區"
"231037","4715-K9","2017/06/10 15:09:36","新北市新店區薏仁坑路2-4號","121.50166","24.9584816666667","6500600","新店區"
"231036","512-UM","2017/06/10 15:09:37","新北市新店區安祥路102巷131號","121.486531666667","24.9647416666667","6500600","新店區"
"231035","515-UM","2017/06/10 15:09:30","新北市新店區安和路三段169號","121.516061666667","24.9860216666667","6500600","新店區"
"231006","617-UM","2017/06/10 15:09:20","新北市新店區新坡一街60號","121.549695","24.9629533333333","6500600","新店區"
"231001","619-UM","2017/06/10 15:09:38","新北市新店區中正路274號","121.538921666667","24.9737","6500600","新店區"
"231003","641-BX","2017/06/10 15:09:22","新北市新店區寶橋路200號","121.550818333333","24.9783516666667","6500600","新店區"
"231039","718-UY","2017/06/10 15:09:30","新北市新店區中興路三段312號","121.542273333333","24.9857333333333","6500600","新店區"
"231033","720-UM","2017/06/10 15:09:27","新北市新店區安泰路125號","121.487515","24.9397216666667","6500600","新店區"
"231005","897-TW","2017/06/10 15:09:20","新北市新店區順安街6號","121.541068333333","24.98487","6500600","新店區"
"231004","899-TW","2017/06/10 15:09:33","新北市新店區建國路39號","121.540531666667","24.9749616666667","6500600","新店區"
"235030","003-UY","2017/06/10 15:09:27","新北市中和區水源路128號","121.507715","25.0031333333333","6500300","中和區"
"235020","096-UM","2017/06/10 15:09:27","新北市中和區中山路三段170巷8弄2號","121.472563333333","25.0074566666667","6500300","中和區"
"235003","097-UM","2017/06/10 15:09:29","新北市中和區安樂路143巷38弄1號","121.512903333333","24.99648","6500300","中和區"
"235029","098-UM","2017/06/10 15:09:37","新北市中和區永和路128巷24號","121.497391666667","25.0069483333333","6500300","中和區"
"235004","150-BY","2017/06/10 15:09:37","新北市中和區景安路79巷23號","121.50704","24.9967133333333","6500300","中和區"
"235013","186-VK","2017/06/10 15:09:29","新北市中和區南華路6號","121.502241666667","24.9954916666667","6500300","中和區"
"235008","293-VK","2017/06/10 15:09:37","新北市中和區南山路126號","121.503498333333","24.9929483333333","6500300","中和區"
"235007","352-BY","2017/06/10 15:09:31","新北市中和區興南路二段159巷1號","121.505196666667","24.9832516666667","6500300","中和區"
"235005","375-QA","2017/06/10 15:09:20","新北市中和區中安街222號","121.512143333333","24.9987833333333","6500300","中和區"
"235015","376-QA","2017/06/10 15:09:35","新北市中和區景安路218號","121.503785","24.9905116666667","6500300","中和區"
"235032","377-QA","2017/06/10 15:09:21","新北市中和區勝利路35巷1弄8號","121.499288333333","25.0074833333333","6500300","中和區"
"235014","4979-A6","2017/06/10 15:08:53","新北市中和區景平路229號","121.51022","24.9926383333333","6500300","中和區"
"235033","4980-A6","2017/06/10 15:09:22","新北市中和區板南路247-1號","121.496418333333","24.9946516666667","6500300","中和區"
"235034","558-UM","2017/06/10 15:09:30","新北市中和區景平路495號","121.499776666667","24.9979883333333","6500300","中和區"
"235018","640-BX","2017/06/10 15:09:17","新北市中和區民享街41號","121.474011666667","25.0030133333333","6500300","中和區"
"235010","733-UM","2017/06/10 15:09:27","新北市中和區忠孝街79號","121.512146666667","24.9851966666667","6500300","中和區"
"235026","800-TS","2017/06/10 15:09:31","新北市中和區永和路103巷21號","121.494823333333","25.0067066666667","6500300","中和區"
"235012","896-TW","2017/06/10 15:09:18","新北市中和區興南路二段49號","121.50734","24.9853616666667","6500300","中和區"
"235017","900-TW","2017/06/10 15:09:29","新北市中和區國光街183號","121.467576666667","25.00159","6500300","中和區"
"235001","AAC-213","2017/06/10 15:09:36","新北市中和區秀朗路三段10巷21弄8號","121.525191666667","24.9961216666667","6500300","中和區"
"235023","AAC-215","2017/06/10 15:09:33","新北市中和區圓通路335巷33弄17號","121.493126666667","24.9889166666667","6500300","中和區"
"220016","013-TV","2017/06/10 15:09:17","新北市板橋區中山路二段497號","121.4827","25.0208766666667","6500100","板橋區"
"220013","072-UY","2017/06/10 15:09:32","新北市板橋區中山路一段154巷21號","121.465253333333","25.010595","6500100","板橋區"
"220034","073-UY","2017/06/10 15:09:30","新北市板橋區中正路1巷28號","121.454711666667","25.0113233333333","6500100","板橋區"
"220045","120-SR","2017/06/10 15:09:23","新北市板橋區莒光路79巷2-1號","121.47198","25.0243566666667","6500100","板橋區"
"247002","402-BY","2017/06/10 15:09:25","新北市八里區商港路120號","121.392945","25.1499183333333","6501400","蘆洲區"
"247007","339-TH","2017/06/10 15:09:28","新北市五股區中興路三段2巷10號","121.448883333333","25.0814883333333","6501400","蘆洲區"
"247003","056-VK","2017/06/10 15:09:18","新北市林口區太平里180號","121.366551666667","25.1346016666667","6501400","蘆洲區"
"228004","212-TW","2017/06/10 15:09:20","新北市貢寮區雙玉里田寮洋街7-1號","121.92581","25.0221683333333","6502600","貢寮區"
"227010","400-TW","2017/06/10 15:00:53","新北市雙溪區三貂里政光路3-1號","121.850888333333","25.0630816666667","6502500","雙溪區"
"208004","AAC-292","2017/06/10 15:09:29","新北市金山區三界壇路5號","121.628881666667","25.2275433333333","6502700","金山區"
"251001","155-BY","2017/06/10 15:09:30","新北市淡水區崁頂92號","121.42809","25.2022433333333","6501000","淡水區"
"207002","749-BX","2017/06/10 15:09:24","新北市萬里區崁腳里內中福路21號","121.660578333333","25.1656316666667","6502800","萬里區"
"207001","463-BY","2017/06/10 15:09:32","新北市萬里區雙興里麗水路3-2號","121.653148333333","25.1829816666667","6502800","萬里區"
"252005","073-UM","2017/06/10 15:09:25","新北市三芝區埔坪里埔頭坑138號","121.514436666667","25.247005","6502100","三芝區"
"236068","105-UM","2017/06/10 15:09:19","新北市土城區裕民路52-1號","121.448521666667","24.9879016666667","6501300","土城區"
"236041","107-UM","2017/06/10 15:09:34","新北市土城區學士路31號","121.452976666667","24.9822033333333","6501300","土城區"
"236075","166-UM","2017/06/10 15:09:35","新北市土城區中州路3巷35號","121.413463333333","24.956385","6501300","土城區"
"236029","253-BX","2017/06/10 15:09:36","新北市土城區中央路二段48號","121.442378333333","24.9796866666667","6501300","土城區"
"236025","269-VK","2017/06/10 15:09:16","新北市土城區中正路1號","121.442051666667","24.9750733333333","6501300","土城區"
"236013","270-VK","2017/06/10 15:09:34","新北市土城區學府路一段75巷2號","121.456946666667","24.988145","6501300","土城區"
"236035","271-VK","2017/06/10 15:09:34","新北市土城區青雲路257巷8號","121.45962","24.9807783333333","6501300","土城區"
"236017","401-BY","2017/06/10 15:09:36","新北市土城區延峰街27巷1號","121.46926","24.9854033333333","6501300","土城區"
"236057","912-UM","2017/06/10 15:09:35","新北市土城區金城路二段218-1號","121.455955","24.9826233333333","6501300","土城區"
"236045","913-UM","2017/06/10 15:09:16","新北市土城區清水路141巷1號","121.458211666667","24.9818066666667","6501300","土城區"
"236054","AAC-216","2017/06/10 15:09:32","新北市土城區裕民路174號","121.452523333333","24.985255","6501300","土城區"
"220027","145-BY","2017/06/10 15:09:37","新北市板橋區大觀路二段7巷109-3號","121.45211","25.0027183333333","6500100","板橋區"
"220042","146-RM","2017/06/10 15:09:22","新北市板橋區文化路二段606號","121.477156666667","25.0350083333333","6500100","板橋區"
"220030","610-BX","2017/06/10 15:09:36","新北市板橋區存德街23-1號","121.430335","24.9916816666667","6500100","板橋區"
"220050","245-BX","2017/06/10 15:09:32","新北市板橋區萬板路128號","121.47504","25.0235366666667","6500100","板橋區"
"220039","257-TC","2017/06/10 15:09:33","新北市板橋區幸福路32巷54號","121.460425","25.0221816666667","6500100","板橋區"
"220017","258-TC","2017/06/10 15:09:19","新北市板橋區大明街13號","121.458876666667","25.0024666666667","6500100","板橋區"
"220020","277-BY","2017/06/10 15:09:28","新北市板橋區篤行路二段77巷12弄2號","121.43224","24.99179","6500100","板橋區"
"220012","280-UM","2017/06/10 15:09:23","新北市板橋區長安街331巷4-3號","121.474375","25.0121783333333","6500100","板橋區"
"220001","285-VK","2017/06/10 15:09:21","新北市板橋區懷仁街91號","121.477518333333","25.0181516666667","6500100","板橋區"
"220031","286-VK","2017/06/10 15:09:37","新北市板橋區僑中二街102巷20號","121.44535","25.0085566666667","6500100","板橋區"
"220029","287-VK","2017/06/10 15:09:20","新北市板橋區僑中一街80巷7弄1號","121.447856666667","25.0127116666667","6500100","板橋區"
"220009","293-UM","2017/06/10 15:09:37","新北市板橋區中山路一段2號","121.459668333333","25.0074766666667","6500100","板橋區"
"220046","299-UM","2017/06/10 15:09:39","新北市板橋區光正街9巷11號","121.462695","25.0165116666667","6500100","板橋區"
"220041","307-R5","2017/06/10 15:09:37","新北市板橋區文化路一段109號","121.461595","25.0145083333333","6500100","板橋區"
"220047","317-R6","2017/06/10 15:09:30","新北市板橋區新海路135巷29號","121.460128333333","25.0231233333333","6500100","板橋區"
"220038","487-VK","2017/06/10 15:09:25","新北市板橋區互助街90號","121.460306666667","25.0262483333333","6500100","板橋區"
"220037","491-VK","2017/06/10 15:09:20","新北市板橋區仁化街152號","121.477865","25.0333866666667","6500100","板橋區"
"220052","561-BX","2017/06/10 15:09:38","新北市板橋區英士路6號","121.462203333333","25.0253966666667","6500100","板橋區"
"220019","568-UM","2017/06/10 15:09:32","新北市板橋區信義路279巷11號","121.461928333333","24.9894016666667","6500100","板橋區"
"220025","687-BX","2017/06/10 15:09:35","新北市板橋區僑中一街124巷86號","121.446765","25.01801","6500100","板橋區"
"220002","741-BX","2017/06/10 15:09:21","新北市板橋區忠孝路忠義巷9弄1號","121.465138333333","25.0047166666667","6500100","板橋區"
"220003","827-TW","2017/06/10 15:09:31","新北市板橋區國慶路149巷37弄13號","121.46038","24.9979216666667","6500100","板橋區"
"220051","830-TW","2017/06/10 15:09:29","新北市板橋區縣民大道三段107號","121.476531666667","25.0224566666667","6500100","板橋區"
"220022","895-R6","2017/06/10 15:09:37","新北市板橋區館前西路110號","121.457033333333","25.0075033333333","6500100","板橋區"
"220018","AAC-253","2017/06/10 15:09:27","新北市板橋區成都街47號","121.46141","25.004915","6500100","板橋區"
