"lineid","car","time","location","longitude","latitude","cityid","cityname"
"234022","9380-KE","2017/06/10 14:29:49","新北市永和區保生路55-1號","121.504471666667","25.0109233333333","6500400","永和區"
"231002","002-UM","2017/06/10 15:19:19","新北市新店區中正路700巷1號","121.533893333333","24.9911483333333","6500600","新店區"
"231025","0291-UT","2017/06/10 15:19:26","新北市新店區建國路221號","121.537641666667","24.9814883333333","6500600","新店區"
"231028","046-UY","2017/06/10 15:19:21","新北市新店區僑信路84巷43號","121.498445","24.94752","6500600","新店區"
"231030","047-UY","2017/06/10 15:19:27","新北市新店區安和路二段203號","121.517758333333","24.9752116666667","6500600","新店區"
"231029","106-UY","2017/06/10 15:19:25","新北市新店區安康路三段738號","121.473916666667","24.9419383333333","6500600","新店區"
"231018","107-UY","2017/06/10 15:19:28","新北市新店區中央七街85號","121.526845","24.9769816666667","6500600","新店區"
"231012","108-UY","2017/06/10 15:19:25","新北市新店區寶慶街84號","121.54129","24.9866716666667","6500600","新店區"
"231023","110-UY","2017/06/10 15:19:34","新北市新店區中正路51號","121.54468","24.9699016666667","6500600","新店區"
"231020","187-VK","2017/06/10 15:19:31","新北市新店區花園二路一段9號","121.55652","24.9323516666667","6500600","新店區"
"231026","256-BX","2017/06/10 15:19:24","新北市新店區中正路263巷4號","121.538435","24.9734416666667","6500600","新店區"
"231034","268-BY","2017/06/10 15:19:22","新北市新店區玫瑰路34號","121.495631666667","24.950005","6500600","新店區"
"231017","AAD-862","2017/06/10 15:19:36","新北市新店區明山路45號","121.563815","24.9559416666667","6500600","新店區"
"231024","3713-VJ","2017/06/10 15:19:27","新北市新店區北新路一段303號","121.541363333333","24.9675866666667","6500600","新店區"
"231037","4715-K9","2017/06/10 15:19:36","新北市新店區安興路85-2號","121.515256666667","24.97506","6500600","新店區"
"231036","512-UM","2017/06/10 15:19:37","新北市新店區安祥路69巷17號","121.481903333333","24.9613266666667","6500600","新店區"
"231035","515-UM","2017/06/10 15:19:30","新北市新店區安和路三段53號","121.51802","24.982745","6500600","新店區"
"231001","619-UM","2017/06/10 15:19:18","新北市新店區北新路一段319號","121.54162","24.968095","6500600","新店區"
"231003","641-BX","2017/06/10 15:19:22","新北市新店區寶高路120巷4弄1號","121.554578333333","24.9757733333333","6500600","新店區"
"231039","718-UY","2017/06/10 15:19:30","新北市新店區寶元路一段65號","121.542243333333","24.9858033333333","6500600","新店區"
"231033","720-UM","2017/06/10 15:19:27","新北市新店區和成街19巷38號","121.488088333333","24.9459733333333","6500600","新店區"
"231005","897-TW","2017/06/10 15:19:20","新北市新店區建國路180號","121.537963333333","24.9800116666667","6500600","新店區"
"231004","899-TW","2017/06/10 15:19:33","新北市新店區博愛街13巷24號","121.540265","24.9740016666667","6500600","新店區"
"241020","412-TH","2017/06/10 15:19:21","新北市三重區重新路四段121號","121.484455","25.0521533333333","6500200","三重區"
"235030","003-UY","2017/06/10 15:19:36","新北市中和區保平路326巷23號","121.506486666667","25.00463","6500300","中和區"
"235003","097-UM","2017/06/10 15:19:29","新北市中和區安樂路217巷20弄18號","121.513381666667","24.99907","6500300","中和區"
"235008","293-VK","2017/06/10 15:19:37","新北市中和區中正路65巷6號","121.50124","24.9929666666667","6500300","中和區"
"235007","352-BY","2017/06/10 15:19:31","新北市中和區興南路三段21號","121.496891666667","24.9792866666667","6500300","中和區"
"235005","375-QA","2017/06/10 15:19:20","新北市中和區宜安路163號","121.508825","24.9989883333333","6500300","中和區"
"235014","4979-A6","2017/06/10 15:19:13","新北市中和區景安路92號","121.505401666667","24.9959066666667","6500300","中和區"
"235033","4980-A6","2017/06/10 15:19:22","新北市中和區連城路308號","121.483675","24.9963433333333","6500300","中和區"
"235034","558-UM","2017/06/10 15:19:29","新北市中和區圓通路233號","121.496273333333","24.9941416666667","6500300","中和區"
"235026","800-TS","2017/06/10 15:19:31","新北市中和區永和路103巷21號","121.494818333333","25.0066766666667","6500300","中和區"
"235012","896-TW","2017/06/10 15:19:38","新北市中和區興南路一段1號","121.511481666667","24.9912316666667","6500300","中和區"
"235017","900-TW","2017/06/10 15:19:29","新北市土城區金城路三段253號","121.471655","24.9899616666667","6500300","中和區"
"235001","AAC-213","2017/06/10 15:19:28","新北市中和區秀朗路三段141號","121.524978333333","24.992465","6500300","中和區"
"235023","AAC-215","2017/06/10 15:19:33","新北市中和區圓通路381號","121.490468333333","24.989305","6500300","中和區"
"220016","013-TV","2017/06/10 15:19:37","新北市板橋區文化路二段656號","121.48153","25.037465","6500100","板橋區"
"220013","072-UY","2017/06/10 15:19:38","新北市板橋區民生路二段22號","121.472695","25.0165466666667","6500100","板橋區"
"247002","402-BY","2017/06/10 15:19:25","新北市八里區中山路三段409號","121.36836","25.1350583333333","6501400","蘆洲區"
"247007","339-TH","2017/06/10 15:18:05","新北市五股區中興路三段2巷10號","121.448905","25.0814966666667","6501400","蘆洲區"
"227010","400-TW","2017/06/10 15:00:53","新北市雙溪區三貂里政光路3-1號","121.850888333333","25.0630816666667","6502500","雙溪區"
"208004","AAC-292","2017/06/10 15:19:29","新北市金山區月眉33號","121.628551666667","25.21797","6502700","金山區"
"251001","155-BY","2017/06/10 15:19:30","新北市淡水區崁頂92號","121.428096666667","25.2022183333333","6501000","淡水區"
"207001","463-BY","2017/06/10 15:19:32","新北市萬里區大鵬里萬里加投14號","121.650361666667","25.2091766666667","6502800","萬里區"
"236068","105-UM","2017/06/10 15:19:38","新北市土城區學府路一段129巷18號","121.454456666667","24.9859966666667","6501300","土城區"
"236041","107-UM","2017/06/10 15:19:33","新北市土城區裕民路274號","121.455065","24.9824316666667","6501300","土城區"
"236075","166-UM","2017/06/10 15:19:35","新北市土城區中州路27巷14-2號","121.413333333333","24.95739","6501300","土城區"
"236029","253-BX","2017/06/10 15:19:36","新北市土城區中央路一段264號","121.443843333333","24.983985","6501300","土城區"
"236025","269-VK","2017/06/10 15:19:36","新北市土城區員林街5號","121.442568333333","24.9781066666667","6501300","土城區"
"236013","270-VK","2017/06/10 15:19:34","新北市土城區廣福街1號","121.457333333333","24.98875","6501300","土城區"
"236035","271-VK","2017/06/10 15:19:34","新北市土城區國際路158巷51號","121.468195","24.975285","6501300","土城區"
"236017","401-BY","2017/06/10 15:19:22","新北市土城區峰廷街3號","121.469171666667","24.9874433333333","6501300","土城區"
"236057","912-UM","2017/06/10 15:19:35","新北市土城區中央路三段67號","121.43873","24.96931","6501300","土城區"
"236045","913-UM","2017/06/10 15:15:23","新北市土城區金城路二段396號","121.463975","24.9855983333333","6501300","土城區"
"236061","915-UM","2017/06/10 15:19:23","新北市土城區延平街38號","121.468073333333","24.9919366666667","6501300","土城區"
"236054","AAC-216","2017/06/10 15:19:32","新北市土城區學府路一段235號","121.450991666667","24.9839216666667","6501300","土城區"
"220027","145-BY","2017/06/10 15:19:37","新北市樹林區環河路2-2號","121.4253","24.9767233333333","6500100","板橋區"
"220042","146-RM","2017/06/10 15:19:22","新北市板橋區長江路二段110號","121.465285","25.0315133333333","6500100","板橋區"
"220030","610-BX","2017/06/10 15:19:29","新北市板橋區大觀路三段121號","121.43267","24.9944833333333","6500100","板橋區"
"220050","245-BX","2017/06/10 15:19:32","新北市板橋區雙十路二段47巷8弄12號","121.474493333333","25.0258733333333","6500100","板橋區"
"220017","258-TC","2017/06/10 15:19:31","新北市板橋區大華街182巷10號","121.458781666667","25.0031883333333","6500100","板橋區"
"220031","286-VK","2017/06/10 15:19:37","新北市板橋區僑中二街106巷30號","121.444695","25.0077883333333","6500100","板橋區"
"220029","287-VK","2017/06/10 15:19:19","新北市板橋區僑中一街82號","121.44743","25.01158","6500100","板橋區"
"220009","293-UM","2017/06/10 15:19:37","新北市板橋區四川路一段284號","121.458643333333","25.000835","6500100","板橋區"
"220046","299-UM","2017/06/10 15:19:39","新北市板橋區公館街68號","121.460865","25.0148016666667","6500100","板橋區"
"220047","317-R6","2017/06/10 15:19:30","新北市板橋區新海路72巷5弄7號","121.46194","25.022365","6500100","板橋區"
"220038","487-VK","2017/06/10 15:19:25","新北市板橋區四維路156號","121.464873333333","25.025835","6500100","板橋區"
"220052","561-BX","2017/06/10 15:19:18","新北市板橋區新海路135巷1號","121.460808333333","25.0233033333333","6500100","板橋區"
"220019","568-UM","2017/06/10 15:19:35","新北市板橋區五權街30巷19號","121.464131666667","24.993165","6500100","板橋區"
"220025","687-BX","2017/06/10 15:19:35","新北市板橋區大觀路一段29巷131弄125號","121.451688333333","25.0051983333333","6500100","板橋區"
"220051","830-TW","2017/06/10 15:19:29","新北市板橋區文化路一段322-1號","121.468033333333","25.0224566666667","6500100","板橋區"
"220018","AAC-253","2017/06/10 15:19:28","新北市板橋區德興街33號","121.453496666667","24.9939283333333","6500100","板橋區"
