"lineid","car","time","location","longitude","latitude","cityid","cityname"
"249005","172-UM","2017/06/10 16:49:31","新北市八里區大堀湖2-3號","121.422418333333","25.1537083333333","6502300","八里區"
"249001","173-UM","2017/06/10 16:49:27","新北市八里區博物館路83號","121.410043333333","25.1601916666667","6502300","八里區"
"249004","303-UY","2017/06/10 16:49:21","新北市八里區文昌路101號","121.408475","25.1589116666667","6502300","八里區"
"249002","305-UY","2017/06/10 16:49:20","新北市八里區牛寮埔33號","121.429928333333","25.1456433333333","6502300","八里區"
"244013","069-UM","2017/06/10 16:49:36","新北市林口區粉寮路二段160巷28號","121.405128333333","25.090795","6501700","林口區"
"244007","080-UY","2017/06/10 16:49:36","新北市林口區竹林路320巷21號","121.391308333333","25.081945","6501700","林口區"
"244019","403-UM","2017/06/10 16:49:35","新北市林口區粉寮69號","121.405093333333","25.0908116666667","6501700","林口區"
"244011","701-TV","2017/06/10 16:49:33","新北市林口區粉寮路二段160巷28號","121.40518","25.0907583333333","6501700","林口區"
"231046","278-BY","2017/06/10 16:49:29","新北市新店區灣潭路15-11號","121.541891666667","24.9405616666667","6500600","新店區"
"241011","013-R5","2017/06/10 16:49:27","新北市三重區仁愛街53巷135號","121.4993","25.0725416666667","6500200","三重區"
"241028","022-UY","2017/06/10 16:49:30","新北市三重區光興街26號","121.49748","25.059855","6500200","三重區"
"241008","059-VK","2017/06/10 16:49:19","新北市三重區永安北路一段17巷22-7號","121.477335","25.0751983333333","6500200","三重區"
"241009","060-VK","2017/06/10 16:49:28","新北市三重區溪尾街196巷35號","121.487045","25.08065","6500200","三重區"
"241031","061-VK","2017/06/10 16:49:32","新北市三重區過圳街19號","121.488323333333","25.060415","6500200","三重區"
"241015","062-VK","2017/06/10 16:49:33","新北市三重區長元街2-1號","121.498968333333","25.0658583333333","6500200","三重區"
"241017","063-VK","2017/06/10 16:49:17","新北市三重區國隆路8巷51號","121.492365","25.0633733333333","6500200","三重區"
"241024","065-VK","2017/06/10 16:49:33","新北市三重區國道路一段139號","121.475506666667","25.0736583333333","6500200","三重區"
"241026","066-VK","2017/06/10 16:49:31","新北市三重區文化南路12號","121.500318333333","25.062015","6500200","三重區"
"241002","090-VK","2017/06/10 16:49:23","新北市三重區仁義街143巷2號","121.497283333333","25.0807633333333","6500200","三重區"
"241003","091-VK","2017/06/10 16:49:17","新北市三重區五華街87巷27號","121.492998333333","25.0839166666667","6500200","三重區"
"241005","262-UM","2017/06/10 16:49:31","新北市三重區仁安街37號","121.484291666667","25.0841033333333","6500200","三重區"
"241023","265-UM","2017/06/10 16:49:34","新北市三重區中華路76巷27號","121.482493333333","25.0626016666667","6500200","三重區"
"241016","266-UM","2017/06/10 16:49:32","新北市三重區大同北路117號","121.494093333333","25.0643466666667","6500200","三重區"
"241022","267-UM","2017/06/10 16:49:35","新北市三重區貴陽街47巷23號","121.484856666667","25.062395","6500200","三重區"
"241018","268-UM","2017/06/10 16:49:30","新北市三重區正義北路298號","121.495271666667","25.0695916666667","6500200","三重區"
"241032","269-UM","2017/06/10 16:49:25","新北市三重區三光街30巷1號","121.484828333333","25.0604433333333","6500200","三重區"
"241013","270-UM","2017/06/10 16:49:26","新北市三重區仁壽街40號","121.497396666667","25.0735783333333","6500200","三重區"
"241025","271-UM","2017/06/10 16:49:21","新北市三重區中正北路361號","121.472658333333","25.0719016666667","6500200","三重區"
"241007","398-BY","2017/06/10 16:49:34","新北市三重區三和路四段171號","121.483013333333","25.0788","6500200","三重區"
"241020","412-TH","2017/06/10 16:49:32","新北市三重區忠孝路二段35號","121.485915","25.0711416666667","6500200","三重區"
"241004","475-VK","2017/06/10 16:49:30","新北市三重區仁愛街420號","121.490341666667","25.0813983333333","6500200","三重區"
"241019","478-VK","2017/06/10 16:49:33","新北市三重區力行路一段179巷1號","121.484651666667","25.0697333333333","6500200","三重區"
"241030","480-VK","2017/06/10 16:49:32","新北市三重區中正南路271號","121.492736666667","25.0525516666667","6500200","三重區"
"241014","543-UM","2017/06/10 16:49:23","新北市三重區龍濱路64號","121.5025","25.0692083333333","6500200","三重區"
"241001","547-UM","2017/06/10 16:49:34","新北市三重區仁政街57號","121.49285","25.0772933333333","6500200","三重區"
"241006","AAD-863","2017/06/10 16:49:31","新北市三重區車路頭街122巷6號","121.483988333333","25.0751516666667","6500200","三重區"
"241012","887-TS","2017/06/10 16:49:32","新北市三重區三和路三段101巷185號","121.499776666667","25.0739466666667","6500200","三重區"
"241029","942-UM","2017/06/10 16:49:28","新北市三重區中正南路201巷12號","121.492456666667","25.0540383333333","6500200","三重區"
"241033","AAC-255","2017/06/10 16:49:38","新北市三重區新北大道二段166號","121.468711666667","25.0616533333333","6500200","三重區"
"235062","800-TS","2017/06/10 16:26:04","新北市中和區員山路36巷16-3號","121.48509","24.991245","6500300","中和區"
"247002","402-BY","2017/06/10 16:02:12","新北市五股區中興路三段3-6號","121.449556666667","25.078765","6501400","蘆洲區"
"247006","341-TH","2017/06/10 16:49:28","新北市蘆洲區永安南路二段132-1號","121.462525","25.07856","6501400","蘆洲區"
"247008","339-TH","2017/06/10 16:49:23","新北市蘆洲區中山二路45巷30號","121.474328333333","25.0811616666667","6501400","蘆洲區"
"247024","337-TH","2017/06/10 16:49:31","新北市蘆洲區長興路202號","121.460571666667","25.0874883333333","6501400","蘆洲區"
"247002","336-TH","2017/06/10 16:49:37","新北市五股區成泰路三段436號","121.452161666667","25.0995016666667","6501400","蘆洲區"
"247014","057-VK","2017/06/10 16:49:32","新北市蘆洲區民族路86-2號","121.474373333333","25.0849083333333","6501400","蘆洲區"
"247004","056-VK","2017/06/10 16:49:31","新北市蘆洲區長榮路155號","121.461711666667","25.0840433333333","6501400","蘆洲區"
"247022","002-UY","2017/06/10 16:49:22","新北市蘆洲區中正路507號","121.460983333333","25.0975016666667","6501400","蘆洲區"
"247016","001-UY","2017/06/10 16:49:32","新北市蘆洲區正和街3號","121.470456666667","25.0827883333333","6501400","蘆洲區"
"228003","097-TW","2017/06/10 16:49:34","新北市貢寮區貢寮里朝陽街1-2號","121.912365","25.0212416666667","6502600","貢寮區"
"228002","585-TW","2017/06/10 16:49:32","新北市貢寮區貢寮里長潭街19號","121.895118333333","25.0234583333333","6502600","貢寮區"
"224008","275-VK","2017/06/10 16:49:31","新北市瑞芳區逢甲路20-1號","121.809371666667","25.1084","6501200","瑞芳區"
"224007","273-VK","2017/06/10 16:49:28","新北市瑞芳區中央路48巷174號","121.759105","25.1032533333333","6501200","瑞芳區"
"224005","271-BY","2017/06/10 16:49:25","新北市瑞芳區洞頂路157號","121.861326666667","25.12236","6501200","瑞芳區"
"227002","642-TC","2017/06/10 16:49:29","新北市雙溪區外柑里外柑腳71號","121.807101666667","25.017595","6502500","雙溪區"
"227010","400-TW","2017/06/10 16:49:22","新北市雙溪區牡丹里五分2號","121.866625","25.04709","6502500","雙溪區"
"251008","181-VK","2017/06/10 16:49:24","新北市淡水區樹梅坑9號","121.47275","25.1426816666667","6501000","淡水區"
"251014","182-VK","2017/06/10 16:49:20","新北市淡水區興仁路163號","121.45157","25.2196683333333","6501000","淡水區"
"251012","441-VK","2017/06/10 16:49:30","新北市淡水區中正路二段31號","121.419701666667","25.1814866666667","6501000","淡水區"
"251016","442-VK","2017/06/10 16:49:26","新北市淡水區水頭42號","121.47818","25.1850666666667","6501000","淡水區"
"251007","577-R6","2017/06/10 16:49:28","新北市淡水區中山路127號","121.441463333333","25.1711783333333","6501000","淡水區"
"251011","650-BX","2017/06/10 16:49:31","新北市淡水區新民街一段8巷6號","121.434788333333","25.1838783333333","6501000","淡水區"
"252002","178-VK","2017/06/10 16:49:28","新北市三芝區埔坪里埔頭坑77號","121.50939","25.254405","6502100","三芝區"
"252001","292-VK","2017/06/10 16:49:28","新北市三芝區茂長里陳厝坑2-1號","121.508191666667","25.2666633333333","6502100","三芝區"
"242025","615-BX","2017/06/10 16:49:37","新北市新莊區新泰路255巷83號","121.44246","25.0387566666667","6500500","新莊區"
"242027","612-BX","2017/06/10 16:49:27","新北市新莊區新泰路255巷83號","121.441998333333","25.0389633333333","6500500","新莊區"
"242061","362-BY","2017/06/10 16:49:19","新北市新莊區新泰路255巷83號","121.442373333333","25.038675","6500500","新莊區"
"242034","133-UY","2017/06/10 16:49:35","新北市新莊區三和路12-21號","121.442051666667","25.0388133333333","6500500","新莊區"
"242044","172-VK","2017/06/10 13:57:53","新北市新莊區新泰路255巷83號","121.442273333333","25.038975","6500500","新莊區"
"242056","176-VK","2017/06/10 16:49:21","新北市新莊區三和路12-21號","121.441998333333","25.0386666666667","6500500","新莊區"
"242031","346-TH","2017/06/10 16:49:30","新北市新莊區新泰路357巷3弄57號","121.44188","25.0393316666667","6500500","新莊區"
"242017","348-TH","2017/06/10 16:49:33","新北市新莊區新泰路357巷3弄57號","121.44206","25.0395716666667","6500500","新莊區"
"238018","571-TV","2017/06/10 16:49:35","新北市樹林區中山路三段204號","121.387251666667","24.9681583333333","6500700","樹林區"
"238025","303-VK","2017/06/10 16:49:17","新北市樹林區中山路二段249巷2號","121.401801666667","24.9756216666667","6500700","樹林區"
"239007","AAC-297","2017/06/10 04:19:40","新北市鶯歌區二甲路13-16號","121.34495","24.9349733333333","6500800","鶯歌區"
"239006","891-R6","2017/06/10 00:59:26","新北市鶯歌區二甲路13號","121.344045","24.9353383333333","6500800","鶯歌區"
"239008","527-UM","2017/06/10 16:49:28","新北市鶯歌區二甲路13-16號","121.345475","24.935175","6500800","鶯歌區"
"239005","526-UM","2017/06/10 16:49:35","新北市鶯歌區二甲路12-2號","121.345648333333","24.9351516666667","6500800","鶯歌區"
"239001","417-VK","2017/06/10 16:49:32","新北市鶯歌區二甲路12-2號","121.345775","24.9349233333333","6500800","鶯歌區"
"239003","360-BY","2017/06/10 16:49:18","新北市鶯歌區二甲路12-2號","121.345613333333","24.9349216666667","6500800","鶯歌區"
"239002","359-BY","2017/06/10 11:13:06","新北市鶯歌區二甲路171-1號","121.344211666667","24.935635","6500800","鶯歌區"
"220009","295-UM","2017/06/10 16:03:29","新北市板橋區民生路二段15-1號","121.47282","25.0163683333333","6500100","板橋區"
