"lineid","car","time","location","longitude","latitude","cityid","cityname"
"249005","172-UM","2017/06/10 17:29:31","新北市八里區荖阡坑路69號","121.40649","25.12662","6502300","八里區"
"249001","173-UM","2017/06/10 17:29:27","新北市八里區中華路一段1號","121.423325","25.1586583333333","6502300","八里區"
"249004","303-UY","2017/06/10 17:29:21","新北市八里區民有街79號","121.41432","25.1558333333333","6502300","八里區"
"249002","305-UY","2017/06/10 17:29:20","新北市八里區龍米路二段67號","121.447775","25.1409216666667","6502300","八里區"
"232011","375-UM","2017/06/10 17:29:21","新北市坪林區北宜路八段441號","121.707113333333","24.924275","6502000","坪林區"
"244013","069-UM","2017/06/10 17:29:36","新北市林口區中山路6號","121.39673","25.0783233333333","6501700","林口區"
"244007","080-UY","2017/06/10 17:29:36","新北市林口區湖子4-3號","121.39191","25.092155","6501700","林口區"
"244019","403-UM","2017/06/10 17:29:35","新北市林口區文化二路一段354-2號","121.373248333333","25.0754866666667","6501700","林口區"
"244009","410-SL","2017/06/10 17:29:39","新北市林口區中華路265號","121.384486666667","25.090385","6501700","林口區"
"244023","483-VK","2017/06/10 17:29:21","新北市林口區隆林街40號","121.387866666667","25.0754116666667","6501700","林口區"
"244017","485-VK","2017/06/10 17:29:28","新北市林口區粉寮路二段14號","121.401898333333","25.0855666666667","6501700","林口區"
"244011","701-TV","2017/06/10 17:29:33","新北市林口區興林路2號","121.389596666667","25.076685","6501700","林口區"
"244021","838-TS","2017/06/10 17:29:39","新北市林口區粉寮路二段227-1號","121.403891666667","25.0907666666667","6501700","林口區"
"241011","013-R5","2017/06/10 17:29:27","新北市三重區河邊北街110巷45號","121.502928333333","25.07066","6500200","三重區"
"241009","060-VK","2017/06/10 17:29:28","新北市三重區仁愛街700號","121.481298333333","25.0800383333333","6500200","三重區"
"241015","062-VK","2017/06/10 17:29:33","新北市三重區長元街65巷20弄18號","121.503573333333","25.0660866666667","6500200","三重區"
"241017","063-VK","2017/06/10 17:29:37","新北市三重區重新路三段47巷5弄1號","121.492883333333","25.0618983333333","6500200","三重區"
"241024","065-VK","2017/06/10 17:29:33","新北市三重區大勇街49號","121.48131","25.07197","6500200","三重區"
"241026","066-VK","2017/06/10 17:29:31","新北市三重區文化南路42號","121.500366666667","25.0602266666667","6500200","三重區"
"241003","091-VK","2017/06/10 17:29:37","新北市三重區碧華街323號","121.49135","25.0844966666667","6500200","三重區"
"241005","262-UM","2017/06/10 17:29:31","新北市三重區永安北路二段45號","121.482555","25.0826516666667","6500200","三重區"
"241023","265-UM","2017/06/10 17:29:34","新北市三重區三民街146巷3弄2號","121.481666666667","25.0646466666667","6500200","三重區"
"241016","266-UM","2017/06/10 17:29:32","新北市三重區大同北路71號","121.495213333333","25.0638033333333","6500200","三重區"
"241022","267-UM","2017/06/10 17:29:35","新北市三重區新北大道一段7號","121.489696666667","25.0612866666667","6500200","三重區"
"241032","269-UM","2017/06/10 17:29:25","新北市三重區名源街61巷1號","121.482046666667","25.05939","6500200","三重區"
"241013","270-UM","2017/06/10 17:29:31","新北市三重區仁愛街141巷7號","121.495628333333","25.075465","6500200","三重區"
"241025","271-UM","2017/06/10 17:29:21","新北市三重區中正北路438號","121.47425","25.07119","6500200","三重區"
"241007","398-BY","2017/06/10 17:29:34","新北市三重區三和路四段145巷107號","121.487066666667","25.079055","6500200","三重區"
"241020","412-TH","2017/06/10 17:29:32","新北市三重區忠孝路二段2號","121.487006666667","25.071405","6500200","三重區"
"241019","478-VK","2017/06/10 17:29:33","新北市三重區自強路二段74巷9號","121.488216666667","25.0699283333333","6500200","三重區"
"241030","480-VK","2017/06/10 17:29:32","新北市三重區中正南路269號","121.492993333333","25.0524366666667","6500200","三重區"
"241014","543-UM","2017/06/10 17:29:23","新北市三重區長壽街56號","121.500793333333","25.068285","6500200","三重區"
"241012","887-TS","2017/06/10 17:29:31","新北市三重區仁昌街99號","121.499875","25.07509","6500200","三重區"
"241033","AAC-255","2017/06/10 17:29:38","新北市三重區中興北街102號","121.469016666667","25.054545","6500200","三重區"
"235064","005-UY","2017/06/10 17:21:10","新北市中和區員山路36巷16-3號","121.484938333333","24.9912866666667","6500300","中和區"
"235062","800-TS","2017/06/10 17:29:36","新北市中和區員山路36巷16-3號","121.485116666667","24.99136","6500300","中和區"
"247020","893-R6","2017/06/10 17:29:37","新北市蘆洲區仁愛街93巷8號","121.4708","25.0940183333333","6501400","蘆洲區"
"247010","546-UM","2017/06/10 17:29:19","新北市蘆洲區集賢路406號","121.479846666667","25.08193","6501400","蘆洲區"
"247018","500-BY","2017/06/10 17:29:29","新北市蘆洲區民義街26號","121.471581666667","25.0886816666667","6501400","蘆洲區"
"247002","402-BY","2017/06/10 16:02:12","新北市五股區中興路三段3-6號","121.449556666667","25.078765","6501400","蘆洲區"
"247006","341-TH","2017/06/10 17:29:28","新北市蘆洲區長安街22巷43號","121.465181666667","25.08059","6501400","蘆洲區"
"247008","339-TH","2017/06/10 17:29:23","新北市蘆洲區信義路34巷116號","121.475601666667","25.076835","6501400","蘆洲區"
"247024","337-TH","2017/06/10 17:29:31","新北市蘆洲區長興路290號","121.460381666667","25.08939","6501400","蘆洲區"
"247002","336-TH","2017/06/10 17:29:37","新北市蘆洲區永樂街38巷57弄6號","121.458148333333","25.090245","6501400","蘆洲區"
"247014","057-VK","2017/06/10 17:29:32","新北市蘆洲區三民路33號","121.475413333333","25.0829916666667","6501400","蘆洲區"
"247004","056-VK","2017/06/10 17:29:31","新北市蘆洲區永安南路二段308號","121.45738","25.08246","6501400","蘆洲區"
"247012","007-UY","2017/06/10 17:29:39","新北市蘆洲區復興路68號","121.474761666667","25.086465","6501400","蘆洲區"
"247022","002-UY","2017/06/10 17:29:22","新北市蘆洲區三民路339號","121.465101666667","25.0908333333333","6501400","蘆洲區"
"247016","001-UY","2017/06/10 17:29:32","新北市蘆洲區中正路185巷31弄48號","121.467276666667","25.0830916666667","6501400","蘆洲區"
"228003","097-TW","2017/06/10 17:29:34","新北市貢寮區仁理村研海街42號","121.92607","25.04171","6502600","貢寮區"
"228001","212-TW","2017/06/10 17:29:38","新北市貢寮區仁理村仁愛路56號","121.925455","25.0533233333333","6502600","貢寮區"
"228002","585-TW","2017/06/10 17:29:28","新北市貢寮區福隆里福隆街19號","121.944805","25.0163683333333","6502600","貢寮區"
"224010","AGQ-8101","2017/06/10 09:01:08","新北市瑞芳區民權街3-1號","121.809273333333","25.1080866666667","6501200","瑞芳區"
"224006","676-BX","2017/06/10 17:29:33","新北市瑞芳區傑魚坑路181-3號","121.788855","25.10868","6501200","瑞芳區"
"224009","285-BY","2017/06/10 17:29:36","新北市瑞芳區汽車路7-3號","121.84699","25.110715","6501200","瑞芳區"
"224008","275-VK","2017/06/10 17:29:31","新北市瑞芳區九芎橋路196號","121.834181666667","25.0977483333333","6501200","瑞芳區"
"224005","271-BY","2017/06/10 17:29:25","新北市瑞芳區海濱路3巷2-11號","121.849835","25.1260016666667","6501200","瑞芳區"
"227002","642-TC","2017/06/10 17:29:30","新北市雙溪區平林里外平林34號","121.854473333333","25.0357216666667","6502500","雙溪區"
"227010","400-TW","2017/06/10 17:29:22","新北市雙溪區三貂里十三層5-3號","121.85275","25.0771533333333","6502500","雙溪區"
"251004","009-UM","2017/06/10 17:29:21","新北市淡水區中正東路二段88巷15號","121.459156666667","25.1505033333333","6501000","淡水區"
"251008","181-VK","2017/06/10 17:29:24","新北市淡水區大同路24號","121.462375","25.1400866666667","6501000","淡水區"
"251014","182-VK","2017/06/10 17:29:37","新北市淡水區公埔子13號","121.477211666667","25.2262383333333","6501000","淡水區"
"251010","413-VK","2017/06/10 17:29:26","新北市淡水區中正路二段211號","121.426161666667","25.189155","6501000","淡水區"
"251012","441-VK","2017/06/10 17:29:30","新北市淡水區北新路124號","121.44802","25.1783266666667","6501000","淡水區"
"251016","442-VK","2017/06/10 17:29:26","新北市淡水區埤島71號","121.456918333333","25.1927916666667","6501000","淡水區"
"251005","443-VK","2017/06/10 17:29:28","新北市淡水區鄧公路31巷4號","121.451391666667","25.17074","6501000","淡水區"
"251001","559-UM","2017/06/10 17:29:33","新北市淡水區中正路257號","121.433061666667","25.1745116666667","6501000","淡水區"
"251006","561-UM","2017/06/10 17:29:37","新北市淡水區中山北路一段104號","121.442835","25.1764533333333","6501000","淡水區"
"251009","575-R6","2017/06/10 17:29:34","新北市淡水區中正路260號","121.438756666667","25.171415","6501000","淡水區"
"251007","577-R6","2017/06/10 17:23:15","新北市淡水區民生路47-4號","121.462116666667","25.13799","6501000","淡水區"
"251011","650-BX","2017/06/10 17:29:31","新北市淡水區坪頂路712號","121.482475","25.1584733333333","6501000","淡水區"
"251002","672-BX","2017/06/10 17:29:33","新北市淡水區中正路437號","121.43206","25.1747416666667","6501000","淡水區"
"251003","673-BX","2017/06/10 17:29:26","新北市淡水區文化路61號","121.438368333333","25.1728833333333","6501000","淡水區"
"207003","550-UM","2017/06/10 17:29:31","新北市萬里區龜吼里玉田路46-10號","121.683218333333","25.1892116666667","6502800","萬里區"
"207004","225-TW","2017/06/10 17:29:34","新北市萬里區萬里里景美路15-1號","121.686628333333","25.1733333333333","6502800","萬里區"
"252002","178-VK","2017/06/10 17:29:28","新北市三芝區忠孝街1-14號","121.50551","25.2539533333333","6502100","三芝區"
"252001","292-VK","2017/06/10 17:29:28","新北市三芝區長安街119號","121.49808","25.2596383333333","6502100","三芝區"
"237016","649-BX","2017/06/10 17:29:28","新北市三峽區中山路459巷163-3號","121.348886666667","24.9327633333333","6500900","三峽區"
"242021","AAC-296","2017/06/10 17:29:36","新北市新莊區中正路112-5號","121.452973333333","25.036245","6500500","新莊區"
"242048","751-BX","2017/06/10 17:29:29","新北市新莊區四維路210號","121.42134","25.02009","6500500","新莊區"
"242029","705-TV","2017/06/10 17:29:32","新北市新莊區復興路二段174號","121.458678333333","25.044405","6500500","新莊區"
"242025","615-BX","2017/06/10 17:29:37","新北市新莊區中港路268號","121.45318","25.043865","6500500","新莊區"
"242023","613-BX","2017/06/10 17:29:21","新北市新莊區中華路一段112號","121.452476666667","25.0403183333333","6500500","新莊區"
"242027","612-BX","2017/06/10 17:29:27","新北市新莊區思源路38號","121.460266666667","25.0423166666667","6500500","新莊區"
"242036","566-BX","2017/06/10 17:29:28","新北市新莊區建國二路5-3號","121.43484","25.0237266666667","6500500","新莊區"
"242042","497-BY","2017/06/10 17:29:36","新北市新莊區新樹路115號","121.437408333333","25.0266516666667","6500500","新莊區"
"242004","442-UM","2017/06/10 17:29:36","新北市新莊區中港路297號","121.45292","25.0443066666667","6500500","新莊區"
"242046","441-UM","2017/06/10 17:29:38","新北市新莊區新樹路69號","121.439031666667","25.030015","6500500","新莊區"
"242051","440-UM","2017/06/10 17:29:37","新北市新莊區瓊林南路75號","121.434868333333","25.01454","6500500","新莊區"
"242039","400-BY","2017/06/10 17:29:32","新北市新莊區民安路268號","121.427538333333","25.0213466666667","6500500","新莊區"
"242061","362-BY","2017/06/10 17:29:39","新北市新莊區瓊林南路42巷1-2號","121.436015","25.0180466666667","6500500","新莊區"
"242058","353-BY","2017/06/10 17:29:39","新北市新莊區中正路498號","121.436063333333","25.0329166666667","6500500","新莊區"
"242011","132-UY","2017/06/10 17:29:18","新北市新莊區中港路467號","121.452378333333","25.04901","6500500","新莊區"
"242034","133-UY","2017/06/10 17:29:35","新北市新莊區新莊路368號","121.44939","25.0334683333333","6500500","新莊區"
"242019","135-UY","2017/06/10 17:29:23","新北市新莊區中港路50號","121.455428333333","25.0384833333333","6500500","新莊區"
"242044","172-VK","2017/06/10 17:29:27","新北市新莊區富國路91號","121.420628333333","25.0257916666667","6500500","新莊區"
"242007","173-VK","2017/06/10 17:29:20","新北市新莊區中華路二段20-2號","121.453203333333","25.0445383333333","6500500","新莊區"
"242013","175-VK","2017/06/10 17:29:29","新北市新莊區中誠街16巷28號","121.451871666667","25.04878","6500500","新莊區"
"242056","176-VK","2017/06/10 17:29:01","新北市新莊區新莊路362號","121.449585","25.0335283333333","6500500","新莊區"
"242031","346-TH","2017/06/10 17:29:31","新北市新莊區新泰路401巷18號","121.442833333333","25.0440216666667","6500500","新莊區"
"242002","347-TH","2017/06/10 17:29:27","新北市新莊區瓊林路13-5號","121.44872","25.0305016666667","6500500","新莊區"
"242017","348-TH","2017/06/10 17:29:33","新北市新莊區中華路一段103號","121.452803333333","25.0439133333333","6500500","新莊區"
"242053","349-TH","2017/06/10 17:29:23","新北市新莊區瓊林南路305巷18號","121.435293333333","25.0050666666667","6500500","新莊區"
"242015","350-TH","2017/06/10 17:29:30","新北市新莊區新泰路154號","121.44773","25.0373783333333","6500500","新莊區"
"242009","351-TH","2017/06/10 17:29:28","新北市新莊區中原路129號","121.454988333333","25.0542783333333","6500500","新莊區"
"238015","755-BX","2017/06/10 17:29:25","新北市樹林區大安路267號","121.419018333333","24.9936883333333","6500700","樹林區"
"238019","599-UM","2017/06/10 17:29:23","新北市樹林區太平路15號","121.419028333333","24.9835733333333","6500700","樹林區"
"238018","571-TV","2017/06/10 17:29:35","新北市樹林區鎮前街269巷36號","121.419278333333","24.98499","6500700","樹林區"
"238024","5061-A6","2017/06/10 17:29:29","新北市樹林區保安街一段48巷24號","121.426453333333","24.9951","6500700","樹林區"
"238022","312-TH","2017/06/10 17:29:25","新北市樹林區和平街43號","121.42314","24.9819066666667","6500700","樹林區"
"238021","311-TH","2017/06/10 17:24:19","新北市樹林區西圳街一段111號","121.398938333333","24.96437","6500700","樹林區"
"238025","303-VK","2017/06/10 17:29:25","新北市樹林區保安二街125號","121.423068333333","24.995505","6500700","樹林區"
"238017","283-BY","2017/06/10 17:29:33","新北市樹林區大安路221號","121.420198333333","24.99512","6500700","樹林區"
"238014","282-BY","2017/06/10 17:29:21","新北市樹林區長壽街70巷31弄10號","121.421466666667","24.9947116666667","6500700","樹林區"
"238020","268-VK","2017/06/10 17:29:22","新北市樹林區俊英街48號","121.42881","25.0026783333333","6500700","樹林區"
"238026","172-UY","2017/06/10 17:29:33","新北市樹林區中山路三段27巷6號","121.401606666667","24.9744716666667","6500700","樹林區"
"238016","169-UY","2017/06/10 17:29:28","新北市樹林區日新街12號","121.42348","24.993115","6500700","樹林區"
"239007","AAC-297","2017/06/10 17:29:34","新北市鶯歌區中正一路187號","121.353313333333","24.9570916666667","6500800","鶯歌區"
"239006","891-R6","2017/06/10 17:29:17","新北市鶯歌區鶯桃路472巷26號","121.333328333333","24.966","6500800","鶯歌區"
"239008","527-UM","2017/06/10 17:29:28","新北市鶯歌區大湖路590巷1號","121.335968333333","24.9741816666667","6500800","鶯歌區"
"239005","526-UM","2017/06/10 17:29:35","新北市鶯歌區福隆一街72號","121.324395","24.971075","6500800","鶯歌區"
"239001","417-VK","2017/06/10 17:29:32","新北市鶯歌區高職西街1-5號","121.338321666667","24.94189","6500800","鶯歌區"
"239003","360-BY","2017/06/10 17:29:38","新北市鶯歌區鶯桃路234巷1號","121.336513333333","24.9592633333333","6500800","鶯歌區"
"239002","359-BY","2017/06/10 17:29:31","新北市鶯歌區育才街25號","121.34924","24.95481","6500800","鶯歌區"
"239004","193-VK","2017/06/10 17:29:29","新北市鶯歌區三鶯路9號","121.356458333333","24.9412083333333","6500800","鶯歌區"
"221010","269-BY","2017/06/10 17:29:30","新北市汐止區汐萬路一段256巷1號","121.65203","25.074675","6501100","汐止區"
"221033","647-BX","2017/06/10 17:29:29","新北市汐止區樟樹二路345號","121.641971666667","25.0730383333333","6501100","汐止區"
"221018","753-BX","2017/06/10 17:29:23","新北市汐止區汐萬路一段256巷1號","121.651968333333","25.074715","6501100","汐止區"
"220009","295-UM","2017/06/10 16:03:29","新北市板橋區民生路二段15-1號","121.47282","25.0163683333333","6500100","板橋區"
