"lineid","car","time","location","longitude","latitude","cityid","cityname"
"234046","148-BY","2017/06/10 18:29:32","新北市永和區福和路1號","121.526433333333","25.0099466666667","6500400","永和區"
"234013","149-BY","2017/06/10 18:29:21","新北市永和區福和路1號","121.526258333333","25.0095466666667","6500400","永和區"
"234007","207-UY","2017/06/10 18:29:20","新北市永和區環河西路二段217巷1號","121.50141","25.010145","6500400","永和區"
"234081","298-R6","2017/06/10 18:29:32","新北市永和區永亨路127號","121.524443333333","25.004205","6500400","永和區"
"234042","862-TW","2017/06/10 18:29:31","新北市永和區福和路1號","121.526395","25.009765","6500400","永和區"
"234026","9371-KE","2017/06/10 18:29:28","新北市永和區中山路一段90號","121.511763333333","25.0108083333333","6500400","永和區"
"234011","9373-KE","2017/06/10 18:29:39","新北市永和區文化路113巷19號","121.513236666667","25.0140883333333","6500400","永和區"
"249005","172-UM","2017/06/10 18:29:31","新北市八里區中華路三段89-3號","121.393411666667","25.139115","6502300","八里區"
"249001","173-UM","2017/06/10 18:29:27","新北市八里區龍米路一段116-1號","121.453213333333","25.1250733333333","6502300","八里區"
"249004","303-UY","2017/06/10 18:29:21","新北市八里區忠孝路86號","121.426035","25.16041","6502300","八里區"
"249002","305-UY","2017/06/10 18:29:20","新北市八里區龍形三街17號","121.448521666667","25.131685","6502300","八里區"
"248014","025-BX","2017/06/10 18:29:22","新北市五股區自強路90巷35-1號","121.431975","25.0716816666667","6501500","五股區"
"248016","026-BX","2017/06/10 18:29:26","新北市五股區凌雲路一段83巷22弄1號","121.449851666667","25.1007433333333","6501500","五股區"
"248006","077-UY","2017/06/10 18:29:32","新北市五股區四維路75號","121.467225","25.0721383333333","6501500","五股區"
"248008","095-VK","2017/06/10 18:29:32","新北市五股區四維路185巷30-1號","121.46526","25.0775183333333","6501500","五股區"
"248020","225-UY","2017/06/10 18:29:21","新北市五股區天乙路114號","121.447241666667","25.1126616666667","6501500","五股區"
"248012","247-BX","2017/06/09 21:13:11","新北市五股區更洲路47-1號","121.456738333333","25.0791366666667","6501500","五股區"
"248002","678-BX","2017/06/10 18:29:31","新北市五股區西雲路116-6號","121.444741666667","25.093655","6501500","五股區"
"248010","682-TV","2017/06/10 18:29:27","新北市五股區水碓路16巷35號","121.434108333333","25.0729516666667","6501500","五股區"
"234023","9380-KE","2017/06/10 18:29:24","新北市永和區福和路1號","121.525903333333","25.00925","6500400","永和區"
"234077","969-R7","2017/06/10 18:29:32","新北市永和區福和路1號","121.526175","25.0096266666667","6500400","永和區"
"232011","375-UM","2017/06/10 18:13:58","新北市坪林區坪雙路一段43號","121.711691666667","24.9424483333333","6502000","坪林區"
"244013","069-UM","2017/06/10 18:29:36","新北市林口區中山路258號","121.385173333333","25.0797133333333","6501700","林口區"
"244007","080-UY","2017/06/10 18:29:36","新北市林口區林口路296號","121.386018333333","25.0854516666667","6501700","林口區"
"244019","403-UM","2017/06/10 18:29:35","新北市林口區忠孝路569巷11號","121.373898333333","25.0686816666667","6501700","林口區"
"244009","410-SL","2017/06/10 18:29:23","新北市林口區文林一街121號","121.378775","25.0871583333333","6501700","林口區"
"244023","483-VK","2017/06/10 18:29:21","新北市林口區仁愛路二段62巷16號","121.384058333333","25.07609","6501700","林口區"
"244017","485-VK","2017/06/10 18:29:28","新北市林口區公園路24號","121.366678333333","25.0673283333333","6501700","林口區"
"244011","701-TV","2017/06/10 18:29:33","新北市林口區中山路158號","121.390708333333","25.0786983333333","6501700","林口區"
"244025","837-TS","2017/06/10 18:29:20","新北市林口區南勢六街81巷16號","121.354318333333","25.072155","6501700","林口區"
"244021","838-TS","2017/06/10 18:29:19","新北市林口區自強四街16號","121.399306666667","25.0766483333333","6501700","林口區"
"243013","AAD-798","2017/06/10 18:29:30","新北市泰山區明志路三段206巷1號","121.423321666667","25.0379183333333","6501600","泰山區"
"222002","016-RS","2017/06/10 18:29:30","新北市深坑區雲鄉路149號","121.621775","24.9983416666667","6501800","深坑區"
"222003","436-BY","2017/06/10 18:29:35","新北市深坑區旺耽路31號","121.627616666667","25.0045533333333","6501800","深坑區"
"222001","628-TS","2017/06/10 18:29:29","新北市深坑區北深路一段172號","121.634001666667","25.0106983333333","6501800","深坑區"
"231041","002-UM","2017/06/10 18:29:25","新北市新店區安華路28-1號","121.519873333333","24.9608216666667","6500600","新店區"
"231056","0291-UT","2017/06/10 18:29:34","新北市新店區中正路429-1號","121.534105","24.9783083333333","6500600","新店區"
"231059","046-UY","2017/06/10 18:29:24","新北市新店區安華路28-1號","121.5195","24.9606716666667","6500600","新店區"
"231061","047-UY","2017/06/10 18:29:18","新北市新店區安華路28-1號","121.519073333333","24.9609","6500600","新店區"
"231060","106-UY","2017/06/10 18:29:26","新北市新店區安華路28-1號","121.519628333333","24.9608016666667","6500600","新店區"
"231051","107-UY","2017/06/10 18:29:20","新北市新店區安華路28-1號","121.519425","24.9611383333333","6500600","新店區"
"231012","108-UY","2017/06/10 18:29:26","新北市新店區安華路28-1號","121.519746666667","24.9611283333333","6500600","新店區"
"231054","110-UY","2017/06/10 18:29:29","新北市新店區安華路28-1號","121.51958","24.96106","6500600","新店區"
"231052","187-VK","2017/06/10 18:29:37","新北市新店區新烏路一段24號","121.546511666667","24.9511116666667","6500600","新店區"
"231057","256-BX","2017/06/10 18:29:20","新北市新店區北宜路一段266號","121.545978333333","24.9527383333333","6500600","新店區"
"231063","268-BY","2017/06/10 18:29:35","新北市新店區安華路1-1號","121.519406666667","24.9604283333333","6500600","新店區"
"231046","278-BY","2017/06/10 18:29:30","新北市新店區直潭七街60號","121.532246666667","24.9399083333333","6500600","新店區"
"231050","AAD-862","2017/06/10 18:29:32","新北市新店區安華路28-1號","121.519801666667","24.9612483333333","6500600","新店區"
"231058","3712-VJ","2017/06/10 18:29:25","新北市新店區北新路一段35號","121.537978333333","24.9591283333333","6500600","新店區"
"231055","3713-VJ","2017/06/10 18:29:30","新北市新店區中正路128巷17號","121.542476666667","24.97239","6500600","新店區"
"231066","4715-K9","2017/06/10 18:29:38","新北市新店區安華路1-1號","121.519446666667","24.9604183333333","6500600","新店區"
"231067","4772-VM","2017/06/10 18:29:22","新北市新店區安華路28-1號","121.519331666667","24.9606716666667","6500600","新店區"
"231065","512-UM","2017/06/10 16:00:22","新北市新店區安華路28-1號","121.519405","24.961235","6500600","新店區"
"231064","515-UM","2017/06/10 16:30:49","新北市新店區安華路28-1號","121.519806666667","24.961","6500600","新店區"
"231045","617-UM","2017/06/10 18:29:30","新北市新店區安華路28-1號","121.51942","24.96082","6500600","新店區"
"231040","619-UM","2017/06/10 18:29:23","新北市新店區安華路28-1號","121.519496666667","24.9606083333333","6500600","新店區"
"231042","641-BX","2017/06/10 18:29:32","新北市新店區安華路1-1號","121.519466666667","24.960445","6500600","新店區"
"231049","719-UM","2017/06/10 18:29:29","新北市新店區安華路28-1號","121.519588333333","24.9612016666667","6500600","新店區"
"231062","720-UM","2017/06/10 18:29:39","新北市新店區安華路28-1號","121.519378333333","24.961275","6500600","新店區"
"231044","897-TW","2017/06/10 18:29:22","新北市新店區安華路28-1號","121.519828333333","24.9607733333333","6500600","新店區"
"231043","899-TW","2017/06/10 18:29:30","新北市新店區安華路28-1號","121.51935","24.96086","6500600","新店區"
"235066","003-UY","2017/06/10 18:29:33","新北市中和區中山路二段119號","121.502873333333","25.0037433333333","6500300","中和區"
"235064","005-UY","2017/06/10 18:29:26","新北市中和區圓通路141巷37弄1號","121.498916666667","24.99494","6500300","中和區"
"235063","006-UY","2017/06/10 18:29:19","新北市中和區連城路347巷45號","121.488601666667","24.9946783333333","6500300","中和區"
"235056","096-UM","2017/06/10 18:29:34","新北市中和區員山路611巷1號","121.477821666667","25.0112283333333","6500300","中和區"
"235039","097-UM","2017/06/10 18:29:36","新北市中和區宜安路54號","121.511976666667","24.9966666666667","6500300","中和區"
"235065","098-UM","2017/06/10 18:29:34","新北市中和區莊敬路49巷18號","121.501653333333","25.0061333333333","6500300","中和區"
"235040","150-BY","2017/06/10 18:29:29","新北市中和區安平路38號","121.509773333333","24.99493","6500300","中和區"
"235058","151-BY","2017/06/10 18:29:31","新北市中和區圓通路369巷39-30號","121.489706666667","24.98578","6500300","中和區"
"235055","183-VK","2017/06/10 18:29:31","新北市中和區莒光路140-1號","121.472553333333","25.0011433333333","6500300","中和區"
"235038","185-VK","2017/06/10 18:29:22","新北市中和區秀朗路三段128巷10號","121.524566666667","24.9926666666667","6500300","中和區"
"235049","186-VK","2017/06/10 18:29:36","新北市中和區景安路136號","121.505113333333","24.9943233333333","6500300","中和區"
"235067","255-BX","2017/06/10 18:29:29","新北市中和區連城路467-6號","121.48359","24.9959633333333","6500300","中和區"
"235072","301-VK","2017/06/10 18:29:26","新北市中和區錦和路156號","121.489795","24.99605","6500300","中和區"
"235043","352-BY","2017/06/10 18:29:28","新北市中和區景平路295-1號","121.50686","24.9931633333333","6500300","中和區"
"235041","375-QA","2017/06/10 18:29:28","新北市中和區錦和路350-1號","121.490451666667","24.99356","6500300","中和區"
"235051","376-QA","2017/06/10 18:29:35","新北市中和區興南路二段242巷17號","121.502533333333","24.9829166666667","6500300","中和區"
"235025","378-QA","2017/06/10 18:29:29","新北市中和區民享街119巷1號","121.474548333333","24.9989116666667","6500300","中和區"
"235050","4979-A6","2017/06/10 18:24:46","新北市中和區興南路一段1號","121.511495","24.9912583333333","6500300","中和區"
"235069","4980-A6","2017/06/10 18:29:36","新北市中和區連城路99巷43號","121.497071666667","24.9988983333333","6500300","中和區"
"235042","551-UM","2017/06/10 18:29:34","新北市中和區自立路56巷19號","121.522558333333","24.99164","6500300","中和區"
"235070","558-UM","2017/06/10 18:29:32","新北市中和區圓通路123號","121.499288333333","24.9961166666667","6500300","中和區"
"235045","565-BX","2017/06/10 18:29:32","新北市中和區復興路22號","121.505343333333","24.989975","6500300","中和區"
"235054","640-BX","2017/06/10 18:29:27","新北市中和區民享街112號","121.474588333333","24.999245","6500300","中和區"
"235060","647-TV","2017/06/10 18:29:39","新北市中和區員山路107號","121.480868333333","24.9945733333333","6500300","中和區"
"235046","733-UM","2017/06/10 18:29:32","新北市中和區錦和路350-1號","121.490046666667","24.9935816666667","6500300","中和區"
"235071","783-BX","2017/06/10 18:29:24","新北市中和區員山路36巷16-3號","121.485226666667","24.991145","6500300","中和區"
"235062","800-TS","2017/06/10 18:29:32","新北市中和區景平路707號","121.49659","25.00364","6500300","中和區"
"235057","801-TS","2017/06/10 18:29:29","新北市中和區民享街97巷19號","121.47539","24.9995783333333","6500300","中和區"
"235052","805-TS","2017/06/10 18:29:22","新北市中和區興南路二段143號","121.505193333333","24.98389","6500300","中和區"
"235048","896-TW","2017/06/10 18:29:33","新北市中和區中正路271-1號","121.49573","24.9936666666667","6500300","中和區"
"235053","900-TW","2017/06/10 18:29:28","新北市中和區員山路72號","121.480918333333","24.9935916666667","6500300","中和區"
"235037","AAC-213","2017/06/10 18:29:32","新北市中和區景平路91-2號","121.517485","24.991905","6500300","中和區"
"235059","AAC-215","2017/06/10 18:29:38","新北市中和區員山路36巷16-3號","121.485156666667","24.9912683333333","6500300","中和區"
"220068","013-TV","2017/06/10 18:29:37","新北市板橋區民生路二段17號","121.472655","25.0164916666667","6500100","板橋區"
"220065","072-UY","2017/06/10 15:20:56","新北市板橋區民生路二段15-1號","121.472681666667","25.01646","6500100","板橋區"
"220086","073-UY","2017/06/10 18:29:29","新北市板橋區華東街1-10號","121.448278333333","24.9950616666667","6500100","板橋區"
"247002","402-BY","2017/06/10 16:02:12","新北市五股區中興路三段3-6號","121.449556666667","25.078765","6501400","蘆洲區"
"247006","341-TH","2017/06/10 18:29:28","新北市八里區下罟子1-13號","121.389601666667","25.1421383333333","6501400","蘆洲區"
"247014","057-VK","2017/06/10 18:29:32","新北市五股區工商路8號","121.440675","25.0825566666667","6501400","蘆洲區"
"247004","056-VK","2017/06/10 18:29:31","新北市五股區中興路三段3-6號","121.449451666667","25.0787016666667","6501400","蘆洲區"
"247022","002-UY","2017/06/10 18:29:22","新北市八里區中華路三段62號","121.39358","25.1407033333333","6501400","蘆洲區"
"226004","312-R5","2017/06/10 18:29:26","新北市平溪區石底里石筍尖3號","121.736773333333","25.0258183333333","6502400","平溪區"
"228003","097-TW","2017/06/10 18:29:34","新北市貢寮區和美里和美街41號","121.913365","25.090875","6502600","貢寮區"
"228001","212-TW","2017/06/10 18:29:18","新北市貢寮區仁理村仁義街6號","121.923725","25.0520783333333","6502600","貢寮區"
"228002","585-TW","2017/06/10 18:29:28","新北市貢寮區福連里香蘭街5號","121.97421","25.0243916666667","6502600","貢寮區"
"224006","676-BX","2017/06/10 18:29:35","新北市瑞芳區明燈路二段55號","121.81106","25.1080333333333","6501200","瑞芳區"
"224002","639-TC","2017/06/10 18:29:32","新北市瑞芳區三爪子坑路29巷59號","121.813908333333","25.1064083333333","6501200","瑞芳區"
"224009","285-BY","2017/06/10 18:29:36","新北市瑞芳區五號路96號","121.854766666667","25.1104633333333","6501200","瑞芳區"
"224008","275-VK","2017/06/10 18:29:31","新北市瑞芳區岳王路37號","121.807873333333","25.11131","6501200","瑞芳區"
"224007","273-VK","2017/06/10 18:29:31","新北市瑞芳區大埔路吉慶公園城2號","121.765611666667","25.1005133333333","6501200","瑞芳區"
"224005","271-BY","2017/06/10 18:29:25","新北市瑞芳區台電新村54號","121.812155","25.1274183333333","6501200","瑞芳區"
"227002","642-TC","2017/06/10 18:29:34","新北市雙溪區魚行里坤溪35號","121.870491666667","25.030365","6502500","雙溪區"
"227010","400-TW","2017/06/10 18:29:29","新北市雙溪區牡丹里牡丹159-1號","121.850873333333","25.0591133333333","6502500","雙溪區"
"253005","295-VK","2017/06/10 18:29:34","新北市石門區老崩山5號","121.552748333333","25.2913066666667","6502200","石門區"
"253006","741-TV","2017/06/10 18:29:32","新北市石門區公地16號","121.545753333333","25.2902316666667","6502200","石門區"
"208001","742-BX","2017/06/10 18:29:37","新北市金山區金包里街178號","121.63754","25.223285","6502700","金山區"
"208003","665-BX","2017/06/10 18:29:25","新北市金山區中山路162號","121.638433333333","25.2209716666667","6502700","金山區"
"251004","009-UM","2017/06/10 18:29:21","新北市淡水區民權路41號","121.460356666667","25.1404133333333","6501000","淡水區"
"251008","181-VK","2017/06/10 18:29:24","新北市淡水區北投子84號","121.468716666667","25.17851","6501000","淡水區"
"251014","182-VK","2017/06/10 18:29:20","新北市淡水區南平21-1號","121.496645","25.2168483333333","6501000","淡水區"
"251010","413-VK","2017/06/10 18:29:26","新北市淡水區沙崙路181巷1號","121.424161666667","25.184175","6501000","淡水區"
"251012","441-VK","2017/06/10 18:29:30","新北市淡水區北投子46號","121.463281666667","25.1820833333333","6501000","淡水區"
"251016","442-VK","2017/06/10 18:29:26","新北市淡水區下圭柔山106號","121.44354","25.2093583333333","6501000","淡水區"
"251001","559-UM","2017/06/10 18:29:33","新北市淡水區自強路419號","121.465635","25.13427","6501000","淡水區"
"251006","561-UM","2017/06/10 18:29:32","新北市淡水區崁頂51-2號","121.44195","25.1974766666667","6501000","淡水區"
"251011","650-BX","2017/06/10 18:29:31","新北市淡水區中正東路27號","121.448185","25.1663183333333","6501000","淡水區"
"251002","672-BX","2017/06/10 18:29:32","新北市淡水區竿蓁二街52-1號","121.454526666667","25.163165","6501000","淡水區"
"251003","673-BX","2017/06/10 18:29:26","新北市淡水區北新路69巷26號","121.44669","25.180115","6501000","淡水區"
"207003","550-UM","2017/06/10 18:29:31","新北市萬里區野柳里港東路74-6號","121.688958333333","25.2051316666667","6502800","萬里區"
"207004","225-TW","2017/06/10 18:29:34","新北市萬里區萬里里瑪鋉路252號","121.688981666667","25.18071","6502800","萬里區"
"252002","178-VK","2017/06/10 18:29:28","新北市三芝區中山路二段39號","121.502955","25.255115","6502100","三芝區"
"252003","249-BX","2017/06/10 18:29:33","新北市三芝區後厝里北勢子41-7號","121.472393333333","25.2530216666667","6502100","三芝區"
"252001","292-VK","2017/06/10 18:29:28","新北市三芝區中興街二段2號","121.498245","25.2566366666667","6502100","三芝區"
"208002","170-UY","2017/06/10 18:29:35","新北市金山區磺港里磺港路169號","121.643245","25.2247333333333","6502700","金山區"
"237004","078-UY","2017/06/10 18:29:19","新北市三峽區五寮81-12號","121.359511666667","24.85804","6500900","三峽區"
"237007","153-BY","2017/06/10 18:29:20","新北市三峽區中正路三段70巷62號","121.355155","24.90501","6500900","三峽區"
"237009","210-TH","2017/06/10 18:29:30","新北市三峽區民權街235號","121.368046666667","24.927785","6500900","三峽區"
"237013","252-BX","2017/06/10 18:29:28","新北市三峽區光明路69巷25號","121.376716666667","24.9292116666667","6500900","三峽區"
"237012","275-BY","2017/06/10 18:29:33","新北市三峽區三樹路110號","121.378296666667","24.93921","6500900","三峽區"
"237008","302-VK","2017/06/10 18:29:38","新北市三峽區白雞68-285號","121.391648333333","24.9072483333333","6500900","三峽區"
"237014","433-BY","2017/06/10 18:29:27","新北市三峽區民生街117號","121.373708333333","24.9353766666667","6500900","三峽區"
"237006","5529-G3","2017/06/10 18:29:33","新北市三峽區溪東路473巷74號","121.415413333333","24.92945","6500900","三峽區"
"237011","572-TV","2017/06/10 18:29:28","新北市三峽區溪東路367號","121.411608333333","24.9292883333333","6500900","三峽區"
"237016","649-BX","2017/06/10 18:29:28","新北市三峽區竹崙路158號","121.43798","24.9043266666667","6500900","三峽區"
"237010","706-TV","2017/06/10 18:29:25","新北市三峽區復興路323號","121.364813333333","24.93884","6500900","三峽區"
"237005","AKY-6261","2017/06/10 18:29:38","新北市三峽區民族街5巷38號","121.369533333333","24.93145","6500900","三峽區"
"236073","105-UM","2017/06/10 18:29:36","新北市土城區永豐路255巷27弄45號","121.47704","24.9736933333333","6501300","土城區"
"236043","107-UM","2017/06/10 18:29:30","新北市土城區學成路99巷11號","121.450031666667","24.9883366666667","6501300","土城區"
"236079","166-UM","2017/06/10 18:29:22","新北市土城區中央路三段282號","121.426558333333","24.9636583333333","6501300","土城區"
"236031","253-BX","2017/06/10 18:29:33","新北市土城區水源街81巷24號","121.439295","24.9756366666667","6501300","土城區"
"236027","269-VK","2017/06/10 18:29:36","新北市土城區南天母路137-10號","121.44852","24.953955","6501300","土城區"
"236015","270-VK","2017/06/10 18:29:36","新北市土城區青雲路39巷7號","121.46034","24.98753","6501300","土城區"
"236038","271-VK","2017/06/10 18:29:34","新北市土城區青雲路451巷8弄1號","121.459645","24.974575","6501300","土城區"
"236023","401-BY","2017/06/10 18:29:31","新北市土城區永豐路202巷7號","121.4663","24.9833016666667","6501300","土城區"
"236059","912-UM","2017/06/10 18:29:24","新北市土城區中央路四段466號","121.409971666667","24.9506116666667","6501300","土城區"
"236049","913-UM","2017/06/10 18:28:46","新北市土城區青雲路483巷10弄34號","121.45933","24.9721816666667","6501300","土城區"
"236063","915-UM","2017/06/10 18:29:31","新北市土城區延壽路77巷6-3號","121.468486666667","24.9926216666667","6501300","土城區"
"236055","AAC-216","2017/06/10 18:29:27","新北市土城區中華路二段133號","121.439025","24.9763766666667","6501300","土城區"
"242025","615-BX","2017/06/10 18:29:17","新北市新莊區中原路658號","121.44303","25.05431","6500500","新莊區"
"242042","497-BY","2017/06/10 18:29:36","新北市新莊區天祥街53號","121.414831666667","25.03038","6500500","新莊區"
"242046","441-UM","2017/06/10 18:29:38","新北市新莊區福營路433號","121.420766666667","25.026315","6500500","新莊區"
"242061","362-BY","2017/06/10 18:29:24","新北市新莊區民安路153號","121.42555","25.0236433333333","6500500","新莊區"
"242058","353-BY","2017/06/10 18:29:39","新北市新莊區中正路895號","121.412373333333","25.02208","6500500","新莊區"
"242011","132-UY","2017/06/10 18:29:38","新北市新莊區中榮街78號","121.448151666667","25.0527916666667","6500500","新莊區"
"242034","133-UY","2017/06/10 18:29:35","新北市板橋區金門街215巷91弄7號","121.434791666667","24.98869","6500500","新莊區"
"242044","172-VK","2017/06/10 18:29:27","新北市新莊區龍安路71-4號","121.416025","25.0220683333333","6500500","新莊區"
"242007","173-VK","2017/06/10 18:29:20","新北市新莊區中華路二段36-1號","121.45368","25.045375","6500500","新莊區"
"242031","346-TH","2017/06/10 18:29:30","新北市新莊區新泰路275號","121.44574","25.040435","6500500","新莊區"
"242002","347-TH","2017/06/10 18:29:27","新北市新莊區環漢路二段385號","121.451178333333","25.032625","6500500","新莊區"
"242053","349-TH","2017/06/10 18:29:31","新北市新莊區新樹路442-1號","121.43156","25.001355","6500500","新莊區"
"242015","350-TH","2017/06/10 18:29:30","新北市新莊區中平路67號","121.444738333333","25.0447816666667","6500500","新莊區"
"238015","755-BX","2017/06/10 18:29:25","新北市樹林區啟智街131號","121.417436666667","24.9886083333333","6500700","樹林區"
"238023","601-UM","2017/06/10 18:29:34","新北市樹林區忠信街15號","121.407761666667","25.0152216666667","6500700","樹林區"
"238018","571-TV","2017/06/10 18:29:35","新北市樹林區博愛一街10號","121.42526","24.99095","6500700","樹林區"
"238021","311-TH","2017/06/10 18:15:59","新北市樹林區柑園街一段196號","121.394536666667","24.9564066666667","6500700","樹林區"
"238025","303-VK","2017/06/10 18:29:25","新北市樹林區保安二街二段6-9號","121.415763333333","25.0011983333333","6500700","樹林區"
"238017","283-BY","2017/06/10 18:29:33","新北市樹林區保安街二段335號","121.412295","25.0080233333333","6500700","樹林區"
"238014","282-BY","2017/06/10 18:29:21","新北市樹林區大安路111巷11號","121.42317","24.99764","6500700","樹林區"
"238020","268-VK","2017/06/10 18:29:22","新北市樹林區中正路642巷19號","121.411358333333","25.0174833333333","6500700","樹林區"
"238026","172-UY","2017/06/10 18:29:32","新北市樹林區八德街640號","121.396796666667","24.9693466666667","6500700","樹林區"
"238016","169-UY","2017/06/10 18:29:28","新北市樹林區文化街23號","121.41932","24.9875366666667","6500700","樹林區"
"239007","AAC-297","2017/06/10 18:29:34","新北市鶯歌區國慶街35號","121.349438333333","24.9559566666667","6500800","鶯歌區"
"239006","891-R6","2017/06/10 18:29:37","新北市鶯歌區鶯桃路296巷57號","121.335906666667","24.9612983333333","6500800","鶯歌區"
"239008","527-UM","2017/06/10 18:29:28","新北市鶯歌區國際一路179號","121.33625","24.9764733333333","6500800","鶯歌區"
"239005","526-UM","2017/06/10 18:29:34","桃園市八德區桃鶯路132號","121.328406666667","24.9695483333333","6500800","鶯歌區"
"239001","417-VK","2017/06/10 18:29:32","新北市鶯歌區國中街197號","121.338265","24.9391466666667","6500800","鶯歌區"
"239003","360-BY","2017/06/10 18:29:18","新北市鶯歌區福安街58號","121.335626666667","24.965185","6500800","鶯歌區"
"239002","359-BY","2017/06/10 18:29:31","新北市鶯歌區中山路315號","121.343983333333","24.956955","6500800","鶯歌區"
"239004","193-VK","2017/06/10 18:29:29","新北市鶯歌區尖山路271號","121.341136666667","24.9436716666667","6500800","鶯歌區"
"221036","130-UY","2017/06/10 18:29:38","新北市汐止區大同路二段585號","121.66378","25.0703616666667","6501100","汐止區"
"221015","131-UY","2017/06/10 18:29:28","新北市汐止區鄉友街29號","121.668545","25.08123","6501100","汐止區"
"221010","269-BY","2017/06/10 18:29:29","新北市汐止區瑞松街49巷6號","121.645455","25.1070916666667","6501100","汐止區"
"221012","278-VK","2017/06/10 18:29:35","新北市汐止區保長路37巷6號","121.673045","25.0794483333333","6501100","汐止區"
"221023","279-VK","2017/06/10 18:29:34","新北市汐止區康寧街523-1號","121.633515","25.068885","6501100","汐止區"
"221032","280-BY","2017/06/10 18:29:38","新北市汐止區福山街56巷19號","121.618013333333","25.0456333333333","6501100","汐止區"
"221002","281-BY","2017/06/10 18:29:29","新北市汐止區和平街75號","121.661403333333","25.0706683333333","6501100","汐止區"
"221038","297-VK","2017/06/10 18:29:28","新北市汐止區忠孝東路254號","121.662986666667","25.0675033333333","6501100","汐止區"
"221029","298-VK","2017/06/10 18:29:22","新北市汐止區樟樹一路141巷29號","121.641093333333","25.0664716666667","6501100","汐止區"
"221035","622-UM","2017/06/10 18:29:35","新北市汐止區新台五路一段79-7號","121.645973333333","25.0623316666667","6501100","汐止區"
"221025","623-UM","2017/06/10 18:29:21","新北市汐止區仁愛路120號","121.662906666667","25.0637566666667","6501100","汐止區"
"221033","647-BX","2017/06/10 18:29:29","新北市汐止區宜興街59巷33-1號","121.621718333333","25.0428416666667","6501100","汐止區"
"221002","707-TV","2017/06/10 18:29:27","新北市汐止區福德一路155號","121.6365","25.066555","6501100","汐止區"
"221018","753-BX","2017/06/10 18:29:23","新北市汐止區茄苳路120巷2號","121.66771","25.069965","6501100","汐止區"
"220082","610-BX","2017/06/10 18:29:31","新北市板橋區華東街1-10號","121.448265","24.9949133333333","6500100","板橋區"
"220094","267-BY","2017/06/10 16:16:53","新北市板橋區民生路二段188號","121.470115","25.02025","6500100","板橋區"
"220071","283-VK","2017/06/10 16:35:10","新北市板橋區民生路二段30號","121.472611666667","25.01709","6500100","板橋區"
"220053","285-VK","2017/06/10 18:29:38","新北市板橋區民生路二段36-1號","121.47259","25.0166866666667","6500100","板橋區"
"220009","295-UM","2017/06/10 16:03:29","新北市板橋區民生路二段15-1號","121.47282","25.0163683333333","6500100","板橋區"
"220056","303-R5","2017/06/10 18:29:32","新北市板橋區長安街138巷1弄85號","121.474881666667","25.0112666666667","6500100","板橋區"
"220063","609-BX","2017/06/10 15:16:26","新北市板橋區民生路二段17號","121.47249","25.0164333333333","6500100","板橋區"
"220057","686-BX","2017/06/10 18:29:33","新北市板橋區民生路二段14號","121.47314","25.016295","6500100","板橋區"
"220054","741-BX","2017/06/10 18:29:36","新北市板橋區民生路二段36-1號","121.472556666667","25.0167","6500100","板橋區"
