"lineid","car","time","location","longitude","latitude","cityid","cityname"
"234046","148-BY","2017/06/10 18:49:33","新北市永和區秀朗路二段126巷28號","121.524645","25.0009716666667","6500400","永和區"
"234013","149-BY","2017/06/10 18:49:21","新北市永和區保福路二段95號","121.510413333333","25.013055","6500400","永和區"
"234007","207-UY","2017/06/10 18:49:20","新北市永和區復興街16巷4號","121.515256666667","25.0126766666667","6500400","永和區"
"234081","298-R6","2017/06/10 18:49:32","新北市永和區永利路99號","121.521851666667","25.0030633333333","6500400","永和區"
"234038","336-UY","2017/06/10 18:49:34","新北市永和區成功路二段213號","121.526626666667","24.9958216666667","6500400","永和區"
"234086","338-UY","2017/06/10 18:49:20","新北市永和區中正路1號","121.513626666667","24.9952633333333","6500400","永和區"
"234070","552-UM","2017/06/10 18:49:23","新北市永和區中興街98號","121.519006666667","25.01205","6500400","永和區"
"234054","553-UM","2017/06/10 18:49:29","新北市永和區竹林路64號","121.518183333333","25.0134933333333","6500400","永和區"
"234017","745-BX","2017/06/10 18:49:21","新北市永和區忠孝街26巷19號","121.515258333333","25.0168016666667","6500400","永和區"
"234030","746-BX","2017/06/10 18:49:17","新北市永和區得和路328號","121.52339","24.999505","6500400","永和區"
"234061","AAD-866","2017/06/10 18:49:20","新北市永和區福和路309巷1號","121.516278333333","25.0070716666667","6500400","永和區"
"234042","862-TW","2017/06/10 18:49:31","新北市永和區水源街17巷1號","121.51172","25.004635","6500400","永和區"
"234050","863-TW","2017/06/10 18:49:22","新北市永和區保安路2號","121.510828333333","25.017525","6500400","永和區"
"234026","9371-KE","2017/06/10 18:49:28","新北市永和區自由街50號","121.513796666667","25.00614","6500400","永和區"
"234011","9373-KE","2017/06/10 18:49:39","新北市永和區仁愛路31號","121.514336666667","25.01316","6500400","永和區"
"249005","172-UM","2017/06/10 18:49:31","新北市八里區長道坑17號","121.396735","25.1159883333333","6502300","八里區"
"249001","173-UM","2017/06/10 18:49:27","新北市八里區龍米路一段263-2號","121.449771666667","25.1368583333333","6502300","八里區"
"249004","303-UY","2017/06/10 18:49:21","新北市八里區中山路一段150巷80號","121.416083333333","25.1603","6502300","八里區"
"248014","025-BX","2017/06/10 18:49:22","新北市五股區民義路一段107巷2號","121.433696666667","25.0860033333333","6501500","五股區"
"248016","026-BX","2017/06/10 18:49:26","新北市五股區凌雲路一段133巷3號","121.449438333333","25.1018416666667","6501500","五股區"
"248006","077-UY","2017/06/10 18:49:24","新北市五股區中興路一段171巷73號","121.464255","25.0714283333333","6501500","五股區"
"248008","095-VK","2017/06/10 18:49:32","新北市五股區中興路一段130號","121.46561","25.073815","6501500","五股區"
"248020","225-UY","2017/06/10 18:49:21","新北市五股區凌雲路三段39號","121.431756666667","25.1171933333333","6501500","五股區"
"248012","247-BX","2017/06/09 21:13:11","新北市五股區更洲路47-1號","121.456738333333","25.0791366666667","6501500","五股區"
"248002","678-BX","2017/06/10 18:49:31","新北市五股區成泰路三段435巷11號","121.449355","25.097885","6501500","五股區"
"248010","682-TV","2017/06/10 18:49:27","新北市五股區水碓五路83號","121.430101666667","25.07198","6501500","五股區"
"234023","9380-KE","2017/06/10 18:49:24","新北市永和區竹林路119巷28-3號","121.52183","25.011765","6500400","永和區"
"234077","969-R7","2017/06/10 18:49:32","新北市永和區中正路2巷29弄13號","121.51361","24.99408","6500400","永和區"
"234074","AAC-211","2017/06/10 18:49:38","新北市永和區福和路1號","121.526415","25.00993","6500400","永和區"
"234067","AAC-212","2017/06/10 18:49:30","新北市永和區永和路一段2號","121.512603333333","25.0044616666667","6500400","永和區"
"234003","AAC-295","2017/06/10 18:48:03","新北市永和區豫溪街7號","121.514921666667","25.0098983333333","6500400","永和區"
"232011","375-UM","2017/06/10 18:49:18","新北市坪林區坪林街29號","121.711868333333","24.9368166666667","6502000","坪林區"
"244013","069-UM","2017/06/10 18:49:36","新北市林口區文化一路一段120號","121.374105","25.0719383333333","6501700","林口區"
"244007","080-UY","2017/06/10 18:49:36","新北市林口區中湖62號","121.384883333333","25.1007333333333","6501700","林口區"
"244019","403-UM","2017/06/10 18:49:35","新北市林口區忠孝路648號","121.379156666667","25.068505","6501700","林口區"
"244009","410-SL","2017/06/10 18:49:20","新北市林口區竹林路326巷18號","121.39229","25.0821566666667","6501700","林口區"
"244023","483-VK","2017/06/10 18:49:21","新北市林口區信義路281-1號","121.376143333333","25.0818416666667","6501700","林口區"
"244017","485-VK","2017/06/10 18:49:28","新北市林口區八德路82-1號","121.365093333333","25.06611","6501700","林口區"
"244011","701-TV","2017/06/10 18:49:33","新北市林口區中正路57巷7弄2號","121.39524","25.0765683333333","6501700","林口區"
"244025","837-TS","2017/06/10 18:49:20","新北市林口區南勢街256號","121.35839","25.0758033333333","6501700","林口區"
"243013","AAD-798","2017/06/10 18:49:30","新北市泰山區明志路三段206巷3號","121.423305","25.0379183333333","6501600","泰山區"
"243014","421-VK","2017/06/10 18:49:24","新北市泰山區黎明路25號","121.422035","25.060705","6501600","泰山區"
"243010","548-UM","2017/06/10 18:49:32","新北市泰山區辭修路24號","121.429","25.0581183333333","6501600","泰山區"
"243012","646-TV","2017/06/10 18:49:31","新北市泰山區福興街22號","121.434315","25.0577016666667","6501600","泰山區"
"243016","680-BX","2017/06/10 18:49:37","新北市泰山區明志路二段152-3號","121.427488333333","25.0504766666667","6501600","泰山區"
"222002","016-RS","2017/06/10 18:49:30","新北市深坑區文山路一段62巷3號","121.622841666667","25.0009066666667","6501800","深坑區"
"222003","436-BY","2017/06/10 18:49:35","新北市深坑區翠谷街17巷42弄8號","121.625401666667","25.010185","6501800","深坑區"
"222001","628-TS","2017/06/10 18:49:29","新北市深坑區松柏街30巷2號","121.63864","25.0111633333333","6501800","深坑區"
"231041","002-UM","2017/06/10 18:49:25","新北市新店區安華路28-1號","121.51982","24.9607083333333","6500600","新店區"
"231056","0291-UT","2017/06/10 18:49:34","新北市新店區大豐路68巷1號","121.539135","24.9796633333333","6500600","新店區"
"231059","046-UY","2017/06/10 18:49:24","新北市新店區安華路28-1號","121.519536666667","24.9606633333333","6500600","新店區"
"231061","047-UY","2017/06/10 18:49:38","新北市新店區安忠路38號","121.513193333333","24.9596366666667","6500600","新店區"
"231060","106-UY","2017/06/10 18:49:26","新北市新店區安華路28-1號","121.519583333333","24.9607166666667","6500600","新店區"
"231051","107-UY","2017/06/10 18:49:20","新北市新店區中央路208-1號","121.530148333333","24.9737766666667","6500600","新店區"
"231012","108-UY","2017/06/10 18:49:26","新北市新店區北新路二段45號","121.542795","24.97292","6500600","新店區"
"231054","110-UY","2017/06/10 18:49:29","新北市新店區環河路29巷1-1號","121.535791666667","24.9610283333333","6500600","新店區"
"231052","187-VK","2017/06/10 18:49:30","新北市新店區新烏路一段171號","121.545238333333","24.9342166666667","6500600","新店區"
"231063","268-BY","2017/06/10 18:49:35","新北市新店區車子路10-4號","121.504786666667","24.9544766666667","6500600","新店區"
"231046","278-BY","2017/06/10 18:49:30","新北市新店區直潭路57號","121.533135","24.9424066666667","6500600","新店區"
"231050","AAD-862","2017/06/10 18:49:32","新北市新店區安康路一段52巷2號","121.530115","24.9612033333333","6500600","新店區"
"231058","3712-VJ","2017/06/10 18:49:25","新北市新店區北宜路一段123-2號","121.540571666667","24.953385","6500600","新店區"
"231055","3713-VJ","2017/06/10 18:49:30","新北市新店區北新路一段271巷35號","121.539515","24.966955","6500600","新店區"
"231066","4715-K9","2017/06/10 18:49:38","新北市新店區安豐路22巷8號","121.501436666667","24.9553283333333","6500600","新店區"
"231067","4772-VM","2017/06/10 18:49:22","新北市新店區安康路一段76巷18-1號","121.528535","24.962845","6500600","新店區"
"231065","512-UM","2017/06/10 18:49:35","新北市新店區安豐路74號","121.496495","24.9528266666667","6500600","新店區"
"231064","515-UM","2017/06/10 16:30:49","新北市新店區安華路28-1號","121.519806666667","24.961","6500600","新店區"
"231045","617-UM","2017/06/10 18:49:30","新北市新店區安康路一段216號","121.523918333333","24.9635133333333","6500600","新店區"
"231040","619-UM","2017/06/10 18:49:23","新北市新店區中央路210-1號","121.530056666667","24.9734966666667","6500600","新店區"
"231042","641-BX","2017/06/10 18:49:32","新北市新店區中正路71號","121.543456666667","24.9699116666667","6500600","新店區"
"231049","719-UM","2017/06/10 18:49:29","新北市新店區中正路454-5號","121.534466666667","24.9790533333333","6500600","新店區"
"231062","720-UM","2017/06/10 18:49:39","新北市新店區安忠路205巷8號","121.509271666667","24.9548833333333","6500600","新店區"
"231044","897-TW","2017/06/10 18:49:22","新北市新店區寶中路83號","121.5478","24.9806416666667","6500600","新店區"
"231043","899-TW","2017/06/10 18:49:30","新北市新店區安康路一段160號","121.52617","24.963075","6500600","新店區"
"241020","412-TH","2017/06/10 18:49:32","新北市三重區忠孝路二段34號","121.485691666667","25.0709383333333","6500200","三重區"
"235066","003-UY","2017/06/10 18:49:33","新北市中和區水源路18巷4弄1號","121.503901666667","25.0031433333333","6500300","中和區"
"235064","005-UY","2017/06/10 18:49:26","新北市中和區連城路75巷2-14號","121.497871666667","24.9992933333333","6500300","中和區"
"235063","006-UY","2017/06/10 18:49:21","新北市中和區錦和路111-1號","121.490145","24.9951883333333","6500300","中和區"
"235056","096-UM","2017/06/10 18:49:34","新北市中和區員山路611巷5弄9號","121.478411666667","25.0110916666667","6500300","中和區"
"235039","097-UM","2017/06/10 18:49:40","新北市永和區安樂路78號","121.514605","24.99845","6500300","中和區"
"235065","098-UM","2017/06/10 18:49:34","新北市中和區莊敬路49巷29弄7號","121.50107","25.0061666666667","6500300","中和區"
"235040","150-BY","2017/06/10 18:49:29","新北市中和區保健路60號","121.51086","24.9964916666667","6500300","中和區"
"235058","151-BY","2017/06/10 18:49:31","新北市中和區連城路567-1號","121.479323333333","24.9945083333333","6500300","中和區"
"235055","183-VK","2017/06/10 18:49:30","新北市中和區民生街22號","121.470045","25.0053983333333","6500300","中和區"
"235038","185-VK","2017/06/10 18:49:22","新北市中和區大勇街76號","121.518258333333","24.9946466666667","6500300","中和區"
"235049","186-VK","2017/06/10 18:49:37","新北市中和區景安路130號","121.505043333333","24.9945","6500300","中和區"
"235067","255-BX","2017/06/10 18:49:29","新北市中和區中山路二段479號","121.483081666667","25.0048566666667","6500300","中和區"
"235044","293-VK","2017/06/10 18:49:23","新北市中和區復興路280巷5號","121.502191666667","24.9909616666667","6500300","中和區"
"235072","301-VK","2017/06/10 18:49:22","新北市中和區中山路二段134號","121.502305","25.0032633333333","6500300","中和區"
"235043","352-BY","2017/06/10 18:49:28","新北市中和區成功路139號","121.52597","24.9906316666667","6500300","中和區"
"235041","375-QA","2017/06/10 18:49:28","新北市中和區景安路77號","121.506658333333","24.997455","6500300","中和區"
"235051","376-QA","2017/06/10 18:49:35","新北市中和區華新街109巷34號","121.50884","24.979865","6500300","中和區"
"235025","378-QA","2017/06/10 18:49:29","新北市中和區民享街28號","121.473783333333","25.0036033333333","6500300","中和區"
"235050","4979-A6","2017/06/10 18:24:46","新北市中和區興南路一段1號","121.511495","24.9912583333333","6500300","中和區"
"235069","4980-A6","2017/06/10 18:49:36","新北市中和區南山路52巷21號","121.501238333333","24.9972133333333","6500300","中和區"
"235042","551-UM","2017/06/10 18:49:34","新北市中和區秀朗路三段175巷7號","121.525156666667","24.9917","6500300","中和區"
"235070","558-UM","2017/06/10 18:49:32","新北市中和區南華路55-2號","121.504148333333","24.9971166666667","6500300","中和區"
"235045","565-BX","2017/06/10 18:49:32","新北市中和區南山路214號","121.50616","24.9902766666667","6500300","中和區"
"235054","640-BX","2017/06/10 18:49:27","新北市中和區民享街54巷1號","121.473866666667","25.00237","6500300","中和區"
"235060","647-TV","2017/06/10 18:49:39","新北市中和區中山路三段33號","121.478946666667","25.005845","6500300","中和區"
"235047","732-UM","2017/06/10 18:49:30","新北市中和區興南路二段52號","121.506493333333","24.98502","6500300","中和區"
"235046","733-UM","2017/06/10 18:49:32","新北市中和區仁愛街36巷55號","121.511433333333","24.9862833333333","6500300","中和區"
"235071","783-BX","2017/06/10 18:49:24","新北市中和區員山路36巷16-3號","121.485273333333","24.9911383333333","6500300","中和區"
"235062","800-TS","2017/06/10 18:49:32","新北市中和區中山路二段276號","121.49668","25.0024566666667","6500300","中和區"
"235057","801-TS","2017/06/10 18:49:29","新北市中和區員山路327巷15號","121.480656666667","25.0015416666667","6500300","中和區"
"235052","805-TS","2017/06/10 18:49:22","新北市中和區興南路二段399巷86號","121.500015","24.9783966666667","6500300","中和區"
"235048","896-TW","2017/06/10 18:49:33","新北市中和區南山路306號","121.507801666667","24.986975","6500300","中和區"
"235053","900-TW","2017/06/10 18:49:08","新北市中和區華安街21巷9號","121.46746","24.9976366666667","6500300","中和區"
"235037","AAC-213","2017/06/10 18:49:32","新北市中和區景平路111巷30號","121.515516666667","24.9904216666667","6500300","中和區"
"235059","AAC-215","2017/06/10 18:49:18","新北市中和區圓通路393巷2號","121.489566666667","24.9889483333333","6500300","中和區"
"220068","013-TV","2017/06/10 18:49:37","新北市板橋區民生路二段70號","121.471823333333","25.0180333333333","6500100","板橋區"
"220065","072-UY","2017/06/10 18:49:30","新北市板橋區民生路二段15-1號","121.472675","25.0162733333333","6500100","板橋區"
"220086","073-UY","2017/06/10 18:49:29","新北市板橋區大智街71巷28弄22號","121.452331666667","25.0149883333333","6500100","板橋區"
"220106","075-UY","2017/06/10 18:49:29","新北市板橋區民生路二段161巷7號","121.470275","25.019715","6500100","板橋區"
"220096","120-SR","2017/06/10 18:49:26","新北市板橋區民生路二段120號","121.470341666667","25.0196433333333","6500100","板橋區"
"247002","402-BY","2017/06/10 16:02:12","新北市五股區中興路三段3-6號","121.449556666667","25.078765","6501400","蘆洲區"
"247006","341-TH","2017/06/10 18:49:28","新北市五股區中興路三段163號","121.449306666667","25.0807316666667","6501400","蘆洲區"
"247014","057-VK","2017/06/10 18:49:30","新北市五股區中興路三段2巷10號","121.449133333333","25.08106","6501400","蘆洲區"
"247004","056-VK","2017/06/10 18:34:02","新北市五股區中興路三段163號","121.449236666667","25.08078","6501400","蘆洲區"
"247022","002-UY","2017/06/10 18:43:40","新北市五股區中興路三段163號","121.449305","25.080645","6501400","蘆洲區"
"226004","312-R5","2017/06/10 18:49:26","新北市平溪區嶺腳里嶺腳寮1號","121.746435","25.0289433333333","6502400","平溪區"
"228003","097-TW","2017/06/10 18:49:18","新北市貢寮區和美里龍洞街63-7號","121.917345","25.1184083333333","6502600","貢寮區"
"228001","212-TW","2017/06/10 18:49:18","新北市貢寮區仁理村研海街12-1號","121.923781666667","25.0517033333333","6502600","貢寮區"
"228002","585-TW","2017/06/10 18:49:28","新北市貢寮區福隆里東興街6-11號","121.950725","25.021075","6502600","貢寮區"
"224010","AGQ-8101","2017/06/10 18:41:24","新北市瑞芳區烏勢巷108號","121.846308333333","25.1089716666667","6501200","瑞芳區"
"224006","676-BX","2017/06/10 18:49:27","新北市瑞芳區中正路65號","121.806048333333","25.1073666666667","6501200","瑞芳區"
"224009","285-BY","2017/06/10 18:49:36","新北市瑞芳區祈堂路2號","121.859746666667","25.111735","6501200","瑞芳區"
"224008","275-VK","2017/06/10 18:49:31","新北市瑞芳區逢甲路347-2號","121.797768333333","25.1138533333333","6501200","瑞芳區"
"224007","273-VK","2017/06/10 18:49:36","新北市瑞芳區大埔路209號","121.762781666667","25.101905","6501200","瑞芳區"
"224005","271-BY","2017/06/10 18:49:25","新北市瑞芳區瑞濱路85號","121.821028333333","25.1210433333333","6501200","瑞芳區"
"227002","642-TC","2017/06/10 18:49:33","新北市雙溪區平林里梅竹蹊24號","121.861716666667","25.0360583333333","6502500","雙溪區"
"227010","400-TW","2017/06/10 18:49:29","新北市雙溪區牡丹里聖南9號","121.859585","25.0518066666667","6502500","雙溪區"
"253005","295-VK","2017/06/10 18:49:34","新北市石門區中山路28號","121.565711666667","25.2899566666667","6502200","石門區"
"253006","741-TV","2017/06/10 18:49:32","新北市石門區下員坑15-13號","121.51198","25.2844866666667","6502200","石門區"
"208001","742-BX","2017/06/10 18:49:37","新北市金山區文化三路66巷2弄11號","121.634548333333","25.2257533333333","6502700","金山區"
"208003","665-BX","2017/06/10 18:49:23","新北市金山區中山路393號","121.633326666667","25.2251766666667","6502700","金山區"
"251008","181-VK","2017/06/10 18:49:24","新北市淡水區淡金路二段108-1號","121.447865","25.1841533333333","6501000","淡水區"
"251014","182-VK","2017/06/10 18:49:20","新北市淡水區崙頂32號","121.488071666667","25.22309","6501000","淡水區"
"251010","413-VK","2017/06/10 18:49:26","新北市淡水區沙崙路20號","121.421301666667","25.18098","6501000","淡水區"
"251012","441-VK","2017/06/10 18:49:30","新北市淡水區大義街3號","121.443821666667","25.1781233333333","6501000","淡水區"
"251016","442-VK","2017/06/10 18:49:26","新北市淡水區下圭柔山71-3號","121.447035","25.2061166666667","6501000","淡水區"
"251005","443-VK","2017/06/10 18:49:28","新北市淡水區下圭柔山91-3號","121.431168333333","25.2102166666667","6501000","淡水區"
"251001","559-UM","2017/06/10 18:49:36","新北市淡水區自強路68號","121.463083333333","25.1277166666667","6501000","淡水區"
"251009","575-R6","2017/06/10 18:49:34","新北市淡水區重建街96號","121.439955","25.1724533333333","6501000","淡水區"
"251007","577-R6","2017/06/10 18:48:48","新北市淡水區民生路113巷1弄1號","121.464295","25.1386316666667","6501000","淡水區"
"251011","650-BX","2017/06/10 18:49:31","新北市淡水區中正東路一段125號","121.455085","25.15935","6501000","淡水區"
"251002","672-BX","2017/06/10 18:49:32","新北市淡水區學府路88號","121.449148333333","25.170905","6501000","淡水區"
"251003","673-BX","2017/06/10 18:49:26","新北市淡水區中山北路一段149巷17號","121.44294","25.17786","6501000","淡水區"
"207003","550-UM","2017/06/10 18:49:31","新北市萬里區大鵬里頂社1號","121.657011666667","25.2096916666667","6502800","萬里區"
"207004","225-TW","2017/06/10 18:49:34","新北市萬里區萬里里獅頭路23號","121.693228333333","25.17825","6502800","萬里區"
"252002","178-VK","2017/06/10 18:49:28","新北市三芝區智成街72-1號","121.504896666667","25.256005","6502100","三芝區"
"252003","249-BX","2017/06/10 18:49:33","新北市三芝區後厝里大片頭83-4號","121.458928333333","25.2439683333333","6502100","三芝區"
"252001","292-VK","2017/06/10 18:49:28","新北市三芝區中正路三段9號","121.502906666667","25.2540016666667","6502100","三芝區"
"208002","170-UY","2017/06/10 18:49:35","新北市金山區信義路62號","121.635695","25.2189416666667","6502700","金山區"
"237004","078-UY","2017/06/10 18:49:39","新北市三峽區插角219-3號","121.416066666667","24.86606","6500900","三峽區"
"237007","153-BY","2017/06/10 18:49:40","新北市三峽區中正路三段76-1號","121.355883333333","24.903545","6500900","三峽區"
"237009","210-TH","2017/06/10 18:49:30","新北市三峽區仁愛街35號","121.36846","24.9331833333333","6500900","三峽區"
"237013","252-BX","2017/06/10 18:49:28","新北市三峽區光明路69巷25號","121.376805","24.92917","6500900","三峽區"
"237012","275-BY","2017/06/10 18:49:33","新北市三峽區三樹路340號","121.383968333333","24.9433333333333","6500900","三峽區"
"237008","302-VK","2017/06/10 18:49:18","新北市三峽區白雞39-1號","121.380946666667","24.9115066666667","6500900","三峽區"
"237014","433-BY","2017/06/10 18:49:07","新北市三峽區復興路480巷51號","121.360856666667","24.9402816666667","6500900","三峽區"
"237006","5529-G3","2017/06/10 18:49:33","新北市三峽區溪東路211巷31弄2號","121.405636666667","24.934115","6500900","三峽區"
"237011","572-TV","2017/06/10 18:49:28","新北市三峽區介壽路三段231-3號","121.404848333333","24.9461683333333","6500900","三峽區"
"237016","649-BX","2017/06/10 18:49:28","新北市三峽區安坑7號","121.440886666667","24.9262116666667","6500900","三峽區"
"237010","706-TV","2017/06/10 18:46:25","新北市三峽區國光街362號","121.37097","24.9397433333333","6500900","三峽區"
"237005","AKY-6261","2017/06/10 18:49:38","新北市三峽區信義街2號","121.370751666667","24.9361516666667","6500900","三峽區"
"236073","105-UM","2017/06/10 18:49:36","新北市土城區延和路21巷17號","121.464021666667","24.9888933333333","6501300","土城區"
"236043","107-UM","2017/06/10 18:49:30","新北市土城區裕民路92巷27弄1號","121.449498333333","24.985835","6501300","土城區"
"236079","166-UM","2017/06/10 18:49:32","新北市土城區中央路四段67巷60-13號","121.416991666667","24.956055","6501300","土城區"
"236031","253-BX","2017/06/10 18:49:33","新北市土城區中央路二段237號","121.440246666667","24.97225","6501300","土城區"
"236027","269-VK","2017/06/10 18:49:36","新北市土城區興城路80號","121.441103333333","24.9718166666667","6501300","土城區"
"236015","270-VK","2017/06/10 18:49:36","新北市土城區清水路241巷37號","121.460955","24.98415","6501300","土城區"
"236038","271-VK","2017/06/10 18:49:34","新北市土城區明德路一段235巷38號","121.463116666667","24.9773766666667","6501300","土城區"
"236023","401-BY","2017/06/10 18:49:31","新北市土城區延安街35巷1號","121.468005","24.9843316666667","6501300","土城區"
"236059","912-UM","2017/06/10 18:49:36","新北市土城區中央路三段141-7號","121.433133333333","24.9653483333333","6501300","土城區"
"236049","913-UM","2017/06/10 18:49:06","新北市土城區青雲路2號","121.460186666667","24.9899566666667","6501300","土城區"
"236063","915-UM","2017/06/10 18:49:23","新北市土城區金城路三段207巷8弄23號","121.470475","24.9907783333333","6501300","土城區"
"236055","AAC-216","2017/06/10 18:49:29","新北市土城區裕民路157-1號","121.452436666667","24.9859366666667","6501300","土城區"
"242034","133-UY","2017/06/10 18:49:35","新北市樹林區八德街372號","121.406933333333","24.9694883333333","6500500","新莊區"
"238023","601-UM","2017/06/10 18:49:33","新北市樹林區三福街114號","121.40653","25.01635","6500700","樹林區"
"238018","571-TV","2017/06/10 18:49:35","新北市樹林區樹新路50巷5弄9號","121.429703333333","24.99704","6500700","樹林區"
"238025","303-VK","2017/06/10 18:49:25","新北市樹林區保安二街141號","121.422566666667","24.9952166666667","6500700","樹林區"
"238017","283-BY","2017/06/10 18:49:33","新北市樹林區光興街50號","121.40985","25.0027466666667","6500700","樹林區"
"238014","282-BY","2017/06/10 18:49:21","新北市樹林區大安路111巷13號","121.423271666667","24.9977716666667","6500700","樹林區"
"238020","268-VK","2017/06/10 18:49:22","新北市樹林區俊英街83巷1號","121.425793333333","25.0079366666667","6500700","樹林區"
"238026","172-UY","2017/06/10 18:49:32","新北市樹林區信和街110號","121.388281666667","24.9733016666667","6500700","樹林區"
"238016","169-UY","2017/06/10 18:49:28","新北市樹林區文化街27號","121.4192","24.9875733333333","6500700","樹林區"
"239007","AAC-297","2017/06/10 18:49:34","新北市鶯歌區中正一路461-2號","121.363553333333","24.95646","6500800","鶯歌區"
"239006","891-R6","2017/06/10 18:49:37","新北市鶯歌區鶯桃路242巷13號","121.336558333333","24.96002","6500800","鶯歌區"
"239008","527-UM","2017/06/10 18:49:28","新北市鶯歌區朝陽街2號","121.336216666667","24.976595","6500800","鶯歌區"
"239005","526-UM","2017/06/10 18:49:34","新北市鶯歌區鳳吉一街30號","121.325801666667","24.9735733333333","6500800","鶯歌區"
"239001","417-VK","2017/06/10 18:49:32","新北市鶯歌區永明街13號","121.338318333333","24.9552016666667","6500800","鶯歌區"
"239003","360-BY","2017/06/10 18:49:38","新北市鶯歌區永和街47號","121.332618333333","24.967475","6500800","鶯歌區"
"239002","359-BY","2017/06/10 18:49:31","新北市鶯歌區中正一路371號","121.358136666667","24.9570916666667","6500800","鶯歌區"
"239004","193-VK","2017/06/10 18:49:29","新北市鶯歌區中正三路230巷6號","121.330868333333","24.9381116666667","6500800","鶯歌區"
"221036","130-UY","2017/06/10 18:49:38","新北市汐止區忠孝東路325號","121.664918333333","25.06956","6501100","汐止區"
"221015","131-UY","2017/06/10 18:49:28","新北市汐止區鄉長路一段55巷5號","121.665528333333","25.07595","6501100","汐止區"
"221010","269-BY","2017/06/10 18:49:29","新北市汐止區康寧街901號","121.651538333333","25.075055","6501100","汐止區"
"221012","278-VK","2017/06/10 18:49:31","新北市汐止區汐萬路一段256巷3號","121.652563333333","25.0745816666667","6501100","汐止區"
"221023","279-VK","2017/06/10 18:49:14","新北市汐止區康寧街901號","121.651038333333","25.075235","6501100","汐止區"
"221032","280-BY","2017/06/10 18:49:18","新北市汐止區橫科路407巷81弄3號","121.62857","25.0481666666667","6501100","汐止區"
"221038","297-VK","2017/06/10 18:49:28","新北市汐止區康寧街901號","121.650756666667","25.0752733333333","6501100","汐止區"
"221029","298-VK","2017/06/10 18:49:22","新北市汐止區樟樹一路93號","121.64213","25.0633266666667","6501100","汐止區"
"221035","622-UM","2017/06/10 18:49:35","新北市汐止區康寧街901號","121.651246666667","25.07514","6501100","汐止區"
"221025","623-UM","2017/06/10 18:49:21","新北市汐止區大同路二段341號","121.656551666667","25.0671166666667","6501100","汐止區"
"221033","647-BX","2017/06/10 18:49:29","新北市汐止區南勢街1巷1號","121.627018333333","25.0374983333333","6501100","汐止區"
"221002","707-TV","2017/06/10 18:49:26","新北市汐止區大同路一段161號","121.632628333333","25.05658","6501100","汐止區"
"221018","753-BX","2017/06/10 18:49:23","新北市汐止區茄苳路181號","121.669918333333","25.0692983333333","6501100","汐止區"
"220079","145-BY","2017/06/10 18:49:18","新北市板橋區文化路一段52號","121.460483333333","25.0125283333333","6500100","板橋區"
"220093","146-RM","2017/06/10 18:49:27","新北市板橋區民生路二段120號","121.470473333333","25.0195066666667","6500100","板橋區"
"220082","610-BX","2017/06/10 18:49:36","新北市板橋區篤行路二段103號","121.431535","24.9914116666667","6500100","板橋區"
"220101","245-BX","2017/06/10 15:45:10","新北市板橋區民生路二段120號","121.470521666667","25.0195966666667","6500100","板橋區"
"220090","257-TC","2017/06/10 18:49:24","新北市板橋區民生路二段120號","121.470471666667","25.019815","6500100","板橋區"
"220069","258-TC","2017/06/10 18:49:34","新北市板橋區中山路二段25號","121.472525","25.0153633333333","6500100","板橋區"
"220094","267-BY","2017/06/10 18:49:28","新北市板橋區萬板路15號","121.470561666667","25.0209733333333","6500100","板橋區"
"220072","277-BY","2017/06/10 18:49:29","新北市板橋區金門街27號","121.433513333333","24.9943683333333","6500100","板橋區"
"220064","280-UM","2017/06/10 18:49:30","新北市板橋區民生路二段36-1號","121.472535","25.0167083333333","6500100","板橋區"
"220071","283-VK","2017/06/10 18:49:27","新北市板橋區民生路二段15號","121.472661666667","25.0160583333333","6500100","板橋區"
"220091","285-UM","2017/06/10 18:49:26","新北市板橋區民生路二段161巷1號","121.470181666667","25.020065","6500100","板橋區"
"220053","285-VK","2017/06/10 18:49:38","新北市板橋區民生路二段80號","121.471791666667","25.0182616666667","6500100","板橋區"
"220083","286-VK","2017/06/10 18:49:33","新北市板橋區大觀路二段22巷27號","121.445246666667","25.003495","6500100","板橋區"
"220081","287-VK","2017/06/10 18:49:27","新北市板橋區大觀路一段28巷98號","121.450603333333","25.0110233333333","6500100","板橋區"
"220061","293-UM","2017/06/10 18:49:25","新北市板橋區民生路二段36-1號","121.472273333333","25.016895","6500100","板橋區"
"220009","295-UM","2017/06/10 16:03:29","新北市板橋區民生路二段15-1號","121.47282","25.0163683333333","6500100","板橋區"
"220084","296-UM","2017/06/10 18:49:30","新北市板橋區大觀路二段150巷3號","121.44161","24.9990183333333","6500100","板橋區"
"220075","297-UM","2017/06/10 18:49:28","新北市板橋區大觀路一段28巷98號","121.45056","25.011045","6500100","板橋區"
"220097","299-UM","2017/06/10 18:49:37","新北市板橋區民生路二段120號","121.470515","25.0196866666667","6500100","板橋區"
"220056","303-R5","2017/06/10 18:49:32","新北市土城區四川路33號","121.454913333333","24.9958233333333","6500100","板橋區"
"220062","305-R5","2017/06/10 16:09:51","新北市板橋區民生路二段17號","121.47264","25.01647","6500100","板橋區"
"220092","307-R5","2017/06/10 18:49:36","新北市板橋區民生路二段120號","121.470413333333","25.01951","6500100","板橋區"
"220098","317-R6","2017/06/10 18:49:19","新北市板橋區民生路二段120號","121.470433333333","25.0196316666667","6500100","板橋區"
"220080","461-BY","2017/06/10 18:49:39","新北市板橋區大觀路二段265巷72弄1號","121.442475","24.99682","6500100","板橋區"
"220089","487-VK","2017/06/10 18:49:35","新北市板橋區民生路二段120號","121.470481666667","25.019565","6500100","板橋區"
"220088","491-VK","2017/06/10 18:49:07","新北市板橋區民生路二段161巷1號","121.470183333333","25.0199666666667","6500100","板橋區"
"220035","560-BX","2017/06/10 18:49:34","新北市板橋區中正路275巷77號","121.45225","25.0179733333333","6500100","板橋區"
"220103","561-BX","2017/06/10 18:49:38","新北市板橋區民生路二段120號","121.470656666667","25.0196366666667","6500100","板橋區"
"220063","609-BX","2017/06/10 18:49:32","新北市板橋區民生路二段56-1號","121.472278333333","25.0169983333333","6500100","板橋區"
"220057","686-BX","2017/06/10 18:49:33","新北市板橋區民生路二段36-1號","121.472386666667","25.0168083333333","6500100","板橋區"
"220077","687-BX","2017/06/10 18:49:33","新北市板橋區大觀路二段174巷157號","121.441566666667","25.0028183333333","6500100","板橋區"
"220054","741-BX","2017/06/10 18:49:36","新北市板橋區觀光街2-2號","121.472408333333","25.0155","6500100","板橋區"
"220055","827-TW","2017/06/10 18:49:27","新北市板橋區民生路二段22號","121.4728","25.016605","6500100","板橋區"
"220067","829-TW","2017/06/10 18:49:36","新北市板橋區中山路二段50-1號","121.47315","25.01561","6500100","板橋區"
"220102","830-TW","2017/06/10 16:25:27","新北市板橋區民生路二段161巷1號","121.47019","25.0199783333333","6500100","板橋區"
"220074","895-R6","2017/06/10 18:49:37","新北市板橋區南門街44號","121.456941666667","25.0082233333333","6500100","板橋區"
"220073","985-R7","2017/06/10 18:49:25","新北市板橋區館前西路121號","121.456785","25.007515","6500100","板橋區"
"220070","AAC-253","2017/06/10 18:49:30","新北市板橋區民生路二段36-1號","121.472368333333","25.0168833333333","6500100","板橋區"
