"lineid","car","time","location","longitude","latitude","cityid","cityname"
"234046","148-BY","2017/06/10 18:59:32","新北市永和區得和路373巷16弄3號","121.52529","25.0001716666667","6500400","永和區"
"234013","149-BY","2017/06/10 18:59:21","新北市永和區信義路14-1號","121.514406666667","25.0120833333333","6500400","永和區"
"234007","207-UY","2017/06/10 18:59:20","新北市永和區中山路一段130號","121.510461666667","25.0099883333333","6500400","永和區"
"234081","298-R6","2017/06/10 18:59:36","新北市永和區國中路206號","121.522195","25.0059216666667","6500400","永和區"
"234038","336-UY","2017/06/10 18:59:34","新北市永和區民樂街98號","121.52722","24.9967333333333","6500400","永和區"
"234086","338-UY","2017/06/10 18:59:20","新北市永和區中正路328號","121.517545","24.999755","6500400","永和區"
"234070","552-UM","2017/06/10 18:59:23","新北市永和區豫溪街95巷8號","121.518206666667","25.01079","6500400","永和區"
"234054","553-UM","2017/06/10 18:59:29","新北市永和區竹林路66巷5號","121.51823","25.0132916666667","6500400","永和區"
"234017","745-BX","2017/06/10 18:59:37","新北市永和區永和路二段297號","121.516088333333","25.0160416666667","6500400","永和區"
"234030","746-BX","2017/06/10 18:59:32","新北市永和區四維街67號","121.525711666667","24.9979366666667","6500400","永和區"
"234061","AAD-866","2017/06/10 18:59:20","新北市永和區福和路309巷1號","121.51625","25.006995","6500400","永和區"
"234042","862-TW","2017/06/10 18:59:31","新北市永和區永貞路306號","121.511901666667","25.0048166666667","6500400","永和區"
"234050","863-TW","2017/06/10 18:59:28","新北市永和區文化路192巷4弄1-1號","121.510941666667","25.0164533333333","6500400","永和區"
"234026","9371-KE","2017/06/10 18:59:32","新北市永和區安樂路467號","121.51429","25.0054616666667","6500400","永和區"
"234011","9373-KE","2017/06/10 18:59:19","新北市永和區文化路126巷4號","121.513085","25.0155766666667","6500400","永和區"
"249005","172-UM","2017/06/10 18:59:31","新北市八里區長道坑6號","121.397903333333","25.12357","6502300","八里區"
"249001","173-UM","2017/06/10 18:59:27","新北市八里區龍米路二段136號","121.439461666667","25.1540883333333","6502300","八里區"
"248014","025-BX","2017/06/10 18:59:22","新北市五股區民義路一段107巷32號","121.432406666667","25.0846166666667","6501500","五股區"
"248016","026-BX","2017/06/10 18:59:26","新北市五股區成泰路三段543巷16號","121.450948333333","25.10225","6501500","五股區"
"248006","077-UY","2017/06/10 18:59:24","新北市五股區中興路一段67號","121.467776666667","25.0725033333333","6501500","五股區"
"248008","095-VK","2017/06/10 18:59:39","新北市五股區中興路一段118巷6弄3號","121.466255","25.0741333333333","6501500","五股區"
"248020","225-UY","2017/06/10 18:59:21","新北市五股區凌雲路三段57號","121.425285","25.1250033333333","6501500","五股區"
"248012","247-BX","2017/06/09 21:13:11","新北市五股區更洲路47-1號","121.456738333333","25.0791366666667","6501500","五股區"
"248002","678-BX","2017/06/10 18:59:31","新北市五股區凌雲路一段54號","121.451411666667","25.1010033333333","6501500","五股區"
"248010","682-TV","2017/06/10 18:59:26","新北市五股區登林路78-1號","121.429263333333","25.07069","6501500","五股區"
"234023","9380-KE","2017/06/10 18:59:24","新北市永和區竹林路75巷33弄1號","121.52062","25.0143116666667","6500400","永和區"
"234077","969-R7","2017/06/10 18:59:32","新北市永和區智光街22號","121.517866666667","24.9992833333333","6500400","永和區"
"234074","AAC-211","2017/06/10 18:59:26","新北市永和區豫溪街217巷1號","121.524805","25.009395","6500400","永和區"
"234067","AAC-212","2017/06/10 18:59:30","新北市永和區中和路625號","121.512916666667","25.0047983333333","6500400","永和區"
"234003","AAC-295","2017/06/10 18:57:03","新北市永和區永和路一段175號","121.513963333333","25.00991","6500400","永和區"
"232011","375-UM","2017/06/10 18:59:18","新北市坪林區水聳淒坑19-1號","121.712918333333","24.935225","6502000","坪林區"
"244013","069-UM","2017/06/10 18:59:35","新北市林口區麗園一街6巷2-3號","121.37643","25.0698216666667","6501700","林口區"
"244007","080-UY","2017/06/10 18:59:36","新北市林口區太平嶺3-8號","121.37867","25.1120566666667","6501700","林口區"
"244019","403-UM","2017/06/10 18:59:35","新北市林口區麗園二街47巷37號","121.382235","25.0696166666667","6501700","林口區"
"244009","410-SL","2017/06/10 18:59:20","新北市林口區竹林路362巷1號","121.391723333333","25.0846533333333","6501700","林口區"
"244023","483-VK","2017/06/10 18:59:21","新北市林口區文林六街20號","121.371105","25.0806066666667","6501700","林口區"
"244017","485-VK","2017/06/10 18:59:28","新北市林口區文化二路一段120巷5號","121.36792","25.0699666666667","6501700","林口區"
"244011","701-TV","2017/06/10 18:59:33","新北市林口區仁愛路一段266號","121.393936666667","25.0759816666667","6501700","林口區"
"244025","837-TS","2017/06/10 18:59:20","新北市林口區南勢一街14號","121.36065","25.0752216666667","6501700","林口區"
"243013","AAD-798","2017/06/10 18:59:30","新北市泰山區明志路三段206巷1號","121.423278333333","25.03767","6501600","泰山區"
"243009","297-R6","2017/06/10 18:59:33","新北市泰山區泰林路二段366號","121.428606666667","25.0637033333333","6501600","泰山區"
"243015","380-SR","2017/06/10 18:59:30","新北市泰山區明志路一段195號","121.432723333333","25.061595","6501600","泰山區"
"243014","421-VK","2017/06/10 18:59:34","新北市泰山區黎明路1號","121.421283333333","25.0633483333333","6501600","泰山區"
"243010","548-UM","2017/06/10 18:59:33","新北市泰山區辭修路24號","121.429085","25.058245","6501600","泰山區"
"243012","646-TV","2017/06/10 18:59:31","新北市泰山區仁德路114號","121.432861666667","25.05697","6501600","泰山區"
"243016","680-BX","2017/06/10 18:59:17","新北市泰山區明志路二段205號","121.427605","25.04895","6501600","泰山區"
"222002","016-RS","2017/06/10 18:59:40","新北市深坑區文山路一段31巷2號","121.629905","25.0032783333333","6501800","深坑區"
"222003","436-BY","2017/06/10 18:59:35","新北市深坑區深南路51-1號","121.621346666667","25.0101283333333","6501800","深坑區"
"222001","628-TS","2017/06/10 18:59:29","新北市深坑區北深路一段288號","121.628495","25.0078716666667","6501800","深坑區"
"231041","002-UM","2017/06/10 18:59:25","新北市新店區環河路64號","121.53703","24.96269","6500600","新店區"
"231056","0291-UT","2017/06/10 18:59:34","新北市新店區二十張路33巷16號","121.538976666667","24.9810716666667","6500600","新店區"
"231059","046-UY","2017/06/10 18:59:24","新北市新店區安康路一段351-1號","121.519435","24.96406","6500600","新店區"
"231061","047-UY","2017/06/10 18:59:38","新北市新店區安康路一段323-1號","121.521871666667","24.9637216666667","6500600","新店區"
"231060","106-UY","2017/06/10 18:59:26","新北市新店區車子路115-11號","121.506635","24.954645","6500600","新店區"
"231051","107-UY","2017/06/10 18:59:27","新北市新店區百忍街10巷2號","121.534901666667","24.975555","6500600","新店區"
"231012","108-UY","2017/06/10 18:59:33","新北市新店區德正街27巷2號","121.544725","24.9714216666667","6500600","新店區"
"231054","110-UY","2017/06/10 18:59:29","新北市新店區新店路13號","121.5403","24.9528316666667","6500600","新店區"
"231052","187-VK","2017/06/10 18:59:29","新北市新店區屈尺路28號","121.548385","24.92264","6500600","新店區"
"231063","268-BY","2017/06/10 18:59:35","新北市新店區車子路109號","121.505225","24.9521083333333","6500600","新店區"
"231046","278-BY","2017/06/10 18:59:30","新北市新店區直潭四街35號","121.53352","24.9414833333333","6500600","新店區"
"231050","AAD-862","2017/06/10 18:59:32","新北市新店區北宜路二段30巷5弄2號","121.547935","24.9507533333333","6500600","新店區"
"231058","3712-VJ","2017/06/10 18:59:25","新北市新店區光明街138巷22號","121.54035","24.960895","6500600","新店區"
"231055","3713-VJ","2017/06/10 18:59:30","新北市新店區新生街13巷8號","121.539605","24.9660683333333","6500600","新店區"
"231066","4715-K9","2017/06/10 18:59:38","新北市新店區安祥路22號","121.493143333333","24.9556883333333","6500600","新店區"
"231067","4772-VM","2017/06/10 18:59:22","新北市新店區安康路一段106巷7號","121.52761","24.9628366666667","6500600","新店區"
"231065","512-UM","2017/06/10 18:59:35","新北市新店區安祥路147巷86號","121.475641666667","24.9552866666667","6500600","新店區"
"231064","515-UM","2017/06/10 18:59:37","新北市新店區安康路一段351-1號","121.519288333333","24.96405","6500600","新店區"
"231045","617-UM","2017/06/10 18:59:30","新北市新店區北新路一段2-18號","121.538556666667","24.9600833333333","6500600","新店區"
"231040","619-UM","2017/06/10 18:59:23","新北市新店區中正路360號","121.535573333333","24.97615","6500600","新店區"
"231042","641-BX","2017/06/10 18:59:32","新北市新店區中正路57號","121.54438","24.9698883333333","6500600","新店區"
"231049","719-UM","2017/06/10 18:59:29","新北市新店區中正路454-5號","121.534481666667","24.979045","6500600","新店區"
"231062","720-UM","2017/06/10 18:59:19","新北市新店區吉安街43號","121.515236666667","24.9658933333333","6500600","新店區"
"231044","897-TW","2017/06/10 18:59:22","新北市新店區寶中路109號","121.549143333333","24.9801583333333","6500600","新店區"
"231043","899-TW","2017/06/10 18:59:30","新北市新店區北新路二段1號","121.542653333333","24.9712266666667","6500600","新店區"
"241020","412-TH","2017/06/10 18:59:32","新北市三重區忠孝路二段34號","121.48566","25.07091","6500200","三重區"
"241035","743-BX","2017/06/10 18:59:39","新北市三重區重新路四段121號","121.48468","25.0517366666667","6500200","三重區"
"241029","942-UM","2017/06/10 18:59:35","新北市三重區重安街6號","121.490185","25.0583116666667","6500200","三重區"
"235066","003-UY","2017/06/10 18:59:33","新北市中和區中山路二段131巷5弄2號","121.502883333333","25.0028333333333","6500300","中和區"
"235064","005-UY","2017/06/10 18:59:26","新北市中和區泰和街25號","121.499318333333","25.0000466666667","6500300","中和區"
"235063","006-UY","2017/06/10 18:59:19","新北市中和區中正路460號","121.490261666667","24.9943216666667","6500300","中和區"
"235056","096-UM","2017/06/10 18:59:34","新北市中和區新民街12-3號","121.482031666667","25.007145","6500300","中和區"
"235039","097-UM","2017/06/10 18:59:36","新北市中和區安樂路143巷3號","121.514226666667","24.996875","6500300","中和區"
"235065","098-UM","2017/06/10 18:59:34","新北市中和區中山路二段2巷13弄31號","121.502933333333","25.00645","6500300","中和區"
"235040","150-BY","2017/06/10 18:59:29","新北市中和區安樂路85號","121.512726666667","24.9945516666667","6500300","中和區"
"235058","151-BY","2017/06/10 18:59:31","新北市中和區連城路569巷9弄12號","121.479768333333","24.9940833333333","6500300","中和區"
"235055","183-VK","2017/06/10 18:59:31","新北市中和區民德路18號","121.468766666667","25.002575","6500300","中和區"
"235038","185-VK","2017/06/10 18:59:22","新北市中和區大仁街38號","121.517841666667","24.99375","6500300","中和區"
"235049","186-VK","2017/06/10 18:59:36","新北市中和區景新街210巷2弄1號","121.506908333333","24.994105","6500300","中和區"
"235067","255-BX","2017/06/10 18:59:29","新北市中和區民樂路81號","121.48468","25.0015133333333","6500300","中和區"
"235044","293-VK","2017/06/10 18:59:23","新北市中和區中興街164號","121.499821666667","24.9915366666667","6500300","中和區"
"235072","301-VK","2017/06/10 18:59:22","新北市中和區中山路二段109號","121.503138333333","25.0037683333333","6500300","中和區"
"235043","352-BY","2017/06/10 18:59:28","新北市中和區秀朗路三段105號","121.5264","24.9947366666667","6500300","中和區"
"235041","375-QA","2017/06/10 18:59:28","新北市中和區中安街178巷3弄1號","121.5108","24.9993233333333","6500300","中和區"
"235051","376-QA","2017/06/10 18:59:35","新北市中和區忠孝街17號","121.51019","24.9828133333333","6500300","中和區"
"235025","378-QA","2017/06/10 18:59:29","新北市中和區民治街134巷4-3號","121.475141666667","25.00215","6500300","中和區"
"235050","4979-A6","2017/06/10 18:24:46","新北市中和區興南路一段1號","121.511495","24.9912583333333","6500300","中和區"
"235069","4980-A6","2017/06/10 18:59:36","新北市中和區中和路217巷1弄1號","121.504078333333","25.000265","6500300","中和區"
"235042","551-UM","2017/06/10 18:59:34","新北市中和區秀朗路三段50巷2弄7號","121.525968333333","24.9958816666667","6500300","中和區"
"235070","558-UM","2017/06/10 18:59:32","新北市中和區南山路37巷2號","121.502246666667","24.9987583333333","6500300","中和區"
"235045","565-BX","2017/06/10 18:59:32","新北市中和區安樂路2巷2號","121.511698333333","24.9915266666667","6500300","中和區"
"235054","640-BX","2017/06/10 18:59:27","新北市中和區民治街24號","121.475076666667","25.004115","6500300","中和區"
"235060","647-TV","2017/06/10 18:59:39","新北市中和區中山路三段177號","121.472913333333","25.00629","6500300","中和區"
"235047","732-UM","2017/06/10 18:59:27","新北市中和區興南路二段34巷41號","121.505441666667","24.9863883333333","6500300","中和區"
"235046","733-UM","2017/06/10 18:59:32","新北市中和區興南路二段5號","121.508048333333","24.9863933333333","6500300","中和區"
"235071","783-BX","2017/06/10 18:59:24","新北市中和區員山路36巷16-3號","121.48522","24.9912016666667","6500300","中和區"
"235062","800-TS","2017/06/10 18:59:32","新北市中和區中山路二段417號","121.48606","25.0047016666667","6500300","中和區"
"235057","801-TS","2017/06/10 18:59:29","新北市中和區民安街23號","121.480421666667","25.0004366666667","6500300","中和區"
"235052","805-TS","2017/06/10 18:59:22","新北市中和區興南路二段347號","121.500041666667","24.9800416666667","6500300","中和區"
"235048","896-TW","2017/06/10 18:59:33","新北市中和區華新街88號","121.508321666667","24.9832166666667","6500300","中和區"
"235053","900-TW","2017/06/10 18:59:28","新北市中和區華福街42巷6-3號","121.466326666667","24.996215","6500300","中和區"
"235037","AAC-213","2017/06/10 18:59:32","新北市中和區秀朗路三段175巷10號","121.525051666667","24.99143","6500300","中和區"
"235059","AAC-215","2017/06/10 18:59:18","新北市中和區圓通路367巷18-2號","121.491921666667","24.9888133333333","6500300","中和區"
"220068","013-TV","2017/06/10 18:59:37","新北市板橋區中山路二段465巷40弄2號","121.481198333333","25.0214533333333","6500100","板橋區"
"220065","072-UY","2017/06/10 18:59:30","新北市板橋區漢生東路319號","121.471936666667","25.0079633333333","6500100","板橋區"
"220086","073-UY","2017/06/10 18:59:29","新北市板橋區大智街78-3號","121.453766666667","25.015615","6500100","板橋區"
"220106","075-UY","2017/06/10 18:59:29","新北市板橋區文化路二段124巷26號","121.47116","25.0256216666667","6500100","板橋區"
"220096","120-SR","2017/06/10 18:59:26","新北市板橋區莒光路75號","121.471663333333","25.02413","6500100","板橋區"
"247002","402-BY","2017/06/10 16:02:12","新北市五股區中興路三段3-6號","121.449556666667","25.078765","6501400","蘆洲區"
"247006","341-TH","2017/06/10 18:59:28","新北市五股區中興路三段163號","121.449418333333","25.08073","6501400","蘆洲區"
"247002","336-TH","2017/06/10 18:59:37","新北市五股區中興路三段163號","121.449256666667","25.08074","6501400","蘆洲區"
"247014","057-VK","2017/06/10 18:59:30","新北市五股區中興路三段163號","121.449221666667","25.0807","6501400","蘆洲區"
"247004","056-VK","2017/06/10 18:34:02","新北市五股區中興路三段163號","121.449236666667","25.08078","6501400","蘆洲區"
"247022","002-UY","2017/06/10 18:43:40","新北市五股區中興路三段163號","121.449305","25.080645","6501400","蘆洲區"
"226004","312-R5","2017/06/10 18:59:27","新北市平溪區南山里南山坪15號","121.767598333333","25.033355","6502400","平溪區"
"228003","097-TW","2017/06/10 18:59:34","新北市貢寮區和美里龍洞街26號","121.916226666667","25.1095816666667","6502600","貢寮區"
"228001","212-TW","2017/06/10 18:59:18","新北市貢寮區仁理村研海街12-1號","121.923851666667","25.0517616666667","6502600","貢寮區"
"228002","585-TW","2017/06/10 18:59:28","新北市貢寮區福隆里東興街106巷21弄2號","121.946101666667","25.0179283333333","6502600","貢寮區"
"224010","AGQ-8101","2017/06/10 18:59:24","新北市瑞芳區汽車路22-1號","121.845308333333","25.1098283333333","6501200","瑞芳區"
"224006","676-BX","2017/06/10 18:59:27","新北市瑞芳區中正路2號","121.808926666667","25.1070333333333","6501200","瑞芳區"
"224009","285-BY","2017/06/10 18:59:36","新北市瑞芳區祈堂路8號","121.858995","25.11238","6501200","瑞芳區"
"224008","275-VK","2017/06/10 18:59:31","新北市瑞芳區瑞芳街118號","121.801441666667","25.1109933333333","6501200","瑞芳區"
"224007","273-VK","2017/06/10 18:59:28","新北市瑞芳區大埔路慶安新村19號","121.762743333333","25.1003783333333","6501200","瑞芳區"
"224005","271-BY","2017/06/10 18:59:25","新北市瑞芳區海濱路157-2號","121.828521666667","25.121665","6501200","瑞芳區"
"227002","642-TC","2017/06/10 18:59:33","新北市雙溪區平林里康福家園18號","121.858931666667","25.0374666666667","6502500","雙溪區"
"227010","400-TW","2017/06/10 18:59:29","新北市雙溪區牡丹里中正路58巷23號","121.86642","25.0415916666667","6502500","雙溪區"
"253005","295-VK","2017/06/10 18:59:34","新北市石門區中山路78號","121.567803333333","25.2918666666667","6502200","石門區"
"253006","741-TV","2017/06/10 18:59:32","新北市石門區下員坑30-7號","121.519321666667","25.281695","6502200","石門區"
"208001","742-BX","2017/06/10 18:59:37","新北市金山區中山路96號","121.640183333333","25.2191333333333","6502700","金山區"
"208003","665-BX","2017/06/10 18:59:23","新北市金山區中正路49號","121.634688333333","25.2220483333333","6502700","金山區"
"251008","181-VK","2017/06/10 18:58:24","新北市淡水區下圭柔山91-2號","121.430416666667","25.209205","6501000","淡水區"
"251014","182-VK","2017/06/10 18:59:20","新北市淡水區小中寮32-1號","121.491388333333","25.2261566666667","6501000","淡水區"
"251010","413-VK","2017/06/10 18:59:26","新北市淡水區淡海路111號","121.421675","25.182685","6501000","淡水區"
"251012","441-VK","2017/06/10 18:59:30","新北市淡水區新民街276號","121.435401666667","25.1815933333333","6501000","淡水區"
"251016","442-VK","2017/06/10 18:59:32","新北市淡水區淡金路三段325號","121.448981666667","25.206065","6501000","淡水區"
"251005","443-VK","2017/06/10 18:59:28","新北市淡水區新民街320號","121.435278333333","25.183375","6501000","淡水區"
"251001","559-UM","2017/06/10 18:59:33","新北市淡水區自強路6號","121.464566666667","25.1247583333333","6501000","淡水區"
"251009","575-R6","2017/06/10 18:59:33","新北市淡水區重建街36號","121.439856666667","25.1711466666667","6501000","淡水區"
"251007","577-R6","2017/06/10 18:48:48","新北市淡水區民生路113巷1弄1號","121.464295","25.1386316666667","6501000","淡水區"
"251011","650-BX","2017/06/10 18:59:31","新北市淡水區中正東路二段143巷2弄1號","121.46076","25.1474066666667","6501000","淡水區"
"251002","672-BX","2017/06/10 18:59:32","新北市淡水區中正東路55-4號","121.446805","25.167915","6501000","淡水區"
"251003","673-BX","2017/06/10 18:59:26","新北市淡水區中山北路一段149巷24號","121.442921666667","25.1778883333333","6501000","淡水區"
"207003","550-UM","2017/06/10 18:59:31","新北市萬里區大鵬里頂社30號","121.656141666667","25.2110233333333","6502800","萬里區"
"207004","225-TW","2017/06/10 18:59:34","新北市萬里區萬里里獅頭路23號","121.693235","25.1782616666667","6502800","萬里區"
"252002","178-VK","2017/06/10 18:59:28","新北市三芝區中正路一段80號","121.50407","25.2573216666667","6502100","三芝區"
"252003","249-BX","2017/06/10 18:59:33","新北市三芝區後厝里北勢子42-2號","121.472095","25.2524733333333","6502100","三芝區"
"252001","292-VK","2017/06/10 18:59:28","新北市三芝區中興街二段260號","121.501731666667","25.25309","6502100","三芝區"
"208002","170-UY","2017/06/10 18:59:35","新北市金山區信義路78號","121.634986666667","25.2192416666667","6502700","金山區"
"237004","078-UY","2017/06/10 18:59:39","新北市三峽區有木145號","121.444555","24.84897","6500900","三峽區"
"237007","153-BY","2017/06/10 18:59:40","新北市三峽區中正路二段413號","121.363295","24.9068683333333","6500900","三峽區"
"237013","252-BX","2017/06/10 18:59:28","新北市三峽區光明路69巷24號","121.376613333333","24.9290883333333","6500900","三峽區"
"237012","275-BY","2017/06/10 18:59:33","新北市三峽區三樹路222巷72號","121.383043333333","24.9422283333333","6500900","三峽區"
"237008","302-VK","2017/06/10 18:59:18","新北市三峽區白雞33-42號","121.371186666667","24.9122616666667","6500900","三峽區"
"237014","433-BY","2017/06/10 18:59:27","新北市三峽區隆恩街193-1號","121.361018333333","24.942345","6500900","三峽區"
"237006","5529-G3","2017/06/10 18:59:33","新北市三峽區溪東路233巷47弄2號","121.410606666667","24.9346066666667","6500900","三峽區"
"237011","572-TV","2017/06/10 18:59:28","新北市三峽區介壽路三段113號","121.396478333333","24.94119","6500900","三峽區"
"237016","649-BX","2017/06/10 18:59:28","新北市三峽區安坑38號","121.45479","24.932205","6500900","三峽區"
"237010","706-TV","2017/06/10 18:59:25","新北市三峽區民生街95號","121.374563333333","24.93579","6500900","三峽區"
"237005","AKY-6261","2017/06/10 18:59:38","新北市三峽區中山路459巷163-3號","121.349081666667","24.9333","6500900","三峽區"
"236073","105-UM","2017/06/10 18:59:36","新北市土城區清水路99巷13號","121.456843333333","24.9823833333333","6501300","土城區"
"236043","107-UM","2017/06/10 18:59:30","新北市土城區學府路一段256巷21號","121.450643333333","24.9850483333333","6501300","土城區"
"236079","166-UM","2017/06/10 18:59:22","新北市土城區中央路四段125巷2弄1號","121.416676666667","24.95712","6501300","土城區"
"236031","253-BX","2017/06/10 18:59:33","新北市土城區千歲路3巷13號","121.440913333333","24.9704683333333","6501300","土城區"
"236027","269-VK","2017/06/10 18:59:37","新北市土城區中央路二段246號","121.44185","24.97485","6501300","土城區"
"236015","270-VK","2017/06/10 18:59:36","新北市土城區延和路13巷14號","121.463688333333","24.9884766666667","6501300","土城區"
"236038","271-VK","2017/06/10 18:59:34","新北市土城區仁愛路54巷12號","121.461891666667","24.97836","6501300","土城區"
"236023","401-BY","2017/06/10 18:59:31","新北市土城區明峰街50號","121.467768333333","24.98653","6501300","土城區"
"236059","912-UM","2017/06/10 18:59:24","新北市土城區清水路3號","121.452961666667","24.980345","6501300","土城區"
"236049","913-UM","2017/06/10 18:59:26","新北市土城區青雲路351-1號","121.459335","24.9776366666667","6501300","土城區"
"236063","915-UM","2017/06/10 18:59:23","新北市土城區延和路41巷6弄15號","121.466555","24.9903433333333","6501300","土城區"
"236055","AAC-216","2017/06/10 18:59:27","新北市土城區學成路179號","121.447838333333","24.988565","6501300","土城區"
"242034","133-UY","2017/06/10 18:59:35","新北市新莊區環河路48-1號","121.436283333333","25.0083233333333","6500500","新莊區"
"238023","601-UM","2017/06/10 18:59:34","新北市樹林區工興街3號","121.399733333333","25.0150633333333","6500700","樹林區"
"238018","571-TV","2017/06/10 18:59:35","新北市樹林區鎮前街29號","121.425705","24.9921466666667","6500700","樹林區"
"238025","303-VK","2017/06/10 18:59:25","新北市樹林區大安路435號","121.41526","24.9885666666667","6500700","樹林區"
"238017","283-BY","2017/06/10 18:59:33","新北市樹林區光興街50號","121.409858333333","25.0027483333333","6500700","樹林區"
"238014","282-BY","2017/06/10 18:59:21","新北市樹林區潭興街107巷1弄1號","121.42492","24.9990216666667","6500700","樹林區"
"238020","268-VK","2017/06/10 18:59:22","新北市樹林區俊英街83巷1號","121.425825","25.0079466666667","6500700","樹林區"
"238026","172-UY","2017/06/10 18:59:32","新北市樹林區佳園路一段75巷1號","121.39345","24.970025","6500700","樹林區"
"238016","169-UY","2017/06/10 18:59:28","新北市樹林區文化街23號","121.419268333333","24.9876216666667","6500700","樹林區"
"239007","AAC-297","2017/06/10 18:59:34","新北市鶯歌區中正一路303巷1號","121.356046666667","24.95813","6500800","鶯歌區"
"239006","891-R6","2017/06/10 18:59:37","新北市鶯歌區鶯桃路91巷29號","121.33809","24.9522683333333","6500800","鶯歌區"
"239008","527-UM","2017/06/10 18:59:28","新北市鶯歌區國際二路70巷27號","121.336158333333","24.9754483333333","6500800","鶯歌區"
"239005","526-UM","2017/06/10 18:59:34","新北市鶯歌區大湖路361巷14號","121.33068","24.97807","6500800","鶯歌區"
"239001","417-VK","2017/06/10 18:59:32","新北市鶯歌區永安街45號","121.338206666667","24.95625","6500800","鶯歌區"
"239003","360-BY","2017/06/10 18:59:18","新北市鶯歌區鶯桃路658巷97號","121.331913333333","24.9708683333333","6500800","鶯歌區"
"239002","359-BY","2017/06/10 18:59:31","新北市鶯歌區西湖街曾厝巷9號","121.339023333333","24.960845","6500800","鶯歌區"
"239004","193-VK","2017/06/10 18:59:29","新北市鶯歌區中正三路390號","121.326718333333","24.93469","6500800","鶯歌區"
"221036","130-UY","2017/06/10 18:59:17","新北市汐止區忠孝東路314巷13號","121.66462","25.068725","6501100","汐止區"
"221015","131-UY","2017/06/10 18:59:28","新北市汐止區汐萬路一段115巷2號","121.65426","25.0709316666667","6501100","汐止區"
"221010","269-BY","2017/06/10 18:59:29","新北市汐止區康寧街901號","121.65136","25.0749983333333","6501100","汐止區"
"221012","278-VK","2017/06/10 18:59:31","新北市汐止區康寧街901號","121.650846666667","25.0752933333333","6501100","汐止區"
"221023","279-VK","2017/06/10 18:50:14","新北市汐止區康寧街901號","121.651176666667","25.0755116666667","6501100","汐止區"
"221032","280-BY","2017/06/10 18:59:18","新北市汐止區橫科路241-6號","121.62276","25.0484983333333","6501100","汐止區"
"221038","297-VK","2017/06/10 18:59:28","新北市汐止區康寧街901號","121.650765","25.0752933333333","6501100","汐止區"
"221029","298-VK","2017/06/10 18:59:22","新北市汐止區樟樹一路244號","121.642438333333","25.0669616666667","6501100","汐止區"
"221025","623-UM","2017/06/10 18:59:21","新北市汐止區康寧街901號","121.651496666667","25.0750633333333","6501100","汐止區"
"221033","647-BX","2017/06/10 18:59:29","新北市汐止區南勢街1巷1號","121.627051666667","25.0374983333333","6501100","汐止區"
"221002","707-TV","2017/06/10 18:59:26","新北市汐止區大同路一段2號","121.621016666667","25.05502","6501100","汐止區"
"221018","753-BX","2017/06/10 18:59:23","新北市汐止區大同路二段613號","121.66414","25.0707833333333","6501100","汐止區"
"220079","145-BY","2017/06/10 18:59:18","新北市板橋區民權路260巷1弄17號","121.458331666667","25.01588","6500100","板橋區"
"220093","146-RM","2017/06/10 18:59:27","新北市板橋區民生路二段210-1號","121.469421666667","25.0214683333333","6500100","板橋區"
"220082","610-BX","2017/06/10 18:59:31","新北市板橋區篤行路三段71號","121.42726","24.98542","6500100","板橋區"
"220101","245-BX","2017/06/10 18:59:30","新北市板橋區文化路二段82號","121.469616666667","25.0256383333333","6500100","板橋區"
"220090","257-TC","2017/06/10 18:59:37","新北市板橋區四維路179號","121.464285","25.0264216666667","6500100","板橋區"
"220069","258-TC","2017/06/10 18:59:34","新北市板橋區大華街5號","121.458933333333","25.0062016666667","6500100","板橋區"
"220094","267-BY","2017/06/10 18:59:28","新北市板橋區文化路二段76號","121.469386666667","25.0251566666667","6500100","板橋區"
"220072","277-BY","2017/06/10 18:59:23","新北市板橋區大觀路三段36巷48號","121.434478333333","24.9969383333333","6500100","板橋區"
"220064","280-UM","2017/06/10 18:59:30","新北市板橋區縣民大道二段106號","121.466808333333","25.0152466666667","6500100","板橋區"
"220071","283-VK","2017/06/10 18:59:40","新北市板橋區忠孝路196巷30號","121.465523333333","25.0014716666667","6500100","板橋區"
"220091","285-UM","2017/06/10 18:59:26","新北市板橋區莒光路165巷44號","121.474466666667","25.0251483333333","6500100","板橋區"
"220053","285-VK","2017/06/10 18:59:34","新北市板橋區中山路二段89巷53號","121.473628333333","25.0173666666667","6500100","板橋區"
"220083","286-VK","2017/06/10 18:59:33","新北市板橋區大觀路一段38巷156弄81號","121.443131666667","25.00692","6500100","板橋區"
"220081","287-VK","2017/06/10 18:59:27","新北市板橋區光華街15巷37號","121.452901666667","25.0115283333333","6500100","板橋區"
"220061","293-UM","2017/06/10 18:59:30","新北市板橋區富山街109巷79號","121.475163333333","25.0210683333333","6500100","板橋區"
"220009","295-UM","2017/06/10 16:03:29","新北市板橋區民生路二段15-1號","121.47282","25.0163683333333","6500100","板橋區"
"220084","296-UM","2017/06/10 18:59:31","新北市板橋區大觀路二段154號","121.44151","24.998685","6500100","板橋區"
"220075","297-UM","2017/06/10 18:59:28","新北市板橋區館前西路213巷34號","121.454021666667","25.0079","6500100","板橋區"
"220097","299-UM","2017/06/10 18:59:37","新北市板橋區陽明街162號","121.463485","25.0243716666667","6500100","板橋區"
"220056","303-R5","2017/06/10 18:59:32","新北市板橋區信義路161號","121.45854","24.9925266666667","6500100","板橋區"
"220062","305-R5","2017/06/10 16:09:51","新北市板橋區民生路二段17號","121.47264","25.01647","6500100","板橋區"
"220092","307-R5","2017/06/10 18:59:37","新北市板橋區漢生東路83巷2號","121.466991666667","25.0157133333333","6500100","板橋區"
"220098","317-R6","2017/06/10 18:59:19","新北市板橋區民生路三段103號","121.466536666667","25.0249966666667","6500100","板橋區"
"220080","461-BY","2017/06/10 18:59:19","新北市板橋區大觀路二段265巷3弄3號","121.44297","24.9983283333333","6500100","板橋區"
"220089","487-VK","2017/06/10 18:59:35","新北市板橋區文化路二段410巷2號","121.47401","25.03162","6500100","板橋區"
"220088","491-VK","2017/06/10 18:58:27","新北市板橋區民生路二段148號","121.471421666667","25.0199366666667","6500100","板橋區"
"220035","560-BX","2017/06/10 18:59:34","新北市板橋區中正路256號","121.455468333333","25.019375","6500100","板橋區"
"220103","561-BX","2017/06/10 18:59:38","新北市板橋區民生路二段123號","121.470686666667","25.01859","6500100","板橋區"
"220063","609-BX","2017/06/10 18:59:34","新北市板橋區三民路二段2號","121.479155","25.0182966666667","6500100","板橋區"
"220057","686-BX","2017/06/10 18:59:33","新北市板橋區民權路45號","121.462041666667","25.0114166666667","6500100","板橋區"
"220077","687-BX","2017/06/10 18:59:22","新北市板橋區龍興街65巷2號","121.443575","25.00139","6500100","板橋區"
"220054","741-BX","2017/06/10 18:59:37","新北市板橋區後埔街20號","121.460391666667","25.0066116666667","6500100","板橋區"
"220055","827-TW","2017/06/10 18:59:27","新北市板橋區中山路一段160-6號","121.466481666667","25.0123516666667","6500100","板橋區"
"220067","829-TW","2017/06/10 18:59:36","新北市板橋區三民路二段正隆巷12弄17-3號","121.477581666667","25.0135566666667","6500100","板橋區"
"220102","830-TW","2017/06/10 18:59:36","新北市板橋區雙十路一段44巷36號","121.477446666667","25.024935","6500100","板橋區"
"220074","895-R6","2017/06/10 18:59:27","新北市板橋區西門街59號","121.454436666667","25.0092166666667","6500100","板橋區"
"220073","985-R7","2017/06/10 18:59:25","新北市板橋區中正路159巷2號","121.456478333333","25.016135","6500100","板橋區"
"220070","AAC-253","2017/06/10 18:59:30","新北市板橋區中山路一段66號","121.461411666667","25.00987","6500100","板橋區"
