"lineid","car","time","location","longitude","latitude","cityid","cityname"
"234046","148-BY","2017/06/10 20:03:32","新北市永和區成功路一段7號","121.527085","25.0050833333333","6500400","永和區"
"234013","149-BY","2017/06/10 20:03:21","新北市永和區永貞路415號","121.507386666667","25.0093633333333","6500400","永和區"
"234007","207-UY","2017/06/10 20:03:40","新北市永和區保生路26號","121.506566666667","25.0078216666667","6500400","永和區"
"234081","298-R6","2017/06/10 20:03:32","新北市永和區永利路81巷2弄2號","121.521573333333","25.003605","6500400","永和區"
"234038","336-UY","2017/06/10 20:03:23","新北市永和區成功路一段130號","121.526773333333","25.0021","6500400","永和區"
"234064","337-UY","2017/06/10 20:03:35","新北市永和區秀朗路一段192巷5號","121.519603333333","25.0025183333333","6500400","永和區"
"234086","338-UY","2017/06/10 20:03:20","新北市永和區福和路186號","121.520296666667","25.00775","6500400","永和區"
"234070","552-UM","2017/06/10 20:03:39","新北市永和區永貞路10巷8號","121.520403333333","25.0072183333333","6500400","永和區"
"234054","553-UM","2017/06/10 20:03:29","新北市永和區博愛街30號","121.518588333333","25.0157783333333","6500400","永和區"
"234017","745-BX","2017/06/10 20:03:21","新北市永和區文化路114號","121.513353333333","25.0152983333333","6500400","永和區"
"234030","746-BX","2017/06/10 20:03:38","新北市永和區民權路49巷5弄21號","121.52099","24.9976683333333","6500400","永和區"
"234061","AAD-866","2017/06/10 20:03:25","新北市永和區中正路283巷55弄1號","121.515728333333","24.99907","6500400","永和區"
"234042","862-TW","2017/06/10 20:03:31","新北市永和區雙和街17巷18號","121.509016666667","25.0015233333333","6500400","永和區"
"234050","863-TW","2017/06/10 20:03:33","新北市永和區新生路210巷2號","121.505473333333","25.01308","6500400","永和區"
"234011","9373-KE","2017/06/10 20:03:39","新北市永和區仁愛路352巷80號","121.501758333333","25.007535","6500400","永和區"
"249005","172-UM","2017/06/10 20:03:31","新北市八里區楓林路1-9號","121.386083333333","25.13239","6502300","八里區"
"249001","173-UM","2017/06/10 20:03:19","新北市八里區中華路二段249-1號","121.404178333333","25.1483083333333","6502300","八里區"
"249004","303-UY","2017/06/10 20:03:26","新北市八里區中山路一段215號","121.411215","25.1579416666667","6502300","八里區"
"249002","305-UY","2017/06/10 20:03:36","新北市八里區龍米路一段63號","121.455616666667","25.1208716666667","6502300","八里區"
"249003","593-UM","2017/06/10 20:03:33","新北市八里區訊塘路56號","121.397706666667","25.1456033333333","6502300","八里區"
"248014","025-BX","2017/06/10 20:03:19","新北市五股區五福路14巷29號","121.435423333333","25.0889566666667","6501500","五股區"
"248016","026-BX","2017/06/10 20:03:26","新北市五股區成泰路三段577巷80弄54號","121.4498","25.1050933333333","6501500","五股區"
"248008","095-VK","2017/06/10 20:03:32","新北市三重區中正北路598巷4號","121.469648333333","25.0718166666667","6501500","五股區"
"248020","225-UY","2017/06/10 20:03:23","新北市五股區凌雲路三段24巷21號","121.433935","25.1067966666667","6501500","五股區"
"248012","247-BX","2017/06/09 21:13:11","新北市五股區更洲路47-1號","121.456738333333","25.0791366666667","6501500","五股區"
"248002","678-BX","2017/06/10 20:03:31","新北市五股區成泰路三段475號","121.45052","25.0985916666667","6501500","五股區"
"248010","682-TV","2017/06/10 20:03:34","新北市五股區登林路64號","121.431476666667","25.0689033333333","6501500","五股區"
"234023","9380-KE","2017/06/10 20:03:36","新北市永和區中正路654巷47號","121.518115","25.0085833333333","6500400","永和區"
"234077","969-R7","2017/06/10 20:03:31","新北市永和區智光街94號","121.516115","24.997005","6500400","永和區"
"234074","AAC-211","2017/06/10 20:03:38","新北市永和區豫溪街159-1號","121.521401666667","25.010375","6500400","永和區"
"234067","AAC-212","2017/06/10 20:03:30","新北市永和區永貞路418號","121.50874","25.00806","6500400","永和區"
"234003","AAC-295","2017/06/10 20:01:03","新北市永和區永和路二段5號","121.514371666667","25.0100016666667","6500400","永和區"
"243013","AAD-798","2017/06/10 20:03:30","新北市泰山區應化街7號","121.423868333333","25.04372","6501600","泰山區"
"243009","297-R6","2017/06/10 20:03:33","新北市泰山區泰林路二段164巷18號","121.434658333333","25.0608","6501600","泰山區"
"243015","380-SR","2017/06/10 20:03:30","新北市泰山區明志路二段214巷16弄1號","121.426741666667","25.0492433333333","6501600","泰山區"
"243014","421-VK","2017/06/10 20:03:24","新北市泰山區明志路一段180號","121.433056666667","25.0622383333333","6501600","泰山區"
"243010","548-UM","2017/06/10 20:03:32","新北市泰山區中華街25號","121.427403333333","25.0518983333333","6501600","泰山區"
"243011","549-UM","2017/06/10 20:03:35","新北市新莊區丹鳳街36號","121.42162","25.02956","6501600","泰山區"
"243012","646-TV","2017/06/10 20:03:31","新北市泰山區全興路2-2號","121.431965","25.05951","6501600","泰山區"
"243016","680-BX","2017/06/10 20:03:37","新北市泰山區貴陽街3號","121.421045","25.0335433333333","6501600","泰山區"
"222002","016-RS","2017/06/10 20:03:30","新北市深坑區埔新街100號","121.618616666667","25.0021916666667","6501800","深坑區"
"222003","436-BY","2017/06/10 20:03:34","新北市深坑區埔新街35巷10號","121.621045","25.002845","6501800","深坑區"
"222001","628-TS","2017/06/10 20:03:29","新北市深坑區北深路三段173號","121.601525","25.0035316666667","6501800","深坑區"
"231041","002-UM","2017/06/10 20:03:25","新北市新店區中正路366號","121.535126666667","24.9762616666667","6500600","新店區"
"231056","0291-UT","2017/06/10 20:03:34","新北市新店區北新路二段224號","121.542911666667","24.9771183333333","6500600","新店區"
"231059","046-UY","2017/06/10 20:03:24","新北市新店區安成街38號","121.50996","24.96125","6500600","新店區"
"231061","047-UY","2017/06/10 20:03:18","新北市新店區安興路32號","121.5157","24.97026","6500600","新店區"
"231060","106-UY","2017/06/10 20:03:26","新北市新店區安康路二段393號","121.494378333333","24.9541716666667","6500600","新店區"
"231051","107-UY","2017/06/10 20:03:40","新北市新店區中央路210號","121.530168333333","24.9736616666667","6500600","新店區"
"231012","108-UY","2017/06/10 20:03:27","新北市新店區永華街55號","121.544608333333","24.9757916666667","6500600","新店區"
"231054","110-UY","2017/06/10 20:03:29","新北市新店區光明街226號","121.540048333333","24.96313","6500600","新店區"
"231052","187-VK","2017/06/10 20:03:29","新北市新店區新烏路三段寶島巷2弄3號","121.552045","24.8986583333333","6500600","新店區"
"231057","256-BX","2017/06/10 20:03:26","新北市新店區花園二路一段11號","121.555485","24.9325133333333","6500600","新店區"
"231063","268-BY","2017/06/10 20:03:35","新北市新店區黎明路64巷2號","121.502455","24.9461383333333","6500600","新店區"
"231050","AAD-862","2017/06/10 20:03:32","新北市新店區北宜路二段360-1號","121.564738333333","24.9523183333333","6500600","新店區"
"231055","3713-VJ","2017/06/10 20:03:30","新北市新店區中華路48巷9號","121.540183333333","24.9687816666667","6500600","新店區"
"231066","4715-K9","2017/06/10 20:03:38","新北市新店區安康路二段352號","121.50239","24.9574816666667","6500600","新店區"
"231065","512-UM","2017/06/10 20:03:35","新北市新店區安祥路106巷40號","121.477083333333","24.9618116666667","6500600","新店區"
"231064","515-UM","2017/06/10 20:03:37","新北市新店區吉安街9號","121.516736666667","24.9656816666667","6500600","新店區"
"231045","617-UM","2017/06/10 20:03:30","新北市新店區北宜路二段151-1號","121.55189","24.95312","6500600","新店區"
"231040","619-UM","2017/06/10 20:03:23","新北市新店區中正路11號","121.5455","24.9693716666667","6500600","新店區"
"231042","641-BX","2017/06/10 20:03:32","新北市新店區中興路二段89號","121.54707","24.9714466666667","6500600","新店區"
"231050","718-UY","2017/06/10 20:03:21","新北市新店區北新路一段285號","121.54127","24.9668666666667","6500600","新店區"
"231049","719-UM","2017/06/10 20:03:29","新北市新店區明德路31號","121.541623333333","24.9773266666667","6500600","新店區"
"231062","720-UM","2017/06/10 20:03:19","新北市新店區華城路10巷1-3號","121.528855","24.95786","6500600","新店區"
"231044","897-TW","2017/06/10 20:03:22","新北市新店區寶慶街58巷10號","121.542086666667","24.98716","6500600","新店區"
"231043","899-TW","2017/06/10 20:03:30","新北市新店區中正路263-3號","121.53835","24.9737583333333","6500600","新店區"
"241011","013-R5","2017/06/10 20:03:36","新北市三重區秀江街240號","121.496425","25.07132","6500200","三重區"
"241028","022-UY","2017/06/10 20:03:19","新北市三重區中正南路164號","121.494161666667","25.0569266666667","6500200","三重區"
"241008","059-VK","2017/06/10 20:03:27","新北市三重區永福街197巷49號","121.477515","25.0743933333333","6500200","三重區"
"241009","060-VK","2017/06/10 20:03:28","新北市三重區三和路四段360號","121.483283333333","25.0784716666667","6500200","三重區"
"241031","061-VK","2017/06/10 20:03:32","新北市三重區重新路四段142巷9號","121.487391666667","25.0560583333333","6500200","三重區"
"241015","062-VK","2017/06/10 20:03:35","新北市三重區長元街98巷4號","121.502711666667","25.0669183333333","6500200","三重區"
"241017","063-VK","2017/06/10 20:03:37","新北市三重區自強路一段288號","121.49163","25.0681666666667","6500200","三重區"
"241024","065-VK","2017/06/10 20:03:37","新北市三重區力行路一段178巷18號","121.481391666667","25.07135","6500200","三重區"
"241026","066-VK","2017/06/10 20:03:20","新北市三重區福德南路56號","121.503138333333","25.062","6500200","三重區"
"241002","090-VK","2017/06/10 20:03:23","新北市三重區仁忠街72號","121.493483333333","25.080605","6500200","三重區"
"241003","091-VK","2017/06/10 20:03:33","新北市三重區仁愛街445巷8號","121.49017","25.0825383333333","6500200","三重區"
"241005","262-UM","2017/06/10 20:03:30","新北市三重區溪尾街380號","121.489006666667","25.0856483333333","6500200","三重區"
"241023","265-UM","2017/06/10 20:03:34","新北市三重區頂崁街203巷32號","121.478265","25.06709","6500200","三重區"
"241016","266-UM","2017/06/10 20:03:31","新北市三重區正義北路36巷23號","121.496553333333","25.0633816666667","6500200","三重區"
"241022","267-UM","2017/06/10 20:03:37","新北市三重區過圳街31巷2號","121.489273333333","25.06058","6500200","三重區"
"241018","268-UM","2017/06/10 20:03:24","新北市三重區大智街49-1號","121.492925","25.0676616666667","6500200","三重區"
"241013","270-UM","2017/06/10 20:03:21","新北市三重區三和路三段125巷40號","121.493998333333","25.073725","6500200","三重區"
"241025","271-UM","2017/06/10 20:03:21","新北市三重區頂崁街210巷37弄18號","121.474541666667","25.0684566666667","6500200","三重區"
"241007","398-BY","2017/06/10 20:03:25","新北市三重區溪尾街108巷46弄35號","121.489048333333","25.0782883333333","6500200","三重區"
"241020","412-TH","2017/06/10 20:03:31","新北市三重區忠孝路一段101號","121.489565","25.072145","6500200","三重區"
"241004","475-VK","2017/06/10 20:03:30","新北市三重區仁愛街425巷53號","121.491628333333","25.0822516666667","6500200","三重區"
"241019","478-VK","2017/06/10 20:03:37","新北市三重區自強路二段27號","121.48962","25.0693","6500200","三重區"
"241030","480-VK","2017/06/10 20:03:32","新北市三重區重新路四段244巷7弄23號","121.48649","25.0528483333333","6500200","三重區"
"241014","543-UM","2017/06/10 20:03:34","新北市三重區長樂街19號","121.500015","25.0690966666667","6500200","三重區"
"241001","547-UM","2017/06/10 20:03:34","新北市三重區福隆路12號","121.490316666667","25.0774766666667","6500200","三重區"
"241006","AAD-863","2017/06/10 20:03:30","新北市三重區力行路二段95號","121.482741666667","25.0759383333333","6500200","三重區"
"241035","743-BX","2017/06/10 20:03:19","新北市三重區大榮街11號","121.498186666667","25.0632766666667","6500200","三重區"
"241012","887-TS","2017/06/10 20:03:31","新北市三重區仁厚街15號","121.499391666667","25.07616","6500200","三重區"
"241029","942-UM","2017/06/10 20:03:34","新北市三重區重安街1號","121.489886666667","25.058385","6500200","三重區"
"241033","AAC-255","2017/06/10 20:03:22","新北市三重區光復路一段68巷36號","121.47058","25.0493433333333","6500200","三重區"
"235066","003-UY","2017/06/10 20:03:32","新北市中和區中山路二段23號","121.50496","25.0054533333333","6500300","中和區"
"235056","096-UM","2017/06/10 20:03:34","新北市中和區中山路三段170巷4弄25號","121.4733","25.0072416666667","6500300","中和區"
"235039","097-UM","2017/06/10 20:03:36","新北市中和區大勇街25巷36號","121.515911666667","24.99375","6500300","中和區"
"235065","098-UM","2017/06/10 20:03:34","新北市中和區莊敬路1-6號","121.49941","25.0043633333333","6500300","中和區"
"235040","150-BY","2017/06/10 20:03:29","新北市中和區宜安路119巷16號","121.509775","24.9975733333333","6500300","中和區"
"235058","151-BY","2017/06/10 20:03:31","新北市中和區員山路150巷2弄17號","121.48179","24.9979916666667","6500300","中和區"
"235055","183-VK","2017/06/10 20:03:30","新北市中和區德光路38號","121.470355","25.0049","6500300","中和區"
"235038","185-VK","2017/06/10 20:03:22","新北市中和區大智街55巷30弄2號","121.520996666667","24.9929966666667","6500300","中和區"
"235049","186-VK","2017/06/10 20:03:16","新北市中和區景平路536號","121.502615","24.9945366666667","6500300","中和區"
"235067","255-BX","2017/06/10 20:03:28","新北市中和區新生街251號","121.48388","24.9986","6500300","中和區"
"235044","293-VK","2017/06/10 20:03:23","新北市中和區景安路211號","121.504645","24.9916933333333","6500300","中和區"
"235043","352-BY","2017/06/10 20:03:28","新北市中和區興南路二段159巷12號","121.505208333333","24.9831033333333","6500300","中和區"
"235041","375-QA","2017/06/10 20:03:28","新北市中和區永貞路254號","121.514046666667","25.0036833333333","6500300","中和區"
"235051","376-QA","2017/06/10 20:03:35","新北市中和區景安路247號","121.504023333333","24.9908083333333","6500300","中和區"
"235050","4979-A6","2017/06/10 20:03:26","新北市中和區安樂路48號","121.512075","24.9929833333333","6500300","中和區"
"235069","4980-A6","2017/06/10 20:03:36","新北市中和區景新街64巷11弄1號","121.50398","24.9984983333333","6500300","中和區"
"235042","551-UM","2017/06/10 20:03:33","新北市新店區溪園路253號","121.522913333333","24.9812633333333","6500300","中和區"
"235070","558-UM","2017/06/10 20:03:32","新北市中和區連勝街39號","121.498261666667","24.997655","6500300","中和區"
"235054","640-BX","2017/06/10 20:03:27","新北市中和區莒光路149號","121.472693333333","25.001145","6500300","中和區"
"235060","647-TV","2017/06/10 20:03:39","新北市中和區新生街16巷17號","121.482465","25.0042916666667","6500300","中和區"
"235047","732-UM","2017/06/10 20:03:27","新北市中和區和平街74號","121.50777","24.9911666666667","6500300","中和區"
"235046","733-UM","2017/06/10 20:03:32","新北市中和區興南路一段93巷83號","121.510583333333","24.9863","6500300","中和區"
"235057","801-TS","2017/06/10 20:03:29","新北市中和區員山路274號","121.481335","25.00195","6500300","中和區"
"235052","805-TS","2017/06/10 20:03:22","新北市中和區華新街192巷22弄10號","121.506986666667","24.9834483333333","6500300","中和區"
"235048","896-TW","2017/06/10 20:03:33","新北市中和區景新街447-1號","121.513073333333","24.9888183333333","6500300","中和區"
"235053","900-TW","2017/06/10 20:03:28","新北市中和區國光街184號","121.466868333333","25.0020066666667","6500300","中和區"
"235037","AAC-213","2017/06/10 20:03:32","新北市中和區更生街15號","121.52192","24.9961633333333","6500300","中和區"
"235059","AAC-215","2017/06/10 20:03:18","新北市中和區圓通路335巷1弄2號","121.492158333333","24.990305","6500300","中和區"
"220068","013-TV","2017/06/10 20:03:37","新北市板橋區中山路二段284號","121.479451666667","25.018765","6500100","板橋區"
"220065","072-UY","2017/06/10 20:03:39","新北市板橋區海山路35號","121.467496666667","25.00936","6500100","板橋區"
"220086","073-UY","2017/06/10 20:03:29","新北市板橋區中正路1巷6號","121.45558","25.011815","6500100","板橋區"
"220106","075-UY","2017/06/10 20:03:32","新北市板橋區民治街42巷25號","121.478283333333","25.0330166666667","6500100","板橋區"
"220096","120-SR","2017/06/10 20:03:38","新北市板橋區莒光路16巷26號","121.469455","25.0240216666667","6500100","板橋區"
"247020","893-R6","2017/06/10 20:03:25","新北市蘆洲區民義街68巷46號","121.473948333333","25.089765","6501400","蘆洲區"
"247010","546-UM","2017/06/10 20:03:34","新北市蘆洲區集賢路255號","121.481311666667","25.0844833333333","6501400","蘆洲區"
"247018","500-BY","2017/06/10 20:03:27","新北市蘆洲區民族路306號","121.477403333333","25.0900516666667","6501400","蘆洲區"
"247002","402-BY","2017/06/10 16:02:12","新北市五股區中興路三段3-6號","121.449556666667","25.078765","6501400","蘆洲區"
"247006","341-TH","2017/06/10 20:03:31","新北市蘆洲區九芎街13號","121.468196666667","25.07858","6501400","蘆洲區"
"247008","339-TH","2017/06/10 20:03:29","新北市蘆洲區中山一路124號","121.476721666667","25.0815516666667","6501400","蘆洲區"
"247024","337-TH","2017/06/10 20:03:38","新北市蘆洲區光榮路120巷22弄38號","121.46407","25.0870483333333","6501400","蘆洲區"
"247002","336-TH","2017/06/10 20:03:37","新北市蘆洲區長安街260號","121.45744","25.0864883333333","6501400","蘆洲區"
"247014","057-VK","2017/06/10 20:03:30","新北市蘆洲區中山一路182號","121.474061666667","25.0810266666667","6501400","蘆洲區"
"247004","056-VK","2017/06/10 20:03:25","新北市蘆洲區永康街75號","121.455876666667","25.085255","6501400","蘆洲區"
"247012","007-UY","2017/06/10 20:03:26","新北市蘆洲區復興路260號","121.480165","25.0894983333333","6501400","蘆洲區"
"247022","002-UY","2017/06/10 20:03:26","新北市蘆洲區中正路174巷23-2號","121.468421666667","25.0880516666667","6501400","蘆洲區"
"247016","001-UY","2017/06/10 20:03:33","新北市蘆洲區光華路165號","121.465093333333","25.082035","6501400","蘆洲區"
"224010","AGQ-8101","2017/06/10 20:02:24","新北市瑞芳區基山街112號","121.843953333333","25.1084866666667","6501200","瑞芳區"
"227002","642-TC","2017/06/10 20:03:33","新北市雙溪區共和里東榮街52號","121.866336666667","25.0334933333333","6502500","雙溪區"
"227010","400-TW","2017/06/10 20:03:29","新北市雙溪區新基里新基西街3號","121.865608333333","25.03752","6502500","雙溪區"
"208003","665-BX","2017/06/10 20:03:23","新北市金山區永興里濆水路2號","121.62451","25.270575","6502700","金山區"
"251004","009-UM","2017/06/10 20:03:21","新北市淡水區民族路31巷30號","121.46243","25.1367016666667","6501000","淡水區"
"251008","181-VK","2017/06/10 20:03:24","新北市淡水區淡海路72巷30弄18號","121.425225","25.18251","6501000","淡水區"
"251014","182-VK","2017/06/10 20:03:40","新北市淡水區石頭厝3號","121.458663333333","25.235535","6501000","淡水區"
"251010","413-VK","2017/06/10 20:03:26","新北市淡水區崁頂三路121號","121.431748333333","25.200925","6501000","淡水區"
"251016","442-VK","2017/06/10 20:03:26","新北市淡水區番子田16-13號","121.453755","25.2316233333333","6501000","淡水區"
"251005","443-VK","2017/06/10 20:03:27","新北市淡水區學府路136巷49號","121.452178333333","25.172645","6501000","淡水區"
"251009","575-R6","2017/06/10 20:03:33","新北市淡水區清水街2號","121.445601666667","25.1704566666667","6501000","淡水區"
"251011","650-BX","2017/06/10 20:03:30","新北市淡水區崁頂75-2號","121.436313333333","25.2036283333333","6501000","淡水區"
"251002","672-BX","2017/06/10 20:03:32","新北市淡水區中正路一段49號","121.424501666667","25.1774233333333","6501000","淡水區"
"207003","550-UM","2017/06/10 20:03:31","新北市萬里區磺潭里公館崙5號","121.64186","25.214225","6502800","萬里區"
"207004","225-TW","2017/06/10 20:03:34","新北市萬里區北基里忠四街43號","121.685323333333","25.1765266666667","6502800","萬里區"
"252002","178-VK","2017/06/10 20:03:28","新北市三芝區忠孝街116-3號","121.505578333333","25.2575083333333","6502100","三芝區"
"252001","292-VK","2017/06/10 20:03:28","新北市三芝區公正街66號","121.499781666667","25.25745","6502100","三芝區"
"208002","170-UY","2017/06/10 20:03:35","新北市金山區環金路178號","121.63502","25.2172233333333","6502700","金山區"
"237007","153-BY","2017/06/10 20:03:40","新北市三峽區二鬮路136巷20弄29號","121.357038333333","24.90998","6500900","三峽區"
"237009","210-TH","2017/06/10 20:03:30","新北市三峽區民族街28巷2-6號","121.36905","24.9307316666667","6500900","三峽區"
"237012","275-BY","2017/06/10 20:03:33","新北市三峽區中華路40號","121.372941666667","24.9314916666667","6500900","三峽區"
"237008","302-VK","2017/06/10 20:03:37","新北市三峽區永安街179號","121.37321","24.9269583333333","6500900","三峽區"
"237014","433-BY","2017/06/10 20:03:27","新北市三峽區白雞9-1號","121.36849","24.9125016666667","6500900","三峽區"
"237006","5529-G3","2017/06/10 20:03:33","新北市三峽區中正路二段176巷79號","121.364466666667","24.9127166666667","6500900","三峽區"
"237005","AKY-6261","2017/06/10 20:03:32","新北市三峽區三樹路16號","121.377591666667","24.9371083333333","6500900","三峽區"
"236073","105-UM","2017/06/10 20:03:37","新北市土城區忠義路111-2號","121.444561666667","24.9628466666667","6501300","土城區"
"236079","166-UM","2017/06/10 20:03:24","新北市土城區福安街106號","121.41731","24.96394","6501300","土城區"
"236031","253-BX","2017/06/10 20:03:33","新北市土城區中央路一段242巷3號","121.44423","24.98503","6501300","土城區"
"236027","269-VK","2017/06/10 20:03:36","新北市土城區中央路一段258號","121.444228333333","24.9842633333333","6501300","土城區"
"236015","270-VK","2017/06/10 20:03:36","新北市土城區廣明街42號","121.455423333333","24.9929683333333","6501300","土城區"
"236038","271-VK","2017/06/10 20:03:33","新北市土城區國際路31巷14號","121.465926666667","24.979345","6501300","土城區"
"236023","401-BY","2017/06/10 20:03:31","新北市土城區延吉街139號","121.470595","24.9862516666667","6501300","土城區"
"236059","912-UM","2017/06/10 20:03:24","新北市土城區中央路一段239號","121.445471666667","24.9860933333333","6501300","土城區"
"236049","913-UM","2017/06/10 20:03:26","新北市土城區金城路三段259-1號","121.47195","24.99008","6501300","土城區"
"236063","915-UM","2017/06/10 20:03:23","新北市土城區金城路三段73巷4弄5號","121.466313333333","24.988005","6501300","土城區"
"236055","AAC-216","2017/06/10 20:03:26","新北市土城區金城路三段33巷1號","121.46538","24.9869283333333","6501300","土城區"
"242021","AAC-296","2017/06/10 20:03:39","新北市新莊區建中街28號","121.449063333333","25.0375116666667","6500500","新莊區"
"242048","751-BX","2017/06/10 20:03:29","新北市新莊區四維路150巷9號","121.422298333333","25.023315","6500500","新莊區"
"242029","705-TV","2017/06/10 20:03:21","新北市新莊區中榮街152巷18號","121.445995","25.0535033333333","6500500","新莊區"
"242025","615-BX","2017/06/10 20:03:38","新北市新莊區五工二路78巷22號","121.460691666667","25.0667783333333","6500500","新莊區"
"242023","613-BX","2017/06/10 20:03:25","新北市新莊區化成路500號","121.466123333333","25.0521633333333","6500500","新莊區"
"242027","612-BX","2017/06/10 20:03:34","新北市新莊區立信一街60號","121.443155","25.0497583333333","6500500","新莊區"
"242036","566-BX","2017/06/10 20:03:28","新北市新莊區建安街25巷7號","121.429436666667","25.0261683333333","6500500","新莊區"
"242004","442-UM","2017/06/10 20:03:34","新北市新莊區化成路159號","121.465793333333","25.0492116666667","6500500","新莊區"
"242051","440-UM","2017/06/10 20:03:24","新北市新莊區民安西路150巷6號","121.425743333333","25.0165766666667","6500500","新莊區"
"242039","400-BY","2017/06/10 20:03:31","新北市新莊區民安西路58號","121.427361666667","25.020425","6500500","新莊區"
"242061","362-BY","2017/06/10 20:03:36","新北市新莊區瓊泰路51巷2號","121.44339","25.0284033333333","6500500","新莊區"
"242058","353-BY","2017/06/10 20:03:30","新北市新莊區八德街116號","121.423991666667","25.020905","6500500","新莊區"
"242011","132-UY","2017/06/10 20:03:38","新北市新莊區中和街181號","121.447746666667","25.0506283333333","6500500","新莊區"
"242034","133-UY","2017/06/10 20:03:35","新北市新莊區建中街81巷10弄11號","121.446995","25.0360716666667","6500500","新莊區"
"242019","135-UY","2017/06/10 20:03:29","新北市新莊區民樂街65巷20號","121.457066666667","25.041835","6500500","新莊區"
"242044","172-VK","2017/06/10 20:03:31","新北市新莊區中正路929巷15號","121.410968333333","25.0204916666667","6500500","新莊區"
"242007","173-VK","2017/06/10 20:03:40","新北市新莊區中原路55號","121.457983333333","25.0545666666667","6500500","新莊區"
"242013","175-VK","2017/06/10 20:03:28","新北市新莊區中港路417巷5號","121.451838333333","25.047465","6500500","新莊區"
"242056","176-VK","2017/06/10 20:03:30","新北市新莊區新豐街65號","121.446435","25.0336533333333","6500500","新莊區"
"242031","346-TH","2017/06/10 20:03:30","新北市新莊區公園一路98號","121.443501666667","25.037395","6500500","新莊區"
"242002","347-TH","2017/06/10 20:03:26","新北市新莊區中正路153-1號","121.456011666667","25.03672","6500500","新莊區"
"242017","348-TH","2017/06/10 20:03:33","新北市新莊區中安街5巷1號","121.452851666667","25.0456166666667","6500500","新莊區"
"242053","349-TH","2017/06/10 20:03:22","新北市新莊區西盛街395巷37弄1號","121.429108333333","25.0119366666667","6500500","新莊區"
"242015","350-TH","2017/06/10 20:03:37","新北市新莊區復興路一段47巷9號","121.446805","25.0426","6500500","新莊區"
"242009","351-TH","2017/06/10 20:03:36","新北市新莊區昌盛街15號","121.453316666667","25.0499583333333","6500500","新莊區"
"238015","755-BX","2017/06/10 20:03:06","新北市樹林區中山路三段210-2號","121.380845","24.9669033333333","6500700","樹林區"
"238023","601-UM","2017/06/10 20:03:33","新北市樹林區中正路423號","121.416355","25.0081916666667","6500700","樹林區"
"238024","5061-A6","2017/06/10 20:03:29","新北市樹林區中山路三段245號","121.392758333333","24.9721483333333","6500700","樹林區"
"238021","311-TH","2017/06/10 20:01:30","新北市樹林區佳園路三段113巷19號","121.387608333333","24.9502433333333","6500700","樹林區"
"238025","303-VK","2017/06/10 20:03:25","新北市樹林區中山路二段118號","121.41369","24.9831766666667","6500700","樹林區"
"221036","130-UY","2017/06/10 20:03:17","新北市汐止區忠孝東路258巷9號","121.663666666667","25.0673166666667","6501100","汐止區"
"221015","131-UY","2017/06/10 20:03:28","新北市汐止區大同路二段691號","121.665101666667","25.072545","6501100","汐止區"
"221010","269-BY","2017/06/10 20:03:28","新北市汐止區八連路一段78巷3號","121.643831666667","25.0807166666667","6501100","汐止區"
"221012","278-VK","2017/06/10 20:03:31","新北市汐止區汐平路一段168號","121.689316666667","25.0667116666667","6501100","汐止區"
"221023","279-VK","2017/06/10 20:03:34","新北市汐止區明峰街298巷6號","121.625253333333","25.06838","6501100","汐止區"
"221032","280-BY","2017/06/10 20:03:18","新北市汐止區弘道街9巷2弄2號","121.617015","25.0488733333333","6501100","汐止區"
"221002","281-BY","2017/06/10 20:03:29","新北市汐止區和平街118號","121.660845","25.0698266666667","6501100","汐止區"
"221038","297-VK","2017/06/10 20:03:28","新北市汐止區忠孝東路440號","121.6661","25.0724683333333","6501100","汐止區"
"221029","298-VK","2017/06/10 20:03:22","新北市汐止區樟樹一路135巷17號","121.641416666667","25.06552","6501100","汐止區"
"221021","299-VK","2017/06/10 20:03:35","新北市汐止區水源路一段119號","121.656311666667","25.0628983333333","6501100","汐止區"
"221035","622-UM","2017/06/10 20:03:32","新北市汐止區長江街57巷6號","121.656251666667","25.07185","6501100","汐止區"
"221025","623-UM","2017/06/10 20:03:21","新北市汐止區秀峰路74號","121.659841666667","25.0643","6501100","汐止區"
"221033","647-BX","2017/06/10 20:03:29","新北市汐止區東勢街201巷104號","121.633555","25.0429716666667","6501100","汐止區"
"221018","753-BX","2017/06/10 20:03:23","新北市汐止區招商街156-1號","121.671346666667","25.0669333333333","6501100","汐止區"
"220079","145-BY","2017/06/10 20:03:37","新北市板橋區南雅西路二段175巷2號","121.45157","25.0124883333333","6500100","板橋區"
"220093","146-RM","2017/06/10 20:03:27","新北市板橋區文化路二段656號","121.479848333333","25.0361616666667","6500100","板橋區"
"220082","610-BX","2017/06/10 20:03:35","新北市板橋區大觀路三段231號","121.43073","24.99217","6500100","板橋區"
"220101","245-BX","2017/06/10 20:03:30","新北市板橋區莒光路213號","121.47418","25.0228616666667","6500100","板橋區"
"220090","257-TC","2017/06/10 20:03:23","新北市板橋區英士路198號","121.457833333333","25.0236516666667","6500100","板橋區"
"220069","258-TC","2017/06/10 20:03:34","新北市板橋區貴興路119巷1弄1號","121.455743333333","25.002235","6500100","板橋區"
"220094","267-BY","2017/06/10 20:03:27","新北市板橋區陽明街84號","121.46439","25.0228366666667","6500100","板橋區"
"220072","277-BY","2017/06/10 20:03:23","新北市板橋區金門街215巷45號","121.43364","24.989515","6500100","板橋區"
"220064","280-UM","2017/06/10 20:03:30","新北市板橋區漢生東路195號","121.470018333333","25.0114066666667","6500100","板橋區"
"220071","283-VK","2017/06/10 20:03:27","新北市板橋區五權街30巷24弄15號","121.463858333333","24.9934016666667","6500100","板橋區"
"220091","285-UM","2017/06/10 20:03:40","新北市板橋區文聖街89巷27號","121.478483333333","25.0304483333333","6500100","板橋區"
"220053","285-VK","2017/06/10 20:03:38","新北市板橋區中山路二段90巷37號","121.475933333333","25.0153466666667","6500100","板橋區"
"220083","286-VK","2017/06/10 20:03:33","新北市板橋區僑中二街10巷24號","121.446006666667","25.0110933333333","6500100","板橋區"
"220081","287-VK","2017/06/10 20:03:34","新北市板橋區僑中一街80巷6弄1號","121.447715","25.012225","6500100","板橋區"
"220061","293-UM","2017/06/10 20:03:25","新北市板橋區觀光街88號","121.46947","25.01688","6500100","板橋區"
"220009","295-UM","2017/06/10 16:03:29","新北市板橋區民生路二段15-1號","121.47282","25.0163683333333","6500100","板橋區"
"220084","296-UM","2017/06/10 20:03:35","新北市板橋區溪崑二街94號","121.426858333333","24.98917","6500100","板橋區"
"220075","297-UM","2017/06/10 20:03:36","新北市板橋區金華街10巷48弄75號","121.459743333333","25.020365","6500100","板橋區"
"220097","299-UM","2017/06/10 20:03:17","新北市板橋區光正街45巷17號","121.461755","25.0166183333333","6500100","板橋區"
"220062","305-R5","2017/06/10 20:03:34","新北市板橋區光復街33巷22號","121.482276666667","25.0188666666667","6500100","板橋區"
"220092","307-R5","2017/06/10 20:03:16","新北市板橋區四維路259巷87號","121.460015","25.0264183333333","6500100","板橋區"
"220098","317-R6","2017/06/10 20:03:28","新北市板橋區新海路72巷52號","121.462023333333","25.02313","6500100","板橋區"
"220080","461-BY","2017/06/10 20:03:39","新北市板橋區大觀路二段163巷7號","121.445963333333","25.0002933333333","6500100","板橋區"
"220089","487-VK","2017/06/10 20:03:35","新北市板橋區新海路403巷18號","121.457775","25.0263733333333","6500100","板橋區"
"220088","491-VK","2017/06/10 20:02:47","新北市板橋區文聖街157號","121.478751666667","25.0277333333333","6500100","板橋區"
"220035","560-BX","2017/06/10 20:03:34","新北市板橋區新生街87巷22號","121.457145","25.022105","6500100","板橋區"
"220103","561-BX","2017/06/10 20:03:18","新北市板橋區自由路40號","121.465616666667","25.0232016666667","6500100","板橋區"
"220057","686-BX","2017/06/10 20:03:33","新北市板橋區信義路19號","121.456918333333","24.996595","6500100","板橋區"
"220054","741-BX","2017/06/10 20:03:36","新北市板橋區國泰街75巷28弄84號","121.467205","25.0042233333333","6500100","板橋區"
"220055","827-TW","2017/06/10 20:03:35","新北市板橋區仁愛路62巷11號","121.459953333333","24.9987716666667","6500100","板橋區"
"220067","829-TW","2017/06/10 20:03:36","新北市板橋區中山路一段206巷2弄2號","121.470178333333","25.0133166666667","6500100","板橋區"
"220102","830-TW","2017/06/10 20:03:36","新北市板橋區懷德街76巷8號","121.477618333333","25.0317533333333","6500100","板橋區"
"220074","895-R6","2017/06/10 20:03:38","新北市板橋區福德街30號","121.456031666667","25.00844","6500100","板橋區"
"220073","985-R7","2017/06/10 20:03:32","新北市板橋區南雅西路二段86號","121.45253","25.010985","6500100","板橋區"
"220070","AAC-253","2017/06/10 20:03:30","新北市板橋區成都街87號","121.462913333333","25.0051983333333","6500100","板橋區"
