"lineid","car","time","location","longitude","latitude","cityid","cityname"
"222002","016-RS","2017/06/10 20:59:30","新北市深坑區北深路三段25巷14號","121.608663333333","25.0002716666667","6501800","深坑區"
"222001","628-TS","2017/06/10 20:59:29","新北市深坑區深南路88巷1號","121.621246666667","25.0117016666667","6501800","深坑區"
"231059","046-UY","2017/06/10 20:59:24","新北市新店區僑信路98號","121.499906666667","24.9476133333333","6500600","新店區"
"231061","047-UY","2017/06/10 20:59:38","新北市新店區永安街22-1號","121.517405","24.98655","6500600","新店區"
"231060","106-UY","2017/06/10 20:59:26","新北市新店區安康路三段578-2號","121.480713333333","24.9484816666667","6500600","新店區"
"231051","107-UY","2017/06/10 20:59:20","新北市新店區民生路156巷80號","121.527505","24.9819583333333","6500600","新店區"
"231012","108-UY","2017/06/10 20:59:26","新北市新店區文化路92號","121.5449","24.9825216666667","6500600","新店區"
"231054","110-UY","2017/06/10 20:59:29","新北市新店區中正路75巷71號","121.543151666667","24.968815","6500600","新店區"
"231063","268-BY","2017/06/10 20:59:36","新北市新店區富貴街8巷1號","121.494345","24.9498","6500600","新店區"
"231049","278-BY","2017/06/10 20:59:30","新北市新店區永業路81巷1弄17號","121.530465","24.9503583333333","6500600","新店區"
"231050","AAD-862","2017/06/10 20:59:32","新北市新店區三民路117巷3弄2號","121.534446666667","24.9715066666667","6500600","新店區"
"231066","4715-K9","2017/06/10 20:59:18","新北市新店區安民街201號","121.516635","24.9717033333333","6500600","新店區"
"231067","4772-VM","2017/06/10 20:59:22","新北市新店區安德街132號","121.508711666667","24.9603483333333","6500600","新店區"
"231065","512-UM","2017/06/10 20:59:35","新北市新店區安祥路67巷50弄15號","121.484211666667","24.9588616666667","6500600","新店區"
"231064","515-UM","2017/06/10 20:59:37","新北市新店區安民街251巷13號","121.51674","24.973055","6500600","新店區"
"231040","619-UM","2017/06/10 20:59:32","新北市新店區中正路114號","121.542425","24.9710783333333","6500600","新店區"
"231042","641-BX","2017/06/10 20:59:32","新北市新店區中興路二段199號","121.54821","24.9739566666667","6500600","新店區"
"231050","718-UY","2017/06/10 20:59:21","新北市新店區中興路三段13號","121.545228333333","24.9786266666667","6500600","新店區"
"231062","720-UM","2017/06/10 20:59:19","新北市新店區雙城路45巷1號","121.492366666667","24.9482816666667","6500600","新店區"
"231043","899-TW","2017/06/10 20:59:30","新北市新店區民族路195號","121.537181666667","24.9762166666667","6500600","新店區"
"241011","013-R5","2017/06/10 20:59:36","新北市三重區秀江街119號","121.499713333333","25.0722083333333","6500200","三重區"
"241028","022-UY","2017/06/10 20:59:19","新北市三重區重新路三段94號","121.492625","25.0609966666667","6500200","三重區"
"241008","059-VK","2017/06/10 20:59:27","新北市三重區力行路二段162巷7號","121.482603333333","25.0765983333333","6500200","三重區"
"241009","060-VK","2017/06/10 20:59:28","新北市三重區三和路四段386號","121.48242","25.078955","6500200","三重區"
"241031","061-VK","2017/06/10 20:59:32","新北市三重區重陽路一段113巷2弄2號","121.48748","25.0598583333333","6500200","三重區"
"241015","062-VK","2017/06/10 20:59:35","新北市三重區福德北路61號","121.502095","25.0654916666667","6500200","三重區"
"241017","063-VK","2017/06/10 20:59:17","新北市三重區民生街38巷2弄33號","121.492425","25.0674316666667","6500200","三重區"
"241024","065-VK","2017/06/10 20:59:37","新北市三重區國道路一段58巷20號","121.481203333333","25.0720266666667","6500200","三重區"
"241026","066-VK","2017/06/10 20:59:40","新北市三重區文化南路45號","121.500203333333","25.06144","6500200","三重區"
"241002","090-VK","2017/06/10 20:59:23","新北市三重區五華街1巷72號","121.496863333333","25.0804033333333","6500200","三重區"
"241003","091-VK","2017/06/10 20:59:33","新北市三重區五華街141巷58號","121.493491666667","25.0866766666667","6500200","三重區"
"241005","262-UM","2017/06/10 20:59:30","新北市三重區五華街187號","121.489985","25.0851516666667","6500200","三重區"
"241023","265-UM","2017/06/10 20:59:34","新北市三重區忠孝路三段50巷41弄66號","121.482281666667","25.063775","6500200","三重區"
"241016","266-UM","2017/06/10 20:59:31","新北市三重區自強路一段133號","121.494951666667","25.066565","6500200","三重區"
"241022","267-UM","2017/06/10 20:59:37","新北市三重區中正北路20巷12號","121.488","25.0624533333333","6500200","三重區"
"241018","268-UM","2017/06/10 20:59:24","新北市三重區自強路一段236號","121.493405","25.0670733333333","6500200","三重區"
"241013","270-UM","2017/06/10 20:59:21","新北市三重區仁愛街129巷2號","121.495651666667","25.074945","6500200","三重區"
"241025","271-UM","2017/06/10 20:59:21","新北市三重區貴陽街21號","121.48426","25.0619333333333","6500200","三重區"
"241007","398-BY","2017/06/10 20:59:25","新北市三重區慈愛街8號","121.484466666667","25.0784833333333","6500200","三重區"
"241020","412-TH","2017/06/10 20:59:32","新北市三重區忠孝路二段35號","121.485961666667","25.0710633333333","6500200","三重區"
"241004","475-VK","2017/06/10 20:59:30","新北市三重區仁愛街418號","121.490468333333","25.0814316666667","6500200","三重區"
"241019","478-VK","2017/06/10 20:59:37","新北市三重區自強路二段74巷23-1號","121.487941666667","25.069835","6500200","三重區"
"241030","480-VK","2017/06/10 20:59:32","新北市三重區環河南路222號","121.492503333333","25.051935","6500200","三重區"
"241014","543-UM","2017/06/10 20:59:34","新北市三重區長榮路75號","121.502543333333","25.0690666666667","6500200","三重區"
"241001","547-UM","2017/06/10 20:59:34","新北市三重區三和路四段140號","121.488548333333","25.0754816666667","6500200","三重區"
"241006","AAD-863","2017/06/10 20:59:30","新北市三重區永福街101號","121.479616666667","25.077385","6500200","三重區"
"241012","887-TS","2017/06/10 20:59:31","新北市三重區仁信街6號","121.501353333333","25.075555","6500200","三重區"
"241029","942-UM","2017/06/10 20:59:34","新北市三重區電信街33號","121.497043333333","25.0584","6500200","三重區"
"241033","AAC-255","2017/06/10 20:59:22","新北市三重區光復路二段49號","121.472086666667","25.0558316666667","6500200","三重區"
"235068","377-QA","2017/06/10 20:59:25","新北市中和區中正路637巷60弄61號","121.485475","24.9928916666667","6500300","中和區"
"235042","551-UM","2017/06/10 20:59:33","新北市中和區和城路一段271巷1號","121.485578333333","24.991605","6500300","中和區"
"235026","800-TS","2017/06/10 20:59:34","新北市中和區員山路36巷16-3號","121.485105","24.9912983333333","6500300","中和區"
"235053","900-TW","2017/06/10 20:59:28","新北市林口區汕頭32號","121.36629","25.1346666666667","6500300","中和區"
"235037","AAC-213","2017/06/10 20:59:32","新北市新店區光華街29號","121.515583333333","24.969745","6500300","中和區"
"247020","893-R6","2017/06/10 20:59:25","新北市蘆洲區民族路371號","121.471081666667","25.0912633333333","6501400","蘆洲區"
"247010","546-UM","2017/06/10 20:59:34","新北市蘆洲區鷺江街76號","121.47698","25.083835","6501400","蘆洲區"
"247018","500-BY","2017/06/10 20:59:37","新北市蘆洲區民權路132-2號","121.473181666667","25.0887916666667","6501400","蘆洲區"
"247002","402-BY","2017/06/10 16:02:12","新北市五股區中興路三段3-6號","121.449556666667","25.078765","6501400","蘆洲區"
"247006","341-TH","2017/06/10 20:59:31","新北市蘆洲區永安南路二段16巷16號","121.467965","25.0777466666667","6501400","蘆洲區"
"247008","339-TH","2017/06/10 20:59:29","新北市蘆洲區中山一路293-1號","121.471543333333","25.079165","6501400","蘆洲區"
"247024","337-TH","2017/06/10 20:59:38","新北市蘆洲區長興路213號","121.461206666667","25.0863566666667","6501400","蘆洲區"
"247002","336-TH","2017/06/10 20:59:37","新北市蘆洲區長安街315號","121.457483333333","25.0861883333333","6501400","蘆洲區"
"247014","057-VK","2017/06/10 20:59:30","新北市蘆洲區得勝街69巷6號","121.473795","25.0836716666667","6501400","蘆洲區"
"247004","056-VK","2017/06/10 20:59:25","新北市蘆洲區永安南路二段268號","121.45866","25.0807333333333","6501400","蘆洲區"
"247012","007-UY","2017/06/10 20:59:26","新北市蘆洲區民權路5號","121.476706666667","25.08573","6501400","蘆洲區"
"247022","002-UY","2017/06/10 20:59:26","新北市蘆洲區中正路261號","121.467416666667","25.08737","6501400","蘆洲區"
"247016","001-UY","2017/06/10 20:59:33","新北市蘆洲區正和街79號","121.468356666667","25.080855","6501400","蘆洲區"
"251008","181-VK","2017/06/10 20:59:24","新北市淡水區淡金路二段600號","121.446496666667","25.1926083333333","6501000","淡水區"
"251014","182-VK","2017/06/10 20:59:40","新北市淡水區淡金路五段72號","121.454798333333","25.2336733333333","6501000","淡水區"
"251010","413-VK","2017/06/10 20:59:26","新北市淡水區淡海路22號","121.423945","25.178715","6501000","淡水區"
"251012","441-VK","2017/06/10 20:59:29","新北市淡水區淡金路五段110號","121.456498333333","25.2366433333333","6501000","淡水區"
"251016","442-VK","2017/06/10 20:59:26","新北市淡水區牛埔子11-1號","121.450243333333","25.2184716666667","6501000","淡水區"
"251005","443-VK","2017/06/10 20:59:27","新北市淡水區學府路71號","121.448275","25.169905","6501000","淡水區"
"251001","559-UM","2017/06/10 20:59:33","新北市淡水區中山北路一段382號","121.444606666667","25.182855","6501000","淡水區"
"251007","577-R6","2017/06/10 20:59:08","新北市淡水區仁愛街2巷2號","121.446255","25.170645","6501000","淡水區"
"251011","650-BX","2017/06/10 20:59:30","新北市淡水區新民街298-1號","121.435118333333","25.1826833333333","6501000","淡水區"
"251002","672-BX","2017/06/10 20:59:32","新北市淡水區英專路78號","121.445741666667","25.1713066666667","6501000","淡水區"
"251003","673-BX","2017/06/10 20:59:26","新北市淡水區新春街125巷5號","121.441518333333","25.182375","6501000","淡水區"
"252002","178-VK","2017/06/10 20:59:28","新北市三芝區埔坪里埔頭坑41號","121.50449","25.2646783333333","6502100","三芝區"
"252001","292-VK","2017/06/10 20:59:28","新北市三芝區淡金路二段91號","121.504078333333","25.2608733333333","6502100","三芝區"
"242048","751-BX","2017/06/10 20:59:29","新北市新莊區瓊林南路77-41號","121.437413333333","25.0126316666667","6500500","新莊區"
"242036","566-BX","2017/06/10 20:59:28","新北市新莊區中正路442號","121.440425","25.03355","6500500","新莊區"
"242046","441-UM","2017/06/10 20:59:37","新北市板橋區大觀路三段50巷51號","121.43199","24.9958833333333","6500500","新莊區"
"242034","133-UY","2017/06/10 20:59:35","新北市樹林區八德街367-1號","121.416701666667","24.971775","6500500","新莊區"
"242013","175-VK","2017/06/10 20:59:28","新北市新莊區中和街175巷11號","121.44721","25.0505966666667","6500500","新莊區"
"242015","350-TH","2017/06/10 20:59:37","新北市新莊區中和街21號","121.448206666667","25.0437833333333","6500500","新莊區"
"242009","351-TH","2017/06/10 20:59:28","新北市新莊區中正路384號","121.442055","25.0348","6500500","新莊區"
"221027","281-BY","2017/06/10 20:59:29","新北市汐止區汐萬路一段256巷1號","121.65176","25.07484","6501100","汐止區"
"221029","298-VK","2017/06/10 20:59:22","新北市汐止區康寧街901號","121.6517","25.0749266666667","6501100","汐止區"
"221033","647-BX","2017/06/10 20:59:28","新北市汐止區新台五路一段115號","121.651336666667","25.0614683333333","6501100","汐止區"
"221002","707-TV","2017/06/10 20:59:26","新北市汐止區連峰街1巷1號","121.646873333333","25.0760833333333","6501100","汐止區"
"220072","277-BY","2017/06/10 20:59:23","新北市八里區中山路三段382號","121.368533333333","25.1360666666667","6500100","板橋區"
"220009","295-UM","2017/06/10 16:03:29","新北市板橋區民生路二段15-1號","121.47282","25.0163683333333","6500100","板橋區"
"220070","AAC-253","2017/06/10 20:59:30","新北市八里區中山路三段363號","121.37556","25.1391316666667","6500100","板橋區"
