"lineid","car","time","location","longitude","latitude","cityid","cityname"
"222001","628-TS","2017/06/10 21:29:29","新北市深坑區深南路88巷1號","121.62126","25.0116783333333","6501800","深坑區"
"231063","268-BY","2017/06/10 21:29:35","新北市新店區吉祥街7巷1號","121.497378333333","24.947485","6500600","新店區"
"231050","AAD-862","2017/06/10 21:29:32","新北市新店區中正路284巷4弄3號","121.538355","24.9748366666667","6500600","新店區"
"241017","063-VK","2017/06/10 21:29:37","新北市三重區中正北路25巷2號","121.493221666667","25.062655","6500200","三重區"
"241024","065-VK","2017/06/10 21:29:37","新北市三重區中正北路145巷8弄2號","121.484061666667","25.0678166666667","6500200","三重區"
"241003","091-VK","2017/06/10 21:29:33","新北市三重區仁義街307號","121.495588333333","25.0841183333333","6500200","三重區"
"241005","262-UM","2017/06/10 21:29:30","新北市三重區仁華街85號","121.485743333333","25.08299","6500200","三重區"
"241016","266-UM","2017/06/10 21:29:31","新北市三重區正義北路113號","121.496881666667","25.06568","6500200","三重區"
"241007","398-BY","2017/06/10 21:29:25","新北市三重區正義北路113號","121.496911666667","25.0655833333333","6500200","三重區"
"235042","551-UM","2017/06/10 21:01:54","新北市中和區和城路一段271巷1號","121.48556","24.99159","6500300","中和區"
"235026","800-TS","2017/06/10 21:22:52","新北市中和區員山路36巷16-3號","121.485085","24.99132","6500300","中和區"
"247018","500-BY","2017/06/10 21:29:37","新北市蘆洲區光華路110巷36號","121.46593","25.084105","6501400","蘆洲區"
"247002","402-BY","2017/06/10 16:02:12","新北市五股區中興路三段3-6號","121.449556666667","25.078765","6501400","蘆洲區"
"247006","341-TH","2017/06/10 21:29:31","新北市蘆洲區中原路93號","121.457601666667","25.08153","6501400","蘆洲區"
"247008","339-TH","2017/06/10 21:29:29","新北市蘆洲區中山一路312號","121.469208333333","25.0770466666667","6501400","蘆洲區"
"247014","057-VK","2017/06/10 21:29:30","新北市蘆洲區中原路22號","121.460301666667","25.0829933333333","6501400","蘆洲區"
"251004","009-UM","2017/06/10 21:29:21","新北市淡水區民生路7號","121.46053","25.1377866666667","6501000","淡水區"
"251008","181-VK","2017/06/10 21:29:38","新北市淡水區水源街二段146號","121.454058333333","25.1750116666667","6501000","淡水區"
"251014","182-VK","2017/06/10 21:29:20","新北市淡水區六塊厝3-2號","121.4505","25.2405983333333","6501000","淡水區"
"251010","413-VK","2017/06/10 21:29:26","新北市淡水區沙崙路25巷21號","121.420566666667","25.18241","6501000","淡水區"
"251012","441-VK","2017/06/10 21:29:29","新北市淡水區淡金路五段35巷18號","121.453446666667","25.23365","6501000","淡水區"
"251016","442-VK","2017/06/10 21:29:26","新北市淡水區新市二路四段265號","121.445801666667","25.1924466666667","6501000","淡水區"
"251005","443-VK","2017/06/10 21:29:27","新北市淡水區水源街一段43號","121.44378","25.1723683333333","6501000","淡水區"
"251001","559-UM","2017/06/10 21:29:33","新北市淡水區崁頂40號","121.438826666667","25.1953816666667","6501000","淡水區"
"251009","575-R6","2017/06/10 21:29:33","新北市淡水區民族路33巷16-8號","121.463373333333","25.135935","6501000","淡水區"
"251011","650-BX","2017/06/10 21:29:33","新北市淡水區新民街180-6號","121.436818333333","25.178685","6501000","淡水區"
"251002","672-BX","2017/06/10 21:22:40","新北市淡水區學府路172巷21號","121.44819","25.17516","6501000","淡水區"
"251003","673-BX","2017/06/10 21:29:26","新北市淡水區崁頂15-5號","121.43901","25.1858483333333","6501000","淡水區"
"252002","178-VK","2017/06/10 21:09:01","新北市三芝區埔坪里埔頭坑41號","121.504706666667","25.2645983333333","6502100","三芝區"
"242046","441-UM","2017/06/10 21:29:18","新北市板橋區金門街215巷81弄8號","121.434918333333","24.9891483333333","6500500","新莊區"
"221027","281-BY","2017/06/10 20:59:43","新北市汐止區汐萬路一段256巷1號","121.65176","25.07484","6501100","汐止區"
"220072","277-BY","2017/06/10 21:29:23","新北市五股區凌雲路二段18巷62-5號","121.44081","25.106145","6500100","板橋區"
"220009","295-UM","2017/06/10 16:03:29","新北市板橋區民生路二段15-1號","121.47282","25.0163683333333","6500100","板橋區"
"220070","AAC-253","2017/06/10 21:29:30","新北市五股區中直路9號","121.427333333333","25.1092766666667","6500100","板橋區"
