"lineid","car","time","location","longitude","latitude","cityid","cityname"
"248005","653-BX","2017/09/14 08:38:58","新北市五股區明德路12巷1號","121.433308333333","25.0716733333333","6501500","五股區"
"232001","291-BY","2017/09/14 08:38:51","新北市坪林區虎寮潭1號","121.740628333333","24.9522066666667","6502000","坪林區"
"244012","069-UM","2017/09/14 08:38:57","新北市林口區中山路83號","121.390051666667","25.07874","6501700","林口區"
"244006","080-UY","2017/09/14 08:38:59","新北市林口區林口路272巷10號","121.386858333333","25.0844616666667","6501700","林口區"
"244018","403-UM","2017/09/14 08:38:51","新北市林口區公園路163號","121.370883333333","25.0714733333333","6501700","林口區"
"244008","410-SL","2017/09/14 08:38:57","新北市林口區佳林路43號","121.386298333333","25.081615","6501700","林口區"
"244022","483-VK","2017/09/14 08:38:56","新北市林口區興林路152巷24號","121.387435","25.0716716666667","6501700","林口區"
"244016","485-VK","2017/09/14 08:38:51","新北市林口區文化一路一段41號","121.370828333333","25.0693883333333","6501700","林口區"
"244010","656-BX","2017/09/14 08:38:49","新北市林口區中正路106號","121.393593333333","25.0772233333333","6501700","林口區"
"244003","657-BX","2017/09/14 08:38:59","新北市林口區下福里99-99號","121.285535","25.116845","6501700","林口區"
"244024","837-TS","2017/09/14 08:39:02","新北市林口區文化北路一段192-100號","121.357266666667","25.0704583333333","6501700","林口區"
"244020","838-TS","2017/09/14 08:38:52","新北市林口區自強一街18號","121.398311666667","25.0782383333333","6501700","林口區"
"222004","289-BY","2017/09/14 08:38:58","新北市深坑區深南路220號","121.62408","25.0168933333333","6501800","深坑區"
"231069","189-VK","2017/09/14 08:38:53","新北市新店區新潭路三段76號","121.50568","24.91143","6500600","新店區"
"231008","192-VK","2017/09/14 08:38:56","新北市新店區新烏路三段101號","121.55259","24.90306","6500600","新店區"
"226005","5620-A6","2017/09/14 08:39:00","新北市平溪區十分里十分街177號","121.777606666667","25.04442","6502400","平溪區"
"226002","7418-A5","2017/09/14 08:38:45","新北市平溪區東勢里芊蓁坑30號","121.727518333333","24.97909","6502400","平溪區"
"226003","AGD-0702","2017/09/14 08:38:49","新北市平溪區靜安路三段442號","121.787283333333","25.0551766666667","6502400","平溪區"
"223006","022-BY","2017/09/14 08:38:56","新北市深坑區昇高坑路51-1號","121.62979","24.994985","6501900","石碇區"
"223002","198-BX","2017/09/14 08:38:45","新北市石碇區北宜路五段坑內巷5號","121.634876666667","24.9533416666667","6501900","石碇區"
"223003","205-TH","2017/09/14 08:38:32","新北市石碇區北宜路五段坑內巷6號","121.635806666667","24.9536133333333","6501900","石碇區"
"223008","406-TH","2017/09/14 08:39:01","新北市石碇區十八重溪16-3號","121.6778","25.01117","6501900","石碇區"
"223001","592-UM","2017/09/14 08:38:58","新北市石碇區北宜路五段坑內巷1號","121.636955","24.9532283333333","6501900","石碇區"
"223004","660-BX","2017/09/14 08:39:01","新北市石碇區崩山47號","121.678511666667","24.9705016666667","6501900","石碇區"
"223007","661-BX","2017/09/14 08:38:57","新北市石碇區番子坑56號","121.67638","25.0105333333333","6501900","石碇區"
"223005","677-TV","2017/09/14 08:38:59","新北市石碇區崩山43-1號","121.68013","24.9668483333333","6501900","石碇區"
"253003","6232-TK","2017/09/14 08:38:02","新北市石門區內石門102號","121.568155","25.2751466666667","6502200","石門區"
"253001","6251-TK","2017/09/14 08:38:45","新北市石門區白沙灣別墅44號","121.509576666667","25.2783766666667","6502200","石門區"
"253002","637-UY","2017/09/14 08:38:48","新北市石門區內石門80號","121.566176666667","25.2604516666667","6502200","石門區"
"253004","8270-PC","2017/09/14 08:37:04","新北市石門區竹子湖6號","121.61616","25.26133","6502200","石門區"
"252004","249-BX","2017/09/14 08:38:48","新北市三芝區興華里田心子10-5號","121.496126666667","25.2057","6502100","三芝區"
"252007","AAC-283","2017/09/14 08:38:57","新北市三芝區後厝里番子崙25-1號","121.485418333333","25.242815","6502100","三芝區"
"237001","159-UY","2017/09/14 08:39:02","新北市三峽區大觀路68號","121.374683333333","24.9453816666667","6500900","三峽區"
"236009","165-UM","2017/09/14 08:38:58","新北市土城區石門路65號","121.4564","24.9611833333333","6501300","土城區"
"236003","339-SR","2017/09/14 08:39:04","新北市土城區中央路三段281巷1號","121.426761666667","24.9630416666667","6501300","土城區"
"236005","498-BY","2017/09/14 08:38:45","新北市土城區中央路三段249巷5號","121.427898333333","24.963785","6501300","土城區"
"242030","AAC-296","2017/09/14 08:38:58","新北市新莊區新泰路259號","121.446056666667","25.0399533333333","6500500","新莊區"
"242028","986-R7","2017/09/14 08:38:58","新北市新莊區中平路200號","121.444575","25.0485716666667","6500500","新莊區"
"242049","751-BX","2017/09/14 08:39:01","新北市新莊區民本街22號","121.428208333333","25.0196483333333","6500500","新莊區"
"242024","615-BX","2017/09/14 08:38:54","新北市新莊區五工一路98號","121.460385","25.0678883333333","6500500","新莊區"
"242022","613-BX","2017/09/14 08:38:52","新北市新莊區化成路354號","121.465808333333","25.0491666666667","6500500","新莊區"
"242026","612-BX","2017/09/14 08:38:49","新北市新莊區思源路331號","121.459801666667","25.049655","6500500","新莊區"
"242038","566-BX","2017/09/14 08:39:00","新北市新莊區民安路318號","121.4287","25.0221033333333","6500500","新莊區"
"242043","497-BY","2017/09/14 08:38:55","新北市新莊區天泉二街11號","121.415011666667","25.0249616666667","6500500","新莊區"
"242033","442-UM","2017/09/14 08:39:04","新北市新莊區新莊路757號","121.442605","25.032655","6500500","新莊區"
"242047","441-UM","2017/09/14 08:38:55","新北市新莊區後港一路22號","121.425031666667","25.0259683333333","6500500","新莊區"
"242052","440-UM","2017/09/14 08:39:00","新北市新莊區光華街35號","121.428803333333","25.011225","6500500","新莊區"
"242003","413-TV","2017/09/14 08:38:56","新北市新莊區復興路二段1號","121.453415","25.0438066666667","6500500","新莊區"
"242040","400-BY","2017/09/14 08:38:46","新北市新莊區天祥街81巷24號","121.415051666667","25.0285866666667","6500500","新莊區"
"242059","362-BY","2017/09/14 08:38:57","新北市新莊區新樹路123-1號","121.437063333333","25.026215","6500500","新莊區"
"242057","353-BY","2017/09/14 08:38:50","新北市新莊區中正路897-10號","121.411581666667","25.0216316666667","6500500","新莊區"
"242006","132-UY","2017/09/14 08:38:50","新北市新莊區中原路143號","121.454211666667","25.0543083333333","6500500","新莊區"
"242035","133-UY","2017/09/14 08:39:06","新北市新莊區後港一路33號","121.425281666667","25.0261583333333","6500500","新莊區"
"242020","135-UY","2017/09/14 08:39:00","新北市新莊區新興街80號","121.45066","25.0381566666667","6500500","新莊區"
"242045","172-VK","2017/09/14 08:38:50","新北市新莊區福營路279號","121.427383333333","25.0293933333333","6500500","新莊區"
"242008","173-VK","2017/09/14 08:39:07","新北市新莊區昌平街59巷46號","121.45353","25.0532483333333","6500500","新莊區"
"242014","175-VK","2017/09/14 08:38:48","新北市新莊區中平路184巷10弄10號","121.445515","25.04812","6500500","新莊區"
"242001","176-VK","2017/09/14 08:39:01","新北市新莊區碧江街39-1號","121.451845","25.03294","6500500","新莊區"
"242012","346-TH","2017/09/14 08:39:03","新北市新莊區中港路391號","121.451318333333","25.0469316666667","6500500","新莊區"
"242018","348-TH","2017/09/14 08:38:55","新北市新莊區公園路216號","121.455788333333","25.0404483333333","6500500","新莊區"
"242055","349-TH","2017/09/14 08:38:47","新北市新莊區豐年街53-1號","121.446488333333","25.03143","6500500","新莊區"
"242016","350-TH","2017/09/14 08:38:49","新北市新莊區中港路397號","121.451958333333","25.0469416666667","6500500","新莊區"
"242010","351-TH","2017/09/14 08:39:03","新北市新莊區中港路591巷9號","121.45068","25.0522783333333","6500500","新莊區"
