"lineid","car","time","location","longitude","latitude","cityid","cityname"
"248007","095-VK","2017/09/14 15:09:09","新北市五股區中興路一段1巷15號","121.46977","25.07119","6501500","五股區"
"248003","677-BX","2017/09/14 15:09:05","新北市五股區成泰路一段132號","121.4351","25.0755383333333","6501500","五股區"
"244003","657-BX","2017/09/14 15:09:07","新北市林口區竹林路267號","121.38956","25.08084","6501700","林口區"
"244025","837-TS","2017/09/14 09:46:40","新北市林口區粉寮路二段160巷28號","121.405193333333","25.0907316666667","6501700","林口區"
"243001","297-R6","2017/09/14 15:09:02","新北市泰山區泰林路二段542巷3弄3號","121.423251666667","25.0641566666667","6501600","泰山區"
"243006","421-VK","2017/09/14 15:09:03","新北市泰山區泰林路三段745巷145號","121.405523333333","25.0677016666667","6501600","泰山區"
"243002","KEA-2215","2017/09/14 15:08:55","新北市泰山區泰林路二段608號","121.42125","25.0637683333333","6501600","泰山區"
"243003","KEA-2216","2017/09/14 15:08:51","新北市泰山區新北大道七段18號","121.420363333333","25.03223","6501600","泰山區"
"243008","680-BX","2017/09/14 15:09:06","新北市泰山區明志路二段210-1號","121.42738","25.049185","6501600","泰山區"
"231002","002-UM","2017/09/14 15:09:05","新北市新店區中正路539-5號","121.533526666667","24.986535","6500600","新店區"
"231028","046-UY","2017/09/14 15:08:52","新北市新店區僑信路100號","121.500018333333","24.9474166666667","6500600","新店區"
"231030","047-UY","2017/09/14 15:08:59","新北市新店區安民街339號","121.516966666667","24.974845","6500600","新店區"
"231029","106-UY","2017/09/14 15:09:01","新北市新店區安康路三段740號","121.473811666667","24.9419833333333","6500600","新店區"
"231011","108-UY","2017/09/14 15:08:53","新北市新店區中興路三段205巷1號","121.543475","24.98164","6500600","新店區"
"231018","110-UY","2017/09/14 15:08:56","新北市新店區中央六街27號","121.529296666667","24.9751333333333","6500600","新店區"
"231021","187-VK","2017/09/14 15:08:50","新北市新店區永福路36-8號","121.561905","24.929655","6500600","新店區"
"231007","189-VK","2017/09/14 12:01:55","新北市新店區安華路28-1號","121.519563333333","24.96112","6500600","新店區"
"231017","215-TC","2017/09/14 15:02:51","新北市新店區明山路5號","121.563215","24.9554133333333","6500600","新店區"
"231026","256-BX","2017/09/14 15:08:51","新北市新店區建興街7號","121.539896666667","24.9763916666667","6500600","新店區"
"231034","268-BY","2017/09/14 15:08:51","新北市新店區玫瑰路4-1號","121.493643333333","24.9514033333333","6500600","新店區"
"231023","AAD-862","2017/09/14 15:08:47","新北市新店區檳榔路105號","121.544731666667","24.961625","6500600","新店區"
"231024","3713-VJ","2017/09/14 15:09:07","新北市新店區中華路42巷10號","121.540428333333","24.968485","6500600","新店區"
"231025","4716-K9","2017/09/14 15:09:08","新北市新店區民權路105巷7號","121.53678","24.9820066666667","6500600","新店區"
"231036","512-UM","2017/09/14 15:09:04","新北市新店區安祥路104巷25號","121.481766666667","24.9633283333333","6500600","新店區"
"231035","515-UM","2017/09/14 15:08:53","新北市新店區安和路三段120巷20號","121.517948333333","24.9858816666667","6500600","新店區"
"231003","616-UM","2017/09/14 15:09:03","新北市新店區寶橋路221號","121.549271666667","24.977525","6500600","新店區"
"231006","617-UM","2017/09/14 15:08:48","新北市新店區新坡一街23號","121.549625","24.96314","6500600","新店區"
"231001","619-UM","2017/09/14 15:08:56","新北市新店區中正路262巷1弄9號","121.538921666667","24.973895","6500600","新店區"
"231039","718-UY","2017/09/14 15:08:52","新北市新店區寶元路一段65號","121.5422","24.9858466666667","6500600","新店區"
"231031","720-UM","2017/09/14 15:08:50","新北市新店區安泰路109-3號","121.486686666667","24.9436983333333","6500600","新店區"
"231005","897-TW","2017/09/14 15:08:54","新北市新店區順安街67號","121.540693333333","24.9864833333333","6500600","新店區"
"231004","899-TW","2017/09/14 15:08:54","新北市新店區建國路40號","121.540548333333","24.9747366666667","6500600","新店區"
"231037","AKT-0513","2017/09/14 15:09:01","新北市新店區安民街365巷7弄3號","121.516093333333","24.9752316666667","6500600","新店區"
"235030","003-UY","2017/09/14 15:08:59","新北市中和區水源路127巷11號","121.50804","25.003725","6500300","中和區"
"235003","097-UM","2017/09/14 15:08:54","新北市中和區宜安路52巷22號","121.512508333333","24.9973516666667","6500300","中和區"
"235029","098-UM","2017/09/14 15:08:55","新北市中和區福美路310號","121.496861666667","25.00479","6500300","中和區"
"235004","150-BY","2017/09/14 15:08:57","新北市中和區中和路262號","121.508498333333","24.99943","6500300","中和區"
"235022","151-BY","2017/09/14 15:08:50","新北市中和區中正路828號","121.484916666667","25.0036283333333","6500300","中和區"
"235007","352-BY","2017/09/14 15:08:52","新北市中和區興南路二段159巷10號","121.505105","24.9832633333333","6500300","中和區"
"235032","377-QA","2017/09/14 15:09:08","新北市中和區永和路39巷2號","121.498","25.0049516666667","6500300","中和區"
"235014","4979-A6","2017/09/14 15:09:01","新北市中和區景平路221巷12號","121.510006666667","24.9923316666667","6500300","中和區"
"235033","4980-A6","2017/09/14 15:09:04","新北市中和區景新街50巷10號","121.503423333333","24.9984883333333","6500300","中和區"
"235034","558-UM","2017/09/14 15:08:49","新北市中和區景平路626巷9號","121.500636666667","24.9978766666667","6500300","中和區"
"235018","640-BX","2017/09/14 15:08:55","新北市中和區中山路三段207號","121.47208","25.0063816666667","6500300","中和區"
"235012","896-TW","2017/09/14 15:09:01","新北市中和區興南路一段156號","121.50827","24.9868566666667","6500300","中和區"
"235001","AAC-213","2017/09/14 15:08:56","新北市中和區自立路22號","121.5223","24.9932433333333","6500300","中和區"
"235023","AAC-215","2017/09/14 15:09:00","新北市中和區圓通路335巷45號","121.494268333333","24.98913","6500300","中和區"
"220016","013-TV","2017/09/14 15:09:05","新北市板橋區光復街230號","121.484806666667","25.0213133333333","6500100","板橋區"
"220013","072-UY","2017/09/14 15:08:52","新北市板橋區縣民大道二段68-1號","121.463578333333","25.0130166666667","6500100","板橋區"
"220105","075-UY","2017/09/14 15:08:54","新北市板橋區文聖街13號","121.475478333333","25.0323266666667","6500100","板橋區"
"220017","AAD-861","2017/09/14 15:09:05","新北市板橋區大明街18-8號","121.458808333333","25.0025983333333","6500100","板橋區"
"220051","120-SR","2017/09/14 15:09:06","新北市板橋區民治街135號","121.477655","25.0307583333333","6500100","板橋區"
"247007","053-VK","2017/09/14 15:08:53","新北市五股區凌雲路三段24巷21-6號","121.434376666667","25.1075133333333","6501400","蘆洲區"
"228004","212-TW","2017/09/14 15:09:08","新北市貢寮區雙玉里田寮洋街16-2號","121.921786666667","25.02524","6502600","貢寮區"
"208004","AAC-292","2017/09/14 15:08:54","新北市金山區六股里下六股1-1號","121.628333333333","25.224195","6502700","金山區"
"207002","749-BX","2017/09/14 15:09:01","新北市萬里區崁腳里內中福路73-1號","121.654948333333","25.1672033333333","6502800","萬里區"
"207001","662-BX","2017/09/14 15:08:48","新北市萬里區雙興里麗水路3-2號","121.653395","25.18167","6502800","萬里區"
"237014","756-BX","2017/09/14 15:08:48","新北市三峽區介壽路一段392號","121.38346","24.9308133333333","6500900","三峽區"
"236066","105-UM","2017/09/14 15:08:52","新北市土城區中央路一段48號","121.447688333333","24.9898483333333","6501300","土城區"
"236040","107-UM","2017/09/14 15:08:54","新北市土城區學士路26號","121.45303","24.9824333333333","6501300","土城區"
"236076","166-UM","2017/09/14 15:09:05","新北市土城區中州路3巷42弄1號","121.413696666667","24.9566916666667","6501300","土城區"
"236028","253-BX","2017/09/14 15:09:04","新北市土城區中央路二段50巷16弄58號","121.442031666667","24.9804316666667","6501300","土城區"
"236024","269-VK","2017/09/14 15:09:07","新北市土城區中正路68號","121.444393333333","24.9754633333333","6501300","土城區"
"236012","270-VK","2017/09/14 15:08:51","新北市土城區學府路一段21-1號","121.458721666667","24.9884316666667","6501300","土城區"
"236033","271-VK","2017/09/14 15:09:05","新北市土城區青雲路230號","121.458961666667","24.98088","6501300","土城區"
"236018","401-BY","2017/09/14 15:09:02","新北市土城區延峰街36巷2號","121.469606666667","24.9847183333333","6501300","土城區"
"236056","912-UM","2017/09/14 15:09:06","新北市土城區清水路3號","121.45288","24.980245","6501300","土城區"
"236047","913-UM","2017/09/14 15:08:52","新北市土城區裕民路285號","121.455885","24.9816383333333","6501300","土城區"
"236060","915-UM","2017/09/14 15:09:05","新北市土城區延平街45號","121.467956666667","24.9921766666667","6501300","土城區"
"236052","AAC-216","2017/09/14 15:08:49","新北市土城區學成路1號","121.453473333333","24.9862983333333","6501300","土城區"
"238002","755-BX","2017/09/14 15:09:06","新北市樹林區育德街78-1號","121.38801","24.968265","6500700","樹林區"
"238010","601-UM","2017/09/14 15:08:57","新北市樹林區八德街826號","121.394418333333","24.9687466666667","6500700","樹林區"
"238006","599-UM","2017/09/14 15:08:49","新北市樹林區育德街78-1號","121.388528333333","24.9681483333333","6500700","樹林區"
"238005","571-TV","2017/09/14 15:09:00","新北市樹林區八德街584號","121.399101666667","24.9693316666667","6500700","樹林區"
"238011","5061-A6","2017/09/14 15:08:58","新北市樹林區八德街624號","121.397556666667","24.9692516666667","6500700","樹林區"
"238008","KEA-2217","2017/09/14 15:08:58","新北市樹林區八德街828-2號","121.394153333333","24.9669483333333","6500700","樹林區"
"238009","KEA-2213","2017/09/14 15:09:08","新北市樹林區育德街78號","121.38816","24.96834","6500700","樹林區"
"238012","303-VK","2017/09/14 15:08:48","新北市樹林區八德街828-7號","121.392876666667","24.968595","6500700","樹林區"
"238004","283-BY","2017/09/14 15:09:02","新北市樹林區八德街1012號","121.39139","24.968535","6500700","樹林區"
"238001","282-BY","2017/09/14 15:09:04","新北市樹林區八德街1172號","121.390175","24.9682916666667","6500700","樹林區"
"238013","172-UY","2017/09/14 02:13:49","新北市樹林區育德街78-1號","121.387731666667","24.968165","6500700","樹林區"
"238003","169-UY","2017/09/14 15:08:54","新北市樹林區八德街674號","121.395825","24.968935","6500700","樹林區"
"221012","276-VK","2017/09/14 13:16:06","新北市汐止區汐萬路一段256巷3號","121.653461666667","25.07459","6501100","汐止區"
"221002","753-BX","2017/09/14 15:09:10","新北市汐止區明峰街310號","121.625071666667","25.067595","6501100","汐止區"
"220027","145-BY","2017/09/14 15:08:58","新北市板橋區大觀路三段8-1號","121.434546666667","24.9954416666667","6500100","板橋區"
"220028","200-UY","2017/09/14 15:09:09","新北市板橋區大觀路二段187巷17號","121.4457","24.999465","6500100","板橋區"
"220030","610-BX","2017/09/14 15:09:08","新北市板橋區篤行路一段39號","121.432243333333","24.99397","6500100","板橋區"
"220046","257-TC","2017/09/14 15:09:04","新北市板橋區光正街9巷22弄2號","121.462605","25.0165316666667","6500100","板橋區"
"220040","267-BY","2017/09/14 15:09:06","新北市板橋區民治街132號","121.477751666667","25.03084","6500100","板橋區"
"220050","280-UM","2017/09/14 15:08:58","新北市板橋區雙十路一段44巷36號","121.477026666667","25.0250483333333","6500100","板橋區"
"220019","283-VK","2017/09/14 15:09:03","新北市板橋區和平路174巷43號","121.465501666667","24.9938983333333","6500100","板橋區"
"220043","285-UM","2017/09/14 15:08:58","新北市板橋區陽明街12號","121.466588333333","25.0217583333333","6500100","板橋區"
"220001","285-VK","2017/09/14 15:08:59","新北市板橋區懷仁街91號","121.477538333333","25.0181733333333","6500100","板橋區"
"220031","286-VK","2017/09/14 15:09:02","新北市板橋區僑中二街92巷1號","121.446311666667","25.00888","6500100","板橋區"
"220029","287-VK","2017/09/14 15:08:21","新北市板橋區僑中一街80巷7弄1號","121.447676666667","25.0127766666667","6500100","板橋區"
"220039","288-VK","2017/09/14 15:09:01","新北市板橋區幸福路32巷59號","121.460335","25.0221716666667","6500100","板橋區"
"220009","295-UM","2017/09/14 15:09:04","新北市板橋區四川路一段274巷1號","121.458635","25.0010966666667","6500100","板橋區"
"220023","297-UM","2017/09/14 15:08:56","新北市板橋區金華街10巷83號","121.45821","25.0204616666667","6500100","板橋區"
"242001","281-VK","2017/09/14 15:09:07","新北市新莊區碧江街27號","121.453593333333","25.03374","6500500","新莊區"
"220010","305-R5","2017/09/14 15:08:59","新北市板橋區縣民大道二段82號","121.465653333333","25.0143983333333","6500100","板橋區"
"220041","307-R5","2017/09/14 15:08:52","新北市板橋區文化路一段123號","121.461925","25.0148483333333","6500100","板橋區"
"220047","317-R6","2017/09/14 15:09:07","新北市板橋區新海路160號","121.460915","25.0240983333333","6500100","板橋區"
"220022","461-BY","2017/09/14 15:08:55","新北市板橋區館前西路90號","121.457455","25.00721","6500100","板橋區"
"220012","486-VK","2017/09/14 15:09:07","新北市板橋區漢生東路193巷7-1號","121.47033","25.0118633333333","6500100","板橋區"
"220038","487-VK","2017/09/14 15:08:52","新北市板橋區新海路403巷3號","121.45833","25.0266266666667","6500100","板橋區"
"220037","491-VK","2017/09/14 15:09:03","新北市板橋區民治街53-1號","121.479371666667","25.0335866666667","6500100","板橋區"
"220052","561-BX","2017/09/14 15:09:06","新北市板橋區陽明街134號","121.463583333333","25.02382","6500100","板橋區"
"220032","568-UM","2017/09/14 15:08:50","新北市樹林區博愛街181號","121.424843333333","24.9890933333333","6500100","板橋區"
"220011","609-BX","2017/09/14 15:09:08","新北市板橋區三民路一段147號","121.479146666667","25.0197883333333","6500100","板橋區"
"220025","687-BX","2017/09/14 15:09:07","新北市板橋區僑中一街124巷17弄2號","121.446085","25.01385","6500100","板橋區"
"220042","689-BX","2017/09/14 15:08:53","新北市板橋區長江路三段122號","121.475288333333","25.0344766666667","6500100","板橋區"
"220002","741-BX","2017/09/14 15:08:57","新北市板橋區忠孝路忠義巷14弄2號","121.46543","25.003565","6500100","板橋區"
"220003","827-TW","2017/09/14 15:08:50","新北市板橋區仁愛路62巷15弄2號","121.460001666667","24.9984466666667","6500100","板橋區"
"220014","829-TW","2017/09/14 15:09:07","新北市板橋區中山路一段206巷4弄2號","121.47022","25.0131666666667","6500100","板橋區"
"220045","831-TW","2017/09/14 15:09:06","新北市板橋區莒光路40巷11號","121.470378333333","25.0235433333333","6500100","板橋區"
"220018","AAC-253","2017/09/14 15:09:08","新北市板橋區德興街30號","121.453353333333","24.9939166666667","6500100","板橋區"
