"lineid","car","time","location","longitude","latitude","cityid","cityname"
"249005","172-UM","2017/09/14 16:48:38","新北市八里區大堀湖1-5號","121.422871666667","25.1549966666667","6502300","八里區"
"249001","173-UM","2017/09/14 16:48:39","新北市八里區挖子尾街6號","121.415411666667","25.1641583333333","6502300","八里區"
"249004","303-UY","2017/09/14 16:47:25","新北市八里區博物館路73號","121.411128333333","25.160945","6502300","八里區"
"249002","305-UY","2017/09/14 16:48:26","新北市八里區牛寮埔31號","121.429861666667","25.145755","6502300","八里區"
"249003","593-UM","2017/09/14 16:48:43","新北市八里區博物館路179號","121.40622","25.1571866666667","6502300","八里區"
"244007","080-UY","2017/09/14 16:48:40","新北市林口區竹林路326巷50號","121.39321","25.0808083333333","6501700","林口區"
"244019","403-UM","2017/09/14 16:48:37","新北市林口區粉寮69號","121.405123333333","25.0907916666667","6501700","林口區"
"244025","837-TS","2017/09/14 16:48:02","新北市林口區粉寮路二段160巷28號","121.405185","25.0907733333333","6501700","林口區"
"243009","297-R6","2017/09/14 16:16:02","新北市泰山區黎明路23-1號","121.421766666667","25.061285","6501600","泰山區"
"231007","189-VK","2017/09/14 12:01:55","新北市新店區安華路28-1號","121.519563333333","24.96112","6500600","新店區"
"231046","278-BY","2017/09/14 16:48:43","新北市新店區灣潭路15-6號","121.542048333333","24.9412016666667","6500600","新店區"
"241011","013-R5","2017/09/14 16:48:36","新北市三重區仁愛街53巷77號","121.498205","25.0723016666667","6500200","三重區"
"241028","022-UY","2017/09/14 16:48:34","新北市三重區光興街91號","121.497353333333","25.059925","6500200","三重區"
"241008","059-VK","2017/09/14 16:48:37","新北市三重區永安北路一段17巷11號","121.477303333333","25.0750766666667","6500200","三重區"
"241009","060-VK","2017/09/14 16:48:43","新北市三重區三和路四段203巷246號","121.487123333333","25.0809466666667","6500200","三重區"
"241031","061-VK","2017/09/14 16:48:32","新北市三重區過圳街19號","121.488138333333","25.0602716666667","6500200","三重區"
"241015","062-VK","2017/09/14 16:48:34","新北市三重區文化北路41-5號","121.499098333333","25.0654916666667","6500200","三重區"
"241017","063-VK","2017/09/14 16:48:32","新北市三重區國隆路8巷23號","121.492861666667","25.0635116666667","6500200","三重區"
"241024","065-VK","2017/09/14 16:48:35","新北市三重區中正北路317巷16號","121.474955","25.07292","6500200","三重區"
"241026","066-VK","2017/09/14 16:48:36","新北市三重區文化南路8-4號","121.500266666667","25.0620816666667","6500200","三重區"
"241002","090-VK","2017/09/14 16:48:33","新北市三重區仁義街239號","121.496401666667","25.082615","6500200","三重區"
"241005","262-UM","2017/09/14 16:48:45","新北市三重區仁華街80巷13號","121.484666666667","25.083445","6500200","三重區"
"241003","265-UM","2017/09/14 16:48:40","新北市三重區五華街87巷20號","121.492683333333","25.083835","6500200","三重區"
"241016","266-UM","2017/09/14 16:48:33","新北市三重區大同北路117號","121.49412","25.0642766666667","6500200","三重區"
"241022","267-UM","2017/09/14 16:48:28","新北市三重區中華路111巷6號","121.483923333333","25.0634816666667","6500200","三重區"
"241018","268-UM","2017/09/14 16:48:28","新北市三重區安樂街94號","121.494641666667","25.0692866666667","6500200","三重區"
"241032","269-UM","2017/09/14 16:48:36","新北市三重區重陽路一段120巷24號","121.485698333333","25.0601116666667","6500200","三重區"
"241013","270-UM","2017/09/14 16:48:38","新北市三重區三和路三段101巷117號","121.497555","25.0732816666667","6500200","三重區"
"241025","271-UM","2017/09/14 16:48:39","新北市三重區中正北路530巷8號","121.47208","25.0710966666667","6500200","三重區"
"241007","398-BY","2017/09/14 16:48:32","新北市三重區三和路四段171號","121.482993333333","25.07884","6500200","三重區"
"241020","413-TH","2017/09/14 16:48:22","新北市三重區忠孝路二段35號","121.48589","25.07107","6500200","三重區"
"241004","475-VK","2017/09/14 16:48:31","新北市三重區仁愛街423-1號","121.490363333333","25.0814866666667","6500200","三重區"
"241019","478-VK","2017/09/14 16:48:41","新北市三重區力行路一段179巷17弄1號","121.484963333333","25.06986","6500200","三重區"
"241030","480-VK","2017/09/14 16:48:30","新北市三重區中正南路275號","121.492585","25.052575","6500200","三重區"
"241014","543-UM","2017/09/14 16:48:27","新北市三重區長榮路75號","121.502541666667","25.0690983333333","6500200","三重區"
"241023","545-UM","2017/09/14 16:48:37","新北市三重區中華路76巷37-1號","121.482028333333","25.0625866666667","6500200","三重區"
"241001","547-UM","2017/09/14 16:48:40","新北市三重區仁政街76巷9號","121.492125","25.0772716666667","6500200","三重區"
"241006","AAD-863","2017/09/14 16:48:11","新北市三重區力行路二段138-1號","121.482501666667","25.0758066666667","6500200","三重區"
"241012","941-UM","2017/09/14 16:48:34","新北市三重區仁興街11巷42號","121.500806666667","25.0744033333333","6500200","三重區"
"241029","942-UM","2017/09/14 16:48:39","新北市三重區集美街205號","121.491768333333","25.05447","6500200","三重區"
"241033","AAC-255","2017/09/14 16:48:31","新北市三重區新北大道二段139巷21號","121.46655","25.060425","6500200","三重區"
"235064","005-UY","2017/09/14 16:48:21","新北市中和區員山路36巷16-3號","121.48516","24.9913383333333","6500300","中和區"
"235034","611-BX","2017/09/14 16:48:35","新北市中和區員山路36巷16-3號","121.485081666667","24.99129","6500300","中和區"
"235026","800-TS","2017/09/14 16:48:40","新北市中和區中正路408號","121.492268333333","24.994195","6500300","中和區"
"247004","336-TH","2017/09/14 16:48:27","新北市蘆洲區三民路593-1號","121.461096666667","25.093565","6501400","蘆洲區"
"247016","057-VK","2017/09/14 16:48:36","新北市蘆洲區中正路187號","121.468673333333","25.0856933333333","6501400","蘆洲區"
"247006","056-VK","2017/09/14 16:48:43","新北市蘆洲區長安街49巷8弄1號","121.462356666667","25.0786483333333","6501400","蘆洲區"
"247008","053-VK","2017/09/14 16:48:40","新北市蘆洲區中山一路203號","121.47426","25.08105","6501400","蘆洲區"
"247014","007-UY","2017/09/14 16:48:27","新北市蘆洲區三民路91-1號","121.473681666667","25.0844433333333","6501400","蘆洲區"
"247018","001-UY","2017/09/14 16:48:30","新北市蘆洲區中正路520巷30-20號","121.471253333333","25.09808","6501400","蘆洲區"
"228003","097-TW","2017/09/14 16:48:43","新北市貢寮區貢寮里朝陽街1-2號","121.912358333333","25.0212866666667","6502600","貢寮區"
"228002","585-TW","2017/09/14 16:48:32","新北市貢寮區貢寮里朝陽街140巷5號","121.907298333333","25.022485","6502600","貢寮區"
"224010","AGQ-8101","2017/09/14 09:00:47","新北市瑞芳區民權街3-1號","121.809403333333","25.1082783333333","6501200","瑞芳區"
"224006","676-BX","2017/09/14 16:48:27","新北市瑞芳區大寮路356-1號","121.784793333333","25.1033433333333","6501200","瑞芳區"
"224009","285-BY","2017/09/14 16:47:58","新北市瑞芳區傑魚坑路235-1號","121.785863333333","25.1038","6501200","瑞芳區"
"224008","275-VK","2017/09/14 16:48:32","新北市瑞芳區民權街3-1號","121.809288333333","25.108345","6501200","瑞芳區"
"224007","273-VK","2017/09/14 16:48:41","新北市瑞芳區中央路48巷56-26號","121.759396666667","25.1037683333333","6501200","瑞芳區"
"224005","271-BY","2017/09/14 16:48:41","新北市瑞芳區明里路54號","121.868538333333","25.12228","6501200","瑞芳區"
"227010","642-TC","2017/09/14 16:48:31","新北市雙溪區牡丹里石1-1號","121.864781666667","25.04805","6502500","雙溪區"
"227004","030-BX","2017/09/14 16:48:25","新北市雙溪區外柑里外柑腳71號","121.807128333333","25.017615","6502500","雙溪區"
"251007","179-VK","2017/09/14 16:48:25","新北市淡水區中正路二段31號","121.419261666667","25.1817233333333","6501000","淡水區"
"251008","181-VK","2017/09/14 16:48:24","新北市淡水區樹梅坑42號","121.474556666667","25.1442783333333","6501000","淡水區"
"251014","182-VK","2017/09/14 16:48:32","新北市淡水區興仁路157號","121.45162","25.2196316666667","6501000","淡水區"
"251012","441-VK","2017/09/14 16:48:26","新北市淡水區中正路二段31號","121.419715","25.1815066666667","6501000","淡水區"
"251016","442-VK","2017/09/14 16:48:35","新北市淡水區水頭42號","121.478193333333","25.1852633333333","6501000","淡水區"
"251011","650-BX","2017/09/14 16:48:39","新北市淡水區中正路一段33號","121.425835","25.1766183333333","6501000","淡水區"
"252002","178-VK","2017/09/14 16:48:31","新北市三芝區忠孝街116號","121.505958333333","25.2575183333333","6502100","三芝區"
"252001","292-VK","2017/09/14 16:48:29","新北市三芝區埔坪里埔頭坑44號","121.504683333333","25.26174","6502100","三芝區"
"237014","756-BX","2017/09/14 15:48:00","新北市三峽區中山路459巷163-3號","121.348871666667","24.93307","6500900","三峽區"
"242046","172-VK","2017/09/14 14:53:03","新北市新莊區新泰路255巷83號","121.442083333333","25.0388166666667","6500500","新莊區"
"242013","346-TH","2017/09/14 10:47:10","新北市新莊區三和路12-16號","121.44234","25.0373466666667","6500500","新莊區"
"238010","601-UM","2017/09/14 16:48:37","新北市樹林區中山路三段172號","121.388818333333","24.970065","6500700","樹林區"
"238004","283-BY","2017/09/14 16:48:42","新北市樹林區光武街28號","121.415821666667","25.0055916666667","6500700","樹林區"
"238001","282-BY","2017/09/14 16:48:24","新北市樹林區大慶街99-1號","121.427645","24.9995883333333","6500700","樹林區"
"238003","169-UY","2017/09/14 16:48:34","新北市樹林區中山路二段34號","121.417465","24.9849533333333","6500700","樹林區"
"239007","AAC-297","2017/09/14 04:39:44","新北市鶯歌區二甲路13-16號","121.344888333333","24.9355366666667","6500800","鶯歌區"
"239008","527-UM","2017/09/14 02:12:13","新北市鶯歌區二甲路13-16號","121.34514","24.9354116666667","6500800","鶯歌區"
"239005","526-UM","2017/09/14 03:59:28","新北市鶯歌區二甲路13-16號","121.34471","24.935215","6500800","鶯歌區"
"239001","417-VK","2017/09/14 16:48:41","新北市鶯歌區二甲路12-2號","121.345605","24.9347316666667","6500800","鶯歌區"
"239003","360-BY","2017/09/14 16:48:38","新北市鶯歌區二甲路12-2號","121.345488333333","24.93506","6500800","鶯歌區"
"239002","359-BY","2017/09/13 15:30:11","新北市鶯歌區二甲路171-1號","121.344095","24.9354916666667","6500800","鶯歌區"
"221012","276-VK","2017/09/14 13:16:06","新北市汐止區汐萬路一段256巷3號","121.653461666667","25.07459","6501100","汐止區"
"220050","280-UM","2017/09/14 16:48:38","新北市板橋區華興街91巷4號","121.45648","25.0051366666667","6500100","板橋區"
"242001","281-VK","2017/09/14 16:48:25","新北市新莊區環河路636-7號","121.437353333333","25.0112333333333","6500500","新莊區"
"220018","AAC-253","2017/09/14 16:48:28","新北市板橋區華東街11號","121.450523333333","24.9977666666667","6500100","板橋區"
