"lineid","car","time","location","longitude","latitude","cityid","cityname"
"234007","207-UY","2017/09/14 18:08:26","新北市永和區環河西路一段1號","121.515576666667","25.0181783333333","6500400","永和區"
"234026","9371-KE","2017/09/14 18:09:18","新北市永和區自由街33號","121.514346666667","25.0063416666667","6500400","永和區"
"234011","9373-KE","2017/09/14 18:09:30","新北市永和區福和路1號","121.525721666667","25.00942","6500400","永和區"
"249005","172-UM","2017/09/14 18:08:58","新北市八里區荖阡坑路15號","121.401738333333","25.1398483333333","6502300","八里區"
"249001","173-UM","2017/09/14 18:08:59","新北市八里區龍米路二段35號","121.448425","25.1400683333333","6502300","八里區"
"249004","303-UY","2017/09/14 18:09:25","新北市八里區龍米路二段156-1號","121.435343333333","25.1577066666667","6502300","八里區"
"249002","305-UY","2017/09/14 18:09:26","新北市八里區龍米路一段356巷48號","121.452103333333","25.130235","6502300","八里區"
"249003","593-UM","2017/09/14 18:09:23","新北市八里區中華路二段165巷19弄15號","121.409585","25.1513","6502300","八里區"
"248014","025-BX","2017/09/14 18:09:22","新北市五股區成泰路一段191號","121.43482","25.0765416666667","6501500","五股區"
"248016","026-BX","2017/09/14 18:09:08","新北市五股區成泰路三段146號","121.44435","25.08983","6501500","五股區"
"248006","077-UY","2017/09/14 18:09:19","新北市五股區中興路二段86號","121.46063","25.077385","6501500","五股區"
"248008","095-VK","2017/09/14 18:09:28","新北市五股區更洲路32巷8弄13號","121.459746666667","25.0797866666667","6501500","五股區"
"248020","225-UY","2017/09/14 18:09:15","新北市五股區成泰路三段544-1號","121.454851666667","25.10059","6501500","五股區"
"248012","247-BX","2017/09/14 18:09:28","新北市五股區新五路二段258號","121.441011666667","25.0821866666667","6501500","五股區"
"248010","272-BY","2017/09/14 18:09:23","新北市五股區成泰路一段229-1號","121.43426","25.0776483333333","6501500","五股區"
"248004","677-BX","2017/09/14 18:08:57","新北市五股區工商路48號","121.439143333333","25.08398","6501500","五股區"
"232011","375-UM","2017/09/14 18:09:00","新北市坪林區下坑子口5-9號","121.713578333333","24.9423333333333","6502000","坪林區"
"244013","069-UM","2017/09/14 18:08:56","新北市林口區中山路11號","121.396226666667","25.0782333333333","6501700","林口區"
"244007","080-UY","2017/09/14 18:09:23","新北市林口區林口路113巷57號","121.387693333333","25.0795266666667","6501700","林口區"
"244019","403-UM","2017/09/14 18:08:57","新北市林口區麗園路121號","121.371528333333","25.0675416666667","6501700","林口區"
"244009","410-SL","2017/09/14 18:09:18","新北市林口區竹林路586號","121.386136666667","25.0826566666667","6501700","林口區"
"244023","483-VK","2017/09/14 18:09:18","新北市林口區隆林街139巷15號","121.383998333333","25.0739216666667","6501700","林口區"
"244017","485-VK","2017/09/14 18:09:32","新北市林口區文化一路一段15巷4號","121.369483333333","25.06912","6501700","林口區"
"244011","656-BX","2017/09/14 18:09:38","新北市林口區中正路74巷5弄2號","121.39465","25.0779966666667","6501700","林口區"
"244025","837-TS","2017/09/14 18:09:22","新北市林口區文明街182號","121.360856666667","25.072445","6501700","林口區"
"244021","838-TS","2017/09/14 18:09:13","新北市林口區自強三街33號","121.398423333333","25.0772683333333","6501700","林口區"
"243013","AAD-798","2017/09/14 18:08:16","新北市泰山區黎明路47號","121.422048333333","25.0574933333333","6501600","泰山區"
"243009","297-R6","2017/09/14 16:16:02","新北市泰山區黎明路23-1號","121.421766666667","25.061285","6501600","泰山區"
"222003","436-BY","2017/09/14 18:09:18","新北市深坑區腳坑5號","121.609685","24.9946233333333","6501800","深坑區"
"222002","659-BX","2017/09/14 18:09:22","新北市深坑區文化街52號","121.619036666667","25.0016433333333","6501800","深坑區"
"222001","696-SL","2017/09/14 18:09:32","新北市深坑區北深路二段151號","121.614123333333","25.0021866666667","6501800","深坑區"
"231060","106-UY","2017/09/14 18:09:23","新北市新店區安華路28-1號","121.519805","24.9609516666667","6500600","新店區"
"231052","187-VK","2017/09/14 18:09:32","新北市新店區安華路28-1號","121.519633333333","24.961315","6500600","新店區"
"231007","189-VK","2017/09/14 12:01:55","新北市新店區安華路28-1號","121.519563333333","24.96112","6500600","新店區"
"231046","278-BY","2017/09/14 18:09:23","新北市新店區下石厝路29-1號","121.534291666667","24.9291583333333","6500600","新店區"
"231054","AAD-862","2017/09/14 18:09:12","新北市新店區安華路28-1號","121.519793333333","24.961315","6500600","新店區"
"231055","3713-VJ","2017/09/14 18:09:28","新北市新店區安華路28-1號","121.519221666667","24.96071","6500600","新店區"
"231045","617-UM","2017/09/14 18:08:25","新北市新店區安華路28-1號","121.519436666667","24.9609516666667","6500600","新店區"
"231040","619-UM","2017/09/14 18:08:53","新北市新店區安華路28-1號","121.519535","24.960925","6500600","新店區"
"231062","720-UM","2017/09/14 18:09:20","新北市新店區安華路28-1號","121.519253333333","24.9611416666667","6500600","新店區"
"241024","743-BX","2017/09/14 18:08:57","新北市三重區中正北路193巷35弄49號","121.478013333333","25.0712766666667","6500200","三重區"
"241033","AAC-255","2017/09/14 18:08:11","新北市三重區光復路一段68巷58號","121.46991","25.04922","6500200","三重區"
"235064","005-UY","2017/09/14 18:09:33","新北市中和區員山路36巷16-3號","121.485108333333","24.9913816666667","6500300","中和區"
"235065","098-UM","2017/09/14 18:09:13","新北市中和區中山路二段2巷89號","121.500748333333","25.007745","6500300","中和區"
"235040","150-BY","2017/09/14 16:06:41","新北市中和區和城路一段271巷1號","121.4855","24.9915783333333","6500300","中和區"
"235058","151-BY","2017/09/14 18:09:17","新北市中和區圓通路367巷33弄15號","121.495271666667","24.9851033333333","6500300","中和區"
"235055","183-VK","2017/09/14 18:08:51","新北市中和區員山路36巷16-3號","121.485051666667","24.99139","6500300","中和區"
"235038","185-VK","2017/09/14 18:09:02","新北市中和區景平路265號","121.50826","24.9930083333333","6500300","中和區"
"235067","255-BX","2017/09/14 18:08:53","新北市中和區和城路一段271巷1號","121.485413333333","24.9918983333333","6500300","中和區"
"235051","376-QA","2017/09/14 18:09:14","新北市中和區中正路190-1號","121.497875","24.9938083333333","6500300","中和區"
"235061","378-QA","2017/09/14 18:09:32","新北市中和區中正路637巷60弄61號","121.485661666667","24.9927683333333","6500300","中和區"
"235050","4979-A6","2017/09/14 18:08:43","新北市中和區中正路171號","121.49788","24.9936183333333","6500300","中和區"
"235069","4980-A6","2017/09/14 18:09:17","新北市中和區中正路637巷52弄1號","121.485496666667","24.993485","6500300","中和區"
"235070","558-UM","2017/09/14 18:09:22","新北市中和區員山路36巷16-2號","121.485253333333","24.9916283333333","6500300","中和區"
"235045","565-BX","2017/09/14 18:09:12","新北市中和區中正路637巷60弄61號","121.485491666667","24.9932683333333","6500300","中和區"
"235034","611-BX","2017/09/14 17:53:47","新北市中和區員山路36巷16-3號","121.48516","24.9913466666667","6500300","中和區"
"235054","640-BX","2017/09/14 18:08:58","新北市中和區連城路523巷13弄10號","121.481921666667","24.9936383333333","6500300","中和區"
"235062","800-TS","2017/09/14 18:09:19","新北市中和區中山路二段498號","121.486805","25.0049933333333","6500300","中和區"
"235052","805-TS","2017/09/14 18:08:45","新北市中和區員山路36巷16-2號","121.4853","24.9916933333333","6500300","中和區"
"235037","AAC-213","2017/09/14 18:09:13","新北市中和區景平路490號","121.504841666667","24.9936616666667","6500300","中和區"
"247012","546-UM","2017/09/14 18:09:16","新北市蘆洲區信義路285號","121.47868","25.0854783333333","6501400","蘆洲區"
"247010","339-TH","2017/09/14 18:09:13","新北市蘆洲區中山二路300巷2號","121.46869","25.0771083333333","6501400","蘆洲區"
"247016","057-VK","2017/09/14 18:09:16","新北市蘆洲區光榮路93號","121.462495","25.0885516666667","6501400","蘆洲區"
"247008","053-VK","2017/09/14 18:09:00","新北市五股區成泰路三段544-1號","121.454516666667","25.1030216666667","6501400","蘆洲區"
"226004","312-R5","2017/09/14 18:09:08","新北市平溪區薯榔里薯榔寮30號","121.712966666667","25.0192333333333","6502400","平溪區"
"228003","097-TW","2017/09/14 18:08:43","新北市貢寮區真理里美艷山街6-2號","121.928918333333","25.0607033333333","6502600","貢寮區"
"228001","212-TW","2017/09/14 18:09:23","新北市貢寮區真理里新港街26巷55弄2-1號","121.927343333333","25.0528683333333","6502600","貢寮區"
"228002","585-TW","2017/09/14 18:09:12","新北市貢寮區福連里馬崗街35-1號","122.002066666667","25.0120866666667","6502600","貢寮區"
"224006","676-BX","2017/09/14 18:05:47","新北市瑞芳區傑魚坑路356號","121.79104","25.1100016666667","6501200","瑞芳區"
"224002","639-TC","2017/09/14 18:07:48","新北市瑞芳區三爪子坑路64-40號","121.808815","25.1055933333333","6501200","瑞芳區"
"224009","285-BY","2017/09/14 18:09:18","新北市瑞芳區金光路115號","121.853725","25.1062866666667","6501200","瑞芳區"
"224008","275-VK","2017/09/14 18:09:12","新北市瑞芳區逢甲路78-4號","121.810125","25.10858","6501200","瑞芳區"
"224007","273-VK","2017/09/14 18:09:12","新北市瑞芳區四腳亭埔路40-1號","121.778268333333","25.106045","6501200","瑞芳區"
"224005","271-BY","2017/09/14 18:09:34","新北市瑞芳區深澳路1號","121.816426666667","25.128575","6501200","瑞芳區"
"253005","032-BX","2017/09/14 18:09:31","新北市石門區福安街27號","121.568768333333","25.292385","6502200","石門區"
"253006","295-VK","2017/09/14 18:09:30","新北市石門區老梅路52巷25弄2-1號","121.546618333333","25.2876683333333","6502200","石門區"
"208002","742-BX","2017/09/14 18:08:49","新北市金山區三界壇路40巷8號","121.62181","25.2328366666667","6502700","金山區"
"208003","665-BX","2017/09/14 18:08:55","新北市金山區民生路31號","121.643443333333","25.221295","6502700","金山區"
"208001","761-BX","2017/09/14 18:09:29","新北市金山區磺港里磺港路71號","121.647426666667","25.226695","6502700","金山區"
"251009","008-UM","2017/09/14 18:09:34","新北市淡水區大忠街34巷13號","121.44387","25.1756383333333","6501000","淡水區"
"251004","009-UM","2017/09/14 18:09:04","新北市淡水區民族路45號","121.462668333333","25.135285","6501000","淡水區"
"251007","010-UM","2017/09/14 18:09:29","新北市淡水區中正東路二段143巷2弄1號","121.460703333333","25.147265","6501000","淡水區"
"251001","011-UM","2017/09/14 18:09:35","新北市淡水區自立路10號","121.463093333333","25.12963","6501000","淡水區"
"251008","181-VK","2017/09/14 18:09:04","新北市淡水區坪頂路70巷41號","121.460666666667","25.1604316666667","6501000","淡水區"
"251014","182-VK","2017/09/14 18:09:12","新北市淡水區南平11-3號","121.48622","25.2218016666667","6501000","淡水區"
"251010","413-VK","2017/09/14 18:09:16","新北市淡水區中正路二段50巷18號","121.420093333333","25.1834766666667","6501000","淡水區"
"251012","441-VK","2017/09/14 18:09:26","新北市淡水區北新路三段162號","121.49244","25.1918883333333","6501000","淡水區"
"251016","442-VK","2017/09/14 18:09:35","新北市淡水區下圭柔山15-2號","121.453338333333","25.20238","6501000","淡水區"
"251005","443-VK","2017/09/14 18:09:27","新北市淡水區水源街一段147號","121.447541666667","25.1718183333333","6501000","淡水區"
"251006","561-UM","2017/09/14 18:09:32","新北市淡水區真理街3巷20號","121.437596666667","25.1760566666667","6501000","淡水區"
"251011","650-BX","2017/09/14 18:09:18","新北市淡水區三空泉9-2號","121.474081666667","25.1635133333333","6501000","淡水區"
"251002","672-BX","2017/09/14 18:09:25","新北市淡水區中正東路一段12號","121.452293333333","25.162785","6501000","淡水區"
"251003","766-UM","2017/09/14 18:09:16","新北市淡水區北新路182巷20號","121.449028333333","25.1779966666667","6501000","淡水區"
"207003","550-UM","2017/09/14 18:09:26","新北市萬里區野柳里港西路701-2號","121.685328333333","25.2045683333333","6502800","萬里區"
"207004","225-TW","2017/09/14 18:09:23","新北市萬里區中幅里中福路111號","121.67645","25.1685116666667","6502800","萬里區"
"252003","249-BX","2017/09/14 18:09:27","新北市三芝區埔頭里埔頭37號","121.498408333333","25.2602983333333","6502100","三芝區"
"252001","292-VK","2017/09/14 18:09:29","新北市三芝區中興街二段2號","121.498386666667","25.2566333333333","6502100","三芝區"
"237004","078-UY","2017/09/14 18:09:32","新北市三峽區大埔路150-2號","121.365001666667","24.8971733333333","6500900","三峽區"
"237007","153-BY","2017/09/14 18:09:31","新北市三峽區中正路二段362號","121.365511666667","24.909885","6500900","三峽區"
"237009","210-TH","2017/09/14 18:09:18","新北市三峽區復興路303巷1弄3號","121.36566","24.93839","6500900","三峽區"
"237013","252-BX","2017/09/14 18:09:15","新北市三峽區長泰街70-2號","121.376701666667","24.9335733333333","6500900","三峽區"
"237012","275-BY","2017/09/14 17:58:32","新北市三峽區中華路48巷21號","121.371396666667","24.9300216666667","6500900","三峽區"
"237008","302-VK","2017/09/14 18:09:19","新北市三峽區白雞33-5號","121.375335","24.9123333333333","6500900","三峽區"
"237014","433-BY","2017/09/14 18:09:19","新北市三峽區復興路159號","121.370531666667","24.9384283333333","6500900","三峽區"
"237006","5529-G3","2017/09/14 18:09:10","新北市三峽區溪東路34巷13號","121.40046","24.93461","6500900","三峽區"
"237011","572-TV","2017/09/14 18:09:23","新北市三峽區介壽路三段16號","121.395708333333","24.9362866666667","6500900","三峽區"
"237016","649-BX","2017/09/14 18:08:07","新北市三峽區紫微路42-1號","121.422451666667","24.919905","6500900","三峽區"
"237010","706-TV","2017/09/14 18:09:28","新北市三峽區中園街20號","121.368368333333","24.92703","6500900","三峽區"
"237014","756-BX","2017/09/14 15:48:00","新北市三峽區中山路459巷163-3號","121.348871666667","24.93307","6500900","三峽區"
"237005","AKY-6261","2017/09/14 18:09:26","新北市三峽區文化路65巷7號","121.371905","24.9356283333333","6500900","三峽區"
"236071","105-UM","2017/09/14 18:09:12","新北市土城區青雲路456號","121.459498333333","24.9691716666667","6501300","土城區"
"236042","107-UM","2017/09/14 18:09:17","新北市土城區裕生路65-1號","121.447616666667","24.9859166666667","6501300","土城區"
"236078","166-UM","2017/09/14 18:09:33","新北市土城區永寧路51號","121.429793333333","24.9614433333333","6501300","土城區"
"236030","253-BX","2017/09/14 18:09:23","新北市土城區城林路6巷80號","121.438551666667","24.9795833333333","6501300","土城區"
"236026","269-VK","2017/09/14 18:09:29","新北市土城區承天路20號","121.439551666667","24.9633983333333","6501300","土城區"
"236014","270-VK","2017/09/14 18:09:33","新北市土城區學府路一段200號","121.452876666667","24.9857333333333","6501300","土城區"
"236037","271-VK","2017/09/14 18:09:17","新北市土城區青雲路336-1號","121.45889","24.9762266666667","6501300","土城區"
"236021","401-BY","2017/09/14 18:09:18","新北市土城區水源街91號","121.439405","24.9766433333333","6501300","土城區"
"236058","912-UM","2017/09/14 18:09:30","新北市土城區中央路四段43號","121.422686666667","24.96198","6501300","土城區"
"236051","913-UM","2017/09/14 18:09:33","新北市土城區金城路二段39巷2-1號","121.450165","24.9779766666667","6501300","土城區"
"236062","915-UM","2017/09/14 18:09:16","新北市土城區學士路181號","121.445923333333","24.9758083333333","6501300","土城區"
"236053","AAC-216","2017/09/14 18:09:31","新北市土城區中華路二段92號","121.438185","24.974655","6501300","土城區"
"242031","AAC-296","2017/09/14 18:09:09","新北市新莊區新泰路277巷53號","121.44369","25.0401183333333","6500500","新莊區"
"242029","986-R7","2017/09/14 18:09:20","新北市新莊區中平路88號","121.444816666667","25.0452733333333","6500500","新莊區"
"242051","751-BX","2017/09/14 18:09:13","新北市新莊區民本街11巷2弄29號","121.42916","25.0200166666667","6500500","新莊區"
"242025","615-BX","2017/09/14 18:09:33","新北市新莊區五權一路120號","121.460183333333","25.0683366666667","6500500","新莊區"
"242023","613-BX","2017/09/14 18:09:11","新北市新莊區幸福路914號","121.442553333333","25.0489983333333","6500500","新莊區"
"242027","612-BX","2017/09/14 18:09:34","新北市新莊區幸福路5號","121.459321666667","25.0493833333333","6500500","新莊區"
"242039","566-BX","2017/09/14 18:09:04","新北市新莊區民安西路38巷22號","121.426561666667","25.0205266666667","6500500","新莊區"
"242044","497-BY","2017/09/14 18:09:26","新北市新莊區天泉二街10號","121.415211666667","25.0247233333333","6500500","新莊區"
"242034","442-UM","2017/09/14 18:08:56","新北市新莊區新豐街63號","121.446538333333","25.03352","6500500","新莊區"
"242048","441-UM","2017/09/14 18:09:18","新北市新莊區民安路98巷27號","121.42328","25.0251666666667","6500500","新莊區"
"242053","440-UM","2017/09/14 18:09:17","新北市新莊區民安西路321號","121.427511666667","25.0111016666667","6500500","新莊區"
"242004","413-TV","2017/09/14 18:09:18","新北市新莊區自立街108號","121.455146666667","25.04523","6500500","新莊區"
"242042","400-BY","2017/09/14 18:09:09","新北市新莊區天祥街121巷16號","121.414228333333","25.0291416666667","6500500","新莊區"
"242061","362-BY","2017/09/14 18:09:04","新北市新莊區新樹路267號","121.434313333333","25.0209716666667","6500500","新莊區"
"242058","353-BY","2017/09/14 18:09:33","新北市新莊區新北大道七段716號","121.412455","25.02622","6500500","新莊區"
"242007","132-UY","2017/09/14 18:09:34","新北市新莊區自強街37巷9號","121.454026666667","25.046465","6500500","新莊區"
"242036","133-UY","2017/09/14 18:08:09","新北市新莊區建福路48巷8號","121.426093333333","25.0275416666667","6500500","新莊區"
"242021","135-UY","2017/09/14 18:09:02","新北市新莊區建興街81號","121.449903333333","25.0386383333333","6500500","新莊區"
"242046","172-VK","2017/09/14 18:09:26","新北市新莊區福營路262號","121.42507","25.0284366666667","6500500","新莊區"
"242009","173-VK","2017/09/14 18:09:09","新北市新莊區昌平街71巷1號","121.45444","25.0536283333333","6500500","新莊區"
"242015","175-VK","2017/09/14 18:09:24","新北市新莊區中和街59巷10弄14號","121.44688","25.0471583333333","6500500","新莊區"
"242002","176-VK","2017/09/14 18:09:31","新北市新莊區新莊路38號","121.458235","25.037025","6500500","新莊區"
"242019","348-TH","2017/09/14 18:08:09","新北市新莊區民樂街28號","121.457691666667","25.0407666666667","6500500","新莊區"
"242056","349-TH","2017/09/14 18:09:15","新北市新莊區豐年街豐2巷31號","121.447665","25.03086","6500500","新莊區"
"242017","350-TH","2017/09/14 18:09:27","新北市新莊區永樂街27號","121.451733333333","25.0450266666667","6500500","新莊區"
"242011","351-TH","2017/09/14 18:08:41","新北市新莊區中信街86號","121.447953333333","25.053295","6500500","新莊區"
"238015","755-BX","2017/09/14 18:08:58","新北市樹林區大安路435號","121.415328333333","24.9884366666667","6500700","樹林區"
"238023","601-UM","2017/09/14 18:09:00","新北市樹林區龍興街46巷17號","121.402401666667","25.0152016666667","6500700","樹林區"
"238019","599-UM","2017/09/14 18:09:29","新北市樹林區國凱街136巷29弄14號","121.424008333333","24.9795966666667","6500700","樹林區"
"238018","571-TV","2017/09/14 18:09:19","新北市樹林區樹新路227號","121.431176666667","25.0006216666667","6500700","樹林區"
"238024","5061-A6","2017/09/14 18:09:18","新北市樹林區豐林街64號","121.42226","24.9979733333333","6500700","樹林區"
"238021","KEA-2217","2017/09/14 18:09:28","新北市樹林區田尾街110-1號","121.40646","24.9550933333333","6500700","樹林區"
"238022","KEA-2213","2017/09/14 18:09:07","新北市樹林區太平路150巷39弄7號","121.417173333333","24.97694","6500700","樹林區"
"238025","303-VK","2017/09/14 18:09:20","新北市樹林區保安二街二段6-11號","121.41575","25.0013433333333","6500700","樹林區"
"238017","283-BY","2017/09/14 18:09:06","新北市樹林區中正路528號","121.411691666667","25.013935","6500700","樹林區"
"238014","282-BY","2017/09/14 18:09:17","新北市樹林區中正路65號","121.426345","25.00008","6500700","樹林區"
"238020","268-VK","2017/09/14 18:09:07","新北市樹林區三龍街94巷31號","121.414405","25.0171716666667","6500700","樹林區"
"238026","172-UY","2017/09/14 18:09:26","新北市樹林區育德街40-1號","121.39","24.9693633333333","6500700","樹林區"
"238016","169-UY","2017/09/14 18:08:34","新北市樹林區日新街150號","121.420451666667","24.9885983333333","6500700","樹林區"
"239007","AAC-297","2017/09/14 18:09:35","新北市鶯歌區尖山埔路163號","121.346016666667","24.950745","6500800","鶯歌區"
"239006","891-R6","2017/09/14 18:09:30","新北市鶯歌區鶯桃路376號","121.333791666667","24.9631416666667","6500800","鶯歌區"
"239008","527-UM","2017/09/14 18:09:19","新北市鶯歌區國際一路179號","121.336238333333","24.9765466666667","6500800","鶯歌區"
"239005","526-UM","2017/09/14 18:09:17","新北市鶯歌區鶯桃路668巷73號","121.329926666667","24.9717983333333","6500800","鶯歌區"
"239001","417-VK","2017/09/14 18:09:21","新北市鶯歌區中正三路5巷4號","121.340101666667","24.94275","6500800","鶯歌區"
"239003","360-BY","2017/09/14 18:09:18","新北市鶯歌區福安街58號","121.33565","24.9652666666667","6500800","鶯歌區"
"239002","359-BY","2017/09/14 18:08:49","新北市鶯歌區國慶街151號","121.351035","24.9532833333333","6500800","鶯歌區"
"221036","130-UY","2017/09/14 18:09:31","新北市汐止區大同路三段199號","121.671383333333","25.07723","6501100","汐止區"
"221015","131-UY","2017/09/14 18:08:20","新北市汐止區鄉長路二段168號","121.663181666667","25.08521","6501100","汐止區"
"221010","269-BY","2017/09/14 18:09:24","新北市汐止區汐萬路二段245巷44號","121.644628333333","25.0876083333333","6501100","汐止區"
"221012","276-VK","2017/09/14 13:16:06","新北市汐止區汐萬路一段256巷3號","121.653461666667","25.07459","6501100","汐止區"
"221031","277-VK","2017/09/14 18:09:22","新北市汐止區中興路181巷16弄12號","121.62953","25.06675","6501100","汐止區"
"221012","278-VK","2017/09/14 18:09:11","新北市汐止區保一街39號","121.674198333333","25.07991","6501100","汐止區"
"221023","279-VK","2017/09/14 18:09:15","新北市汐止區明峰街179-1號","121.628623333333","25.0700233333333","6501100","汐止區"
"221032","280-BY","2017/09/14 18:09:31","新北市汐止區力行街14號","121.617041666667","25.050865","6501100","汐止區"
"221027","281-BY","2017/09/14 18:09:31","新北市汐止區大同路二段555號","121.662531666667","25.0695916666667","6501100","汐止區"
"221038","297-VK","2017/09/14 18:09:17","新北市汐止區莊敬街131巷6號","121.654698333333","25.0603233333333","6501100","汐止區"
"221029","298-VK","2017/09/14 18:09:17","新北市汐止區樟樹二路134號","121.639901666667","25.0656866666667","6501100","汐止區"
"221021","299-VK","2017/09/14 18:09:24","新北市汐止區復興路8號","121.655725","25.0646233333333","6501100","汐止區"
"221008","358-BY","2017/09/14 18:09:27","新北市汐止區康寧街315號","121.627133333333","25.0678716666667","6501100","汐止區"
"221035","622-UM","2017/09/14 18:08:28","新北市汐止區大同路二段200號","121.653108333333","25.06479","6501100","汐止區"
"221025","623-UM","2017/09/14 18:09:21","新北市汐止區秀峰路151巷1號","121.660868333333","25.0619833333333","6501100","汐止區"
"221033","647-BX","2017/09/14 18:09:19","新北市汐止區林森街11號","121.6213","25.04067","6501100","汐止區"
"221002","707-TV","2017/09/14 18:09:30","新北市汐止區福德一路213號","121.634726666667","25.0653666666667","6501100","汐止區"
"221018","753-BX","2017/09/14 18:09:33","新北市汐止區忠孝東路353號","121.665603333333","25.0705716666667","6501100","汐止區"
"242001","281-VK","2017/09/14 16:51:15","新北市新莊區環河路636-7號","121.43736","25.011235","6500500","新莊區"
