"lineid","car","time","location","longitude","latitude","cityid","cityname"
"234013","149-BY","2017/09/14 18:29:20","新北市永和區保安路2號","121.510921666667","25.017555","6500400","永和區"
"234007","207-UY","2017/09/14 18:28:06","新北市永和區文化路208號","121.510235","25.0165666666667","6500400","永和區"
"234081","298-R6","2017/09/14 18:28:58","新北市永和區林森路46巷1號","121.524991666667","25.0047783333333","6500400","永和區"
"234086","338-UY","2017/09/14 18:29:22","新北市永和區福和路1號","121.525496666667","25.0096066666667","6500400","永和區"
"234042","862-TW","2017/09/14 18:28:19","新北市永和區環河東路二段92號","121.524456666667","25.0106316666667","6500400","永和區"
"234026","9371-KE","2017/09/14 18:29:18","新北市永和區永貞路417巷27號","121.505941666667","25.0089833333333","6500400","永和區"
"234011","9373-KE","2017/09/14 18:29:10","新北市永和區文化路123號","121.512265","25.01535","6500400","永和區"
"249005","172-UM","2017/09/14 18:28:58","新北市八里區中華路三段89-3號","121.393538333333","25.13957","6502300","八里區"
"249001","173-UM","2017/09/14 18:29:21","新北市八里區龍米路一段132號","121.453041666667","25.1254333333333","6502300","八里區"
"249004","303-UY","2017/09/14 18:29:25","新北市八里區文心街115號","121.425981666667","25.1611683333333","6502300","八里區"
"249002","305-UY","2017/09/14 18:29:26","新北市八里區龍形三街26號","121.44835","25.13175","6502300","八里區"
"248014","025-BX","2017/09/14 18:29:22","新北市五股區自強路99號","121.432275","25.0713033333333","6501500","五股區"
"248016","026-BX","2017/09/14 18:29:28","新北市五股區凌雲路一段109巷17號","121.449681666667","25.1008216666667","6501500","五股區"
"248006","077-UY","2017/09/14 18:29:19","新北市五股區四維路38號","121.467288333333","25.0716066666667","6501500","五股區"
"248008","095-VK","2017/09/14 18:29:27","新北市五股區四維路185巷42弄1號","121.463561666667","25.0768566666667","6501500","五股區"
"248020","225-UY","2017/09/14 18:28:46","新北市五股區孝義路80號","121.449731666667","25.1146983333333","6501500","五股區"
"248012","247-BX","2017/09/14 18:29:08","新北市五股區御成路142號","121.440941666667","25.09437","6501500","五股區"
"248010","272-BY","2017/09/14 18:29:23","新北市五股區明德路12巷1號","121.4333","25.0716483333333","6501500","五股區"
"248004","677-BX","2017/09/14 18:29:01","新北市五股區工商路148-8號","121.433433333333","25.0873066666667","6501500","五股區"
"248002","678-BX","2017/09/14 18:29:23","新北市五股區西雲路144號","121.445748333333","25.0943766666667","6501500","五股區"
"234077","969-R7","2017/09/14 18:29:15","新北市永和區福和路1號","121.526371666667","25.0097833333333","6500400","永和區"
"234074","AAC-211","2017/09/14 18:29:20","新北市永和區福和路1號","121.526078333333","25.009815","6500400","永和區"
"232011","375-UM","2017/09/14 18:12:50","新北市坪林區坪雙路一段43號","121.711756666667","24.9424683333333","6502000","坪林區"
"244013","069-UM","2017/09/14 18:28:36","新北市林口區中山路248號","121.386681666667","25.079415","6501700","林口區"
"244007","080-UY","2017/09/14 18:29:20","新北市林口區後湖33號","121.387091666667","25.0996933333333","6501700","林口區"
"244019","403-UM","2017/09/14 18:29:37","新北市林口區文化一路一段100巷10弄1號","121.373906666667","25.07074","6501700","林口區"
"244009","410-SL","2017/09/14 18:29:18","新北市林口區中山路576-11號","121.376705","25.0857483333333","6501700","林口區"
"244023","483-VK","2017/09/14 18:28:58","新北市林口區仁愛路二段98號","121.38379","25.075025","6501700","林口區"
"244017","485-VK","2017/09/14 18:29:32","新北市林口區文化二路一段2-1號","121.364186666667","25.06582","6501700","林口區"
"244011","656-BX","2017/09/14 18:29:24","新北市林口區興林路17巷3弄1號","121.390066666667","25.0770316666667","6501700","林口區"
"244025","837-TS","2017/09/14 18:29:22","新北市林口區南勢四街224號","121.356501666667","25.0738683333333","6501700","林口區"
"244021","838-TS","2017/09/14 18:29:13","新北市林口區自強四街4號","121.398923333333","25.0768716666667","6501700","林口區"
"243013","AAD-798","2017/09/14 18:29:36","新北市泰山區明志路三段170號","121.424268333333","25.0392983333333","6501600","泰山區"
"243009","297-R6","2017/09/14 16:16:02","新北市泰山區黎明路23-1號","121.421766666667","25.061285","6501600","泰山區"
"243012","646-TV","2017/09/14 18:29:20","新北市泰山區忠孝街10號","121.427651666667","25.064685","6501600","泰山區"
"222003","436-BY","2017/09/14 18:29:38","新北市深坑區烏月路141號","121.631026666667","25.0054283333333","6501800","深坑區"
"222002","659-BX","2017/09/14 18:29:06","新北市深坑區雲鄉路198號","121.621985","24.998325","6501800","深坑區"
"222001","696-SL","2017/09/14 18:29:12","新北市深坑區北深路一段199號","121.630388333333","25.008935","6501800","深坑區"
"231041","002-UM","2017/09/14 18:29:23","新北市新店區安華路28-1號","121.519838333333","24.960805","6500600","新店區"
"231059","046-UY","2017/09/14 18:29:11","新北市新店區安華路28-1號","121.519763333333","24.96089","6500600","新店區"
"231061","047-UY","2017/09/14 18:28:43","新北市新店區安華路28-1號","121.519181666667","24.9609266666667","6500600","新店區"
"231060","106-UY","2017/09/14 18:29:23","新北市新店區安華路28-1號","121.519803333333","24.96102","6500600","新店區"
"231051","107-UY","2017/09/14 18:29:19","新北市新店區安康路一段355-3號","121.519525","24.9615383333333","6500600","新店區"
"231047","108-UY","2017/09/14 18:29:00","新北市新店區安華路28-1號","121.519495","24.9611883333333","6500600","新店區"
"231052","187-VK","2017/09/14 18:29:13","新北市新店區新烏路一段5號","121.547306666667","24.95177","6500600","新店區"
"231007","189-VK","2017/09/14 12:01:55","新北市新店區安華路28-1號","121.519563333333","24.96112","6500600","新店區"
"231050","215-TC","2017/09/14 18:29:04","新北市新店區安華路28-1號","121.519985","24.9612466666667","6500600","新店區"
"231057","256-BX","2017/09/14 18:29:25","新北市新店區北新路一段41號","121.538106666667","24.95932","6500600","新店區"
"231063","268-BY","2017/09/14 18:29:23","新北市新店區安華路28-1號","121.5195","24.960535","6500600","新店區"
"231046","278-BY","2017/09/14 18:29:23","新北市新店區直潭七街60號","121.532336666667","24.939825","6500600","新店區"
"231054","AAD-862","2017/09/14 18:29:32","新北市新店區安華路28-1號","121.520135","24.96111","6500600","新店區"
"231058","3712-VJ","2017/09/14 18:28:58","新北市新店區北宜路一段28號","121.538103333333","24.9569366666667","6500600","新店區"
"231055","3713-VJ","2017/09/14 18:29:28","新北市新店區北新路二段29巷1弄5號","121.542103333333","24.972245","6500600","新店區"
"231056","4716-K9","2017/09/14 18:29:32","新北市新店區二十張路96號","121.536216666667","24.979735","6500600","新店區"
"231067","4772-VM","2017/09/14 18:29:28","新北市新店區安華路28-1號","121.519265","24.9606933333333","6500600","新店區"
"231065","512-UM","2017/09/14 18:29:20","新北市新店區安華路28-1號","121.519376666667","24.9612416666667","6500600","新店區"
"231064","515-UM","2017/09/14 16:30:55","新北市新店區安華路28-1號","121.51978","24.96116","6500600","新店區"
"231042","616-UM","2017/09/14 18:28:40","新北市新店區安華路28-1號","121.519576666667","24.960705","6500600","新店區"
"231045","617-UM","2017/09/14 18:29:24","新北市新店區安華路28-1號","121.519565","24.9610666666667","6500600","新店區"
"231040","619-UM","2017/09/14 18:29:34","新北市新店區安華路28-1號","121.51978","24.9605333333333","6500600","新店區"
"231049","719-UM","2017/09/14 18:29:36","新北市新店區安華路28-1號","121.519603333333","24.9614433333333","6500600","新店區"
"231062","720-UM","2017/09/14 18:29:20","新北市新店區安華路28-1號","121.519338333333","24.9613","6500600","新店區"
"231044","897-TW","2017/09/14 18:29:29","新北市新店區安華路28-1號","121.519543333333","24.96092","6500600","新店區"
"231043","899-TW","2017/09/14 18:29:01","新北市新店區安華路28-1號","121.519325","24.9609316666667","6500600","新店區"
"231066","AKT-0513","2017/09/14 18:29:09","新北市新店區安華路1-1號","121.519676666667","24.960465","6500600","新店區"
"235066","003-UY","2017/09/14 18:29:29","新北市中和區中山路二段120號","121.502688333333","25.00375","6500300","中和區"
"235064","005-UY","2017/09/14 18:29:33","新北市中和區中正路220號","121.496425","24.9940216666667","6500300","中和區"
"235063","006-UY","2017/09/14 18:28:55","新北市中和區連城路347巷16弄2-3號","121.488161666667","24.9951083333333","6500300","中和區"
"235056","096-UM","2017/09/14 18:29:22","新北市中和區員山路611巷5弄1號","121.477965","25.01126","6500300","中和區"
"235039","097-UM","2017/09/14 18:29:24","新北市中和區宜安路63號","121.511426666667","24.9969566666667","6500300","中和區"
"235065","098-UM","2017/09/14 18:29:33","新北市中和區莊敬路49巷18號","121.50171","25.0060716666667","6500300","中和區"
"235040","150-BY","2017/09/14 18:29:33","新北市中和區安平路38號","121.509801666667","24.9949766666667","6500300","中和區"
"235058","151-BY","2017/09/14 18:28:57","新北市中和區圓通路369巷36弄12號","121.490155","24.9848","6500300","中和區"
"235055","183-VK","2017/09/14 18:28:11","新北市中和區連城路599號","121.478606666667","24.9931766666667","6500300","中和區"
"235038","185-VK","2017/09/14 18:29:22","新北市中和區秀朗路三段128巷17弄6號","121.524136666667","24.99346","6500300","中和區"
"235049","186-VK","2017/09/14 18:29:30","新北市中和區景安路172巷8號","121.504541666667","24.9932033333333","6500300","中和區"
"235067","255-BX","2017/09/14 18:29:32","新北市中和區和城路一段271巷1號","121.485421666667","24.9919016666667","6500300","中和區"
"235072","301-VK","2017/09/14 18:28:55","新北市中和區錦和路111-1號","121.4902","24.99519","6500300","中和區"
"235043","352-BY","2017/09/14 18:28:38","新北市中和區景平路307號","121.506496666667","24.9931516666667","6500300","中和區"
"235051","376-QA","2017/09/14 18:29:38","新北市中和區興南路二段242巷16號","121.502376666667","24.9831366666667","6500300","中和區"
"235068","377-QA","2017/09/14 18:29:09","新北市中和區圓通路282號","121.491543333333","24.9905883333333","6500300","中和區"
"235061","378-QA","2017/09/14 18:29:12","新北市中和區民享街119巷2號","121.474465","24.9988283333333","6500300","中和區"
"235050","4979-A6","2017/09/14 18:29:24","新北市中和區景新街418巷20弄1號","121.512363333333","24.988295","6500300","中和區"
"235069","4980-A6","2017/09/14 18:29:37","新北市中和區連城路101號","121.49645","24.9998166666667","6500300","中和區"
"235042","551-UM","2017/09/14 18:29:09","新北市中和區自立路64巷12號","121.52325","24.9910466666667","6500300","中和區"
"235070","558-UM","2017/09/14 18:29:22","新北市中和區圓通路173號","121.497563333333","24.9951683333333","6500300","中和區"
"235045","565-BX","2017/09/14 18:29:32","新北市中和區南山路236巷20弄5號","121.505641666667","24.989315","6500300","中和區"
"235034","611-BX","2017/09/14 17:53:47","新北市中和區員山路36巷16-3號","121.48516","24.9913466666667","6500300","中和區"
"235054","640-BX","2017/09/14 18:28:58","新北市中和區民享街112號","121.474575","24.9992533333333","6500300","中和區"
"235060","647-TV","2017/09/14 18:29:07","新北市中和區員山路339號","121.481171666667","25.0015333333333","6500300","中和區"
"235047","732-UM","2017/09/14 18:29:22","新北市中和區南山路300號","121.50787","24.9871166666667","6500300","中和區"
"235046","733-UM","2017/09/14 18:29:27","新北市中和區錦和路350-1號","121.490531666667","24.99359","6500300","中和區"
"235062","800-TS","2017/09/14 18:29:19","新北市中和區景平路732號","121.49661","25.0039433333333","6500300","中和區"
"235057","801-TS","2017/09/14 18:29:00","新北市中和區民享街97巷21號","121.475348333333","24.999535","6500300","中和區"
"235041","802-TS","2017/09/14 18:29:20","新北市中和區錦和路350-1號","121.490391666667","24.9935683333333","6500300","中和區"
"235052","805-TS","2017/09/14 18:29:25","新北市中和區興南路二段22-3號","121.507528333333","24.98579","6500300","中和區"
"235048","896-TW","2017/09/14 18:29:15","新北市中和區中正路171號","121.497775","24.9934733333333","6500300","中和區"
"235053","900-TW","2017/09/14 18:29:15","新北市中和區連城路569巷9弄22號","121.479816666667","24.993485","6500300","中和區"
"235037","AAC-213","2017/09/14 18:29:14","新北市中和區景德街141號","121.514513333333","24.990905","6500300","中和區"
"220065","072-UY","2017/09/14 18:28:57","新北市板橋區華東街1-9號","121.448086666667","24.9949233333333","6500100","板橋區"
"220086","073-UY","2017/09/14 18:29:03","新北市板橋區南雅南路二段120-2號","121.452358333333","24.9997516666667","6500100","板橋區"
"247008","053-VK","2017/09/14 18:29:00","新北市八里區中山路三段409號","121.36868","25.1353633333333","6501400","蘆洲區"
"226004","312-R5","2017/09/14 18:29:28","新北市平溪區靜安路二段340號","121.737198333333","25.024345","6502400","平溪區"
"228003","097-TW","2017/09/14 18:28:43","新北市貢寮區和美里和美街56號","121.914953333333","25.077695","6502600","貢寮區"
"228001","212-TW","2017/09/14 18:29:23","新北市貢寮區仁理村仁和路130號","121.922991666667","25.0513183333333","6502600","貢寮區"
"228002","585-TW","2017/09/14 18:29:32","新北市貢寮區福連里香蘭街5號","121.973681666667","25.0244416666667","6502600","貢寮區"
"224006","676-BX","2017/09/14 18:29:27","新北市瑞芳區逢甲路5號","121.809963333333","25.1083083333333","6501200","瑞芳區"
"224002","639-TC","2017/09/14 18:29:27","新北市瑞芳區三爪子坑路29巷25號","121.81371","25.10681","6501200","瑞芳區"
"224009","285-BY","2017/09/14 18:28:58","新北市瑞芳區祈堂路219號","121.856223333333","25.1091166666667","6501200","瑞芳區"
"224008","275-VK","2017/09/14 18:29:12","新北市瑞芳區逢甲路234號","121.80614","25.11024","6501200","瑞芳區"
"224007","273-VK","2017/09/14 18:29:32","新北市瑞芳區大埔路吉慶公園城10號","121.765283333333","25.1002716666667","6501200","瑞芳區"
"224005","271-BY","2017/09/14 18:29:34","新北市瑞芳區台電新村26-2號","121.813858333333","25.129205","6501200","瑞芳區"
"227010","642-TC","2017/09/14 18:28:38","新北市雙溪區牡丹里牡丹153號","121.851541666667","25.058885","6502500","雙溪區"
"227004","030-BX","2017/09/14 18:29:11","新北市雙溪區魚行里坤溪21-1號","121.870358333333","25.0284933333333","6502500","雙溪區"
"253005","032-BX","2017/09/14 18:29:12","新北市石門區老崩山10-7號","121.552551666667","25.2909416666667","6502200","石門區"
"253006","295-VK","2017/09/14 18:29:30","新北市石門區公地16號","121.545766666667","25.2902683333333","6502200","石門區"
"208002","742-BX","2017/09/14 18:29:26","新北市金山區民生路202號","121.644286666667","25.2222583333333","6502700","金山區"
"208003","665-BX","2017/09/14 18:29:00","新北市金山區中山路212號","121.637458333333","25.2217783333333","6502700","金山區"
"208001","761-BX","2017/09/14 18:29:09","新北市金山區文化一路6號","121.637275","25.2239366666667","6502700","金山區"
"251004","009-UM","2017/09/14 18:29:04","新北市淡水區民族路31巷45號","121.462238333333","25.1368483333333","6501000","淡水區"
"251001","011-UM","2017/09/14 18:29:15","新北市淡水區自強路120號","121.464168333333","25.1329316666667","6501000","淡水區"
"251008","181-VK","2017/09/14 18:29:24","新北市淡水區北投子87-2號","121.468065","25.1784883333333","6501000","淡水區"
"251014","182-VK","2017/09/14 18:29:32","新北市淡水區南平19-2號","121.493323333333","25.2164666666667","6501000","淡水區"
"251010","413-VK","2017/09/14 18:28:56","新北市淡水區沙崙路181巷1號","121.424145","25.1842116666667","6501000","淡水區"
"251012","441-VK","2017/09/14 18:28:46","新北市淡水區北新路一段275號","121.462075","25.1822883333333","6501000","淡水區"
"251016","442-VK","2017/09/14 18:29:15","新北市淡水區下圭柔山114-10號","121.445583333333","25.2097516666667","6501000","淡水區"
"251005","443-VK","2017/09/14 18:29:25","新北市淡水區中正東路35巷11號","121.44641","25.168695","6501000","淡水區"
"251006","561-UM","2017/09/14 18:29:32","新北市淡水區新生街51巷32號","121.440858333333","25.1759233333333","6501000","淡水區"
"251011","650-BX","2017/09/14 18:28:59","新北市淡水區中正東路8號","121.447988333333","25.1665533333333","6501000","淡水區"
"251002","672-BX","2017/09/14 18:29:25","新北市淡水區竿蓁二街65號","121.454958333333","25.163575","6501000","淡水區"
"251003","766-UM","2017/09/14 18:29:32","新北市淡水區北新路169巷75號","121.448065","25.18087","6501000","淡水區"
"207003","550-UM","2017/09/14 18:29:32","新北市萬里區野柳里港東路151-2號","121.688441666667","25.2051","6502800","萬里區"
"207004","225-TW","2017/09/14 18:28:23","新北市萬里區萬里里瑪鋉路124號","121.690571666667","25.17917","6502800","萬里區"
"252003","249-BX","2017/09/14 18:28:47","新北市三芝區後厝里北勢子41-7號","121.472416666667","25.2529933333333","6502100","三芝區"
"252001","292-VK","2017/09/14 18:29:29","新北市三芝區中興街二段2號","121.498401666667","25.2567066666667","6502100","三芝區"
"237004","078-UY","2017/09/14 18:29:12","新北市三峽區五寮81號","121.359573333333","24.85853","6500900","三峽區"
"237007","153-BY","2017/09/14 18:29:31","新北市三峽區中正路三段170巷5號","121.352468333333","24.903905","6500900","三峽區"
"237009","210-TH","2017/09/14 18:29:18","新北市三峽區民族街41號","121.369663333333","24.93024","6500900","三峽區"
"237013","252-BX","2017/09/14 18:29:15","新北市三峽區永安街73號","121.375628333333","24.92972","6500900","三峽區"
"237012","275-BY","2017/09/14 18:29:32","新北市三峽區三樹路88號","121.378066666667","24.938655","6500900","三峽區"
"237008","302-VK","2017/09/14 18:29:19","新北市三峽區白雞68-319號","121.391728333333","24.9094016666667","6500900","三峽區"
"237014","433-BY","2017/09/14 18:29:28","新北市三峽區文化路9號","121.373213333333","24.935605","6500900","三峽區"
"237006","5529-G3","2017/09/14 18:29:29","新北市三峽區溪東路371巷4弄27號","121.41293","24.9295083333333","6500900","三峽區"
"237011","572-TV","2017/09/14 18:09:39","新北市三峽區溪北街2號","121.396008333333","24.9362216666667","6500900","三峽區"
"237016","649-BX","2017/09/14 18:29:03","新北市三峽區竹崙路131號","121.434323333333","24.9095016666667","6500900","三峽區"
"237010","706-TV","2017/09/14 18:28:49","新北市三峽區復興路489號","121.361028333333","24.9383016666667","6500900","三峽區"
"237014","756-BX","2017/09/14 15:48:00","新北市三峽區中山路459巷163-3號","121.348871666667","24.93307","6500900","三峽區"
"237005","AKY-6261","2017/09/14 18:29:26","新北市三峽區民族街5巷31號","121.36979","24.93226","6500900","三峽區"
"236071","105-UM","2017/09/14 18:29:32","新北市土城區永豐路255巷12號","121.475393333333","24.9730883333333","6501300","土城區"
"236042","107-UM","2017/09/14 18:29:17","新北市土城區裕民路67巷13號","121.449905","24.9883116666667","6501300","土城區"
"236078","166-UM","2017/09/14 18:29:35","新北市土城區中央路三段283號","121.426025","24.9632183333333","6501300","土城區"
"236030","253-BX","2017/09/14 18:29:23","新北市土城區水源街81巷8號","121.439498333333","24.9762533333333","6501300","土城區"
"236026","269-VK","2017/09/14 18:29:18","新北市土城區南天母路135巷20號","121.448695","24.9547","6501300","土城區"
"236014","270-VK","2017/09/14 18:29:14","新北市土城區青雲路39巷7號","121.460343333333","24.98743","6501300","土城區"
"236037","271-VK","2017/09/14 18:29:36","新北市土城區青雲路451巷5號","121.459275","24.974755","6501300","土城區"
"236021","401-BY","2017/09/14 18:29:18","新北市土城區永豐路202巷14號","121.466328333333","24.98333","6501300","土城區"
"236058","912-UM","2017/09/14 18:29:30","新北市土城區中央路四段466號","121.40996","24.9505883333333","6501300","土城區"
"236051","913-UM","2017/09/14 18:29:33","新北市土城區青雲路384號","121.458745","24.97319","6501300","土城區"
"236062","915-UM","2017/09/14 18:29:20","新北市土城區延壽路75巷21弄2號","121.46877","24.9921216666667","6501300","土城區"
"236053","AAC-216","2017/09/14 18:28:31","新北市土城區中華路一段255號","121.440605","24.9808683333333","6501300","土城區"
"242031","AAC-296","2017/09/14 18:29:09","新北市新莊區新泰路277巷11號","121.445273333333","25.040245","6500500","新莊區"
"242029","986-R7","2017/09/14 18:29:18","新北市新莊區新泰路528號","121.441993333333","25.0470166666667","6500500","新莊區"
"242027","612-BX","2017/09/14 18:29:24","新北市新莊區幸福路815號","121.44555","25.049035","6500500","新莊區"
"242044","497-BY","2017/09/14 18:29:36","新北市新莊區中正路889-1號","121.41556","25.0237133333333","6500500","新莊區"
"242053","440-UM","2017/09/14 18:29:17","新北市新莊區樹新路120巷38號","121.430065","24.9960316666667","6500500","新莊區"
"242042","400-BY","2017/09/14 18:27:09","新北市新莊區天祥街92巷12號","121.41556","25.029905","6500500","新莊區"
"242061","362-BY","2017/09/14 18:29:04","新北市新莊區四維路3號","121.423968333333","25.0251516666667","6500500","新莊區"
"242058","353-BY","2017/09/14 18:28:13","新北市新莊區中正路905號","121.411168333333","25.021395","6500500","新莊區"
"242021","135-UY","2017/09/14 18:28:35","新北市新莊區中正路261號","121.449751666667","25.035465","6500500","新莊區"
"242046","172-VK","2017/09/14 18:29:26","新北市新莊區民安路16-29號","121.422421666667","25.0280316666667","6500500","新莊區"
"242056","349-TH","2017/09/14 18:29:35","新北市新莊區瓊林路59-70號","121.442043333333","25.0237683333333","6500500","新莊區"
"242011","351-TH","2017/09/14 18:29:21","新北市新莊區中榮街85號","121.445318333333","25.052795","6500500","新莊區"
"238015","755-BX","2017/09/14 18:28:58","新北市樹林區啟智街173巷2號","121.415736666667","24.9876566666667","6500700","樹林區"
"238023","601-UM","2017/09/14 18:28:57","新北市樹林區中正路793號","121.409546666667","25.0161383333333","6500700","樹林區"
"238019","599-UM","2017/09/14 18:29:29","新北市樹林區中華路190號","121.412125","24.980445","6500700","樹林區"
"238018","571-TV","2017/09/14 18:29:19","新北市樹林區保安街一段20巷26號","121.428276666667","24.994265","6500700","樹林區"
"238024","5061-A6","2017/09/14 18:29:18","新北市樹林區中山路一段33號","121.424706666667","24.9927616666667","6500700","樹林區"
"238021","KEA-2217","2017/09/14 18:29:32","新北市樹林區柑園街二段169號","121.380871666667","24.95351","6500700","樹林區"
"238025","303-VK","2017/09/14 18:28:40","新北市樹林區大安路316號","121.417193333333","24.99173","6500700","樹林區"
"238017","283-BY","2017/09/14 18:29:22","新北市樹林區保安街二段333巷2號","121.412456666667","25.0076716666667","6500700","樹林區"
"238014","282-BY","2017/09/14 18:29:24","新北市板橋區溪城路90-2號","121.428446666667","24.9793716666667","6500700","樹林區"
"238020","268-VK","2017/09/14 18:29:27","新北市樹林區三龍街28號","121.412026666667","25.0181166666667","6500700","樹林區"
"238026","172-UY","2017/09/14 18:29:17","新北市樹林區八德街828-17號","121.392626666667","24.96906","6500700","樹林區"
"238016","169-UY","2017/09/14 18:29:34","新北市樹林區文化街28號","121.419266666667","24.9877016666667","6500700","樹林區"
"239007","AAC-297","2017/09/14 18:28:34","新北市鶯歌區重慶街86號","121.348411666667","24.95217","6500800","鶯歌區"
"239008","527-UM","2017/09/14 18:29:19","新北市鶯歌區國際一路179號","121.336376666667","24.9764666666667","6500800","鶯歌區"
"239005","526-UM","2017/09/14 18:28:37","新北市鶯歌區鶯桃路二段15號","121.325915","24.972105","6500800","鶯歌區"
"239001","417-VK","2017/09/14 18:28:56","新北市鶯歌區二甲路光照巷11弄5號","121.338073333333","24.9401666666667","6500800","鶯歌區"
"239003","360-BY","2017/09/14 18:29:18","新北市鶯歌區福安街58號","121.335583333333","24.96524","6500800","鶯歌區"
"239002","359-BY","2017/09/14 18:29:09","新北市鶯歌區中正一路421號","121.360716666667","24.9571066666667","6500800","鶯歌區"
"239004","193-VK","2017/09/14 18:29:33","新北市鶯歌區尖山路212巷19號","121.343308333333","24.94747","6500800","鶯歌區"
"221036","130-UY","2017/09/14 18:29:11","新北市汐止區長興街一段50號","121.670621666667","25.079255","6501100","汐止區"
"221015","131-UY","2017/09/14 18:29:00","新北市汐止區鄉友街24號","121.66866","25.0810333333333","6501100","汐止區"
"221010","269-BY","2017/09/14 18:28:44","新北市汐止區祥雲街22號","121.646691666667","25.0900016666667","6501100","汐止區"
"221012","276-VK","2017/09/14 13:16:06","新北市汐止區汐萬路一段256巷3號","121.653461666667","25.07459","6501100","汐止區"
"221031","277-VK","2017/09/14 18:29:22","新北市汐止區大同路一段405-1號","121.64164","25.06016","6501100","汐止區"
"221012","278-VK","2017/09/14 18:29:11","新北市汐止區保長路51巷1號","121.673271666667","25.0788733333333","6501100","汐止區"
"221023","279-VK","2017/09/14 18:29:06","新北市汐止區康寧街518-1號","121.634021666667","25.068805","6501100","汐止區"
"221032","280-BY","2017/09/14 18:29:31","新北市汐止區福山街62巷2號","121.61784","25.0467533333333","6501100","汐止區"
"221027","281-BY","2017/09/14 18:29:28","新北市汐止區和平街56號","121.66223","25.0710133333333","6501100","汐止區"
"221038","297-VK","2017/09/14 18:29:17","新北市汐止區忠孝東路254號","121.662946666667","25.0674733333333","6501100","汐止區"
"221029","298-VK","2017/09/14 18:28:57","新北市汐止區樟樹二路330巷76號","121.64306","25.0699883333333","6501100","汐止區"
"221021","299-VK","2017/09/14 18:29:24","新北市汐止區新台五路一段125號","121.651751666667","25.0616483333333","6501100","汐止區"
"221008","358-BY","2017/09/14 18:29:09","新北市汐止區康寧街901號","121.651358333333","25.07503","6501100","汐止區"
"221035","622-UM","2017/09/14 18:29:25","新北市汐止區大同路二段45號","121.648138333333","25.063045","6501100","汐止區"
"221025","623-UM","2017/09/14 18:29:01","新北市汐止區仁愛路121巷1號","121.662858333333","25.06387","6501100","汐止區"
"221033","647-BX","2017/09/14 18:28:59","新北市汐止區宜興街82號","121.62322","25.0426366666667","6501100","汐止區"
"221002","707-TV","2017/09/14 18:29:34","新北市汐止區福德一路145號","121.636798333333","25.0667616666667","6501100","汐止區"
"221018","753-BX","2017/09/14 18:29:13","新北市汐止區茄苳路211號","121.670688333333","25.0689983333333","6501100","汐止區"
"220079","145-BY","2017/09/14 18:29:14","新北市板橋區華東街1-10號","121.448425","24.9950033333333","6500100","板橋區"
"220082","610-BX","2017/09/14 18:29:02","新北市板橋區華東街1-10號","121.448306666667","24.9949066666667","6500100","板橋區"
"220071","283-VK","2017/09/14 18:29:17","新北市板橋區華東街1-9號","121.44805","24.9949233333333","6500100","板橋區"
"220094","285-UM","2017/09/14 18:29:29","新北市板橋區民生路二段161巷1號","121.470036666667","25.0198233333333","6500100","板橋區"
"220053","285-VK","2017/09/14 18:29:29","新北市板橋區民生路二段120號","121.470348333333","25.0199366666667","6500100","板橋區"
"242001","281-VK","2017/09/14 16:51:15","新北市新莊區環河路636-7號","121.43736","25.011235","6500500","新莊區"
"220035","560-BX","2017/09/14 18:28:55","新北市板橋區南雅南路二段98號","121.4535","25.0012566666667","6500100","板橋區"
"220084","568-UM","2017/09/14 18:29:23","新北市板橋區華東街1-9號","121.44818","24.994985","6500100","板橋區"
"220063","609-BX","2017/09/14 18:29:28","新北市板橋區民生路二段161巷1號","121.470051666667","25.020145","6500100","板橋區"
