"lineid","car","time","location","longitude","latitude","cityid","cityname"
"234046","148-BY","2017/09/14 18:49:28","新北市永和區秀朗路二段148巷12弄15號","121.524713333333","25.00087","6500400","永和區"
"234013","149-BY","2017/09/14 18:46:20","新北市永和區保福路二段47號","121.51094","25.0118033333333","6500400","永和區"
"234007","207-UY","2017/09/14 18:49:26","新北市永和區文化路9巷2號","121.515261666667","25.014985","6500400","永和區"
"234081","298-R6","2017/09/14 18:49:02","新北市永和區永利路77號","121.52137","25.00379","6500400","永和區"
"234038","336-UY","2017/09/14 18:49:21","新北市永和區成功路二段165號","121.5266","24.9971366666667","6500400","永和區"
"234064","337-UY","2017/09/14 18:49:24","新北市永和區福和路1號","121.525068333333","25.0091183333333","6500400","永和區"
"234086","338-UY","2017/09/14 18:49:22","新北市中和區安樂路101-3號","121.513516666667","24.9951116666667","6500400","永和區"
"234070","552-UM","2017/09/14 18:49:26","新北市永和區竹林路96巷7號","121.519228333333","25.0120383333333","6500400","永和區"
"234054","553-UM","2017/09/14 18:49:20","新北市永和區竹林路64號","121.518226666667","25.0134883333333","6500400","永和區"
"234017","745-BX","2017/09/14 18:49:00","新北市永和區永和路二段393號","121.515841666667","25.0166716666667","6500400","永和區"
"234030","746-BX","2017/09/14 18:49:25","新北市永和區得和路343號","121.523876666667","24.9995166666667","6500400","永和區"
"234061","AAD-866","2017/09/14 18:49:19","新北市永和區福和路307號","121.516301666667","25.00715","6500400","永和區"
"234042","862-TW","2017/09/14 18:49:19","新北市永和區永貞路271號","121.511595","25.004795","6500400","永和區"
"234050","863-TW","2017/09/14 18:49:33","新北市永和區保安路2號","121.510758333333","25.01744","6500400","永和區"
"234026","9371-KE","2017/09/14 18:49:18","新北市永和區自由街38號","121.513903333333","25.0061416666667","6500400","永和區"
"234011","9373-KE","2017/09/14 18:49:30","新北市永和區文化路124號","121.513066666667","25.0153816666667","6500400","永和區"
"249005","172-UM","2017/09/14 18:48:18","新北市八里區長道坑17號","121.396445","25.11551","6502300","八里區"
"249001","173-UM","2017/09/14 18:49:19","新北市八里區龍米路二段16號","121.448966666667","25.1391133333333","6502300","八里區"
"249004","303-UY","2017/09/14 18:49:25","新北市八里區中山路一段150巷80號","121.416096666667","25.1602816666667","6502300","八里區"
"249002","305-UY","2017/09/14 18:49:06","新北市八里區龍形一街33巷6-2號","121.449283333333","25.1295083333333","6502300","八里區"
"248014","025-BX","2017/09/14 18:49:22","新北市五股區成泰路二段252號","121.440506666667","25.0872666666667","6501500","五股區"
"248016","026-BX","2017/09/14 18:49:28","新北市五股區凌雲路一段133巷36號","121.44882","25.1010516666667","6501500","五股區"
"248006","077-UY","2017/09/14 18:48:59","新北市五股區四維路1巷2弄2號","121.466661666667","25.0701016666667","6501500","五股區"
"248008","095-VK","2017/09/14 18:49:27","新北市五股區中興路一段128巷12號","121.465691666667","25.07438","6501500","五股區"
"248020","225-UY","2017/09/14 18:49:15","新北市五股區凌雲路三段94號","121.427596666667","25.121825","6501500","五股區"
"248012","247-BX","2017/09/14 18:49:28","新北市五股區成泰路二段147巷34-1號","121.437091666667","25.0884266666667","6501500","五股區"
"248010","272-BY","2017/09/14 18:49:23","新北市五股區水碓九路20號","121.427815","25.0716533333333","6501500","五股區"
"248004","677-BX","2017/09/14 18:49:21","新北市五股區民義路二段23號","121.4164","25.0995166666667","6501500","五股區"
"248002","678-BX","2017/09/14 18:49:02","新北市五股區成泰路三段437號","121.449803333333","25.0978683333333","6501500","五股區"
"234023","9380-KE","2017/09/14 18:49:24","新北市永和區竹林路119巷45號","121.521981666667","25.0117683333333","6500400","永和區"
"234077","969-R7","2017/09/14 18:49:35","新北市永和區中正路2巷29弄2-2號","121.513911666667","24.9938033333333","6500400","永和區"
"234074","AAC-211","2017/09/14 18:49:20","新北市永和區福和路1號","121.525753333333","25.0095066666667","6500400","永和區"
"234067","AAC-212","2017/09/14 18:49:28","新北市永和區永和路一段1號","121.513015","25.0050933333333","6500400","永和區"
"234003","AAC-295","2017/09/14 18:49:17","新北市永和區中正路666巷2號","121.51689","25.0089733333333","6500400","永和區"
"232011","375-UM","2017/09/14 18:49:13","新北市坪林區坪雙路一段5號","121.711208333333","24.9402016666667","6502000","坪林區"
"244013","069-UM","2017/09/14 18:48:36","新北市林口區仁愛路二段201-1號","121.377395","25.0743083333333","6501700","林口區"
"244007","080-UY","2017/09/14 18:49:00","新北市林口區太平里28號","121.376783333333","25.1184266666667","6501700","林口區"
"244019","403-UM","2017/09/14 18:49:17","新北市林口區忠孝路594巷8號","121.376","25.0674883333333","6501700","林口區"
"244009","410-SL","2017/09/14 18:49:18","新北市林口區竹林路330巷7號","121.391975","25.08303","6501700","林口區"
"244023","483-VK","2017/09/14 18:49:18","新北市林口區文化三路二段211巷45號","121.375376666667","25.083255","6501700","林口區"
"244017","485-VK","2017/09/14 18:49:32","新北市林口區文化二路一段68巷12-1號","121.366253333333","25.0680033333333","6501700","林口區"
"244011","656-BX","2017/09/14 18:49:17","新北市林口區仁愛路一段285巷42號","121.39554","25.0749116666667","6501700","林口區"
"244025","837-TS","2017/09/14 18:49:22","新北市林口區南勢二街57-20號","121.359593333333","25.0758716666667","6501700","林口區"
"243013","AAD-798","2017/09/14 18:48:56","新北市泰山區明志路三段206巷3號","121.423325","25.037945","6501600","泰山區"
"243009","297-R6","2017/09/14 18:49:25","新北市泰山區黎明路23-1號","121.42165","25.0612233333333","6501600","泰山區"
"243015","380-SR","2017/09/14 18:49:14","新北市泰山區美寧街58號","121.430578333333","25.0646733333333","6501600","泰山區"
"243014","421-VK","2017/09/14 18:49:10","新北市泰山區犁頭窠3-1號","121.422338333333","25.0605816666667","6501600","泰山區"
"243010","KEA-2215","2017/09/14 18:49:30","新北市泰山區明志路一段208號","121.432746666667","25.0617483333333","6501600","泰山區"
"243012","646-TV","2017/09/14 18:49:20","新北市泰山區泰林路二段73巷33號","121.434356666667","25.0577966666667","6501600","泰山區"
"243016","680-BX","2017/09/14 18:49:04","新北市泰山區明志路一段477號","121.430725","25.0556316666667","6501600","泰山區"
"222003","436-BY","2017/09/14 18:48:57","新北市深坑區翠谷街17巷42弄2號","121.625353333333","25.0101416666667","6501800","深坑區"
"222002","659-BX","2017/09/14 18:49:22","新北市深坑區文山路一段79號","121.626958333333","25.0018466666667","6501800","深坑區"
"222001","696-SL","2017/09/14 18:49:12","新北市深坑區松柏街39號","121.63869","25.0115683333333","6501800","深坑區"
"231041","002-UM","2017/09/14 18:49:02","新北市新店區安華路28-1號","121.519855","24.9609566666667","6500600","新店區"
"231059","046-UY","2017/09/14 18:49:31","新北市新店區安華路28-1號","121.519776666667","24.96087","6500600","新店區"
"231061","047-UY","2017/09/14 18:49:23","新北市新店區安華路28-1號","121.519106666667","24.961025","6500600","新店區"
"231060","106-UY","2017/09/14 18:49:22","新北市新店區安華路28-1號","121.519801666667","24.9609516666667","6500600","新店區"
"231051","107-UY","2017/09/14 18:48:59","新北市新店區中央路151號","121.529363333333","24.97206","6500600","新店區"
"231047","108-UY","2017/09/14 18:49:20","新北市新店區德正街22號","121.543826666667","24.972165","6500600","新店區"
"231052","187-VK","2017/09/14 18:49:13","新北市新店區新烏路一段100-2號","121.54574","24.9371683333333","6500600","新店區"
"231007","189-VK","2017/09/14 12:01:55","新北市新店區安華路28-1號","121.519563333333","24.96112","6500600","新店區"
"231050","215-TC","2017/09/14 18:49:24","新北市新店區安康路一段104號","121.527283333333","24.96245","6500600","新店區"
"231063","268-BY","2017/09/14 18:49:03","新北市新店區安華路28-1號","121.519566666667","24.9607766666667","6500600","新店區"
"231046","278-BY","2017/09/14 18:49:23","新北市新店區直潭路47號","121.533378333333","24.9424916666667","6500600","新店區"
"231054","AAD-862","2017/09/14 18:49:32","新北市新店區安康路一段142號","121.526513333333","24.9628683333333","6500600","新店區"
"231058","3712-VJ","2017/09/14 18:48:47","新北市新店區北宜路一段105巷4弄1號","121.539886666667","24.9555083333333","6500600","新店區"
"231055","3713-VJ","2017/09/14 18:49:28","新北市新店區新生街55號","121.53883","24.9670383333333","6500600","新店區"
"231056","4716-K9","2017/09/14 18:49:21","新北市新店區大豐路68巷11號","121.538713333333","24.9801333333333","6500600","新店區"
"231067","4772-VM","2017/09/14 18:49:28","新北市新店區安康路一段106巷6號","121.52751","24.9627466666667","6500600","新店區"
"231065","512-UM","2017/09/14 18:49:20","新北市新店區車子路10-4號","121.50484","24.95458","6500600","新店區"
"231064","515-UM","2017/09/14 16:30:55","新北市新店區安華路28-1號","121.51978","24.96116","6500600","新店區"
"231042","616-UM","2017/09/14 18:48:40","新北市新店區北新路一段98號","121.542071666667","24.969055","6500600","新店區"
"231045","617-UM","2017/09/14 18:49:05","新北市新店區安康路一段355號","121.519863333333","24.9633316666667","6500600","新店區"
"231040","619-UM","2017/09/14 18:49:34","新北市新店區環河路118號","121.536706666667","24.9680933333333","6500600","新店區"
"231049","719-UM","2017/09/14 18:49:03","新北市新店區中正路454-5號","121.534443333333","24.97909","6500600","新店區"
"231062","720-UM","2017/09/14 18:49:00","新北市新店區安忠路205巷8號","121.510148333333","24.9555383333333","6500600","新店區"
"231044","897-TW","2017/09/14 18:49:29","新北市新店區寶中路72號","121.547903333333","24.98066","6500600","新店區"
"231043","899-TW","2017/09/14 18:49:21","新北市新店區安康路一段81號","121.529698333333","24.96129","6500600","新店區"
"231066","AKT-0513","2017/09/14 18:48:49","新北市新店區安豐路22巷5-2號","121.50194","24.9560483333333","6500600","新店區"
"241035","462-BY","2017/09/14 18:49:19","新北市三重區重新路四段121號","121.48487","25.0520466666667","6500200","三重區"
"235066","003-UY","2017/09/14 18:49:29","新北市中和區水源路7巷25號","121.50406","25.0037933333333","6500300","中和區"
"235064","005-UY","2017/09/14 18:49:33","新北市中和區連城路109巷83號","121.49745","24.99755","6500300","中和區"
"235063","006-UY","2017/09/14 18:49:16","新北市中和區連城路321號","121.489083333333","24.9962266666667","6500300","中和區"
"235056","096-UM","2017/09/14 18:49:22","新北市中和區員山路611巷5弄3號","121.478023333333","25.011165","6500300","中和區"
"235039","097-UM","2017/09/14 18:49:21","新北市中和區安樂路143巷19號","121.513641666667","24.99703","6500300","中和區"
"235065","098-UM","2017/09/14 18:49:33","新北市中和區莊敬路49巷29弄10號","121.501213333333","25.0065066666667","6500300","中和區"
"235040","150-BY","2017/09/14 18:49:13","新北市中和區安和路35號","121.509931666667","24.99457","6500300","中和區"
"235058","151-BY","2017/09/14 18:48:57","新北市中和區連城路508號","121.476943333333","24.9920683333333","6500300","中和區"
"235055","183-VK","2017/09/14 18:49:31","新北市中和區民生街21-3號","121.47091","25.0057066666667","6500300","中和區"
"235038","185-VK","2017/09/14 18:49:02","新北市中和區立人街14巷24號","121.519515","24.9953583333333","6500300","中和區"
"235049","186-VK","2017/09/14 18:49:30","新北市中和區景安路132巷16號","121.504293333333","24.99427","6500300","中和區"
"235067","255-BX","2017/09/14 18:48:53","新北市中和區新生街1號","121.483191666667","25.004765","6500300","中和區"
"235044","293-VK","2017/09/14 18:49:32","新北市中和區中興街115巷3號","121.500131666667","24.9921133333333","6500300","中和區"
"235072","301-VK","2017/09/14 18:49:05","新北市中和區中山路二段189號","121.500218333333","25.0026766666667","6500300","中和區"
"235043","352-BY","2017/09/14 18:49:18","新北市中和區成功路139號","121.525988333333","24.990595","6500300","中和區"
"235051","376-QA","2017/09/14 18:49:34","新北市中和區華新街111號","121.508466666667","24.981495","6500300","中和區"
"235068","377-QA","2017/09/14 18:49:29","新北市中和區中正路211巷13弄50號","121.498105","24.9930083333333","6500300","中和區"
"235061","378-QA","2017/09/14 18:49:36","新北市中和區民享街40-1號","121.473975","25.0028866666667","6500300","中和區"
"235050","4979-A6","2017/09/14 18:49:03","新北市中和區忠孝街58巷30弄5號","121.51218","24.9826416666667","6500300","中和區"
"235069","4980-A6","2017/09/14 18:48:37","新北市中和區南山路111巷16號","121.502611666667","24.9977066666667","6500300","中和區"
"235042","551-UM","2017/09/14 18:49:29","新北市中和區秀朗路三段135巷3弄1號","121.525463333333","24.9924566666667","6500300","中和區"
"235070","558-UM","2017/09/14 18:48:22","新北市中和區景新街132巷7號","121.504866666667","24.9977966666667","6500300","中和區"
"235045","565-BX","2017/09/14 18:48:52","新北市中和區復興路7號","121.50606","24.989725","6500300","中和區"
"235034","611-BX","2017/09/14 17:53:47","新北市中和區員山路36巷16-3號","121.48516","24.9913466666667","6500300","中和區"
"235054","640-BX","2017/09/14 18:48:18","新北市中和區民享街54巷10號","121.47346","25.0024116666667","6500300","中和區"
"235060","647-TV","2017/09/14 18:49:22","新北市中和區中山路三段150號","121.473533333333","25.0063533333333","6500300","中和區"
"235047","732-UM","2017/09/14 18:49:22","新北市中和區興南路二段34巷59號","121.505028333333","24.98551","6500300","中和區"
"235046","733-UM","2017/09/14 18:49:07","新北市中和區仁愛街36巷44號","121.51133","24.9862666666667","6500300","中和區"
"235062","800-TS","2017/09/14 18:49:19","新北市中和區中山路二段318號","121.49553","25.00228","6500300","中和區"
"235057","801-TS","2017/09/14 18:49:00","新北市中和區民安街22巷13號","121.479751666667","25.00124","6500300","中和區"
"235041","802-TS","2017/09/14 18:49:00","新北市中和區宜安路118巷2號","121.510475","24.9981366666667","6500300","中和區"
"235052","805-TS","2017/09/14 18:49:25","新北市中和區興南路三段5號","121.497725","24.97965","6500300","中和區"
"235048","896-TW","2017/09/14 18:49:35","新北市中和區南山路300號","121.507908333333","24.9870166666667","6500300","中和區"
"235053","900-TW","2017/09/14 18:49:15","新北市中和區華福街8號","121.465515","24.99676","6500300","中和區"
"235037","AAC-213","2017/09/14 18:47:34","新北市中和區自立路54號","121.523253333333","24.992075","6500300","中和區"
"235059","AAC-215","2017/09/14 18:49:26","新北市中和區圓通路395號","121.48962","24.9889983333333","6500300","中和區"
"220068","013-TV","2017/09/14 18:49:16","新北市板橋區民生路二段89-6號","121.470713333333","25.0189633333333","6500100","板橋區"
"220065","072-UY","2017/09/14 18:49:17","新北市板橋區縣民大道一段322號","121.461696666667","25.0110283333333","6500100","板橋區"
"220086","073-UY","2017/09/14 18:49:05","新北市板橋區南雅西路二段180巷15號","121.45279","25.01404","6500100","板橋區"
"220106","075-UY","2017/09/14 18:49:14","新北市板橋區民生路二段161巷3號","121.470178333333","25.0198283333333","6500100","板橋區"
"220069","AAD-861","2017/09/14 18:49:24","新北市板橋區華東街328號","121.452786666667","25.003435","6500100","板橋區"
"220102","120-SR","2017/09/14 18:49:05","新北市板橋區民生路二段120號","121.470328333333","25.0196983333333","6500100","板橋區"
"247010","339-TH","2017/09/14 18:49:13","新北市五股區新城三路45號","121.448626666667","25.0924416666667","6501400","蘆洲區"
"247008","053-VK","2017/09/14 18:49:38","新北市五股區中興路三段163號","121.449268333333","25.0805816666667","6501400","蘆洲區"
"226004","312-R5","2017/09/14 18:49:08","新北市平溪區靜安路二段441號","121.740273333333","25.02497","6502400","平溪區"
"228003","097-TW","2017/09/14 18:49:23","新北市貢寮區和美里龍洞街56-3號","121.91326","25.115005","6502600","貢寮區"
"228001","212-TW","2017/09/14 18:49:23","新北市貢寮區仁理村研海街12-1號","121.923778333333","25.0516616666667","6502600","貢寮區"
"228002","585-TW","2017/09/14 18:49:32","新北市貢寮區福隆里東興街6-11號","121.950776666667","25.0210916666667","6502600","貢寮區"
"224010","AGQ-8101","2017/09/14 18:38:23","新北市瑞芳區基山街31巷15號","121.845785","25.109655","6501200","瑞芳區"
"224006","676-BX","2017/09/14 18:49:27","新北市瑞芳區民生街21號","121.805745","25.10754","6501200","瑞芳區"
"224009","285-BY","2017/09/14 18:49:18","新北市瑞芳區祈堂路2號","121.859831666667","25.111675","6501200","瑞芳區"
"224008","275-VK","2017/09/14 18:49:32","新北市瑞芳區裕民新城1號","121.801953333333","25.1120333333333","6501200","瑞芳區"
"224007","273-VK","2017/09/14 18:48:55","新北市瑞芳區大埔路103巷50號","121.76241","25.10083","6501200","瑞芳區"
"224005","271-BY","2017/09/14 18:49:14","新北市瑞芳區瑞濱路7號","121.827055","25.1216516666667","6501200","瑞芳區"
"227010","642-TC","2017/09/14 18:49:10","新北市雙溪區牡丹里聖南31-1號","121.855363333333","25.0545433333333","6502500","雙溪區"
"227004","030-BX","2017/09/14 18:49:12","新北市雙溪區共和里中山路8號","121.864656666667","25.0334066666667","6502500","雙溪區"
"253005","032-BX","2017/09/14 18:49:03","新北市石門區中山路32-3號","121.56599","25.2899116666667","6502200","石門區"
"253006","295-VK","2017/09/14 18:49:30","新北市石門區下員坑15-13號","121.512036666667","25.2845016666667","6502200","石門區"
"208002","742-BX","2017/09/14 18:49:26","新北市金山區信義路62號","121.63572","25.2189833333333","6502700","金山區"
"208003","665-BX","2017/09/14 18:49:00","新北市金山區中山路393號","121.633456666667","25.225265","6502700","金山區"
"208001","761-BX","2017/09/14 18:48:49","新北市金山區文化三路66巷2弄1號","121.634296666667","25.2256783333333","6502700","金山區"
"251009","008-UM","2017/09/14 18:48:54","新北市淡水區重建街152號","121.44055","25.17363","6501000","淡水區"
"251001","011-UM","2017/09/14 18:49:35","新北市淡水區自強路108-1號","121.461846666667","25.1301466666667","6501000","淡水區"
"251008","181-VK","2017/09/14 18:49:24","新北市淡水區中山北路三段159號","121.445316666667","25.1965","6501000","淡水區"
"251014","182-VK","2017/09/14 18:49:32","新北市淡水區崙頂16-3號","121.487781666667","25.2220516666667","6501000","淡水區"
"251010","413-VK","2017/09/14 18:49:35","新北市淡水區沙崙路20號","121.421175","25.1811083333333","6501000","淡水區"
"251012","441-VK","2017/09/14 18:47:06","新北市淡水區北新路14號","121.444685","25.17762","6501000","淡水區"
"251016","442-VK","2017/09/14 18:48:35","新北市淡水區下圭柔山71-3號","121.447071666667","25.2061833333333","6501000","淡水區"
"251011","650-BX","2017/09/14 18:49:21","新北市淡水區學府路35號","121.447896666667","25.16894","6501000","淡水區"
"251002","672-BX","2017/09/14 18:49:25","新北市淡水區學府路39號","121.447963333333","25.1690516666667","6501000","淡水區"
"251003","766-UM","2017/09/14 18:49:17","新北市淡水區中山北路一段149巷11號","121.442933333333","25.1775233333333","6501000","淡水區"
"207003","550-UM","2017/09/14 18:49:26","新北市萬里區大鵬里頂社1號","121.656988333333","25.2097233333333","6502800","萬里區"
"207004","225-TW","2017/09/14 18:49:03","新北市萬里區萬里里獅頭路23號","121.693256666667","25.1782283333333","6502800","萬里區"
"252002","178-VK","2017/09/14 18:49:11","新北市三芝區中正路一段83號","121.504403333333","25.2568233333333","6502100","三芝區"
"252003","249-BX","2017/09/14 18:49:27","新北市三芝區後厝里大片頭76號","121.459333333333","25.24577","6502100","三芝區"
"252001","292-VK","2017/09/14 18:49:09","新北市三芝區中正路三段9號","121.50295","25.2538716666667","6502100","三芝區"
"237004","078-UY","2017/09/14 18:49:32","新北市三峽區有木2-2號","121.419528333333","24.8662233333333","6500900","三峽區"
"237007","153-BY","2017/09/14 18:49:11","新北市三峽區大埔路68號","121.366443333333","24.907585","6500900","三峽區"
"237009","210-TH","2017/09/14 18:49:18","新北市三峽區民權街153-1號","121.368425","24.931375","6500900","三峽區"
"237013","252-BX","2017/09/14 18:49:35","新北市三峽區光明路69巷27號","121.376848333333","24.929235","6500900","三峽區"
"237012","275-BY","2017/09/14 18:49:12","新北市三峽區三樹路358號","121.384056666667","24.9433416666667","6500900","三峽區"
"237008","302-VK","2017/09/14 18:49:19","新北市三峽區白雞57-16號","121.38994","24.911705","6500900","三峽區"
"237014","433-BY","2017/09/14 18:49:19","新北市三峽區隆恩街175號","121.361631666667","24.9425083333333","6500900","三峽區"
"237006","5529-G3","2017/09/14 18:49:29","新北市三峽區溪東路233巷2弄3號","121.406996666667","24.9335283333333","6500900","三峽區"
"237011","572-TV","2017/09/14 18:09:39","新北市三峽區溪北街2號","121.396008333333","24.9362216666667","6500900","三峽區"
"237016","649-BX","2017/09/14 18:49:03","新北市三峽區建安25-3號","121.44542","24.9272316666667","6500900","三峽區"
"237010","706-TV","2017/09/14 18:45:28","新北市三峽區復興路317號","121.364878333333","24.9388016666667","6500900","三峽區"
"237014","756-BX","2017/09/14 15:48:00","新北市三峽區中山路459巷163-3號","121.348871666667","24.93307","6500900","三峽區"
"237005","AKY-6261","2017/09/14 18:49:06","新北市三峽區文化路197號","121.366563333333","24.935635","6500900","三峽區"
"236071","105-UM","2017/09/14 18:48:52","新北市土城區延和路21巷43號","121.463588333333","24.98928","6501300","土城區"
"236042","107-UM","2017/09/14 18:49:17","新北市土城區裕民路92巷25弄11號","121.450188333333","24.9856233333333","6501300","土城區"
"236078","166-UM","2017/09/14 18:49:15","新北市土城區中央路四段125巷2弄3號","121.416811666667","24.9570283333333","6501300","土城區"
"236030","253-BX","2017/09/14 18:49:23","新北市土城區中央路三段61巷1號","121.439163333333","24.9694166666667","6501300","土城區"
"236026","269-VK","2017/09/14 18:49:29","新北市土城區興城路76號","121.441066666667","24.9720316666667","6501300","土城區"
"236014","270-VK","2017/09/14 18:48:54","新北市土城區清水路261巷11弄2號","121.462673333333","24.9850983333333","6501300","土城區"
"236037","271-VK","2017/09/14 18:49:37","新北市土城區明德路一段291巷1號","121.460268333333","24.97712","6501300","土城區"
"236021","401-BY","2017/09/14 18:49:38","新北市土城區延吉街253巷13號","121.467881666667","24.984385","6501300","土城區"
"236058","912-UM","2017/09/14 18:49:33","新北市土城區中央路三段141-7號","121.433136666667","24.965375","6501300","土城區"
"236051","913-UM","2017/09/14 18:49:12","新北市土城區青雲路1-1號","121.460425","24.9898816666667","6501300","土城區"
"236062","915-UM","2017/09/14 18:49:36","新北市土城區金城路三段202-3號","121.469353333333","24.9885883333333","6501300","土城區"
"236053","AAC-216","2017/09/14 18:49:31","新北市土城區裕民路180號","121.452733333333","24.98523","6501300","土城區"
"242061","362-BY","2017/09/14 18:49:24","新北市新莊區中正路384-1號","121.44231","25.03548","6500500","新莊區"
"242046","172-VK","2017/09/14 18:49:06","新北市樹林區八德街247巷24-3號","121.420128333333","24.973445","6500500","新莊區"
"238023","601-UM","2017/09/14 18:49:17","新北市樹林區三福街114號","121.406506666667","25.0162716666667","6500700","樹林區"
"238019","599-UM","2017/09/14 18:49:29","新北市樹林區東榮街147巷2弄1號","121.414631666667","24.98132","6500700","樹林區"
"238018","571-TV","2017/09/14 18:49:19","新北市樹林區鎮前街25號","121.425801666667","24.9925033333333","6500700","樹林區"
"238024","5061-A6","2017/09/14 18:49:10","新北市樹林區太平路200號","121.418851666667","24.9753116666667","6500700","樹林區"
"238022","KEA-2213","2017/09/14 18:49:26","新北市樹林區中華路379巷78弄3號","121.413415","24.977215","6500700","樹林區"
"238025","303-VK","2017/09/14 18:49:20","新北市樹林區中山路三段22號","121.395556666667","24.9728833333333","6500700","樹林區"
"238020","268-VK","2017/09/14 18:49:26","新北市樹林區俊英街83巷1號","121.425796666667","25.008045","6500700","樹林區"
"238026","172-UY","2017/09/14 18:49:06","新北市樹林區信和街22號","121.390308333333","24.9730433333333","6500700","樹林區"
"238016","169-UY","2017/09/14 18:49:13","新北市樹林區文化街28號","121.419273333333","24.9877116666667","6500700","樹林區"
"239007","AAC-297","2017/09/14 18:49:34","新北市鶯歌區中正一路建德巷38號","121.364528333333","24.9578366666667","6500800","鶯歌區"
"239008","527-UM","2017/09/14 18:49:19","新北市鶯歌區晨曦街2巷1號","121.336738333333","24.976345","6500800","鶯歌區"
"239005","526-UM","2017/09/14 18:49:37","新北市鶯歌區鳳吉一街28號","121.325721666667","24.9735466666667","6500800","鶯歌區"
"239001","417-VK","2017/09/14 18:49:21","新北市鶯歌區永明街7號","121.3382","24.9550916666667","6500800","鶯歌區"
"239003","360-BY","2017/09/14 18:49:18","新北市鶯歌區鶯桃路524號","121.331723333333","24.9669416666667","6500800","鶯歌區"
"239002","359-BY","2017/09/14 18:48:28","新北市鶯歌區中正一路187號","121.353296666667","24.957005","6500800","鶯歌區"
"239004","193-VK","2017/09/14 18:49:33","新北市鶯歌區中正三路194巷48號","121.331311666667","24.9408533333333","6500800","鶯歌區"
"221036","130-UY","2017/09/14 18:49:31","新北市汐止區忠孝東路340號","121.66511","25.0696366666667","6501100","汐止區"
"221015","131-UY","2017/09/14 18:49:00","新北市汐止區鄉長路一段55巷24號","121.66498","25.076345","6501100","汐止區"
"221010","269-BY","2017/09/14 18:48:44","新北市汐止區汐萬路三段256號","121.643786666667","25.10458","6501100","汐止區"
"221012","276-VK","2017/09/14 13:16:06","新北市汐止區汐萬路一段256巷3號","121.653461666667","25.07459","6501100","汐止區"
"221031","277-VK","2017/09/14 18:49:22","新北市汐止區福德一路310巷3弄1號","121.631046666667","25.0635733333333","6501100","汐止區"
"221012","278-VK","2017/09/14 18:49:31","新北市汐止區汐萬路一段256巷3號","121.653381666667","25.0747416666667","6501100","汐止區"
"221023","279-VK","2017/09/14 18:49:15","新北市汐止區康寧街901號","121.650963333333","25.0752483333333","6501100","汐止區"
"221032","280-BY","2017/09/14 18:49:31","新北市汐止區橫科路121巷52弄3號","121.622675","25.0509883333333","6501100","汐止區"
"221027","281-BY","2017/09/14 18:49:08","新北市汐止區汐萬路一段256巷3號","121.653408333333","25.07473","6501100","汐止區"
"221038","297-VK","2017/09/14 18:49:17","新北市汐止區康寧街901號","121.650713333333","25.0753416666667","6501100","汐止區"
"221029","298-VK","2017/09/14 18:49:17","新北市汐止區樟樹一路2巷36號","121.641626666667","25.0627516666667","6501100","汐止區"
"221021","299-VK","2017/09/14 18:49:04","新北市汐止區新台五路一段234號","121.656995","25.063345","6501100","汐止區"
"221008","358-BY","2017/09/14 18:29:09","新北市汐止區康寧街901號","121.651358333333","25.07503","6501100","汐止區"
"221035","622-UM","2017/09/14 18:49:33","新北市汐止區禮門街21號","121.656518333333","25.067695","6501100","汐止區"
"221025","623-UM","2017/09/14 18:49:01","新北市汐止區仁愛路73號","121.661006666667","25.0628733333333","6501100","汐止區"
"221033","647-BX","2017/09/14 18:48:39","新北市汐止區南勢街3號","121.627068333333","25.0373433333333","6501100","汐止區"
"221002","707-TV","2017/09/14 18:49:30","新北市汐止區大同路一段169號","121.63283","25.05676","6501100","汐止區"
"221018","753-BX","2017/09/14 18:49:13","新北市汐止區茄苳路261號","121.67203","25.068175","6501100","汐止區"
"220079","145-BY","2017/09/14 18:49:34","新北市板橋區民權路202巷3弄2號","121.45974","25.0143966666667","6500100","板橋區"
"220080","200-UY","2017/09/14 18:48:44","新北市板橋區大觀路二段265巷76弄2號","121.442516666667","24.99669","6500100","板橋區"
"220082","610-BX","2017/09/14 18:49:22","新北市板橋區篤行路三段15號","121.428991666667","24.98729","6500100","板橋區"
"220097","257-TC","2017/09/14 18:49:31","新北市板橋區民生路二段120號","121.470573333333","25.0198066666667","6500100","板橋區"
"220091","267-BY","2017/09/14 18:49:37","新北市板橋區莊敬路208巷8弄9號","121.470501666667","25.0204266666667","6500100","板橋區"
"220056","276-BY","2017/09/14 18:49:32","新北市板橋區信義路53號","121.457106666667","24.995835","6500100","板橋區"
"220072","277-BY","2017/09/14 18:49:19","新北市板橋區大觀路三段59巷14號","121.434055","24.9949666666667","6500100","板橋區"
"220101","280-UM","2017/09/14 18:49:36","新北市板橋區民生路二段120號","121.470851666667","25.0200533333333","6500100","板橋區"
"220071","283-VK","2017/09/14 18:49:17","新北市板橋區四川路一段353號","121.458315","24.99978","6500100","板橋區"
"220094","285-UM","2017/09/14 18:49:29","新北市板橋區民生路二段161巷1號","121.470081666667","25.0199083333333","6500100","板橋區"
"220053","285-VK","2017/09/14 18:49:29","新北市板橋區民生路二段89-6號","121.47074","25.0189183333333","6500100","板橋區"
"220083","286-VK","2017/09/14 18:49:18","新北市板橋區大觀路二段22巷19號","121.445655","25.0034983333333","6500100","板橋區"
"220081","287-VK","2017/09/14 18:48:57","新北市板橋區南雅西路二段90號","121.452581666667","25.0111733333333","6500100","板橋區"
"220090","288-VK","2017/09/14 18:49:28","新北市板橋區民生路二段120號","121.470363333333","25.0198983333333","6500100","板橋區"
"220061","295-UM","2017/09/14 16:24:03","新北市板橋區民生路二段161巷9號","121.470295","25.01957","6500100","板橋區"
"220075","297-UM","2017/09/14 18:49:03","新北市板橋區館前西路162號","121.452913333333","25.0085883333333","6500100","板橋區"
"242001","281-VK","2017/09/14 16:51:15","新北市新莊區環河路636-7號","121.43736","25.011235","6500500","新莊區"
"220062","305-R5","2017/09/14 18:49:33","新北市板橋區民生路二段121號","121.470846666667","25.01843","6500100","板橋區"
"220092","307-R5","2017/09/14 18:49:29","新北市板橋區民生路二段161巷9號","121.470306666667","25.0195583333333","6500100","板橋區"
"220098","317-R6","2017/09/14 18:49:29","新北市板橋區民生路二段161巷1號","121.470273333333","25.0200883333333","6500100","板橋區"
"220064","486-VK","2017/09/14 18:49:16","新北市板橋區民生路二段15-1號","121.473086666667","25.0158466666667","6500100","板橋區"
"220089","487-VK","2017/09/14 18:49:34","新北市板橋區民生路二段161巷1號","121.470066666667","25.02009","6500100","板橋區"
"220088","491-VK","2017/09/14 18:49:34","新北市板橋區民生路二段188號","121.470006666667","25.0205666666667","6500100","板橋區"
"220035","560-BX","2017/09/14 18:49:10","新北市板橋區中正路325巷49號","121.452941666667","25.018515","6500100","板橋區"
"220103","561-BX","2017/09/14 18:49:06","新北市板橋區民生路二段120號","121.47048","25.0197816666667","6500100","板橋區"
"220084","568-UM","2017/09/14 18:49:23","新北市板橋區大觀路二段148巷44號","121.441876666667","25.000225","6500100","板橋區"
"220063","609-BX","2017/09/14 18:49:28","新北市板橋區民生路二段107號","121.471025","25.0180316666667","6500100","板橋區"
"220057","686-BX","2017/09/14 18:49:25","新北市板橋區南雅南路二段144巷54號","121.45005","24.9971866666667","6500100","板橋區"
"220077","687-BX","2017/09/14 18:49:25","新北市板橋區大觀路二段174巷171號","121.441953333333","25.003535","6500100","板橋區"
"220093","689-BX","2017/09/14 18:49:25","新北市板橋區民生路二段161巷1號","121.470105","25.0200383333333","6500100","板橋區"
"220054","741-BX","2017/09/14 18:49:36","新北市板橋區南雅南路二段144巷60號","121.450291666667","24.9974283333333","6500100","板橋區"
"220055","827-TW","2017/09/14 18:49:00","新北市板橋區南雅南路二段92巷40號","121.452783333333","25.0024266666667","6500100","板橋區"
"220067","829-TW","2017/09/14 18:49:34","新北市板橋區民生路二段121號","121.470691666667","25.0184466666667","6500100","板橋區"
"220096","831-TW","2017/09/14 16:32:14","新北市板橋區民生路二段120號","121.470463333333","25.01969","6500100","板橋區"
"220073","985-R7","2017/09/14 18:49:35","新北市板橋區館前西路113號","121.456835","25.0074316666667","6500100","板橋區"
"220070","AAC-253","2017/09/14 18:49:04","新北市板橋區館前西路46巷2號","121.458993333333","25.0070616666667","6500100","板橋區"
