"lineid","car","time","location","longitude","latitude","cityid","cityname"
"234046","148-BY","2017/09/14 19:19:34","新北市永和區得和路373巷6弄1號","121.524863333333","24.999915","6500400","永和區"
"234013","149-BY","2017/09/14 19:19:40","新北市永和區信義路14號","121.51446","25.0120466666667","6500400","永和區"
"234007","207-UY","2017/09/14 19:19:26","新北市永和區中山路一段303號","121.506553333333","25.0067166666667","6500400","永和區"
"234081","298-R6","2017/09/14 19:19:37","新北市永和區福和路7巷12弄1-1號","121.525421666667","25.0073716666667","6500400","永和區"
"234038","336-UY","2017/09/14 19:19:41","新北市永和區民樂街41巷1號","121.527478333333","25.0001366666667","6500400","永和區"
"234064","337-UY","2017/09/14 19:19:24","新北市永和區永元路17巷16號","121.52151","25.0011933333333","6500400","永和區"
"234086","338-UY","2017/09/14 19:19:42","新北市永和區永亨路9號","121.519321666667","25.0058133333333","6500400","永和區"
"234070","552-UM","2017/09/14 19:19:26","新北市永和區警光街5號","121.519208333333","25.009215","6500400","永和區"
"234054","553-UM","2017/09/14 19:19:40","新北市永和區中興街34號","121.516285","25.0116633333333","6500400","永和區"
"234017","745-BX","2017/09/14 19:19:41","新北市永和區環河西路一段95巷19弄2號","121.511585","25.0171833333333","6500400","永和區"
"234030","746-BX","2017/09/14 19:19:45","新北市永和區民生路69號","121.522618333333","24.997295","6500400","永和區"
"234061","AAD-866","2017/09/14 19:19:39","新北市永和區秀朗路一段175號","121.516996666667","25.003725","6500400","永和區"
"234042","862-TW","2017/09/14 19:19:39","新北市永和區保平路151巷6弄11號","121.509858333333","25.00498","6500400","永和區"
"234050","863-TW","2017/09/14 19:19:32","新北市永和區仁愛路142號","121.511015","25.01332","6500400","永和區"
"234026","9371-KE","2017/09/14 19:19:38","新北市中和區安平路222號","121.513993333333","25.0003016666667","6500400","永和區"
"234011","9373-KE","2017/09/14 19:19:29","新北市永和區保福路二段23巷21號","121.510086666667","25.011275","6500400","永和區"
"249001","173-UM","2017/09/14 19:19:39","新北市八里區中華路一段77-1號","121.413701666667","25.154245","6502300","八里區"
"249002","305-UY","2017/09/14 19:19:26","新北市八里區龍形一街33巷6-1號","121.449358333333","25.12957","6502300","八里區"
"249003","593-UM","2017/09/14 19:19:30","新北市八里區中山路二段448號","121.399436666667","25.1474383333333","6502300","八里區"
"248020","225-UY","2017/09/14 19:02:42","新北市五股區凌雲路三段69號","121.425366666667","25.1250166666667","6501500","五股區"
"248012","247-BX","2017/09/14 19:19:28","新北市五股區中興路四段38巷11號","121.4388","25.0834633333333","6501500","五股區"
"248010","272-BY","2017/09/14 19:19:43","新北市五股區水碓一路23號","121.430591666667","25.071295","6501500","五股區"
"248004","677-BX","2017/09/14 19:19:41","新北市五股區五福路49號","121.433038333333","25.089695","6501500","五股區"
"248002","678-BX","2017/09/14 19:19:42","新北市五股區凌雲路一段158巷20號","121.447945","25.1036633333333","6501500","五股區"
"234023","9380-KE","2017/09/14 19:19:24","新北市永和區竹林路91巷18號","121.520446666667","25.0123483333333","6500400","永和區"
"234077","969-R7","2017/09/14 19:19:35","新北市永和區民治街72巷12號","121.518105","24.99858","6500400","永和區"
"234074","AAC-211","2017/09/14 19:19:40","新北市永和區竹林路83號","121.519546666667","25.012385","6500400","永和區"
"234067","AAC-212","2017/09/14 19:19:28","新北市永和區保平路52號","121.511325","25.0071516666667","6500400","永和區"
"234003","AAC-295","2017/09/14 19:19:37","新北市永和區中山路一段138-1號","121.510145","25.0097533333333","6500400","永和區"
"244013","069-UM","2017/09/14 19:19:36","新北市林口區麗園一街4巷2號","121.376346666667","25.0706483333333","6501700","林口區"
"244019","403-UM","2017/09/14 19:19:37","新北市林口區麗園二街42巷8號","121.382138333333","25.0672016666667","6501700","林口區"
"244023","483-VK","2017/09/14 19:19:37","新北市林口區仁愛路二段267巷3號","121.373398333333","25.0772166666667","6501700","林口區"
"244011","656-BX","2017/09/14 19:19:38","新北市林口區中山路498號","121.379443333333","25.082735","6501700","林口區"
"243013","AAD-798","2017/09/14 19:19:36","新北市泰山區明志路三段145巷5弄1號","121.425353333333","25.0400516666667","6501600","泰山區"
"243009","297-R6","2017/09/14 19:19:25","新北市泰山區和平街13巷11號","121.434411666667","25.0651166666667","6501600","泰山區"
"243015","380-SR","2017/09/14 19:19:34","新北市泰山區公園路27巷2號","121.428806666667","25.0543466666667","6501600","泰山區"
"243014","421-VK","2017/09/14 19:19:30","新北市泰山區泰林路二段36-1號","121.435805","25.057165","6501600","泰山區"
"243010","KEA-2215","2017/09/14 19:19:30","新北市泰山區明志路一段509號","121.430545","25.0543683333333","6501600","泰山區"
"243011","KEA-2216","2017/09/14 19:19:40","新北市泰山區中央路11巷1號","121.426308333333","25.0427716666667","6501600","泰山區"
"243012","646-TV","2017/09/14 19:19:40","新北市泰山區仁愛路100巷20號","121.43323","25.054705","6501600","泰山區"
"243016","680-BX","2017/09/14 19:19:34","新北市泰山區工專路22號","121.423596666667","25.039775","6501600","泰山區"
"222003","436-BY","2017/09/14 19:19:38","新北市深坑區深南路206號","121.62673","25.0160216666667","6501800","深坑區"
"222002","659-BX","2017/09/14 19:19:42","新北市深坑區紅葉街10巷1號","121.632998333333","25.01181","6501800","深坑區"
"222001","696-SL","2017/09/14 19:19:32","新北市深坑區北深路二段84號","121.61752","25.0035066666667","6501800","深坑區"
"231041","002-UM","2017/09/14 19:19:43","新北市新店區溪園路245-6號","121.52532","24.9832233333333","6500600","新店區"
"231059","046-UY","2017/09/14 19:19:31","新北市新店區安和路三段22-1號","121.51799","24.9813383333333","6500600","新店區"
"231061","047-UY","2017/09/14 19:19:23","新北市新店區安康路一段275-2號","121.52387","24.96348","6500600","新店區"
"231060","106-UY","2017/09/14 19:19:43","新北市新店區安康路二段120號","121.51274","24.9626866666667","6500600","新店區"
"231051","107-UY","2017/09/14 19:19:39","新北市新店區中央路97號","121.531103333333","24.975095","6500600","新店區"
"231047","108-UY","2017/09/14 19:19:40","新北市新店區中興路二段79巷8號","121.546506666667","24.9712766666667","6500600","新店區"
"231052","187-VK","2017/09/14 19:19:33","新北市新店區自強路251號","121.548108333333","24.9190766666667","6500600","新店區"
"231007","189-VK","2017/09/14 12:01:55","新北市新店區安華路28-1號","121.519563333333","24.96112","6500600","新店區"
"231050","215-TC","2017/09/14 19:19:04","新北市新店區竹林路158-1號","121.556976666667","24.9479083333333","6500600","新店區"
"231063","268-BY","2017/09/14 19:19:43","新北市新店區達觀路14巷8號","121.503205","24.9432183333333","6500600","新店區"
"231046","278-BY","2017/09/14 19:19:43","新北市新店區華城路34-1號","121.528831666667","24.95635","6500600","新店區"
"231054","AAD-862","2017/09/14 19:19:32","新北市新店區國校路51巷1號","121.538093333333","24.9546166666667","6500600","新店區"
"231058","3712-VJ","2017/09/14 19:19:38","新北市新店區檳榔路22巷15號","121.540828333333","24.9637","6500600","新店區"
"231067","4772-VM","2017/09/14 19:19:28","新北市新店區安康路二段414巷2號","121.495891666667","24.9577833333333","6500600","新店區"
"231065","512-UM","2017/09/14 19:19:40","新北市新店區安祥路111號","121.475388333333","24.9570666666667","6500600","新店區"
"231064","515-UM","2017/09/14 19:19:32","新北市新店區安忠路57巷26弄21號","121.512476666667","24.9581666666667","6500600","新店區"
"231042","616-UM","2017/09/14 19:19:40","新北市新店區北宜路一段3號","121.53839","24.9585866666667","6500600","新店區"
"231045","617-UM","2017/09/14 19:19:45","新北市新店區北宜路一段215號","121.547535","24.952065","6500600","新店區"
"231040","619-UM","2017/09/14 19:19:14","新北市新店區三民路43號","121.537131666667","24.9708733333333","6500600","新店區"
"231049","719-UM","2017/09/14 19:19:36","新北市新店區明德路66號","121.541508333333","24.9795233333333","6500600","新店區"
"231062","720-UM","2017/09/14 19:19:40","新北市新店區莒光路85巷2號","121.523098333333","24.955815","6500600","新店區"
"231044","897-TW","2017/09/14 19:19:39","新北市新店區寶慶街71號","121.54196","24.9865966666667","6500600","新店區"
"231043","899-TW","2017/09/14 19:19:41","新北市新店區北新路二段137號","121.542898333333","24.97559","6500600","新店區"
"231066","AKT-0513","2017/09/14 19:19:29","新北市新店區安康路三段406號","121.48581","24.951645","6500600","新店區"
"241028","022-UY","2017/09/14 19:19:30","新北市三重區重新路三段148號","121.491346666667","25.0595566666667","6500200","三重區"
"241009","060-VK","2017/09/14 19:19:22","新北市三重區溪尾街230巷44號","121.486055","25.0811333333333","6500200","三重區"
"241031","061-VK","2017/09/14 19:19:32","新北市三重區重新路四段242號","121.485753333333","25.0538766666667","6500200","三重區"
"241017","063-VK","2017/09/14 19:19:32","新北市三重區大同北路182號","121.491665","25.0658166666667","6500200","三重區"
"241026","066-VK","2017/09/14 19:19:36","新北市三重區同安東街74號","121.498503333333","25.057465","6500200","三重區"
"241022","267-UM","2017/09/14 19:19:38","新北市三重區重陽路二段72號","121.487211666667","25.0641133333333","6500200","三重區"
"241032","269-UM","2017/09/14 19:19:36","新北市三重區名源街54號","121.482686666667","25.0593066666667","6500200","三重區"
"241025","271-UM","2017/09/14 19:19:39","新北市三重區中正北路406號","121.475315","25.0703316666667","6500200","三重區"
"241007","398-BY","2017/09/14 19:19:31","新北市三重區三和路四段163巷79號","121.486065","25.0792733333333","6500200","三重區"
"241020","413-TH","2017/09/14 19:19:42","新北市三重區永德街21號","121.48911","25.0728466666667","6500200","三重區"
"241035","462-BY","2017/09/14 19:19:39","新北市三重區大仁街55號","121.49352","25.0659416666667","6500200","三重區"
"241030","480-VK","2017/09/14 19:19:30","新北市三重區新興路40號","121.491506666667","25.053465","6500200","三重區"
"241006","AAD-863","2017/09/14 19:19:34","新北市三重區力行路二段145號","121.483593333333","25.0774016666667","6500200","三重區"
"241029","942-UM","2017/09/14 19:19:39","新北市三重區重安街27號","121.491063333333","25.0571366666667","6500200","三重區"
"235066","003-UY","2017/09/14 19:19:29","新北市中和區景新街2號","121.502593333333","24.9997283333333","6500300","中和區"
"235064","005-UY","2017/09/14 19:19:37","新北市中和區中和路26巷11號","121.499418333333","25.001495","6500300","中和區"
"235063","006-UY","2017/09/14 19:19:35","新北市中和區連城路313號","121.489426666667","24.99602","6500300","中和區"
"235056","096-UM","2017/09/14 19:19:42","新北市中和區中正路1171號","121.481425","25.0094083333333","6500300","中和區"
"235039","097-UM","2017/09/14 19:19:41","新北市中和區自立路58巷2號","121.523621666667","24.99157","6500300","中和區"
"235065","098-UM","2017/09/14 19:19:33","新北市中和區中山路二段136巷37號","121.501086666667","25.004415","6500300","中和區"
"235040","150-BY","2017/09/14 19:19:33","新北市中和區安平路55號","121.509436666667","24.99542","6500300","中和區"
"235058","151-BY","2017/09/14 19:19:37","新北市中和區連城路477巷6弄7號","121.48282","24.99504","6500300","中和區"
"235055","183-VK","2017/09/14 19:19:31","新北市中和區德光路98號","121.468586666667","25.003505","6500300","中和區"
"235038","185-VK","2017/09/14 19:19:42","新北市中和區大仁街10巷27弄6號","121.519216666667","24.992795","6500300","中和區"
"235049","186-VK","2017/09/14 19:19:29","新北市中和區景新街239號","121.508176666667","24.9944983333333","6500300","中和區"
"235067","255-BX","2017/09/14 19:19:32","新北市中和區新生街148巷20號","121.482553333333","25.0006833333333","6500300","中和區"
"235044","293-VK","2017/09/14 19:19:32","新北市中和區中興街266巷2號","121.498485","24.98747","6500300","中和區"
"235072","301-VK","2017/09/14 19:19:35","新北市中和區連城路207號","121.49455","24.99805","6500300","中和區"
"235043","352-BY","2017/09/14 19:19:38","新北市中和區景平路245-1號","121.508958333333","24.99296","6500300","中和區"
"235051","376-QA","2017/09/14 19:19:34","新北市中和區和平街2巷6弄5號","121.509925","24.9912066666667","6500300","中和區"
"235068","377-QA","2017/09/14 19:19:29","新北市中和區連城路89巷64號","121.497825","24.9983183333333","6500300","中和區"
"235061","378-QA","2017/09/14 19:19:32","新北市中和區員山路169號","121.481196666667","24.99685","6500300","中和區"
"235050","4979-A6","2017/09/14 19:19:23","新北市中和區中興街113號","121.49989","24.99214","6500300","中和區"
"235069","4980-A6","2017/09/14 19:19:39","新北市中和區景平路736巷1弄6號","121.497258333333","25.0039683333333","6500300","中和區"
"235042","551-UM","2017/09/14 19:19:29","新北市中和區大勇街60巷14弄1號","121.5188","24.99455","6500300","中和區"
"235070","558-UM","2017/09/14 19:19:21","新北市中和區中和路133號","121.501776666667","24.999935","6500300","中和區"
"235045","565-BX","2017/09/14 19:19:32","新北市中和區景新街467巷35弄16號","121.514058333333","24.9892533333333","6500300","中和區"
"235034","611-BX","2017/09/14 17:53:47","新北市中和區員山路36巷16-3號","121.48516","24.9913466666667","6500300","中和區"
"235054","640-BX","2017/09/14 19:19:38","新北市中和區國光街109巷2弄13-1號","121.46928","25.0005583333333","6500300","中和區"
"235060","647-TV","2017/09/14 19:19:42","新北市中和區民有街66號","121.476036666667","25.0042683333333","6500300","中和區"
"235047","732-UM","2017/09/14 19:19:23","新北市中和區和平街54巷3弄2號","121.508798333333","24.991225","6500300","中和區"
"235046","733-UM","2017/09/14 19:19:26","新北市中和區忠孝街2巷13弄2號","121.510396666667","24.9818983333333","6500300","中和區"
"235057","801-TS","2017/09/14 19:19:40","新北市中和區民利街50號","121.479285","24.9987966666667","6500300","中和區"
"235041","802-TS","2017/09/14 19:19:40","新北市中和區中和路228-8號","121.506595","24.99901","6500300","中和區"
"235052","805-TS","2017/09/14 19:19:25","新北市中和區興南路二段142巷17弄10號","121.503211666667","24.98311","6500300","中和區"
"235048","896-TW","2017/09/14 19:19:35","新北市中和區忠孝街39-13號","121.512111666667","24.984475","6500300","中和區"
"235053","900-TW","2017/09/14 19:19:35","新北市中和區華安街19巷2號","121.467046666667","24.997855","6500300","中和區"
"235037","AAC-213","2017/09/14 19:19:34","新北市中和區秀朗路三段50巷29弄1號","121.524055","24.9951566666667","6500300","中和區"
"235059","AAC-215","2017/09/14 19:19:26","新北市中和區錦和路195巷1弄2號","121.491143333333","24.9909083333333","6500300","中和區"
"220068","013-TV","2017/09/14 19:19:36","新北市板橋區三民路一段1巷39號","121.480308333333","25.0247233333333","6500100","板橋區"
"220065","072-UY","2017/09/14 19:19:37","新北市板橋區民族路174號","121.467568333333","25.00776","6500100","板橋區"
"220086","073-UY","2017/09/14 19:19:23","新北市板橋區中正路216巷115號","121.459451666667","25.01937","6500100","板橋區"
"220106","075-UY","2017/09/14 19:19:34","新北市板橋區雙十路三段44-3號","121.471055","25.0311816666667","6500100","板橋區"
"220069","AAD-861","2017/09/14 19:19:23","新北市板橋區大明街20巷31號","121.45848","25.0037","6500100","板橋區"
"220102","120-SR","2017/09/14 19:19:25","新北市板橋區文聖街70號","121.47727","25.0303333333333","6500100","板橋區"
"247010","339-TH","2017/09/14 18:56:23","新北市五股區中興路三段163號","121.44916","25.0807483333333","6501400","蘆洲區"
"247008","053-VK","2017/09/14 18:49:38","新北市五股區中興路三段163號","121.449268333333","25.0805816666667","6501400","蘆洲區"
"226004","312-R5","2017/09/14 19:19:27","新北市平溪區靜安路三段369號","121.780711666667","25.0455816666667","6502400","平溪區"
"228003","097-TW","2017/09/14 19:19:23","新北市貢寮區和美里和美街22-1號","121.912866666667","25.0826316666667","6502600","貢寮區"
"228001","212-TW","2017/09/14 19:19:23","新北市貢寮區真理里新港街10號","121.92551","25.054395","6502600","貢寮區"
"228002","585-TW","2017/09/14 19:19:32","新北市貢寮區龍門里復興街46-2號","121.928678333333","25.030035","6502600","貢寮區"
"224006","676-BX","2017/09/14 19:19:27","新北市瑞芳區中山路252號","121.799866666667","25.1073966666667","6501200","瑞芳區"
"224008","275-VK","2017/09/14 19:19:32","新北市瑞芳區一坑路317-2號","121.801443333333","25.1090466666667","6501200","瑞芳區"
"224005","271-BY","2017/09/14 19:19:38","新北市瑞芳區員山子路17-6號","121.823728333333","25.1026333333333","6501200","瑞芳區"
"227010","642-TC","2017/09/14 19:19:30","新北市雙溪區新基里新基北街40號","121.868525","25.038045","6502500","雙溪區"
"227004","030-BX","2017/09/14 19:19:31","新北市雙溪區平林里梅竹蹊43號","121.860128333333","25.0357733333333","6502500","雙溪區"
"253005","032-BX","2017/09/14 19:19:31","新北市石門區阿里荖4-7號","121.612263333333","25.279175","6502200","石門區"
"253006","295-VK","2017/09/14 19:19:30","新北市石門區楓林23-21號","121.537321666667","25.2913566666667","6502200","石門區"
"208002","742-BX","2017/09/14 19:19:26","新北市金山區環金路376巷1號","121.632091666667","25.2222833333333","6502700","金山區"
"208003","665-BX","2017/09/14 19:19:40","新北市金山區中山路165號","121.638681666667","25.2205516666667","6502700","金山區"
"208001","761-BX","2017/09/14 19:19:29","新北市金山區民生路69號","121.640215","25.21972","6502700","金山區"
"251009","008-UM","2017/09/14 19:19:34","新北市淡水區大忠街5巷6號","121.443246666667","25.1764816666667","6501000","淡水區"
"251007","010-UM","2017/09/14 19:19:29","新北市淡水區八勢路50巷74號","121.462078333333","25.1491916666667","6501000","淡水區"
"251001","011-UM","2017/09/14 19:19:35","新北市淡水區自強路201巷43號","121.462098333333","25.1268983333333","6501000","淡水區"
"251014","182-VK","2017/09/14 19:19:32","新北市淡水區小中寮19-7號","121.484708333333","25.22965","6501000","淡水區"
"251010","413-VK","2017/09/14 19:19:35","新北市淡水區沙崙路30號","121.421508333333","25.18148","6501000","淡水區"
"251016","442-VK","2017/09/14 19:19:35","新北市淡水區下圭柔山119-51號","121.450816666667","25.2084066666667","6501000","淡水區"
"251005","443-VK","2017/09/14 19:19:36","新北市淡水區水源街一段25號","121.443056666667","25.1722916666667","6501000","淡水區"
"251011","650-BX","2017/09/14 19:19:38","新北市淡水區中正東路二段143巷2弄1號","121.460756666667","25.147355","6501000","淡水區"
"251002","672-BX","2017/09/14 19:19:25","新北市淡水區文化路65號","121.43796","25.1727866666667","6501000","淡水區"
"251003","766-UM","2017/09/14 19:19:36","新北市淡水區中山北路一段52號","121.441818333333","25.1756316666667","6501000","淡水區"
"207003","550-UM","2017/09/14 19:19:26","新北市萬里區大鵬里萬里加投79-3號","121.647388333333","25.2123666666667","6502800","萬里區"
"207004","225-TW","2017/09/14 19:19:35","新北市萬里區萬里里成功新村51號","121.688038333333","25.1745866666667","6502800","萬里區"
"252002","178-VK","2017/09/14 19:19:43","新北市三芝區中正路一段92號","121.504268333333","25.2570333333333","6502100","三芝區"
"252003","249-BX","2017/09/14 19:19:27","新北市三芝區埔坪里埔頭坑41號","121.50461","25.263325","6502100","三芝區"
"252001","292-VK","2017/09/14 19:19:29","新北市三芝區長勤街9巷14號","121.501721666667","25.254935","6502100","三芝區"
"237004","078-UY","2017/09/14 19:19:32","新北市三峽區有木206號","121.4391","24.8515983333333","6500900","三峽區"
"237007","153-BY","2017/09/14 19:19:31","新北市三峽區二鬮路178號","121.359065","24.9068583333333","6500900","三峽區"
"237009","210-TH","2017/09/14 19:19:38","新北市三峽區民生街229號","121.371225","24.9347733333333","6500900","三峽區"
"237013","252-BX","2017/09/14 19:19:35","新北市三峽區大同路5巷6號","121.378013333333","24.92871","6500900","三峽區"
"237012","275-BY","2017/09/14 19:18:32","新北市三峽區三樹路222巷236弄8-1號","121.391293333333","24.9428","6500900","三峽區"
"237008","302-VK","2017/09/14 19:19:38","新北市三峽區大同路106號","121.374465","24.9269566666667","6500900","三峽區"
"237014","433-BY","2017/09/14 19:19:39","新北市三峽區中山路257巷1號","121.362506666667","24.9372783333333","6500900","三峽區"
"237006","5529-G3","2017/09/14 19:19:29","新北市三峽區介壽路一段361號","121.382596666667","24.930585","6500900","三峽區"
"237011","572-TV","2017/09/14 19:13:40","新北市三峽區中正路一段104號","121.374175","24.9296083333333","6500900","三峽區"
"237016","649-BX","2017/09/14 19:19:43","新北市三峽區安坑49-5號","121.461985","24.9319466666667","6500900","三峽區"
"237010","706-TV","2017/09/14 19:11:28","新北市三峽區民生街66號","121.374883333333","24.9360533333333","6500900","三峽區"
"237014","756-BX","2017/09/14 15:48:00","新北市三峽區中山路459巷163-3號","121.348871666667","24.93307","6500900","三峽區"
"237005","AKY-6261","2017/09/14 19:19:26","新北市三峽區中山路459巷121號","121.352001666667","24.9353166666667","6500900","三峽區"
"236071","105-UM","2017/09/14 19:19:32","新北市土城區學成路144號","121.448886666667","24.9896","6501300","土城區"
"236078","166-UM","2017/09/14 19:19:35","新北市土城區龍泉路347號","121.409435","24.949975","6501300","土城區"
"236026","269-VK","2017/09/14 19:19:29","新北市土城區中央路二段149巷18號","121.442986666667","24.976565","6501300","土城區"
"236014","270-VK","2017/09/14 19:19:33","新北市土城區學府路一段23巷28號","121.457625","24.9870316666667","6501300","土城區"
"236021","401-BY","2017/09/14 19:19:38","新北市土城區峰廷街3號","121.469208333333","24.9874466666667","6501300","土城區"
"236058","912-UM","2017/09/14 19:19:30","新北市土城區金城路一段72號","121.443713333333","24.97256","6501300","土城區"
"236053","AAC-216","2017/09/14 19:19:31","新北市土城區學府路一段276號","121.450078333333","24.98311","6501300","土城區"
"242046","172-VK","2017/09/14 19:19:26","新北市樹林區中正路286-1號","121.416008333333","25.00865","6500500","新莊區"
"238015","755-BX","2017/09/14 19:19:33","新北市樹林區備內街19號","121.41269","24.9869933333333","6500700","樹林區"
"238023","601-UM","2017/09/14 19:19:37","新北市樹林區三興路41號","121.395928333333","25.01462","6500700","樹林區"
"238019","599-UM","2017/09/14 19:19:37","新北市樹林區鎮前街393號","121.415341666667","24.98374","6500700","樹林區"
"238018","571-TV","2017/09/14 19:19:39","新北市樹林區中華路219-1號","121.419331666667","24.9812583333333","6500700","樹林區"
"238024","5061-A6","2017/09/14 19:19:37","新北市樹林區福德街16號","121.401038333333","24.97613","6500700","樹林區"
"238021","KEA-2217","2017/09/14 19:19:28","新北市樹林區柑園街二段370號","121.370106666667","24.9503533333333","6500700","樹林區"
"238022","KEA-2213","2017/09/14 19:19:26","新北市樹林區中山路二段151巷12號","121.406661666667","24.978185","6500700","樹林區"
"238025","303-VK","2017/09/14 19:19:40","新北市樹林區中華路190-6號","121.410318333333","24.9806083333333","6500700","樹林區"
"238017","283-BY","2017/09/14 19:19:22","新北市樹林區光興街221號","121.408176666667","25.0048516666667","6500700","樹林區"
"238014","282-BY","2017/09/14 19:19:24","新北市樹林區中正路22-1號","121.427753333333","24.9994583333333","6500700","樹林區"
"238020","268-VK","2017/09/14 19:19:27","新北市樹林區俊英街155巷7號","121.423946666667","25.012045","6500700","樹林區"
"238026","172-UY","2017/09/14 19:19:26","新北市樹林區柑園街一段292號","121.388965","24.9561533333333","6500700","樹林區"
"238016","169-UY","2017/09/14 19:19:33","新北市樹林區中山路二段34-2號","121.417018333333","24.9853466666667","6500700","樹林區"
"239007","AAC-297","2017/09/14 19:19:34","新北市鶯歌區中山路138巷7號","121.35023","24.95873","6500800","鶯歌區"
"239006","891-R6","2017/09/14 19:19:30","新北市鶯歌區永智街109號","121.33722","24.9522016666667","6500800","鶯歌區"
"239008","527-UM","2017/09/14 19:19:39","新北市鶯歌區大湖路560號","121.336925","24.9732766666667","6500800","鶯歌區"
"239005","526-UM","2017/09/14 19:19:37","新北市鶯歌區東湖路19-1號","121.358171666667","24.9738616666667","6500800","鶯歌區"
"239001","417-VK","2017/09/14 19:19:41","新北市鶯歌區建國路463號","121.339241666667","24.95212","6500800","鶯歌區"
"239003","360-BY","2017/09/14 19:19:37","新北市鶯歌區中正二路47號","121.350568333333","24.9511733333333","6500800","鶯歌區"
"239002","359-BY","2017/09/14 19:19:28","新北市鶯歌區湖山路10號","121.341356666667","24.9732133333333","6500800","鶯歌區"
"239004","193-VK","2017/09/14 19:19:33","新北市鶯歌區二甲路106巷2號","121.333908333333","24.9313","6500800","鶯歌區"
"221036","130-UY","2017/09/14 19:19:31","新北市汐止區水源路一段3號","121.657196666667","25.0672133333333","6501100","汐止區"
"221015","131-UY","2017/09/14 19:19:40","新北市汐止區汐萬路一段256巷1號","121.651648333333","25.0748233333333","6501100","汐止區"
"221010","269-BY","2017/09/14 19:19:44","新北市汐止區康寧街901號","121.651446666667","25.0750383333333","6501100","汐止區"
"221012","276-VK","2017/09/14 13:16:06","新北市汐止區汐萬路一段256巷3號","121.653461666667","25.07459","6501100","汐止區"
"221031","277-VK","2017/09/14 19:19:42","新北市汐止區汐萬路一段256巷3號","121.652053333333","25.0747466666667","6501100","汐止區"
"221012","278-VK","2017/09/14 19:19:31","新北市汐止區汐萬路一段306號","121.650378333333","25.074615","6501100","汐止區"
"221023","279-VK","2017/09/14 19:19:35","新北市汐止區康寧街901號","121.65101","25.075295","6501100","汐止區"
"221027","281-BY","2017/09/14 19:19:41","新北市汐止區康寧街901號","121.650911666667","25.0752383333333","6501100","汐止區"
"221038","297-VK","2017/09/14 19:19:37","新北市汐止區康寧街901號","121.650705","25.075335","6501100","汐止區"
"221029","298-VK","2017/09/14 19:19:37","新北市汐止區康寧街901號","121.651553333333","25.0749083333333","6501100","汐止區"
"221021","299-VK","2017/09/14 19:19:24","新北市汐止區康寧街901號","121.651445","25.075055","6501100","汐止區"
"221008","358-BY","2017/09/14 19:19:41","新北市汐止區康寧街310號","121.626651666667","25.0672983333333","6501100","汐止區"
"221025","623-UM","2017/09/14 19:19:41","新北市汐止區汐萬路一段312號","121.650395","25.0750266666667","6501100","汐止區"
"221033","647-BX","2017/09/14 19:19:39","新北市汐止區南勢街3號","121.627055","25.0373083333333","6501100","汐止區"
"221002","707-TV","2017/09/14 19:19:30","新北市汐止區大同路一段398-1號","121.640253333333","25.06011","6501100","汐止區"
"221018","753-BX","2017/09/14 19:19:33","新北市汐止區康寧街901號","121.65158","25.0748533333333","6501100","汐止區"
"220079","145-BY","2017/09/14 19:19:34","新北市板橋區民權路202巷17弄7號","121.460488333333","25.0165583333333","6500100","板橋區"
"220080","200-UY","2017/09/14 19:19:25","新北市板橋區大觀路二段3巷101號","121.450531666667","25.00321","6500100","板橋區"
"220082","610-BX","2017/09/14 19:19:41","新北市板橋區篤行路三段玉平巷68弄13號","121.427271666667","24.9861483333333","6500100","板橋區"
"220097","257-TC","2017/09/14 19:19:35","新北市板橋區幸福路51號","121.461168333333","25.01994","6500100","板橋區"
"220091","267-BY","2017/09/14 19:19:37","新北市板橋區萬板路408號","121.479023333333","25.0256","6500100","板橋區"
"220056","276-BY","2017/09/14 19:19:33","新北市板橋區信義路91-2號","121.457263333333","24.9938316666667","6500100","板橋區"
"220072","277-BY","2017/09/14 19:19:39","新北市板橋區金門街339-1號","121.429306666667","24.985505","6500100","板橋區"
"220101","280-UM","2017/09/14 19:19:36","新北市板橋區莊敬路75巷35號","121.474013333333","25.026255","6500100","板橋區"
"220071","283-VK","2017/09/14 19:19:42","新北市板橋區重慶路269巷13號","121.463918333333","24.9994033333333","6500100","板橋區"
"220094","285-UM","2017/09/14 19:19:29","新北市板橋區吳鳳路23號","121.467008333333","25.0311433333333","6500100","板橋區"
"220053","285-VK","2017/09/14 19:19:09","新北市板橋區富山街5號","121.478611666667","25.0215783333333","6500100","板橋區"
"220083","286-VK","2017/09/14 19:19:44","新北市板橋區大觀路二段174巷165弄4號","121.441648333333","25.0033683333333","6500100","板橋區"
"220081","287-VK","2017/09/14 19:19:37","新北市板橋區南雅西路一段51號","121.453713333333","25.0048983333333","6500100","板橋區"
"220090","288-VK","2017/09/14 19:19:28","新北市板橋區長江路一段106巷13弄35號","121.461345","25.0298433333333","6500100","板橋區"
"220061","295-UM","2017/09/14 19:19:33","新北市板橋區中山路二段318巷18號","121.48042","25.0188166666667","6500100","板橋區"
"220075","297-UM","2017/09/14 19:19:43","新北市板橋區僑中一街124巷70-5號","121.449468333333","25.0173833333333","6500100","板橋區"
"242001","281-VK","2017/09/14 16:51:15","新北市新莊區環河路636-7號","121.43736","25.011235","6500500","新莊區"
"220062","305-R5","2017/09/14 19:19:33","新北市板橋區三民路二段居仁巷1-2號","121.479356666667","25.0132933333333","6500100","板橋區"
"220092","307-R5","2017/09/14 19:19:29","新北市板橋區松江街62號","121.468676666667","25.0275083333333","6500100","板橋區"
"220098","317-R6","2017/09/14 19:19:39","新北市板橋區民有街91號","121.46461","25.0276233333333","6500100","板橋區"
"220064","486-VK","2017/09/14 19:19:38","新北市板橋區中山路一段10號","121.460035","25.00787","6500100","板橋區"
"220089","487-VK","2017/09/14 19:19:34","新北市板橋區文化路一段407號","121.467348333333","25.0221283333333","6500100","板橋區"
"220088","491-VK","2017/09/14 19:19:38","新北市板橋區雙十路二段85號","121.475686666667","25.0274633333333","6500100","板橋區"
"220035","560-BX","2017/09/14 19:19:35","新北市板橋區中正路360巷12號","121.454988333333","25.02363","6500100","板橋區"
"220103","561-BX","2017/09/14 19:19:37","新北市板橋區介壽街15號","121.467613333333","25.0201766666667","6500100","板橋區"
"220084","568-UM","2017/09/14 19:19:42","新北市板橋區溪崑二街56巷25號","121.427606666667","24.9910066666667","6500100","板橋區"
"220063","609-BX","2017/09/14 19:19:28","新北市板橋區三民路二段60號","121.479233333333","25.0174816666667","6500100","板橋區"
"220057","686-BX","2017/09/14 19:19:25","新北市中和區壽德街26號","121.466583333333","24.9943733333333","6500100","板橋區"
"220077","687-BX","2017/09/14 19:19:33","新北市板橋區大觀路一段28巷30號","121.449936666667","25.00953","6500100","板橋區"
"220093","689-BX","2017/09/14 19:19:26","新北市板橋區文化路一段309-1號","121.465913333333","25.01996","6500100","板橋區"
"220054","741-BX","2017/09/14 19:19:36","新北市板橋區重慶路76巷1號","121.461723333333","25.0063233333333","6500100","板橋區"
"220055","827-TW","2017/09/14 19:19:40","新北市板橋區館前東路156巷50號","121.464756666667","25.0066433333333","6500100","板橋區"
"220067","829-TW","2017/09/14 19:19:34","新北市板橋區長安街138巷1弄45號","121.47406","25.0102966666667","6500100","板橋區"
"220096","831-TW","2017/09/14 19:19:42","新北市板橋區大同街8巷20號","121.477316666667","25.026165","6500100","板橋區"
"220073","985-R7","2017/09/14 19:19:36","新北市板橋區新生街89巷2號","121.458201666667","25.02213","6500100","板橋區"
"220070","AAC-253","2017/09/14 19:19:44","新北市板橋區忠孝路181號","121.464255","25.0026033333333","6500100","板橋區"
