"lineid","car","time","location","longitude","latitude","cityid","cityname"
"234046","148-BY","2017/09/14 19:39:28","新北市永和區秀朗路二段89號","121.523265","25.0017283333333","6500400","永和區"
"234013","149-BY","2017/09/14 19:39:40","新北市永和區永平路258號","121.508165","25.0113466666667","6500400","永和區"
"234007","207-UY","2017/09/14 19:39:26","新北市永和區永和路一段36號","121.513053333333","25.0052933333333","6500400","永和區"
"234081","298-R6","2017/09/14 19:39:37","新北市永和區林森路44巷6弄2-1號","121.525316666667","25.0050816666667","6500400","永和區"
"234038","336-UY","2017/09/14 19:39:36","新北市永和區民樂街39巷13號","121.528285","25.000425","6500400","永和區"
"234064","337-UY","2017/09/14 19:39:24","新北市永和區秀朗路一段192巷6弄14號","121.519115","25.002275","6500400","永和區"
"234086","338-UY","2017/09/14 19:39:42","新北市永和區林森路41巷31號","121.526298333333","25.0043433333333","6500400","永和區"
"234070","552-UM","2017/09/14 19:39:33","新北市永和區竹林路112-2號","121.519828333333","25.0116866666667","6500400","永和區"
"234054","553-UM","2017/09/14 19:39:40","新北市永和區竹林路39巷22號","121.518931666667","25.0147416666667","6500400","永和區"
"234017","745-BX","2017/09/14 19:39:40","新北市永和區忠孝街26巷27弄2號","121.515211666667","25.0170466666667","6500400","永和區"
"234030","746-BX","2017/09/14 19:39:36","新北市永和區民生路67巷36號","121.524623333333","24.9973233333333","6500400","永和區"
"234061","AAD-866","2017/09/14 19:39:39","新北市永和區中正路372號","121.517668333333","25.0009933333333","6500400","永和區"
"234042","862-TW","2017/09/14 19:39:39","新北市永和區中和路597巷4號","121.512241666667","25.00455","6500400","永和區"
"234050","863-TW","2017/09/14 19:39:33","新北市永和區保安路37號","121.509801666667","25.016115","6500400","永和區"
"234026","9371-KE","2017/09/14 19:39:38","新北市永和區中和路503號","121.510683333333","25.0023683333333","6500400","永和區"
"249002","305-UY","2017/09/14 19:39:26","新北市八里區頂寮二街35號","121.450296666667","25.1251283333333","6502300","八里區"
"249003","593-UM","2017/09/14 19:39:30","新北市八里區中華路二段540號","121.398953333333","25.1455233333333","6502300","八里區"
"248014","025-BX","2017/09/14 19:39:24","新北市五股區民義路一段161號","121.432503333333","25.0875733333333","6501500","五股區"
"248016","026-BX","2017/09/14 19:39:37","新北市五股區成泰路三段514號","121.45213","25.1020883333333","6501500","五股區"
"248020","225-UY","2017/09/14 19:39:23","新北市五股區中直路10-3號","121.426615","25.1114166666667","6501500","五股區"
"248012","247-BX","2017/09/14 19:39:28","新北市五股區民義路一段48號","121.436868333333","25.0848383333333","6501500","五股區"
"248010","272-BY","2017/09/14 19:39:43","新北市五股區明德路32號","121.432453333333","25.0716283333333","6501500","五股區"
"248004","677-BX","2017/09/14 19:39:41","新北市五股區成泰路二段81號","121.43808","25.0837883333333","6501500","五股區"
"248002","678-BX","2017/09/14 19:39:23","新北市五股區成泰路三段577巷45號","121.450796666667","25.1031083333333","6501500","五股區"
"234077","969-R7","2017/09/14 19:39:41","新北市永和區民權路1巷16號","121.52112","24.9981733333333","6500400","永和區"
"234074","AAC-211","2017/09/14 19:39:40","新北市永和區竹林路225巷21號","121.521971666667","25.008605","6500400","永和區"
"234067","AAC-212","2017/09/14 19:39:28","新北市永和區中山路一段197號","121.509","25.008765","6500400","永和區"
"234003","AAC-295","2017/09/14 19:39:37","新北市永和區永和路一段23號","121.512953333333","25.0057683333333","6500400","永和區"
"244019","403-UM","2017/09/14 19:39:37","新北市林口區麗園一街1號","121.375633333333","25.0726433333333","6501700","林口區"
"243013","AAD-798","2017/09/14 19:39:36","新北市泰山區應化街7號","121.423853333333","25.0437533333333","6501600","泰山區"
"243009","297-R6","2017/09/14 19:39:24","新北市泰山區美寧街60號","121.43096","25.0646766666667","6501600","泰山區"
"243015","380-SR","2017/09/14 19:39:34","新北市泰山區民權街53號","121.429026666667","25.0504116666667","6501600","泰山區"
"243014","421-VK","2017/09/14 19:39:30","新北市泰山區泰林路二段33-8號","121.435213333333","25.0565233333333","6501600","泰山區"
"243010","KEA-2215","2017/09/14 19:39:30","新北市泰山區民生路79號","121.431873333333","25.0516333333333","6501600","泰山區"
"243011","KEA-2216","2017/09/14 19:39:40","新北市泰山區台麗街77號","121.426301666667","25.0373","6501600","泰山區"
"243012","646-TV","2017/09/14 19:39:40","新北市泰山區仁愛路100巷63號","121.433845","25.054455","6501600","泰山區"
"243016","680-BX","2017/09/14 19:39:24","新北市泰山區中山路三段114號","121.41781","25.0321583333333","6501600","泰山區"
"222003","436-BY","2017/09/14 19:32:34","新北市深坑區深南路51-1號","121.621101666667","25.0100466666667","6501800","深坑區"
"222002","659-BX","2017/09/14 19:39:42","新北市深坑區北深路一段177號","121.632528333333","25.0108866666667","6501800","深坑區"
"222001","696-SL","2017/09/14 19:39:32","新北市深坑區北深路二段198號","121.613016666667","25.00163","6501800","深坑區"
"231041","002-UM","2017/09/14 19:39:23","新北市新店區中正路485號","121.533816666667","24.9818933333333","6500600","新店區"
"231059","046-UY","2017/09/14 19:39:38","新北市新店區安和路二段197號","121.517926666667","24.9750583333333","6500600","新店區"
"231061","047-UY","2017/09/14 19:39:43","新北市新店區安民街200號","121.517235","24.9717483333333","6500600","新店區"
"231060","106-UY","2017/09/14 19:39:22","新北市新店區安康路二段161號","121.510191666667","24.9593766666667","6500600","新店區"
"231051","107-UY","2017/09/14 19:39:39","新北市新店區中央四街78號","121.526483333333","24.9756283333333","6500600","新店區"
"231047","108-UY","2017/09/14 19:39:40","新北市新店區五峰路63巷8弄5號","121.547136666667","24.9693483333333","6500600","新店區"
"231052","187-VK","2017/09/14 19:39:33","新北市新店區新烏路二段489號","121.55232","24.908605","6500600","新店區"
"231007","189-VK","2017/09/14 12:01:55","新北市新店區安華路28-1號","121.519563333333","24.96112","6500600","新店區"
"231050","215-TC","2017/09/14 19:39:43","新北市新店區郵政路99號","121.554441666667","24.9513416666667","6500600","新店區"
"231057","256-BX","2017/09/14 19:39:37","新北市新店區橘園一路11號","121.548005","24.9340883333333","6500600","新店區"
"231063","268-BY","2017/09/14 19:39:23","新北市新店區達觀路8巷1-1號","121.504761666667","24.9425516666667","6500600","新店區"
"231046","278-BY","2017/09/14 19:39:39","新北市新店區中正路329巷1弄2號","121.535563333333","24.9748566666667","6500600","新店區"
"231054","AAD-862","2017/09/14 19:39:37","新北市新店區北宜路一段35號","121.538363333333","24.9575616666667","6500600","新店區"
"231058","3712-VJ","2017/09/14 19:39:38","新北市新店區中正路76巷11弄19號","121.543688333333","24.9717133333333","6500600","新店區"
"231067","4772-VM","2017/09/14 19:39:28","新北市新店區安康路一段355號","121.519925","24.9635666666667","6500600","新店區"
"231065","512-UM","2017/09/14 19:39:40","新北市新店區安祥路109巷90弄46號","121.476743333333","24.95908","6500600","新店區"
"231064","515-UM","2017/09/14 19:39:32","新北市新店區安和路一段52巷2-1號","121.517661666667","24.9662516666667","6500600","新店區"
"231042","616-UM","2017/09/14 19:39:40","新北市新店區中興路一段222號","121.54392","24.9659466666667","6500600","新店區"
"231045","617-UM","2017/09/14 19:39:30","新北市新店區北宜路二段150-1號","121.557805","24.9539783333333","6500600","新店區"
"231040","619-UM","2017/09/14 19:39:34","新北市新店區北新路一段96巷23號","121.543021666667","24.968745","6500600","新店區"
"231049","719-UM","2017/09/14 19:39:36","新北市新店區大豐路45號","121.540195","24.9798","6500600","新店區"
"231062","720-UM","2017/09/14 19:39:40","新北市新店區永業路3號","121.533988333333","24.9561516666667","6500600","新店區"
"231044","897-TW","2017/09/14 19:39:34","新北市新店區北新路三段99號","121.541438333333","24.9819816666667","6500600","新店區"
"231043","899-TW","2017/09/14 19:39:41","新北市新店區北新路二段17號","121.542736666667","24.9715116666667","6500600","新店區"
"231066","AKT-0513","2017/09/14 19:39:29","新北市新店區安康路二段341巷21號","121.497103333333","24.9545816666667","6500600","新店區"
"241011","013-R5","2017/09/14 19:39:36","新北市三重區秀江街184號","121.497921666667","25.0716066666667","6500200","三重區"
"241028","022-UY","2017/09/14 19:39:30","新北市三重區中正南路145號","121.49391","25.0566833333333","6500200","三重區"
"241008","059-VK","2017/09/14 19:39:37","新北市三重區永福街137號","121.478638333333","25.0766733333333","6500200","三重區"
"241009","060-VK","2017/09/14 19:39:22","新北市三重區三和路四段412號","121.480908333333","25.07985","6500200","三重區"
"241031","061-VK","2017/09/14 19:39:32","新北市三重區重新路四段248號","121.486053333333","25.0534566666667","6500200","三重區"
"241015","062-VK","2017/09/14 19:39:35","新北市三重區福德北路34號","121.502063333333","25.0652616666667","6500200","三重區"
"241017","063-VK","2017/09/14 19:39:32","新北市三重區重陽路三段5巷30號","121.49131","25.065335","6500200","三重區"
"241024","065-VK","2017/09/14 19:39:34","新北市三重區大勇街82巷11號","121.479541666667","25.0716166666667","6500200","三重區"
"241026","066-VK","2017/09/14 19:39:36","新北市三重區文化南路65巷22號","121.4993","25.0606583333333","6500200","三重區"
"241022","267-UM","2017/09/14 19:39:38","新北市三重區中正北路154號","121.484771666667","25.0658116666667","6500200","三重區"
"241018","268-UM","2017/09/14 19:39:25","新北市三重區大智街59號","121.49274","25.0679183333333","6500200","三重區"
"241032","269-UM","2017/09/14 19:39:36","新北市三重區三陽路116巷4號","121.483095","25.05812","6500200","三重區"
"241013","270-UM","2017/09/14 19:39:38","新北市三重區仁愛街141巷12號","121.495991666667","25.075355","6500200","三重區"
"241025","271-UM","2017/09/14 19:39:39","新北市三重區頂崁街189號","121.477551666667","25.06638","6500200","三重區"
"241007","398-BY","2017/09/14 19:39:31","新北市三重區三和路四段125巷62號","121.486875","25.0784216666667","6500200","三重區"
"241020","413-TH","2017/09/14 19:39:42","新北市三重區三和路四段20巷57號","121.489661666667","25.0736516666667","6500200","三重區"
"241035","462-BY","2017/09/14 19:39:39","新北市三重區信義西街19號","121.497698333333","25.0645933333333","6500200","三重區"
"241019","478-VK","2017/09/14 19:39:41","新北市三重區六張街194巷1弄18號","121.488145","25.06814","6500200","三重區"
"241030","480-VK","2017/09/14 19:39:29","新北市三重區新興路32號","121.492035","25.053435","6500200","三重區"
"241014","543-UM","2017/09/14 19:39:27","新北市三重區長榮路128號","121.503716666667","25.069445","6500200","三重區"
"241023","545-UM","2017/09/14 19:39:37","新北市三重區忠孝路三段99巷11號","121.479798333333","25.0642583333333","6500200","三重區"
"241001","547-UM","2017/09/14 19:39:23","新北市三重區福隆路56號","121.492721666667","25.0786683333333","6500200","三重區"
"241006","AAD-863","2017/09/14 19:39:34","新北市三重區聯華街92號","121.485583333333","25.07524","6500200","三重區"
"241012","941-UM","2017/09/14 19:39:34","新北市三重區河邊北街256巷25號","121.500755","25.0760333333333","6500200","三重區"
"241029","942-UM","2017/09/14 19:39:39","新北市三重區光明路122號","121.49286","25.05599","6500200","三重區"
"235066","003-UY","2017/09/14 19:39:29","新北市中和區景新街162號","121.505726666667","24.9972583333333","6500300","中和區"
"235064","005-UY","2017/09/14 19:39:33","新北市中和區南山路62號","121.502091666667","24.9966633333333","6500300","中和區"
"235063","006-UY","2017/09/14 19:39:35","新北市中和區連城路219巷15號","121.494878333333","24.99629","6500300","中和區"
"235056","096-UM","2017/09/14 19:39:42","新北市中和區員山路581巷31弄22號","121.476576666667","25.0103616666667","6500300","中和區"
"235039","097-UM","2017/09/14 19:39:41","新北市中和區秀峰街119巷8弄12號","121.519106666667","24.9899066666667","6500300","中和區"
"235065","098-UM","2017/09/14 19:39:33","新北市中和區中山路二段2巷45弄12號","121.502025","25.00666","6500300","中和區"
"235040","150-BY","2017/09/14 19:39:33","新北市中和區宜安路81號","121.510956666667","24.9973633333333","6500300","中和區"
"235058","151-BY","2017/09/14 19:39:37","新北市中和區員山路126-2號","121.481413333333","24.9959916666667","6500300","中和區"
"235055","183-VK","2017/09/14 19:39:31","新北市中和區中山路三段179巷5號","121.473078333333","25.0058716666667","6500300","中和區"
"235038","185-VK","2017/09/14 19:39:22","新北市中和區立人街3號","121.521788333333","24.9941016666667","6500300","中和區"
"235049","186-VK","2017/09/14 19:39:29","新北市中和區景新街224-2號","121.507343333333","24.9949233333333","6500300","中和區"
"235067","255-BX","2017/09/14 19:39:32","新北市中和區新生街186巷5弄17號","121.482885","24.9991983333333","6500300","中和區"
"235044","293-VK","2017/09/14 19:39:32","新北市中和區捷運路71號","121.50867","24.98983","6500300","中和區"
"235072","301-VK","2017/09/14 19:39:35","新北市中和區錦和路91-1號","121.490038333333","24.9956816666667","6500300","中和區"
"235043","352-BY","2017/09/14 19:39:38","新北市中和區安樂路49號","121.51198","24.9933783333333","6500300","中和區"
"235051","376-QA","2017/09/14 19:39:34","新北市中和區板南路100號","121.503851666667","24.9925266666667","6500300","中和區"
"235068","377-QA","2017/09/14 19:39:29","新北市中和區泰和街31號","121.499228333333","24.9998133333333","6500300","中和區"
"235061","378-QA","2017/09/14 19:39:44","新北市中和區員山路226巷2號","121.481508333333","25.000825","6500300","中和區"
"235050","4979-A6","2017/09/14 19:39:23","新北市中和區景平路241巷84弄54號","121.506103333333","24.99236","6500300","中和區"
"235042","551-UM","2017/09/14 19:39:30","新北市中和區中和路262巷24弄3號","121.509845","24.9992266666667","6500300","中和區"
"235070","558-UM","2017/09/14 19:39:41","新北市中和區圓通路2號","121.501871666667","24.9980683333333","6500300","中和區"
"235045","565-BX","2017/09/14 19:39:32","新北市中和區景德街141號","121.514505","24.9909483333333","6500300","中和區"
"235034","611-BX","2017/09/14 17:53:47","新北市中和區員山路36巷16-3號","121.48516","24.9913466666667","6500300","中和區"
"235054","640-BX","2017/09/14 19:39:38","新北市中和區國光街102巷11弄17號","121.470566666667","25.0016133333333","6500300","中和區"
"235060","647-TV","2017/09/14 19:39:22","新北市中和區員山路294巷22號","121.482396666667","25.00229","6500300","中和區"
"235047","732-UM","2017/09/14 19:39:42","新北市中和區南山路229巷6號","121.503911666667","24.9931333333333","6500300","中和區"
"235046","733-UM","2017/09/14 19:39:36","新北市中和區忠孝街57號","121.511683333333","24.9846533333333","6500300","中和區"
"235057","801-TS","2017/09/14 19:39:40","新北市中和區員山路437號","121.480841666667","25.0038166666667","6500300","中和區"
"235041","802-TS","2017/09/14 19:39:40","新北市中和區中和路324巷3弄7號","121.510195","25.0010866666667","6500300","中和區"
"235052","805-TS","2017/09/14 19:39:25","新北市中和區華新街143巷68號","121.506345","24.9792966666667","6500300","中和區"
"235048","896-TW","2017/09/14 19:39:35","新北市中和區忠孝街1巷2-1號","121.509148333333","24.9830466666667","6500300","中和區"
"235053","900-TW","2017/09/14 19:39:35","新北市中和區華順街30巷2號","121.466733333333","24.9988616666667","6500300","中和區"
"235037","AAC-213","2017/09/14 19:39:33","新北市中和區秀朗路三段10巷29弄5號","121.52507","24.9960066666667","6500300","中和區"
"235059","AAC-215","2017/09/14 19:39:26","新北市中和區錦和路360號","121.490645","24.991245","6500300","中和區"
"220068","013-TV","2017/09/14 19:39:36","新北市板橋區中山路二段553巷31號","121.482891666667","25.0228866666667","6500100","板橋區"
"220065","072-UY","2017/09/14 19:39:37","新北市板橋區國泰街111巷1號","121.465773333333","25.0063316666667","6500100","板橋區"
"220086","073-UY","2017/09/14 19:39:38","新北市板橋區國光路165號","121.460218333333","25.0182616666667","6500100","板橋區"
"220106","075-UY","2017/09/14 19:39:34","新北市板橋區江寧路三段33號","121.471246666667","25.0317716666667","6500100","板橋區"
"220069","AAD-861","2017/09/14 19:39:25","新北市板橋區稚暉街20號","121.455715","25.0044533333333","6500100","板橋區"
"220102","120-SR","2017/09/14 19:39:28","新北市板橋區雙十路二段70巷35號","121.476163333333","25.0287816666667","6500100","板橋區"
"247010","339-TH","2017/09/14 19:39:23","新北市五股區中興路三段163號","121.449163333333","25.0807183333333","6501400","蘆洲區"
"247004","336-TH","2017/09/14 19:39:30","新北市蘆洲區中華街6巷32號","121.462721666667","25.0822916666667","6501400","蘆洲區"
"247008","053-VK","2017/09/14 19:39:28","新北市蘆洲區中山二路45巷30號","121.474275","25.08121","6501400","蘆洲區"
"247014","007-UY","2017/09/14 19:39:40","新北市蘆洲區中正路153號","121.469203333333","25.084835","6501400","蘆洲區"
"226004","312-R5","2017/09/14 19:39:27","新北市平溪區十分里十分街312號","121.775125","25.043445","6502400","平溪區"
"228003","097-TW","2017/09/14 19:39:43","新北市貢寮區真理里美艷山街19-1號","121.923571666667","25.0682333333333","6502600","貢寮區"
"228001","212-TW","2017/09/14 19:39:43","新北市貢寮區真理里大澳街7號","121.9247","25.05576","6502600","貢寮區"
"224010","AGQ-8101","2017/09/14 19:39:30","新北市瑞芳區石碑巷47號","121.840741666667","25.1078483333333","6501200","瑞芳區"
"224002","639-TC","2017/09/14 19:39:45","新北市瑞芳區民享新村8號","121.816955","25.1054883333333","6501200","瑞芳區"
"227010","642-TC","2017/09/14 19:39:30","新北市雙溪區新基里新基北街22號","121.867166666667","25.03895","6502500","雙溪區"
"227004","030-BX","2017/09/14 19:39:31","新北市雙溪區雙溪里內挖路32號","121.863263333333","25.0366183333333","6502500","雙溪區"
"208002","742-BX","2017/09/14 19:39:26","新北市金山區四維路9號","121.635371666667","25.2225683333333","6502700","金山區"
"208003","665-BX","2017/09/14 19:39:40","新北市金山區仁愛路8號","121.638535","25.220105","6502700","金山區"
"208001","761-BX","2017/09/14 19:39:37","新北市金山區重和里六股林口21-7號","121.60412","25.220015","6502700","金山區"
"251009","008-UM","2017/09/14 19:39:45","新北市淡水區中山北路一段188-5號","121.444443333333","25.1792066666667","6501000","淡水區"
"251007","010-UM","2017/09/14 19:39:29","新北市淡水區竿蓁一街51巷5號","121.452568333333","25.1663066666667","6501000","淡水區"
"251001","011-UM","2017/09/14 19:39:35","新北市淡水區民權路77號","121.459753333333","25.13854","6501000","淡水區"
"251008","181-VK","2017/09/14 19:39:24","新北市淡水區中正路一段8巷1弄11號","121.428251666667","25.1758466666667","6501000","淡水區"
"251014","182-VK","2017/09/14 19:39:32","新北市淡水區桂竹圍4-2號","121.47447","25.23173","6501000","淡水區"
"251010","413-VK","2017/09/14 19:39:35","新北市淡水區濱海路二段202巷65弄31號","121.434655","25.1936816666667","6501000","淡水區"
"251016","442-VK","2017/09/14 19:39:35","新北市淡水區淡金路三段350巷18號","121.450768333333","25.2083616666667","6501000","淡水區"
"251005","443-VK","2017/09/14 19:39:25","新北市淡水區水源街一段47巷57號","121.444191666667","25.17443","6501000","淡水區"
"251006","561-UM","2017/09/14 19:39:32","新北市淡水區中山北路一段207巷21號","121.443455","25.179105","6501000","淡水區"
"251011","650-BX","2017/09/14 19:39:38","新北市淡水區八勢一街32巷17號","121.461011666667","25.1556666666667","6501000","淡水區"
"207003","550-UM","2017/09/14 19:39:26","新北市萬里區大鵬里下社49號","121.648641666667","25.216055","6502800","萬里區"
"207004","225-TW","2017/09/14 19:39:23","新北市萬里區萬里里瑪鋉路11號","121.687175","25.175385","6502800","萬里區"
"252002","178-VK","2017/09/14 19:39:31","新北市三芝區中正路一段18巷34-1號","121.503878333333","25.259165","6502100","三芝區"
"252001","292-VK","2017/09/14 19:39:29","新北市三芝區公正街9號","121.499761666667","25.2574683333333","6502100","三芝區"
"237004","078-UY","2017/09/14 19:39:32","新北市三峽區金敏30號","121.388641666667","24.8731533333333","6500900","三峽區"
"237007","153-BY","2017/09/14 19:39:31","新北市三峽區二鬮路110巷16號","121.359006666667","24.9095433333333","6500900","三峽區"
"237009","210-TH","2017/09/14 19:39:37","新北市三峽區中園街20-1號","121.368218333333","24.9267283333333","6500900","三峽區"
"237013","252-BX","2017/09/14 19:39:35","新北市三峽區介壽路一段394號","121.383505","24.93089","6500900","三峽區"
"237012","275-BY","2017/09/14 19:39:32","新北市三峽區民生街3號","121.37454","24.9354433333333","6500900","三峽區"
"237008","302-VK","2017/09/14 19:39:38","新北市三峽區大同路154號","121.373105","24.9268683333333","6500900","三峽區"
"237014","433-BY","2017/09/14 19:39:39","新北市三峽區大同路202-2號","121.368063333333","24.9271616666667","6500900","三峽區"
"237006","5529-G3","2017/09/14 19:39:29","新北市三峽區中正路一段336巷15弄2號","121.369955","24.9249516666667","6500900","三峽區"
"237016","649-BX","2017/09/14 19:39:43","新北市三峽區成福路156號","121.422741666667","24.92897","6500900","三峽區"
"237010","706-TV","2017/09/14 19:11:28","新北市三峽區民生街66號","121.374883333333","24.9360533333333","6500900","三峽區"
"237014","756-BX","2017/09/14 15:48:00","新北市三峽區中山路459巷163-3號","121.348871666667","24.93307","6500900","三峽區"
"237005","AKY-6261","2017/09/14 19:39:26","新北市三峽區中山路219巷17弄2號","121.363306666667","24.9362083333333","6500900","三峽區"
"236071","105-UM","2017/09/14 19:39:32","新北市土城區裕民路224號","121.453646666667","24.9841216666667","6501300","土城區"
"236042","107-UM","2017/09/14 19:39:37","新北市土城區學士路26號","121.453056666667","24.9825483333333","6501300","土城區"
"236078","166-UM","2017/09/14 19:39:35","新北市土城區中州路27巷68-1號","121.412793333333","24.9565916666667","6501300","土城區"
"236030","253-BX","2017/09/14 19:39:43","新北市土城區福祥街81號","121.441268333333","24.980955","6501300","土城區"
"236026","269-VK","2017/09/14 19:39:28","新北市土城區中央路二段61巷26號","121.44327","24.9787416666667","6501300","土城區"
"236037","271-VK","2017/09/14 19:39:37","新北市土城區清水路98巷3弄36號","121.4586","24.9808283333333","6501300","土城區"
"236021","401-BY","2017/09/14 19:39:38","新北市土城區峰廷街3號","121.469263333333","24.987485","6501300","土城區"
"236062","915-UM","2017/09/14 19:39:36","新北市土城區延平街41號","121.467993333333","24.9920183333333","6501300","土城區"
"236053","AAC-216","2017/09/14 19:39:31","新北市土城區學府路一段118號","121.455511666667","24.9875833333333","6501300","土城區"
"242031","AAC-296","2017/09/14 19:39:37","新北市新莊區新泰路213巷46號","121.445455","25.0385733333333","6500500","新莊區"
"242044","497-BY","2017/09/14 19:39:36","新北市新莊區新北大道七段556號","121.412335","25.0289766666667","6500500","新莊區"
"242046","172-VK","2017/09/14 19:39:26","新北市樹林區俊興街279號","121.418615","25.018245","6500500","新莊區"
"242013","346-TH","2017/09/14 19:39:34","新北市新莊區中誠街147巷7號","121.448933333333","25.0469416666667","6500500","新莊區"
"242011","351-TH","2017/09/14 19:39:25","新北市新莊區中環路二段392-1號","121.44241","25.0456516666667","6500500","新莊區"
"238015","755-BX","2017/09/14 19:39:38","新北市樹林區育英街80號","121.420716666667","24.9896533333333","6500700","樹林區"
"238023","601-UM","2017/09/14 19:39:39","新北市樹林區三福街46號","121.40761","25.01641","6500700","樹林區"
"238024","5061-A6","2017/09/14 19:39:37","新北市樹林區山佳街53號","121.393123333333","24.972665","6500700","樹林區"
"238021","KEA-2217","2017/09/14 19:39:28","新北市樹林區學府路208號","121.377576666667","24.949895","6500700","樹林區"
"238022","KEA-2213","2017/09/14 19:39:26","新北市樹林區名園街11號","121.419235","24.97959","6500700","樹林區"
"238025","303-VK","2017/09/14 19:39:45","新北市樹林區中山路一段372-3號","121.419068333333","24.985745","6500700","樹林區"
"238017","283-BY","2017/09/14 19:39:42","新北市樹林區光華街2號","121.413601666667","25.0038216666667","6500700","樹林區"
"238014","282-BY","2017/09/14 19:39:24","新北市樹林區千歲街28巷17號","121.426211666667","24.9956883333333","6500700","樹林區"
"238020","268-VK","2017/09/14 19:39:26","新北市樹林區俊英街111巷1-10號","121.423923333333","25.0094683333333","6500700","樹林區"
"238026","172-UY","2017/09/14 19:39:26","新北市樹林區佳園路二段77號","121.390881666667","24.960135","6500700","樹林區"
"238016","169-UY","2017/09/14 19:39:33","新北市樹林區東和街50號","121.398633333333","24.983905","6500700","樹林區"
"239007","AAC-297","2017/09/14 19:39:42","新北市鶯歌區大湖路109巷14號","121.341673333333","24.9636","6500800","鶯歌區"
"239006","891-R6","2017/09/14 19:39:30","新北市鶯歌區永昌街32巷2號","121.34304","24.9501466666667","6500800","鶯歌區"
"239004","193-VK","2017/09/14 19:39:33","新北市鶯歌區二甲路43-29號","121.336528333333","24.9342266666667","6500800","鶯歌區"
"221036","130-UY","2017/09/14 19:39:31","新北市汐止區汐萬路一段256巷1號","121.65182","25.0748466666667","6501100","汐止區"
"221015","131-UY","2017/09/14 19:39:40","新北市汐止區康寧街901號","121.651641666667","25.0748833333333","6501100","汐止區"
"221010","269-BY","2017/09/14 19:39:42","新北市汐止區汐萬路二段40-1號","121.649575","25.0813066666667","6501100","汐止區"
"221012","276-VK","2017/09/14 13:16:06","新北市汐止區汐萬路一段256巷3號","121.653461666667","25.07459","6501100","汐止區"
"221031","277-VK","2017/09/14 19:39:42","新北市汐止區福德三路127號","121.633503333333","25.0676216666667","6501100","汐止區"
"221012","278-VK","2017/09/14 19:39:31","新北市汐止區大同路三段537號","121.681016666667","25.0714016666667","6501100","汐止區"
"221023","279-VK","2017/09/14 19:39:35","新北市汐止區民族六街21-2號","121.63011","25.0690083333333","6501100","汐止區"
"221032","280-BY","2017/09/14 19:39:30","新北市汐止區新台五路一段94-1號","121.648348333333","25.0613116666667","6501100","汐止區"
"221027","281-BY","2017/09/14 19:39:21","新北市汐止區忠孝東路9號","121.658288333333","25.0659916666667","6501100","汐止區"
"221038","297-VK","2017/09/14 19:39:38","新北市汐止區忠孝東路206號","121.66188","25.0663666666667","6501100","汐止區"
"221029","298-VK","2017/09/14 19:39:37","新北市汐止區康寧街901號","121.65151","25.075075","6501100","汐止區"
"221021","299-VK","2017/09/14 19:39:24","新北市汐止區大同路二段132-2號","121.651585","25.0639416666667","6501100","汐止區"
"221008","358-BY","2017/09/14 19:39:41","新北市汐止區康寧街61巷51號","121.619815","25.0677433333333","6501100","汐止區"
"221025","623-UM","2017/09/14 19:39:41","新北市汐止區福安街19號","121.66261","25.06513","6501100","汐止區"
"221033","647-BX","2017/09/14 19:39:42","台北市南港區舊莊街二段9號","121.625008333333","25.0376016666667","6501100","汐止區"
"221018","753-BX","2017/09/14 19:39:33","新北市汐止區康寧街901號","121.651506666667","25.075135","6501100","汐止區"
"220079","145-BY","2017/09/14 19:39:34","新北市板橋區建國街103號","121.460036666667","25.0175783333333","6500100","板橋區"
"220080","200-UY","2017/09/14 19:39:24","新北市板橋區大觀路二段37巷214號","121.4494","25.00099","6500100","板橋區"
"220082","610-BX","2017/09/14 19:39:41","新北市板橋區大觀路三段261號","121.429293333333","24.9921116666667","6500100","板橋區"
"220097","257-TC","2017/09/14 19:39:31","新北市板橋區幸福路32巷12號","121.461416666667","25.0207933333333","6500100","板橋區"
"220091","267-BY","2017/09/14 19:39:37","新北市板橋區懷德街139巷27號","121.48001","25.0308716666667","6500100","板橋區"
"220056","276-BY","2017/09/14 19:39:39","新北市板橋區四川路二段47巷3弄1號","121.454215","24.994785","6500100","板橋區"
"220072","277-BY","2017/09/14 19:39:39","新北市板橋區金門街253巷1號","121.432338333333","24.9888083333333","6500100","板橋區"
"220101","280-UM","2017/09/14 19:39:36","新北市板橋區縣民大道三段33巷1弄13號","121.473393333333","25.0204966666667","6500100","板橋區"
"220071","283-VK","2017/09/14 19:39:37","新北市板橋區四川路一段283巷23號","121.459411666667","25.0006083333333","6500100","板橋區"
"220094","285-UM","2017/09/14 19:39:29","新北市板橋區宏國路93號","121.469775","25.0323","6500100","板橋區"
"220053","285-VK","2017/09/14 19:39:29","新北市板橋區中山路二段253號","121.477385","25.01754","6500100","板橋區"
"220083","286-VK","2017/09/14 19:39:38","新北市板橋區龍興街71巷17號","121.442998333333","25.0020566666667","6500100","板橋區"
"220081","287-VK","2017/09/14 19:39:37","新北市板橋區大觀路一段29巷131弄21號","121.450588333333","25.00486","6500100","板橋區"
"220090","288-VK","2017/09/14 19:39:28","新北市板橋區長江路一段48巷3弄1號","121.459116666667","25.02871","6500100","板橋區"
"220061","295-UM","2017/09/14 19:39:33","新北市板橋區漢生東路131巷7號","121.46833","25.014455","6500100","板橋區"
"220075","297-UM","2017/09/14 19:39:43","新北市板橋區大勇街28號","121.454118333333","25.0171266666667","6500100","板橋區"
"242001","281-VK","2017/09/14 16:51:15","新北市新莊區環河路636-7號","121.43736","25.011235","6500500","新莊區"
"220062","305-R5","2017/09/14 19:39:40","新北市板橋區三民路二段109巷24號","121.480535","25.01586","6500100","板橋區"
"220092","307-R5","2017/09/14 19:39:29","新北市板橋區文化路一段383號","121.467013333333","25.0218283333333","6500100","板橋區"
"220098","317-R6","2017/09/14 19:39:37","新北市板橋區四維路269巷39-3號","121.461546666667","25.0275666666667","6500100","板橋區"
"220064","486-VK","2017/09/14 19:39:36","新北市板橋區中山路一段66號","121.461425","25.0098233333333","6500100","板橋區"
"220089","487-VK","2017/09/14 19:39:34","新北市板橋區陽明街249號","121.462645","25.0249433333333","6500100","板橋區"
"220088","491-VK","2017/09/14 19:39:41","新北市板橋區文化路二段568號","121.476385","25.0345216666667","6500100","板橋區"
"220035","560-BX","2017/09/14 19:39:35","新北市板橋區金華街85巷40號","121.459128333333","25.0212883333333","6500100","板橋區"
"220103","561-BX","2017/09/14 19:39:26","新北市板橋區文化路一段288號","121.467436666667","25.02146","6500100","板橋區"
"220084","568-UM","2017/09/14 19:39:42","新北市板橋區滿平街84巷120弄30號","121.426025","24.9855133333333","6500100","板橋區"
"220063","609-BX","2017/09/14 19:39:28","新北市板橋區中山路二段553巷4弄7號","121.483495","25.0226616666667","6500100","板橋區"
"220057","686-BX","2017/09/14 19:39:25","新北市板橋區和平路安樂巷18號","121.461313333333","24.9940133333333","6500100","板橋區"
"220077","687-BX","2017/09/14 19:39:25","新北市板橋區僑中三街17號","121.446108333333","25.004585","6500100","板橋區"
"220093","689-BX","2017/09/14 19:39:39","新北市板橋區長江路一段23號","121.458381666667","25.0290516666667","6500100","板橋區"
"220054","741-BX","2017/09/14 19:39:35","新北市板橋區忠孝路192號","121.46508","25.0026483333333","6500100","板橋區"
"220055","827-TW","2017/09/14 19:39:40","新北市板橋區國慶路149巷13弄12-4號","121.46034","24.997055","6500100","板橋區"
"220067","829-TW","2017/09/14 19:39:34","新北市板橋區漢生東路193巷53號","121.471736666667","25.0118116666667","6500100","板橋區"
"220096","831-TW","2017/09/14 19:39:23","新北市板橋區萬板路36號","121.47191","25.022575","6500100","板橋區"
"220073","985-R7","2017/09/14 19:39:35","新北市板橋區國光路67巷14號","121.458898333333","25.0185733333333","6500100","板橋區"
"220070","AAC-253","2017/09/14 19:39:40","新北市板橋區民族路173號","121.468521666667","25.007565","6500100","板橋區"
