"lineid","car","time","location","longitude","latitude","cityid","cityname"
"234046","148-BY","2017/09/14 19:49:28","新北市永和區永亨路176號","121.526121666667","25.002805","6500400","永和區"
"234013","149-BY","2017/09/14 19:49:40","新北市永和區永平路286-1號","121.507621666667","25.0120016666667","6500400","永和區"
"234007","207-UY","2017/09/14 19:49:25","新北市中和區中和路262號","121.508368333333","24.9996016666667","6500400","永和區"
"234081","298-R6","2017/09/14 19:49:37","新北市永和區永亨路116巷1號","121.5236","25.0042816666667","6500400","永和區"
"234038","336-UY","2017/09/14 19:49:41","新北市永和區成功路二段131號","121.526698333333","24.9981683333333","6500400","永和區"
"234064","337-UY","2017/09/14 19:49:24","新北市永和區中正路368巷1弄12號","121.518601666667","25.0010483333333","6500400","永和區"
"234086","338-UY","2017/09/14 19:49:42","新北市永和區永亨路15號","121.519525","25.0059216666667","6500400","永和區"
"234070","552-UM","2017/09/14 19:49:42","新北市永和區大新街109巷2號","121.518461666667","25.0079566666667","6500400","永和區"
"234054","553-UM","2017/09/14 19:49:40","新北市永和區竹林路73-1號","121.518596666667","25.0131883333333","6500400","永和區"
"234017","745-BX","2017/09/14 19:49:40","新北市永和區文化路74號","121.514173333333","25.0151533333333","6500400","永和區"
"234030","746-BX","2017/09/14 19:49:30","新北市永和區民生路22巷3號","121.52219","24.9972533333333","6500400","永和區"
"234061","AAD-866","2017/09/14 19:49:39","新北市永和區中正路164號","121.515095","24.9967083333333","6500400","永和區"
"234042","862-TW","2017/09/14 19:49:39","新北市永和區中和路389巷44弄2號","121.508043333333","25.0021266666667","6500400","永和區"
"234050","863-TW","2017/09/14 19:49:32","新北市永和區保安路79號","121.508691666667","25.0147516666667","6500400","永和區"
"234026","9371-KE","2017/09/14 19:49:38","新北市永和區水源街45巷14號","121.50909","25.0036516666667","6500400","永和區"
"249001","173-UM","2017/09/14 19:49:24","新北市八里區中華路二段252號","121.405343333333","25.14968","6502300","八里區"
"249004","303-UY","2017/09/14 19:49:30","新北市八里區中山路一段268巷5弄2號","121.414591666667","25.1606916666667","6502300","八里區"
"249002","305-UY","2017/09/14 19:49:26","新北市八里區頂寮五街20號","121.451288333333","25.12621","6502300","八里區"
"249003","593-UM","2017/09/14 19:49:30","新北市八里區華峰三街72號","121.398428333333","25.145555","6502300","八里區"
"248014","025-BX","2017/09/14 19:49:24","新北市五股區五福路52巷29號","121.434593333333","25.09048","6501500","五股區"
"248016","026-BX","2017/09/14 19:49:37","新北市五股區成泰路四段16號","121.453526666667","25.1066966666667","6501500","五股區"
"248020","225-UY","2017/09/14 19:49:43","新北市五股區中直路46-1號","121.418591666667","25.1179566666667","6501500","五股區"
"248012","247-BX","2017/09/14 19:49:28","新北市五股區蓬萊路32號","121.434308333333","25.0797783333333","6501500","五股區"
"248010","272-BY","2017/09/14 19:49:45","新北市五股區登林路76-8號","121.429948333333","25.0692116666667","6501500","五股區"
"248004","677-BX","2017/09/14 19:49:41","新北市五股區成泰路一段126號","121.43525","25.0744316666667","6501500","五股區"
"248002","678-BX","2017/09/14 19:49:22","新北市五股區成泰路四段15號","121.453203333333","25.10716","6501500","五股區"
"234077","969-R7","2017/09/14 19:49:35","新北市永和區民有街21巷48號","121.517535","24.997655","6500400","永和區"
"234074","AAC-211","2017/09/14 19:49:40","新北市永和區竹林路213巷22號","121.521876666667","25.0088733333333","6500400","永和區"
"234067","AAC-212","2017/09/14 19:49:28","新北市永和區永貞路361巷1號","121.508995","25.0077133333333","6500400","永和區"
"234003","AAC-295","2017/09/14 19:49:37","新北市永和區福和路343號","121.515591666667","25.0071666666667","6500400","永和區"
"244019","403-UM","2017/09/14 19:49:37","新北市林口區文化一路一段237號","121.379818333333","25.0767283333333","6501700","林口區"
"243013","AAD-798","2017/09/14 19:49:36","新北市泰山區應化街7號","121.423868333333","25.0437266666667","6501600","泰山區"
"243009","297-R6","2017/09/14 19:49:45","新北市泰山區美寧街58號","121.430901666667","25.0647316666667","6501600","泰山區"
"243015","380-SR","2017/09/14 19:49:34","新北市泰山區明志路二段235號","121.427321666667","25.048305","6501600","泰山區"
"243014","421-VK","2017/09/14 19:49:30","新北市泰山區泰林路二段33-8號","121.43512","25.0565166666667","6501600","泰山區"
"243010","KEA-2215","2017/09/14 19:49:30","新北市泰山區民生路30號","121.431438333333","25.0518316666667","6501600","泰山區"
"243011","KEA-2216","2017/09/14 19:49:40","新北市泰山區明志路三段196巷21弄22號","121.422703333333","25.0386216666667","6501600","泰山區"
"243012","646-TV","2017/09/14 19:49:40","新北市泰山區全興路13號","121.43231","25.0589666666667","6501600","泰山區"
"243016","680-BX","2017/09/14 19:48:46","新北市泰山區明志路三段521衖519號","121.421415","25.0317","6501600","泰山區"
"222003","436-BY","2017/09/14 19:32:34","新北市深坑區深南路51-1號","121.621101666667","25.0100466666667","6501800","深坑區"
"222002","659-BX","2017/09/14 19:49:22","新北市深坑區北深路二段2巷1號","121.62159","25.0047016666667","6501800","深坑區"
"222001","696-SL","2017/09/14 19:49:32","新北市深坑區北深路三段62號","121.608068333333","25.001385","6501800","深坑區"
"231041","002-UM","2017/09/14 19:49:43","新北市新店區中央路216-1號","121.529848333333","24.9731966666667","6500600","新店區"
"231059","046-UY","2017/09/14 19:49:31","新北市新店區吉安街2號","121.517331666667","24.9656683333333","6500600","新店區"
"231061","047-UY","2017/09/14 19:49:43","新北市新店區安民街337號","121.517178333333","24.9749166666667","6500600","新店區"
"231060","106-UY","2017/09/14 19:49:43","新北市新店區安康路二段208號","121.510126666667","24.9596116666667","6500600","新店區"
"231051","107-UY","2017/09/14 19:49:39","新北市新店區中央二街73-1號","121.526123333333","24.9749433333333","6500600","新店區"
"231047","108-UY","2017/09/14 19:49:40","新北市新店區中興路二段100巷1號","121.547646666667","24.97159","6500600","新店區"
"231052","187-VK","2017/09/14 19:49:33","新北市新店區新烏路三段266號","121.550201666667","24.9000633333333","6500600","新店區"
"231007","189-VK","2017/09/14 12:01:55","新北市新店區安華路28-1號","121.519563333333","24.96112","6500600","新店區"
"231050","215-TC","2017/09/14 19:46:04","新北市新店區北宜路二段579巷13號","121.565445","24.954285","6500600","新店區"
"231057","256-BX","2017/09/14 19:49:37","新北市新店區梅崗三路1號","121.558321666667","24.9312816666667","6500600","新店區"
"231063","268-BY","2017/09/14 19:49:43","新北市新店區黎明路3號","121.503563333333","24.95243","6500600","新店區"
"231046","278-BY","2017/09/14 19:49:23","新北市新店區福園街10巷1號","121.532685","24.972745","6500600","新店區"
"231054","AAD-862","2017/09/14 19:49:31","新北市新店區光明街136號","121.539391666667","24.9612583333333","6500600","新店區"
"231055","3713-VJ","2017/09/14 19:49:40","新北市新店區新生街3巷6號","121.540215","24.9656","6500600","新店區"
"231067","4772-VM","2017/09/14 19:49:28","新北市新店區精忠路10-1號","121.53264","24.9590683333333","6500600","新店區"
"231065","512-UM","2017/09/14 19:49:40","新北市新店區安祥路109巷151弄12號","121.478071666667","24.9589866666667","6500600","新店區"
"231064","515-UM","2017/09/14 19:49:32","新北市新店區光華街8巷16號","121.51803","24.969585","6500600","新店區"
"231042","616-UM","2017/09/14 19:49:40","新北市新店區中興路一段273號","121.54519","24.9680883333333","6500600","新店區"
"231045","617-UM","2017/09/14 19:49:24","新北市新店區中生路66號","121.564588333333","24.9527033333333","6500600","新店區"
"231040","619-UM","2017/09/14 19:49:34","新北市新店區北新路一段96巷23號","121.542978333333","24.96871","6500600","新店區"
"231049","719-UM","2017/09/14 19:49:36","新北市新店區民權路121號","121.535763333333","24.9826683333333","6500600","新店區"
"231062","720-UM","2017/09/14 19:49:39","新北市新店區華潭街1巷1號","121.529541666667","24.94966","6500600","新店區"
"231044","897-TW","2017/09/14 19:49:29","新北市新店區復興路31號","121.538593333333","24.98622","6500600","新店區"
"231043","899-TW","2017/09/14 19:49:21","新北市新店區中正路213號","121.539803333333","24.9728466666667","6500600","新店區"
"241011","013-R5","2017/09/14 19:49:44","新北市三重區三和路二段173巷11號","121.498201666667","25.06999","6500200","三重區"
"241028","022-UY","2017/09/14 19:49:30","新北市三重區中正南路157號","121.49378","25.0561183333333","6500200","三重區"
"241008","059-VK","2017/09/14 19:49:37","新北市三重區永福街127號","121.478981666667","25.07694","6500200","三重區"
"241009","060-VK","2017/09/14 19:49:42","新北市三重區三和路四段396巷2-1號","121.481428333333","25.079185","6500200","三重區"
"241031","061-VK","2017/09/14 19:49:32","新北市三重區重新路四段242-3號","121.485958333333","25.0537783333333","6500200","三重區"
"241015","062-VK","2017/09/14 19:49:35","新北市三重區三和路一段2號","121.503925","25.0642516666667","6500200","三重區"
"241017","063-VK","2017/09/14 19:49:32","新北市三重區重陽路三段5巷8弄29號","121.489616666667","25.0666633333333","6500200","三重區"
"241024","065-VK","2017/09/14 19:49:35","新北市三重區大勇街89號","121.479743333333","25.0714033333333","6500200","三重區"
"241026","066-VK","2017/09/14 19:49:36","新北市三重區文化南路42號","121.500348333333","25.060335","6500200","三重區"
"241003","265-UM","2017/09/14 19:49:39","新北市三重區五華街93巷40號","121.493298333333","25.084635","6500200","三重區"
"241016","266-UM","2017/09/14 19:49:33","新北市三重區正德街41巷3號","121.496026666667","25.0627483333333","6500200","三重區"
"241022","267-UM","2017/09/14 19:49:38","新北市三重區過圳街31巷2號","121.489246666667","25.0605333333333","6500200","三重區"
"241018","268-UM","2017/09/14 19:49:25","新北市三重區自強路一段169號","121.493088333333","25.0673783333333","6500200","三重區"
"241032","269-UM","2017/09/14 19:49:36","新北市三重區重陽路一段68號","121.486503333333","25.0587716666667","6500200","三重區"
"241013","270-UM","2017/09/14 19:49:38","新北市三重區仁福街64巷30號","121.497541666667","25.0756333333333","6500200","三重區"
"241025","271-UM","2017/09/14 19:49:39","新北市三重區頂崁街210巷16號","121.476501666667","25.0677116666667","6500200","三重區"
"241007","398-BY","2017/09/14 19:49:31","新北市三重區三和路四段141號","121.484315","25.078065","6500200","三重區"
"241020","413-TH","2017/09/14 19:49:42","新北市三重區自強路三段101號","121.487865","25.075535","6500200","三重區"
"241035","462-BY","2017/09/14 19:49:39","新北市三重區文化北路25號","121.499576666667","25.0637166666667","6500200","三重區"
"241004","475-VK","2017/09/14 19:49:28","新北市三重區五華街74號","121.493435","25.08194","6500200","三重區"
"241019","478-VK","2017/09/14 19:49:41","新北市三重區自強路二段74巷23-1號","121.487831666667","25.0697866666667","6500200","三重區"
"241030","480-VK","2017/09/14 19:49:30","新北市三重區環河南路254巷37號","121.48961","25.0513433333333","6500200","三重區"
"241014","543-UM","2017/09/14 19:49:27","新北市三重區三和路二段21巷28號","121.501941666667","25.06733","6500200","三重區"
"241023","545-UM","2017/09/14 19:49:37","新北市三重區大有街1-9號","121.477573333333","25.0660083333333","6500200","三重區"
"241001","547-UM","2017/09/14 19:49:43","新北市三重區仁愛街327巷68號","121.493671666667","25.08043","6500200","三重區"
"241006","AAD-863","2017/09/14 19:49:34","新北市三重區永福街218號","121.482965","25.0745833333333","6500200","三重區"
"241012","941-UM","2017/09/14 19:49:34","新北市三重區仁福街64巷23號","121.49769","25.0753816666667","6500200","三重區"
"241029","942-UM","2017/09/14 19:49:39","新北市三重區光明路11號","121.491013333333","25.0588","6500200","三重區"
"241033","AAC-255","2017/09/14 19:49:28","新北市三重區中興南街66號","121.470656666667","25.0439533333333","6500200","三重區"
"235066","003-UY","2017/09/14 19:49:29","新北市中和區南工路26號","121.505578333333","25.0008833333333","6500300","中和區"
"235064","005-UY","2017/09/14 19:49:33","新北市中和區南山路62-2號","121.502201666667","24.9964033333333","6500300","中和區"
"235063","006-UY","2017/09/14 19:49:35","新北市中和區連城路176號","121.493068333333","24.9970016666667","6500300","中和區"
"235056","096-UM","2017/09/14 19:49:42","新北市中和區中山路三段112號","121.4762","25.0060083333333","6500300","中和區"
"235039","097-UM","2017/09/14 19:49:41","新北市中和區景德街1號","121.51915","24.9913066666667","6500300","中和區"
"235065","098-UM","2017/09/14 19:49:33","新北市中和區永和路8號","121.500045","25.00303","6500300","中和區"
"235040","150-BY","2017/09/14 19:49:33","新北市中和區安和路43號","121.509638333333","24.99484","6500300","中和區"
"235058","151-BY","2017/09/14 19:49:37","新北市中和區員山路146巷17號","121.482361666667","24.9968466666667","6500300","中和區"
"235055","183-VK","2017/09/14 19:49:31","新北市中和區中山路三段181巷18弄11號","121.472668333333","25.0048866666667","6500300","中和區"
"235038","185-VK","2017/09/14 19:49:42","新北市中和區自立路139巷8號","121.52248","24.993675","6500300","中和區"
"235049","186-VK","2017/09/14 19:49:29","新北市中和區中興街55號","121.500648333333","24.9938233333333","6500300","中和區"
"235067","255-BX","2017/09/14 19:49:32","新北市中和區新生街220巷1弄4號","121.483271666667","24.9981833333333","6500300","中和區"
"235044","293-VK","2017/09/14 19:49:32","新北市中和區南山路238號","121.507046666667","24.989715","6500300","中和區"
"235043","352-BY","2017/09/14 19:49:38","新北市中和區華新街230號","121.506055","24.981775","6500300","中和區"
"235051","376-QA","2017/09/14 19:49:34","新北市中和區中興街123號","121.500053333333","24.9917716666667","6500300","中和區"
"235068","377-QA","2017/09/14 19:49:28","新北市中和區莊敬路16巷15弄10號","121.500696666667","25.0039733333333","6500300","中和區"
"235061","378-QA","2017/09/14 19:49:31","新北市中和區新生街148巷24號","121.482523333333","25.0008616666667","6500300","中和區"
"235050","4979-A6","2017/09/14 19:49:23","新北市中和區景平路241巷64弄1號","121.507698333333","24.9923916666667","6500300","中和區"
"235069","4980-A6","2017/09/14 19:49:37","新北市中和區南山路37巷8弄1號","121.502626666667","24.99876","6500300","中和區"
"235042","551-UM","2017/09/14 19:49:29","新北市中和區景安路65號","121.507115","24.99778","6500300","中和區"
"235070","558-UM","2017/09/14 19:49:21","新北市中和區景平路575-1號","121.497891666667","24.9998783333333","6500300","中和區"
"235045","565-BX","2017/09/14 19:49:32","新北市中和區景新街332號","121.511858333333","24.99082","6500300","中和區"
"235034","611-BX","2017/09/14 17:53:47","新北市中和區員山路36巷16-3號","121.48516","24.9913466666667","6500300","中和區"
"235054","640-BX","2017/09/14 19:49:38","新北市中和區民德路126號","121.468786666667","25.0009283333333","6500300","中和區"
"235060","647-TV","2017/09/14 19:49:42","新北市中和區新生街16巷9號","121.4827","25.0042416666667","6500300","中和區"
"235047","732-UM","2017/09/14 19:49:42","新北市中和區捷運路57號","121.50924","24.989685","6500300","中和區"
"235046","733-UM","2017/09/14 19:49:26","新北市中和區仁愛街96號","121.511531666667","24.9872783333333","6500300","中和區"
"235057","801-TS","2017/09/14 19:49:40","新北市中和區員山路150-20號","121.481376666667","24.9979033333333","6500300","中和區"
"235041","802-TS","2017/09/14 19:49:40","新北市永和區中和路573號","121.51187","25.0036566666667","6500300","中和區"
"235052","805-TS","2017/09/14 19:49:25","新北市中和區華新街192巷13號","121.506586666667","24.98264","6500300","中和區"
"235048","896-TW","2017/09/14 19:49:35","新北市中和區興南路二段5號","121.508006666667","24.9864233333333","6500300","中和區"
"235053","900-TW","2017/09/14 19:49:35","新北市中和區國光街215巷6弄1號","121.466546666667","25.00148","6500300","中和區"
"235037","AAC-213","2017/09/14 19:49:33","新北市中和區秀朗路三段128巷1弄1號","121.524698333333","24.9923133333333","6500300","中和區"
"235059","AAC-215","2017/09/14 19:49:26","新北市中和區圓通路335巷73號","121.49414","24.9893283333333","6500300","中和區"
"220068","013-TV","2017/09/14 19:49:40","新北市板橋區光復街133巷10號","121.48456","25.0199016666667","6500100","板橋區"
"220065","072-UY","2017/09/14 19:49:37","新北市板橋區實踐路91號","121.464093333333","25.0054083333333","6500100","板橋區"
"220086","073-UY","2017/09/14 19:49:23","新北市板橋區中正路1巷4號","121.45567","25.0119383333333","6500100","板橋區"
"220106","075-UY","2017/09/14 19:49:34","新北市板橋區文化路二段604號","121.477055","25.0349683333333","6500100","板橋區"
"220069","AAD-861","2017/09/14 19:49:23","新北市板橋區南雅南路二段18號","121.454415","25.0035083333333","6500100","板橋區"
"220102","120-SR","2017/09/14 19:49:25","新北市板橋區文化路二段410巷1弄3號","121.474448333333","25.0312166666667","6500100","板橋區"
"247010","339-TH","2017/09/14 19:49:43","新北市蘆洲區中正路520巷10號","121.463535","25.0998616666667","6501400","蘆洲區"
"247002","337-TH","2017/09/14 19:49:29","新北市蘆洲區永平街6號","121.459818333333","25.0906666666667","6501400","蘆洲區"
"247004","336-TH","2017/09/14 19:49:30","新北市蘆洲區中原路49號","121.45933","25.0823066666667","6501400","蘆洲區"
"247006","056-VK","2017/09/14 19:49:35","新北市蘆洲區永安南路二段40-1號","121.466745","25.0773316666667","6501400","蘆洲區"
"247008","053-VK","2017/09/14 19:49:28","新北市蘆洲區中山一路54號","121.479225","25.0809066666667","6501400","蘆洲區"
"247014","007-UY","2017/09/14 19:49:40","新北市蘆洲區保和街29號","121.470543333333","25.0865216666667","6501400","蘆洲區"
"226004","312-R5","2017/09/14 19:49:34","新北市平溪區嶺腳里中華街7-1號","121.742555","25.02555","6502400","平溪區"
"228003","097-TW","2017/09/14 19:49:43","新北市貢寮區真理里延平街171號","121.925433333333","25.0591383333333","6502600","貢寮區"
"228001","212-TW","2017/09/14 19:49:43","新北市貢寮區仁理村仁愛路95號","121.927423333333","25.05519","6502600","貢寮區"
"224010","AGQ-8101","2017/09/14 19:49:30","新北市瑞芳區輕便路55號","121.845098333333","25.11027","6501200","瑞芳區"
"224002","639-TC","2017/09/14 19:49:25","新北市瑞芳區員山子路員山巷1號","121.816828333333","25.1036066666667","6501200","瑞芳區"
"227010","642-TC","2017/09/14 19:49:30","新北市雙溪區新基里中華路95號","121.865821666667","25.038705","6502500","雙溪區"
"227004","030-BX","2017/09/14 19:49:31","新北市雙溪區雙溪里內挖路67號","121.863465","25.0365383333333","6502500","雙溪區"
"208002","742-BX","2017/09/14 19:49:40","新北市金山區中華路372號","121.633403333333","25.2247566666667","6502700","金山區"
"208003","665-BX","2017/09/14 19:49:40","新北市金山區海興路112-1號","121.631121666667","25.2386766666667","6502700","金山區"
"208001","761-BX","2017/09/14 19:49:36","新北市金山區重和里茅埔頭6號","121.603938333333","25.2165333333333","6502700","金山區"
"251009","008-UM","2017/09/14 19:49:34","新北市淡水區中正路38-1號","121.443693333333","25.1692766666667","6501000","淡水區"
"251001","011-UM","2017/09/14 19:49:35","新北市淡水區中正東路二段87-3號","121.459423333333","25.152865","6501000","淡水區"
"251008","181-VK","2017/09/14 19:49:36","新北市淡水區中正路一段24巷9號","121.42658","25.17711","6501000","淡水區"
"251014","182-VK","2017/09/14 19:49:32","新北市淡水區番社前4號","121.474431666667","25.2362966666667","6501000","淡水區"
"251010","413-VK","2017/09/14 19:49:35","新北市淡水區下圭柔山91-4號","121.42976","25.2088966666667","6501000","淡水區"
"251012","441-VK","2017/09/14 19:49:26","新北市淡水區埤島6-10號","121.446223333333","25.19401","6501000","淡水區"
"251016","442-VK","2017/09/14 19:49:35","新北市淡水區下圭柔山121-12號","121.45564","25.2089683333333","6501000","淡水區"
"251005","443-VK","2017/09/14 19:49:25","新北市淡水區原德路5號","121.44204","25.1711383333333","6501000","淡水區"
"251006","561-UM","2017/09/14 19:49:32","新北市淡水區水碓街10號","121.44358","25.1769833333333","6501000","淡水區"
"251011","650-BX","2017/09/14 19:49:38","新北市淡水區淡金路二段401號","121.446885","25.1869966666667","6501000","淡水區"
"207003","550-UM","2017/09/14 19:49:27","新北市萬里區大鵬里萬里加投68號","121.642451666667","25.2147933333333","6502800","萬里區"
"207004","225-TW","2017/09/14 19:49:23","新北市萬里區萬里里瑪鋉路170號","121.689863333333","25.1797866666667","6502800","萬里區"
"252002","178-VK","2017/09/14 19:49:31","新北市三芝區三民街27巷5號","121.504663333333","25.2583716666667","6502100","三芝區"
"252001","292-VK","2017/09/14 19:49:29","新北市三芝區公正街66號","121.499815","25.25746","6502100","三芝區"
"237004","078-UY","2017/09/14 19:49:32","新北市三峽區添福14-13號","121.37425","24.900815","6500900","三峽區"
"237007","153-BY","2017/09/14 19:49:31","新北市三峽區二鬮路136巷20弄75號","121.357831666667","24.9093633333333","6500900","三峽區"
"237009","210-TH","2017/09/14 19:49:37","新北市三峽區清水街426號","121.368696666667","24.9261166666667","6500900","三峽區"
"237013","252-BX","2017/09/14 19:49:35","新北市三峽區橫溪路74號","121.397353333333","24.9352716666667","6500900","三峽區"
"237012","275-BY","2017/09/14 19:49:32","新北市三峽區中華路11巷2號","121.373963333333","24.93229","6500900","三峽區"
"237008","302-VK","2017/09/14 19:49:38","新北市三峽區永安街113巷5號","121.37442","24.928515","6500900","三峽區"
"237014","433-BY","2017/09/14 19:49:39","新北市三峽區嘉添227-5號","121.370463333333","24.9095883333333","6500900","三峽區"
"237006","5529-G3","2017/09/14 19:49:29","新北市三峽區中正路一段336巷15弄2號","121.369953333333","24.9249633333333","6500900","三峽區"
"237016","649-BX","2017/09/14 19:49:43","新北市三峽區溪東路345號","121.411126666667","24.9297766666667","6500900","三峽區"
"237014","756-BX","2017/09/14 15:48:00","新北市三峽區中山路459巷163-3號","121.348871666667","24.93307","6500900","三峽區"
"237005","AKY-6261","2017/09/14 19:49:26","新北市三峽區民生街92號","121.374078333333","24.9356283333333","6500900","三峽區"
"236071","105-UM","2017/09/14 19:49:32","新北市土城區中央路二段212號","121.441966666667","24.9755966666667","6501300","土城區"
"236042","107-UM","2017/09/14 19:49:41","新北市土城區裕民路280號","121.455415","24.9821316666667","6501300","土城區"
"236078","166-UM","2017/09/14 19:49:35","新北市土城區中央路四段410巷3號","121.411143333333","24.9532233333333","6501300","土城區"
"236030","253-BX","2017/09/14 19:49:43","新北市土城區中央路一段294號","121.443296666667","24.9822966666667","6501300","土城區"
"236026","269-VK","2017/09/14 19:49:42","新北市土城區中央路二段61巷28號","121.44345","24.97872","6501300","土城區"
"236037","271-VK","2017/09/14 19:49:37","新北市土城區國際路158巷54號","121.467951666667","24.9748583333333","6501300","土城區"
"236021","401-BY","2017/09/14 19:49:18","新北市土城區峰廷街3號","121.469195","24.9874666666667","6501300","土城區"
"236058","912-UM","2017/09/14 19:49:30","新北市土城區中央路二段2號","121.443011666667","24.98087","6501300","土城區"
"236062","915-UM","2017/09/14 19:49:37","新北市土城區延和路105巷6弄3號","121.467471666667","24.991115","6501300","土城區"
"236053","AAC-216","2017/09/14 19:49:40","新北市土城區延和路57號","121.466615","24.9896833333333","6501300","土城區"
"242031","AAC-296","2017/09/14 19:49:37","新北市新莊區忠孝街103號","121.443843333333","25.0373766666667","6500500","新莊區"
"242029","986-R7","2017/09/14 19:49:36","新北市新莊區三和路12-21號","121.442298333333","25.03844","6500500","新莊區"
"242023","613-BX","2017/09/14 19:49:27","新北市新莊區化成路162-1號","121.465508333333","25.0453566666667","6500500","新莊區"
"242044","497-BY","2017/09/14 19:49:36","新北市新莊區新北大道七段712號","121.412301666667","25.0266166666667","6500500","新莊區"
"242034","442-UM","2017/09/14 19:49:43","新北市新莊區仁愛街54巷1號","121.444938333333","25.03718","6500500","新莊區"
"242048","441-UM","2017/09/14 19:49:37","新北市新莊區後港一路28巷3弄1號","121.425543333333","25.0255","6500500","新莊區"
"242004","413-TV","2017/09/14 19:49:31","新北市新莊區復興路三段71-1號","121.462593333333","25.0445066666667","6500500","新莊區"
"242061","362-BY","2017/09/14 19:49:39","新北市新莊區中正路473-1號","121.442031666667","25.0330183333333","6500500","新莊區"
"242058","353-BY","2017/09/14 19:49:36","新北市新莊區八德街59號","121.424723333333","25.0219816666667","6500500","新莊區"
"242036","133-UY","2017/09/14 19:49:29","新北市新莊區建安街60號","121.427135","25.0247133333333","6500500","新莊區"
"242021","135-UY","2017/09/14 19:49:29","新北市新莊區建中街52號","121.448375","25.03732","6500500","新莊區"
"242046","172-VK","2017/09/14 19:49:26","新北市新莊區富國路77巷23號","121.420456666667","25.0265616666667","6500500","新莊區"
"242002","176-VK","2017/09/14 19:49:34","新北市新莊區新泰路2-11號","121.45013","25.0324966666667","6500500","新莊區"
"242013","346-TH","2017/09/14 19:49:35","新北市新莊區中誠街69巷3號","121.450716666667","25.0476116666667","6500500","新莊區"
"242017","350-TH","2017/09/14 19:49:34","新北市新莊區中華路一段226號","121.452611666667","25.0430166666667","6500500","新莊區"
"242011","351-TH","2017/09/14 19:49:25","新北市新莊區中和街195號","121.44833","25.0517283333333","6500500","新莊區"
"238015","755-BX","2017/09/14 19:49:33","新北市樹林區樹德街8號","121.422923333333","24.9914866666667","6500700","樹林區"
"238023","601-UM","2017/09/14 19:49:37","新北市樹林區三寶街12號","121.406448333333","25.0157033333333","6500700","樹林區"
"238024","5061-A6","2017/09/14 19:49:37","新北市樹林區育德街78-1號","121.388423333333","24.9682016666667","6500700","樹林區"
"238021","KEA-2217","2017/09/14 19:49:28","新北市樹林區佳園路三段390號","121.38377","24.9447866666667","6500700","樹林區"
"238022","KEA-2213","2017/09/14 19:49:26","新北市樹林區國凱街35號","121.420058333333","24.9788366666667","6500700","樹林區"
"238025","303-VK","2017/09/14 19:49:40","新北市樹林區中華路188-4號","121.412591666667","24.9804083333333","6500700","樹林區"
"238017","283-BY","2017/09/14 19:49:22","新北市樹林區保安二街二段6-9號","121.415851666667","25.0012583333333","6500700","樹林區"
"238014","282-BY","2017/09/14 19:49:24","新北市樹林區千歲街70巷3弄2號","121.426955","24.9971133333333","6500700","樹林區"
"238020","268-VK","2017/09/14 19:49:26","新北市樹林區樹新路209-3號","121.42982","24.9981166666667","6500700","樹林區"
"238016","169-UY","2017/09/14 19:49:33","新北市樹林區中華路213號","121.419601666667","24.9813783333333","6500700","樹林區"
"239007","AAC-297","2017/09/14 19:49:34","新北市鶯歌區大湖路326巷14號","121.34615","24.9701066666667","6500800","鶯歌區"
"239006","891-R6","2017/09/14 19:49:30","新北市鶯歌區文化路253號","121.35336","24.953065","6500800","鶯歌區"
"221036","130-UY","2017/09/14 19:49:31","新北市汐止區汐萬路一段1號","121.65608","25.0673066666667","6501100","汐止區"
"221015","131-UY","2017/09/14 19:49:40","新北市汐止區茄苳路42號","121.665831666667","25.0707983333333","6501100","汐止區"
"221010","269-BY","2017/09/14 19:49:24","新北市汐止區汐萬路一段343巷13弄11號","121.650083333333","25.0765683333333","6501100","汐止區"
"221012","276-VK","2017/09/14 13:16:06","新北市汐止區汐萬路一段256巷3號","121.653461666667","25.07459","6501100","汐止區"
"221031","277-VK","2017/09/14 19:49:42","新北市汐止區福德三路127號","121.633501666667","25.0676083333333","6501100","汐止區"
"221012","278-VK","2017/09/14 19:49:31","新北市汐止區大同路三段541號","121.681133333333","25.071465","6501100","汐止區"
"221023","279-VK","2017/09/14 19:49:35","新北市汐止區民族三街42號","121.629585","25.0701066666667","6501100","汐止區"
"221032","280-BY","2017/09/14 19:49:30","新北市汐止區橫科路119號","121.620038333333","25.0503683333333","6501100","汐止區"
"221027","281-BY","2017/09/14 19:49:41","新北市汐止區忠孝東路9號","121.658318333333","25.066005","6501100","汐止區"
"221038","297-VK","2017/09/14 19:49:37","新北市汐止區忠孝東路273號","121.66364","25.0683983333333","6501100","汐止區"
"221029","298-VK","2017/09/14 19:49:37","新北市汐止區康寧街901號","121.651523333333","25.0750316666667","6501100","汐止區"
"221021","299-VK","2017/09/14 19:49:24","新北市汐止區莊敬街29巷13號","121.657085","25.0608033333333","6501100","汐止區"
"221008","358-BY","2017/09/14 19:49:41","新北市汐止區康寧街39號","121.618553333333","25.066805","6501100","汐止區"
"221035","622-UM","2017/09/14 19:49:28","新北市汐止區長江街9號","121.654655","25.0712416666667","6501100","汐止區"
"221025","623-UM","2017/09/14 19:49:41","新北市汐止區秀峰路81巷14號","121.660773333333","25.0642583333333","6501100","汐止區"
"221033","647-BX","2017/09/14 19:49:39","新北市汐止區汐碇路370巷2-1號","121.638238333333","25.0386466666667","6501100","汐止區"
"221018","753-BX","2017/09/14 19:49:33","新北市汐止區大同路二段509號","121.66141","25.0687833333333","6501100","汐止區"
"220079","145-BY","2017/09/14 19:49:34","新北市板橋區中正路183巷50號","121.454815","25.0160566666667","6500100","板橋區"
"220080","200-UY","2017/09/14 19:49:44","新北市板橋區大觀路二段37巷67號","121.449798333333","25.00246","6500100","板橋區"
"220082","610-BX","2017/09/14 19:49:41","新北市板橋區溪北路102號","121.428576666667","24.9892483333333","6500100","板橋區"
"220097","257-TC","2017/09/14 19:49:31","新北市板橋區文化路一段285巷20號","121.463858333333","25.0194566666667","6500100","板橋區"
"220091","267-BY","2017/09/14 19:49:37","新北市板橋區民治街81巷15號","121.480313333333","25.0322333333333","6500100","板橋區"
"220056","276-BY","2017/09/14 19:49:32","新北市板橋區四川路二段99巷1號","121.452725","24.99453","6500100","板橋區"
"220072","277-BY","2017/09/14 19:49:39","新北市板橋區金門街151巷25號","121.434003333333","24.9902716666667","6500100","板橋區"
"220101","280-UM","2017/09/14 19:49:36","新北市板橋區莊敬路261號","121.473806666667","25.021545","6500100","板橋區"
"220071","283-VK","2017/09/14 19:49:37","新北市板橋區信義路279巷23號","121.464965","24.99038","6500100","板橋區"
"220094","285-UM","2017/09/14 19:49:29","新北市板橋區長江路一段103號","121.459545","25.0296266666667","6500100","板橋區"
"220053","285-VK","2017/09/14 19:49:29","新北市板橋區中山路二段60巷7號","121.474211666667","25.0153583333333","6500100","板橋區"
"220083","286-VK","2017/09/14 19:49:38","新北市板橋區龍興街63巷7號","121.4427","25.001385","6500100","板橋區"
"220081","287-VK","2017/09/14 19:49:37","新北市板橋區大觀路一段28巷20號","121.449926666667","25.0091883333333","6500100","板橋區"
"220090","288-VK","2017/09/14 19:49:08","新北市板橋區龍泉街54巷8弄12號","121.457393333333","25.02687","6500100","板橋區"
"220061","295-UM","2017/09/14 19:49:33","新北市板橋區板新路200巷18號","121.468791666667","25.0164833333333","6500100","板橋區"
"220075","297-UM","2017/09/14 19:49:23","新北市板橋區金華街10巷4號","121.455966666667","25.0200683333333","6500100","板橋區"
"242001","281-VK","2017/09/14 16:51:15","新北市新莊區環河路636-7號","121.43736","25.011235","6500500","新莊區"
"220062","305-R5","2017/09/14 19:49:33","新北市板橋區三民路二段35巷17號","121.480658333333","25.01802","6500100","板橋區"
"220092","307-R5","2017/09/14 19:49:29","新北市板橋區四維路269巷21號","121.462391666667","25.02789","6500100","板橋區"
"220098","317-R6","2017/09/14 19:49:34","新北市板橋區新海路388巷9號","121.45948","25.026685","6500100","板橋區"
"220064","486-VK","2017/09/14 19:49:39","新北市板橋區實踐路195號","121.464451666667","25.00308","6500100","板橋區"
"220089","487-VK","2017/09/14 19:49:41","新北市板橋區綠堤街41-1號","121.455265","25.0259816666667","6500100","板橋區"
"220088","491-VK","2017/09/14 19:49:34","新北市板橋區仁化街64巷3號","121.475993333333","25.0317333333333","6500100","板橋區"
"220035","560-BX","2017/09/14 19:49:35","新北市板橋區金華街47號","121.456693333333","25.02043","6500100","板橋區"
"220103","561-BX","2017/09/14 19:49:26","新北市板橋區陽明街29巷4號","121.46507","25.0218116666667","6500100","板橋區"
"220084","568-UM","2017/09/14 19:49:22","新北市板橋區滿平二街4號","121.4255","24.9864383333333","6500100","板橋區"
"220063","609-BX","2017/09/14 19:49:36","新北市板橋區三民路一段5巷1號","121.479031666667","25.0233883333333","6500100","板橋區"
"220057","686-BX","2017/09/14 19:49:25","新北市板橋區信義路158號","121.45921","24.9915833333333","6500100","板橋區"
"220077","687-BX","2017/09/14 19:49:25","新北市板橋區僑中一街150號","121.444738333333","25.0120583333333","6500100","板橋區"
"220093","689-BX","2017/09/14 19:49:40","新北市板橋區長江路二段231號","121.468466666667","25.032735","6500100","板橋區"
"220054","741-BX","2017/09/14 19:49:38","新北市板橋區忠孝路忠義巷15弄114號","121.465311666667","25.0060783333333","6500100","板橋區"
"220055","827-TW","2017/09/14 19:49:40","新北市板橋區國慶路149巷4弄16-4號","121.461891666667","24.997045","6500100","板橋區"
"220067","829-TW","2017/09/14 19:49:36","新北市板橋區長安街331巷21號","121.473613333333","25.012415","6500100","板橋區"
"220096","831-TW","2017/09/14 19:49:42","新北市板橋區民生路二段240巷63號","121.470061666667","25.0229883333333","6500100","板橋區"
"220073","985-R7","2017/09/14 19:49:35","新北市板橋區中正路170號","121.456498333333","25.017225","6500100","板橋區"
"220070","AAC-253","2017/09/14 19:49:36","新北市板橋區民族路87號","121.466021666667","25.0082466666667","6500100","板橋區"
