"lineid","car","time","location","longitude","latitude"
"231009","192-VK","2017/06/02 10:59:49","新北市新店區小坑一路21-1號","121.530726666667","24.911525"
"235028","005-UY","2017/06/02 10:35:13","新北市中和區員山路36巷16-3號","121.485116666667","24.9913933333333"
"235031","255-BX","2017/06/02 09:38:57","新北市中和區員山路36巷13號","121.484366666667","24.9912566666667"
"247001","402-BY","2017/06/02 10:28:50","新北市五股區中興路三段3-6號","121.449641666667","25.0787716666667"
"227005","282-VK","2017/06/02 10:59:51","新北市雙溪區泰平里泰平16號","121.841201666667","24.9811833333333"
"252005","662-BX","2017/06/02 08:40:11","新北市三芝區埔坪里埔頭坑41號","121.504506666667","25.2644566666667"
