"lineid","car","time","location","longitude","latitude"
"234012","149-BY","2017/06/02 12:19:47","新北市永和區福和路1號","121.526443333333","25.01012"
"234068","552-UM","2017/06/02 12:19:55","新北市永和區福和路1號","121.525271666667","25.0094533333333"
"234015","745-BX","2017/06/02 12:19:48","新北市永和區福和路1號","121.526435","25.0097133333333"
"234040","862-TW","2017/06/02 12:19:50","新北市永和區福和路1號","121.526133333333","25.0098616666667"
"231009","192-VK","2017/06/02 11:46:09","新北市新店區成功路119號","121.535371666667","24.894015"
"235028","005-UY","2017/06/02 10:35:13","新北市中和區員山路36巷16-3號","121.485116666667","24.9913933333333"
"235031","255-BX","2017/06/02 11:52:27","新北市中和區和城路一段271巷1號","121.485575","24.9919083333333"
"247001","402-BY","2017/06/02 10:28:50","新北市五股區中興路三段3-6號","121.449641666667","25.0787716666667"
"252005","662-BX","2017/06/02 08:40:11","新北市三芝區埔坪里埔頭坑41號","121.504506666667","25.2644566666667"
