"lineid","car","time","location","longitude","latitude"
"234044","148-BY","2017/06/02 13:39:42","新北市永和區永元路120號","121.522778333333","25.0026066666667"
"234012","149-BY","2017/06/02 13:39:47","新北市永和區仁愛路186巷2號","121.510023333333","25.0126233333333"
"234005","207-UY","2017/06/02 13:39:55","新北市永和區永和路一段22號","121.51304","25.0048866666667"
"234078","298-R6","2017/06/02 13:39:42","新北市永和區林森路46巷1號","121.525006666667","25.0048033333333"
"234036","336-UY","2017/06/02 13:39:44","新北市永和區民樂街70號","121.527326666667","24.998285"
"234062","337-UY","2017/06/02 13:39:44","新北市永和區秀朗路一段192巷6弄12號","121.519086666667","25.0023633333333"
"234084","338-UY","2017/06/02 13:39:49","新北市永和區永亨路127號","121.52443","25.0041216666667"
"234068","552-UM","2017/06/02 13:39:55","新北市永和區永和路二段246號","121.51593","25.014715"
"234052","553-UM","2017/06/02 13:39:54","新北市永和區竹林路39巷24弄22號","121.519278333333","25.0138716666667"
"234015","745-BX","2017/06/02 13:39:48","新北市永和區永和路二段322號","121.516253333333","25.0162433333333"
"234028","746-BX","2017/06/02 13:39:38","新北市永和區民生路69號","121.522761666667","24.9972333333333"
"234060","AAD-866","2017/06/02 13:39:56","新北市永和區中正路256號","121.516786666667","24.998495"
"234040","862-TW","2017/06/02 13:39:50","新北市永和區中和路305巷2弄1號","121.50675","25.00009"
"234048","863-TW","2017/06/02 13:39:43","新北市永和區保安路13號","121.510525","25.0167883333333"
"234025","9371-KE","2017/06/02 13:39:41","新北市永和區自由街58號","121.513875","25.0059233333333"
"234010","9373-KE","2017/06/02 13:39:55","新北市永和區保福路二段135號","121.509626666667","25.0139466666667"
"248017","225-UY","2017/06/02 13:39:50","新北市五股區孝義路47巷11號","121.453481666667","25.11004"
"234022","9380-KE","2017/06/02 13:39:46","新北市永和區中正路700號","121.51638","25.0099383333333"
"234076","969-R7","2017/06/02 13:39:54","新北市永和區民權路34號","121.520268333333","24.9989416666667"
"234072","AAC-211","2017/06/02 13:39:56","新北市永和區竹林路213巷1號","121.521006666667","25.0088816666667"
"234066","AAC-212","2017/06/02 13:39:49","新北市永和區中山路一段197號","121.509078333333","25.0088133333333"
"234001","AAC-295","2017/06/02 13:37:29","新北市永和區福和路379號","121.514486666667","25.007555"
"244004","248-BX","2017/06/02 13:39:34","新北市林口區頂福里5-4號","121.360678333333","25.0829316666667"
"231030","001-UM","2017/06/02 13:39:44","新北市新店區安康路一段65號","121.530438333333","24.9610283333333"
"231002","002-UM","2017/06/02 13:39:45","新北市新店區溪園路255巷25號","121.5239","24.9807733333333"
"231025","0291-UT","2017/06/02 13:39:45","新北市新店區中正路263-1號","121.538606666667","24.9736783333333"
"231028","046-UY","2017/06/02 13:39:41","新北市新店區安和路二段185號","121.518381666667","24.9748683333333"
"231029","106-UY","2017/06/02 13:39:41","新北市新店區安康路二段199號","121.50918","24.9590066666667"
"231018","107-UY","2017/06/02 13:39:56","新北市新店區百忍街20號","121.534386666667","24.97569"
"231012","108-UY","2017/06/02 13:39:40","新北市新店區德正街27巷29弄76號","121.545876666667","24.9732966666667"
"231022","187-VK","2017/06/02 13:39:44","新北市新店區永興路88號","121.544126666667","24.9329233333333"
"231026","256-BX","2017/06/02 13:39:52","新北市新店區中正路331號","121.535955","24.975075"
"231034","268-BY","2017/06/02 13:39:39","新北市新店區達觀路8巷3號","121.504003333333","24.942855"
"231010","278-BY","2017/06/02 13:39:48","新北市新店區中正路307巷7號","121.536215","24.9741616666667"
"231016","AAD-862","2017/06/02 13:39:48","新北市新店區竹林路2巷27弄11號","121.551021666667","24.9508816666667"
"231027","3712-VJ","2017/06/02 13:39:52","新北市新店區能仁街36號","121.540883333333","24.9547833333333"
"231024","3713-VJ","2017/06/02 13:39:44","新北市新店區華興街38巷5號","121.537086666667","24.9693283333333"
"231037","4715-K9","2017/06/02 13:39:45","新北市新店區安康路三段90號","121.491838333333","24.9519633333333"
"231036","512-UM","2017/06/02 13:39:43","新北市新店區安祥路140號","121.474433333333","24.9558933333333"
"231023","513-UM","2017/06/02 13:39:55","新北市新店區國校路65巷1號","121.538333333333","24.95411"
"231035","515-UM","2017/06/02 13:39:49","新北市新店區安忠路79號","121.511193333333","24.9571366666667"
"231006","617-UM","2017/06/02 13:39:49","新北市新店區北宜路一段2號","121.538005","24.958525"
"231004","618-UM","2017/06/02 13:39:48","新北市新店區北新路二段15號","121.542738333333","24.9714616666667"
"231001","619-UM","2017/06/02 13:39:45","新北市新店區中正路366號","121.535233333333","24.9761916666667"
"231003","641-BX","2017/06/02 13:39:48","新北市新店區中興路一段285-1號","121.545515","24.9686116666667"
"231013","719-UM","2017/06/02 13:39:54","新北市新店區中正路454-5號","121.53454","24.9790566666667"
"231032","720-UM","2017/06/02 13:39:51","新北市新店區莒光路21號","121.525475","24.9600216666667"
"231005","897-TW","2017/06/02 13:39:51","新北市新店區寶中路72號","121.54791","24.9806116666667"
"231038","AKT-0513","2017/06/02 13:39:59","新北市新店區安華路30巷1號","121.51967","24.9592866666667"
"235030","003-UY","2017/06/02 13:39:47","新北市中和區水源路37號","121.50446","25.0035566666667"
"235028","005-UY","2017/06/02 13:39:39","新北市中和區連城路109巷47號","121.497135","24.99835"
"235027","006-UY","2017/06/02 13:39:44","新北市中和區連城路347巷16弄18號","121.487628333333","24.9950933333333"
"235020","096-UM","2017/06/02 13:39:48","新北市中和區員山路466巷17弄18號","121.480538333333","25.0074516666667"
"235003","097-UM","2017/06/02 13:39:41","新北市中和區大勇街27巷6號","121.517076666667","24.993665"
"235029","098-UM","2017/06/02 13:39:46","新北市中和區莊敬路33巷34弄1號","121.50009","25.0061916666667"
"235004","150-BY","2017/06/02 13:39:48","新北市中和區保健路50巷66號","121.509375","24.9951066666667"
"235022","151-BY","2017/06/02 13:39:59","新北市中和區圓通路369巷39號","121.489781666667","24.9859566666667"
"235019","183-VK","2017/06/02 13:39:41","新北市中和區莒光路105號","121.472441666667","25.0027716666667"
"235002","185-VK","2017/06/02 13:39:52","新北市中和區立人街14巷4號","121.519483333333","24.9948366666667"
"235013","186-VK","2017/06/02 13:39:51","新北市中和區景安路171號","121.505431666667","24.994405"
"235031","255-BX","2017/06/02 13:39:38","新北市中和區新生街242巷1弄9號","121.483445","24.9974433333333"
"235008","293-VK","2017/06/02 13:39:50","新北市中和區復興路301巷7號","121.50154","24.9899016666667"
"235036","301-VK","2017/06/02 13:39:42","新北市中和區連城路185號","121.495065","24.9982383333333"
"235007","352-BY","2017/06/02 13:39:55","新北市中和區景德街70號","121.516791666667","24.9917516666667"
"235015","376-QA","2017/06/02 13:39:43","新北市中和區華新街143巷106弄20號","121.50594","24.9790033333333"
"235032","377-QA","2017/06/02 13:39:50","新北市中和區中正路175號","121.497453333333","24.9934133333333"
"235025","378-QA","2017/06/02 13:39:57","新北市中和區民享街114巷23號","121.473661666667","24.9994966666667"
"235014","4979-A6","2017/06/02 13:38:54","新北市中和區景新街496巷26弄7號","121.51295","24.98608"
"235033","4980-A6","2017/06/02 13:39:37","新北市中和區泰和街1號","121.499886666667","25.0009"
"235006","551-UM","2017/06/02 13:39:42","新北市中和區成功路51巷1號","121.52665","24.9929316666667"
"235034","558-UM","2017/06/02 13:39:48","新北市中和區南華路17-2號","121.502688333333","24.9956766666667"
"235009","565-BX","2017/06/02 13:39:40","新北市中和區復興路49巷2號","121.504645","24.9898466666667"
"235018","640-BX","2017/06/02 13:39:38","新北市中和區民享街86巷30弄2號","121.473221666667","25.0008"
"235024","647-TV","2017/06/02 13:39:48","新北市中和區中山路二段525號","121.481626666667","25.0052633333333"
"235011","732-UM","2017/06/02 13:39:57","新北市中和區南山路320巷3號","121.50763","24.986525"
"235010","733-UM","2017/06/02 13:39:52","新北市中和區捷運路48-1號","121.508091666667","24.9904283333333"
"235035","783-BX","2017/06/02 13:39:47","新北市中和區光環路二段309號","121.487288333333","25.0140716666667"
"235026","800-TS","2017/06/02 13:39:38","新北市中和區中山路二段312巷12號","121.495376666667","25.0037383333333"
"235021","801-TS","2017/06/02 13:40:00","新北市中和區民享街97巷19號","121.475473333333","24.9995566666667"
"235005","802-TS","2017/06/02 13:39:54","新北市中和區永貞路249巷18號","121.512426666667","25.003625"
"235016","805-TS","2017/06/02 13:40:00","新北市中和區興南路三段52巷6號","121.493873333333","24.9761366666667"
"235012","896-TW","2017/06/02 13:39:50","新北市中和區中正路69號","121.501136666667","24.99343"
"235017","900-TW","2017/06/02 13:39:41","新北市中和區莒光路211-39號","121.47034","24.9931666666667"
"235001","AAC-213","2017/06/02 13:39:42","新北市中和區景德街141號","121.51457","24.9909316666667"
"235023","AAC-215","2017/06/02 13:39:47","新北市中和區員山路36巷16-3號","121.48518","24.9910533333333"
"220068","013-TV","2017/06/02 13:39:48","新北市板橋區民生路二段22號","121.472861666667","25.016635"
"220013","072-UY","2017/06/02 13:39:37","新北市板橋區民生路二段16號","121.47301","25.0165916666667"
"220034","073-UY","2017/06/02 13:39:39","新北市板橋區華東街328號","121.452856666667","25.0033383333333"
"247001","402-BY","2017/06/02 13:39:46","新北市蘆洲區民族路500號","121.469695","25.090445"
"247013","057-VK","2017/06/02 13:39:38","新北市五股區中興路三段2巷10號","121.448723333333","25.0815433333333"
"247003","056-VK","2017/06/02 13:39:46","新北市五股區中興路三段2巷10號","121.448308333333","25.0818433333333"
"227011","400-TW","2017/06/02 12:51:02","新北市雙溪區三貂里政光路3-1號","121.850893333333","25.06301"
"252005","662-BX","2017/06/02 08:40:11","新北市三芝區埔坪里埔頭坑41號","121.504506666667","25.2644566666667"
"236041","107-UM","2017/06/02 13:39:53","新北市土城區城林路6巷80號","121.43848","24.9798283333333"
"236077","166-UM","2017/06/02 13:39:53","新北市土城區城林路6巷80號","121.438446666667","24.979885"
"236029","253-BX","2017/06/02 13:39:42","新北市土城區城林路6巷80號","121.438421666667","24.97984"
"236025","269-VK","2017/06/02 13:39:52","新北市土城區中華路一段236號","121.439246666667","24.980095"
"236013","270-VK","2017/06/02 13:39:40","新北市土城區城林路6巷80號","121.438528333333","24.979795"
"236035","271-VK","2017/06/02 13:39:50","新北市土城區城林路6巷80號","121.43868","24.9796766666667"
"236006","498-BY","2017/06/02 13:39:52","新北市土城區中華路二段90號","121.438276666667","24.9749233333333"
"236054","AAC-216","2017/06/02 13:39:52","新北市土城區城林路6巷80號","121.43838","24.9798516666667"
"242044","172-VK","2017/06/02 13:39:42","新北市新莊區民安西路143號","121.426396666667","25.016955"
"238020","308-TH","2017/06/02 13:39:52","新北市樹林區育德街78-1號","121.38833","24.9682783333333"
"221015","131-UY","2017/06/02 13:39:43","新北市汐止區汐萬路二段228巷31弄12號","121.648171666667","25.0912083333333"
"221032","280-BY","2017/06/02 13:39:56","新北市汐止區仁愛路10號","121.65943","25.063545"
"220027","145-BY","2017/06/02 13:39:51","新北市板橋區南雅南路二段120-23號","121.452035","24.9986066666667"
"220050","245-BX","2017/06/01 21:36:16","新北市板橋區民生路二段120號","121.470411666667","25.01951"
"220004","276-BY","2017/06/02 13:39:44","新北市土城區四川路23號","121.455155","24.995875"
"220020","277-BY","2017/06/02 13:39:38","新北市板橋區華東街1-10號","121.448286666667","24.99509"
"220012","280-UM","2017/06/02 13:39:39","新北市板橋區民生路二段36-1號","121.472651666667","25.0167716666667"
"220043","283-UM","2017/06/02 13:39:46","新北市板橋區民生路二段161巷1號","121.470186666667","25.02018"
"220019","283-VK","2017/06/02 13:39:56","新北市板橋區民生路二段16-1號","121.473058333333","25.016435"
"220001","285-VK","2017/06/02 13:39:48","新北市板橋區民生路二段22號","121.472808333333","25.0166916666667"
"220029","287-VK","2017/06/02 13:39:54","新北市板橋區華東街1-10號","121.448285","24.9950433333333"
"220028","293-UM","2017/06/02 13:40:01","新北市板橋區民生路二段16-1號","121.473146666667","25.0164466666667"
"220032","296-UM","2017/06/02 13:39:45","新北市板橋區華東街1-9號","121.448136666667","24.9949666666667"
"220023","297-UM","2017/06/02 13:39:48","新北市板橋區華東街1-9號","121.448208333333","24.9949966666667"
"220010","305-R5","2017/06/02 13:32:25","新北市板橋區中山路二段89巷6弄5號","121.474071666667","25.0172566666667"
"220047","317-R6","2017/06/02 00:41:23","新北市板橋區民生路二段120號","121.470366666667","25.0200233333333"
"220028","461-BY","2017/06/02 13:39:40","新北市板橋區華東街1-9號","121.448253333333","24.994885"
"220104","560-BX","2017/06/02 13:39:50","新北市板橋區華東街322號","121.45282","25.0031916666667"
"220011","609-BX","2017/06/02 13:39:55","新北市板橋區民生路二段22號","121.47285","25.0166733333333"
"220005","686-BX","2017/06/02 13:39:43","新北市板橋區民生路二段22號","121.472861666667","25.016635"
"220025","687-BX","2017/06/02 13:39:45","新北市板橋區華東街1-10號","121.448258333333","24.9949583333333"
"220002","741-BX","2017/06/02 13:39:45","新北市板橋區民生路二段22號","121.472995","25.016785"
"220030","806-UM","2017/06/02 13:39:50","新北市板橋區華東街1-10號","121.448368333333","24.9950083333333"
"220055","827-TW","2017/06/02 13:39:49","新北市板橋區民生路二段22號","121.472696666667","25.0165716666667"
"220022","895-R6","2017/06/02 13:39:56","新北市板橋區南門街34號","121.457115","25.0084683333333"
"220021","985-R7","2017/06/02 13:39:46","新北市板橋區華東街1-10號","121.448343333333","24.995035"
"220046","AAC-210","2017/06/02 13:39:47","新北市板橋區民生路二段180號","121.470901666667","25.0200916666667"
"220018","AAC-253","2017/06/02 13:39:50","新北市板橋區民生路二段22號","121.47276","25.016705"
