"lineid","car","time","location","longitude","latitude","cityid","cityname"
"248005","653-BX","2017/09/04 09:58:58","新北市五股區蓬萊路6巷10號","121.43583","25.0800283333333","6501500","五股區"
"244018","403-UM","2017/09/04 09:59:16","新北市林口區麗園二街62號","121.38137","25.0683216666667","6501700","林口區"
"244022","483-VK","2017/09/04 09:59:01","新北市林口區仁愛路二段377號","121.370286666667","25.08002","6501700","林口區"
"244010","701-TV","2017/09/04 09:59:19","新北市林口區汕頭2-1號","121.360503333333","25.1334633333333","6501700","林口區"
"222001","696-SL","2017/09/04 09:59:06","新北市新店區薏仁坑路5號","121.499181666667","24.959015","6501800","深坑區"
"231007","189-VK","2017/09/04 09:59:11","新北市新店區新潭路三段215巷25號","121.508138333333","24.9040566666667","6500600","新店區"
"231008","192-VK","2017/09/04 09:47:58","新北市新店區平廣路一段256號","121.507935","24.8883533333333","6500600","新店區"
"223003","205-TH","2017/09/04 09:59:11","新北市石碇區北宜路四段26號","121.623166666667","24.9578966666667","6501900","石碇區"
"223008","406-TH","2017/09/04 09:59:15","新北市石碇區頭3號","121.706718333333","24.9959516666667","6501900","石碇區"
"223001","437-BY","2017/09/04 09:59:06","新北市石碇區北宜路四段25號","121.622943333333","24.9579516666667","6501900","石碇區"
"223007","661-BX","2017/09/04 09:59:19","新北市石碇區南勢坑2-6號","121.701266666667","24.9925116666667","6501900","石碇區"
"227005","282-VK","2017/09/04 09:57:45","新北市雙溪區泰平里灣潭路36號","121.81275","24.9290566666667","6502500","雙溪區"
"253003","6232-TK","2017/09/04 09:59:05","新北市石門區尖子鹿103號","121.579985","25.293735","6502200","石門區"
"253001","6251-TK","2017/09/04 09:59:01","新北市石門區崁子腳56號","121.537485","25.2743166666667","6502200","石門區"
"253002","637-UY","2017/09/04 09:58:37","新北市石門區楓林58號","121.542223333333","25.2729966666667","6502200","石門區"
"253004","8270-PC","2017/09/04 09:59:16","新北市石門區茂林社區228號","121.591293333333","25.2690016666667","6502200","石門區"
"252004","249-BX","2017/09/04 09:59:04","新北市三芝區福德里大水堀15號","121.515078333333","25.22191","6502100","三芝區"
"252006","AAC-283","2017/09/04 09:59:05","新北市三芝區新庄里新庄子51-46號","121.507141666667","25.278195","6502100","三芝區"
"236007","165-UM","2017/09/04 09:59:00","新北市土城區城林路6巷80號","121.43879","24.9796833333333","6501300","土城區"
"236005","498-BY","2017/09/04 09:59:18","新北市土城區中華路二段2號","121.439125","24.9797216666667","6501300","土城區"
