"lineid","car","time","location","longitude","latitude","cityid","cityname"
"244018","403-UM","2017/09/04 10:56:53","新北市林口區粉寮69號","121.405101666667","25.0908166666667","6501700","林口區"
"231007","189-VK","2017/09/04 10:59:11","新北市新店區新潭路一段160巷17號","121.529633333333","24.9319633333333","6500600","新店區"
"231008","192-VK","2017/09/04 10:59:18","新北市新店區松林路81號","121.54848","24.9076116666667","6500600","新店區"
"223007","661-BX","2017/09/04 10:59:17","新北市石碇區碇坪路一段18號","121.651921666667","25.0046183333333","6501900","石碇區"
"227005","282-VK","2017/09/04 10:59:05","新北市雙溪區泰平里泰平17號","121.844653333333","24.9817083333333","6502500","雙溪區"
"252006","AAC-283","2017/09/04 10:51:48","新北市三芝區埔坪里埔頭坑41號","121.504435","25.2644383333333","6502100","三芝區"
"242047","442-UM","2017/09/04 10:59:06","新北市新莊區三和路12-21號","121.44186","25.0388366666667","6500500","新莊區"
