"lineid","car","time","location","longitude","latitude","cityid","cityname"
"244018","403-UM","2017/09/04 10:56:53","新北市林口區粉寮69號","121.405101666667","25.0908166666667","6501700","林口區"
"231007","189-VK","2017/09/04 11:09:11","新北市新店區新潭路一段160巷17號","121.529616666667","24.9319733333333","6500600","新店區"
"231008","192-VK","2017/09/04 11:09:18","新北市新店區成功路58-1號","121.538678333333","24.8999033333333","6500600","新店區"
"227005","282-VK","2017/09/04 11:09:05","新北市雙溪區魚行里丁子蘭坑29號","121.851551666667","25.008815","6502500","雙溪區"
"252006","AAC-283","2017/09/04 10:51:48","新北市三芝區埔坪里埔頭坑41號","121.504435","25.2644383333333","6502100","三芝區"
"242047","442-UM","2017/09/04 10:59:32","新北市新莊區三和路12-21號","121.441996666667","25.0388283333333","6500500","新莊區"
