"lineid","car","time","location","longitude","latitude","cityid","cityname"
"244018","403-UM","2017/09/04 10:56:53","新北市林口區粉寮69號","121.405101666667","25.0908166666667","6501700","林口區"
"231008","192-VK","2017/09/04 11:59:18","新北市新店區屈尺路32號","121.54833","24.9226366666667","6500600","新店區"
"235031","255-BX","2017/09/04 11:40:09","新北市中和區和城路一段271巷1號","121.48546","24.9918783333333","6500300","中和區"
"227005","282-VK","2017/09/04 11:59:05","新北市雙溪區牡丹里中正路103號","121.861676666667","25.0474483333333","6502500","雙溪區"
"252006","AAC-283","2017/09/04 10:51:48","新北市三芝區埔坪里埔頭坑41號","121.504435","25.2644383333333","6502100","三芝區"
"242047","442-UM","2017/09/04 10:59:32","新北市新莊區三和路12-21號","121.441996666667","25.0388283333333","6500500","新莊區"
