"lineid","car","time","location","longitude","latitude","cityid","cityname"
"234044","148-BY","2017/09/04 13:09:00","新北市永和區永元路18巷9號","121.523176666667","25.0002716666667","6500400","永和區"
"234012","149-BY","2017/09/04 13:09:14","新北市永和區保福路二段62-1號","121.510815","25.01239","6500400","永和區"
"234005","207-UY","2017/09/04 13:09:07","新北市永和區中山路一段211號","121.508798333333","25.00837","6500400","永和區"
"234078","298-R6","2017/09/04 13:09:00","新北市永和區福和路57巷14弄1號","121.52269","25.0069466666667","6500400","永和區"
"234036","336-UY","2017/09/04 13:09:16","新北市永和區環河東路4段84-1號","121.528466666667","24.99794","6500400","永和區"
"234062","337-UY","2017/09/04 13:09:14","新北市永和區秀朗路二段63號","121.522121666667","25.0021033333333","6500400","永和區"
"234084","338-UY","2017/09/04 13:09:16","新北市永和區永貞路113號","121.517688333333","25.004325","6500400","永和區"
"234068","552-UM","2017/09/04 13:09:00","新北市永和區豫溪街121號","121.519211666667","25.0101483333333","6500400","永和區"
"234052","553-UM","2017/09/04 13:09:05","新北市永和區中興街133巷8號","121.518643333333","25.0126633333333","6500400","永和區"
"234015","745-BX","2017/09/04 13:09:03","新北市永和區文化路90巷15弄1號","121.513776666667","25.0159366666667","6500400","永和區"
"234030","746-BX","2017/09/04 13:09:13","新北市永和區厚德街108號","121.52316","24.9992316666667","6500400","永和區"
"234060","AAD-866","2017/09/04 13:09:08","新北市永和區安樂路304巷2號","121.514435","25.005","6500400","永和區"
"234040","862-TW","2017/09/04 13:09:15","新北市永和區保平路93巷2弄6號","121.511351666667","25.0066316666667","6500400","永和區"
"234048","863-TW","2017/09/04 13:09:05","新北市永和區文化路135巷28號","121.510731666667","25.0142116666667","6500400","永和區"
"234025","9371-KE","2017/09/04 13:09:09","新北市永和區秀朗路一段10巷19號","121.513491666667","25.00619","6500400","永和區"
"234010","9373-KE","2017/09/04 13:09:15","新北市永和區文化路124號","121.513085","25.015445","6500400","永和區"
"248013","025-BX","2017/09/04 13:09:07","新北市五股區中興路四段61號","121.4378","25.082865","6501500","五股區"
"248015","026-BX","2017/09/04 13:09:08","新北市五股區中興路三段196號","121.441858333333","25.0819416666667","6501500","五股區"
"248005","077-UY","2017/09/04 13:09:00","新北市五股區中興路二段86號","121.460758333333","25.077365","6501500","五股區"
"248007","095-VK","2017/09/04 13:09:15","新北市蘆洲區永安南路二段296號","121.457285","25.081975","6501500","五股區"
"248019","225-UY","2017/09/04 13:09:01","新北市五股區成泰路三段544-1號","121.454506666667","25.1018233333333","6501500","五股區"
"248011","247-BX","2017/09/04 13:09:04","新北市五股區中興路三段5號","121.449483333333","25.0799383333333","6501500","五股區"
"248009","272-BY","2017/09/04 13:09:13","新北市五股區成泰路一段212號","121.436478333333","25.079245","6501500","五股區"
"248003","677-BX","2017/09/04 13:09:01","新北市五股區中興路三段198號","121.441093333333","25.0822316666667","6501500","五股區"
"248001","678-BX","2017/09/04 13:09:08","新北市五股區中興路三段196號","121.442133333333","25.08196","6501500","五股區"
"234022","9380-KE","2017/09/04 13:08:58","新北市永和區中興街27號","121.516125","25.0120733333333","6500400","永和區"
"234076","969-R7","2017/09/04 13:09:14","新北市永和區中正路164號","121.515133333333","24.9966466666667","6500400","永和區"
"234072","AAC-211","2017/09/04 13:09:20","新北市永和區竹林路199-1號","121.520615","25.0090916666667","6500400","永和區"
"234066","AAC-212","2017/09/04 13:09:14","新北市永和區保平路10號","121.51278","25.007645","6500400","永和區"
"234001","AAC-295","2017/09/04 13:09:06","新北市永和區中山路一段147號","121.510196666667","25.0094633333333","6500400","永和區"
"244018","403-UM","2017/09/04 10:56:53","新北市林口區粉寮69號","121.405101666667","25.0908166666667","6501700","林口區"
"244001","657-BX","2017/09/04 13:09:08","新北市林口區嘉寶里3-1號","121.36525","25.09535","6501700","林口區"
"243005","AAD-798","2017/09/04 13:09:10","新北市泰山區犁頭窠10號","121.421776666667","25.056815","6501600","泰山區"
"243001","297-R6","2017/09/04 12:00:11","新北市泰山區黎明路25號","121.422048333333","25.0608733333333","6501600","泰山區"
"231028","001-UM","2017/09/04 13:09:16","新北市新店區安華路28-1號","121.519491666667","24.96104","6500600","新店區"
"231030","047-UY","2017/09/04 13:09:12","新北市新店區安華路28-1號","121.519075","24.961075","6500600","新店區"
"231029","106-UY","2017/09/04 13:09:10","新北市新店區安華路28-1號","121.519623333333","24.9608933333333","6500600","新店區"
"231018","107-UY","2017/09/04 13:09:04","新北市新店區安華路28-1號","121.519415","24.9613533333333","6500600","新店區"
"231011","108-UY","2017/09/04 13:09:08","新北市新店區安華路28-1號","121.51965","24.960955","6500600","新店區"
"231019","187-VK","2017/09/04 13:09:05","新北市新店區安華路28-1號","121.519585","24.9610716666667","6500600","新店區"
"231026","256-BX","2017/09/04 13:09:07","新北市新店區安華路28-1號","121.519538333333","24.9611016666667","6500600","新店區"
"231010","278-BY","2017/09/04 00:47:13","新北市新店區安華路28-1號","121.519693333333","24.9610966666667","6500600","新店區"
"231014","AAD-862","2017/09/04 13:09:08","新北市新店區安華路28-1號","121.519918333333","24.9611566666667","6500600","新店區"
"231001","355-BY","2017/09/04 13:09:04","新北市新店區安華路28-1號","121.519085","24.961015","6500600","新店區"
"231027","3712-VJ","2017/09/04 13:09:15","新北市新店區安華路28-1號","121.519315","24.960685","6500600","新店區"
"231024","3713-VJ","2017/09/04 13:09:07","新北市新店區安華路28-1號","121.519248333333","24.9606133333333","6500600","新店區"
"231025","4716-K9","2017/09/04 13:08:59","新北市新店區安華路28-1號","121.51985","24.96122","6500600","新店區"
"231038","4715-K9","2017/09/04 13:09:11","新北市新店區安華路28-1號","121.519156666667","24.9606783333333","6500600","新店區"
"231036","512-UM","2017/09/04 13:09:14","新北市新店區安華路28-1號","121.519281666667","24.9613016666667","6500600","新店區"
"231023","513-UM","2017/09/04 13:09:05","新北市新店區安華路28-1號","121.519661666667","24.96121","6500600","新店區"
"231035","515-UM","2017/09/04 13:09:14","新北市新店區安華路28-1號","121.519871666667","24.9610416666667","6500600","新店區"
"231003","616-UM","2017/09/04 13:09:09","新北市新店區安華路28-1號","121.51947","24.960575","6500600","新店區"
"231006","617-UM","2017/09/04 13:09:18","新北市新店區安華路28-1號","121.51944","24.9610433333333","6500600","新店區"
"231034","645-TV","2017/09/04 13:09:11","新北市新店區安華路1-1號","121.519355","24.960545","6500600","新店區"
"231013","719-UM","2017/09/04 13:09:13","新北市新店區安華路28-1號","121.519536666667","24.961415","6500600","新店區"
"231031","720-UM","2017/09/04 13:09:15","新北市新店區安華路28-1號","121.519336666667","24.96129","6500600","新店區"
"231005","897-TW","2017/09/04 13:09:01","新北市新店區安華路28-1號","121.519756666667","24.9607333333333","6500600","新店區"
"231004","899-TW","2017/09/04 13:09:18","新北市新店區安華路28-1號","121.519228333333","24.960975","6500600","新店區"
"231037","AKT-0513","2017/09/04 13:09:02","新北市新店區安華路28-1號","121.519695","24.9609366666667","6500600","新店區"
"235030","003-UY","2017/09/04 13:09:04","新北市中和區廣福路116號","121.501891666667","25.0009483333333","6500300","中和區"
"235028","005-UY","2017/09/04 13:09:00","新北市中和區和城路一段271巷1號","121.485375","24.99184","6500300","中和區"
"235004","150-BY","2017/09/04 13:07:31","新北市中和區和城路一段271巷1號","121.485455","24.9917366666667","6500300","中和區"
"235022","151-BY","2017/09/04 13:09:03","新北市中和區圓通路367巷21號","121.492945","24.9857766666667","6500300","中和區"
"235019","183-VK","2017/09/04 03:45:31","新北市中和區員山路36巷16-3號","121.485063333333","24.99135","6500300","中和區"
"235002","185-VK","2017/09/04 13:09:19","新北市中和區秀朗路三段10巷14弄24-2號","121.525038333333","24.99709","6500300","中和區"
"235031","255-BX","2017/09/04 13:09:14","新北市中和區中山路二段469號","121.483473333333","25.004985","6500300","中和區"
"235015","376-QA","2017/09/04 13:09:18","新北市中和區板南路128巷8號","121.503066666667","24.9928266666667","6500300","中和區"
"235032","377-QA","2017/09/04 13:08:59","新北市中和區員山路36巷16-3號","121.485166666667","24.9912216666667","6500300","中和區"
"235014","4979-A6","2017/09/04 13:09:07","新北市中和區和城路一段271巷1號","121.485436666667","24.991925","6500300","中和區"
"235033","4980-A6","2017/09/04 13:09:03","新北市中和區圓通路282號","121.491565","24.99067","6500300","中和區"
"235018","640-BX","2017/09/04 13:09:08","新北市中和區連城路469巷79弄2號","121.483545","24.9937116666667","6500300","中和區"
"235011","732-UM","2017/09/04 13:09:02","新北市中和區和城路一段271巷1號","121.485448333333","24.991915","6500300","中和區"
"235026","800-TS","2017/09/04 13:09:11","新北市中和區錦和路69號","121.489506666667","24.9982216666667","6500300","中和區"
"235001","AAC-213","2017/09/04 13:09:01","新北市中和區景平路353號","121.504833333333","24.993545","6500300","中和區"
"235023","AAC-215","2017/09/04 13:08:58","新北市中和區員山路36巷16-3號","121.484983333333","24.9912966666667","6500300","中和區"
"227005","282-VK","2017/09/04 13:09:05","新北市雙溪區三貂里定福路1-2號","121.850775","25.0634066666667","6502500","雙溪區"
"208004","AAC-292","2017/09/04 13:09:18","新北市金山區中山路186號","121.638036666667","25.2213616666667","6502700","金山區"
"207002","749-BX","2017/09/04 13:09:10","新北市萬里區溪底里香員林路7號","121.63269","25.164845","6502800","萬里區"
"252005","249-BX","2017/09/04 13:09:10","新北市三芝區八賢里八連溪1-7號","121.507171666667","25.2491783333333","6502100","三芝區"
"207001","662-BX","2017/09/04 13:09:07","新北市萬里區萬里里瑪鋉路157號","121.689793333333","25.1781583333333","6502800","萬里區"
"252006","AAC-283","2017/09/04 10:51:48","新北市三芝區埔坪里埔頭坑41號","121.504435","25.2644383333333","6502100","三芝區"
"236005","498-BY","2017/09/04 13:09:17","新北市土城區亞洲路60號","121.435236666667","24.9736116666667","6501300","土城區"
"242047","442-UM","2017/09/04 10:59:32","新北市新莊區三和路12-21號","121.441996666667","25.0388283333333","6500500","新莊區"
"221032","280-BY","2017/09/04 13:09:14","新北市汐止區大同路二段389號","121.657751666667","25.0673016666667","6501100","汐止區"
"221002","753-BX","2017/09/04 13:09:12","新北市汐止區中興路228巷1號","121.630466666667","25.0673383333333","6501100","汐止區"
"242001","281-VK","2017/09/04 13:09:15","新北市新莊區瓊林路21-1號","121.446016666667","25.0284966666667","6500500","新莊區"
