"lineid","car","time","location","longitude","latitude","cityid","cityname"
"234046","148-BY","2017/09/04 19:27:37","新北市永和區永元路54號","121.52234","25.0011583333333","6500400","永和區"
"234013","149-BY","2017/09/04 19:27:52","新北市永和區永貞路379號","121.50816","25.0084816666667","6500400","永和區"
"234007","207-UY","2017/09/04 19:27:38","新北市永和區永和路一段127號","121.51404","25.0085683333333","6500400","永和區"
"234081","298-R6","2017/09/04 19:27:55","新北市永和區環河東路三段52巷2弄2號","121.526536666667","25.006105","6500400","永和區"
"234038","336-UY","2017/09/04 19:27:52","新北市永和區民樂街30巷1號","121.527581666667","25.00106","6500400","永和區"
"234064","337-UY","2017/09/04 19:27:41","新北市永和區中正路368巷1弄75號","121.52046","25.00079","6500400","永和區"
"234086","338-UY","2017/09/04 19:27:49","新北市永和區永貞路45號","121.520011666667","25.0044816666667","6500400","永和區"
"234070","552-UM","2017/09/04 19:27:54","新北市永和區竹林路95號","121.519668333333","25.0120866666667","6500400","永和區"
"234054","553-UM","2017/09/04 19:27:54","新北市永和區復興街19巷2號","121.516151666667","25.0130916666667","6500400","永和區"
"234017","745-BX","2017/09/04 19:27:58","新北市永和區環河西路一段87號","121.512363333333","25.0179933333333","6500400","永和區"
"234030","746-BX","2017/09/04 19:27:39","新北市永和區民權路53-1號","121.520535","24.99653","6500400","永和區"
"234061","AAD-866","2017/09/04 19:27:42","新北市永和區中正路505號","121.516983333333","25.0069733333333","6500400","永和區"
"234042","862-TW","2017/09/04 19:27:57","新北市永和區中和路603號","121.512348333333","25.0042216666667","6500400","永和區"
"234050","863-TW","2017/09/04 19:27:50","新北市永和區信義路97-2號","121.512066666667","25.01418","6500400","永和區"
"234026","9371-KE","2017/09/04 19:27:49","新北市永和區安樂路144巷29號","121.51512","24.9997833333333","6500400","永和區"
"234011","9373-KE","2017/09/04 19:28:00","新北市永和區保福路二段163巷17號","121.508985","25.014445","6500400","永和區"
"249003","593-UM","2017/09/04 19:27:55","新北市八里區商港路52巷1弄2號","121.395575","25.1481566666667","6502300","八里區"
"248008","095-VK","2017/09/04 19:27:55","新北市五股區中興路一段105號","121.466368333333","25.07313","6501500","五股區"
"248018","225-UY","2017/09/04 19:27:49","新北市五股區壟路14-8號","121.41538","25.0864666666667","6501500","五股區"
"248012","247-BX","2017/09/04 19:27:57","新北市五股區中興路四段48巷16號","121.438661666667","25.0834566666667","6501500","五股區"
"248010","272-BY","2017/09/04 19:27:54","新北市五股區水碓一路23號","121.430665","25.07128","6501500","五股區"
"248004","677-BX","2017/09/04 19:27:51","新北市五股區五福路31號","121.433738333333","25.0892066666667","6501500","五股區"
"248002","678-BX","2017/09/04 19:27:51","新北市五股區凌雲路一段158巷6號","121.447865","25.10318","6501500","五股區"
"234023","9380-KE","2017/09/04 19:27:50","新北市永和區竹林路91巷45號","121.521313333333","25.0128816666667","6500400","永和區"
"234077","969-R7","2017/09/04 19:27:48","新北市永和區民權路80號","121.519793333333","24.9976933333333","6500400","永和區"
"234074","AAC-211","2017/09/04 19:27:43","新北市永和區光復街60巷4弄10號","121.517008333333","25.0178083333333","6500400","永和區"
"234067","AAC-212","2017/09/04 19:27:57","新北市永和區永貞路360巷8號","121.510616666667","25.0068533333333","6500400","永和區"
"234003","AAC-295","2017/09/04 19:27:54","新北市永和區永和路一段178號","121.514191666667","25.008855","6500400","永和區"
"244013","069-UM","2017/09/04 19:27:57","新北市林口區文化一路一段126號","121.37574","25.0722333333333","6501700","林口區"
"244019","403-UM","2017/09/04 19:27:48","新北市林口區麗園二街10-6號","121.378303333333","25.0695216666667","6501700","林口區"
"244023","483-VK","2017/09/04 19:27:50","新北市林口區文化三路二段181-1號","121.37605","25.082625","6501700","林口區"
"243013","AAD-798","2017/09/04 19:27:58","新北市泰山區明志路三段145巷11弄1號","121.425646666667","25.039835","6501600","泰山區"
"243009","297-R6","2017/09/04 19:27:42","新北市泰山區半山雅2號","121.431813333333","25.0674183333333","6501600","泰山區"
"243015","380-SR","2017/09/04 19:27:48","新北市泰山區明志路二段50號","121.42928","25.052875","6501600","泰山區"
"243014","421-VK","2017/09/04 19:27:43","新北市泰山區仁愛路6巷7號","121.431215","25.0537333333333","6501600","泰山區"
"243010","548-UM","2017/09/04 19:27:56","新北市泰山區民生路17巷63號","121.429196666667","25.0509716666667","6501600","泰山區"
"243011","549-UM","2017/09/04 19:27:48","新北市泰山區貴子路64號","121.426738333333","25.0414066666667","6501600","泰山區"
"243012","646-TV","2017/09/04 19:27:46","新北市泰山區仁義路220巷2號","121.43295","25.053885","6501600","泰山區"
"243016","680-BX","2017/09/04 19:27:44","新北市泰山區明志路三段352巷10號","121.42121","25.035645","6501600","泰山區"
"222003","436-BY","2017/09/04 19:27:48","新北市深坑區深南路100號","121.621826666667","25.01202","6501800","深坑區"
"222002","659-BX","2017/09/04 19:27:58","新北市深坑區北深路一段177號","121.63252","25.0109033333333","6501800","深坑區"
"222001","696-SL","2017/09/04 19:27:39","新北市深坑區北深路二段117號","121.616873333333","25.0031083333333","6501800","深坑區"
"231059","001-UM","2017/09/04 19:27:52","新北市新店區安和路三段157號","121.516426666667","24.9857733333333","6500600","新店區"
"231041","002-UM","2017/09/04 19:27:52","新北市新店區中正路695巷2號","121.533916666667","24.9905583333333","6500600","新店區"
"231061","047-UY","2017/09/04 19:27:44","新北市新店區安民街50號","121.516108333333","24.9657783333333","6500600","新店區"
"231060","106-UY","2017/09/04 19:27:46","新北市新店區安和路一段2-2號","121.517121666667","24.9645166666667","6500600","新店區"
"231051","107-UY","2017/09/04 19:27:52","新北市新店區中央路95巷4號","121.53144","24.97485","6500600","新店區"
"231047","108-UY","2017/09/04 19:27:48","新北市新店區五峰路70巷11號","121.546145","24.9676266666667","6500600","新店區"
"231052","187-VK","2017/09/04 19:27:48","新北市新店區屈尺路62巷1號","121.547098333333","24.9226833333333","6500600","新店區"
"231057","256-BX","2017/09/04 19:27:40","新北市新店區花園一路三段46號","121.549605","24.933035","6500600","新店區"
"231063","268-BY","2017/09/04 19:27:49","新北市新店區達觀路14巷3號","121.503258333333","24.941705","6500600","新店區"
"231046","278-BY","2017/09/04 19:27:47","新北市新店區環河路2號","121.538501666667","24.9617133333333","6500600","新店區"
"231050","AAD-862","2017/09/04 19:27:53","新北市新店區北宜路二段82巷3號","121.55356","24.9530716666667","6500600","新店區"
"231040","355-BY","2017/09/04 19:27:58","新北市新店區中華路14號","121.540548333333","24.9675216666667","6500600","新店區"
"231058","3712-VJ","2017/09/04 19:27:41","新北市新店區北新路二段185號","121.542791666667","24.977625","6500600","新店區"
"231067","4772-VM","2017/09/04 19:27:42","新北市新店區安康路二段320巷15弄2號","121.504245","24.9596416666667","6500600","新店區"
"231065","512-UM","2017/09/04 19:27:58","新北市新店區安祥路109巷3弄54號","121.477085","24.960775","6500600","新店區"
"231054","513-UM","2017/09/04 19:27:43","新北市新店區文中路40-6號","121.5398","24.9565016666667","6500600","新店區"
"231064","515-UM","2017/09/04 19:27:50","新北市新店區安康路二段85巷15號","121.513915","24.9619616666667","6500600","新店區"
"231042","616-UM","2017/09/04 19:27:53","新北市新店區中興路一段51號","121.539666666667","24.9601833333333","6500600","新店區"
"231045","617-UM","2017/09/04 19:27:56","新北市新店區北宜路二段209號","121.553183333333","24.9532766666667","6500600","新店區"
"231049","719-UM","2017/09/04 19:27:43","新北市新店區二十張路1巷3弄3號","121.54063","24.9820916666667","6500600","新店區"
"231062","720-UM","2017/09/04 19:27:42","新北市新店區莒光路97號","121.522566666667","24.95411","6500600","新店區"
"231044","897-TW","2017/09/04 19:27:57","新北市新店區中興路三段255號","121.542473333333","24.984335","6500600","新店區"
"231043","899-TW","2017/09/04 19:27:55","新北市新店區北新路二段268號","121.542503333333","24.9787","6500600","新店區"
"231066","AKT-0513","2017/09/04 19:27:39","新北市新店區安康路三段207巷15號","121.488413333333","24.9508116666667","6500600","新店區"
"241028","022-UY","2017/09/04 19:27:54","新北市三重區中寮街31號","121.492568333333","25.0588916666667","6500200","三重區"
"241008","059-VK","2017/09/04 19:27:57","新北市三重區永福街135巷32弄4號","121.477088333333","25.0768883333333","6500200","三重區"
"241009","060-VK","2017/09/04 19:27:39","新北市三重區溪尾街242巷56號","121.486365","25.0815033333333","6500200","三重區"
"241031","061-VK","2017/09/04 19:27:40","新北市三重區集美街43號","121.488168333333","25.055365","6500200","三重區"
"241017","063-VK","2017/09/04 19:27:47","新北市三重區大智街94號","121.493411666667","25.0663866666667","6500200","三重區"
"241026","156-TC","2017/09/04 19:27:39","新北市三重區光興街61號","121.498683333333","25.0603266666667","6500200","三重區"
"241032","269-UM","2017/09/04 19:27:57","新北市三重區三陽路11號","121.486063333333","25.0589033333333","6500200","三重區"
"241025","271-UM","2017/09/04 19:27:58","新北市三重區中正北路380巷31號","121.476011666667","25.068535","6500200","三重區"
"241007","412-TH","2017/09/04 19:27:51","新北市三重區三和路四段163巷163號","121.488445","25.0800233333333","6500200","三重區"
"241020","413-TH","2017/09/04 19:27:57","新北市三重區三和路四段44巷6號","121.49014","25.0743033333333","6500200","三重區"
"241030","480-VK","2017/09/04 19:27:49","新北市三重區成功路41巷31號","121.490608333333","25.0520333333333","6500200","三重區"
"241006","AAD-863","2017/09/04 19:27:52","新北市三重區三和路四段95-7號","121.48761","25.0760583333333","6500200","三重區"
"241035","743-BX","2017/09/04 19:27:43","新北市三重區正義北路68號","121.497126666667","25.06447","6500200","三重區"
"241029","942-UM","2017/09/04 19:27:52","新北市三重區中正南路252巷5號","121.49356","25.0527533333333","6500200","三重區"
"235066","003-UY","2017/09/04 19:27:46","新北市中和區景新街2號","121.502616666667","24.9997","6500300","中和區"
"235064","005-UY","2017/09/04 19:27:47","新北市中和區連城路2號","121.499306666667","25.0024566666667","6500300","中和區"
"235063","006-UY","2017/09/04 19:27:48","新北市中和區連城路237-1號","121.493858333333","24.9973866666667","6500300","中和區"
"235056","096-UM","2017/09/04 19:27:40","新北市中和區民富街36號","121.476758333333","25.0065916666667","6500300","中和區"
"235039","097-UM","2017/09/04 19:27:40","新北市中和區景平路31號","121.522188333333","24.99027","6500300","中和區"
"235040","150-BY","2017/09/04 19:27:38","新北市中和區保健路46巷18號","121.509125","24.9963166666667","6500300","中和區"
"235058","151-BY","2017/09/04 19:27:42","新北市中和區員山路36巷16-2號","121.485453333333","24.991385","6500300","中和區"
"235055","183-VK","2017/09/04 18:13:41","新北市中和區員山路36巷16-2號","121.485108333333","24.9915883333333","6500300","中和區"
"235038","185-VK","2017/09/04 19:27:56","新北市中和區大智街55巷31號","121.520606666667","24.99279","6500300","中和區"
"235049","186-VK","2017/09/04 19:27:44","新北市中和區景新街291號","121.509946666667","24.993235","6500300","中和區"
"235067","255-BX","2017/09/04 19:27:45","新北市中和區中正路695號","121.485128333333","24.9982216666667","6500300","中和區"
"235044","293-VK","2017/09/04 19:27:52","新北市中和區復興路261號","121.502916666667","24.9903133333333","6500300","中和區"
"235072","301-VK","2017/09/04 19:27:49","新北市中和區連城路263巷4弄4號","121.491581666667","24.9957833333333","6500300","中和區"
"235043","352-BY","2017/09/04 19:27:55","新北市中和區南華路14號","121.502488333333","24.99553","6500300","中和區"
"235051","376-QA","2017/09/04 19:27:43","新北市中和區和平街54巷8弄30號","121.509595","24.9913733333333","6500300","中和區"
"235068","377-QA","2017/09/04 19:27:53","新北市中和區連勝街66號","121.497241666667","24.9969733333333","6500300","中和區"
"235061","378-QA","2017/09/04 19:27:49","新北市中和區員山路150-2號","121.481315","24.997345","6500300","中和區"
"235069","4980-A6","2017/09/04 19:27:49","新北市中和區景平路734號","121.4966","25.0040833333333","6500300","中和區"
"235042","551-UM","2017/09/04 19:27:56","新北市中和區安樂路217巷35弄8號","121.51388","24.99775","6500300","中和區"
"235070","558-UM","2017/09/04 19:27:42","新北市中和區中和路32號","121.49975","25.0015833333333","6500300","中和區"
"235045","565-BX","2017/09/04 19:27:50","新北市中和區景新街383巷30號","121.51355","24.99049","6500300","中和區"
"235054","640-BX","2017/09/04 19:27:36","新北市中和區國光街109巷26-1號","121.469521666667","24.9996883333333","6500300","中和區"
"235060","647-TV","2017/09/04 19:27:48","新北市中和區員山路294巷22號","121.482423333333","25.0022816666667","6500300","中和區"
"235047","732-UM","2017/09/04 19:27:48","新北市中和區景平路243號","121.509475","24.99269","6500300","中和區"
"235046","733-UM","2017/09/04 19:27:51","新北市中和區忠孝街37巷30號","121.510845","24.984285","6500300","中和區"
"235057","801-TS","2017/09/04 19:27:53","新北市中和區員山路423巷14弄1-1號","121.480386666667","25.0028466666667","6500300","中和區"
"235041","802-TS","2017/09/04 19:27:45","新北市中和區景安路9號","121.508","24.9990233333333","6500300","中和區"
"235052","805-TS","2017/09/04 19:27:52","新北市中和區華新街143巷33號","121.506428333333","24.9806683333333","6500300","中和區"
"235048","896-TW","2017/09/04 19:28:00","新北市中和區忠孝街182號","121.512836666667","24.9880366666667","6500300","中和區"
"235053","900-TW","2017/09/04 19:27:49","新北市中和區華安街17巷20號","121.467441666667","24.9982516666667","6500300","中和區"
"235037","AAC-213","2017/09/04 19:27:42","新北市中和區秀朗路三段10巷14弄108號","121.522965","24.9966516666667","6500300","中和區"
"235059","AAC-215","2017/09/04 19:27:43","新北市中和區圓通路252巷36弄1號","121.492405","24.9930283333333","6500300","中和區"
"220068","013-TV","2017/09/04 19:27:41","新北市板橋區翠華街6巷68號","121.4818","25.0250183333333","6500100","板橋區"
"220065","072-UY","2017/09/04 19:27:40","新北市板橋區國泰街39巷6弄30號","121.467851666667","25.0055633333333","6500100","板橋區"
"220106","075-UY","2017/09/04 19:27:49","新北市板橋區江寧路三段85巷14號","121.472343333333","25.03321","6500100","板橋區"
"220069","AAD-861","2017/09/04 19:27:49","新北市板橋區貴興路39號","121.457511666667","25.003745","6500100","板橋區"
"220102","120-SR","2017/09/04 19:27:44","新北市板橋區雙十路二段130巷2弄2號","121.474186666667","25.02916","6500100","板橋區"
"247011","546-UM","2017/09/04 19:10:53","新北市五股區中興路三段163號","121.449403333333","25.0808616666667","6501400","蘆洲區"
"247004","336-TH","2017/09/04 19:27:54","新北市蘆洲區長安街230號","121.457988333333","25.085315","6501400","蘆洲區"
"247014","007-UY","2017/09/04 19:27:41","新北市蘆洲區中央路155號","121.472586666667","25.0847283333333","6501400","蘆洲區"
"226004","312-R5","2017/09/04 19:27:42","新北市平溪區南山里乾坑11號","121.782696666667","25.0486433333333","6502400","平溪區"
"228003","097-TW","2017/09/04 19:27:58","新北市貢寮區和美里和美街23-1號","121.913045","25.0826616666667","6502600","貢寮區"
"228002","585-TW","2017/09/04 19:27:59","新北市貢寮區龍門里龍門街53號","121.932036666667","25.027225","6502600","貢寮區"
"228001","670-TC","2017/09/04 19:27:48","新北市貢寮區真理里大澳街24號","121.925036666667","25.0559983333333","6502600","貢寮區"
"224006","676-BX","2017/09/04 19:27:48","新北市瑞芳區中山路113號","121.803125","25.1063083333333","6501200","瑞芳區"
"224005","271-BY","2017/09/04 19:27:49","新北市瑞芳區員山子路23號","121.821466666667","25.10289","6501200","瑞芳區"
"227008","642-TC","2017/09/04 19:27:46","新北市雙溪區新基里新基北街43號","121.868221666667","25.0396633333333","6502500","雙溪區"
"227001","400-TW","2017/09/04 19:27:55","新北市雙溪區雙溪里太平路56號","121.864926666667","25.03545","6502500","雙溪區"
"253005","032-BX","2017/09/04 19:27:43","新北市石門區小坑9號","121.5941","25.2861666666667","6502200","石門區"
"253006","295-VK","2017/09/04 19:27:54","新北市石門區楓林23-10號","121.53918","25.2910216666667","6502200","石門區"
"208002","742-BX","2017/09/04 19:27:59","新北市金山區中華路127號","121.633205","25.2208233333333","6502700","金山區"
"208003","665-BX","2017/09/04 19:27:55","新北市金山區仁愛路61號","121.635113333333","25.2208933333333","6502700","金山區"
"208001","761-BX","2017/09/04 19:27:59","新北市金山區金包里街87號","121.637981666667","25.2220366666667","6502700","金山區"
"251009","008-UM","2017/09/04 19:27:43","新北市淡水區大忠街5巷2號","121.443183333333","25.1764066666667","6501000","淡水區"
"251007","179-VK","2017/09/04 19:27:38","新北市淡水區淡金路39號","121.456025","25.16077","6501000","淡水區"
"251013","182-VK","2017/09/04 19:27:55","新北市淡水區安子內12號","121.481528333333","25.2191583333333","6501000","淡水區"
"251010","413-VK","2017/09/04 19:27:47","新北市淡水區淡海路218號","121.420273333333","25.1857683333333","6501000","淡水區"
"251015","442-VK","2017/09/04 19:27:46","新北市淡水區山子頂22號","121.491581666667","25.1876766666667","6501000","淡水區"
"251005","443-VK","2017/09/04 19:27:55","新北市淡水區水源街一段44號","121.443888333333","25.172205","6501000","淡水區"
"251001","559-UM","2017/09/04 19:27:42","新北市淡水區民權路179-5號","121.45964","25.13474","6501000","淡水區"
"251006","561-UM","2017/09/04 19:27:44","新北市淡水區大義街41號","121.441871666667","25.1782933333333","6501000","淡水區"
"251011","650-BX","2017/09/04 19:27:50","新北市淡水區中正東路二段143巷2弄1號","121.460713333333","25.1474516666667","6501000","淡水區"
"251003","766-UM","2017/09/04 19:27:48","新北市淡水區中山北路二段10號","121.444481666667","25.1833133333333","6501000","淡水區"
"207003","550-UM","2017/09/04 19:27:43","新北市萬里區大鵬里萬里加投191-12號","121.644641666667","25.2143333333333","6502800","萬里區"
"207004","225-TW","2017/09/04 19:27:54","新北市萬里區萬里里瑪鋉路87-1號","121.688728333333","25.1772133333333","6502800","萬里區"
"252002","178-VK","2017/09/04 19:27:52","新北市三芝區淡金路二段18-1號","121.502691666667","25.2595733333333","6502100","三芝區"
"252001","292-VK","2017/09/04 19:27:41","新北市三芝區長勤街37巷16號","121.50113","25.25518","6502100","三芝區"
"237004","078-UY","2017/09/04 19:27:43","新北市三峽區有木205號","121.43907","24.851835","6500900","三峽區"
"237007","153-BY","2017/09/04 19:27:58","新北市三峽區二鬮路126號","121.359858333333","24.9081966666667","6500900","三峽區"
"237009","210-TH","2017/09/04 19:27:50","新北市三峽區民生街215號","121.371505","24.93464","6500900","三峽區"
"237013","252-BX","2017/09/04 19:27:46","新北市三峽區介壽路一段276巷108弄2號","121.37974","24.92785","6500900","三峽區"
"237012","275-BY","2017/09/04 19:27:47","新北市三峽區三樹路222巷138號","121.385435","24.9426166666667","6500900","三峽區"
"237008","302-VK","2017/09/04 19:27:53","新北市三峽區大同路154號","121.37311","24.9267816666667","6500900","三峽區"
"237014","433-BY","2017/09/04 19:27:39","新北市三峽區民權街147號","121.36869","24.931755","6500900","三峽區"
"237006","5529-G3","2017/09/04 19:27:47","新北市三峽區介壽路二段167號","121.394785","24.9360933333333","6500900","三峽區"
"237011","572-TV","2017/09/04 19:27:56","新北市三峽區中正路一段202號","121.372461666667","24.9279783333333","6500900","三峽區"
"237015","649-BX","2017/09/04 19:27:49","新北市三峽區建安25-3號","121.445515","24.9274433333333","6500900","三峽區"
"237010","706-TV","2017/09/04 19:27:48","新北市三峽區復興路117號","121.371711666667","24.9379916666667","6500900","三峽區"
"237005","AKY-6261","2017/09/04 19:27:40","新北市三峽區復興路367巷1弄2號","121.36382","24.9380883333333","6500900","三峽區"
"236069","105-UM","2017/09/04 19:27:52","新北市土城區學府路一段143巷21號","121.454301666667","24.9856633333333","6501300","土城區"
"236078","166-UM","2017/09/04 19:27:41","新北市土城區中央路四段307-3號","121.410835","24.9516216666667","6501300","土城區"
"236026","269-VK","2017/09/04 19:27:46","新北市土城區中央路二段141號","121.44201","24.976845","6501300","土城區"
"236014","270-VK","2017/09/04 19:27:56","新北市土城區廣興街18號","121.456425","24.9917883333333","6501300","土城區"
"236020","401-BY","2017/09/04 19:27:43","新北市土城區峰廷街3號","121.469203333333","24.9874466666667","6501300","土城區"
"236058","912-UM","2017/09/04 19:27:57","新北市土城區中央路二段274號","121.441141666667","24.9742333333333","6501300","土城區"
"236048","913-UM","2017/09/04 19:27:57","新北市土城區清水路179號","121.459508333333","24.981495","6501300","土城區"
"238015","755-BX","2017/09/04 19:27:46","新北市樹林區大安路537巷2號","121.412948333333","24.9845533333333","6500700","樹林區"
"238023","601-UM","2017/09/04 19:27:45","桃園市龜山區萬壽路一段501號","121.39886","25.016055","6500700","樹林區"
"238019","599-UM","2017/09/04 19:27:50","新北市樹林區東榮街88巷23號","121.415796666667","24.9829933333333","6500700","樹林區"
"238018","571-TV","2017/09/04 19:27:50","新北市樹林區中華路223號","121.418891666667","24.98101","6500700","樹林區"
"238024","5061-A6","2017/09/04 19:27:55","新北市樹林區福德街48-11號","121.398771666667","24.9748233333333","6500700","樹林區"
"238022","312-TH","2017/09/04 19:27:37","新北市樹林區國凱街51號","121.420866666667","24.9791333333333","6500700","樹林區"
"238021","311-TH","2017/09/04 19:27:55","新北市樹林區柑園街二段453號","121.36339","24.946255","6500700","樹林區"
"238025","303-VK","2017/09/04 19:27:55","新北市樹林區中山路一段112號","121.422921666667","24.9906266666667","6500700","樹林區"
"238017","283-BY","2017/09/04 19:27:16","新北市樹林區光興街376巷2號","121.40643","25.00568","6500700","樹林區"
"238014","282-BY","2017/09/04 19:27:52","新北市樹林區保安二街5號","121.42532","24.993885","6500700","樹林區"
"238020","268-VK","2017/09/04 19:27:55","新北市樹林區俊英街133巷25號","121.423103333333","25.0107683333333","6500700","樹林區"
"238026","172-UY","2017/09/04 19:27:41","新北市樹林區佳園路二段155號","121.389976666667","24.9572983333333","6500700","樹林區"
"238016","169-UY","2017/09/04 19:27:38","新北市樹林區復興路452巷8號","121.413218333333","24.9841933333333","6500700","樹林區"
"239007","AAC-297","2017/09/04 19:27:50","新北市鶯歌區大湖路余厝巷1-7號","121.342778333333","24.9615","6500800","鶯歌區"
"239006","891-R6","2017/09/04 19:27:56","新北市鶯歌區鶯桃路91巷33號","121.33802","24.95228","6500800","鶯歌區"
"239008","527-UM","2017/09/04 19:27:55","新北市鶯歌區大湖路466號","121.339661666667","24.97222","6500800","鶯歌區"
"239005","526-UM","2017/09/04 19:27:52","新北市鶯歌區中湖街274號","121.348416666667","24.97686","6500800","鶯歌區"
"239001","417-VK","2017/09/04 19:27:39","新北市鶯歌區建國路588號","121.340081666667","24.9520216666667","6500800","鶯歌區"
"239003","360-BY","2017/09/04 19:27:53","新北市鶯歌區國華路1-3號","121.343423333333","24.9569233333333","6500800","鶯歌區"
"239004","193-VK","2017/09/04 19:27:49","新北市鶯歌區二甲路45-1號","121.33637","24.9341583333333","6500800","鶯歌區"
"221036","130-UY","2017/09/04 19:27:45","新北市汐止區汐萬路一段256巷1號","121.651773333333","25.0749116666667","6501100","汐止區"
"221015","131-UY","2017/09/04 19:27:43","新北市汐止區康寧街901號","121.651495","25.0750583333333","6501100","汐止區"
"221010","269-BY","2017/09/04 19:27:48","新北市汐止區康寧街901號","121.65133","25.0750066666667","6501100","汐止區"
"221031","277-VK","2017/09/04 19:27:46","新北市汐止區汐萬路一段312號","121.650265","25.0755366666667","6501100","汐止區"
"221012","278-VK","2017/09/04 19:27:44","新北市汐止區保一街24-1號","121.67387","25.0803466666667","6501100","汐止區"
"221023","279-VK","2017/09/04 19:27:43","新北市汐止區中興路250號","121.629203333333","25.0685133333333","6501100","汐止區"
"221027","281-BY","2017/09/04 19:27:56","新北市汐止區汐萬路一段7號","121.65602","25.0674016666667","6501100","汐止區"
"221038","297-VK","2017/09/04 19:27:45","新北市汐止區康寧街901號","121.650718333333","25.0753033333333","6501100","汐止區"
"221029","298-VK","2017/09/04 19:27:44","新北市汐止區康寧街901號","121.651458333333","25.07494","6501100","汐止區"
"221021","299-VK","2017/09/04 19:27:43","新北市汐止區康寧街901號","121.651468333333","25.0750366666667","6501100","汐止區"
"221008","358-BY","2017/09/04 19:27:54","新北市汐止區三民街1巷1號","121.624313333333","25.0667133333333","6501100","汐止區"
"221025","623-UM","2017/09/04 19:27:52","新北市汐止區秀峰路7號","121.659318333333","25.0668","6501100","汐止區"
"221033","647-BX","2017/09/04 19:27:56","新北市汐止區南勢街1巷1號","121.627071666667","25.0374666666667","6501100","汐止區"
"221002","707-TV","2017/09/04 19:27:56","新北市汐止區大同路一段352號","121.638371666667","25.05917","6501100","汐止區"
"221018","753-BX","2017/09/04 19:27:57","新北市汐止區康寧街901號","121.651565","25.0749","6501100","汐止區"
"220079","145-BY","2017/09/04 19:27:54","新北市板橋區民權路306號","121.457136666667","25.0160533333333","6500100","板橋區"
"220080","200-UY","2017/09/04 19:28:00","新北市板橋區大觀路二段19巷9號","121.447346666667","25.0032416666667","6500100","板橋區"
"220082","610-BX","2017/09/04 19:27:41","新北市板橋區金門街305號","121.429971666667","24.9864633333333","6500100","板橋區"
"220101","245-BX","2017/09/04 19:27:49","新北市板橋區縣民大道三段121巷32號","121.476521666667","25.0234366666667","6500100","板橋區"
"220084","256-TC","2017/09/04 19:27:49","新北市板橋區溪北路81號","121.4283","24.9894716666667","6500100","板橋區"
"220097","257-TC","2017/09/04 19:27:41","新北市板橋區幸福路60巷58號","121.459605","25.0220183333333","6500100","板橋區"
"220091","267-BY","2017/09/04 19:27:58","新北市板橋區松柏街70巷20號","121.476501666667","25.03008","6500100","板橋區"
"220056","276-BY","2017/09/04 19:27:57","新北市板橋區國慶路49巷17號","121.459456666667","24.99626","6500100","板橋區"
"220072","277-BY","2017/09/04 19:27:53","新北市板橋區篤行路二段161巷2號","121.429605","24.9875316666667","6500100","板橋區"
"220094","283-UM","2017/09/04 19:27:57","新北市板橋區吳鳳路17巷9號","121.467673333333","25.029955","6500100","板橋區"
"220053","285-VK","2017/09/04 19:27:54","新北市板橋區永豐街122號","121.476568333333","25.0209683333333","6500100","板橋區"
"220083","286-VK","2017/09/04 19:27:50","新北市板橋區大觀路二段174巷184號","121.442251666667","25.003665","6500100","板橋區"
"220081","287-VK","2017/09/04 19:27:44","新北市板橋區南雅西路一段174巷28號","121.453033333333","25.007085","6500100","板橋區"
"220090","288-VK","2017/09/04 19:27:51","新北市板橋區裕民街94巷1弄1號","121.4601","25.0282383333333","6500100","板橋區"
"220061","295-UM","2017/09/04 19:27:57","新北市板橋區中山路二段295巷5-1號","121.478351666667","25.0186933333333","6500100","板橋區"
"220075","297-UM","2017/09/04 19:27:54","新北市板橋區中正路305巷28弄1號","121.4543","25.0185583333333","6500100","板橋區"
"242001","281-VK","2017/09/04 16:57:20","新北市新莊區環河路636-7號","121.437403333333","25.01122","6500500","新莊區"
"220062","305-R5","2017/09/04 19:27:46","新北市板橋區三民路二段153巷14號","121.480058333333","25.0149866666667","6500100","板橋區"
"220092","307-R5","2017/09/04 19:27:47","新北市板橋區松江街18號","121.469168333333","25.0264333333333","6500100","板橋區"
"220098","317-R6","2017/09/04 19:27:55","新北市板橋區民有街126號","121.464171666667","25.028815","6500100","板橋區"
"220086","461-BY","2017/09/04 19:27:44","新北市板橋區中正路216巷18號","121.456598333333","25.0184816666667","6500100","板橋區"
"220064","486-VK","2017/09/04 19:27:52","新北市板橋區中山路一段137號","121.46254","25.010525","6500100","板橋區"
"220089","487-VK","2017/09/04 19:27:45","新北市板橋區文化路一段90號","121.464436666667","25.0178433333333","6500100","板橋區"
"220088","491-VK","2017/09/04 19:27:52","新北市板橋區雙十路二段43號","121.47662","25.0261216666667","6500100","板橋區"
"220035","560-BX","2017/09/04 19:27:50","新北市板橋區中正路413巷2弄16號","121.453446666667","25.0231583333333","6500100","板橋區"
"220103","561-BX","2017/09/04 19:27:40","新北市板橋區文化路一段188巷1弄1-3號","121.466541666667","25.0196433333333","6500100","板橋區"
"220071","568-UM","2017/09/04 19:27:56","新北市板橋區忠孝路48巷7弄1-3號","121.461046666667","25.0004516666667","6500100","板橋區"
"220011","609-BX","2017/09/04 19:27:52","新北市板橋區三民路一段31巷17弄2號","121.480176666667","25.0234683333333","6500100","板橋區"
"220057","686-BX","2017/09/04 19:27:52","新北市板橋區五權街7-1號","121.46384","24.9945483333333","6500100","板橋區"
"220077","687-BX","2017/09/04 19:28:00","新北市板橋區僑中二街102巷1號","121.446056666667","25.0080266666667","6500100","板橋區"
"220093","689-BX","2017/09/04 19:27:41","新北市板橋區漢生西路23號","121.46337","25.01823","6500100","板橋區"
"220054","741-BX","2017/09/04 19:27:58","新北市板橋區校前街82號","121.46229","25.0033983333333","6500100","板橋區"
"220055","827-TW","2017/09/04 19:27:52","新北市板橋區重慶路278-1號","121.463043333333","24.9997066666667","6500100","板橋區"
"220067","829-TW","2017/09/04 19:27:56","新北市板橋區長安街138巷7弄32號","121.473803333333","25.0087716666667","6500100","板橋區"
"220096","831-TW","2017/09/04 19:27:53","新北市板橋區大同街35巷31號","121.476413333333","25.0274966666667","6500100","板橋區"
"220074","895-R6","2017/09/04 19:27:52","新北市板橋區中正路自強新村62號","121.454708333333","25.0133233333333","6500100","板橋區"
"220073","985-R7","2017/09/04 19:27:56","新北市板橋區新生街16號","121.45548","25.02112","6500100","板橋區"
"220070","AAC-253","2017/09/04 19:27:40","新北市板橋區忠孝路74號","121.46136","25.001965","6500100","板橋區"
