"lineid","car","time","location","longitude","latitude","cityid","cityname"
"241004","265-UM","2017/09/04 22:19:30","新北市五股區中興路三段2巷10號","121.448858333333","25.081295","6500200","三重區"
"235026","800-TS","2017/09/04 21:37:16","新北市中和區員山路36巷16-3號","121.484908333333","24.99162","6500300","中和區"
"251004","009-UM","2017/09/04 22:19:34","新北市淡水區民族路33號","121.46217","25.135775","6501000","淡水區"
"251007","179-VK","2017/09/04 22:19:38","新北市淡水區北新路180號","121.449486666667","25.1787783333333","6501000","淡水區"
"251008","181-VK","2017/09/04 22:19:42","新北市淡水區學府路104號","121.449875","25.1717933333333","6501000","淡水區"
"251015","442-VK","2017/09/04 22:19:26","新北市淡水區水碓街7號","121.44315","25.1771283333333","6501000","淡水區"
"242001","281-VK","2017/09/04 16:57:20","新北市新莊區環河路636-7號","121.437403333333","25.01122","6500500","新莊區"
