"lineid","car","time","location","longitude","latitude","cityid","cityname"
"235026","800-TS","2017/09/04 21:37:16","新北市中和區員山路36巷16-3號","121.484908333333","24.99162","6500300","中和區"
"251007","179-VK","2017/09/04 22:29:38","新北市淡水區北新路167號","121.450286666667","25.179295","6501000","淡水區"
"251008","181-VK","2017/09/04 22:29:42","新北市淡水區學府路104號","121.44987","25.1718183333333","6501000","淡水區"
"251015","442-VK","2017/09/04 22:29:26","新北市淡水區水碓街7號","121.443153333333","25.1771583333333","6501000","淡水區"
"242001","281-VK","2017/09/04 16:57:20","新北市新莊區環河路636-7號","121.437403333333","25.01122","6500500","新莊區"
