"lineid","car","time","location","longitude","latitude","cityid","cityname"
"244002","837-TS","2017/12/30 08:30:47","新北市林口區粉寮69號","121.405083333333","25.0908216666667","6501700","林口區"
"231007","189-VK","2017/12/30 10:49:34","新北市新店區新潭路二段66號","121.521191666667","24.92621","6500600","新店區"
"231008","192-VK","2017/12/30 10:49:39","新北市新店區新烏路二段300號","121.548428333333","24.9129466666667","6500600","新店區"
"231054","AAD-862","2017/12/30 08:40:33","新北市新店區安華路28-1號","121.519835","24.9611966666667","6500600","新店區"
"247001","402-BY","2017/12/30 10:49:28","新北市五股區中興路三段199號","121.441506666667","25.0815733333333","6501400","蘆洲區"
"227006","282-VK","2017/12/30 10:49:36","新北市雙溪區共和里中山路2號","121.863766666667","25.0338633333333","6502500","雙溪區"
"220080","461-BY","2017/12/30 09:06:25","新北市板橋區華東街1-9號","121.4481","24.994855","6500100","板橋區"
