"lineid","car","time","location","longitude","latitude","cityid","cityname"
"244002","837-TS","2017/12/30 08:30:47","新北市林口區粉寮69號","121.405083333333","25.0908216666667","6501700","林口區"
"231007","189-VK","2017/12/30 10:59:34","新北市新店區新潭路一段231號","121.528181666667","24.9272866666667","6500600","新店區"
"231008","192-VK","2017/12/30 10:59:19","新北市新店區松林路81號","121.545218333333","24.9047266666667","6500600","新店區"
"231054","AAD-862","2017/12/30 08:40:33","新北市新店區安華路28-1號","121.519835","24.9611966666667","6500600","新店區"
"247001","402-BY","2017/12/30 10:53:50","新北市五股區中興路三段5號","121.449465","25.079375","6501400","蘆洲區"
"227006","282-VK","2017/12/30 10:59:36","新北市雙溪區魚行里坤溪8號","121.86628","25.0212833333333","6502500","雙溪區"
"220080","461-BY","2017/12/30 09:06:25","新北市板橋區華東街1-9號","121.4481","24.994855","6500100","板橋區"
