"lineid","car","time","location","longitude","latitude","cityid","cityname"
"244002","837-TS","2017/12/30 08:30:47","新北市林口區粉寮69號","121.405083333333","25.0908216666667","6501700","林口區"
"231008","192-VK","2017/12/30 11:59:39","新北市新店區屈尺路161-2號","121.542281666667","24.9225783333333","6500600","新店區"
"235031","255-BX","2017/12/30 11:46:11","新北市中和區和城路一段271巷1號","121.48561","24.991865","6500300","中和區"
"247001","402-BY","2017/12/30 11:05:13","新北市五股區中興路三段5號","121.449648333333","25.07924","6501400","蘆洲區"
"228005","097-TW","2017/12/30 11:59:32","新北市貢寮區貢寮里朝陽街1-2號","121.91236","25.0213","6502600","貢寮區"
"228004","212-TW","2017/12/30 11:59:35","新北市貢寮區貢寮里朝陽街1-2號","121.91219","25.02127","6502600","貢寮區"
"227006","282-VK","2017/12/30 11:59:36","新北市雙溪區魚行里魚杭1號","121.883725","25.0264716666667","6502500","雙溪區"
"220080","461-BY","2017/12/30 09:06:25","新北市板橋區華東街1-9號","121.4481","24.994855","6500100","板橋區"
