"lineid","car","time","location","longitude","latitude","cityid","cityname"
"234044","148-BY","2017/12/30 13:01:31","新北市永和區永元路52巷33號","121.523973333333","25.0008983333333","6500400","永和區"
"234012","149-BY","2017/12/30 13:01:28","新北市永和區信義路17巷16號","121.51346","25.01145","6500400","永和區"
"234005","207-UY","2017/12/30 13:01:37","新北市永和區中山路一段30號","121.513598333333","25.010605","6500400","永和區"
"234078","298-R6","2017/12/30 13:01:24","新北市永和區福和路174號","121.521026666667","25.0078233333333","6500400","永和區"
"234036","336-UY","2017/12/30 13:01:26","新北市永和區成功路二段207號","121.526586666667","24.9959333333333","6500400","永和區"
"234062","337-UY","2017/12/30 13:01:21","新北市永和區秀朗路一段209巷1號","121.519355","25.0032666666667","6500400","永和區"
"234084","338-UY","2017/12/30 13:01:38","新北市永和區永寧街125號","121.518073333333","25.0054716666667","6500400","永和區"
"234052","553-UM","2017/12/30 13:01:22","新北市永和區竹林路66巷4號","121.518155","25.0134","6500400","永和區"
"234015","745-BX","2017/12/30 13:01:23","新北市永和區永和路二段283號","121.51603","25.015765","6500400","永和區"
"234028","746-BX","2017/12/28 21:35:37","新北市五股區成泰路三段362號","121.451473333333","25.0985116666667","6500400","永和區"
"234060","AAD-866","2017/12/30 13:01:30","新北市永和區福和路303號","121.516391666667","25.0072116666667","6500400","永和區"
"234068","847-RS","2017/12/30 13:01:20","新北市永和區中興街52巷1弄2號","121.51691","25.0112","6500400","永和區"
"234040","862-TW","2017/12/30 13:01:32","新北市永和區永貞路334號","121.51123","25.0055166666667","6500400","永和區"
"234048","863-TW","2017/12/30 13:01:34","新北市永和區文化路151號","121.510716666667","25.0162083333333","6500400","永和區"
"234025","9371-KE","2017/12/30 13:01:30","新北市永和區永和路一段43巷16號","121.512253333333","25.0057883333333","6500400","永和區"
"234010","9373-KE","2017/12/30 13:01:36","新北市永和區仁愛路40巷9弄3號","121.513803333333","25.014005","6500400","永和區"
"249003","759-BX","2017/12/30 13:01:36","新北市八里區博物館路10-1號","121.415068333333","25.1640766666667","6502300","八里區"
"248017","225-UY","2017/12/30 13:01:22","新北市五股區中興路二段83巷26-6號","121.459361666667","25.0753533333333","6501500","五股區"
"234022","9380-KE","2017/12/30 13:01:28","新北市永和區竹林路39巷28弄39號","121.520071666667","25.0140383333333","6500400","永和區"
"234076","969-R7","2017/12/30 13:01:36","新北市永和區民享街21號","121.515603333333","24.9950083333333","6500400","永和區"
"234072","AAC-211","2017/12/30 13:01:19","新北市永和區豫溪街217巷19號","121.524471666667","25.009845","6500400","永和區"
"234066","AAC-212","2017/12/30 13:01:20","新北市永和區自由街58號","121.51383","25.0060083333333","6500400","永和區"
"234001","AAC-295","2017/12/30 13:01:25","新北市永和區永平路72號","121.512181666667","25.0085116666667","6500400","永和區"
"244005","248-BX","2017/12/30 13:01:33","新北市林口區中山路136-1號","121.39179","25.0786916666667","6501700","林口區"
"244002","837-TS","2017/12/30 08:30:47","新北市林口區粉寮69號","121.405083333333","25.0908216666667","6501700","林口區"
"231002","001-UM","2017/12/30 13:01:22","新北市新店區安華路28-1號","121.519511666667","24.9606316666667","6500600","新店區"
"231037","0293-UT","2017/12/30 13:01:38","新北市新店區安華路1-1號","121.519511666667","24.96051","6500600","新店區"
"231028","046-UY","2017/12/30 13:01:23","新北市新店區安華路28-1號","121.519548333333","24.960795","6500600","新店區"
"231030","047-UY","2017/12/30 13:01:34","新北市新店區安華路28-1號","121.519308333333","24.9608733333333","6500600","新店區"
"231029","106-UY","2017/12/30 13:01:24","新北市新店區安華路28-1號","121.519658333333","24.9607616666667","6500600","新店區"
"231018","107-UY","2017/12/30 13:01:22","新北市新店區安華路28-1號","121.519493333333","24.9612783333333","6500600","新店區"
"231012","108-UY","2017/12/30 13:01:30","新北市新店區安華路28-1號","121.519516666667","24.9610283333333","6500600","新店區"
"231020","187-VK","2017/12/30 13:01:23","新北市新店區安華路28-1號","121.51968","24.9611916666667","6500600","新店區"
"231017","KEA-2219","2017/12/30 13:01:23","新北市新店區安華路28-1號","121.519641666667","24.9612883333333","6500600","新店區"
"231010","278-BY","2017/12/30 00:53:20","新北市新店區安華路28-1號","121.519748333333","24.9610683333333","6500600","新店區"
"231023","AAD-862","2017/12/30 13:01:33","新北市新店區安華路28-1號","121.519943333333","24.9611483333333","6500600","新店區"
"231027","3712-VJ","2017/12/30 13:01:34","新北市新店區安華路1-1號","121.51927","24.9605533333333","6500600","新店區"
"231025","3713-VJ","2017/12/30 13:01:21","新北市新店區安華路28-1號","121.519186666667","24.9606866666667","6500600","新店區"
"231036","512-UM","2017/12/30 13:01:21","新北市新店區安華路28-1號","121.519268333333","24.9609433333333","6500600","新店區"
"231035","515-UM","2017/12/30 13:01:40","新北市新店區安華路28-1號","121.519526666667","24.9609183333333","6500600","新店區"
"231006","617-UM","2017/12/30 13:01:34","新北市新店區安華路28-1號","121.519415","24.9608783333333","6500600","新店區"
"231001","619-UM","2017/12/30 13:01:38","新北市新店區安華路28-1號","121.51937","24.9606783333333","6500600","新店區"
"231003","641-BX","2017/12/30 13:01:36","新北市新店區安華路28-1號","121.519635","24.960605","6500600","新店區"
"231034","645-TV","2017/12/30 13:01:24","新北市新店區安華路28-1號","121.51933","24.9606516666667","6500600","新店區"
"231013","719-UM","2017/12/29 21:15:22","新北市新店區安華路28-1號","121.519523333333","24.9611383333333","6500600","新店區"
"231004","899-TW","2017/12/30 03:52:06","新北市新店區安華路28-1號","121.519341666667","24.96071","6500600","新店區"
"235004","150-BY","2017/12/30 01:35:18","新北市中和區和城路一段271巷1號","121.485416666667","24.991695","6500300","中和區"
"235022","151-BY","2017/12/30 13:01:30","新北市中和區圓通路367巷33弄22號","121.494148333333","24.9848","6500300","中和區"
"235002","185-VK","2017/12/30 13:01:22","新北市永和區成功路二段152號","121.5263","24.99676","6500300","中和區"
"235031","255-BX","2017/12/30 13:01:21","新北市中和區中山路二段449巷1弄12號","121.483863333333","25.0039516666667","6500300","中和區"
"235025","378-QA","2017/12/30 03:50:35","新北市中和區員山路36巷13號","121.48424","24.9910266666667","6500300","中和區"
"235024","647-TV","2017/12/30 13:01:33","新北市中和區員山路36巷16-3號","121.484843333333","24.99166","6500300","中和區"
"235026","800-TS","2017/12/30 13:01:19","新北市中和區中正路637巷52弄1號","121.485418333333","24.99349","6500300","中和區"
"235017","900-TW","2017/12/30 13:01:34","新北市中和區員山路36巷16-2號","121.48511","24.9916383333333","6500300","中和區"
"235001","AAC-213","2017/12/30 13:01:22","新北市中和區錦和路350-1號","121.490543333333","24.9935933333333","6500300","中和區"
"247001","402-BY","2017/12/30 11:05:13","新北市五股區中興路三段5號","121.449648333333","25.07924","6501400","蘆洲區"
"228005","097-TW","2017/12/30 13:01:32","新北市貢寮區福隆里東興街88-3號","121.946976666667","25.0170666666667","6502600","貢寮區"
"228004","212-TW","2017/12/30 13:01:35","新北市貢寮區吉林里內寮街53號","121.886336666667","24.9841083333333","6502600","貢寮區"
"253001","6251-TK","2017/12/30 13:01:24","新北市石門區中山路64號","121.567275","25.290675","6502200","石門區"
"253002","637-UY","2017/12/30 13:01:34","新北市石門區中央路6號","121.566416666667","25.2914216666667","6502200","石門區"
"253004","8270-PC","2017/12/30 13:01:27","新北市石門區中山路49號","121.567456666667","25.2911733333333","6502200","石門區"
"208004","AAC-292","2017/12/30 13:01:28","新北市金山區民生路49號","121.641568333333","25.2208533333333","6502700","金山區"
"207002","749-BX","2017/12/30 13:01:37","新北市萬里區雙興里大坪路15-1號","121.63856","25.1652866666667","6502800","萬里區"
"207001","662-BX","2017/12/30 13:01:40","新北市萬里區萬里里獅頭路22-1號","121.693035","25.17818","6502800","萬里區"
"252005","AAC-283","2017/12/30 13:01:29","新北市三芝區智成街120號","121.506038333333","25.25536","6502100","三芝區"
"237007","153-BY","2017/12/30 13:01:21","新北市三峽區中山路365-1號","121.357586666667","24.9365216666667","6500900","三峽區"
"236006","498-BY","2017/12/30 13:01:28","新北市土城區亞洲路42號","121.435533333333","24.9739316666667","6501300","土城區"
"242046","172-VK","2017/12/30 13:01:34","新北市新莊區新北大道七段758號","121.4127","25.0255033333333","6500500","新莊區"
"238003","308-TH","2017/12/30 13:01:25","新北市樹林區太平路248號","121.418215","24.97347","6500700","樹林區"
"220080","461-BY","2017/12/30 09:06:25","新北市板橋區華東街1-9號","121.4481","24.994855","6500100","板橋區"
"220005","686-BX","2017/12/30 12:59:10","新北市板橋區華東街1-9號","121.448208333333","24.9948466666667","6500100","板橋區"
