"lineid","car","time","location","longitude","latitude","cityid","cityname"
"234005","207-UY","2017/12/30 14:39:36","新北市永和區安樂路250-1號","121.514451666667","25.0036283333333","6500400","永和區"
"234062","337-UY","2017/12/30 14:39:41","新北市永和區環河西路二段215號","121.501213333333","25.010515","6500400","永和區"
"234028","746-BX","2017/12/28 21:35:37","新北市五股區成泰路三段362號","121.451473333333","25.0985116666667","6500400","永和區"
"234068","847-RS","2017/12/30 14:39:40","新北市永和區豫溪街217巷1號","121.524958333333","25.0092983333333","6500400","永和區"
"234025","9371-KE","2017/12/30 14:39:30","新北市永和區雙和街9號","121.509613333333","25.0016633333333","6500400","永和區"
"248017","225-UY","2017/12/30 14:19:22","新北市五股區壟路16號","121.415513333333","25.08549","6501500","五股區"
"234072","AAC-211","2017/12/30 14:39:19","新北市永和區竹林路91巷60弄70號","121.522895","25.0122516666667","6500400","永和區"
"234001","AAC-295","2017/12/30 14:39:45","新北市永和區中正路618-1號","121.517001666667","25.0077583333333","6500400","永和區"
"253001","140-BX","2017/12/30 14:39:31","新北市石門區八甲78號","121.52995","25.2631266666667","6502200","石門區"
"244002","837-TS","2017/12/30 08:30:47","新北市林口區粉寮69號","121.405083333333","25.0908216666667","6501700","林口區"
"231002","001-UM","2017/12/30 14:39:42","新北市新店區中正路435號","121.533975","24.97833","6500600","新店區"
"231037","0293-UT","2017/12/30 14:39:37","新北市新店區柴埕路60巷2號","121.509716666667","24.9642916666667","6500600","新店區"
"231028","046-UY","2017/12/30 14:39:43","新北市新店區安德街60巷35號","121.511158333333","24.9636516666667","6500600","新店區"
"231030","047-UY","2017/12/30 14:39:34","新北市新店區安民街235號","121.517121666667","24.9718933333333","6500600","新店區"
"231029","106-UY","2017/12/30 14:39:43","新北市新店區安康路三段422號","121.485401666667","24.9515466666667","6500600","新店區"
"231018","107-UY","2017/12/30 14:39:42","新北市新店區中央一街20-1號","121.52834","24.9730833333333","6500600","新店區"
"231012","108-UY","2017/12/30 14:39:30","新北市新店區寶橋路213號","121.548645","24.977185","6500600","新店區"
"231020","187-VK","2017/12/30 14:39:43","新北市新店區桂山路37號","121.562133333333","24.9042716666667","6500600","新店區"
"231017","KEA-2219","2017/12/30 14:39:43","新北市新店區北宜路三段221號","121.592408333333","24.9533133333333","6500600","新店區"
"231023","AAD-862","2017/12/30 14:39:33","新北市新店區檳榔路50號","121.54181","24.9636266666667","6500600","新店區"
"231027","3712-VJ","2017/12/30 14:39:36","新北市新店區中正路332號","121.536843333333","24.9751533333333","6500600","新店區"
"231025","3713-VJ","2017/12/30 14:39:41","新北市新店區民族路161號","121.53763","24.9767983333333","6500600","新店區"
"231038","4715-K9","2017/12/30 14:39:39","新北市新店區安華路28-1號","121.51953","24.9607733333333","6500600","新店區"
"231036","512-UM","2017/12/30 14:39:21","新北市新店區安祥路106巷315號","121.472261666667","24.9583616666667","6500600","新店區"
"231035","515-UM","2017/12/30 14:39:40","新北市新店區安康路二段142巷20號","121.511558333333","24.96263","6500600","新店區"
"231006","617-UM","2017/12/30 14:39:40","新北市新店區北宜路二段129號","121.55093","24.9530583333333","6500600","新店區"
"231001","619-UM","2017/12/30 14:39:37","新北市新店區中正路30號","121.545183333333","24.9697566666667","6500600","新店區"
"231003","641-BX","2017/12/30 14:39:44","新北市新店區中興路二段61號","121.546668333333","24.9706","6500600","新店區"
"231034","645-TV","2017/12/30 14:39:44","新北市新店區黎明路54巷1號","121.502336666667","24.9481033333333","6500600","新店區"
"231013","719-UM","2017/12/30 14:39:40","新北市新店區北新路二段171巷9號","121.54217","24.9763816666667","6500600","新店區"
"231033","720-UM","2017/12/30 14:39:35","新北市新店區薏仁坑路6號","121.500176666667","24.9581033333333","6500600","新店區"
"231005","897-TW","2017/12/30 14:39:43","新北市新店區復興路44-1號","121.538571666667","24.9868033333333","6500600","新店區"
"231004","899-TW","2017/12/30 14:39:47","新北市新店區中正路277號","121.537576666667","24.97434","6500600","新店區"
"235030","003-UY","2017/12/30 14:39:39","新北市中和區景新街71號","121.504973333333","24.998765","6500300","中和區"
"235028","005-UY","2017/12/30 14:39:47","新北市中和區南華路36號","121.503645","24.99633","6500300","中和區"
"235027","006-UY","2017/12/30 14:39:38","新北市中和區連城路263巷10號","121.492383333333","24.9951883333333","6500300","中和區"
"235010","031-BX","2017/12/30 14:39:47","新北市中和區四維街37巷2號","121.51244","24.986885","6500300","中和區"
"235020","096-UM","2017/12/30 14:39:45","新北市中和區員山路581巷2弄4-1號","121.478026666667","25.00961","6500300","中和區"
"235003","097-UM","2017/12/30 14:39:28","新北市永和區中正路64號","121.513473333333","24.9949516666667","6500300","中和區"
"235004","150-BY","2017/12/30 14:39:40","新北市中和區宜安路13號","121.513203333333","24.9956433333333","6500300","中和區"
"235022","151-BY","2017/12/30 14:39:41","新北市中和區員山路124巷2號","121.48154","24.9958983333333","6500300","中和區"
"235019","183-VK","2017/12/30 14:39:43","新北市中和區民生街21-2號","121.470988333333","25.005725","6500300","中和區"
"235002","185-VK","2017/12/30 14:39:42","新北市中和區自立路141巷3號","121.522401666667","24.9935333333333","6500300","中和區"
"235013","186-VK","2017/12/30 14:39:46","新北市中和區安平路17號","121.509173333333","24.9941366666667","6500300","中和區"
"235031","255-BX","2017/12/30 14:39:41","新北市中和區新生街186巷5弄17號","121.482875","24.999275","6500300","中和區"
"235008","293-VK","2017/12/30 14:39:40","新北市中和區捷運路57-1號","121.509205","24.9897933333333","6500300","中和區"
"235036","301-VK","2017/12/30 14:39:36","新北市中和區中和路74號","121.500778333333","25.00015","6500300","中和區"
"235007","352-BY","2017/12/30 14:39:43","新北市中和區南山路94號","121.502848333333","24.9946283333333","6500300","中和區"
"235032","377-QA","2017/12/30 14:39:35","新北市中和區枋寮街43號","121.50185","25.00062","6500300","中和區"
"235025","378-QA","2017/12/30 14:39:40","新北市中和區員山路174巷12號","121.48219","24.9998233333333","6500300","中和區"
"235014","4979-A6","2017/12/30 14:39:43","新北市中和區中正路273號","121.495743333333","24.9937883333333","6500300","中和區"
"235006","551-UM","2017/12/30 14:39:36","新北市中和區保健路2巷28號","121.507093333333","24.9974966666667","6500300","中和區"
"235034","558-UM","2017/12/30 14:39:39","新北市中和區中山路二段226號","121.499225","25.0028416666667","6500300","中和區"
"235009","565-BX","2017/12/30 14:39:41","新北市中和區景新街397號","121.512511666667","24.989865","6500300","中和區"
"235018","640-BX","2017/12/30 14:39:47","新北市中和區國光街102巷11弄3號","121.4707","25.000805","6500300","中和區"
"235024","647-TV","2017/12/30 14:39:33","新北市中和區新生街47號","121.483436666667","25.0028183333333","6500300","中和區"
"235011","732-UM","2017/12/30 14:39:42","新北市中和區南山路152號","121.504231666667","24.9921083333333","6500300","中和區"
"235026","800-TS","2017/12/30 14:39:44","新北市中和區中山路二段403號","121.486316666667","25.0048733333333","6500300","中和區"
"235021","801-TS","2017/12/30 14:39:46","新北市中和區員山路360號","121.480955","25.00369","6500300","中和區"
"235005","802-TS","2017/12/30 14:39:32","新北市中和區中和路260-1號","121.508006666667","24.9993533333333","6500300","中和區"
"235016","805-TS","2017/12/30 14:39:37","新北市中和區華新街204號","121.506616666667","24.9819466666667","6500300","中和區"
"235012","896-TW","2017/12/30 14:39:45","新北市新店區安和路三段132號","121.516416666667","24.9858783333333","6500300","中和區"
"235017","900-TW","2017/12/30 14:39:34","新北市中和區國光街140巷4號","121.468615","25.0014466666667","6500300","中和區"
"235029","911-UM","2017/12/30 14:39:45","新北市中和區福祥路90巷7弄7號","121.499498333333","25.0062133333333","6500300","中和區"
"235015","157-BY","2017/12/30 14:39:47","新北市中和區興南路一段86號","121.510018333333","24.9892983333333","6500300","中和區"
"235001","AAC-213","2017/12/30 14:39:42","新北市中和區秀朗路三段10巷21弄6號","121.525208333333","24.9961683333333","6500300","中和區"
"235023","AAC-215","2017/12/30 14:39:36","新北市中和區圓通路305巷5弄2號","121.49353","24.99025","6500300","中和區"
"220016","013-TV","2017/12/29 21:10:47","新北市八里區荖阡坑路4-28號","121.398095","25.1426633333333","6500100","板橋區"
"220013","072-UY","2017/12/30 14:39:47","新北市板橋區國泰街38巷3弄100號","121.468096666667","25.006745","6500100","板橋區"
"220034","073-UY","2017/12/30 14:39:45","新北市板橋區國光路31號","121.457083333333","25.01759","6500100","板橋區"
"220105","075-UY","2017/12/30 14:39:47","新北市板橋區雙十路三段10巷1弄31號","121.47117","25.0316833333333","6500100","板橋區"
"220017","AAD-861","2017/12/30 14:39:31","新北市板橋區稚暉街13號","121.456413333333","25.0043366666667","6500100","板橋區"
"220045","120-SR","2017/12/30 14:39:41","新北市板橋區民生路二段226巷4號","121.469611666667","25.0218616666667","6500100","板橋區"
"247011","546-UM","2017/12/30 14:39:44","新北市蘆洲區集賢路224巷64弄1號","121.480895","25.0882583333333","6501400","蘆洲區"
"247019","500-BY","2017/12/30 14:39:34","新北市蘆洲區民義街68巷6號","121.473231666667","25.08974","6501400","蘆洲區"
"247001","402-BY","2017/12/30 14:39:28","新北市三重區永安北路二段45號","121.482511666667","25.0826216666667","6501400","蘆洲區"
"247007","341-TH","2017/12/30 14:39:12","新北市蘆洲區信義路35號","121.474396666667","25.0795016666667","6501400","蘆洲區"
"247009","339-TH","2017/12/30 14:39:50","新北市蘆洲區集賢路270號","121.481095","25.0856983333333","6501400","蘆洲區"
"247001","337-TH","2017/12/30 14:39:36","新北市蘆洲區永樂街38巷40號","121.458463333333","25.09011","6501400","蘆洲區"
"247003","336-TH","2017/12/30 14:39:34","新北市蘆洲區長安街285巷8號","121.45794","25.08429","6501400","蘆洲區"
"247015","057-VK","2017/12/30 14:39:40","新北市蘆洲區正和街30號","121.469705","25.0820333333333","6501400","蘆洲區"
"247005","056-VK","2017/12/30 14:39:42","新北市蘆洲區中華街30號","121.462711666667","25.081155","6501400","蘆洲區"
"247013","007-UY","2017/12/30 14:39:37","新北市蘆洲區中央路30號","121.473491666667","25.083","6501400","蘆洲區"
"247023","002-UY","2017/12/30 14:39:40","新北市蘆洲區中山二路222巷2號","121.469721666667","25.0800266666667","6501400","蘆洲區"
"228005","097-TW","2017/12/30 14:39:32","新北市貢寮區美豐里雞母嶺街6-6號","121.90215","25.0642533333333","6502600","貢寮區"
"228004","212-TW","2017/12/30 14:39:45","新北市貢寮區福隆里龜壽谷街30-1號","121.946881666667","25.0134716666667","6502600","貢寮區"
"253003","6232-TK","2017/12/30 14:39:34","新北市石門區尖子鹿90號","121.580273333333","25.2889566666667","6502200","石門區"
"253001","6251-TK","2017/12/30 14:37:08","新北市石門區楓林7號","121.537731666667","25.29407","6502200","石門區"
"253002","637-UY","2017/12/30 14:28:14","新北市石門區七股53-1號","121.54616","25.2521416666667","6502200","石門區"
"253004","8270-PC","2017/12/30 14:39:43","新北市石門區內阿里磅50號","121.58052","25.2454833333333","6502200","石門區"
"208004","AAC-292","2017/12/30 14:39:48","新北市金山區兩湖里倒照湖39-1號","121.590393333333","25.2361983333333","6502700","金山區"
"207002","749-BX","2017/12/30 14:39:48","新北市萬里區崁腳里內崁路2號","121.638098333333","25.1609733333333","6502800","萬里區"
"207001","662-BX","2017/12/30 14:39:39","新北市萬里區雙興里豐稟路26號","121.641455","25.1876916666667","6502800","萬里區"
"252005","AAC-283","2017/12/30 14:39:29","新北市三芝區埔坪里埔頭坑94號","121.50967","25.2502633333333","6502100","三芝區"
"237007","153-BY","2017/12/30 14:39:41","新北市三峽區中山路459巷163-3號","121.348823333333","24.9332066666667","6500900","三峽區"
"236068","105-UM","2017/12/30 14:39:31","新北市土城區永豐路326號","121.47297","24.977545","6501300","土城區"
"236041","107-UM","2017/12/30 14:39:44","新北市土城區裕民路55巷16號","121.449668333333","24.9888","6501300","土城區"
"236075","166-UM","2017/12/30 14:39:34","新北市土城區中央路四段125巷2弄3號","121.41684","24.9569516666667","6501300","土城區"
"236029","253-BX","2017/12/30 14:39:43","新北市土城區中華路二段124號","121.43779","24.9736566666667","6501300","土城區"
"236025","269-VK","2017/12/30 14:39:27","新北市土城區忠義路47-1號","121.440723333333","24.9695033333333","6501300","土城區"
"236013","270-VK","2017/12/30 14:39:37","新北市土城區清水路222號","121.460803333333","24.9821766666667","6501300","土城區"
"236035","271-VK","2017/12/30 14:39:30","新北市土城區明德路一段291巷16號","121.460251666667","24.9765683333333","6501300","土城區"
"236017","401-BY","2017/12/30 14:39:28","新北市土城區延吉街258號","121.466278333333","24.9845283333333","6501300","土城區"
"236057","912-UM","2017/12/30 14:39:32","新北市土城區中央路四段25-7號","121.424661666667","24.9624966666667","6501300","土城區"
"236045","913-UM","2017/12/30 14:39:41","新北市土城區明德路一段67號","121.46538","24.9842366666667","6501300","土城區"
"236061","915-UM","2017/12/30 14:39:46","新北市土城區延壽路13巷22號","121.470436666667","24.9909783333333","6501300","土城區"
"236047","970-R7","2017/12/30 14:39:16","新北市土城區裕民路136巷15號","121.451141666667","24.9855933333333","6501300","土城區"
"236054","AAC-216","2017/12/30 14:39:40","新北市土城區中華路一段45號","121.445816666667","24.988385","6501300","土城區"
"220027","145-BY","2017/12/30 14:39:42","新北市板橋區復興街27號","121.458006666667","25.0174433333333","6500100","板橋區"
"220028","200-UY","2017/12/30 14:39:35","新北市板橋區大觀路二段37巷67號","121.449803333333","25.0025116666667","6500100","板橋區"
"220030","610-BX","2017/12/30 14:39:47","新北市板橋區金門街299號","121.430073333333","24.9865216666667","6500100","板橋區"
"220050","245-BX","2017/12/30 14:39:45","新北市板橋區莊敬路208巷3號","121.471911666667","25.0209616666667","6500100","板橋區"
"220004","276-BY","2017/12/30 14:39:47","新北市土城區廣明街92號","121.45476","24.9943083333333","6500100","板橋區"
"220020","277-BY","2017/12/30 14:39:36","新北市板橋區金門街215巷36號","121.43408","24.9893316666667","6500100","板橋區"
"220019","283-VK","2017/12/30 14:39:41","新北市板橋區信義路279巷1號","121.462196666667","24.9895333333333","6500100","板橋區"
"220043","285-UM","2017/12/30 14:39:46","新北市板橋區宏國路93號","121.469763333333","25.03231","6500100","板橋區"
"220001","285-VK","2017/12/30 14:39:45","新北市板橋區民享街89號","121.476986666667","25.0159183333333","6500100","板橋區"
"220031","286-VK","2017/12/30 14:39:36","新北市板橋區僑中二街152號","121.444901666667","25.00429","6500100","板橋區"
"220029","287-VK","2017/12/30 14:39:38","新北市板橋區大觀路一段29巷131弄27號","121.450595","25.004695","6500100","板橋區"
"220039","288-VK","2017/12/30 14:39:44","新北市板橋區龍泉街54巷8弄12號","121.45738","25.0269","6500100","板橋區"
"220009","295-UM","2017/12/30 14:39:39","新北市板橋區中山路一段256號","121.47157","25.01465","6500100","板橋區"
"220032","296-UM","2017/12/30 14:39:39","新北市板橋區板林路168號","121.424721666667","24.9879083333333","6500100","板橋區"
"220023","297-UM","2017/12/30 14:39:41","新北市板橋區中正路253巷45號","121.453343333333","25.01737","6500100","板橋區"
"220010","303-R5","2017/12/30 14:39:41","新北市板橋區三民路二段83號","121.479425","25.0167016666667","6500100","板橋區"
"220041","307-R5","2017/12/30 14:39:41","新北市板橋區文化路一段391號","121.46701","25.0219783333333","6500100","板橋區"
"220047","317-R6","2017/12/30 14:39:45","新北市板橋區裕民街93巷8號","121.46047","25.02765","6500100","板橋區"
"220080","461-BY","2017/12/30 09:06:25","新北市板橋區華東街1-9號","121.4481","24.994855","6500100","板橋區"
"220012","486-VK","2017/12/30 14:39:43","新北市板橋區民族路19號","121.461878333333","25.00965","6500100","板橋區"
"220038","487-VK","2017/12/30 14:39:48","新北市板橋區英士路199號","121.458708333333","25.0233883333333","6500100","板橋區"
"220037","491-VK","2017/12/30 14:39:41","新北市板橋區文化路二段443號","121.475201666667","25.03314","6500100","板橋區"
"220104","560-BX","2017/12/30 14:39:31","新北市板橋區金華街114號","121.458941666667","25.020855","6500100","板橋區"
"220052","561-BX","2017/12/30 14:39:44","新北市板橋區文化路一段290號","121.467521666667","25.0214216666667","6500100","板橋區"
"220011","609-BX","2017/12/30 14:39:45","新北市板橋區三民路一段33號","121.47942","25.0229766666667","6500100","板橋區"
"220040","637-BX","2017/12/30 14:39:36","新北市板橋區懷德街201巷1號","121.48078","25.029325","6500100","板橋區"
"220005","686-BX","2017/12/30 14:39:45","新北市板橋區和平路82-1號","121.461451666667","24.9945266666667","6500100","板橋區"
"220025","687-BX","2017/12/30 14:39:41","新北市板橋區僑中二街126巷2號","121.445415","25.0052083333333","6500100","板橋區"
"220042","689-BX","2017/12/30 14:39:45","新北市板橋區新海路402號","121.458675","25.026785","6500100","板橋區"
"220002","741-BX","2017/12/30 14:39:31","新北市板橋區忠孝路196-2號","121.465535","25.00261","6500100","板橋區"
"220003","827-TW","2017/12/30 14:39:34","新北市板橋區國慶路149巷21弄12號","121.460415","24.9973466666667","6500100","板橋區"
"220014","829-TW","2017/12/30 14:39:42","新北市板橋區長安街251巷2號","121.472581666667","25.0103116666667","6500100","板橋區"
"220051","830-TW","2017/12/30 14:39:39","新北市板橋區雙十路二段46巷15號","121.476146666667","25.02813","6500100","板橋區"
"220022","895-R6","2017/12/30 14:39:36","新北市板橋區府中路29-2號","121.458528333333","25.00803","6500100","板橋區"
"220021","985-R7","2017/12/30 14:39:33","新北市板橋區大仁街51號","121.454585","25.0164583333333","6500100","板橋區"
"220046","AAC-210","2017/12/30 14:39:34","新北市板橋區幸福路32巷3號","121.461528333333","25.0206083333333","6500100","板橋區"
"220018","AAC-253","2017/12/30 14:39:37","新北市板橋區民族路294號","121.470401666667","25.0067983333333","6500100","板橋區"
