"lineid","car","time","location","longitude","latitude","cityid","cityname"
"244002","837-TS","2017/12/30 08:30:47","新北市林口區粉寮69號","121.405083333333","25.0908216666667","6501700","林口區"
"231018","107-UY","2017/12/30 16:19:41","新北市新店區中正路694巷15號","121.535353333333","24.9908833333333","6500600","新店區"
"231046","278-BY","2017/12/30 16:19:41","新北市新店區灣潭路3-3號","121.538233333333","24.9507683333333","6500600","新店區"
"241011","013-R5","2017/12/30 16:19:44","新北市三重區龍濱路285號","121.501125","25.0733483333333","6500200","三重區"
"241028","022-UY","2017/12/30 16:19:32","新北市三重區同安東街78號","121.498615","25.0574816666667","6500200","三重區"
"241008","059-VK","2017/12/30 16:19:43","新北市三重區永福街122-2號","121.479061666667","25.0753266666667","6500200","三重區"
"241009","060-VK","2017/12/30 16:19:32","新北市三重區溪尾街196巷2號","121.487861666667","25.0808316666667","6500200","三重區"
"241031","061-VK","2017/12/30 16:19:47","新北市三重區重陽路一段45號","121.48672","25.0581783333333","6500200","三重區"
"241015","062-VK","2017/12/30 16:19:46","新北市三重區福德北路66號","121.50186","25.06589","6500200","三重區"
"241017","063-VK","2017/12/30 16:19:43","新北市三重區大同北路91號","121.494735","25.0636116666667","6500200","三重區"
"241024","065-VK","2017/12/30 16:19:36","新北市三重區中正北路280號","121.480685","25.0685816666667","6500200","三重區"
"241002","090-VK","2017/12/30 16:19:35","新北市三重區仁義街91號","121.499786666667","25.0794566666667","6500200","三重區"
"241003","091-VK","2017/12/30 16:19:36","新北市三重區五華街57巷30號","121.493828333333","25.08317","6500200","三重區"
"241026","156-TC","2017/12/30 16:19:42","新北市三重區正義南路46號","121.498256666667","25.060845","6500200","三重區"
"241005","262-UM","2017/12/30 16:19:40","新北市三重區溪尾街305號","121.487573333333","25.0837083333333","6500200","三重區"
"241016","266-UM","2017/12/30 16:19:40","新北市三重區大仁街37號","121.492928333333","25.065465","6500200","三重區"
"241022","267-UM","2017/12/30 16:19:35","新北市三重區新北大道一段7號","121.48981","25.06142","6500200","三重區"
"241018","268-UM","2017/12/30 16:19:32","新北市三重區重陽路三段7號","121.488998333333","25.066435","6500200","三重區"
"241013","270-UM","2017/12/30 16:19:39","新北市三重區龍門路54號","121.496475","25.0727033333333","6500200","三重區"
"241025","271-UM","2017/12/30 16:19:39","新北市三重區中正北路560巷100弄2號","121.472556666667","25.0682333333333","6500200","三重區"
"241007","398-BY","2017/12/30 16:19:41","新北市三重區仁美街83號","121.486145","25.0794533333333","6500200","三重區"
"241020","413-TH","2017/12/30 16:19:36","新北市三重區三張街272號","121.48378","25.071115","6500200","三重區"
"241004","475-VK","2017/12/30 16:19:46","新北市三重區五華街70號","121.493501666667","25.081945","6500200","三重區"
"241019","478-VK","2017/12/30 16:19:46","新北市三重區自強路二段27號","121.489656666667","25.0693933333333","6500200","三重區"
"241030","480-VK","2017/12/30 16:19:46","新北市三重區重新路四段121號","121.484748333333","25.0523766666667","6500200","三重區"
"241014","543-UM","2017/12/30 16:19:45","新北市三重區河邊北街100巷8號","121.503598333333","25.0703183333333","6500200","三重區"
"241023","545-UM","2017/12/30 16:19:49","新北市三重區忠孝路三段53號","121.480983333333","25.0664316666667","6500200","三重區"
"241001","547-UM","2017/12/30 16:19:49","新北市三重區仁政街159號","121.491375","25.079625","6500200","三重區"
"241006","AAD-863","2017/12/30 16:19:32","新北市三重區永福街46巷39號","121.48225","25.0773316666667","6500200","三重區"
"241012","941-UM","2017/12/30 16:19:44","新北市三重區龍門路292號","121.502186666667","25.07421","6500200","三重區"
"241029","942-UM","2017/12/30 16:19:29","新北市三重區環河南路220-8號","121.493378333333","25.0526433333333","6500200","三重區"
"241033","AAC-255","2017/12/30 16:19:50","新北市三重區五谷王南街11巷15弄1號","121.472778333333","25.0446066666667","6500200","三重區"
"235064","005-UY","2017/12/30 16:19:47","新北市中和區員山路36巷16-3號","121.485046666667","24.99131","6500300","中和區"
"235062","800-TS","2017/12/30 15:31:51","新北市中和區員山路36巷16-3號","121.484923333333","24.9915916666667","6500300","中和區"
"235065","911-UM","2017/12/30 15:57:23","新北市中和區員山路36巷16-3號","121.485088333333","24.991155","6500300","中和區"
"247001","402-BY","2017/12/30 16:19:48","新北市八里區中華路三段19號","121.396943333333","25.1430383333333","6501400","蘆洲區"
"247004","336-TH","2017/12/30 15:48:12","新北市五股區中興路三段163號","121.449226666667","25.0805633333333","6501400","蘆洲區"
"224006","676-BX","2017/12/30 16:19:40","新北市瑞芳區傑魚坑路356號","121.790616666667","25.1098583333333","6501200","瑞芳區"
"224008","275-VK","2017/12/30 16:19:38","新北市瑞芳區傑魚坑路191號","121.788021666667","25.1074816666667","6501200","瑞芳區"
"224007","272-VK","2017/12/30 16:19:34","新北市瑞芳區大埔路276號","121.759931666667","25.102535","6501200","瑞芳區"
"224005","271-BY","2017/12/30 16:19:39","新北市瑞芳區連福新城30號","121.820626666667","25.118915","6501200","瑞芳區"
"227010","400-TW","2017/12/30 16:19:43","新北市雙溪區三港里雙澳路80號","121.883798333333","25.053865","6502500","雙溪區"
"227002","030-BX","2017/12/30 16:19:33","新北市雙溪區上林里內平林80號","121.828326666667","25.027925","6502500","雙溪區"
"251008","181-VK","2017/12/30 16:19:30","新北市淡水區中山路104號","121.442356666667","25.170605","6501000","淡水區"
"237007","153-BY","2017/12/30 14:44:46","新北市三峽區中山路459巷137號","121.349886666667","24.9338733333333","6500900","三峽區"
"220032","296-UM","2017/12/30 16:19:46","新北市五股區成泰路一段90號","121.437258333333","25.06991","6500100","板橋區"
"220080","461-BY","2017/12/30 09:06:25","新北市板橋區華東街1-9號","121.4481","24.994855","6500100","板橋區"
