"lineid","car","time","location","longitude","latitude","cityid","cityname"
"244002","837-TS","2017/12/30 08:30:47","新北市林口區粉寮69號","121.405083333333","25.0908216666667","6501700","林口區"
"231046","278-BY","2017/12/30 16:29:41","新北市新店區灣潭路3-2號","121.538405","24.9507216666667","6500600","新店區"
"241011","013-R5","2017/12/30 16:29:45","新北市三重區仁愛街43巷107號","121.500593333333","25.0727383333333","6500200","三重區"
"241028","022-UY","2017/12/30 16:29:32","新北市三重區中正南路190號","121.493898333333","25.0560466666667","6500200","三重區"
"241008","059-VK","2017/12/30 16:29:43","新北市三重區力行路二段136巷45弄12號","121.479136666667","25.0753383333333","6500200","三重區"
"241009","060-VK","2017/12/30 16:29:52","新北市三重區三和路四段191巷70號","121.483928333333","25.07966","6500200","三重區"
"241031","061-VK","2017/12/30 16:29:47","新北市三重區重陽路一段68號","121.48663","25.0585566666667","6500200","三重區"
"241015","062-VK","2017/12/30 16:29:46","新北市三重區福德北路40號","121.501811666667","25.06528","6500200","三重區"
"241017","063-VK","2017/12/30 16:29:50","新北市三重區大同北路47號","121.49523","25.0630783333333","6500200","三重區"
"241024","065-VK","2017/12/30 16:29:36","新北市三重區中正北路193巷27號","121.476196666667","25.070565","6500200","三重區"
"241002","090-VK","2017/12/30 16:29:35","新北市三重區五華街6號","121.49504","25.0799983333333","6500200","三重區"
"241003","091-VK","2017/12/30 16:29:36","新北市三重區仁義街230巷12號","121.494268333333","25.0847983333333","6500200","三重區"
"241026","156-TC","2017/12/30 16:29:42","新北市三重區文化南路42號","121.50039","25.0603883333333","6500200","三重區"
"241005","262-UM","2017/12/30 16:29:40","新北市三重區碧華街177號","121.48726","25.0824233333333","6500200","三重區"
"241016","266-UM","2017/12/30 16:29:40","新北市三重區自強路一段160巷2弄53號","121.494386666667","25.0657283333333","6500200","三重區"
"241022","267-UM","2017/12/30 16:29:42","新北市三重區重陽路二段2號","121.486635","25.0615716666667","6500200","三重區"
"241018","268-UM","2017/12/30 16:29:32","新北市三重區重陽路四段75號","121.492436666667","25.070725","6500200","三重區"
"241032","269-UM","2017/12/30 16:29:40","新北市三重區三陽路100巷3弄13號","121.482985","25.0580783333333","6500200","三重區"
"241013","270-UM","2017/12/30 16:29:39","新北市三重區龍門路71號","121.49676","25.0724583333333","6500200","三重區"
"241025","271-UM","2017/12/30 16:29:53","新北市三重區中正北路560巷100弄17-1號","121.47276","25.0682966666667","6500200","三重區"
"241007","398-BY","2017/12/30 16:29:40","新北市三重區三和路四段167巷157號","121.488286666667","25.0803783333333","6500200","三重區"
"241020","413-TH","2017/12/30 16:29:36","新北市三重區車路頭街46號","121.483885","25.071955","6500200","三重區"
"241004","475-VK","2017/12/30 16:29:46","新北市三重區仁愛街377巷2號","121.491666666667","25.0804366666667","6500200","三重區"
"241019","478-VK","2017/12/30 16:29:46","新北市三重區重陽路三段154號","121.489728333333","25.0676566666667","6500200","三重區"
"241030","480-VK","2017/12/30 16:29:46","新北市三重區成功路90號","121.488003333333","25.0512833333333","6500200","三重區"
"241014","543-UM","2017/12/30 16:29:45","新北市三重區河邊北街70-3號","121.504311666667","25.068355","6500200","三重區"
"241023","545-UM","2017/12/30 16:29:49","新北市三重區忠孝路三段50巷53號","121.483273333333","25.0642783333333","6500200","三重區"
"241001","547-UM","2017/12/30 16:29:49","新北市三重區福隆路22號","121.491635","25.0780066666667","6500200","三重區"
"241006","AAD-863","2017/12/30 16:29:53","新北市三重區力行路二段121號","121.482993333333","25.0765533333333","6500200","三重區"
"241012","941-UM","2017/12/30 16:29:44","新北市三重區河邊北街345號","121.502221666667","25.0755","6500200","三重區"
"241029","942-UM","2017/12/30 16:29:49","新北市三重區集美街126巷23號","121.489861666667","25.0537333333333","6500200","三重區"
"241033","AAC-255","2017/12/30 16:29:33","新北市三重區重新路五段406號","121.475865","25.0477633333333","6500200","三重區"
"235064","005-UY","2017/12/30 16:29:47","新北市中和區員山路36巷16-3號","121.485085","24.9913083333333","6500300","中和區"
"235046","031-BX","2017/12/30 16:29:19","新北市中和區員山路36巷16-2號","121.485253333333","24.9915683333333","6500300","中和區"
"235062","800-TS","2017/12/30 15:31:51","新北市中和區員山路36巷16-3號","121.484923333333","24.9915916666667","6500300","中和區"
"235065","911-UM","2017/12/30 15:57:23","新北市中和區員山路36巷16-3號","121.485088333333","24.991155","6500300","中和區"
"247001","402-BY","2017/12/30 16:29:48","新北市八里區中華路三段19號","121.396911666667","25.1430266666667","6501400","蘆洲區"
"247002","337-TH","2017/12/30 16:29:35","新北市五股區中興路三段163號","121.449241666667","25.0806716666667","6501400","蘆洲區"
"247004","336-TH","2017/12/30 15:48:12","新北市五股區中興路三段163號","121.449226666667","25.0805633333333","6501400","蘆洲區"
"224006","676-BX","2017/12/30 16:29:33","新北市瑞芳區明燈路二段66號","121.809358333333","25.10765","6501200","瑞芳區"
"224008","275-VK","2017/12/30 16:29:38","新北市瑞芳區民權街3-1號","121.809343333333","25.1083783333333","6501200","瑞芳區"
"224007","272-VK","2017/12/30 16:29:51","新北市瑞芳區瑞竹路36巷3號","121.764211666667","25.10364","6501200","瑞芳區"
"224005","271-BY","2017/12/30 16:29:53","新北市瑞芳區瑞濱路1-8號","121.82807","25.12156","6501200","瑞芳區"
"227010","400-TW","2017/12/30 16:29:43","新北市雙溪區三港里雙澳路33-3號","121.87026","25.0492216666667","6502500","雙溪區"
"227002","030-BX","2017/12/30 16:29:33","新北市雙溪區上林里內平林120-2號","121.82448","25.0262233333333","6502500","雙溪區"
"251008","181-VK","2017/12/30 16:29:50","新北市淡水區民權路39號","121.45967","25.1405","6501000","淡水區"
"251016","442-VK","2017/12/30 16:29:40","新北市淡水區中正路二段31號","121.419128333333","25.1818966666667","6501000","淡水區"
"252002","178-VK","2017/12/30 16:29:42","新北市三芝區埔坪里埔頭坑80號","121.509883333333","25.2538966666667","6502100","三芝區"
"237007","153-BY","2017/12/30 14:44:46","新北市三峽區中山路459巷137號","121.349886666667","24.9338733333333","6500900","三峽區"
"220032","296-UM","2017/12/30 16:29:46","新北市板橋區華東街1-9號","121.448165","24.9949466666667","6500100","板橋區"
"220080","461-BY","2017/12/30 09:06:25","新北市板橋區華東街1-9號","121.4481","24.994855","6500100","板橋區"
