"lineid","car","time","location","longitude","latitude","cityid","cityname"
"249005","759-BX","2017/12/30 16:39:38","新北市八里區大崁腳48-53號","121.42477","25.1593733333333","6502300","八里區"
"244002","837-TS","2017/12/30 16:39:44","新北市林口區粉寮路二段88巷101-1號","121.40503","25.0906433333333","6501700","林口區"
"231046","278-BY","2017/12/30 16:39:41","新北市新店區灣潭路60-1號","121.540003333333","24.9422383333333","6500600","新店區"
"241011","013-R5","2017/12/30 16:39:45","新北市三重區仁愛街49號","121.496481666667","25.0717533333333","6500200","三重區"
"241028","022-UY","2017/12/30 16:39:32","新北市三重區中正南路22號","121.49353","25.0603366666667","6500200","三重區"
"241008","059-VK","2017/12/30 16:39:43","新北市三重區永安北路一段27巷16號","121.477071666667","25.07556","6500200","三重區"
"241009","060-VK","2017/12/30 16:39:32","新北市三重區三和路四段203巷86號","121.484036666667","25.079995","6500200","三重區"
"241031","061-VK","2017/12/30 16:39:47","新北市三重區重新路四段57號","121.487398333333","25.0576416666667","6500200","三重區"
"241015","062-VK","2017/12/30 16:39:46","新北市三重區文化北路37號","121.498986666667","25.0650066666667","6500200","三重區"
"241017","063-VK","2017/12/30 16:39:43","新北市三重區中正北路25巷23號","121.493095","25.06253","6500200","三重區"
"241024","065-VK","2017/12/30 16:39:36","新北市三重區中正北路315巷6弄66號","121.476381666667","25.072565","6500200","三重區"
"241002","090-VK","2017/12/30 16:39:43","新北市三重區仁義街241巷12號","121.496655","25.08283","6500200","三重區"
"241003","091-VK","2017/12/30 16:39:36","新北市三重區五華街71巷33號","121.493248333333","25.0832316666667","6500200","三重區"
"241026","156-TC","2017/12/30 16:39:42","新北市三重區和平街40號","121.50214","25.0627116666667","6500200","三重區"
"241005","262-UM","2017/12/30 16:39:40","新北市三重區碧華街188號","121.486193333333","25.0820983333333","6500200","三重區"
"241016","266-UM","2017/12/30 16:39:40","新北市三重區大智街1-1號","121.494763333333","25.0648783333333","6500200","三重區"
"241022","267-UM","2017/12/30 16:39:46","新北市三重區三民街86號","121.48544","25.06267","6500200","三重區"
"241018","268-UM","2017/12/30 16:39:32","新北市三重區正義北路338巷55號","121.493003333333","25.0703266666667","6500200","三重區"
"241032","269-UM","2017/12/30 16:39:40","新北市三重區新北大道一段57巷1號","121.48553","25.0612083333333","6500200","三重區"
"241013","270-UM","2017/12/30 16:39:44","新北市三重區仁愛街79號","121.496115","25.0730333333333","6500200","三重區"
"241025","271-UM","2017/12/30 16:39:39","新北市三重區中正北路303號","121.47434","25.0713366666667","6500200","三重區"
"241007","398-BY","2017/12/30 16:39:40","新北市三重區三和路四段167巷49號","121.485345","25.079495","6500200","三重區"
"241020","413-TH","2017/12/30 16:39:39","新北市三重區後竹圍街206號","121.486048333333","25.071765","6500200","三重區"
"241004","475-VK","2017/12/30 16:39:46","新北市三重區五福街6號","121.493073333333","25.0816633333333","6500200","三重區"
"241019","478-VK","2017/12/30 16:39:46","新北市三重區力行路一段61號","121.487406666667","25.0673916666667","6500200","三重區"
"241030","480-VK","2017/12/30 16:39:46","新北市三重區環河南路286號","121.489231666667","25.04884","6500200","三重區"
"241014","543-UM","2017/12/30 16:39:45","新北市三重區龍濱路34號","121.502796666667","25.0681833333333","6500200","三重區"
"241023","545-UM","2017/12/30 16:39:29","新北市三重區忠孝路三段50巷47號","121.482948333333","25.064435","6500200","三重區"
"241001","547-UM","2017/12/30 16:39:49","新北市三重區仁政街95號","121.492446666667","25.0779","6500200","三重區"
"241006","AAD-863","2017/12/30 16:39:32","新北市三重區車路頭街138-2號","121.483633333333","25.075495","6500200","三重區"
"241012","941-UM","2017/12/30 16:39:43","新北市三重區仁興街4巷12號","121.4996","25.073695","6500200","三重區"
"241029","942-UM","2017/12/30 16:39:49","新北市三重區集美街212號","121.490601666667","25.054485","6500200","三重區"
"241033","AAC-255","2017/12/30 16:39:34","新北市三重區光復路一段108號","121.47192","25.05118","6500200","三重區"
"235064","005-UY","2017/12/30 16:37:41","新北市中和區員山路36巷16-3號","121.485048333333","24.9913333333333","6500300","中和區"
"235046","031-BX","2017/12/30 16:29:19","新北市中和區員山路36巷16-2號","121.485253333333","24.9915683333333","6500300","中和區"
"235062","800-TS","2017/12/30 15:31:51","新北市中和區員山路36巷16-3號","121.484923333333","24.9915916666667","6500300","中和區"
"235065","911-UM","2017/12/30 15:57:23","新北市中和區員山路36巷16-3號","121.485088333333","24.991155","6500300","中和區"
"247001","402-BY","2017/12/30 16:39:48","新北市八里區中華路三段2號","121.396676666667","25.1433516666667","6501400","蘆洲區"
"247002","337-TH","2017/12/30 16:39:35","新北市蘆洲區永平街52號","121.457876666667","25.0914183333333","6501400","蘆洲區"
"247004","336-TH","2017/12/30 16:39:39","新北市五股區新五路二段372巷20號","121.447831666667","25.08686","6501400","蘆洲區"
"247006","056-VK","2017/12/30 16:39:49","新北市五股區中興路二段182巷15弄13號","121.457171666667","25.0816216666667","6501400","蘆洲區"
"247018","001-UY","2017/12/30 16:39:48","新北市五股區中興路三段163號","121.449141666667","25.08066","6501400","蘆洲區"
"224006","676-BX","2017/12/30 16:39:33","新北市瑞芳區傑魚坑路62號","121.793426666667","25.1105383333333","6501200","瑞芳區"
"224009","285-BY","2017/12/30 16:39:45","新北市瑞芳區大寮路356-1號","121.784995","25.1031066666667","6501200","瑞芳區"
"224008","275-VK","2017/12/30 16:39:38","新北市瑞芳區逢甲路20-1號","121.809363333333","25.10846","6501200","瑞芳區"
"224007","272-VK","2017/12/30 16:39:33","新北市瑞芳區月眉路31-1號","121.760746666667","25.10917","6501200","瑞芳區"
"224005","271-BY","2017/12/30 16:39:39","新北市瑞芳區洞頂路142號","121.860538333333","25.1174966666667","6501200","瑞芳區"
"227010","400-TW","2017/12/30 16:39:43","新北市雙溪區牡丹里中正路87號","121.862268333333","25.046555","6502500","雙溪區"
"227002","030-BX","2017/12/30 16:39:33","新北市雙溪區外柑里外柑腳51號","121.808256666667","25.017885","6502500","雙溪區"
"251008","181-VK","2017/12/30 16:39:30","台北市北投區中央北路四段30巷160號","121.473955","25.1404166666667","6501000","淡水區"
"251016","442-VK","2017/12/30 16:39:40","新北市淡水區淡金路二段15號","121.44645","25.1889016666667","6501000","淡水區"
"251011","650-BX","2017/12/30 16:39:28","新北市淡水區中正路二段31號","121.419105","25.18196","6501000","淡水區"
"252002","178-VK","2017/12/30 16:39:42","新北市三芝區芝柏路26號","121.512003333333","25.25553","6502100","三芝區"
"237007","153-BY","2017/12/30 14:44:46","新北市三峽區中山路459巷137號","121.349886666667","24.9338733333333","6500900","三峽區"
"239001","417-VK","2017/12/30 10:17:51","新北市鶯歌區二甲路13-16號","121.344838333333","24.935265","6500800","鶯歌區"
"220080","461-BY","2017/12/30 09:06:25","新北市板橋區華東街1-9號","121.4481","24.994855","6500100","板橋區"
