"lineid","car","time","location","longitude","latitude","cityid","cityname"
"249001","173-UM","2017/12/30 17:29:52","新北市八里區大崁腳47-3號","121.42451","25.158925","6502300","八里區"
"249004","303-UY","2017/12/30 17:29:47","新北市八里區民治街173號","121.41336","25.156725","6502300","八里區"
"249002","305-UY","2017/12/30 17:29:04","新北市八里區龍形五街35巷3號","121.4492","25.133365","6502300","八里區"
"249003","593-UM","2017/12/30 17:29:53","新北市八里區中山路二段313號","121.400671666667","25.14785","6502300","八里區"
"249005","759-BX","2017/12/30 17:29:38","新北市八里區荖阡坑路32-1號","121.404113333333","25.1277633333333","6502300","八里區"
"244013","069-UM","2017/12/30 17:29:34","新北市林口區中山路319號","121.383526666667","25.0805683333333","6501700","林口區"
"244007","080-UY","2017/12/30 17:29:37","新北市林口區湖子7-8號","121.388715","25.0924566666667","6501700","林口區"
"244019","403-UM","2017/12/30 17:29:43","新北市林口區公園路191號","121.371915","25.0723216666667","6501700","林口區"
"244025","742-UY","2017/12/30 17:29:49","新北市林口區忠孝路53號","121.365271666667","25.0750666666667","6501700","林口區"
"244023","483-VK","2017/12/30 17:29:31","新北市林口區興林一街109巷16號","121.392085","25.07274","6501700","林口區"
"244017","485-VK","2017/12/30 17:29:50","新北市林口區文化一路二段202號","121.383131666667","25.080745","6501700","林口區"
"244009","837-TS","2017/12/30 17:29:50","新北市林口區中北一街76號","121.385778333333","25.08869","6501700","林口區"
"244021","838-TS","2017/12/30 17:29:52","新北市林口區粉寮路二段227-1號","121.403505","25.09103","6501700","林口區"
"243013","646-TV","2017/12/30 17:29:49","新北市泰山區黎明路2-9號","121.420141666667","25.063145","6501600","泰山區"
"231046","278-BY","2017/12/30 17:29:41","新北市新店區直潭路92號","121.530961666667","24.9376783333333","6500600","新店區"
"241011","013-R5","2017/12/30 17:29:44","新北市三重區河邊北街124巷59號","121.502431666667","25.0711733333333","6500200","三重區"
"241015","062-VK","2017/12/30 17:29:46","新北市三重區長元街65巷16弄15號","121.503518333333","25.06618","6500200","三重區"
"241017","063-VK","2017/12/30 17:29:43","新北市三重區大同北路34巷52號","121.493546666667","25.0619633333333","6500200","三重區"
"241024","065-VK","2017/12/30 17:29:36","新北市三重區國道路一段58巷15號","121.481358333333","25.072025","6500200","三重區"
"241002","090-VK","2017/12/30 17:29:35","新北市三重區仁愛街355號","121.491875","25.0800783333333","6500200","三重區"
"241003","091-VK","2017/12/30 17:29:36","新北市三重區五華街133號","121.491141666667","25.084445","6500200","三重區"
"241005","262-UM","2017/12/30 17:29:40","新北市三重區仁華街6號","121.483421666667","25.0812833333333","6500200","三重區"
"241016","266-UM","2017/12/30 17:29:40","新北市三重區信義西街43號","121.495225","25.064015","6500200","三重區"
"241022","267-UM","2017/12/30 17:29:35","新北市三重區新北大道一段7號","121.489765","25.0613233333333","6500200","三重區"
"241018","268-UM","2017/12/30 17:29:52","新北市三重區大同北路112號","121.493243333333","25.0639516666667","6500200","三重區"
"241032","269-UM","2017/12/30 17:29:40","新北市三重區名源街54號","121.482505","25.059345","6500200","三重區"
"241025","271-UM","2017/12/30 17:29:39","新北市三重區中正北路311號","121.474073333333","25.0714333333333","6500200","三重區"
"241007","398-BY","2017/12/30 17:29:40","新北市三重區三和路四段145巷191號","121.488296666667","25.07941","6500200","三重區"
"241020","413-TH","2017/12/30 17:29:36","新北市三重區忠孝路三段20號","121.48151","25.0671266666667","6500200","三重區"
"241019","478-VK","2017/12/30 17:29:46","新北市三重區自強路二段40巷13號","121.488711666667","25.0692816666667","6500200","三重區"
"241030","480-VK","2017/12/30 17:29:46","新北市三重區中正南路269號","121.493013333333","25.0524866666667","6500200","三重區"
"241014","543-UM","2017/12/30 17:29:45","新北市三重區長壽街65號","121.501843333333","25.068465","6500200","三重區"
"241023","545-UM","2017/12/30 17:29:49","新北市三重區忠孝路三段84巷30號","121.48154","25.0641483333333","6500200","三重區"
"241012","941-UM","2017/12/30 17:29:43","新北市三重區仁興街31巷2號","121.499375","25.0752333333333","6500200","三重區"
"241033","AAC-255","2017/12/30 17:29:33","新北市三重區興德路133號","121.47024","25.0529616666667","6500200","三重區"
"235064","005-UY","2017/12/30 16:37:41","新北市中和區員山路36巷16-3號","121.485048333333","24.9913333333333","6500300","中和區"
"235046","031-BX","2017/12/30 16:29:19","新北市中和區員山路36巷16-2號","121.485253333333","24.9915683333333","6500300","中和區"
"235061","378-QA","2017/12/30 17:14:39","新北市中和區員山路36巷16-2號","121.485166666667","24.99157","6500300","中和區"
"235062","800-TS","2017/12/30 15:31:51","新北市中和區員山路36巷16-3號","121.484923333333","24.9915916666667","6500300","中和區"
"235065","911-UM","2017/12/30 15:57:23","新北市中和區員山路36巷16-3號","121.485088333333","24.991155","6500300","中和區"
"247022","893-R6","2017/12/30 17:29:52","新北市蘆洲區三民路222號","121.468765","25.0892866666667","6501400","蘆洲區"
"247012","546-UM","2017/12/30 17:29:47","新北市蘆洲區三民路70號","121.475475","25.0838633333333","6501400","蘆洲區"
"247020","500-BY","2017/12/30 17:29:46","新北市蘆洲區水湳街395號","121.469458333333","25.0946233333333","6501400","蘆洲區"
"247008","341-TH","2017/12/30 17:29:46","新北市蘆洲區民生街87號","121.473791666667","25.0779433333333","6501400","蘆洲區"
"247010","339-TH","2017/12/30 17:29:37","新北市蘆洲區鷺江街35號","121.478515","25.082175","6501400","蘆洲區"
"247002","337-TH","2017/12/30 17:29:35","新北市蘆洲區永樂街38巷65號","121.458533333333","25.0904616666667","6501400","蘆洲區"
"247004","336-TH","2017/12/30 17:29:38","新北市蘆洲區長安街249巷42號","121.457725","25.0825233333333","6501400","蘆洲區"
"247016","057-VK","2017/12/30 17:29:21","新北市蘆洲區中正路185巷3弄58號","121.46902","25.0843383333333","6501400","蘆洲區"
"247006","056-VK","2017/12/30 17:29:50","新北市蘆洲區九芎街90巷31號","121.4645","25.0814366666667","6501400","蘆洲區"
"247014","007-UY","2017/12/30 17:29:35","新北市蘆洲區三民路38-1號","121.47547","25.083","6501400","蘆洲區"
"247024","002-UY","2017/12/30 17:29:52","新北市蘆洲區長興路351號","121.460883333333","25.091075","6501400","蘆洲區"
"247018","001-UY","2017/12/30 17:29:48","新北市蘆洲區民權路144號","121.47289","25.0892233333333","6501400","蘆洲區"
"228003","097-TW","2017/12/30 17:29:32","新北市貢寮區仁理村仁和路2-2號","121.923201666667","25.0485633333333","6502600","貢寮區"
"228001","212-TW","2017/12/30 17:29:50","新北市貢寮區仁理村仁愛路62巷1號","121.925623333333","25.0533966666667","6502600","貢寮區"
"228002","585-TW","2017/12/30 17:29:45","新北市貢寮區福隆里興隆街24-1號","121.944195","25.0165916666667","6502600","貢寮區"
"224010","AGQ-8101","2017/12/30 17:28:14","新北市瑞芳區逢甲路89號","121.807436666667","25.1096416666667","6501200","瑞芳區"
"224006","676-BX","2017/12/30 17:29:52","新北市瑞芳區靜安路四段63-1號","121.79339","25.108785","6501200","瑞芳區"
"224009","285-BY","2017/12/30 17:29:51","新北市瑞芳區基山街31巷24號","121.846258333333","25.1104816666667","6501200","瑞芳區"
"224008","275-VK","2017/12/30 17:29:38","新北市瑞芳區九芎橋路152號","121.833476666667","25.0948383333333","6501200","瑞芳區"
"224005","271-BY","2017/12/30 17:29:39","新北市瑞芳區海濱路8-6號","121.831743333333","25.1261033333333","6501200","瑞芳區"
"227010","400-TW","2017/12/30 17:29:43","新北市雙溪區三貂里政光路1號","121.851568333333","25.0632716666667","6502500","雙溪區"
"251009","008-UM","2017/12/30 17:29:38","新北市淡水區新生街88號","121.439496666667","25.17476","6501000","淡水區"
"251004","009-UM","2017/12/30 17:29:37","新北市淡水區中正東路二段88巷15號","121.458966666667","25.1504616666667","6501000","淡水區"
"251001","011-UM","2017/12/30 17:29:35","新北市淡水區民權路92巷35-1號","121.462203333333","25.1267066666667","6501000","淡水區"
"251014","180-VK","2017/12/30 17:29:32","新北市淡水區公埔子20-6號","121.46903","25.2272683333333","6501000","淡水區"
"251008","181-VK","2017/12/30 17:29:50","新北市淡水區大同路122巷20號","121.463345","25.1397316666667","6501000","淡水區"
"251010","413-VK","2017/12/30 17:29:42","新北市淡水區中正路二段211號","121.426201666667","25.1891033333333","6501000","淡水區"
"251012","441-VK","2017/12/30 17:29:50","新北市淡水區北新路121號","121.44898","25.1786016666667","6501000","淡水區"
"251016","442-VK","2017/12/30 17:29:48","新北市淡水區社厝坑12號","121.46377","25.1916366666667","6501000","淡水區"
"251005","443-VK","2017/12/30 17:29:52","新北市淡水區鄧公路31巷5號","121.451521666667","25.1707916666667","6501000","淡水區"
"251006","561-UM","2017/12/30 17:29:37","新北市淡水區大仁街61號","121.442816666667","25.176095","6501000","淡水區"
"251007","577-R6","2017/12/30 17:29:49","新北市淡水區民生路60號","121.462091666667","25.1379583333333","6501000","淡水區"
"251011","650-BX","2017/12/30 17:29:48","新北市淡水區坪頂路718號","121.482548333333","25.1585033333333","6501000","淡水區"
"251002","672-BX","2017/12/30 17:29:46","新北市淡水區中正路437號","121.432073333333","25.1747383333333","6501000","淡水區"
"251003","766-UM","2017/12/30 17:29:45","新北市淡水區中山路151-7號","121.44024","25.1724016666667","6501000","淡水區"
"207003","550-UM","2017/12/30 17:29:44","新北市萬里區龜吼里翡翠路17號","121.683396666667","25.1872166666667","6502800","萬里區"
"207004","225-TW","2017/12/30 17:29:47","新北市萬里區萬里里景美路11-3號","121.685841666667","25.1729316666667","6502800","萬里區"
"252002","178-VK","2017/12/30 17:29:42","新北市三芝區忠孝街1-14號","121.505463333333","25.2539333333333","6502100","三芝區"
"252001","292-VK","2017/12/30 17:29:39","新北市三芝區長安街119號","121.498038333333","25.2596483333333","6502100","三芝區"
"237007","153-BY","2017/12/30 17:29:34","新北市三峽區中山路459巷163-3號","121.348711666667","24.932965","6500900","三峽區"
"237006","5529-G3","2017/12/30 17:29:47","新北市三峽區大學路154號","121.373725","24.9450283333333","6500900","三峽區"
"237011","572-TV","2017/12/30 13:35:24","新北市三峽區中山路459巷163-3號","121.348653333333","24.9330233333333","6500900","三峽區"
"237016","649-BX","2017/12/30 17:29:51","新北市三峽區仁愛街4號","121.368281666667","24.9339516666667","6500900","三峽區"
"242044","AAC-296","2017/12/30 17:29:41","新北市新莊區富國路76號","121.42002","25.0259266666667","6500500","新莊區"
"242029","986-R7","2017/12/30 17:29:37","新北市新莊區復興路二段191號","121.45923","25.044505","6500500","新莊區"
"242051","751-BX","2017/12/30 17:29:49","新北市新莊區新樹路423號","121.432651666667","25.0140533333333","6500500","新莊區"
"242061","705-TV","2017/12/30 17:29:53","新北市新莊區瓊林南路48號","121.435843333333","25.0175366666667","6500500","新莊區"
"242025","615-BX","2017/12/30 17:29:41","新北市新莊區中港路266號","121.45326","25.043845","6500500","新莊區"
"242023","613-BX","2017/12/30 17:29:48","新北市新莊區公園路150號","121.453133333333","25.0401033333333","6500500","新莊區"
"242027","612-BX","2017/12/30 17:29:50","新北市新莊區思源路277號","121.459945","25.0480516666667","6500500","新莊區"
"242039","566-BX","2017/12/30 17:29:49","新北市新莊區民安西路37號","121.427695","25.0209833333333","6500500","新莊區"
"242031","442-UM","2017/12/30 17:29:50","新北市新莊區新泰路413巷22號","121.442545","25.04442","6500500","新莊區"
"242048","441-UM","2017/12/30 17:29:53","新北市新莊區四維路212巷22號","121.420903333333","25.020325","6500500","新莊區"
"242053","440-UM","2017/12/30 17:29:47","新北市新莊區瓊林南路305巷3號","121.434801666667","25.005485","6500500","新莊區"
"242034","415-TV","2017/12/30 17:29:46","新北市新莊區景德路217號","121.449171666667","25.0335933333333","6500500","新莊區"
"242004","413-TV","2017/12/30 17:29:36","新北市新莊區中港路301號","121.452795","25.0443916666667","6500500","新莊區"
"242042","400-BY","2017/12/30 17:29:48","新北市新莊區中正路514巷7號","121.433243333333","25.0328466666667","6500500","新莊區"
"242058","353-BY","2017/12/30 17:29:52","新北市新莊區中正路585號","121.43439","25.0326666666667","6500500","新莊區"
"242007","132-UY","2017/12/30 17:29:51","新北市新莊區自強街52號","121.454738333333","25.0467183333333","6500500","新莊區"
"242036","133-UY","2017/12/30 17:29:37","新北市新莊區建國二路1號","121.435065","25.023685","6500500","新莊區"
"242021","135-UY","2017/12/30 17:29:37","新北市新莊區中正路136號","121.452483333333","25.0361383333333","6500500","新莊區"
"242046","172-VK","2017/12/30 17:29:33","新北市新莊區新樹路65-5號","121.43939","25.0308216666667","6500500","新莊區"
"242009","173-VK","2017/12/30 17:29:36","新北市新莊區中原路187-1號","121.452723333333","25.054175","6500500","新莊區"
"242015","175-VK","2017/12/30 17:29:44","新北市新莊區新泰路208號","121.446848333333","25.0387083333333","6500500","新莊區"
"242002","176-VK","2017/12/30 17:29:35","新北市新莊區新莊路213號","121.455256666667","25.0354116666667","6500500","新莊區"
"242019","348-TH","2017/12/30 17:29:35","新北市新莊區中港路83號","121.455391666667","25.039","6500500","新莊區"
"242017","350-TH","2017/12/30 17:29:34","新北市新莊區建豐街26號","121.451575","25.04395","6500500","新莊區"
"242011","351-TH","2017/12/30 17:29:48","新北市新莊區中港路495號","121.452105","25.050175","6500500","新莊區"
"238015","755-BX","2017/12/30 17:29:34","新北市樹林區大安路267號","121.419063333333","24.9936783333333","6500700","樹林區"
"238023","601-UM","2017/12/30 17:29:42","新北市樹林區中正路433-2號","121.415023333333","25.0084933333333","6500700","樹林區"
"238019","599-UM","2017/12/30 17:29:43","新北市樹林區太平路45號","121.419168333333","24.9828733333333","6500700","樹林區"
"238018","571-TV","2017/12/30 17:29:50","新北市樹林區太平路1-5號","121.418546666667","24.9846216666667","6500700","樹林區"
"238024","5061-A6","2017/12/30 17:29:39","新北市樹林區保安街一段48巷19號","121.42636","24.9949316666667","6500700","樹林區"
"238021","KEA-2217","2017/12/30 17:29:49","新北市樹林區民權街48號","121.399145","24.9598233333333","6500700","樹林區"
"238022","KEA-2213","2017/12/30 17:29:45","新北市樹林區和平街31號","121.422555","24.981635","6500700","樹林區"
"238025","303-VK","2017/12/30 17:29:41","新北市樹林區保安二街145號","121.42261","24.995605","6500700","樹林區"
"238017","283-BY","2017/12/30 17:29:43","新北市樹林區光武街32巷12號","121.416753333333","25.0054483333333","6500700","樹林區"
"238014","282-BY","2017/12/30 17:29:32","新北市樹林區長壽街80號","121.420596666667","24.9949733333333","6500700","樹林區"
"238020","268-VK","2017/12/30 17:29:36","新北市樹林區俊英街114號","121.427428333333","25.0055083333333","6500700","樹林區"
"238026","172-UY","2017/12/30 17:29:52","新北市樹林區中山路三段41巷7號","121.401488333333","24.9749833333333","6500700","樹林區"
"238016","169-UY","2017/12/30 17:29:40","新北市樹林區長壽街4號","121.423805","24.9932816666667","6500700","樹林區"
"239007","AAC-297","2017/12/30 17:29:52","新北市鶯歌區中山路3號","121.353111666667","24.95708","6500800","鶯歌區"
"239006","891-R6","2017/12/30 17:29:50","新北市鶯歌區鳳鳴路45號","121.333428333333","24.9654483333333","6500800","鶯歌區"
"239008","527-UM","2017/12/30 17:29:36","新北市鶯歌區大湖路590巷9號","121.335991666667","24.9742516666667","6500800","鶯歌區"
"239005","526-UM","2017/12/30 17:29:35","桃園市八德區福德一路26號","121.329696666667","24.96679","6500800","鶯歌區"
"239001","417-VK","2017/12/30 17:29:38","新北市鶯歌區高職西街7號","121.33815","24.942365","6500800","鶯歌區"
"239003","360-BY","2017/12/30 17:29:53","新北市鶯歌區鶯桃路234巷1號","121.336408333333","24.95933","6500800","鶯歌區"
"239002","359-BY","2017/12/30 17:29:38","新北市鶯歌區育才街29號","121.348971666667","24.9549683333333","6500800","鶯歌區"
"239004","193-VK","2017/12/30 17:29:52","新北市鶯歌區三鶯路17-1號","121.356148333333","24.9415016666667","6500800","鶯歌區"
"221008","489-VK","2017/12/30 17:29:42","新北市汐止區康寧街901號","121.651401666667","25.0749766666667","6501100","汐止區"
"221033","647-BX","2017/12/30 17:29:48","新北市汐止區汐萬路一段266號","121.651073333333","25.07365","6501100","汐止區"
"242013","281-VK","2017/12/30 17:29:52","新北市新莊區中誠街16巷4號","121.451946666667","25.04837","6500500","新莊區"
"220080","461-BY","2017/12/30 09:06:25","新北市板橋區華東街1-9號","121.4481","24.994855","6500100","板橋區"
"242056","280-VK","2017/12/30 17:29:52","新北市新莊區新泰路14號","121.449661666667","25.03305","6500500","新莊區"
