"lineid","car","time","location","longitude","latitude","cityid","cityname"
"234046","148-BY","2017/12/30 18:39:30","新北市永和區永元路68號","121.52258","25.00156","6500400","永和區"
"234013","149-BY","2017/12/30 18:39:32","新北市永和區環河東路二段8號","121.522191666667","25.01346","6500400","永和區"
"234007","207-UY","2017/12/30 18:39:47","新北市永和區文化路170號","121.511821666667","25.0155166666667","6500400","永和區"
"234081","298-R6","2017/12/30 18:39:30","新北市永和區林森路67號","121.524153333333","25.003925","6500400","永和區"
"234064","337-UY","2017/12/30 18:39:42","新北市永和區福和路1號","121.52648","25.0099433333333","6500400","永和區"
"234086","338-UY","2017/12/30 18:39:34","新北市中和區安和路21號","121.511005","24.9940566666667","6500400","永和區"
"234030","746-BX","2017/12/28 21:35:37","新北市五股區成泰路三段362號","121.451473333333","25.0985116666667","6500400","永和區"
"234061","AAD-866","2017/12/30 18:39:42","新北市永和區福和路10巷2號","121.524688333333","25.0087533333333","6500400","永和區"
"234070","847-RS","2017/12/30 18:39:33","新北市永和區福和路1號","121.52549","25.0095616666667","6500400","永和區"
"234042","862-TW","2017/12/30 18:39:33","新北市永和區永和路一段6號","121.512806666667","25.0046316666667","6500400","永和區"
"234050","863-TW","2017/12/30 18:39:45","新北市永和區保安路2號","121.51086","25.0174816666667","6500400","永和區"
"234026","9371-KE","2017/12/30 18:39:35","新北市永和區永貞路404號","121.509073333333","25.00769","6500400","永和區"
"234011","9373-KE","2017/12/30 18:39:44","新北市永和區文化路67巷3弄18號","121.513788333333","25.0146016666667","6500400","永和區"
"249001","173-UM","2017/12/30 18:39:31","新北市八里區龍米路一段378號","121.451556666667","25.1317166666667","6502300","八里區"
"249004","303-UY","2017/12/30 18:39:47","新北市八里區中山路一段39號","121.419743333333","25.1597416666667","6502300","八里區"
"249002","305-UY","2017/12/30 18:39:44","新北市八里區頂寮二街138號","121.44934","25.129455","6502300","八里區"
"249005","759-BX","2017/12/30 18:39:38","新北市八里區中華路三段232號","121.388441666667","25.12445","6502300","八里區"
"248016","026-BX","2017/12/30 18:39:38","新北市五股區凌雲路一段149巷42號","121.448618333333","25.100895","6501500","五股區"
"248008","095-VK","2017/12/30 18:39:50","新北市五股區中興路一段150巷21號","121.464645","25.074635","6501500","五股區"
"248020","225-UY","2017/12/30 18:39:49","新北市五股區孝義路94號","121.446783333333","25.119195","6501500","五股區"
"248012","247-BX","2017/12/30 18:39:41","新北市五股區御成路6號","121.442043333333","25.0909616666667","6501500","五股區"
"248014","261-SL","2017/12/30 18:39:31","新北市五股區中興路四段67-2號","121.436958333333","25.0833833333333","6501500","五股區"
"248010","272-BY","2017/12/30 18:39:35","新北市五股區水碓一路92號","121.431821666667","25.0736","6501500","五股區"
"248004","677-BX","2017/12/30 18:39:42","新北市五股區民義路一段216-2號","121.430061666667","25.0894383333333","6501500","五股區"
"248002","678-BX","2017/12/30 18:39:33","新北市五股區西雲路203巷5號","121.448111666667","25.09649","6501500","五股區"
"234077","969-R7","2017/12/30 18:39:34","新北市永和區中正路362號","121.517695","25.0008183333333","6500400","永和區"
"234067","AAC-212","2017/12/30 18:39:39","新北市永和區福和路18號","121.524186666667","25.008405","6500400","永和區"
"234003","AAC-295","2017/12/30 18:39:30","新北市永和區福和路1號","121.525643333333","25.0092816666667","6500400","永和區"
"232011","375-UM","2017/12/30 18:19:08","新北市坪林區坪雙路一段43號","121.7118","24.94245","6502000","坪林區"
"244013","069-UM","2017/12/30 18:39:34","新北市林口區中山路255號","121.385288333333","25.0793483333333","6501700","林口區"
"244007","080-UY","2017/12/30 18:39:37","新北市林口區後湖17-9號","121.387153333333","25.0971116666667","6501700","林口區"
"244019","403-UM","2017/12/30 18:39:42","新北市林口區忠孝路616巷21號","121.377228333333","25.0674333333333","6501700","林口區"
"244025","742-UY","2017/12/30 18:39:29","新北市林口區南勢六街246號","121.35598","25.0747433333333","6501700","林口區"
"244023","483-VK","2017/12/30 18:39:42","新北市林口區文化二路二段88巷29號","121.380373333333","25.0802966666667","6501700","林口區"
"244017","485-VK","2017/12/30 18:39:50","新北市林口區文化二路一段68巷18-2號","121.36611","25.0677633333333","6501700","林口區"
"244011","656-BX","2017/12/30 18:39:32","新北市林口區興林路17巷5弄1號","121.390523333333","25.077035","6501700","林口區"
"244009","837-TS","2017/12/30 18:39:44","新北市林口區民生路166號","121.379636666667","25.087885","6501700","林口區"
"244021","838-TS","2017/12/30 18:39:32","新北市林口區自強二街63號","121.399541666667","25.076935","6501700","林口區"
"243012","AAD-798","2017/12/30 18:39:48","新北市泰山區福興三街13號","121.434456666667","25.057785","6501600","泰山區"
"243013","646-TV","2017/12/30 18:37:58","新北市泰山區明志路三段206巷1號","121.423323333333","25.037915","6501600","泰山區"
"222003","436-BY","2017/12/30 18:39:29","新北市深坑區翠谷街37巷2號","121.62669","25.009515","6501800","深坑區"
"222002","659-BX","2017/12/30 18:39:48","新北市深坑區文山路一段62巷3號","121.622788333333","25.0008616666667","6501800","深坑區"
"222001","696-SL","2017/12/30 18:39:47","新北市深坑區北深路一段82號","121.636295","25.0107","6501800","深坑區"
"231041","001-UM","2017/12/30 18:39:32","新北市新店區安華路28-1號","121.519476666667","24.9608233333333","6500600","新店區"
"231066","0293-UT","2017/12/30 18:39:46","新北市新店區安華路3號","121.519215","24.9595183333333","6500600","新店區"
"231059","046-UY","2017/12/30 18:39:42","新北市新店區安華路28-1號","121.51955","24.9607816666667","6500600","新店區"
"231061","047-UY","2017/12/30 18:39:41","新北市新店區安華路28-1號","121.519113333333","24.9609833333333","6500600","新店區"
"231060","106-UY","2017/12/30 18:39:35","新北市新店區安華路28-1號","121.5196","24.9607666666667","6500600","新店區"
"231051","107-UY","2017/12/30 18:39:41","新北市新店區安康路一段119號","121.528388333333","24.96174","6500600","新店區"
"231048","108-UY","2017/12/30 18:39:36","新北市新店區秀山路20號","121.532413333333","24.9603866666667","6500600","新店區"
"231052","187-VK","2017/12/30 18:39:36","新北市新店區永興路7號","121.544796666667","24.939745","6500600","新店區"
"231050","KEA-2219","2017/12/30 18:39:52","新北市新店區安華路28-1號","121.51982","24.961205","6500600","新店區"
"231057","256-BX","2017/12/30 18:39:30","新北市新店區新烏路一段205-2號","121.547581666667","24.9326266666667","6500600","新店區"
"231046","278-BY","2017/12/30 18:39:40","新北市新店區直潭二街1號","121.535191666667","24.943075","6500600","新店區"
"231054","AAD-862","2017/12/30 18:39:32","新北市新店區安華路28-1號","121.519853333333","24.96109","6500600","新店區"
"231058","3712-VJ","2017/12/30 18:39:39","新北市新店區北宜路一段105巷4弄7號","121.540241666667","24.95547","6500600","新店區"
"231056","3713-VJ","2017/12/30 18:39:39","新北市新店區建國路133號","121.539441666667","24.9782566666667","6500600","新店區"
"231055","4716-K9","2017/12/30 18:39:39","新北市新店區華興街40號","121.536978333333","24.96905","6500600","新店區"
"231067","4772-VM","2017/12/30 18:39:52","新北市新店區安康路一段219號","121.525838333333","24.96303","6500600","新店區"
"231065","512-UM","2017/12/30 18:39:34","新北市新店區安華路28-1號","121.519173333333","24.961215","6500600","新店區"
"231064","515-UM","2017/12/30 18:39:35","新北市新店區安華路28-1號","121.519708333333","24.96092","6500600","新店區"
"231045","617-UM","2017/12/30 18:39:43","新北市新店區安華路28-1號","121.519441666667","24.9607116666667","6500600","新店區"
"231040","619-UM","2017/12/30 18:39:37","新北市新店區安康路一段355-3號","121.5198","24.9621683333333","6500600","新店區"
"231042","641-BX","2017/12/30 18:39:40","新北市新店區安華路1-1號","121.5195","24.9604716666667","6500600","新店區"
"231063","645-TV","2017/12/30 18:39:28","新北市新店區安華路28-1號","121.51926","24.9605733333333","6500600","新店區"
"231049","719-UM","2017/12/30 18:39:42","新北市新店區安康路一段65號","121.53041","24.96105","6500600","新店區"
"231062","720-UM","2017/12/30 18:39:46","新北市新店區安華路28-1號","121.519066666667","24.9612266666667","6500600","新店區"
"231044","897-TW","2017/12/30 18:39:45","新北市新店區中正路78號","121.543856666667","24.970345","6500600","新店區"
"231043","899-TW","2017/12/30 18:39:46","新北市新店區安華路28-1號","121.518926666667","24.9608633333333","6500600","新店區"
"241019","478-VK","2017/12/30 18:39:46","新北市三重區忠孝路三段40巷1-1號","121.481678333333","25.066565","6500200","三重區"
"235066","003-UY","2017/12/30 18:39:38","新北市中和區水源路37號","121.504476666667","25.0035583333333","6500300","中和區"
"235064","005-UY","2017/12/30 18:39:44","新北市中和區連城路109巷51號","121.497073333333","24.99822","6500300","中和區"
"235063","006-UY","2017/12/30 18:39:51","新北市中和區連城路403號","121.486153333333","24.9962066666667","6500300","中和區"
"235046","031-BX","2017/12/30 18:39:40","新北市中和區捷運路3號","121.509588333333","24.989365","6500300","中和區"
"235056","096-UM","2017/12/30 18:39:45","新北市中和區員山路611巷1號","121.477925","25.01129","6500300","中和區"
"235039","097-UM","2017/12/30 18:39:47","新北市中和區安平路148號","121.512391666667","24.998265","6500300","中和區"
"235040","150-BY","2017/12/30 18:39:47","新北市中和區宜安路41號","121.511865","24.9964866666667","6500300","中和區"
"235058","151-BY","2017/12/30 18:39:36","新北市中和區員山路28-11號","121.481135","24.9863216666667","6500300","中和區"
"235055","183-VK","2017/12/30 18:39:41","新北市中和區民生街93-2號","121.468526666667","25.0047866666667","6500300","中和區"
"235038","185-VK","2017/12/30 18:39:49","新北市中和區立人街14巷77號","121.518346666667","24.9956716666667","6500300","中和區"
"235049","186-VK","2017/12/30 18:39:47","新北市中和區景安路175號","121.50522","24.9943116666667","6500300","中和區"
"235067","255-BX","2017/12/30 18:39:42","新北市中和區新生街6號","121.483081666667","25.0046433333333","6500300","中和區"
"235044","293-VK","2017/12/30 18:39:47","新北市中和區復興路280巷18弄6號","121.502205","24.9916366666667","6500300","中和區"
"235072","301-VK","2017/12/30 18:39:35","新北市中和區連城路137號","121.49586","24.998865","6500300","中和區"
"235043","352-BY","2017/12/30 18:39:37","新北市中和區景德街64號","121.517078333333","24.9916783333333","6500300","中和區"
"235068","377-QA","2017/12/30 18:39:46","新北市中和區中正路150號","121.49893","24.9937016666667","6500300","中和區"
"235061","378-QA","2017/12/30 18:39:41","新北市中和區民享街92巷4號","121.474723333333","25.0001366666667","6500300","中和區"
"235050","4979-A6","2017/12/30 18:39:44","新北市中和區景新街496巷28弄7號","121.513431666667","24.9857033333333","6500300","中和區"
"235069","4980-A6","2017/12/30 18:39:12","新北市中和區南山路33號","121.502083333333","24.99889","6500300","中和區"
"235042","551-UM","2017/12/30 18:39:40","新北市中和區成功路97巷3號","121.526456666667","24.9917816666667","6500300","中和區"
"235070","558-UM","2017/12/30 18:39:37","新北市中和區南華路55號","121.504185","24.9968983333333","6500300","中和區"
"235045","565-BX","2017/12/30 18:39:49","新北市中和區南山路236巷21號","121.505606666667","24.988615","6500300","中和區"
"235054","640-BX","2017/12/30 18:39:41","新北市中和區民享街86巷30弄6號","121.473181666667","25.001005","6500300","中和區"
"235060","647-TV","2017/12/30 18:39:31","新北市中和區中山路二段570號","121.482906666667","25.0052366666667","6500300","中和區"
"235047","732-UM","2017/12/30 18:39:38","新北市中和區南山路320巷10弄11號","121.506846666667","24.9866833333333","6500300","中和區"
"235062","800-TS","2017/12/30 18:39:29","新北市中和區景平路703巷7號","121.495988333333","25.0034433333333","6500300","中和區"
"235057","801-TS","2017/12/30 18:39:30","新北市中和區員山路327巷39號","121.479653333333","25.0021066666667","6500300","中和區"
"235041","802-TS","2017/12/30 18:39:43","新北市中和區宜安路166號","121.50898","24.999","6500300","中和區"
"235052","805-TS","2017/12/30 18:39:44","新北市中和區興南路二段301-1號","121.501813333333","24.9811683333333","6500300","中和區"
"235048","896-TW","2017/12/30 18:39:48","新北市中和區南山路389號","121.506373333333","24.9903566666667","6500300","中和區"
"235053","900-TW","2017/12/30 18:39:29","新北市土城區延壽路77巷4弄21號","121.46906","24.9931333333333","6500300","中和區"
"235065","911-UM","2017/12/30 18:39:31","新北市中和區莊敬路33巷34弄11號","121.500513333333","25.0061033333333","6500300","中和區"
"235051","157-BY","2017/12/30 18:39:49","新北市中和區華新街143巷106弄23號","121.506665","24.9784516666667","6500300","中和區"
"235037","AAC-213","2017/12/30 18:39:45","新北市中和區景德街141號","121.514495","24.9909883333333","6500300","中和區"
"235059","AAC-215","2017/12/30 18:39:34","新北市中和區錦和路354巷3號","121.49039","24.9914666666667","6500300","中和區"
"220068","013-TV","2017/12/29 21:10:47","新北市八里區荖阡坑路4-28號","121.398095","25.1426633333333","6500100","板橋區"
"220065","072-UY","2017/12/30 18:39:48","新北市板橋區民族路61號","121.464905","25.0085916666667","6500100","板橋區"
"220086","073-UY","2017/12/30 18:39:41","新北市板橋區大智街71巷28弄22號","121.452383333333","25.0150166666667","6500100","板橋區"
"220069","AAD-861","2017/12/30 18:39:43","新北市板橋區華東街1-10號","121.448345","24.9950783333333","6500100","板橋區"
"226004","312-R5","2017/12/30 18:39:48","新北市平溪區靜安路二段350號","121.737388333333","25.0244883333333","6502400","平溪區"
"228003","097-TW","2017/12/30 18:39:32","新北市貢寮區和美里龍洞街28-1號","121.917303333333","25.1116716666667","6502600","貢寮區"
"228001","212-TW","2017/12/30 18:39:50","新北市貢寮區仁理村研海街12-1號","121.92377","25.05164","6502600","貢寮區"
"228002","585-TW","2017/12/30 18:39:45","新北市貢寮區福連里香蘭街3-3號","121.971948333333","25.0246833333333","6502600","貢寮區"
"224010","AGQ-8101","2017/12/30 18:29:54","新北市瑞芳區崙頂路39-2號","121.845005","25.1072","6501200","瑞芳區"
"224006","676-BX","2017/12/30 18:39:40","新北市瑞芳區明燈路三段101號","121.804065","25.10853","6501200","瑞芳區"
"224002","639-TC","2017/12/30 18:39:46","新北市瑞芳區傑魚坑路307-2號","121.793966666667","25.1091983333333","6501200","瑞芳區"
"224009","285-BY","2017/12/30 18:39:44","新北市瑞芳區祈堂路8號","121.859035","25.11263","6501200","瑞芳區"
"224008","275-VK","2017/12/30 18:39:38","新北市瑞芳區逢甲路189號","121.804828333333","25.1104916666667","6501200","瑞芳區"
"224007","272-VK","2017/12/30 18:39:33","新北市瑞芳區大埔路117號","121.763618333333","25.1010283333333","6501200","瑞芳區"
"224005","271-BY","2017/12/30 18:39:43","新北市瑞芳區永龍新村1號","121.819433333333","25.11969","6501200","瑞芳區"
"227010","400-TW","2017/12/30 18:39:32","新北市雙溪區牡丹里下坑11號","121.851006666667","25.05618","6502500","雙溪區"
"227002","030-BX","2017/12/30 18:39:32","新北市雙溪區魚行里坤溪3-5號","121.875778333333","25.02116","6502500","雙溪區"
"253005","032-BX","2017/12/30 18:39:37","新北市石門區中山路62號","121.56691","25.29047","6502200","石門區"
"253006","741-TV","2017/12/30 18:39:42","新北市石門區楓林23號","121.53672","25.2895133333333","6502200","石門區"
"208002","742-BX","2017/12/30 18:39:47","新北市金山區忠孝一路21-1號","121.6384","25.218845","6502700","金山區"
"208003","665-BX","2017/12/30 18:39:35","新北市金山區中山路397號","121.633293333333","25.2253766666667","6502700","金山區"
"208001","761-BX","2017/12/30 18:39:37","新北市金山區文化三路7號","121.635171666667","25.2249733333333","6502700","金山區"
"251004","009-UM","2017/12/30 18:39:37","新北市淡水區中正東路二段143巷2弄1號","121.460605","25.1472466666667","6501000","淡水區"
"251001","011-UM","2017/12/30 18:39:35","新北市淡水區自強路419號","121.465563333333","25.1343216666667","6501000","淡水區"
"251014","180-VK","2017/12/30 18:39:32","新北市淡水區崙頂12-8號","121.496038333333","25.2170933333333","6501000","淡水區"
"251008","181-VK","2017/12/30 18:39:29","新北市淡水區北投子73-1號","121.453401666667","25.18267","6501000","淡水區"
"251010","413-VK","2017/12/30 18:39:42","新北市淡水區沙崙路145號","121.423391666667","25.18301","6501000","淡水區"
"251012","441-VK","2017/12/30 18:39:50","新北市淡水區北新路121號","121.449036666667","25.17868","6501000","淡水區"
"251016","442-VK","2017/12/30 18:39:40","新北市淡水區下圭柔山76-8號","121.44172","25.205355","6501000","淡水區"
"251006","561-UM","2017/12/30 18:39:37","新北市淡水區崁頂36-1號","121.43902","25.1946966666667","6501000","淡水區"
"251011","650-BX","2017/12/30 18:39:46","新北市淡水區鄧公路210巷6號","121.455066666667","25.1690983333333","6501000","淡水區"
"251002","672-BX","2017/12/30 18:39:46","新北市淡水區中正東路一段3巷14弄1號","121.450888333333","25.16413","6501000","淡水區"
"251003","766-UM","2017/12/30 18:39:44","新北市淡水區中山北路一段212巷38號","121.446205","25.1790683333333","6501000","淡水區"
"207003","550-UM","2017/12/30 18:39:44","新北市萬里區大鵬里頂社24-5號","121.665175","25.2054816666667","6502800","萬里區"
"207004","225-TW","2017/12/30 18:39:47","新北市萬里區萬里里獅頭路10-1號","121.69209","25.1787016666667","6502800","萬里區"
"252002","178-VK","2017/12/30 18:39:42","新北市三芝區民生街64巷11號","121.503658333333","25.2550766666667","6502100","三芝區"
"252003","249-BX","2017/12/30 18:39:40","新北市三芝區後厝里土地公坑999號","121.464531666667","25.2491033333333","6502100","三芝區"
"252001","292-VK","2017/12/30 18:39:39","新北市三芝區埔頭里埔頭14號","121.500646666667","25.2539633333333","6502100","三芝區"
"237004","078-UY","2017/12/30 18:39:39","新北市三峽區插角82號","121.406166666667","24.87091","6500900","三峽區"
"237007","153-BY","2017/12/30 18:39:34","新北市三峽區中正路三段196號","121.350348333333","24.9030916666667","6500900","三峽區"
"237013","252-BX","2017/12/30 18:39:41","新北市三峽區光明路69巷25號","121.376698333333","24.9292433333333","6500900","三峽區"
"237012","275-BY","2017/12/30 18:39:48","新北市樹林區佳園路三段488號","121.38255","24.9440133333333","6500900","三峽區"
"237008","302-VK","2017/12/30 18:39:43","新北市三峽區紫微路87號","121.404026666667","24.9085533333333","6500900","三峽區"
"237014","433-BY","2017/12/30 18:39:48","新北市三峽區復興路465-1號","121.361786666667","24.938655","6500900","三峽區"
"237006","5529-G3","2017/12/30 18:39:46","新北市三峽區溪東路315巷48弄1號","121.411806666667","24.9308366666667","6500900","三峽區"
"237011","572-TV","2017/12/30 13:35:24","新北市三峽區中山路459巷163-3號","121.348653333333","24.9330233333333","6500900","三峽區"
"237016","649-BX","2017/12/30 18:39:35","新北市三峽區成福路288號","121.428563333333","24.923245","6500900","三峽區"
"237010","706-TV","2017/12/30 18:39:45","新北市三峽區復興路323號","121.364766666667","24.9387883333333","6500900","三峽區"
"237005","AKY-6261","2017/12/30 18:39:39","新北市三峽區民生街122號","121.372778333333","24.935265","6500900","三峽區"
"236073","105-UM","2017/12/30 18:39:40","新北市土城區明德路一段43號","121.465195","24.9850416666667","6501300","土城區"
"236043","107-UM","2017/12/30 18:39:42","新北市土城區裕民路55巷17號","121.449251666667","24.98884","6501300","土城區"
"236079","166-UM","2017/12/30 18:39:37","新北市土城區頂埔街36號","121.417188333333","24.9591083333333","6501300","土城區"
"236031","253-BX","2017/12/30 18:39:39","新北市土城區福仁街75巷1號","121.439361666667","24.9742383333333","6501300","土城區"
"236027","269-VK","2017/12/30 18:39:48","新北市土城區忠義路53-2號","121.440756666667","24.9686083333333","6501300","土城區"
"236015","270-VK","2017/12/30 18:39:38","新北市土城區清水路207巷8號","121.460046666667","24.9822283333333","6501300","土城區"
"236038","271-VK","2017/12/30 18:39:33","新北市土城區青山路2巷25號","121.461221666667","24.9761633333333","6501300","土城區"
"236023","401-BY","2017/12/30 18:39:32","新北市土城區延吉街270號","121.465871666667","24.9843733333333","6501300","土城區"
"236059","912-UM","2017/12/30 18:39:39","新北市土城區中央路三段282號","121.426563333333","24.9634616666667","6501300","土城區"
"236049","913-UM","2017/12/30 18:39:41","新北市土城區明德路一段2號","121.464745","24.9858033333333","6501300","土城區"
"236063","915-UM","2017/12/30 18:39:45","新北市土城區延和路217號","121.469915","24.989745","6501300","土城區"
"236055","AAC-216","2017/12/30 18:39:43","新北市土城區中華路一段23號","121.44687","24.9892216666667","6501300","土城區"
"242044","AAC-296","2017/12/30 18:39:41","新北市新莊區中正路新旺巷2號","121.415608333333","25.02362","6500500","新莊區"
"242058","353-BY","2017/12/30 18:39:32","新北市新莊區中正路879-6號","121.417773333333","25.02617","6500500","新莊區"
"242036","133-UY","2017/12/30 18:39:37","新北市樹林區中正路35-1號","121.415025","25.00679","6500500","新莊區"
"238015","755-BX","2017/12/30 18:39:34","新北市樹林區大安路532號","121.413733333333","24.9860316666667","6500700","樹林區"
"238023","601-UM","2017/12/30 18:39:42","新北市樹林區三福街114號","121.406423333333","25.016375","6500700","樹林區"
"238019","599-UM","2017/12/30 18:39:43","新北市樹林區中華路190號","121.411965","24.980615","6500700","樹林區"
"238018","571-TV","2017/12/30 18:39:41","新北市樹林區樹新路135號","121.428358333333","24.9963083333333","6500700","樹林區"
"238024","5061-A6","2017/12/30 18:39:38","新北市樹林區太順街79巷17號","121.417115","24.9780633333333","6500700","樹林區"
"238022","KEA-2213","2017/12/30 18:39:45","新北市樹林區中華路190-2號","121.411143333333","24.9804866666667","6500700","樹林區"
"238025","303-VK","2017/12/30 18:39:40","新北市樹林區中山路三段22號","121.395608333333","24.9730166666667","6500700","樹林區"
"238017","283-BY","2017/12/30 18:39:42","新北市樹林區光興街50號","121.40985","25.0027183333333","6500700","樹林區"
"238014","282-BY","2017/12/30 18:39:31","新北市樹林區大安路111巷4號","121.42302","24.997435","6500700","樹林區"
"238020","268-VK","2017/12/30 18:39:36","新北市樹林區三俊街252巷25號","121.421053333333","25.01361","6500700","樹林區"
"238026","172-UY","2017/12/30 18:39:32","新北市樹林區八德街828-16號","121.392615","24.9690616666667","6500700","樹林區"
"238016","169-UY","2017/12/30 18:39:39","新北市樹林區文化街28號","121.419311666667","24.9877083333333","6500700","樹林區"
"239007","AAC-297","2017/12/30 18:39:32","新北市鶯歌區中正一路461-2號","121.363573333333","24.956565","6500800","鶯歌區"
"239006","891-R6","2017/12/30 18:39:50","新北市鶯歌區鶯桃路296巷46-3號","121.335828333333","24.96129","6500800","鶯歌區"
"239008","527-UM","2017/12/30 18:39:36","新北市鶯歌區國際一路179號","121.336201666667","24.9765","6500800","鶯歌區"
"239005","526-UM","2017/12/30 18:39:35","新北市鶯歌區鳳吉一街46號","121.326155","24.9739216666667","6500800","鶯歌區"
"239001","417-VK","2017/12/30 18:39:49","新北市鶯歌區鶯桃路39-7號","121.342313333333","24.9513933333333","6500800","鶯歌區"
"239003","360-BY","2017/12/30 18:39:38","新北市鶯歌區永和街58號","121.333411666667","24.9681483333333","6500800","鶯歌區"
"239002","359-BY","2017/12/30 18:39:38","新北市鶯歌區中山路288號","121.343966666667","24.956985","6500800","鶯歌區"
"239004","193-VK","2017/12/30 18:39:32","新北市鶯歌區中正三路194巷38號","121.330781666667","24.9417466666667","6500800","鶯歌區"
"221008","489-VK","2017/12/30 18:32:33","新北市汐止區康寧街901號","121.651368333333","25.0750283333333","6501100","汐止區"
"221036","130-UY","2017/12/30 18:39:40","新北市汐止區南昌街27號","121.663226666667","25.0691733333333","6501100","汐止區"
"221010","269-BY","2017/12/30 18:39:37","新北市汐止區汐萬路三段252巷27號","121.645036666667","25.1052183333333","6501100","汐止區"
"221012","278-VK","2017/12/30 18:39:38","新北市汐止區長興街二段4巷23號","121.673371666667","25.0806366666667","6501100","汐止區"
"221023","279-VK","2017/12/30 18:39:45","新北市汐止區汐萬路一段256巷3號","121.65235","25.07466","6501100","汐止區"
"221032","280-BY","2017/12/30 18:39:44","新北市汐止區福山街56巷19號","121.618003333333","25.0456583333333","6501100","汐止區"
"221027","281-BY","2017/12/30 18:39:51","新北市汐止區汐萬路一段161號","121.653036666667","25.0710066666667","6501100","汐止區"
"221029","298-VK","2017/12/30 18:39:33","新北市汐止區樟樹一路146號","121.642403333333","25.06507","6501100","汐止區"
"221021","299-VK","2017/12/30 18:39:39","新北市汐止區新台五路一段129號","121.652283333333","25.0618266666667","6501100","汐止區"
"221031","353-TW","2017/12/30 18:39:48","新北市汐止區福德一路270號","121.632215","25.0639816666667","6501100","汐止區"
"221015","567-BX","2017/12/30 18:39:45","新北市汐止區鄉友街26號","121.668666666667","25.0811233333333","6501100","汐止區"
"221035","622-UM","2017/12/30 18:39:46","新北市汐止區大同路二段294號","121.655096666667","25.0665333333333","6501100","汐止區"
"221025","623-UM","2017/12/30 18:39:43","新北市汐止區仁愛路113巷8號","121.662086666667","25.063855","6501100","汐止區"
"221038","646-BX","2017/12/30 18:39:37","新北市汐止區汐萬路一段256巷3號","121.652101666667","25.07477","6501100","汐止區"
"221033","647-BX","2017/12/30 18:39:28","台北市南港區舊莊街二段9號","121.625015","25.037555","6501100","汐止區"
"221002","707-TV","2017/12/30 18:39:44","新北市汐止區中興路62號","121.635328333333","25.0613316666667","6501100","汐止區"
"221018","753-BX","2017/12/30 18:39:36","新北市汐止區茄苳路276號","121.67226","25.0679266666667","6501100","汐止區"
"220079","145-BY","2017/12/30 18:39:44","新北市板橋區南雅南路二段120-23號","121.452171666667","24.9985633333333","6500100","板橋區"
"220080","200-UY","2017/12/30 18:39:42","新北市板橋區大觀路二段265巷130弄32號","121.441026666667","24.99624","6500100","板橋區"
"220082","610-BX","2017/12/30 18:39:30","新北市板橋區篤行路一段33號","121.431988333333","24.994435","6500100","板橋區"
"220101","245-BX","2017/12/30 18:39:40","新北市板橋區民生路二段161巷3號","121.469955","25.0196733333333","6500100","板橋區"
"220056","276-BY","2017/12/30 18:39:48","新北市板橋區四川路二段113號","121.451526666667","24.994315","6500100","板橋區"
"220072","277-BY","2017/12/30 18:39:42","新北市板橋區大觀路三段52號","121.432353333333","24.99598","6500100","板橋區"
"220071","283-VK","2017/12/30 18:39:47","新北市板橋區四川路二段橋頭6號","121.44834","24.994055","6500100","板橋區"
"220053","285-VK","2017/12/30 18:39:41","新北市板橋區民生路二段161巷1號","121.470135","25.01991","6500100","板橋區"
"220083","286-VK","2017/12/30 18:39:41","新北市板橋區大觀路二段153巷46弄11號","121.449131666667","24.998455","6500100","板橋區"
"220081","287-VK","2017/12/30 18:39:32","新北市板橋區大觀路二段11-12號","121.447905","24.996555","6500100","板橋區"
"220084","296-UM","2017/12/30 18:39:44","新北市板橋區大觀路二段266號","121.448498333333","24.9968783333333","6500100","板橋區"
"220075","297-UM","2017/12/30 18:39:28","新北市板橋區南雅南路二段120-2號","121.452386666667","24.999835","6500100","板橋區"
"220080","461-BY","2017/12/30 09:06:25","新北市板橋區華東街1-9號","121.4481","24.994855","6500100","板橋區"
"220064","486-VK","2017/12/30 18:39:40","新北市板橋區民生路二段36-1號","121.472073333333","25.016735","6500100","板橋區"
"220035","560-BX","2017/12/30 18:39:51","新北市板橋區南雅西路二段145巷10號","121.451541666667","25.0120733333333","6500100","板橋區"
"220063","609-BX","2017/12/30 18:39:44","新北市板橋區民生路二段171號","121.469855","25.0201583333333","6500100","板橋區"
"220057","686-BX","2017/12/30 18:39:46","新北市板橋區華東街1-10號","121.448303333333","24.99486","6500100","板橋區"
"220077","687-BX","2017/12/30 18:39:33","新北市板橋區大觀路二段431-1號","121.441365","24.9951033333333","6500100","板橋區"
"220055","827-TW","2017/12/30 18:39:47","新北市板橋區華東街1-9號","121.448203333333","24.9949166666667","6500100","板橋區"
"220074","895-R6","2017/12/30 18:39:38","新北市板橋區南雅南路二段122-3號","121.451963333333","24.9983533333333","6500100","板橋區"
"220073","985-R7","2017/12/30 18:39:33","新北市板橋區南雅南路二段134號","121.452088333333","24.9965633333333","6500100","板橋區"
"220097","AAC-210","2017/12/30 18:39:38","新北市板橋區民生路二段161巷7號","121.47029","25.01971","6500100","板橋區"
"220070","AAC-253","2017/12/30 18:39:36","新北市板橋區華東街1-9號","121.448188333333","24.9949583333333","6500100","板橋區"
