"lineid","car","time","location","longitude","latitude","cityid","cityname"
"234046","148-BY","2017/12/30 18:49:30","新北市永和區秀朗路二段126巷1號","121.524841666667","25.0012766666667","6500400","永和區"
"234013","149-BY","2017/12/30 18:49:35","新北市永和區仁愛路202巷24號","121.509116666667","25.0130116666667","6500400","永和區"
"234007","207-UY","2017/12/30 18:49:27","新北市永和區文化路154號","121.512366666667","25.0153366666667","6500400","永和區"
"234081","298-R6","2017/12/30 18:49:31","新北市永和區永利路108號","121.521246666667","25.0033966666667","6500400","永和區"
"234038","336-UY","2017/12/30 18:49:47","新北市永和區成功路二段31號","121.52676","25.000755","6500400","永和區"
"234064","337-UY","2017/12/30 18:49:42","新北市永和區環河東路二段92號","121.524421666667","25.010635","6500400","永和區"
"234086","338-UY","2017/12/30 18:49:34","新北市永和區中正路39-1號","121.514371666667","24.9960983333333","6500400","永和區"
"234054","553-UM","2017/12/30 18:49:34","新北市永和區豫溪街191巷1弄1號","121.52311","25.0103516666667","6500400","永和區"
"234017","745-BX","2017/12/30 18:49:27","新北市永和區忠孝街26巷27弄1號","121.51522","25.0169133333333","6500400","永和區"
"234030","746-BX","2017/12/28 21:35:37","新北市五股區成泰路三段362號","121.451473333333","25.0985116666667","6500400","永和區"
"234061","AAD-866","2017/12/30 18:49:42","新北市永和區中正路509巷4號","121.516543333333","25.0070533333333","6500400","永和區"
"234070","847-RS","2017/12/30 18:49:33","新北市永和區竹林路155號","121.52043","25.0102666666667","6500400","永和區"
"234042","862-TW","2017/12/30 18:49:33","新北市永和區永貞路267號","121.51186","25.0047466666667","6500400","永和區"
"234050","863-TW","2017/12/30 18:49:45","新北市永和區保安路2號","121.510865","25.0175033333333","6500400","永和區"
"234026","9371-KE","2017/12/30 18:49:35","新北市永和區自由街58號","121.513813333333","25.0060533333333","6500400","永和區"
"234011","9373-KE","2017/12/30 18:49:44","新北市永和區仁愛路31巷2弄11號","121.513621666667","25.0126816666667","6500400","永和區"
"249001","173-UM","2017/12/30 18:49:31","新北市八里區龍米路二段56號","121.448231666667","25.1408216666667","6502300","八里區"
"249004","303-UY","2017/12/30 18:49:47","新北市八里區挖子尾街16號","121.4153","25.1643716666667","6502300","八里區"
"249005","759-BX","2017/12/30 18:49:38","新北市八里區長道坑17號","121.396403333333","25.1155583333333","6502300","八里區"
"248016","026-BX","2017/12/30 18:49:38","新北市五股區凌雲路一段132號","121.449791666667","25.1022966666667","6501500","五股區"
"248006","077-UY","2017/12/30 18:49:32","新北市五股區四維路1巷3-1號","121.465875","25.0704166666667","6501500","五股區"
"248008","095-VK","2017/12/30 18:49:30","新北市五股區中興路一段151巷61號","121.465143333333","25.0716483333333","6501500","五股區"
"248020","225-UY","2017/12/30 18:47:49","新北市五股區凌雲路三段田埔巷19號","121.433908333333","25.1215916666667","6501500","五股區"
"248012","247-BX","2017/12/30 18:49:41","新北市五股區成泰路二段147巷6號","121.437586666667","25.0892116666667","6501500","五股區"
"248014","261-SL","2017/12/30 18:49:30","新北市五股區工商路130-2號","121.435798333333","25.0861483333333","6501500","五股區"
"248010","272-BY","2017/12/30 18:49:35","新北市五股區水碓五路81號","121.430008333333","25.0718983333333","6501500","五股區"
"248004","677-BX","2017/12/30 18:49:42","新北市五股區民義路二段23-1號","121.416911666667","25.099015","6501500","五股區"
"248002","678-BX","2017/12/30 18:49:44","新北市五股區成泰路三段435巷6號","121.449683333333","25.097925","6501500","五股區"
"234023","9380-KE","2017/12/30 18:49:33","新北市永和區竹林路119巷26號","121.521178333333","25.0117483333333","6500400","永和區"
"234077","969-R7","2017/12/30 18:49:34","新北市中和區景平路288號","121.513246666667","24.9931933333333","6500400","永和區"
"234074","AAC-211","2017/12/30 18:49:39","新北市永和區福和路1號","121.526106666667","25.0096933333333","6500400","永和區"
"234067","AAC-212","2017/12/30 18:49:39","新北市永和區永和路一段22號","121.513045","25.0048516666667","6500400","永和區"
"234003","AAC-295","2017/12/30 18:49:30","新北市永和區中正路643號","121.515266666667","25.0101216666667","6500400","永和區"
"232011","375-UM","2017/12/30 18:19:08","新北市坪林區坪雙路一段43號","121.7118","24.94245","6502000","坪林區"
"244013","069-UM","2017/12/30 18:49:34","新北市林口區仁愛路二段201-1號","121.377825","25.0746483333333","6501700","林口區"
"244007","080-UY","2017/12/30 18:49:37","新北市林口區湖北里61-7號","121.382726666667","25.1077566666667","6501700","林口區"
"244019","403-UM","2017/12/30 18:49:42","新北市林口區忠孝路646巷2號","121.37902","25.0682083333333","6501700","林口區"
"244025","742-UY","2017/12/30 18:49:29","新北市林口區南勢二街162號","121.359213333333","25.07472","6501700","林口區"
"244023","483-VK","2017/12/30 18:49:31","新北市林口區民權路153號","121.373941666667","25.0836566666667","6501700","林口區"
"244017","485-VK","2017/12/30 18:49:10","新北市林口區忠孝路376巷49號","121.368123333333","25.0705466666667","6501700","林口區"
"244011","656-BX","2017/12/30 18:49:32","新北市林口區中正路57巷12弄14號","121.394888333333","25.0766933333333","6501700","林口區"
"244009","837-TS","2017/12/30 18:49:44","新北市林口區竹林路330巷20號","121.392283333333","25.082885","6501700","林口區"
"244021","838-TS","2017/12/30 18:49:32","新北市林口區工六路38號","121.398666666667","25.0785116666667","6501700","林口區"
"243012","AAD-798","2017/12/30 18:49:28","新北市泰山區泰林路二段73巷27號","121.434438333333","25.05783","6501600","泰山區"
"243011","297-R6","2017/12/30 18:49:41","新北市泰山區明志路二段31號","121.429715","25.053185","6501600","泰山區"
"243015","380-SR","2017/12/30 18:49:28","新北市泰山區美寧街57巷37弄2號","121.429135","25.06523","6501600","泰山區"
"243013","646-TV","2017/12/30 18:37:58","新北市泰山區明志路三段206巷1號","121.423323333333","25.037915","6501600","泰山區"
"243016","680-BX","2017/12/30 18:49:27","新北市泰山區明志路一段519號","121.430388333333","25.0540983333333","6501600","泰山區"
"222003","436-BY","2017/12/30 18:49:29","新北市深坑區翠谷街17巷25號","121.6261","25.00906","6501800","深坑區"
"222002","659-BX","2017/12/30 18:49:28","新北市深坑區文山路一段69號","121.62697","25.0019016666667","6501800","深坑區"
"222001","696-SL","2017/12/30 18:49:27","新北市深坑區松柏街30巷2號","121.638583333333","25.011235","6501800","深坑區"
"231041","001-UM","2017/12/30 18:49:32","新北市新店區安華路28-1號","121.519426666667","24.9608316666667","6500600","新店區"
"231066","0293-UT","2017/12/30 18:49:46","新北市新店區安豐路22巷3-1號","121.50243","24.9555416666667","6500600","新店區"
"231059","046-UY","2017/12/30 18:49:42","新北市新店區安華路28-1號","121.519545","24.96084","6500600","新店區"
"231061","047-UY","2017/12/30 18:49:41","新北市新店區安華路28-1號","121.519043333333","24.9610166666667","6500600","新店區"
"231060","106-UY","2017/12/30 18:49:35","新北市新店區安華路28-1號","121.519621666667","24.96075","6500600","新店區"
"231051","107-UY","2017/12/30 18:49:41","新北市新店區中央路63號","121.532598333333","24.9770366666667","6500600","新店區"
"231048","108-UY","2017/12/30 18:49:36","新北市新店區德正街19巷2號","121.54373","24.9724583333333","6500600","新店區"
"231052","187-VK","2017/12/30 18:49:32","新北市新店區新烏路一段100-2號","121.546005","24.9370866666667","6500600","新店區"
"231050","KEA-2219","2017/12/30 18:49:32","新北市新店區安康路一段227號","121.525591666667","24.9631033333333","6500600","新店區"
"231057","256-BX","2017/12/30 18:49:30","新北市新店區花園一路一段2號","121.553141666667","24.9323766666667","6500600","新店區"
"231046","278-BY","2017/12/30 18:49:40","新北市新店區直潭路60號","121.531731666667","24.94097","6500600","新店區"
"231054","AAD-862","2017/12/30 18:49:32","新北市新店區安康路一段65號","121.530315","24.96108","6500600","新店區"
"231058","3712-VJ","2017/12/30 18:49:39","新北市新店區中興路一段139號","121.542153333333","24.9636266666667","6500600","新店區"
"231056","3713-VJ","2017/12/30 18:49:39","新北市新店區大同街44號","121.538645","24.9808383333333","6500600","新店區"
"231055","4716-K9","2017/12/30 18:49:39","新北市新店區力行路88號","121.538773333333","24.966885","6500600","新店區"
"231067","4772-VM","2017/12/30 18:49:31","新北市新店區安康路一段106巷14號","121.52781","24.96295","6500600","新店區"
"231065","512-UM","2017/12/30 18:49:34","新北市新店區安豐路22巷7號","121.500921666667","24.9543133333333","6500600","新店區"
"231064","515-UM","2017/12/30 18:49:35","新北市新店區安華路28-1號","121.519668333333","24.9611283333333","6500600","新店區"
"231045","617-UM","2017/12/30 18:49:43","新北市新店區安康路一段167號","121.527233333333","24.9624666666667","6500600","新店區"
"231040","619-UM","2017/12/30 18:49:37","新北市新店區中央四街5-1號","121.53027","24.9738066666667","6500600","新店區"
"231042","641-BX","2017/12/30 18:49:40","新北市新店區中正路69號","121.543578333333","24.97022","6500600","新店區"
"231063","645-TV","2017/12/30 18:49:28","新北市新店區安華路28-1號","121.5193","24.9605683333333","6500600","新店區"
"231049","719-UM","2017/12/30 18:49:42","新北市新店區中正路454-5號","121.534435","24.9790733333333","6500600","新店區"
"231062","720-UM","2017/12/30 18:49:46","新北市新店區車子路115-11號","121.507573333333","24.9546883333333","6500600","新店區"
"231044","897-TW","2017/12/30 18:49:25","新北市新店區寶中路72號","121.547945","24.98057","6500600","新店區"
"231043","899-TW","2017/12/30 18:49:46","新北市新店區安康路一段83-1號","121.529601666667","24.96136","6500600","新店區"
"241035","462-BY","2017/12/30 18:49:34","新北市三重區重新路四段121號","121.484973333333","25.05202","6500200","三重區"
"241019","478-VK","2017/12/30 18:49:26","新北市三重區力行路一段38巷2號","121.485283333333","25.06669","6500200","三重區"
"235066","003-UY","2017/12/30 18:49:38","新北市中和區水源路7巷4號","121.504096666667","25.0035666666667","6500300","中和區"
"235064","005-UY","2017/12/30 18:49:44","新北市中和區連城路75巷5-3號","121.49831","24.998725","6500300","中和區"
"235063","006-UY","2017/12/30 18:49:31","新北市中和區連城路319巷3弄7號","121.489418333333","24.995695","6500300","中和區"
"235046","031-BX","2017/12/30 18:49:40","新北市中和區仁愛街36巷32號","121.511146666667","24.98678","6500300","中和區"
"235056","096-UM","2017/12/30 18:49:45","新北市中和區員山路611巷1號","121.477911666667","25.0112616666667","6500300","中和區"
"235039","097-UM","2017/12/30 18:49:27","新北市永和區中正路45號","121.514225","24.9963583333333","6500300","中和區"
"235040","150-BY","2017/12/30 18:49:39","新北市中和區安平路64號","121.510601666667","24.99615","6500300","中和區"
"235058","151-BY","2017/12/30 18:49:36","新北市中和區連城路532巷34弄18號","121.475211666667","24.99272","6500300","中和區"
"235055","183-VK","2017/12/30 18:49:41","新北市中和區民生街20號","121.470175","25.005415","6500300","中和區"
"235038","185-VK","2017/12/30 18:49:29","新北市中和區大勇街43巷6號","121.517621666667","24.994715","6500300","中和區"
"235049","186-VK","2017/12/30 18:49:27","新北市中和區景安路116號","121.505235","24.995015","6500300","中和區"
"235067","255-BX","2017/12/30 18:49:42","新北市中和區中山路二段473號","121.483305","25.004965","6500300","中和區"
"235044","293-VK","2017/12/30 18:49:27","新北市中和區復興路348號","121.499953333333","24.9903916666667","6500300","中和區"
"235072","301-VK","2017/12/30 18:49:35","新北市中和區中山路二段95號","121.503365","25.004135","6500300","中和區"
"235043","352-BY","2017/12/30 18:49:37","新北市中和區成功路139號","121.526065","24.9903216666667","6500300","中和區"
"235068","377-QA","2017/12/30 18:49:26","新北市中和區中正路167巷17號","121.498505","24.9928216666667","6500300","中和區"
"235061","378-QA","2017/12/30 18:49:37","新北市中和區民享街56號","121.474051666667","25.002445","6500300","中和區"
"235050","4979-A6","2017/12/30 18:49:34","新北市中和區忠孝街62巷3號","121.512543333333","24.98362","6500300","中和區"
"235069","4980-A6","2017/12/30 18:49:32","新北市中和區景平路459巷1弄1號","121.50036","24.9963783333333","6500300","中和區"
"235042","551-UM","2017/12/30 18:49:40","新北市中和區秀朗路三段135巷5弄1號","121.525468333333","24.9922566666667","6500300","中和區"
"235070","558-UM","2017/12/30 18:49:36","新北市中和區景平路586號","121.501135","24.9959016666667","6500300","中和區"
"235045","565-BX","2017/12/30 18:49:29","新北市中和區復興路36號","121.50493","24.9899983333333","6500300","中和區"
"235054","640-BX","2017/12/30 18:49:41","新北市中和區民享街68巷15號","121.473383333333","25.0017433333333","6500300","中和區"
"235060","647-TV","2017/12/30 18:49:31","新北市中和區中山路三段168號","121.472905","25.00635","6500300","中和區"
"235047","732-UM","2017/12/30 18:49:38","新北市中和區興南路二段34巷57弄1號","121.504846666667","24.9858366666667","6500300","中和區"
"235062","800-TS","2017/12/30 18:49:28","新北市中和區中山路二段348巷8號","121.493015","25.00293","6500300","中和區"
"235057","801-TS","2017/12/30 18:49:30","新北市中和區民安街42巷32號","121.479266666667","25.0012583333333","6500300","中和區"
"235041","802-TS","2017/12/30 18:49:43","新北市中和區宜安路118巷18號","121.510805","24.9985933333333","6500300","中和區"
"235052","805-TS","2017/12/30 18:49:44","新北市中和區興南路三段25號","121.496851666667","24.9786983333333","6500300","中和區"
"235048","896-TW","2017/12/30 18:49:28","新北市中和區華新街7號","121.507541666667","24.985265","6500300","中和區"
"235053","900-TW","2017/12/30 18:49:28","新北市中和區華福街42巷8號","121.466346666667","24.9961816666667","6500300","中和區"
"235065","911-UM","2017/12/30 18:49:31","新北市中和區中山路二段2巷71號","121.501493333333","25.0074766666667","6500300","中和區"
"235051","157-BY","2017/12/30 18:49:30","新北市中和區忠孝街106巷52-1號","121.513688333333","24.9842466666667","6500300","中和區"
"235037","AAC-213","2017/12/30 18:49:45","新北市中和區自立路193號","121.52431","24.9912716666667","6500300","中和區"
"235059","AAC-215","2017/12/30 18:49:34","新北市中和區圓通路393巷28號","121.490123333333","24.9884183333333","6500300","中和區"
"220068","013-TV","2017/12/29 21:10:47","新北市八里區荖阡坑路4-28號","121.398095","25.1426633333333","6500100","板橋區"
"220065","072-UY","2017/12/30 18:49:28","新北市板橋區漢生東路282號","121.471266666667","25.0089583333333","6500100","板橋區"
"220086","073-UY","2017/12/30 18:49:41","新北市板橋區大智街71巷3弄4號","121.453456666667","25.0151816666667","6500100","板橋區"
"220106","075-UY","2017/12/30 18:49:25","新北市板橋區民生路二段120號","121.470335","25.0196116666667","6500100","板橋區"
"220069","AAD-861","2017/12/30 18:49:43","新北市板橋區館前西路52號","121.458403333333","25.0069516666667","6500100","板橋區"
"220096","120-SR","2017/12/30 18:49:47","新北市板橋區民生路二段120號","121.470333333333","25.019645","6500100","板橋區"
"226004","312-R5","2017/12/30 18:49:28","新北市平溪區平溪里三坑路13號","121.736906666667","25.0284933333333","6502400","平溪區"
"228003","097-TW","2017/12/30 18:49:12","新北市瑞芳區鼻頭路127號","121.917063333333","25.12129","6502600","貢寮區"
"228001","212-TW","2017/12/30 18:49:30","新北市貢寮區仁理村研海街12-1號","121.92376","25.051655","6502600","貢寮區"
"228002","585-TW","2017/12/30 18:49:45","新北市貢寮區福隆里東興街6-11號","121.950811666667","25.0210866666667","6502600","貢寮區"
"224006","676-BX","2017/12/30 18:49:32","新北市瑞芳區中正路65號","121.80607","25.1074783333333","6501200","瑞芳區"
"224009","285-BY","2017/12/30 18:49:44","新北市瑞芳區祈堂路53-1號","121.859523333333","25.1104466666667","6501200","瑞芳區"
"224008","275-VK","2017/12/30 18:49:38","新北市瑞芳區逢甲路337號","121.800941666667","25.1122316666667","6501200","瑞芳區"
"224007","272-VK","2017/12/30 18:49:33","新北市瑞芳區大埔路186-1號","121.761491666667","25.101245","6501200","瑞芳區"
"224005","271-BY","2017/12/30 18:49:39","新北市瑞芳區瑞濱路1-8號","121.828166666667","25.121555","6501200","瑞芳區"
"227010","400-TW","2017/12/30 18:49:32","新北市雙溪區牡丹里聖南50-1號","121.8551","25.0547716666667","6502500","雙溪區"
"227002","030-BX","2017/12/30 18:49:32","新北市雙溪區平林里梅竹蹊28號","121.861638333333","25.03602","6502500","雙溪區"
"253005","032-BX","2017/12/30 18:49:37","新北市石門區中山路26號","121.565848333333","25.2903316666667","6502200","石門區"
"253006","741-TV","2017/12/30 18:49:42","新北市石門區下員坑30號","121.520193333333","25.2828566666667","6502200","石門區"
"208002","742-BX","2017/12/30 18:49:29","新北市金山區信義路61號","121.635885","25.2191","6502700","金山區"
"208003","665-BX","2017/12/30 18:49:35","新北市金山區中山路393號","121.633395","25.2252433333333","6502700","金山區"
"208001","761-BX","2017/12/30 18:49:37","新北市金山區文化三路66巷2弄1號","121.634295","25.2256533333333","6502700","金山區"
"251009","008-UM","2017/12/30 18:49:38","新北市淡水區重建街140號","121.440491666667","25.1733816666667","6501000","淡水區"
"251001","011-UM","2017/12/30 18:49:35","新北市淡水區自強路84號","121.462855","25.1282316666667","6501000","淡水區"
"251014","180-VK","2017/12/30 18:49:32","新北市淡水區崙頂16-1號","121.488433333333","25.2233716666667","6501000","淡水區"
"251008","181-VK","2017/12/30 18:49:29","新北市淡水區淡金路二段138號","121.44694","25.1874866666667","6501000","淡水區"
"251010","413-VK","2017/12/30 18:49:42","新北市淡水區沙崙路24號","121.421368333333","25.181285","6501000","淡水區"
"251012","441-VK","2017/12/30 18:49:30","新北市淡水區新興街48號","121.442743333333","25.180295","6501000","淡水區"
"251016","442-VK","2017/12/30 18:49:40","新北市淡水區下圭柔山71-3號","121.447045","25.2061816666667","6501000","淡水區"
"251011","650-BX","2017/12/30 18:49:28","新北市淡水區學府路2號","121.447465","25.1677366666667","6501000","淡水區"
"251002","672-BX","2017/12/30 18:49:46","新北市淡水區學府路36號","121.44797","25.168925","6501000","淡水區"
"251003","766-UM","2017/12/30 18:49:44","新北市淡水區中山北路一段149巷24號","121.442975","25.1779333333333","6501000","淡水區"
"207003","550-UM","2017/12/30 18:49:43","新北市萬里區大鵬里頂社24-5號","121.657915","25.2093083333333","6502800","萬里區"
"207004","225-TW","2017/12/30 18:49:27","新北市萬里區萬里里獅頭路23號","121.693215","25.1782983333333","6502800","萬里區"
"252002","178-VK","2017/12/30 18:49:42","新北市三芝區中正路一段120號","121.504948333333","25.2561733333333","6502100","三芝區"
"252003","249-BX","2017/12/30 18:49:40","新北市三芝區後厝里大片頭81-1號","121.459071666667","25.2444766666667","6502100","三芝區"
"252001","292-VK","2017/12/30 18:49:39","新北市三芝區中正路三段9號","121.502931666667","25.2539883333333","6502100","三芝區"
"237004","078-UY","2017/12/30 18:49:39","新北市三峽區有木107-2號","121.433501666667","24.861375","6500900","三峽區"
"237007","153-BY","2017/12/30 18:49:34","新北市三峽區柑樹路2巷11號","121.362081666667","24.905085","6500900","三峽區"
"237013","252-BX","2017/12/30 18:49:41","新北市三峽區光明路69巷25號","121.376695","24.9292266666667","6500900","三峽區"
"237012","275-BY","2017/12/30 18:49:28","新北市三峽區三樹路340號","121.38398","24.943325","6500900","三峽區"
"237008","302-VK","2017/12/30 18:49:43","新北市三峽區白雞33-61號","121.370923333333","24.9130916666667","6500900","三峽區"
"237014","433-BY","2017/12/30 18:49:28","新北市三峽區隆恩街180號","121.361603333333","24.94257","6500900","三峽區"
"237006","5529-G3","2017/12/30 18:49:46","新北市三峽區溪東路211巷18弄1-1號","121.406226666667","24.9344033333333","6500900","三峽區"
"237011","572-TV","2017/12/30 13:35:24","新北市三峽區中山路459巷163-3號","121.348653333333","24.9330233333333","6500900","三峽區"
"237016","649-BX","2017/12/30 18:43:07","新北市三峽區成福路315巷2號","121.429616666667","24.923635","6500900","三峽區"
"237010","706-TV","2017/12/30 18:49:45","新北市三峽區國光街350巷10號","121.371631666667","24.939985","6500900","三峽區"
"237005","AKY-6261","2017/12/30 18:49:39","新北市三峽區中山路459巷163-3號","121.349085","24.9334116666667","6500900","三峽區"
"236073","105-UM","2017/12/30 18:49:40","新北市土城區青雲路52號","121.459745","24.987985","6501300","土城區"
"236043","107-UM","2017/12/30 18:49:35","新北市土城區裕民路114巷27號","121.450376666667","24.9856466666667","6501300","土城區"
"236079","166-UM","2017/12/30 18:49:37","新北市土城區中央路四段67巷26號","121.417681666667","24.9573983333333","6501300","土城區"
"236031","253-BX","2017/12/30 18:49:38","新北市土城區忠義路26巷10號","121.439815","24.9699016666667","6501300","土城區"
"236027","269-VK","2017/12/30 18:49:42","新北市土城區興城路60號","121.441211666667","24.9723583333333","6501300","土城區"
"236015","270-VK","2017/12/30 18:49:32","新北市土城區清水路235巷26號","121.460843333333","24.9840666666667","6501300","土城區"
"236038","271-VK","2017/12/30 18:49:45","新北市土城區明德路一段235巷11弄2號","121.463256666667","24.9778266666667","6501300","土城區"
"236023","401-BY","2017/12/30 18:49:32","新北市土城區延安街76號","121.468116666667","24.9840933333333","6501300","土城區"
"236059","912-UM","2017/12/30 18:49:39","新北市土城區忠義路47號","121.440658333333","24.96935","6501300","土城區"
"236049","913-UM","2017/12/30 18:49:41","新北市土城區青雲路22號","121.460011666667","24.9887816666667","6501300","土城區"
"236063","915-UM","2017/12/30 18:49:45","新北市土城區延和路177巷11弄11號","121.469413333333","24.990895","6501300","土城區"
"236055","AAC-216","2017/12/30 18:49:43","新北市土城區裕民路179號","121.453411666667","24.9847033333333","6501300","土城區"
"242036","133-UY","2017/12/30 18:49:37","新北市樹林區環河路2號","121.427823333333","24.978785","6500500","新莊區"
"238015","755-BX","2017/12/30 18:49:34","新北市樹林區中山路三段210-2號","121.380593333333","24.967815","6500700","樹林區"
"238023","601-UM","2017/12/30 18:49:42","新北市樹林區三福街60號","121.405293333333","25.01629","6500700","樹林區"
"238019","599-UM","2017/12/30 18:49:43","新北市樹林區東榮街169號","121.413976666667","24.9814233333333","6500700","樹林區"
"238018","571-TV","2017/12/30 18:49:41","新北市樹林區鎮前街165號","121.422245","24.987175","6500700","樹林區"
"238024","5061-A6","2017/12/30 18:49:38","新北市樹林區太平路248號","121.4183","24.97358","6500700","樹林區"
"238022","KEA-2213","2017/12/30 18:49:45","新北市樹林區中華路379巷39號","121.414346666667","24.9769366666667","6500700","樹林區"
"238025","303-VK","2017/12/30 18:49:40","新北市樹林區中山路三段22號","121.395613333333","24.9730183333333","6500700","樹林區"
"238017","283-BY","2017/12/30 18:49:42","新北市樹林區光興街50號","121.409845","25.0027116666667","6500700","樹林區"
"238014","282-BY","2017/12/30 18:49:31","新北市樹林區大安路111巷4號","121.423016666667","24.9974783333333","6500700","樹林區"
"238020","268-VK","2017/12/30 18:49:36","新北市樹林區俊英街176號","121.42614","25.0075566666667","6500700","樹林區"
"238026","172-UY","2017/12/30 18:49:31","新北市樹林區中山路三段206-1號","121.385093333333","24.9677466666667","6500700","樹林區"
"238016","169-UY","2017/12/30 18:49:39","新北市樹林區文化街28號","121.419296666667","24.987685","6500700","樹林區"
"239007","AAC-297","2017/12/30 18:49:32","新北市鶯歌區中正一路建德巷2號","121.36469","24.9566716666667","6500800","鶯歌區"
"239006","891-R6","2017/12/30 18:49:30","新北市鶯歌區鶯桃路296巷72弄31號","121.337661666667","24.961035","6500800","鶯歌區"
"239008","527-UM","2017/12/30 18:49:36","新北市鶯歌區晨曦街2巷1號","121.336733333333","24.9763133333333","6500800","鶯歌區"
"239005","526-UM","2017/12/30 18:49:35","新北市鶯歌區大湖路361巷62號","121.330945","24.9772866666667","6500800","鶯歌區"
"239001","417-VK","2017/12/30 18:49:38","新北市鶯歌區鶯桃路182巷96弄28號","121.340028333333","24.9566766666667","6500800","鶯歌區"
"239003","360-BY","2017/12/30 18:49:33","新北市鶯歌區鶯桃路526號","121.331625","24.9669016666667","6500800","鶯歌區"
"239002","359-BY","2017/12/30 18:49:38","新北市鶯歌區中山路286-1號","121.344048333333","24.9571316666667","6500800","鶯歌區"
"239004","193-VK","2017/12/30 18:49:32","新北市鶯歌區中正三路230巷12號","121.330158333333","24.9391533333333","6500800","鶯歌區"
"221008","489-VK","2017/12/30 18:49:25","新北市汐止區康寧街901號","121.651503333333","25.0750766666667","6501100","汐止區"
"221036","130-UY","2017/12/30 18:49:40","新北市汐止區忠孝東路314巷19弄12號","121.665028333333","25.0684966666667","6501100","汐止區"
"221010","269-BY","2017/12/30 18:49:37","新北市汐止區汐萬路二段224號","121.646811666667","25.0878483333333","6501100","汐止區"
"221012","278-VK","2017/12/30 18:49:38","新北市汐止區汐萬路一段256巷3號","121.652476666667","25.0745916666667","6501100","汐止區"
"221023","279-VK","2017/12/30 18:49:45","新北市汐止區康寧街901號","121.650998333333","25.0752433333333","6501100","汐止區"
"221032","280-BY","2017/12/30 18:49:44","新北市汐止區民權街二段79號","121.619201666667","25.04799","6501100","汐止區"
"221027","281-BY","2017/12/30 18:49:31","新北市汐止區康寧街901號","121.651345","25.075005","6501100","汐止區"
"221029","298-VK","2017/12/30 18:49:33","新北市汐止區工建路66號","121.640545","25.0630616666667","6501100","汐止區"
"221021","299-VK","2017/12/30 18:49:34","新北市汐止區康寧街901號","121.651528333333","25.0750316666667","6501100","汐止區"
"221031","353-TW","2017/12/30 18:49:28","新北市汐止區福德一路300巷6弄2號","121.631011666667","25.0637466666667","6501100","汐止區"
"221015","567-BX","2017/12/30 18:49:45","新北市汐止區吉祥街1巷2號","121.66791","25.079865","6501100","汐止區"
"221035","622-UM","2017/12/30 18:49:30","新北市汐止區汐萬路一段119號","121.654155","25.0710316666667","6501100","汐止區"
"221025","623-UM","2017/12/30 18:49:43","新北市汐止區汐萬路一段142號","121.653168333333","25.0711633333333","6501100","汐止區"
"221038","646-BX","2017/12/30 18:49:37","新北市汐止區汐萬路一段312號","121.650683333333","25.0753583333333","6501100","汐止區"
"221033","647-BX","2017/12/30 18:49:28","新北市汐止區南勢街1巷1號","121.627066666667","25.0374766666667","6501100","汐止區"
"221002","707-TV","2017/12/30 18:49:44","新北市汐止區大同路一段154-1號","121.6321","25.0560216666667","6501100","汐止區"
"221018","753-BX","2017/12/30 18:49:36","新北市汐止區忠孝東路402號","121.665853333333","25.07097","6501100","汐止區"
"220079","145-BY","2017/12/30 18:49:44","新北市板橋區林園街54號","121.453998333333","25.0106633333333","6500100","板橋區"
"220080","200-UY","2017/12/30 18:49:42","新北市板橋區大觀路二段365巷12號","121.441025","24.9979566666667","6500100","板橋區"
"220082","610-BX","2017/12/30 18:49:30","新北市板橋區篤行路三段95號","121.426376666667","24.9848133333333","6500100","板橋區"
"220101","245-BX","2017/12/30 18:49:40","新北市板橋區民生路二段161巷3號","121.470101666667","25.0197333333333","6500100","板橋區"
"220056","276-BY","2017/12/30 18:49:36","新北市板橋區信義路18號","121.457006666667","24.9954566666667","6500100","板橋區"
"220072","277-BY","2017/12/30 18:49:42","新北市板橋區大觀路三段36巷4號","121.433828333333","24.995845","6500100","板橋區"
"220071","283-VK","2017/12/30 18:49:47","新北市板橋區忠孝路176巷5弄2號","121.464738333333","25.0019716666667","6500100","板橋區"
"220094","285-UM","2017/12/30 18:49:28","新北市板橋區民生路二段120號","121.470335","25.019765","6500100","板橋區"
"220053","285-VK","2017/12/30 18:49:41","新北市板橋區民生路二段89-4號","121.470996666667","25.01831","6500100","板橋區"
"220083","286-VK","2017/12/30 18:49:41","新北市板橋區僑中三街39號","121.445168333333","25.0048133333333","6500100","板橋區"
"220081","287-VK","2017/12/30 18:49:37","新北市板橋區光華街13巷41號","121.452701666667","25.011155","6500100","板橋區"
"220090","288-VK","2017/12/30 18:49:38","新北市板橋區民生路二段161巷9號","121.470245","25.019615","6500100","板橋區"
"220061","295-UM","2017/12/30 18:49:38","新北市板橋區太和街4巷8號","121.474171666667","25.0198666666667","6500100","板橋區"
"220084","296-UM","2017/12/30 18:49:44","新北市板橋區大觀路二段150巷64-1號","121.441516666667","25.0007933333333","6500100","板橋區"
"220075","297-UM","2017/12/30 18:49:40","新北市板橋區館前西路257號","121.454221666667","25.0086616666667","6500100","板橋區"
"220062","303-R5","2017/12/30 18:49:24","新北市板橋區民生路二段89-4號","121.47103","25.0182","6500100","板橋區"
"220092","307-R5","2017/12/30 18:49:42","新北市板橋區民生路二段121號","121.470725","25.018515","6500100","板橋區"
"220098","317-R6","2017/12/30 18:46:13","新北市板橋區民生路二段120號","121.470435","25.0196366666667","6500100","板橋區"
"220080","461-BY","2017/12/30 09:06:25","新北市板橋區華東街1-9號","121.4481","24.994855","6500100","板橋區"
"220064","486-VK","2017/12/30 18:49:40","新北市板橋區民生路二段15號","121.47263","25.0160166666667","6500100","板橋區"
"220089","487-VK","2017/12/30 18:49:27","新北市板橋區民生路二段188號","121.470016666667","25.0203783333333","6500100","板橋區"
"220088","491-VK","2017/12/30 18:49:38","新北市板橋區民生路二段161巷1號","121.469953333333","25.0200566666667","6500100","板橋區"
"220035","560-BX","2017/12/30 18:49:31","新北市板橋區中正路325巷49號","121.453026666667","25.0186616666667","6500100","板橋區"
"220103","561-BX","2017/12/30 18:49:36","新北市板橋區民生路二段161巷9號","121.47033","25.0195816666667","6500100","板橋區"
"220063","609-BX","2017/12/30 18:49:44","新北市板橋區民生路二段121號","121.470908333333","25.0183483333333","6500100","板橋區"
"220091","637-BX","2017/12/30 18:49:34","新北市板橋區民生路二段161巷1號","121.47015","25.02011","6500100","板橋區"
"220057","686-BX","2017/12/30 18:49:46","新北市板橋區南雅南路二段144巷60號","121.450303333333","24.9974183333333","6500100","板橋區"
"220077","687-BX","2017/12/30 18:49:33","新北市板橋區龍興街101巷2號","121.44442","25.003265","6500100","板橋區"
"220093","689-BX","2017/12/30 15:47:41","新北市板橋區民生路二段161巷1號","121.469965","25.020125","6500100","板橋區"
"220054","741-BX","2017/12/30 18:49:29","新北市板橋區南雅南路二段120-2號","121.45239","24.9998866666667","6500100","板橋區"
"220055","827-TW","2017/12/30 18:49:47","新北市板橋區縣民大道一段308號","121.46149","25.0107433333333","6500100","板橋區"
"220067","829-TW","2017/12/30 18:49:35","新北市板橋區民生路二段107號","121.47129","25.0178633333333","6500100","板橋區"
"220102","830-TW","2017/12/30 16:37:09","新北市板橋區民生路二段161巷7號","121.47025","25.0196883333333","6500100","板橋區"
"220074","895-R6","2017/12/30 18:49:38","新北市板橋區南門街44號","121.456918333333","25.008255","6500100","板橋區"
"220073","985-R7","2017/12/30 18:49:33","新北市板橋區林園街1號","121.453826666667","25.0091366666667","6500100","板橋區"
"220097","AAC-210","2017/12/30 18:49:38","新北市板橋區民生路二段120號","121.470446666667","25.0195516666667","6500100","板橋區"
"220070","AAC-253","2017/12/30 18:49:36","新北市板橋區館前西路27號","121.458476666667","25.0069","6500100","板橋區"
