"lineid","car","time","location","longitude","latitude","cityid","cityname"
"234046","148-BY","2017/12/30 19:09:50","新北市永和區得和路373巷31弄12號","121.524406666667","25.0004616666667","6500400","永和區"
"234013","149-BY","2017/12/30 19:09:52","新北市永和區永和路二段119號","121.51471","25.0120316666667","6500400","永和區"
"234007","207-UY","2017/12/30 19:09:47","新北市永和區中山路一段211-1號","121.508685","25.0083733333333","6500400","永和區"
"234081","298-R6","2017/12/30 19:09:51","新北市永和區永貞路39巷9弄2號","121.522128333333","25.006685","6500400","永和區"
"234038","336-UY","2017/12/30 19:09:47","新北市永和區民樂街71巷2號","121.527345","24.997325","6500400","永和區"
"234064","337-UY","2017/12/30 19:09:42","新北市永和區秀朗路二段45號","121.52161","25.002275","6500400","永和區"
"234086","338-UY","2017/12/30 19:09:34","新北市永和區永貞路90號","121.519523333333","25.0045983333333","6500400","永和區"
"234054","553-UM","2017/12/30 19:09:43","新北市永和區中興街133巷6號","121.518748333333","25.0126533333333","6500400","永和區"
"234017","745-BX","2017/12/30 19:09:47","新北市永和區文化路90巷9弄2號","121.513836666667","25.01583","6500400","永和區"
"234030","746-BX","2017/12/28 21:35:37","新北市五股區成泰路三段362號","121.451473333333","25.0985116666667","6500400","永和區"
"234061","AAD-866","2017/12/30 19:09:42","新北市永和區安樂路304巷7號","121.51453","25.005245","6500400","永和區"
"234070","847-RS","2017/12/30 19:09:53","新北市永和區豫溪街137巷1弄16號","121.518835","25.010475","6500400","永和區"
"234042","862-TW","2017/12/30 19:09:53","新北市永和區永和路一段49巷3弄81號","121.511901666667","25.0061266666667","6500400","永和區"
"234050","863-TW","2017/12/30 19:09:45","新北市永和區文化路135巷26弄1號","121.510651666667","25.0143733333333","6500400","永和區"
"234026","9371-KE","2017/12/30 19:09:35","新北市永和區安樂路198巷4弄2號","121.515611666667","25.0020516666667","6500400","永和區"
"234011","9373-KE","2017/12/30 19:09:44","新北市永和區仁愛路141巷5弄12號","121.512328333333","25.0122483333333","6500400","永和區"
"249001","173-UM","2017/12/30 19:09:51","新北市八里區龍米路三段2號","121.429393333333","25.1590416666667","6502300","八里區"
"249005","759-BX","2017/12/30 19:09:38","新北市八里區中華路三段145巷9號","121.392328333333","25.1331933333333","6502300","八里區"
"248016","026-BX","2017/12/30 19:09:38","新北市五股區成泰路三段543巷41-1號","121.449713333333","25.1030066666667","6501500","五股區"
"248006","077-UY","2017/12/30 19:09:52","新北市五股區四維路90-1號","121.4675","25.0732733333333","6501500","五股區"
"248020","225-UY","2017/12/30 19:09:49","新北市五股區凌雲路三段57號","121.425205","25.1250233333333","6501500","五股區"
"248012","247-BX","2017/12/30 19:09:41","新北市五股區中興路四段48巷16號","121.438593333333","25.0834583333333","6501500","五股區"
"248010","272-BY","2017/12/30 19:09:55","新北市五股區水碓一路23號","121.430628333333","25.0712716666667","6501500","五股區"
"248004","677-BX","2017/12/30 19:09:55","新北市五股區六合街13號","121.431326666667","25.088625","6501500","五股區"
"248002","678-BX","2017/12/30 19:09:53","新北市五股區凌雲路一段158巷13號","121.44777","25.1034416666667","6501500","五股區"
"234023","9380-KE","2017/12/30 19:09:53","新北市永和區中興街12號","121.515911666667","25.0119183333333","6500400","永和區"
"234077","969-R7","2017/12/30 19:09:52","新北市永和區得和路198號","121.520353333333","24.9996533333333","6500400","永和區"
"234074","AAC-211","2017/12/30 19:09:39","新北市永和區竹林路187號","121.520581666667","25.009565","6500400","永和區"
"234067","AAC-212","2017/12/30 19:09:45","新北市永和區保平路30巷2號","121.51199","25.0072733333333","6500400","永和區"
"234003","AAC-295","2017/12/30 19:09:50","新北市永和區保福路一段68號","121.51264","25.0097916666667","6500400","永和區"
"244013","069-UM","2017/12/30 19:09:54","新北市林口區麗園一街11巷7號","121.378003333333","25.0704866666667","6501700","林口區"
"244019","403-UM","2017/12/30 19:09:42","新北市林口區麗園二街87號","121.382465","25.0673566666667","6501700","林口區"
"244025","742-UY","2017/12/30 19:09:49","新北市林口區文化北路一段542巷68號","121.369005","25.0784466666667","6501700","林口區"
"244023","483-VK","2017/12/30 19:09:51","新北市林口區文化三路一段555巷50號","121.369795","25.0769166666667","6501700","林口區"
"244011","656-BX","2017/12/30 19:09:52","新北市林口區竹林路56號","121.387508333333","25.07805","6501700","林口區"
"244009","837-TS","2017/12/30 19:09:44","新北市林口區竹林路265號","121.389426666667","25.0808133333333","6501700","林口區"
"243012","AAD-798","2017/12/30 19:09:48","新北市泰山區吳厝窠1號","121.427915","25.058545","6501600","泰山區"
"243011","297-R6","2017/12/30 19:09:41","新北市泰山區明志路二段372巷2號","121.425438333333","25.0450083333333","6501600","泰山區"
"243015","380-SR","2017/12/30 19:09:48","新北市泰山區明志路一段398號","121.430746666667","25.0571316666667","6501600","泰山區"
"243014","421-VK","2017/12/30 19:09:45","新北市泰山區泰林路二段454號","121.426035","25.064215","6501600","泰山區"
"243010","KEA-2215","2017/12/30 19:09:44","新北市泰山區明志路一段483巷1弄1號","121.43111","25.0555166666667","6501600","泰山區"
"243009","KEA-2216","2017/12/30 19:09:16","新北市泰山區楓樹街15巷3-2號","121.434851666667","25.06308","6501600","泰山區"
"243013","646-TV","2017/12/30 19:09:39","新北市泰山區漢口街7號","121.423468333333","25.0366166666667","6501600","泰山區"
"243016","680-BX","2017/12/30 19:09:47","新北市泰山區明志路二段379號","121.425181666667","25.0438666666667","6501600","泰山區"
"222003","436-BY","2017/12/30 19:09:49","新北市深坑區深南路142號","121.623","25.0141633333333","6501800","深坑區"
"222002","659-BX","2017/12/30 19:09:48","新北市深坑區紅葉街61號","121.632301666667","25.0139166666667","6501800","深坑區"
"222001","696-SL","2017/12/30 19:09:47","新北市深坑區北深路一段300號","121.624143333333","25.0057533333333","6501800","深坑區"
"231041","001-UM","2017/12/30 19:09:52","新北市新店區溪園路417號","121.524421666667","24.9787666666667","6500600","新店區"
"231066","0293-UT","2017/12/30 19:09:46","新北市新店區安康路三段359巷12弄2號","121.484553333333","24.95012","6500600","新店區"
"231059","046-UY","2017/12/30 19:09:42","新北市新店區安和路二段126號","121.519216666667","24.9713966666667","6500600","新店區"
"231061","047-UY","2017/12/30 19:09:49","新北市新店區安康路一段120號","121.527123333333","24.9627216666667","6500600","新店區"
"231060","106-UY","2017/12/30 19:09:35","新北市新店區安康路二段214號","121.5099","24.959365","6500600","新店區"
"231051","107-UY","2017/12/30 19:09:41","新北市新店區中正路382巷34號","121.535566666667","24.9781233333333","6500600","新店區"
"231048","108-UY","2017/12/30 19:09:36","新北市新店區德正街29號","121.544646666667","24.9713133333333","6500600","新店區"
"231052","187-VK","2017/12/30 19:09:52","新北市新店區自強路61號","121.546345","24.92468","6500600","新店區"
"231050","KEA-2219","2017/12/30 19:09:52","新北市新店區竹林路2巷29弄11號","121.550515","24.9502266666667","6500600","新店區"
"231046","278-BY","2017/12/30 19:09:40","新北市新店區華潭街31號","121.529843333333","24.9553083333333","6500600","新店區"
"231054","AAD-862","2017/12/30 19:09:32","新北市新店區新店路167號","121.537075","24.955605","6500600","新店區"
"231058","3712-VJ","2017/12/30 19:09:54","新北市新店區光明街138巷13弄1號","121.540111666667","24.9612283333333","6500600","新店區"
"231056","3713-VJ","2017/12/30 19:09:39","新北市新店區中正路457號","121.533876666667","24.9802516666667","6500600","新店區"
"231067","4772-VM","2017/12/30 19:09:51","新北市新店區安康路一段202號","121.524275","24.9634316666667","6500600","新店區"
"231065","512-UM","2017/12/30 19:09:52","新北市新店區安祥路142號","121.474255","24.9556116666667","6500600","新店區"
"231064","515-UM","2017/12/30 19:09:52","新北市新店區安忠路102巷1號","121.510723333333","24.9561616666667","6500600","新店區"
"231045","617-UM","2017/12/30 19:09:43","新北市新店區北宜路一段164號","121.540401666667","24.953395","6500600","新店區"
"231040","619-UM","2017/12/30 19:09:37","新北市新店區三民路98-3號","121.53402","24.9734416666667","6500600","新店區"
"231042","641-BX","2017/12/30 19:09:40","新北市新店區中興路一段113號","121.541366666667","24.9627166666667","6500600","新店區"
"231063","645-TV","2017/12/30 19:09:48","新北市新店區車子路110號","121.505215","24.9520783333333","6500600","新店區"
"231049","719-UM","2017/12/30 19:09:42","新北市新店區二十張路25巷16號","121.539208333333","24.98195","6500600","新店區"
"231062","720-UM","2017/12/30 19:09:46","新北市新店區安康路一段146號","121.526435","24.9629016666667","6500600","新店區"
"231044","897-TW","2017/12/30 19:09:45","新北市新店區中興路三段200號","121.54394","24.9819466666667","6500600","新店區"
"231043","899-TW","2017/12/30 19:09:46","新北市新店區寶橋路98號","121.547093333333","24.9760966666667","6500600","新店區"
"241026","156-TC","2017/12/30 19:09:37","新北市三重區泉州街70巷1號","121.494995","25.0547483333333","6500200","三重區"
"241035","462-BY","2017/12/30 19:09:34","新北市三重區捷運路11-2號","121.486235","25.0564483333333","6500200","三重區"
"241029","942-UM","2017/12/30 19:09:55","新北市三重區集美街222號","121.491961666667","25.0553316666667","6500200","三重區"
"235066","003-UY","2017/12/30 19:09:38","新北市中和區廣福路12-3號","121.505478333333","25.00272","6500300","中和區"
"235064","005-UY","2017/12/30 19:09:44","新北市中和區連城路21號","121.498893333333","25.00201","6500300","中和區"
"235063","006-UY","2017/12/30 19:09:51","新北市中和區連城路249巷7號","121.493758333333","24.99665","6500300","中和區"
"235046","031-BX","2017/12/30 19:09:40","新北市中和區忠孝街1巷66號","121.508361666667","24.9845216666667","6500300","中和區"
"235056","096-UM","2017/12/30 19:09:47","新北市中和區員山路524號","121.478916666667","25.009705","6500300","中和區"
"235039","097-UM","2017/12/30 19:09:47","新北市中和區安平路210號","121.513668333333","24.9998116666667","6500300","中和區"
"235040","150-BY","2017/12/30 19:09:39","新北市中和區宜安路35號","121.512335","24.9963066666667","6500300","中和區"
"235058","151-BY","2017/12/30 19:09:36","新北市中和區連城路376-1號","121.481056666667","24.9952316666667","6500300","中和區"
"235055","183-VK","2017/12/30 19:09:46","新北市中和區德光路19號","121.47102","25.004365","6500300","中和區"
"235038","185-VK","2017/12/30 19:09:49","新北市中和區大仁街10巷27弄4號","121.51922","24.992705","6500300","中和區"
"235049","186-VK","2017/12/30 19:09:47","新北市中和區明禮街3號","121.505238333333","24.995625","6500300","中和區"
"235067","255-BX","2017/12/30 19:09:42","新北市中和區新生街176巷6號","121.483335","24.9999766666667","6500300","中和區"
"235044","293-VK","2017/12/30 19:09:47","新北市中和區中興街222-5號","121.500606666667","24.9895883333333","6500300","中和區"
"235072","301-VK","2017/12/30 19:09:35","新北市中和區永和路70號","121.498355","25.0047983333333","6500300","中和區"
"235043","352-BY","2017/12/30 19:09:37","新北市中和區景平路120號","121.519281666667","24.9916483333333","6500300","中和區"
"235068","377-QA","2017/12/30 19:09:46","新北市中和區圓通路162巷19號","121.49696","24.9951483333333","6500300","中和區"
"235061","378-QA","2017/12/30 19:09:37","新北市中和區中山路三段63巷13弄65號","121.47659","25.003315","6500300","中和區"
"235050","4979-A6","2017/12/30 19:09:34","新北市中和區復興路249巷11弄3號","121.503578333333","24.9897966666667","6500300","中和區"
"235069","4980-A6","2017/12/30 19:09:52","新北市中和區中山路二段181巷4號","121.50058","25.002475","6500300","中和區"
"235042","551-UM","2017/12/30 19:09:40","新北市中和區自立路16巷2號","121.521753333333","24.9936766666667","6500300","中和區"
"235070","558-UM","2017/12/30 19:09:36","新北市中和區中和路212號","121.506001666667","24.9995516666667","6500300","中和區"
"235045","565-BX","2017/12/30 19:09:49","新北市中和區景新街467巷20弄9號","121.514683333333","24.9876133333333","6500300","中和區"
"235054","640-BX","2017/12/30 19:09:44","新北市中和區國光街52號","121.470758333333","25.0002383333333","6500300","中和區"
"235060","647-TV","2017/12/30 19:09:31","新北市中和區民享街91-6號","121.474456666667","25.0010983333333","6500300","中和區"
"235047","732-UM","2017/12/30 19:09:38","新北市中和區興南路一段129號","121.508965","24.9877983333333","6500300","中和區"
"235057","801-TS","2017/12/30 19:09:50","新北市中和區民利街78號","121.478285","24.998205","6500300","中和區"
"235041","802-TS","2017/12/30 19:09:43","新北市永和區中和路327號","121.507308333333","24.9996633333333","6500300","中和區"
"235052","805-TS","2017/12/30 19:09:44","新北市中和區興南路二段142巷19弄4號","121.50296","24.9833933333333","6500300","中和區"
"235048","896-TW","2017/12/30 19:09:48","新北市中和區忠孝街1巷2-1號","121.50913","24.9830433333333","6500300","中和區"
"235053","900-TW","2017/12/30 19:09:48","新北市中和區華福街67號","121.466965","24.996595","6500300","中和區"
"235065","911-UM","2017/12/30 19:09:51","新北市中和區中山路二段2巷45弄7號","121.50211","25.0065333333333","6500300","中和區"
"235051","157-BY","2017/12/30 19:09:49","新北市中和區興南路一段75號","121.510221666667","24.9890583333333","6500300","中和區"
"235037","AAC-213","2017/12/30 19:09:45","新北市中和區秀朗路三段60巷49號","121.524743333333","24.9948066666667","6500300","中和區"
"235059","AAC-215","2017/12/30 19:09:34","新北市中和區圓通路294巷17-5號","121.488611666667","24.9904466666667","6500300","中和區"
"220068","013-TV","2017/12/29 21:10:47","新北市八里區荖阡坑路4-28號","121.398095","25.1426633333333","6500100","板橋區"
"220065","072-UY","2017/12/30 19:09:48","新北市板橋區民族路219巷22號","121.469323333333","25.00836","6500100","板橋區"
"220086","073-UY","2017/12/30 19:09:41","新北市板橋區中正路216巷142號","121.460315","25.0194266666667","6500100","板橋區"
"220106","075-UY","2017/12/30 19:09:45","新北市板橋區文化路二段317號","121.472215","25.0298416666667","6500100","板橋區"
"220069","AAD-861","2017/12/30 19:09:43","新北市板橋區華興街3號","121.45926","25.00464","6500100","板橋區"
"220096","120-SR","2017/12/30 19:09:46","新北市板橋區雙十路二段47巷6號","121.476158333333","25.0260766666667","6500100","板橋區"
"226004","312-R5","2017/12/30 19:09:48","新北市平溪區靜安路二段551號","121.749338333333","25.02399","6502400","平溪區"
"228003","097-TW","2017/12/30 19:09:32","新北市貢寮區和美里和美街33號","121.913886666667","25.083025","6502600","貢寮區"
"228001","212-TW","2017/12/30 19:09:50","新北市貢寮區真理里新港街10號","121.925506666667","25.05436","6502600","貢寮區"
"228002","585-TW","2017/12/30 19:09:45","新北市貢寮區福隆里福隆街32-1號","121.945091666667","25.0174116666667","6502600","貢寮區"
"224010","AGQ-8101","2017/12/30 19:09:34","新北市瑞芳區基山街85號","121.844856666667","25.1083","6501200","瑞芳區"
"224006","676-BX","2017/12/30 19:09:32","新北市瑞芳區東和路3號","121.804568333333","25.1061366666667","6501200","瑞芳區"
"224009","285-BY","2017/12/30 19:09:44","新北市瑞芳區洞頂路61號","121.861695","25.1203933333333","6501200","瑞芳區"
"224008","275-VK","2017/12/30 19:09:50","新北市瑞芳區明燈路三段245號","121.799658333333","25.1116366666667","6501200","瑞芳區"
"224005","271-BY","2017/12/30 19:09:39","新北市瑞芳區三爪子坑路89-17號","121.812205","25.1073183333333","6501200","瑞芳區"
"227010","400-TW","2017/12/30 19:09:52","新北市雙溪區牡丹里中正路37號","121.864711666667","25.0383916666667","6502500","雙溪區"
"227002","030-BX","2017/12/30 19:09:53","新北市雙溪區平林里梅竹蹊56-4號","121.86071","25.0366933333333","6502500","雙溪區"
"253005","032-BX","2017/12/30 19:09:37","新北市石門區阿里荖41-1號","121.605923333333","25.2806983333333","6502200","石門區"
"253006","741-TV","2017/12/30 19:09:42","新北市石門區下員坑30-2號","121.520088333333","25.2827616666667","6502200","石門區"
"208002","742-BX","2017/12/30 19:09:47","新北市金山區中正路67號","121.633921666667","25.2217066666667","6502700","金山區"
"208003","665-BX","2017/12/30 19:09:35","新北市金山區中正路137號","121.632388333333","25.2215116666667","6502700","金山區"
"208001","761-BX","2017/12/30 19:09:37","新北市金山區福德街2號","121.639433333333","25.2218716666667","6502700","金山區"
"251009","008-UM","2017/12/30 19:09:38","新北市淡水區清水街81號","121.441233333333","25.1702133333333","6501000","淡水區"
"251001","011-UM","2017/12/30 19:09:35","新北市淡水區自強路201巷39號","121.46209","25.1268416666667","6501000","淡水區"
"251014","180-VK","2017/12/30 19:09:52","新北市淡水區北勢子9號","121.4827","25.2282533333333","6501000","淡水區"
"251010","413-VK","2017/12/30 19:09:42","新北市淡水區中正路一段156巷3號","121.421211666667","25.1803233333333","6501000","淡水區"
"251016","442-VK","2017/12/30 19:09:40","新北市淡水區淡金路三段350巷18號","121.450763333333","25.2083866666667","6501000","淡水區"
"251005","443-VK","2017/12/30 19:09:49","新北市淡水區原德路11號","121.442078333333","25.17116","6501000","淡水區"
"251006","561-UM","2017/12/30 19:09:37","新北市淡水區中山北路一段149巷24號","121.442946666667","25.1780266666667","6501000","淡水區"
"251007","577-R6","2017/12/30 19:09:52","新北市淡水區民生路145巷58號","121.468125","25.13891","6501000","淡水區"
"251002","672-BX","2017/12/30 19:09:46","新北市淡水區中山路87巷1號","121.442571666667","25.1705083333333","6501000","淡水區"
"251003","766-UM","2017/12/30 19:09:44","新北市淡水區中山北路一段38號","121.441711666667","25.175255","6501000","淡水區"
"207003","550-UM","2017/12/30 19:09:43","新北市萬里區大鵬里萬里加投24號","121.649126666667","25.2076583333333","6502800","萬里區"
"207004","225-TW","2017/12/30 19:09:47","新北市萬里區萬里里瑪鋉下街29號","121.691316666667","25.1789016666667","6502800","萬里區"
"252002","178-VK","2017/12/30 19:09:42","新北市三芝區智成街116號","121.505813333333","25.25541","6502100","三芝區"
"252003","249-BX","2017/12/30 19:09:40","新北市三芝區錫板里南勢崗6號","121.479546666667","25.262","6502100","三芝區"
"252001","292-VK","2017/12/30 19:09:39","新北市三芝區長勤街45巷3號","121.500536666667","25.2551466666667","6502100","三芝區"
"237004","078-UY","2017/12/30 19:09:39","新北市三峽區有木205-1號","121.439066666667","24.85147","6500900","三峽區"
"237007","153-BY","2017/12/30 19:09:34","新北市三峽區中正路二段83巷13號","121.367166666667","24.9178866666667","6500900","三峽區"
"237013","252-BX","2017/12/30 19:09:41","新北市三峽區光明路69巷25號","121.376703333333","24.9292216666667","6500900","三峽區"
"237012","275-BY","2017/12/30 19:09:48","新北市三峽區三樹路222巷236弄23號","121.391385","24.943045","6500900","三峽區"
"237008","302-VK","2017/12/30 19:09:43","新北市三峽區大同路176號","121.372526666667","24.9267833333333","6500900","三峽區"
"237014","433-BY","2017/12/30 19:09:48","新北市三峽區中山路257巷12號","121.36222","24.93684","6500900","三峽區"
"237006","5529-G3","2017/12/30 19:09:46","新北市三峽區溪東路43號","121.400501666667","24.9349316666667","6500900","三峽區"
"237011","572-TV","2017/12/30 13:35:24","新北市三峽區中山路459巷163-3號","121.348653333333","24.9330233333333","6500900","三峽區"
"237016","649-BX","2017/12/30 19:00:07","新北市三峽區安坑48-1號","121.459448333333","24.9322483333333","6500900","三峽區"
"237010","706-TV","2017/12/30 19:09:45","新北市三峽區復興路179-8號","121.369555","24.9387583333333","6500900","三峽區"
"237005","AKY-6261","2017/12/30 19:09:39","新北市三峽區中山路459巷163-3號","121.348655","24.93295","6500900","三峽區"
"236073","105-UM","2017/12/30 19:09:40","新北市土城區裕生路61號","121.447626666667","24.9860066666667","6501300","土城區"
"236079","166-UM","2017/12/30 19:08:37","新北市土城區龍泉路43號","121.417175","24.94327","6501300","土城區"
"236027","269-VK","2017/12/30 19:09:42","新北市土城區中正路54號","121.443748333333","24.9753316666667","6501300","土城區"
"236015","270-VK","2017/12/30 19:09:32","新北市土城區學府路一段73號","121.456961666667","24.9881683333333","6501300","土城區"
"236038","271-VK","2017/12/30 19:09:33","新北市土城區清水路145號","121.458333333333","24.98184","6501300","土城區"
"236023","401-BY","2017/12/30 19:09:32","新北市土城區延峰街33巷1號","121.469703333333","24.9846483333333","6501300","土城區"
"236059","912-UM","2017/12/30 19:09:39","新北市土城區金城路二段239號","121.45576","24.982495","6501300","土城區"
"236049","913-UM","2017/12/30 19:09:41","新北市土城區明德路一段398-1號","121.45364","24.9790933333333","6501300","土城區"
"236063","915-UM","2017/12/30 19:09:52","新北市土城區金城路三段93巷20號","121.466846666667","24.9884633333333","6501300","土城區"
"236055","AAC-216","2017/12/30 19:09:43","新北市土城區學府路一段210號","121.452415","24.9852883333333","6501300","土城區"
"242036","133-UY","2017/12/30 19:09:37","新北市樹林區八德街369-1號","121.41608","24.971555","6500500","新莊區"
"238015","755-BX","2017/12/30 19:09:54","新北市樹林區備內街103號","121.407246666667","24.989465","6500700","樹林區"
"238023","601-UM","2017/12/30 19:09:42","新北市樹林區大慶街70號","121.396368333333","25.0139833333333","6500700","樹林區"
"238019","599-UM","2017/12/30 19:09:48","新北市樹林區東華街73號","121.415578333333","24.98096","6500700","樹林區"
"238024","5061-A6","2017/12/30 19:09:38","新北市樹林區味王街20號","121.4032","24.9755616666667","6500700","樹林區"
"238021","KEA-2217","2017/12/30 19:09:36","新北市樹林區柑園街二段326號","121.372985","24.9517766666667","6500700","樹林區"
"238022","KEA-2213","2017/12/30 19:09:45","新北市樹林區中山路二段151巷8弄21號","121.406241666667","24.977675","6500700","樹林區"
"238025","303-VK","2017/12/30 19:09:40","新北市樹林區中山路三段88號","121.39341","24.9722633333333","6500700","樹林區"
"238017","283-BY","2017/12/30 19:09:42","新北市樹林區光興街50號","121.409858333333","25.00271","6500700","樹林區"
"238014","282-BY","2017/12/30 19:09:52","新北市樹林區千歲街92巷7弄1號","121.427088333333","24.9975366666667","6500700","樹林區"
"238020","268-VK","2017/12/30 19:09:43","新北市樹林區俊英街155巷43弄5號","121.422793333333","25.011805","6500700","樹林區"
"238026","172-UY","2017/12/30 19:09:52","新北市樹林區地政街1號","121.393781666667","24.97182","6500700","樹林區"
"238016","169-UY","2017/12/30 19:09:39","新北市樹林區復興路361號","121.417255","24.98729","6500700","樹林區"
"239007","AAC-297","2017/12/30 19:09:32","新北市鶯歌區中山路138巷3-4號","121.349565","24.9579816666667","6500800","鶯歌區"
"239006","891-R6","2017/12/30 19:09:50","新北市鶯歌區鶯桃路91巷20弄1號","121.338566666667","24.952955","6500800","鶯歌區"
"239008","527-UM","2017/12/30 19:09:36","新北市鶯歌區國際二路12巷3號","121.337833333333","24.9745066666667","6500800","鶯歌區"
"239005","526-UM","2017/12/30 19:09:35","新北市鶯歌區東湖路19-2號","121.356938333333","24.9725666666667","6500800","鶯歌區"
"239001","417-VK","2017/12/30 19:09:38","新北市鶯歌區建國路473號","121.339675","24.95227","6500800","鶯歌區"
"239003","360-BY","2017/12/30 19:09:33","新北市鶯歌區鶯桃路316號","121.33396","24.96179","6500800","鶯歌區"
"239002","359-BY","2017/12/30 19:09:38","新北市鶯歌區中山路267號","121.345213333333","24.9569833333333","6500800","鶯歌區"
"239004","193-VK","2017/12/30 19:09:52","新北市鶯歌區中正三路鄭厝巷16-9號","121.333385","24.9340066666667","6500800","鶯歌區"
"221008","489-VK","2017/12/30 19:09:45","新北市汐止區康寧街462號","121.63175","25.0682666666667","6501100","汐止區"
"221036","130-UY","2017/12/30 19:09:39","新北市汐止區福安街7號","121.662223333333","25.0654916666667","6501100","汐止區"
"221010","269-BY","2017/12/30 19:09:37","新北市汐止區康寧街901號","121.651545","25.0749333333333","6501100","汐止區"
"221012","278-VK","2017/12/30 19:09:38","新北市汐止區康寧街901號","121.650761666667","25.0752566666667","6501100","汐止區"
"221023","279-VK","2017/12/30 19:09:45","新北市汐止區康寧街901號","121.650981666667","25.0752183333333","6501100","汐止區"
"221032","280-BY","2017/12/30 19:09:44","新北市汐止區橫科路241-1號","121.621915","25.0492133333333","6501100","汐止區"
"221027","281-BY","2017/12/30 19:09:51","新北市汐止區康寧街901號","121.651335","25.0750166666667","6501100","汐止區"
"221029","298-VK","2017/12/30 19:09:53","新北市汐止區汐萬路一段256巷3號","121.652663333333","25.0745166666667","6501100","汐止區"
"221021","299-VK","2017/12/30 19:09:54","新北市汐止區康寧街901號","121.651571666667","25.075055","6501100","汐止區"
"221031","353-TW","2017/12/30 19:09:48","新北市汐止區福德三路127號","121.633576666667","25.0675916666667","6501100","汐止區"
"221015","567-BX","2017/12/30 19:09:45","新北市汐止區汐萬路一段312號","121.65061","25.0753483333333","6501100","汐止區"
"221025","623-UM","2017/12/30 19:09:43","新北市汐止區康寧街901號","121.651433333333","25.07503","6501100","汐止區"
"221038","646-BX","2017/12/30 19:09:37","新北市汐止區汐萬路一段312號","121.650678333333","25.0753133333333","6501100","汐止區"
"221033","647-BX","2017/12/30 19:09:48","新北市汐止區南勢街1巷1號","121.627075","25.0374333333333","6501100","汐止區"
"221002","707-TV","2017/12/30 19:09:44","新北市汐止區民權街一段3巷2-1號","121.620641666667","25.0547566666667","6501100","汐止區"
"221018","753-BX","2017/12/30 19:09:36","新北市汐止區康寧街901號","121.651381666667","25.0749766666667","6501100","汐止區"
"220079","145-BY","2017/12/30 19:09:44","新北市板橋區公館街23號","121.460706666667","25.01477","6500100","板橋區"
"220080","200-UY","2017/12/30 19:09:51","新北市板橋區大觀路二段7巷51號","121.448553333333","25.0032916666667","6500100","板橋區"
"220082","610-BX","2017/12/30 19:09:50","新北市板橋區溪崑二街145號","121.426176666667","24.9880816666667","6500100","板橋區"
"220101","245-BX","2017/12/30 19:09:40","新北市板橋區萬板路35號","121.47073","25.0211083333333","6500100","板橋區"
"220056","276-BY","2017/12/30 19:09:36","新北市板橋區信義路110巷2弄2號","121.457945","24.9923466666667","6500100","板橋區"
"220072","277-BY","2017/12/30 19:09:42","新北市板橋區金門街419號","121.427116666667","24.9837683333333","6500100","板橋區"
"220071","283-VK","2017/12/30 19:09:47","新北市中和區華安街2號","121.465336666667","24.9985683333333","6500100","板橋區"
"220094","285-UM","2017/12/30 19:09:47","新北市板橋區光武街108-5號","121.465703333333","25.029175","6500100","板橋區"
"220053","285-VK","2017/12/30 19:09:41","新北市板橋區懷仁街35巷2弄1號","121.47691","25.0196916666667","6500100","板橋區"
"220083","286-VK","2017/12/30 19:09:50","新北市板橋區龍興街97巷15號","121.44339","25.00287","6500100","板橋區"
"220081","287-VK","2017/12/30 19:09:49","新北市板橋區光華街37巷28號","121.453038333333","25.0127516666667","6500100","板橋區"
"220090","288-VK","2017/12/30 19:09:38","新北市板橋區裕民街45巷2號","121.461468333333","25.0284483333333","6500100","板橋區"
"220061","295-UM","2017/12/30 19:09:38","新北市板橋區三民路二段17號","121.479276666667","25.0182766666667","6500100","板橋區"
"220084","296-UM","2017/12/30 19:09:44","新北市板橋區篤行路二段125-2號","121.43124","24.9906916666667","6500100","板橋區"
"220075","297-UM","2017/12/30 19:09:48","新北市板橋區南雅南路一段1巷21號","121.457255","25.00668","6500100","板橋區"
"220062","303-R5","2017/12/30 19:09:50","新北市板橋區三民路二段245巷4弄8號","121.480971666667","25.0119633333333","6500100","板橋區"
"220092","307-R5","2017/12/30 19:09:42","新北市板橋區文化路二段225巷60弄47號","121.469076666667","25.029515","6500100","板橋區"
"220098","317-R6","2017/12/30 19:09:34","新北市板橋區自由路51巷9-3號","121.46509","25.023435","6500100","板橋區"
"220080","461-BY","2017/12/30 09:06:25","新北市板橋區華東街1-9號","121.4481","24.994855","6500100","板橋區"
"220064","486-VK","2017/12/30 19:09:40","新北市板橋區板新路15號","121.474991666667","25.0127533333333","6500100","板橋區"
"220089","487-VK","2017/12/30 19:09:47","新北市板橋區文化路二段503號","121.475973333333","25.0344283333333","6500100","板橋區"
"220088","491-VK","2017/12/30 19:09:38","新北市板橋區文化路二段182巷1弄4號","121.471191666667","25.0275383333333","6500100","板橋區"
"220035","560-BX","2017/12/30 19:09:51","新北市板橋區中正路379巷3弄6號","121.453256666667","25.0213883333333","6500100","板橋區"
"220103","561-BX","2017/12/30 19:09:48","新北市板橋區文化路一段188巷9弄126號","121.469165","25.018955","6500100","板橋區"
"220063","609-BX","2017/12/30 19:09:44","新北市板橋區三民路二段160號","121.47913","25.015065","6500100","板橋區"
"220091","637-BX","2017/12/30 19:09:34","新北市板橋區縣民大道247巷80號","121.482153333333","25.0269466666667","6500100","板橋區"
"220057","686-BX","2017/12/30 19:09:47","新北市板橋區重慶路232號","121.462751666667","25.0015916666667","6500100","板橋區"
"220077","687-BX","2017/12/30 19:09:45","新北市板橋區大觀路二段123號","121.445986666667","25.0013516666667","6500100","板橋區"
"220093","689-BX","2017/12/30 19:09:48","新北市板橋區民生路三段251號","121.46467","25.029145","6500100","板橋區"
"220054","741-BX","2017/12/30 19:09:49","新北市板橋區重慶路93巷16號","121.462783333333","25.0057916666667","6500100","板橋區"
"220055","827-TW","2017/12/30 19:09:47","新北市板橋區新民街7巷10號","121.463583333333","25.0102266666667","6500100","板橋區"
"220067","829-TW","2017/12/30 19:09:35","新北市板橋區三民路二段正隆巷54號","121.476753333333","25.014165","6500100","板橋區"
"220102","830-TW","2017/12/30 19:09:49","新北市板橋區田單街38號","121.48241","25.0279733333333","6500100","板橋區"
"220074","895-R6","2017/12/30 19:09:38","新北市板橋區文昌街1號","121.455981666667","25.0100733333333","6500100","板橋區"
"220073","985-R7","2017/12/30 19:09:53","新北市板橋區中正路366號","121.454381666667","25.0241166666667","6500100","板橋區"
"220097","AAC-210","2017/12/30 19:09:50","新北市板橋區幸福路60巷81號","121.459741666667","25.02183","6500100","板橋區"
"220070","AAC-253","2017/12/30 19:09:38","新北市板橋區忠孝路41-1號","121.461375","25.0020933333333","6500100","板橋區"
