"lineid","car","time","location","longitude","latitude","cityid","cityname"
"234046","148-BY","2017/12/30 19:29:50","新北市永和區秀朗路二段257號","121.526276666667","24.9992533333333","6500400","永和區"
"234013","149-BY","2017/12/30 19:29:52","新北市永和區信義路10-1號","121.514515","25.012145","6500400","永和區"
"234007","207-UY","2017/12/30 19:29:47","新北市永和區永和路一段156-1號","121.514131666667","25.0085983333333","6500400","永和區"
"234081","298-R6","2017/12/30 19:29:51","新北市永和區福和路5-9號","121.525523333333","25.00833","6500400","永和區"
"234038","336-UY","2017/12/30 19:29:47","新北市永和區成功路二段47巷11號","121.527573333333","25.0003216666667","6500400","永和區"
"234064","337-UY","2017/12/30 19:29:42","新北市永和區得和路243巷26號","121.520746666667","25.0011266666667","6500400","永和區"
"234086","338-UY","2017/12/30 19:29:34","新北市永和區國中路2號","121.52414","25.00422","6500400","永和區"
"234054","553-UM","2017/12/30 19:29:34","新北市永和區復興街21號","121.516156666667","25.0130333333333","6500400","永和區"
"234017","745-BX","2017/12/30 19:29:47","新北市永和區環河西路一段95巷2號","121.512186666667","25.0179233333333","6500400","永和區"
"234030","746-BX","2017/12/28 21:35:37","新北市五股區成泰路三段362號","121.451473333333","25.0985116666667","6500400","永和區"
"234061","AAD-866","2017/12/30 19:29:48","新北市永和區中正路467號","121.517083333333","25.00596","6500400","永和區"
"234070","847-RS","2017/12/30 19:29:33","新北市永和區中正路666巷59號","121.518981666667","25.0091116666667","6500400","永和區"
"234042","862-TW","2017/12/30 19:29:53","新北市永和區永貞路304號","121.512016666667","25.004815","6500400","永和區"
"234050","863-TW","2017/12/30 19:29:45","新北市永和區信義路77號","121.5124","25.0132183333333","6500400","永和區"
"234026","9371-KE","2017/12/30 19:29:35","新北市中和區中安街80號","121.51216","25.0016766666667","6500400","永和區"
"234011","9373-KE","2017/12/30 19:29:44","新北市永和區保福路二段96號","121.510291666667","25.0134816666667","6500400","永和區"
"249003","593-UM","2017/12/30 19:29:43","新北市八里區商港六路15號","121.396758333333","25.1484183333333","6502300","八里區"
"248008","095-VK","2017/12/30 19:29:50","新北市五股區中興路一段95巷13號","121.4666","25.072325","6501500","五股區"
"248020","225-UY","2017/12/30 19:29:49","新北市五股區凌雲路三段94-2號","121.426511666667","25.1218333333333","6501500","五股區"
"248012","247-BX","2017/12/30 19:29:41","新北市五股區中興路四段48巷16號","121.438705","25.0834266666667","6501500","五股區"
"248014","261-SL","2017/12/30 19:29:42","新北市五股區民義路一段183巷5號","121.430823333333","25.0871683333333","6501500","五股區"
"248010","272-BY","2017/12/30 19:29:34","新北市五股區水碓一路23號","121.430606666667","25.07129","6501500","五股區"
"248004","677-BX","2017/12/30 19:29:41","新北市五股區五福路39號","121.433318333333","25.089635","6501500","五股區"
"248002","678-BX","2017/12/30 19:29:53","新北市五股區凌雲路一段158巷14號","121.447805","25.1034233333333","6501500","五股區"
"234023","9380-KE","2017/12/30 19:29:53","新北市永和區竹林路91巷21弄11號","121.520785","25.0124716666667","6500400","永和區"
"234077","969-R7","2017/12/30 19:29:54","新北市永和區民權路56號","121.519835","24.9982566666667","6500400","永和區"
"234074","AAC-211","2017/12/30 19:29:41","新北市永和區永和路二段255號","121.515958333333","25.0151983333333","6500400","永和區"
"234067","AAC-212","2017/12/30 19:29:42","新北市永和區永貞路360巷5號","121.510585","25.0069466666667","6500400","永和區"
"234003","AAC-295","2017/12/30 19:29:50","新北市永和區福和路352號","121.514803333333","25.007445","6500400","永和區"
"244013","069-UM","2017/12/30 19:29:34","新北市林口區麗園一街1號","121.375688333333","25.07249","6501700","林口區"
"244019","403-UM","2017/12/30 19:29:42","新北市林口區麗園一街11巷1號","121.376835","25.0705216666667","6501700","林口區"
"244023","483-VK","2017/12/30 19:29:51","新北市林口區文化北路二段234號","121.372896666667","25.0854933333333","6501700","林口區"
"244011","656-BX","2017/12/30 19:29:32","新北市林口區湖南里70-9號","121.375945","25.0897133333333","6501700","林口區"
"243012","AAD-798","2017/12/30 19:29:48","新北市泰山區仁愛路66號","121.432445","25.054865","6501600","泰山區"
"243011","297-R6","2017/12/30 19:29:41","新北市泰山區貴子路76號","121.427125","25.04138","6501600","泰山區"
"243015","380-SR","2017/12/30 19:29:49","新北市泰山區明志路二段61號","121.429158333333","25.05263","6501600","泰山區"
"243014","421-VK","2017/12/30 19:29:45","新北市泰山區中港西路420號","121.433813333333","25.0538966666667","6501600","泰山區"
"243010","KEA-2215","2017/12/30 19:29:45","新北市泰山區民生路17巷63號","121.429221666667","25.0510083333333","6501600","泰山區"
"243009","KEA-2216","2017/12/30 19:29:36","新北市五股區成泰路一段7巷4號","121.433416666667","25.0667416666667","6501600","泰山區"
"243013","646-TV","2017/12/30 19:29:39","新北市泰山區明志路三段145巷11弄2號","121.425915","25.0397","6501600","泰山區"
"243016","680-BX","2017/12/30 19:29:50","新北市泰山區明志路三段170號","121.424316666667","25.0390833333333","6501600","泰山區"
"222003","436-BY","2017/12/30 19:29:49","新北市深坑區深南路88巷1號","121.621","25.01172","6501800","深坑區"
"222002","659-BX","2017/12/30 19:29:48","新北市深坑區北深路一段177號","121.632505","25.0108633333333","6501800","深坑區"
"222001","696-SL","2017/12/30 19:29:47","新北市深坑區北深路二段130號","121.615935","25.0028916666667","6501800","深坑區"
"231041","001-UM","2017/12/30 19:29:52","新北市新店區中正路616號","121.53394","24.9886666666667","6500600","新店區"
"231066","0293-UT","2017/12/30 19:29:46","新北市新店區安康路三段165巷2弄12號","121.48908","24.9514166666667","6500600","新店區"
"231059","046-UY","2017/12/30 19:29:42","新北市新店區安和路三段101號","121.517833333333","24.9843433333333","6500600","新店區"
"231061","047-UY","2017/12/30 19:29:41","新北市新店區安康路一段302-2號","121.517388333333","24.96399","6500600","新店區"
"231060","106-UY","2017/12/30 19:29:35","新北市新店區安康路二段78號","121.514093333333","24.96333","6500600","新店區"
"231051","107-UY","2017/12/30 19:29:41","新北市新店區中央五街32號","121.528765","24.9748083333333","6500600","新店區"
"231048","108-UY","2017/12/30 19:29:36","新北市新店區中興路一段282-4號","121.546348333333","24.9683066666667","6500600","新店區"
"231052","187-VK","2017/12/30 19:29:52","新北市新店區新烏路一段145號","121.549335","24.9216566666667","6500600","新店區"
"231050","KEA-2219","2017/12/30 19:29:52","新北市新店區北宜路二段255號","121.554251666667","24.95352","6500600","新店區"
"231057","256-BX","2017/12/30 19:29:41","新北市新店區花園一路二段17號","121.55081","24.93325","6500600","新店區"
"231046","278-BY","2017/12/30 19:29:40","新北市新店區北新路一段91號","121.538798333333","24.9618433333333","6500600","新店區"
"231054","AAD-862","2017/12/30 19:29:52","新北市新店區文中路40號","121.539703333333","24.9565466666667","6500600","新店區"
"231058","3712-VJ","2017/12/30 19:29:39","新北市新店區寶橋路85巷35號","121.545248333333","24.97626","6500600","新店區"
"231067","4772-VM","2017/12/30 19:29:51","新北市新店區安康路二段309-1號","121.501361666667","24.9572016666667","6500600","新店區"
"231065","512-UM","2017/12/30 19:29:34","新北市新店區安祥路109巷1弄97號","121.47887","24.9602533333333","6500600","新店區"
"231064","515-UM","2017/12/30 19:29:35","新北市新店區安康路二段85巷18號","121.513751666667","24.9622083333333","6500600","新店區"
"231045","617-UM","2017/12/30 19:29:43","新北市新店區北宜路二段213號","121.553215","24.953405","6500600","新店區"
"231040","619-UM","2017/12/30 19:29:37","新北市新店區北新路一段263號","121.54095","24.9663616666667","6500600","新店區"
"231042","641-BX","2017/12/30 19:29:40","新北市新店區中興路一段198號","121.543588333333","24.96522","6500600","新店區"
"231063","645-TV","2017/12/30 19:29:48","新北市新店區達觀路14巷3號","121.503266666667","24.9418","6500600","新店區"
"231049","719-UM","2017/12/30 19:29:42","新北市新店區北新路三段65巷34弄21號","121.53997","24.9815983333333","6500600","新店區"
"231062","720-UM","2017/12/30 19:29:46","新北市新店區莒光路1號","121.527891666667","24.961905","6500600","新店區"
"231044","897-TW","2017/12/30 19:29:45","新北市新店區中興路三段143號","121.544468333333","24.979875","6500600","新店區"
"231043","899-TW","2017/12/30 19:29:46","新北市新店區北新路二段172號","121.542991666667","24.975835","6500600","新店區"
"241028","022-UY","2017/12/30 19:29:54","新北市三重區中寮街70號","121.493081666667","25.0582983333333","6500200","三重區"
"241008","059-VK","2017/12/30 19:29:52","新北市三重區永福街111巷35弄13號","121.477431666667","25.0768816666667","6500200","三重區"
"241009","060-VK","2017/12/30 19:29:50","新北市三重區溪尾街242巷60號","121.486308333333","25.081485","6500200","三重區"
"241031","061-VK","2017/12/30 19:29:47","新北市三重區成功路145巷49號","121.488115","25.053735","6500200","三重區"
"241017","063-VK","2017/12/30 19:29:43","新北市三重區大同北路112號","121.493211666667","25.0639483333333","6500200","三重區"
"241026","156-TC","2017/12/30 19:29:37","新北市三重區文化南路47巷35號","121.499338333333","25.061125","6500200","三重區"
"241022","267-UM","2017/12/30 19:29:45","新北市三重區三民街157巷2號","121.483755","25.0646233333333","6500200","三重區"
"241032","269-UM","2017/12/30 19:29:36","新北市三重區三陽路105號","121.483965","25.0588183333333","6500200","三重區"
"241025","271-UM","2017/12/30 19:29:44","新北市三重區頂崁街210巷28弄9號","121.475851666667","25.0672","6500200","三重區"
"241007","398-BY","2017/12/30 19:29:40","新北市三重區溪尾街136號","121.489368333333","25.079585","6500200","三重區"
"241020","413-TH","2017/12/30 19:29:35","新北市三重區三和路四段20巷32號","121.489783333333","25.0736033333333","6500200","三重區"
"241035","462-BY","2017/12/30 19:29:34","新北市三重區信義西街1號","121.498075","25.0647883333333","6500200","三重區"
"241030","480-VK","2017/12/30 19:29:45","新北市三重區成功路41巷9號","121.49028","25.0514633333333","6500200","三重區"
"241006","AAD-863","2017/12/30 19:29:45","新北市三重區後竹圍街205巷61號","121.484676666667","25.073105","6500200","三重區"
"241029","942-UM","2017/12/30 19:29:38","新北市三重區中正南路254號","121.49322","25.05314","6500200","三重區"
"235066","003-UY","2017/12/30 19:29:38","新北市中和區景新街47號","121.504288333333","24.9990016666667","6500300","中和區"
"235064","005-UY","2017/12/30 19:29:44","新北市中和區南山路131-8號","121.502503333333","24.9962333333333","6500300","中和區"
"235063","006-UY","2017/12/30 19:29:51","新北市中和區連城路219巷15號","121.494888333333","24.996285","6500300","中和區"
"235046","031-BX","2017/12/30 19:29:40","新北市中和區忠孝街37巷52號","121.511108333333","24.9848866666667","6500300","中和區"
"235056","096-UM","2017/12/30 19:29:45","新北市中和區民富街9號","121.476536666667","25.007215","6500300","中和區"
"235039","097-UM","2017/12/30 19:29:47","新北市中和區秀峰街50號","121.521231666667","24.9903233333333","6500300","中和區"
"235040","150-BY","2017/12/30 19:29:39","新北市中和區保健路46巷35號","121.508786666667","24.9957633333333","6500300","中和區"
"235058","151-BY","2017/12/30 19:29:36","新北市中和區中正路637巷52弄9號","121.48502","24.99371","6500300","中和區"
"235055","183-VK","2017/12/30 19:29:41","新北市中和區莒光路120巷17弄2號","121.471733333333","25.000905","6500300","中和區"
"235038","185-VK","2017/12/30 19:29:49","新北市中和區自立路127號","121.521865","24.99409","6500300","中和區"
"235049","186-VK","2017/12/30 19:29:47","新北市中和區安和路11號","121.51138","24.9935283333333","6500300","中和區"
"235067","255-BX","2017/12/30 19:29:42","新北市中和區連城路340巷10弄14號","121.483051666667","24.99656","6500300","中和區"
"235044","293-VK","2017/12/30 19:29:47","新北市中和區捷運路122號","121.505378333333","24.9915083333333","6500300","中和區"
"235072","301-VK","2017/12/30 19:29:35","新北市中和區連城路263巷4弄10號","121.491788333333","24.9953416666667","6500300","中和區"
"235043","352-BY","2017/12/30 19:29:37","新北市中和區景新街149號","121.506405","24.9965733333333","6500300","中和區"
"235068","377-QA","2017/12/30 19:29:46","新北市中和區圓通路158巷2號","121.497623333333","24.99609","6500300","中和區"
"235061","378-QA","2017/12/30 19:29:27","新北市中和區民利街61巷11弄2號","121.478856666667","24.9983166666667","6500300","中和區"
"235050","4979-A6","2017/12/30 19:29:34","新北市中和區中正路454號","121.49079","24.994115","6500300","中和區"
"235042","551-UM","2017/12/30 19:29:40","新北市中和區中安街202-1號","121.511666666667","24.9990366666667","6500300","中和區"
"235070","558-UM","2017/12/30 19:29:36","新北市中和區中山路二段220號","121.49953","25.002815","6500300","中和區"
"235045","565-BX","2017/12/30 19:29:49","新北市中和區景新街423巷33弄39號","121.513745","24.9900466666667","6500300","中和區"
"235054","640-BX","2017/12/30 19:29:41","新北市中和區國光街110號","121.47002","25.0006716666667","6500300","中和區"
"235060","647-TV","2017/12/30 19:29:31","新北市中和區新生街114巷2號","121.483368333333","25.0024166666667","6500300","中和區"
"235047","732-UM","2017/12/30 19:29:38","新北市中和區景平路241巷64弄8號","121.507746666667","24.9925333333333","6500300","中和區"
"235057","801-TS","2017/12/30 19:29:50","新北市中和區員山路423巷4號","121.480478333333","25.0032316666667","6500300","中和區"
"235041","802-TS","2017/12/30 19:29:46","新北市中和區中和路400巷14弄1號","121.511723333333","25.00212","6500300","中和區"
"235052","805-TS","2017/12/30 19:29:44","新北市中和區華新街143巷63弄2號","121.506438333333","24.9792416666667","6500300","中和區"
"235048","896-TW","2017/12/30 19:29:48","新北市中和區忠孝街146號","121.512456666667","24.987215","6500300","中和區"
"235053","900-TW","2017/12/30 19:29:48","新北市中和區華順街23號","121.467281666667","24.9986566666667","6500300","中和區"
"235065","911-UM","2017/12/30 19:29:51","新北市中和區中山路二段2巷17號","121.503731666667","25.0067183333333","6500300","中和區"
"235051","157-BY","2017/12/30 19:29:49","新北市中和區南華路69號","121.504705","24.997305","6500300","中和區"
"235037","AAC-213","2017/12/30 19:29:45","新北市中和區秀朗路三段10巷14弄36號","121.524585","24.99654","6500300","中和區"
"235059","AAC-215","2017/12/30 19:29:54","新北市中和區圓通路252巷17號","121.493021666667","24.9915833333333","6500300","中和區"
"220068","013-TV","2017/12/29 21:10:47","新北市八里區荖阡坑路4-28號","121.398095","25.1426633333333","6500100","板橋區"
"220065","072-UY","2017/12/30 19:29:49","新北市板橋區國泰街75巷30號","121.46771","25.0056183333333","6500100","板橋區"
"220086","073-UY","2017/12/30 19:29:41","新北市板橋區中正路236巷16號","121.456476666667","25.0190966666667","6500100","板橋區"
"220106","075-UY","2017/12/30 19:29:45","新北市板橋區長江路三段68號","121.473826666667","25.0340533333333","6500100","板橋區"
"220069","AAD-861","2017/12/30 19:29:52","新北市板橋區大明街20巷29弄17號","121.457913333333","25.0034333333333","6500100","板橋區"
"220096","120-SR","2017/12/30 19:29:46","新北市板橋區大同街35巷21號","121.476876666667","25.027785","6500100","板橋區"
"247004","336-TH","2017/12/30 19:29:35","新北市蘆洲區長安街231號","121.45936","25.0828383333333","6501400","蘆洲區"
"226004","312-R5","2017/12/30 19:29:48","新北市平溪區十分里十分街157號","121.77762","25.0433616666667","6502400","平溪區"
"228003","097-TW","2017/12/30 19:29:52","新北市貢寮區和美里和美街1號","121.913915","25.0828383333333","6502600","貢寮區"
"228001","212-TW","2017/12/30 19:29:50","新北市貢寮區真理里延平街68號","121.925376666667","25.0574216666667","6502600","貢寮區"
"228002","585-TW","2017/12/30 19:29:45","新北市貢寮區龍門里龍門街69號","121.930978333333","25.0265416666667","6502600","貢寮區"
"224010","AGQ-8101","2017/12/30 19:29:34","新北市瑞芳區基山街4-4號","121.845176666667","25.1095666666667","6501200","瑞芳區"
"224002","639-TC","2017/12/30 19:29:46","新北市瑞芳區三爪子坑路13巷47號","121.814176666667","25.10672","6501200","瑞芳區"
"227010","400-TW","2017/12/30 19:29:32","新北市雙溪區新基里新基北街43號","121.868205","25.0397","6502500","雙溪區"
"227002","030-BX","2017/12/30 19:29:32","新北市雙溪區雙溪里光復街16號","121.865108333333","25.0354283333333","6502500","雙溪區"
"253005","032-BX","2017/12/30 19:29:37","新北市石門區小坑9號","121.593821666667","25.2885566666667","6502200","石門區"
"253006","6251-TK","2017/12/30 19:29:20","新北市石門區八甲3號","121.522053333333","25.2848583333333","6502200","石門區"
"253006","741-TV","2017/12/30 19:29:42","新北市石門區海灣新城1號","121.524985","25.2851166666667","6502200","石門區"
"208002","742-BX","2017/12/30 19:29:47","新北市金山區仁愛路87巷1號","121.634556666667","25.2214866666667","6502700","金山區"
"208003","665-BX","2017/12/30 19:29:35","新北市金山區中山路263巷14號","121.636395","25.221595","6502700","金山區"
"208001","761-BX","2017/12/30 19:29:37","新北市金山區金包里街57號","121.638583333333","25.2216266666667","6502700","金山區"
"251009","008-UM","2017/12/30 19:29:38","新北市淡水區大忠街5巷8號","121.443348333333","25.1765166666667","6501000","淡水區"
"251001","011-UM","2017/12/30 19:29:55","新北市淡水區民權路139-1號","121.460046666667","25.1364866666667","6501000","淡水區"
"251014","180-VK","2017/12/30 19:29:32","新北市淡水區小中寮19-7號","121.484753333333","25.2296383333333","6501000","淡水區"
"251008","181-VK","2017/12/30 19:29:49","新北市淡水區中正路一段116號","121.423486666667","25.17813","6501000","淡水區"
"251010","413-VK","2017/12/30 19:29:42","新北市淡水區中正路二段150號","121.422901666667","25.1876616666667","6501000","淡水區"
"251012","441-VK","2017/12/30 19:29:50","新北市淡水區中山北路三段164號","121.445701666667","25.1965966666667","6501000","淡水區"
"251016","442-VK","2017/12/30 19:29:40","新北市淡水區下圭柔山119-51號","121.450733333333","25.2084466666667","6501000","淡水區"
"251005","443-VK","2017/12/30 19:29:49","新北市淡水區水源街一段53巷12號","121.44407","25.17296","6501000","淡水區"
"251006","561-UM","2017/12/30 19:29:37","新北市淡水區大義街18號","121.442878333333","25.17849","6501000","淡水區"
"251007","577-R6","2017/12/30 19:29:32","新北市淡水區坪頂路50號","121.45791","25.16243","6501000","淡水區"
"251011","650-BX","2017/12/30 19:29:36","新北市淡水區中正東路二段143巷2弄1號","121.460713333333","25.1471233333333","6501000","淡水區"
"251003","766-UM","2017/12/30 19:29:44","新北市淡水區中山北路三段102號","121.444111666667","25.1906016666667","6501000","淡水區"
"207003","550-UM","2017/12/30 19:29:43","新北市萬里區大鵬里萬里加投197-5號","121.643968333333","25.2150783333333","6502800","萬里區"
"207004","225-TW","2017/12/30 19:29:47","新北市萬里區萬里里瑪鋉路149號","121.6891","25.178195","6502800","萬里區"
"252002","178-VK","2017/12/30 19:29:42","新北市三芝區淡金路二段20號","121.502686666667","25.2596333333333","6502100","三芝區"
"252001","292-VK","2017/12/30 19:29:39","新北市三芝區長勤街50-1號","121.500195","25.2555133333333","6502100","三芝區"
"237004","078-UY","2017/12/30 19:29:39","新北市三峽區有木130-2號","121.435175","24.8581533333333","6500900","三峽區"
"237007","153-BY","2017/12/30 19:29:34","新北市三峽區二鬮路178號","121.359101666667","24.9068666666667","6500900","三峽區"
"237013","252-BX","2017/12/30 19:29:41","新北市三峽區介壽路一段286號","121.379988333333","24.9302533333333","6500900","三峽區"
"237012","275-BY","2017/12/30 19:29:47","新北市三峽區三樹路98巷111號","121.381865","24.9386683333333","6500900","三峽區"
"237008","302-VK","2017/12/30 19:29:43","新北市三峽區中正路一段231號","121.372173333333","24.9269183333333","6500900","三峽區"
"237014","433-BY","2017/12/30 19:29:48","新北市三峽區中正路二段269號","121.365908333333","24.9116216666667","6500900","三峽區"
"237006","5529-G3","2017/12/30 19:29:46","新北市三峽區中正路一段336巷15弄2號","121.369941666667","24.9249183333333","6500900","三峽區"
"237016","649-BX","2017/12/30 19:25:27","新北市三峽區成福路3號","121.416643333333","24.928085","6500900","三峽區"
"237005","AKY-6261","2017/12/30 19:29:39","新北市三峽區中山路217-1號","121.363545","24.9369016666667","6500900","三峽區"
"236073","105-UM","2017/12/30 19:29:40","新北市土城區裕民路185巷36弄10號","121.454328333333","24.9844316666667","6501300","土城區"
"236079","166-UM","2017/12/30 19:29:50","新北市土城區中州路12巷3號","121.414905","24.9573716666667","6501300","土城區"
"236027","269-VK","2017/12/30 19:29:42","新北市土城區中央路二段61巷20號","121.44305","24.9787666666667","6501300","土城區"
"236023","401-BY","2017/12/30 19:29:52","新北市土城區峰廷街3號","121.469021666667","24.987335","6501300","土城區"
"236059","912-UM","2017/12/30 19:29:38","新北市土城區中央路二段280號","121.440741666667","24.9739166666667","6501300","土城區"
"236049","913-UM","2017/12/30 19:29:41","新北市土城區清水路203號","121.460045","24.98169","6501300","土城區"
"238015","755-BX","2017/12/30 19:29:54","新北市樹林區復興路196號","121.41995","24.9909716666667","6500700","樹林區"
"238023","601-UM","2017/12/30 19:29:42","新北市樹林區中正路865號","121.408766666667","25.01814","6500700","樹林區"
"238019","599-UM","2017/12/30 19:29:43","新北市樹林區鎮前街367巷3號","121.416386666667","24.98354","6500700","樹林區"
"238018","571-TV","2017/12/30 19:29:41","新北市樹林區中華路21號","121.424216666667","24.983635","6500700","樹林區"
"238024","5061-A6","2017/12/30 19:29:38","新北市樹林區中山路三段48號","121.394435","24.9724716666667","6500700","樹林區"
"238021","KEA-2217","2017/12/30 19:29:36","新北市樹林區柑園街二段203巷7弄6號","121.378485","24.951805","6500700","樹林區"
"238022","KEA-2213","2017/12/30 19:29:45","新北市樹林區太順街35號","121.418925","24.9795966666667","6500700","樹林區"
"238025","303-VK","2017/12/30 19:29:40","新北市樹林區中山路一段37號","121.42408","24.9925516666667","6500700","樹林區"
"238017","283-BY","2017/12/30 19:29:50","新北市樹林區光興街18號","121.412386666667","25.0029216666667","6500700","樹林區"
"238014","282-BY","2017/12/30 19:29:52","新北市樹林區千歲街6巷1號","121.425135","24.995505","6500700","樹林區"
"238020","268-VK","2017/12/30 19:29:45","新北市樹林區俊英街222號","121.42482","25.0100283333333","6500700","樹林區"
"238026","172-UY","2017/12/30 19:29:52","新北市樹林區佳園路三段87號","121.387636666667","24.9524316666667","6500700","樹林區"
"238016","169-UY","2017/12/30 19:29:39","新北市樹林區復興路408號","121.41456","24.984955","6500700","樹林區"
"239007","AAC-297","2017/12/30 19:29:52","新北市鶯歌區大湖路109巷14號","121.341575","24.9636116666667","6500800","鶯歌區"
"239006","891-R6","2017/12/30 19:29:50","新北市鶯歌區永昌街92號","121.341433333333","24.9497983333333","6500800","鶯歌區"
"239008","527-UM","2017/12/30 19:29:50","新北市鶯歌區大湖路456號","121.340216666667","24.9722233333333","6500800","鶯歌區"
"239003","360-BY","2017/12/30 19:29:53","新北市鶯歌區中山路133號","121.349371666667","24.9570133333333","6500800","鶯歌區"
"239002","359-BY","2017/12/30 19:29:38","新北市鶯歌區大湖路382號","121.345571666667","24.973105","6500800","鶯歌區"
"239004","193-VK","2017/12/30 19:29:52","新北市鶯歌區二甲路83號","121.339343333333","24.9329916666667","6500800","鶯歌區"
"221008","489-VK","2017/12/30 19:29:45","新北市汐止區康寧街145號","121.622091666667","25.0667133333333","6501100","汐止區"
"221036","130-UY","2017/12/30 19:29:39","新北市汐止區康寧街901號","121.651556666667","25.0749983333333","6501100","汐止區"
"221010","269-BY","2017/12/30 19:29:37","新北市汐止區連峰街7號","121.64651","25.0772666666667","6501100","汐止區"
"221012","278-VK","2017/12/30 19:29:43","新北市汐止區大同路三段174號","121.674038333333","25.07503","6501100","汐止區"
"221023","279-VK","2017/12/30 19:29:45","新北市汐止區康寧街609號","121.636148333333","25.0709383333333","6501100","汐止區"
"221032","280-BY","2017/12/30 19:29:44","新北市汐止區汐萬路一段256巷3號","121.652358333333","25.0746566666667","6501100","汐止區"
"221027","281-BY","2017/12/30 19:29:51","新北市汐止區忠孝東路9號","121.658378333333","25.06598","6501100","汐止區"
"221029","298-VK","2017/12/30 19:29:53","新北市汐止區康寧街901號","121.65148","25.074955","6501100","汐止區"
"221021","299-VK","2017/12/30 19:29:34","新北市汐止區康寧街901號","121.65151","25.07505","6501100","汐止區"
"221031","353-TW","2017/12/30 19:29:48","新北市汐止區康寧街901號","121.65095","25.0752483333333","6501100","汐止區"
"221015","567-BX","2017/12/30 19:29:45","新北市汐止區康寧街901號","121.651635","25.074905","6501100","汐止區"
"221025","623-UM","2017/12/30 19:29:43","新北市汐止區新台五路二段44號","121.661111666667","25.0653566666667","6501100","汐止區"
"221038","646-BX","2017/12/30 19:29:37","新北市汐止區汐萬路一段37號","121.655581666667","25.0682416666667","6501100","汐止區"
"221033","647-BX","2017/12/30 19:29:48","新北市汐止區南勢街1巷1號","121.627078333333","25.037465","6501100","汐止區"
"221002","707-TV","2017/12/30 19:29:44","新北市汐止區大同路一段337巷16弄2-5號","121.638161666667","25.0600166666667","6501100","汐止區"
"221018","753-BX","2017/12/30 19:29:36","新北市汐止區康寧街901號","121.651488333333","25.0749933333333","6501100","汐止區"
"220079","145-BY","2017/12/30 19:29:50","新北市板橋區民權路202巷14弄1號","121.460596666667","25.0159433333333","6500100","板橋區"
"220080","200-UY","2017/12/30 19:29:42","新北市板橋區大觀路二段37巷252號","121.449866666667","25.0021183333333","6500100","板橋區"
"220082","610-BX","2017/12/30 19:29:50","新北市板橋區大觀路三段133巷12號","121.433205","24.99374","6500100","板橋區"
"220101","245-BX","2017/12/30 19:29:40","新北市板橋區縣民大道三段121巷22號","121.476586666667","25.0234616666667","6500100","板橋區"
"220056","276-BY","2017/12/30 19:29:51","新北市板橋區信義路1巷26弄44號","121.459113333333","24.9966483333333","6500100","板橋區"
"220072","277-BY","2017/12/30 19:29:42","新北市板橋區篤行路二段136號","121.429788333333","24.9883483333333","6500100","板橋區"
"220071","283-VK","2017/12/30 19:29:47","新北市板橋區忠孝路48巷9弄2-1號","121.461271666667","25.0000666666667","6500100","板橋區"
"220094","285-UM","2017/12/30 19:29:47","新北市板橋區吳鳳路50巷21弄2號","121.468426666667","25.0303933333333","6500100","板橋區"
"220053","285-VK","2017/12/30 19:29:41","新北市板橋區永豐街239號","121.47732","25.02128","6500100","板橋區"
"220083","286-VK","2017/12/30 19:29:41","新北市板橋區龍興街73巷46號","121.442243333333","25.002855","6500100","板橋區"
"220081","287-VK","2017/12/30 19:29:52","新北市板橋區南雅西路一段5巷1號","121.454625","25.004395","6500100","板橋區"
"220090","288-VK","2017/12/30 19:29:49","新北市板橋區裕民街83號","121.4606","25.0281783333333","6500100","板橋區"
"220061","295-UM","2017/12/30 19:29:38","新北市板橋區成功路6巷15號","121.476016666667","25.0171316666667","6500100","板橋區"
"220084","296-UM","2017/12/30 19:29:44","新北市板橋區滿平街139號","121.428993333333","24.9881883333333","6500100","板橋區"
"220075","297-UM","2017/12/30 19:29:48","新北市板橋區中正路246號","121.455538333333","25.0191683333333","6500100","板橋區"
"220062","303-R5","2017/12/30 19:29:44","新北市板橋區三民路二段153巷5弄1號","121.479985","25.015025","6500100","板橋區"
"220092","307-R5","2017/12/30 19:29:42","新北市板橋區光武街2巷29號","121.468705","25.025695","6500100","板橋區"
"220098","317-R6","2017/12/30 19:29:54","新北市板橋區民生路三段281巷2弄1號","121.463621666667","25.0299683333333","6500100","板橋區"
"220080","461-BY","2017/12/30 09:06:25","新北市板橋區華東街1-9號","121.4481","24.994855","6500100","板橋區"
"220064","486-VK","2017/12/30 19:29:40","新北市板橋區館前東路23-1號","121.46039","25.007265","6500100","板橋區"
"220089","487-VK","2017/12/30 19:29:49","新北市板橋區文化路一段135號","121.462076666667","25.0152133333333","6500100","板橋區"
"220088","491-VK","2017/12/30 19:29:40","新北市板橋區雙十路二段95號","121.475343333333","25.02773","6500100","板橋區"
"220035","560-BX","2017/12/30 19:29:51","新北市板橋區中正路399巷2號","121.45396","25.0222933333333","6500100","板橋區"
"220103","561-BX","2017/12/30 19:29:36","新北市板橋區文化路一段216號","121.466408333333","25.0203333333333","6500100","板橋區"
"220063","609-BX","2017/12/30 19:29:45","新北市板橋區三民路一段31巷89弄6-4號","121.481708333333","25.0234366666667","6500100","板橋區"
"220091","637-BX","2017/12/30 19:29:34","新北市板橋區文聖街135巷23號","121.478938333333","25.02899","6500100","板橋區"
"220057","686-BX","2017/12/30 19:29:51","新北市板橋區五權街24號","121.464495","24.9937583333333","6500100","板橋區"
"220077","687-BX","2017/12/30 19:29:53","新北市板橋區僑中二街116巷2號","121.445761666667","25.0065533333333","6500100","板橋區"
"220093","689-BX","2017/12/30 19:29:42","新北市板橋區英士路51號","121.461018333333","25.0245883333333","6500100","板橋區"
"220054","741-BX","2017/12/30 19:29:49","新北市板橋區光明街86號","121.461808333333","25.0027666666667","6500100","板橋區"
"220055","827-TW","2017/12/30 19:29:47","新北市板橋區重慶路290巷22弄16號","121.462221666667","24.9994833333333","6500100","板橋區"
"220067","829-TW","2017/12/30 19:29:55","新北市板橋區漢生東路313巷18號","121.472726666667","25.0084183333333","6500100","板橋區"
"220102","830-TW","2017/12/30 19:29:49","新北市板橋區松柏街3號","121.473781666667","25.0295616666667","6500100","板橋區"
"220074","895-R6","2017/12/30 19:29:38","新北市板橋區中正路1巷18-1號","121.45518","25.0116333333333","6500100","板橋區"
"220073","985-R7","2017/12/30 19:29:53","新北市板橋區中正路199號","121.456378333333","25.0172783333333","6500100","板橋區"
"220097","AAC-210","2017/12/30 19:29:38","新北市板橋區漢生西路151巷2號","121.463076666667","25.022375","6500100","板橋區"
"220070","AAC-253","2017/12/30 19:29:36","新北市板橋區四川路一段6號","121.459443333333","25.0068583333333","6500100","板橋區"
