"lineid","car","time","location","longitude","latitude","cityid","cityname"
"234081","298-R6","2017/12/30 20:29:50","新北市永和區永貞路82號","121.52017","25.0050583333333","6500400","永和區"
"234038","336-UY","2017/12/30 20:29:47","新北市永和區環河東路四段38號","121.528695","24.9989766666667","6500400","永和區"
"234064","337-UY","2017/12/30 20:29:42","新北市永和區中正路433號","121.517186666667","25.005095","6500400","永和區"
"234086","338-UY","2017/12/30 20:29:34","新北市永和區光復街21號","121.516545","25.0174633333333","6500400","永和區"
"234054","553-UM","2017/12/30 20:29:54","新北市永和區環河東路一段42號","121.518806666667","25.0169866666667","6500400","永和區"
"234017","745-BX","2017/12/30 20:29:46","新北市永和區信義路114號","121.512348333333","25.0144083333333","6500400","永和區"
"234030","746-BX","2017/12/28 21:35:37","新北市五股區成泰路三段362號","121.451473333333","25.0985116666667","6500400","永和區"
"234061","AAD-866","2017/12/30 20:29:42","新北市永和區安樂路194巷19號","121.515766666667","25.0009633333333","6500400","永和區"
"234070","847-RS","2017/12/30 20:29:33","新北市永和區福和路272號","121.518021666667","25.007545","6500400","永和區"
"234042","862-TW","2017/12/30 20:29:33","新北市永和區安樂路248號","121.514715","25.0032516666667","6500400","永和區"
"234050","863-TW","2017/12/30 20:29:45","新北市永和區新生路118巷1弄16號","121.506665","25.0144833333333","6500400","永和區"
"249001","173-UM","2017/12/30 20:29:33","新北市八里區下罟子5-11號","121.386881666667","25.1422816666667","6502300","八里區"
"249004","303-UY","2017/12/30 20:29:47","新北市八里區中山路一段129巷29號","121.414006666667","25.15855","6502300","八里區"
"249002","305-UY","2017/12/30 20:29:44","新北市八里區龍米路二段246-1號","121.429831666667","25.1588966666667","6502300","八里區"
"249003","593-UM","2017/12/30 20:29:43","新北市八里區華峰一街26號","121.399058333333","25.1466","6502300","八里區"
"248002","678-BX","2017/12/30 20:29:33","新北市五股區成泰路三段43-7號","121.442558333333","25.0890466666667","6501500","五股區"
"234023","9380-KE","2017/12/30 20:29:33","新北市永和區永和路二段276巷2弄1號","121.516428333333","25.0153083333333","6500400","永和區"
"234074","AAC-211","2017/12/30 20:29:39","新北市永和區豫溪街213號","121.52424","25.0093633333333","6500400","永和區"
"234067","AAC-212","2017/12/30 20:29:49","新北市永和區保平路292巷38號","121.507861666667","25.00489","6500400","永和區"
"234003","AAC-295","2017/12/30 20:29:50","新北市永和區中正路620號","121.516938333333","25.007825","6500400","永和區"
"244024","742-UY","2017/12/30 20:16:43","新北市林口區粉寮路二段160巷28號","121.405196666667","25.0907683333333","6501700","林口區"
"243012","AAD-798","2017/12/30 20:29:49","新北市泰山區忠孝街19巷1弄2號","121.427495","25.0657483333333","6501600","泰山區"
"243011","297-R6","2017/12/30 20:29:41","新北市泰山區漢口街25-2號","121.425175","25.0357733333333","6501600","泰山區"
"243015","380-SR","2017/12/30 20:29:48","新北市泰山區仁德路88號","121.433245","25.05653","6501600","泰山區"
"243014","421-VK","2017/12/30 20:29:45","新北市泰山區泰林路二段528號","121.423871666667","25.0638316666667","6501600","泰山區"
"243010","KEA-2215","2017/12/30 20:29:44","新北市泰山區明志路二段273巷5弄2號","121.427941666667","25.0472916666667","6501600","泰山區"
"243009","KEA-2216","2017/12/30 20:29:45","新北市泰山區泰林路二段542巷3弄1號","121.423363333333","25.064295","6501600","泰山區"
"243016","680-BX","2017/12/30 20:29:47","新北市泰山區明志路二段246-1號","121.42707","25.04812","6501600","泰山區"
"222003","436-BY","2017/12/30 20:29:42","新北市深坑區深坑街24號","121.615416666667","25.001905","6501800","深坑區"
"222002","659-BX","2017/12/30 20:29:48","新北市深坑區萬福路18號","121.602176666667","25.0084483333333","6501800","深坑區"
"222001","696-SL","2017/12/30 20:29:49","新北市深坑區北深路三段274號","121.597991666667","25.0047866666667","6501800","深坑區"
"231041","001-UM","2017/12/30 20:29:52","新北市新店區中正路501-4號","121.533676666667","24.98385","6500600","新店區"
"231066","0293-UT","2017/12/30 20:29:46","新北市新店區安興路112號","121.514641666667","24.97764","6500600","新店區"
"231059","046-UY","2017/12/30 20:29:42","新北市新店區安豐路49號","121.500045","24.9548883333333","6500600","新店區"
"231061","047-UY","2017/12/30 20:29:41","新北市新店區安興路141號","121.51668","24.979265","6500600","新店區"
"231060","106-UY","2017/12/30 20:29:35","新北市新店區錦秀路48號","121.479073333333","24.9434566666667","6500600","新店區"
"231051","107-UY","2017/12/30 20:29:41","新北市新店區中央七街97號","121.526288333333","24.977375","6500600","新店區"
"231048","108-UY","2017/12/30 20:29:36","新北市新店區寶慶街58巷12號","121.542058333333","24.98724","6500600","新店區"
"231052","187-VK","2017/12/30 20:29:32","新北市新店區松林路38號","121.546243333333","24.9102466666667","6500600","新店區"
"231050","KEA-2219","2017/12/30 20:29:32","新北市新店區博愛街27巷1號","121.541551666667","24.973985","6500600","新店區"
"231057","256-BX","2017/12/30 20:29:39","新北市新店區花園五路二段3號","121.553601666667","24.9341966666667","6500600","新店區"
"231054","AAD-862","2017/12/30 20:29:52","新北市新店區檳榔路109號","121.544578333333","24.9616766666667","6500600","新店區"
"231056","3713-VJ","2017/12/30 20:29:39","新北市新店區中正路302巷6號","121.537971666667","24.9749733333333","6500600","新店區"
"231065","512-UM","2017/12/30 20:29:41","新北市新店區安祥路102巷42弄113號","121.4873","24.963105","6500600","新店區"
"231064","515-UM","2017/12/30 20:29:51","新北市新店區永安街74巷2號","121.519711666667","24.9864516666667","6500600","新店區"
"231045","617-UM","2017/12/30 20:29:43","新北市新店區新坡一街22號","121.549006666667","24.96197","6500600","新店區"
"231040","619-UM","2017/12/30 20:29:40","新北市新店區中正路304號","121.537476666667","24.9745066666667","6500600","新店區"
"231042","641-BX","2017/12/30 20:29:40","新北市新店區寶高路13號","121.552153333333","24.9777516666667","6500600","新店區"
"231063","645-TV","2017/12/30 20:29:48","新北市新店區玫瑰路4-1號","121.493575","24.9513666666667","6500600","新店區"
"231068","718-UY","2017/12/30 20:29:42","新北市新店區民權路14號","121.542206666667","24.9829316666667","6500600","新店區"
"231049","719-UM","2017/12/30 20:29:42","新北市新店區永業路81巷20號","121.530868333333","24.9482133333333","6500600","新店區"
"231062","720-UM","2017/12/30 20:29:46","新北市新店區安泰路60巷112號","121.484075","24.94489","6500600","新店區"
"231044","897-TW","2017/12/30 20:29:50","新北市新店區民族路59號","121.539911666667","24.9783883333333","6500600","新店區"
"231043","899-TW","2017/12/30 20:29:46","新北市新店區建國路90號","121.540386666667","24.9773083333333","6500600","新店區"
"241011","013-R5","2017/12/30 20:29:44","新北市三重區三和路三段53號","121.495286666667","25.0716366666667","6500200","三重區"
"241028","022-UY","2017/12/30 20:13:34","新北市三重區同安街101號","121.494686666667","25.056495","6500200","三重區"
"241008","059-VK","2017/12/30 20:29:52","新北市三重區下竹圍街91號","121.481191666667","25.074915","6500200","三重區"
"241009","060-VK","2017/12/30 20:29:50","新北市三重區永福街62-4號","121.480856666667","25.077745","6500200","三重區"
"241031","061-VK","2017/12/30 20:29:47","新北市三重區三寧街25號","121.489533333333","25.05987","6500200","三重區"
"241015","062-VK","2017/12/30 20:29:43","新北市三重區文化北路41-2號","121.498915","25.0652583333333","6500200","三重區"
"241017","063-VK","2017/12/30 20:29:43","新北市三重區自強路一段207號","121.491538333333","25.0684516666667","6500200","三重區"
"241024","065-VK","2017/12/30 20:29:51","新北市三重區忠孝路三段15巷65號","121.479185","25.0685333333333","6500200","三重區"
"241002","090-VK","2017/12/30 20:29:35","新北市三重區仁義街211巷19號","121.497611666667","25.082205","6500200","三重區"
"241003","091-VK","2017/12/30 20:29:48","新北市三重區富華街175號","121.49359","25.085245","6500200","三重區"
"241026","156-TC","2017/12/30 20:29:37","新北市三重區福德南路26-1號","121.50288","25.063005","6500200","三重區"
"241005","262-UM","2017/12/30 20:29:40","新北市三重區碧華街337號","121.491675","25.08475","6500200","三重區"
"241016","266-UM","2017/12/30 20:29:40","新北市三重區正義北路190巷11號","121.495925","25.0668366666667","6500200","三重區"
"241022","267-UM","2017/12/30 20:29:45","新北市三重區重陽路二段19巷6號","121.487521666667","25.06271","6500200","三重區"
"241018","268-UM","2017/12/30 20:29:49","新北市三重區正義北路220號","121.496148333333","25.067535","6500200","三重區"
"241032","269-UM","2017/12/30 20:29:36","新北市三重區重陽路一段120巷48號","121.485068333333","25.0601583333333","6500200","三重區"
"241013","270-UM","2017/12/30 20:29:36","新北市三重區溪尾街5巷30號","121.49261","25.0746283333333","6500200","三重區"
"241025","271-UM","2017/12/30 20:29:44","新北市三重區頂崁街210巷23弄1號","121.475835","25.068185","6500200","三重區"
"241007","398-BY","2017/12/30 20:29:40","新北市三重區自強路四段32-2號","121.489076666667","25.077085","6500200","三重區"
"241020","413-TH","2017/12/30 20:29:35","新北市三重區忠孝路一段23號","121.49195","25.071965","6500200","三重區"
"241035","462-BY","2017/12/30 20:29:34","新北市三重區正義北路110號","121.496961666667","25.0651","6500200","三重區"
"241004","475-VK","2017/12/30 20:29:50","新北市三重區溪尾街198號","121.488283333333","25.0809916666667","6500200","三重區"
"241019","478-VK","2017/12/30 20:29:46","新北市三重區重陽路四段81號","121.492558333333","25.0710016666667","6500200","三重區"
"241030","480-VK","2017/12/30 20:29:45","新北市三重區成功路62號","121.4886","25.0509","6500200","三重區"
"241014","543-UM","2017/12/30 20:29:45","新北市三重區長興街92號","121.501675","25.0691833333333","6500200","三重區"
"241023","545-UM","2017/12/30 20:29:48","新北市三重區自由街17巷1號","121.479825","25.0665933333333","6500200","三重區"
"241001","547-UM","2017/12/30 20:29:36","新北市三重區福隆路12號","121.49035","25.0774133333333","6500200","三重區"
"241012","941-UM","2017/12/30 20:29:43","新北市三重區龍濱路269號","121.501466666667","25.072925","6500200","三重區"
"241029","942-UM","2017/12/30 20:29:38","新北市三重區集美街116號","121.488645","25.0538216666667","6500200","三重區"
"241033","AAC-255","2017/12/30 20:29:45","新北市三重區五谷王北街80巷40號","121.475183333333","25.052675","6500200","三重區"
"235066","003-UY","2017/12/30 20:29:38","新北市中和區光華街31巷22弄28號","121.505931666667","25.0043133333333","6500300","中和區"
"235039","097-UM","2017/12/30 20:29:47","新北市中和區大勇街27巷24號","121.51636","24.9940666666667","6500300","中和區"
"235067","255-BX","2017/12/30 20:29:42","新北市八里區下罟子23號","121.375741666667","25.1392766666667","6500300","中和區"
"235068","377-QA","2017/12/30 20:29:46","新北市中和區永和路98號","121.496776666667","25.005695","6500300","中和區"
"235061","378-QA","2017/12/30 20:29:37","新北市中和區中正路395號","121.48988","24.99401","6500300","中和區"
"235050","4979-A6","2017/12/30 20:29:34","新北市中和區南華路1巷1號","121.501893333333","24.995435","6500300","中和區"
"235069","4980-A6","2017/12/30 20:29:32","新北市中和區連城路347巷18弄30號","121.487391666667","24.9947816666667","6500300","中和區"
"235047","732-UM","2017/12/30 20:29:38","新北市八里區中山路三段331號","121.37751","25.141245","6500300","中和區"
"235026","800-TS","2017/12/30 20:22:13","新北市中和區員山路36巷16-3號","121.484801666667","24.9914566666667","6500300","中和區"
"235065","911-UM","2017/12/30 20:29:51","新北市中和區永和路92-1號","121.497115","25.0055316666667","6500300","中和區"
"235059","AAC-215","2017/12/30 20:29:34","新北市中和區員山路36巷16號","121.484448333333","24.991455","6500300","中和區"
"247022","893-R6","2017/12/30 20:29:42","新北市蘆洲區三民路224號","121.4687","25.0893066666667","6501400","蘆洲區"
"247012","546-UM","2017/12/30 20:29:51","新北市蘆洲區復興路228號","121.479168333333","25.089375","6501400","蘆洲區"
"247020","500-BY","2017/12/30 20:29:42","新北市蘆洲區民族路331號","121.473785","25.0916866666667","6501400","蘆洲區"
"247008","341-TH","2017/12/30 20:29:34","新北市蘆洲區永安北路二段64號","121.483038333333","25.08392","6501400","蘆洲區"
"247010","339-TH","2017/12/30 20:29:42","新北市蘆洲區民族路75號","121.47925","25.0858983333333","6501400","蘆洲區"
"247002","337-TH","2017/12/30 20:29:34","新北市蘆洲區長安街347巷30號","121.45557","25.0870216666667","6501400","蘆洲區"
"247004","336-TH","2017/12/30 20:29:35","新北市蘆洲區永康街55號","121.456715","25.08532","6501400","蘆洲區"
"247016","057-VK","2017/12/30 20:29:35","新北市蘆洲區光華路67號","121.468226666667","25.0825966666667","6501400","蘆洲區"
"247006","056-VK","2017/12/30 20:29:47","新北市蘆洲區和平路121巷14弄34號","121.46623","25.080145","6501400","蘆洲區"
"247014","007-UY","2017/12/30 20:29:36","新北市蘆洲區中山一路158號","121.47475","25.0814333333333","6501400","蘆洲區"
"247024","002-UY","2017/12/30 20:29:49","新北市蘆洲區光復路70巷19號","121.464743333333","25.085215","6501400","蘆洲區"
"247018","001-UY","2017/12/30 20:29:37","新北市蘆洲區民族路327巷28號","121.474411666667","25.091045","6501400","蘆洲區"
"251009","008-UM","2017/12/30 20:29:38","新北市淡水區民權路28號","121.459913333333","25.1375516666667","6501000","淡水區"
"251001","011-UM","2017/12/30 20:29:55","新北市淡水區中山北路二段2號","121.44461","25.1831066666667","6501000","淡水區"
"251014","180-VK","2017/12/30 20:29:52","新北市淡水區石頭厝8-4號","121.46039","25.2377383333333","6501000","淡水區"
"251008","181-VK","2017/12/30 20:29:49","新北市淡水區淡海路200號","121.420535","25.18557","6501000","淡水區"
"251010","413-VK","2017/12/30 20:29:42","新北市淡水區沙崙路181巷15號","121.423998333333","25.1843316666667","6501000","淡水區"
"251012","441-VK","2017/12/30 20:29:50","新北市淡水區頂田寮路129號","121.459888333333","25.216115","6501000","淡水區"
"251016","442-VK","2017/12/30 20:29:40","新北市淡水區淡金路四段507號","121.451541666667","25.228285","6501000","淡水區"
"251006","561-UM","2017/12/30 20:29:37","新北市淡水區商工路296號","121.460723333333","25.18591","6501000","淡水區"
"251011","650-BX","2017/12/30 20:29:36","新北市淡水區崁頂74號","121.434631666667","25.2012983333333","6501000","淡水區"
"251002","672-BX","2017/12/30 20:29:49","新北市淡水區中正路11-3號","121.443106666667","25.1695616666667","6501000","淡水區"
"252002","178-VK","2017/12/30 20:29:42","新北市三芝區淡金路二段26號","121.502768333333","25.25968","6502100","三芝區"
"252001","292-VK","2017/12/30 20:29:39","新北市三芝區中山路一段14號","121.500721666667","25.2580733333333","6502100","三芝區"
"236073","105-UM","2017/12/30 20:29:40","新北市土城區城林路6巷51號","121.436558333333","24.9770083333333","6501300","土城區"
"236015","270-VK","2017/12/30 20:29:52","新北市板橋區四川路二段245巷57號","121.452245","24.99226","6501300","土城區"
"242029","986-R7","2017/12/30 20:29:47","新北市新莊區中華路二段151號","121.452848333333","25.0514333333333","6500500","新莊區"
"242051","751-BX","2017/12/30 20:29:49","新北市新莊區民安西路268號","121.426025","25.01305","6500500","新莊區"
"242061","705-TV","2017/12/30 20:29:46","新北市新莊區新樹路244巷40號","121.431328333333","25.01897","6500500","新莊區"
"242025","615-BX","2017/12/30 20:29:34","新北市新莊區五工二路51號","121.460785","25.06517","6500500","新莊區"
"242023","613-BX","2017/12/30 20:29:50","新北市新莊區化成路816號","121.465001666667","25.0598133333333","6500500","新莊區"
"242027","612-BX","2017/12/30 20:29:50","新北市新莊區幸福路52號","121.457531666667","25.0494966666667","6500500","新莊區"
"242039","566-BX","2017/12/30 20:29:49","新北市新莊區成功街41號","121.425305","25.0209933333333","6500500","新莊區"
"242031","442-UM","2017/12/30 20:29:50","新北市新莊區三和路60-22號","121.437885","25.0420616666667","6500500","新莊區"
"242048","441-UM","2017/12/30 20:29:52","新北市新莊區裕民街19巷32號","121.419615","25.0237983333333","6500500","新莊區"
"242053","440-UM","2017/12/30 20:29:48","新北市新莊區民安西路229巷24號","121.427215","25.014115","6500500","新莊區"
"242034","415-TV","2017/12/30 20:29:38","新北市新莊區新泰路125號","121.448383333333","25.03617","6500500","新莊區"
"242004","413-TV","2017/12/30 20:29:36","新北市新莊區化成路371巷28弄1號","121.463513333333","25.0570866666667","6500500","新莊區"
"242042","400-BY","2017/12/30 20:29:33","新北市新莊區中正路694巷3弄7號","121.418093333333","25.0280283333333","6500500","新莊區"
"242058","353-BY","2017/12/30 20:29:45","新北市新莊區四維路177號","121.422275","25.0213166666667","6500500","新莊區"
"242007","132-UY","2017/12/30 20:29:51","新北市新莊區思源路287巷1弄25號","121.459453333333","25.0473033333333","6500500","新莊區"
"242036","133-UY","2017/12/30 20:29:37","新北市新莊區後港一路76巷12弄2號","121.427216666667","25.0259233333333","6500500","新莊區"
"242021","135-UY","2017/12/30 20:29:39","新北市新莊區公園路10巷1號","121.447905","25.0388","6500500","新莊區"
"242046","172-VK","2017/12/30 20:29:38","新北市新莊區裕民街72巷7號","121.418213333333","25.0242166666667","6500500","新莊區"
"242009","173-VK","2017/12/30 20:29:39","新北市新莊區昌隆街80號","121.455675","25.0507116666667","6500500","新莊區"
"242015","175-VK","2017/12/30 20:29:44","新北市新莊區永樂街246號","121.445741666667","25.0445283333333","6500500","新莊區"
"242002","176-VK","2017/12/30 20:29:31","新北市新莊區中正路82-1號","121.456893333333","25.0377","6500500","新莊區"
"242019","348-TH","2017/12/30 20:29:41","新北市新莊區銘德街49巷4弄1號","121.457271666667","25.0430333333333","6500500","新莊區"
"242017","350-TH","2017/12/30 20:29:42","新北市新莊區中港三街7號","121.451198333333","25.0464433333333","6500500","新莊區"
"242011","351-TH","2017/12/30 20:29:47","新北市新莊區中義街15號","121.450948333333","25.0511466666667","6500500","新莊區"
"221008","489-VK","2017/12/30 20:29:45","新北市汐止區康寧街625號","121.637393333333","25.0720616666667","6501100","汐止區"
"221036","130-UY","2017/12/30 20:29:44","新北市汐止區仁愛路151巷48號","121.663658333333","25.065755","6501100","汐止區"
"221010","269-BY","2017/12/30 20:29:37","新北市汐止區八連路二段450號","121.62846","25.1044766666667","6501100","汐止區"
"221012","278-VK","2017/12/30 20:29:38","新北市汐止區保新街3號","121.683738333333","25.0733966666667","6501100","汐止區"
"221023","279-VK","2017/12/30 20:29:45","新北市汐止區湖東街76巷1號","121.635815","25.0735133333333","6501100","汐止區"
"221032","280-BY","2017/12/30 20:29:44","新北市汐止區弘道街53巷3號","121.618601666667","25.048545","6501100","汐止區"
"221027","281-BY","2017/12/30 20:29:53","新北市汐止區中正路232號","121.657866666667","25.0687816666667","6501100","汐止區"
"221029","298-VK","2017/12/30 20:29:53","新北市汐止區樟樹一路135巷16號","121.641533333333","25.0656616666667","6501100","汐止區"
"221021","299-VK","2017/12/30 20:29:33","新北市汐止區水源路一段284號","121.654253333333","25.0582916666667","6501100","汐止區"
"221031","353-TW","2017/12/30 20:29:48","新北市汐止區中興路110巷34號","121.634383333333","25.0646183333333","6501100","汐止區"
"221015","567-BX","2017/12/30 20:29:45","新北市汐止區建成路142巷19弄11號","121.661963333333","25.073795","6501100","汐止區"
"221035","622-UM","2017/12/30 20:29:47","新北市汐止區長江街101-5號","121.658728333333","25.0731883333333","6501100","汐止區"
"221025","623-UM","2017/12/30 20:29:43","新北市汐止區水源路二段108號","121.656641666667","25.0554433333333","6501100","汐止區"
"221038","646-BX","2017/12/30 20:29:37","新北市汐止區水源路一段56號","121.657606666667","25.0655566666667","6501100","汐止區"
"221033","647-BX","2017/12/30 20:29:48","新北市汐止區林森街73巷13號","121.62367","25.0412","6501100","汐止區"
"221002","707-TV","2017/12/30 20:29:44","新北市汐止區福德三路75號","121.63654","25.0692933333333","6501100","汐止區"
"221018","753-BX","2017/12/30 20:29:36","新北市汐止區茄苳路225巷22號","121.67149","25.0691383333333","6501100","汐止區"
"220101","245-BX","2017/12/30 20:29:40","新北市五股區五工一路109號","121.456566666667","25.0708866666667","6500100","板橋區"
"220083","286-VK","2017/12/30 20:29:41","新北市板橋區僑中二街104巷15號","121.445361666667","25.0079133333333","6500100","板橋區"
"242013","281-VK","2017/12/30 20:29:45","新北市新莊區中和街155巷24弄32號","121.446646666667","25.05109","6500500","新莊區"
"220080","461-BY","2017/12/30 09:06:25","新北市板橋區華東街1-9號","121.4481","24.994855","6500100","板橋區"
"220089","487-VK","2017/12/30 20:29:47","新北市板橋區四維路319號","121.462928333333","25.0290166666667","6500100","板橋區"
"220103","561-BX","2017/12/30 20:29:40","新北市板橋區漢生東路33巷8號","121.465696666667","25.0172016666667","6500100","板橋區"
"220102","830-TW","2017/12/30 20:29:49","新北市板橋區文化路一段90號","121.464251666667","25.0177283333333","6500100","板橋區"
"220074","895-R6","2017/12/30 20:29:38","新北市板橋區南雅南路一段7巷22弄8號","121.455745","25.0046616666667","6500100","板橋區"
"220070","AAC-253","2017/12/30 20:29:36","新北市泰山區楓江路119號","121.438586666667","25.06482","6500100","板橋區"
