"lineid","car","time","location","longitude","latitude","cityid","cityname"
"244024","742-UY","2017/12/30 20:16:43","新北市林口區粉寮路二段160巷28號","121.405196666667","25.0907683333333","6501700","林口區"
"243003","297-R6","2017/12/30 21:15:29","新北市泰山區黎明路31號","121.421778333333","25.060635","6501600","泰山區"
"231059","046-UY","2017/12/30 21:19:41","新北市新店區薏仁坑路自強巷6號","121.496605","24.95847","6500600","新店區"
"231051","107-UY","2017/12/30 21:19:41","新北市新店區中正路694巷10號","121.535323333333","24.9905033333333","6500600","新店區"
"231048","108-UY","2017/12/30 21:19:35","新北市新店區溪園路417號","121.52453","24.9789233333333","6500600","新店區"
"231050","KEA-2219","2017/12/30 21:19:52","新北市新店區中華路117巷2弄1號","121.538361666667","24.9691683333333","6500600","新店區"
"231065","512-UM","2017/12/30 21:19:54","新北市新店區薏仁坑路自強巷6號","121.496585","24.958395","6500600","新店區"
"231040","619-UM","2017/12/30 21:19:57","新北市新店區北新路一段155號","121.539835","24.9636016666667","6500600","新店區"
"231063","645-TV","2017/12/30 21:19:48","新北市新店區玫瑰路57巷23號","121.496546666667","24.9463516666667","6500600","新店區"
"241011","013-R5","2017/12/30 21:19:44","新北市三重區長壽街120巷113號","121.501818333333","25.0714166666667","6500200","三重區"
"241028","022-UY","2017/12/30 20:13:34","新北市三重區同安街101號","121.494686666667","25.056495","6500200","三重區"
"241008","059-VK","2017/12/30 21:19:52","新北市三重區文化北路132巷49號","121.49741","25.06656","6500200","三重區"
"241009","060-VK","2017/12/30 21:19:50","新北市三重區新北大道一段252號","121.480313333333","25.0616366666667","6500200","三重區"
"241031","061-VK","2017/12/30 21:19:47","新北市三重區五谷王南街46巷37號","121.475743333333","25.0455233333333","6500200","三重區"
"241017","063-VK","2017/12/30 21:19:43","新北市三重區中正北路25巷2號","121.493243333333","25.0626666666667","6500200","三重區"
"241024","065-VK","2017/12/30 21:19:51","新北市三重區中正北路145巷14號","121.484146666667","25.06778","6500200","三重區"
"241002","090-VK","2017/12/30 21:19:55","新北市三重區自強路五段109號","121.495721666667","25.0825433333333","6500200","三重區"
"241003","091-VK","2017/12/30 21:19:48","新北市三重區仁義街319號","121.495336666667","25.0843016666667","6500200","三重區"
"241026","156-TC","2017/12/30 21:19:37","新北市三重區大同南路220號","121.496816666667","25.05623","6500200","三重區"
"241005","262-UM","2017/12/30 21:19:40","新北市三重區集勇街19號","121.485093333333","25.0850633333333","6500200","三重區"
"241016","266-UM","2017/12/30 21:19:40","新北市三重區自強路一段184號","121.494968333333","25.0664216666667","6500200","三重區"
"241018","268-UM","2017/12/30 21:19:49","新北市三重區忠孝路二段95號","121.4843","25.06996","6500200","三重區"
"241032","269-UM","2017/12/30 21:19:56","新北市三重區光復路二段192號","121.470393333333","25.06308","6500200","三重區"
"241013","270-UM","2017/12/30 21:19:56","新北市三重區仁愛街83號","121.495963333333","25.0732566666667","6500200","三重區"
"241025","271-UM","2017/12/30 21:19:44","新北市三重區中正北路208巷10弄4號","121.482421666667","25.0668466666667","6500200","三重區"
"241007","398-BY","2017/12/30 21:19:40","新北市三重區忠孝路一段61號","121.490855","25.0719883333333","6500200","三重區"
"241004","475-VK","2017/12/30 21:19:50","新北市三重區碧華街213號","121.488685","25.0826766666667","6500200","三重區"
"241019","478-VK","2017/12/30 21:19:46","新北市三重區重陽路三段5巷2號","121.48932","25.0663316666667","6500200","三重區"
"241030","480-VK","2017/12/30 21:19:45","新北市三重區頂崁街23號","121.47627","25.0567216666667","6500200","三重區"
"241014","543-UM","2017/12/30 21:19:44","新北市三重區萬全街15號","121.499405","25.0696016666667","6500200","三重區"
"241023","545-UM","2017/12/30 21:19:48","新北市三重區中正北路176巷16號","121.482698333333","25.0659366666667","6500200","三重區"
"241006","AAD-863","2017/12/30 21:19:44","新北市三重區重陽路二段67號","121.487671666667","25.0638733333333","6500200","三重區"
"241012","941-UM","2017/12/30 21:19:43","新北市三重區龍門路237號","121.501941666667","25.0739483333333","6500200","三重區"
"241033","AAC-255","2017/12/30 21:19:57","新北市三重區光復路二段102巷26號","121.470771666667","25.0580033333333","6500200","三重區"
"235026","800-TS","2017/12/30 20:22:13","新北市中和區員山路36巷16-3號","121.484801666667","24.9914566666667","6500300","中和區"
"247022","893-R6","2017/12/30 21:19:41","新北市蘆洲區三民路222號","121.46872","25.089275","6501400","蘆洲區"
"247012","546-UM","2017/12/30 21:19:51","新北市蘆洲區民族路236巷8號","121.480361666667","25.0885366666667","6501400","蘆洲區"
"247020","500-BY","2017/12/30 21:19:42","新北市蘆洲區民族路422巷82弄2號","121.473613333333","25.093715","6501400","蘆洲區"
"247008","341-TH","2017/12/30 21:19:54","新北市蘆洲區中山一路97巷32弄5號","121.475631666667","25.0811966666667","6501400","蘆洲區"
"247010","339-TH","2017/12/30 21:19:42","新北市蘆洲區鷺江街23號","121.478888333333","25.08247","6501400","蘆洲區"
"247002","337-TH","2017/12/30 21:19:54","新北市蘆洲區永樂街57號","121.456701666667","25.08854","6501400","蘆洲區"
"247004","336-TH","2017/12/30 21:19:35","新北市蘆洲區永安南路二段322號","121.456998333333","25.0827416666667","6501400","蘆洲區"
"247006","056-VK","2017/12/30 21:19:47","新北市蘆洲區長安街61號","121.462873333333","25.0796783333333","6501400","蘆洲區"
"247014","007-UY","2017/12/30 21:19:36","新北市蘆洲區保和街50-5號","121.469778333333","25.0863366666667","6501400","蘆洲區"
"247024","002-UY","2017/12/30 21:19:49","新北市蘆洲區光明路98號","121.463148333333","25.0880016666667","6501400","蘆洲區"
"247018","001-UY","2017/12/30 21:19:37","新北市蘆洲區復興路105巷11號","121.476383333333","25.08838","6501400","蘆洲區"
"251009","008-UM","2017/12/30 21:19:53","新北市淡水區民族路82號","121.462405","25.1356066666667","6501000","淡水區"
"251004","009-UM","2017/12/30 20:23:30","新北市淡水區民權路183巷22號","121.460521666667","25.134015","6501000","淡水區"
"251001","011-UM","2017/12/30 21:19:55","新北市淡水區中山北路二段375號","121.444241666667","25.1869833333333","6501000","淡水區"
"251014","180-VK","2017/12/30 21:19:52","新北市淡水區六塊厝2-1號","121.450155","25.240475","6501000","淡水區"
"251008","181-VK","2017/12/30 21:19:49","新北市淡水區水源街二段222號","121.460073333333","25.176515","6501000","淡水區"
"251010","413-VK","2017/12/30 21:19:22","新北市淡水區中正路一段156巷51號","121.42186","25.180925","6501000","淡水區"
"251012","441-VK","2017/12/30 21:19:49","新北市淡水區石頭埔8號","121.452631666667","25.23458","6501000","淡水區"
"251016","442-VK","2017/12/30 21:19:40","新北市淡水區淡金路三段33號","121.446731666667","25.1978616666667","6501000","淡水區"
"251005","443-VK","2017/12/30 21:19:49","新北市淡水區仁愛街18巷10號","121.44701","25.17037","6501000","淡水區"
"251006","561-UM","2017/12/30 21:19:48","新北市淡水區中正路一段8巷1弄11號","121.428066666667","25.17559","6501000","淡水區"
"251011","650-BX","2017/12/30 21:19:56","新北市淡水區新民街120巷29號","121.438938333333","25.178805","6501000","淡水區"
"251002","672-BX","2017/12/30 21:19:49","新北市淡水區英專路151號","121.448361666667","25.1747966666667","6501000","淡水區"
"251003","766-UM","2017/12/30 21:19:44","新北市淡水區新春街91巷21號","121.438653333333","25.18327","6501000","淡水區"
"242036","133-UY","2017/12/30 21:19:37","新北市樹林區八德街435號","121.406405","24.9694683333333","6500500","新莊區"
"220101","245-BX","2017/12/30 21:19:40","新北市八里區商港路48號","121.395851666667","25.14505","6500100","板橋區"
"220080","461-BY","2017/12/30 09:06:25","新北市板橋區華東街1-9號","121.4481","24.994855","6500100","板橋區"
"220070","AAC-253","2017/12/30 21:19:36","新北市八里區下罟子6-1號","121.38646","25.142045","6500100","板橋區"
