"lineid","car","time","location","longitude","latitude","cityid","cityname"
"241031","653-BX","2017/08/15 09:59:21","新北市五股區成泰路二段250號","121.440543333333","25.0870566666667","6500200","三重區"
"222004","289-BY","2017/08/15 09:59:34","新北市深坑區文山路一段64號","121.623606666667","25.0005533333333","6501800","深坑區"
"231009","192-VK","2017/08/15 09:48:36","新北市新店區平廣路一段256號","121.507896666667","24.8882066666667","6500600","新店區"
"231007","719-UM","2017/08/15 09:59:52","新北市新店區新潭路三段215巷36號","121.50917","24.9041833333333","6500600","新店區"
"223007","661-BX","2017/08/15 09:59:51","新北市新店區薏仁坑路自強巷1號","121.497346666667","24.957715","6501900","石碇區"
"227006","282-VK","2017/08/15 09:45:10","新北市雙溪區長源里柑腳58-1號","121.794048333333","25.0066583333333","6502500","雙溪區"
"227012","030-BX","2017/08/15 09:57:37","新北市雙溪區泰平里料角坑38號","121.796086666667","24.9502","6502500","雙溪區"
"252004","249-BX","2017/08/15 09:59:35","新北市三芝區福德里土地公埔47號","121.5159","25.225515","6502100","三芝區"
"252007","AAC-283","2017/08/15 09:59:46","新北市三芝區新庄里新庄子57-4號","121.507771666667","25.2784583333333","6502100","三芝區"
