"lineid","car","time","location","longitude","latitude","cityid","cityname"
"241031","653-BX","2017/08/15 10:09:41","新北市五股區中興路四段17號","121.44046","25.0820966666667","6500200","三重區"
"231009","192-VK","2017/08/15 09:48:36","新北市新店區平廣路一段256號","121.507896666667","24.8882066666667","6500600","新店區"
"231007","719-UM","2017/08/15 10:09:52","新北市新店區新潭路三段215巷36號","121.509165","24.9041183333333","6500600","新店區"
"223007","661-BX","2017/08/15 10:09:51","新北市新店區薏仁坑路自強巷1號","121.496968333333","24.9581","6501900","石碇區"
"227006","282-VK","2017/08/15 09:45:10","新北市雙溪區長源里柑腳58-1號","121.794048333333","25.0066583333333","6502500","雙溪區"
"227012","030-BX","2017/08/15 10:08:37","新北市雙溪區泰平里烏山路15號","121.794563333333","24.9502833333333","6502500","雙溪區"
"252004","249-BX","2017/08/15 10:09:55","新北市三芝區福德里埔尾7號","121.503635","25.2462733333333","6502100","三芝區"
"252007","AAC-283","2017/08/15 10:09:46","新北市三芝區古庄里古庄99-7號","121.493806666667","25.2709666666667","6502100","三芝區"
