"lineid","car","time","location","longitude","latitude","cityid","cityname"
"234015","745-BX","2017/08/15 02:13:49","新北市永和區福和路1號","121.526441666667","25.00986","6500400","永和區"
"234076","969-R7","2017/08/15 12:18:56","新北市永和區福和路1號","121.526531666667","25.0097116666667","6500400","永和區"
"231009","192-VK","2017/08/15 12:19:05","新北市新店區頂石厝路72號","121.53534","24.91839","6500600","新店區"
"228004","212-TW","2017/08/15 12:19:05","新北市貢寮區貢寮里長泰路13-1號","121.897891666667","25.020575","6502600","貢寮區"
"228005","828-UM","2017/08/15 12:18:52","新北市貢寮區福連里香蘭街16-1號","121.983766666667","25.02146","6502600","貢寮區"
"252007","AAC-283","2017/08/15 10:47:35","新北市三芝區埔坪里埔頭坑41號","121.504476666667","25.2643933333333","6502100","三芝區"
"241031","276-VK","2017/08/15 12:18:56","新北市汐止區中正路223號","121.658083333333","25.0688333333333","6500200","三重區"
