"lineid","car","time","location","longitude","latitude","cityid","cityname"
"234044","148-BY","2017/08/15 12:58:55","新北市永和區得和路373巷16弄2號","121.525231666667","25.0000766666667","6500400","永和區"
"234012","149-BY","2017/08/15 12:59:00","新北市永和區信義路14-1號","121.514306666667","25.0121266666667","6500400","永和區"
"234005","207-UY","2017/08/15 12:59:01","新北市永和區中山路一段27號","121.513461666667","25.0104116666667","6500400","永和區"
"234078","298-R6","2017/08/15 12:59:01","新北市永和區永亨路70號","121.521271666667","25.005895","6500400","永和區"
"234036","336-UY","2017/08/15 12:58:54","新北市永和區民樂街98號","121.527298333333","24.9967516666667","6500400","永和區"
"234062","337-UY","2017/08/15 12:59:03","新北市永和區秀朗路一段198號","121.519351666667","25.0031816666667","6500400","永和區"
"234084","338-UY","2017/08/15 12:58:54","新北市永和區中正路397號","121.517205","25.0041566666667","6500400","永和區"
"234068","552-UM","2017/08/15 12:59:08","新北市永和區豫溪街95巷8號","121.518183333333","25.0107666666667","6500400","永和區"
"234052","553-UM","2017/08/15 12:58:56","新北市永和區竹林路66巷2號","121.51823","25.0134116666667","6500400","永和區"
"234015","745-BX","2017/08/15 12:58:51","新北市永和區永和路二段308號","121.516128333333","25.0160083333333","6500400","永和區"
"234028","746-BX","2017/08/15 12:58:57","新北市永和區四維街81號","121.524921666667","24.9980683333333","6500400","永和區"
"234060","AAD-866","2017/08/15 12:58:58","新北市永和區福和路313號","121.516181666667","25.00714","6500400","永和區"
"234040","862-TW","2017/08/15 12:58:51","新北市永和區永貞路265號","121.511746666667","25.0047216666667","6500400","永和區"
"234048","863-TW","2017/08/15 12:58:56","新北市永和區文化路194號","121.510791666667","25.01628","6500400","永和區"
"234025","9371-KE","2017/08/15 12:58:52","新北市永和區永和路一段45-1號","121.512876666667","25.0062666666667","6500400","永和區"
"234010","9373-KE","2017/08/15 12:59:12","新北市永和區文化路9巷22弄12號","121.51494","25.0146","6500400","永和區"
"248017","225-UY","2017/08/15 12:58:58","新北市五股區中興路二段83巷26-6號","121.460028333333","25.075205","6501500","五股區"
"234022","9380-KE","2017/08/15 12:58:53","新北市永和區竹林路73-1號","121.518826666667","25.0131516666667","6500400","永和區"
"234076","969-R7","2017/08/15 12:58:56","新北市永和區民享街12號","121.515278333333","24.9952983333333","6500400","永和區"
"234072","AAC-211","2017/08/15 12:59:06","新北市永和區福和路8巷3號","121.524978333333","25.0091483333333","6500400","永和區"
"234066","AAC-212","2017/08/15 12:59:11","新北市永和區中和路625號","121.512966666667","25.0049533333333","6500400","永和區"
"234001","AAC-295","2017/08/15 12:58:59","新北市永和區永平路36號","121.513066666667","25.0088166666667","6500400","永和區"
"244002","248-BX","2017/08/15 12:58:58","新北市林口區粉寮路19號","121.399838333333","25.082015","6501700","林口區"
"231002","002-UM","2017/08/15 12:59:09","新北市新店區安華路28-1號","121.519651666667","24.960885","6500600","新店區"
"231028","046-UY","2017/08/15 12:58:54","新北市新店區安華路28-1號","121.519581666667","24.9608266666667","6500600","新店區"
"231030","047-UY","2017/08/15 12:58:53","新北市新店區安華路28-1號","121.519263333333","24.9609316666667","6500600","新店區"
"231029","106-UY","2017/08/15 12:58:54","新北市新店區安華路28-1號","121.519823333333","24.960915","6500600","新店區"
"231012","108-UY","2017/08/15 12:58:49","新北市新店區安華路28-1號","121.519446666667","24.961115","6500600","新店區"
"231020","187-VK","2017/08/15 12:58:57","新北市新店區安華路28-1號","121.519733333333","24.9611366666667","6500600","新店區"
"231015","AAD-862","2017/08/15 12:59:01","新北市新店區安華路28-1號","121.51972","24.961275","6500600","新店區"
"231025","372-TH","2017/08/15 12:59:05","新北市新店區安華路28-1號","121.519306666667","24.961235","6500600","新店區"
"231038","4715-K9","2017/08/15 12:58:57","新北市新店區安華路28-1號","121.519503333333","24.9605516666667","6500600","新店區"
"231036","512-UM","2017/08/15 12:58:51","新北市新店區安華路28-1號","121.519426666667","24.9614183333333","6500600","新店區"
"231023","513-UM","2017/08/15 12:58:57","新北市新店區安華路28-1號","121.519631666667","24.9611066666667","6500600","新店區"
"231035","515-UM","2017/08/15 12:59:06","新北市新店區安華路28-1號","121.519635","24.9613016666667","6500600","新店區"
"231006","617-UM","2017/08/15 12:59:01","新北市新店區安華路28-1號","121.51982","24.9609283333333","6500600","新店區"
"231001","619-UM","2017/08/15 12:59:05","新北市新店區安華路28-1號","121.519633333333","24.96096","6500600","新店區"
"231013","719-UM","2017/08/15 12:58:54","新北市新店區安華路28-1號","121.51942","24.96109","6500600","新店區"
"231032","720-UM","2017/08/15 12:58:51","新北市新店區安華路28-1號","121.519293333333","24.9613183333333","6500600","新店區"
"231005","897-TW","2017/08/15 12:59:05","新北市新店區安華路28-1號","121.51987","24.9607033333333","6500600","新店區"
"231004","899-TW","2017/08/15 12:59:00","新北市新店區安華路28-1號","121.519333333333","24.9608983333333","6500600","新店區"
"231037","AKT-0513","2017/08/15 12:58:55","新北市新店區安華路28-1號","121.519588333333","24.9606033333333","6500600","新店區"
"235028","005-UY","2017/08/15 12:59:09","新北市中和區員山路36巷16-3號","121.485106666667","24.99132","6500300","中和區"
"235027","006-UY","2017/08/15 12:58:51","新北市中和區員山路36巷16-3號","121.484958333333","24.99124","6500300","中和區"
"235029","098-UM","2017/08/15 12:58:56","新北市中和區錦和路101號","121.490093333333","24.9953783333333","6500300","中和區"
"235022","151-BY","2017/08/15 12:59:07","新北市中和區和城路一段271巷1號","121.485396666667","24.9917983333333","6500300","中和區"
"235019","183-VK","2017/08/15 12:58:55","新北市中和區員山路36巷16-3號","121.485098333333","24.991405","6500300","中和區"
"235002","185-VK","2017/08/15 12:59:01","新北市中和區成功路88號","121.525935","24.9913216666667","6500300","中和區"
"235036","301-VK","2017/08/15 12:58:59","新北市中和區員山路36巷12號","121.483911666667","24.9910716666667","6500300","中和區"
"235025","378-QA","2017/08/14 20:41:12","新北市中和區員山路36巷13號","121.484211666667","24.99044","6500300","中和區"
"235026","800-TS","2017/08/15 12:59:01","新北市中和區錦和路142巷1號","121.489496666667","24.997355","6500300","中和區"
"235052","805-TS","2017/08/15 12:59:01","新北市中和區員山路36巷16號","121.484378333333","24.9914383333333","6500300","中和區"
"235035","911-UM","2017/08/15 12:59:04","新北市中和區連城路469巷3號","121.483681666667","24.9957983333333","6500300","中和區"
"235023","AAC-215","2017/08/15 12:59:10","新北市中和區員山路36巷16-3號","121.484976666667","24.9913466666667","6500300","中和區"
"228004","212-TW","2017/08/15 12:59:05","新北市貢寮區吉林里內寮街53號","121.886663333333","24.9864266666667","6502600","貢寮區"
"228005","828-UM","2017/08/15 12:58:52","新北市貢寮區福隆里桂安街17號","121.96611","25.022445","6502600","貢寮區"
"208004","AAC-292","2017/08/15 12:58:57","新北市金山區磺港里磺港路305號","121.642123333333","25.2276583333333","6502700","金山區"
"207002","749-BX","2017/08/15 12:58:53","新北市萬里區雙興里大坪路45-2號","121.627885","25.16925","6502800","萬里區"
"252001","292-VK","2017/08/15 12:59:05","新北市三芝區埔坪里埔頭坑107號","121.504628333333","25.2617","6502100","三芝區"
"207001","662-BX","2017/08/15 12:58:58","新北市萬里區萬里里獅頭路22-1號","121.693063333333","25.1782066666667","6502800","萬里區"
"252005","AAC-283","2017/08/15 12:59:01","新北市三芝區埔坪里埔頭坑41號","121.50452","25.2644583333333","6502100","三芝區"
"236006","498-BY","2017/08/15 12:59:09","新北市土城區亞洲路30號","121.436116666667","24.974275","6501300","土城區"
"241031","276-VK","2017/08/15 12:58:56","新北市汐止區信義路7號","121.661945","25.0693333333333","6500200","三重區"
"221032","280-BY","2017/08/15 12:59:07","新北市汐止區大同路二段423號","121.658626666667","25.0672766666667","6501100","汐止區"
"220030","282-UM","2017/08/15 12:58:55","新北市板橋區華東街1-10號","121.448756666667","24.9949433333333","6500100","板橋區"
"220009","293-UM","2017/08/15 12:58:59","新北市板橋區民生路二段56-1號","121.472368333333","25.0171233333333","6500100","板橋區"
