"lineid","car","time","location","longitude","latitude","cityid","cityname"
"231030","047-UY","2017/08/15 15:59:13","新北市新店區永平街8號","121.517375","24.9835516666667","6500600","新店區"
"231018","107-UY","2017/08/15 15:59:11","新北市新店區中正路663巷7弄15號","121.532915","24.9901066666667","6500600","新店區"
"231012","108-UY","2017/08/15 15:59:29","新北市新店區中央二街73-1號","121.525958333333","24.9748166666667","6500600","新店區"
"231034","268-BY","2017/08/15 15:59:15","新北市新店區吉祥街5巷2號","121.497311666667","24.9475883333333","6500600","新店區"
"231046","278-BY","2017/08/15 15:59:26","新北市新店區安華路28-1號","121.519646666667","24.961105","6500600","新店區"
"231015","AAD-862","2017/08/15 15:59:21","新北市新店區中正路284巷2號","121.538315","24.9747133333333","6500600","新店區"
"231038","4715-K9","2017/08/15 15:59:17","新北市新店區安康路二段183巷16號","121.50969","24.9585416666667","6500600","新店區"
"231035","515-UM","2017/08/15 15:59:26","新北市新店區安民街304號","121.517778333333","24.97381","6500600","新店區"
"231013","719-UM","2017/08/15 15:59:15","新北市新店區華潭街31號","121.529471666667","24.9551983333333","6500600","新店區"
"231037","AKT-0513","2017/08/15 15:58:55","新北市新店區吉安街34號","121.516038333333","24.966095","6500600","新店區"
"241011","013-R5","2017/08/15 15:59:12","新北市三重區雙園街1巷7號","121.497178333333","25.0683616666667","6500200","三重區"
"241028","022-UY","2017/08/15 15:59:16","新北市三重區電信街95號","121.495563333333","25.0582933333333","6500200","三重區"
"241031","061-VK","2017/08/15 15:59:29","新北市三重區重新路四段121號","121.484701666667","25.0520283333333","6500200","三重區"
"241017","063-VK","2017/08/15 15:59:29","新北市三重區大仁街48巷65號","121.49041","25.0643016666667","6500200","三重區"
"241024","065-VK","2017/08/15 15:59:27","新北市三重區中正北路145巷5弄14號","121.485213333333","25.0672583333333","6500200","三重區"
"241026","066-VK","2017/08/15 15:59:30","新北市三重區文化南路42號","121.500283333333","25.06016","6500200","三重區"
"241003","091-VK","2017/08/15 15:59:15","新北市三重區自強路五段112號","121.496988333333","25.08364","6500200","三重區"
"241006","156-TC","2017/08/15 15:59:27","新北市三重區力行路二段154號","121.482705","25.07622","6500200","三重區"
"241005","262-UM","2017/08/15 15:59:24","新北市三重區自強路四段76號","121.490386666667","25.07863","6500200","三重區"
"241016","266-UM","2017/08/15 15:59:28","新北市三重區捷運路35號","121.484686666667","25.0558466666667","6500200","三重區"
"241022","267-UM","2017/08/15 15:59:17","新北市三重區忠孝路三段40巷60號","121.483278333333","25.0655683333333","6500200","三重區"
"241018","268-UM","2017/08/15 15:59:15","新北市三重區中正北路33號","121.491461666667","25.06282","6500200","三重區"
"241013","270-UM","2017/08/15 15:59:22","新北市三重區三和路三段16巷25號","121.496236666667","25.07001","6500200","三重區"
"241025","271-UM","2017/08/15 15:59:25","新北市三重區三民街206號","121.481028333333","25.0662766666667","6500200","三重區"
"241007","398-BY","2017/08/15 15:59:17","新北市三重區忠孝路三段4號","121.481916666667","25.067585","6500200","三重區"
"241020","412-TH","2017/08/15 15:59:10","新北市三重區忠孝路二段53號","121.485321666667","25.0707883333333","6500200","三重區"
"241023","545-UM","2017/08/15 15:59:15","新北市三重區中正北路174號","121.483845","25.066585","6500200","三重區"
"241001","547-UM","2017/08/15 15:59:27","新北市三重區新北大道一段250號","121.480003333333","25.06097","6500200","三重區"
"241012","941-UM","2017/08/15 15:59:24","新北市三重區正義北路127號","121.4969","25.0661633333333","6500200","三重區"
"241029","942-UM","2017/08/15 15:59:25","新北市三重區大同南路238號","121.49696","25.05597","6500200","三重區"
"241033","AAC-255","2017/08/15 15:59:23","新北市三重區重新路五段447號","121.474443333333","25.047425","6500200","三重區"
"235064","005-UY","2017/08/15 15:58:56","新北市中和區員山路36巷16-3號","121.485041666667","24.991295","6500300","中和區"
"235026","800-TS","2017/08/15 15:59:19","新北市中和區永和路206號","121.491931666667","25.0073883333333","6500300","中和區"
"224007","273-VK","2017/08/15 15:59:26","新北市瑞芳區粗坑口路5號","121.761868333333","25.09766","6501200","瑞芳區"
"224005","271-BY","2017/08/15 15:59:10","新北市瑞芳區傑魚坑路183號","121.788503333333","25.10811","6501200","瑞芳區"
"227003","642-TC","2017/08/15 15:59:12","新北市雙溪區平林里外平林60號","121.845665","25.034845","6502500","雙溪區"
"227009","400-TW","2017/08/15 15:59:16","新北市雙溪區三港里雙澳路26號","121.86952","25.04832","6502500","雙溪區"
"236017","401-BY","2017/08/15 15:59:26","新北市土城區延吉街7巷1號","121.472068333333","24.9891066666667","6501300","土城區"
"236057","912-UM","2017/08/15 15:59:25","新北市土城區中央路二段261號","121.439853333333","24.9711383333333","6501300","土城區"
"241031","276-VK","2017/08/15 13:19:10","新北市汐止區汐萬路一段256巷3號","121.653445","25.07462","6500200","三重區"
