"lineid","car","time","location","longitude","latitude","cityid","cityname"
"249005","172-UM","2017/08/15 16:43:07","新北市八里區挖子尾街16號","121.415356666667","25.164415","6502300","八里區"
"249002","305-UY","2017/08/15 16:48:04","新北市八里區牛寮埔31號","121.429873333333","25.145765","6502300","八里區"
"249003","593-UM","2017/08/15 16:48:39","新北市八里區中山路二段306號","121.40462","25.1501133333333","6502300","八里區"
"244007","080-UY","2017/08/15 16:47:36","新北市林口區粉寮路二段1-1號","121.400338333333","25.0832966666667","6501700","林口區"
"231046","278-BY","2017/08/15 16:43:06","新北市新店區灣潭路15-14號","121.540053333333","24.9412716666667","6500600","新店區"
"241011","013-R5","2017/08/15 16:44:34","新北市三重區仁愛街53巷70號","121.4979","25.0722716666667","6500200","三重區"
"241028","022-UY","2017/08/15 16:35:56","新北市三重區中正南路42號","121.493925","25.0601166666667","6500200","三重區"
"241009","060-VK","2017/08/15 16:45:26","新北市三重區仁美街100號","121.485766666667","25.0805266666667","6500200","三重區"
"241031","061-VK","2017/08/15 16:45:29","新北市三重區重陽路一段123號","121.487128333333","25.0611366666667","6500200","三重區"
"241015","062-VK","2017/08/15 16:47:19","新北市三重區文化北路43巷18號","121.499385","25.065595","6500200","三重區"
"241017","063-VK","2017/08/15 16:45:29","新北市三重區中正北路25巷18-8號","121.493183333333","25.0631333333333","6500200","三重區"
"241024","065-VK","2017/08/15 16:46:27","新北市三重區中正北路317巷1號","121.474086666667","25.0719466666667","6500200","三重區"
"241026","066-VK","2017/08/15 16:43:30","新北市三重區和平街2-1號","121.500265","25.06267","6500200","三重區"
"241002","090-VK","2017/08/15 16:46:26","新北市三重區仁義街241巷47號","121.497433333333","25.08323","6500200","三重區"
"241003","091-VK","2017/08/15 16:34:55","新北市三重區五華街71巷110號","121.494783333333","25.0842483333333","6500200","三重區"
"241006","156-TC","2017/08/15 16:43:47","新北市三重區力行路二段121號","121.482906666667","25.0764383333333","6500200","三重區"
"241005","262-UM","2017/08/15 16:44:04","新北市三重區仁華街69號","121.484805","25.0828933333333","6500200","三重區"
"241008","265-UM","2017/08/15 16:38:04","新北市三重區永安北路一段27巷20號","121.477168333333","25.075585","6500200","三重區"
"241016","266-UM","2017/08/15 16:40:08","新北市三重區大智街1-1號","121.494736666667","25.0648716666667","6500200","三重區"
"241022","267-UM","2017/08/15 16:43:57","新北市三重區貴陽街20號","121.48417","25.0620066666667","6500200","三重區"
"241018","268-UM","2017/08/15 16:46:15","新北市三重區正義北路300-3號","121.495315","25.06989","6500200","三重區"
"241032","269-UM","2017/08/15 16:44:19","新北市三重區重陽路一段128號","121.486623333333","25.060385","6500200","三重區"
"241013","270-UM","2017/08/15 16:48:42","新北市三重區仁壽街26號","121.496993333333","25.07356","6500200","三重區"
"241025","271-UM","2017/08/15 16:47:19","新北市三重區中正北路530巷7-1號","121.471605","25.0709433333333","6500200","三重區"
"241007","398-BY","2017/08/15 16:40:37","新北市三重區三和路四段163巷83號","121.486138333333","25.0794266666667","6500200","三重區"
"241020","412-TH","2017/08/15 16:39:50","新北市三重區車路頭街70號","121.484326666667","25.0729466666667","6500200","三重區"
"241004","475-VK","2017/08/15 16:48:23","新北市三重區仁愛街418號","121.490425","25.08138","6500200","三重區"
"241019","478-VK","2017/08/15 16:47:49","新北市三重區忠孝路二段38巷18號","121.48572","25.0700316666667","6500200","三重區"
"241030","480-VK","2017/08/15 16:41:53","新北市三重區環河南路253號","121.491331666667","25.0504883333333","6500200","三重區"
"241014","543-UM","2017/08/15 16:44:13","新北市三重區長壽街136號","121.502633333333","25.06884","6500200","三重區"
"241023","545-UM","2017/08/15 16:47:55","新北市三重區中華路76巷37-1號","121.482063333333","25.0626083333333","6500200","三重區"
"241001","547-UM","2017/08/15 16:37:07","新北市三重區仁愛街266號","121.493115","25.0782716666667","6500200","三重區"
"241012","941-UM","2017/08/15 16:45:24","新北市三重區仁興街11巷3號","121.500036666667","25.0740966666667","6500200","三重區"
"241029","942-UM","2017/08/15 16:47:11","新北市三重區集美街207巷8號","121.492113333333","25.05433","6500200","三重區"
"241033","AAC-255","2017/08/15 16:45:56","新北市三重區光華路65號","121.466901666667","25.05994","6500200","三重區"
"235064","005-UY","2017/08/15 16:00:07","新北市中和區員山路36巷16-3號","121.485026666667","24.9912983333333","6500300","中和區"
"235062","800-TS","2017/08/15 16:42:59","新北市中和區員山路36巷16-3號","121.484991666667","24.9914616666667","6500300","中和區"
"247008","339-TH","2017/08/15 16:44:50","新北市蘆洲區中山二路45巷30號","121.474286666667","25.0812666666667","6501400","蘆洲區"
"247002","336-TH","2017/08/15 16:45:22","新北市五股區中興路三段2巷10號","121.448331666667","25.083485","6501400","蘆洲區"
"247006","335-TH","2017/08/15 16:48:13","新北市五股區中興路二段78-5號","121.461633333333","25.078545","6501400","蘆洲區"
"247014","057-VK","2017/08/15 16:46:37","新北市蘆洲區三民路91號","121.474141666667","25.0847266666667","6501400","蘆洲區"
"247004","056-VK","2017/08/15 16:48:57","新北市蘆洲區長榮路128號","121.461685","25.08427","6501400","蘆洲區"
"247016","001-UY","2017/08/15 16:47:49","新北市蘆洲區正和街3號","121.470398333333","25.082805","6501400","蘆洲區"
"228001","212-TW","2017/08/15 16:48:17","新北市貢寮區貢寮里朝陽街1-2號","121.912173333333","25.0212733333333","6502600","貢寮區"
"228002","663-BX","2017/08/15 16:48:11","新北市貢寮區貢寮里朝陽街120巷1號","121.908031666667","25.0229633333333","6502600","貢寮區"
"224006","676-BX","2017/08/15 16:31:22","新北市瑞芳區大寮路356-1號","121.784768333333","25.10325","6501200","瑞芳區"
"224008","275-VK","2017/08/15 16:48:25","新北市瑞芳區民權街3-1號","121.809358333333","25.1083466666667","6501200","瑞芳區"
"224007","273-VK","2017/08/15 16:26:26","新北市瑞芳區瑞竹路36巷39號","121.764061666667","25.1043616666667","6501200","瑞芳區"
"224005","271-BY","2017/08/15 16:32:50","新北市瑞芳區海濱路155-1號","121.82961","25.1220083333333","6501200","瑞芳區"
"227003","642-TC","2017/08/15 16:48:32","新北市雙溪區外柑里外柑腳71號","121.807103333333","25.0176116666667","6502500","雙溪區"
"227009","400-TW","2017/08/15 16:42:56","新北市雙溪區牡丹里中正路103號","121.861775","25.0473633333333","6502500","雙溪區"
"251014","180-VK","2017/08/15 16:47:18","新北市淡水區中山北路三段138號","121.444823333333","25.1951533333333","6501000","淡水區"
"251008","181-VK","2017/08/15 16:48:09","新北市淡水區樹梅坑9號","121.472715","25.1426916666667","6501000","淡水區"
"251010","413-VK","2017/08/15 16:47:57","新北市淡水區中正路二段31號","121.419491666667","25.1814816666667","6501000","淡水區"
"251016","442-VK","2017/08/15 16:47:24","新北市淡水區水頭42號","121.478121666667","25.1851183333333","6501000","淡水區"
"252002","178-VK","2017/08/15 16:47:10","新北市三芝區忠孝街162號","121.506246666667","25.258875","6502100","三芝區"
"252001","292-VK","2017/08/15 16:43:09","新北市三芝區茂長里陳厝坑2-1號","121.50826","25.2669466666667","6502100","三芝區"
"242039","400-BY","2017/08/15 16:48:39","新北市新莊區新泰路357巷3弄57號","121.442073333333","25.03949","6500500","新莊區"
"242061","362-BY","2017/08/15 16:48:51","新北市新莊區三和路12-21號","121.44212","25.0384983333333","6500500","新莊區"
"242044","172-VK","2017/08/15 13:37:30","新北市新莊區三和路12-21號","121.44206","25.0385283333333","6500500","新莊區"
"242011","346-TH","2017/08/15 16:47:47","新北市新莊區三和路12-18號","121.442043333333","25.0376466666667","6500500","新莊區"
"242017","348-TH","2017/08/15 16:48:28","新北市新莊區新泰路357巷3弄57號","121.44216","25.03964","6500500","新莊區"
"239007","AAC-297","2017/08/15 16:48:12","新北市鶯歌區二甲路13-16號","121.34495","24.9353783333333","6500800","鶯歌區"
"239005","526-UM","2017/08/15 16:47:51","新北市鶯歌區二甲路175號","121.345076666667","24.9356883333333","6500800","鶯歌區"
"239002","359-BY","2017/08/14 20:26:48","新北市鶯歌區環河路177-16號","121.345683333333","24.9355633333333","6500800","鶯歌區"
"239004","193-VK","2017/08/15 16:48:46","新北市鶯歌區環河路177-3號","121.346021666667","24.9352066666667","6500800","鶯歌區"
"241031","276-VK","2017/08/15 13:19:10","新北市汐止區汐萬路一段256巷3號","121.653445","25.07462","6500200","三重區"
