"lineid","car","time","location","longitude","latitude","cityid","cityname"
"234026","9371-KE","2017/08/15 18:09:16","新北市永和區秀朗路一段10巷21號","121.513308333333","25.0062783333333","6500400","永和區"
"234011","9373-KE","2017/08/15 18:09:15","新北市永和區福和路1號","121.5259","25.0092416666667","6500400","永和區"
"249005","172-UM","2017/08/15 16:50:35","新北市八里區挖子尾街6號","121.41544","25.1641916666667","6502300","八里區"
"249001","173-UM","2017/08/15 18:09:31","新北市八里區龍米路二段36號","121.448578333333","25.1402483333333","6502300","八里區"
"249004","303-UY","2017/08/15 18:09:16","新北市八里區龍米路二段200巷3號","121.433715","25.1587866666667","6502300","八里區"
"249002","305-UY","2017/08/15 18:09:25","新北市八里區龍米路一段356巷5號","121.452248333333","25.1312133333333","6502300","八里區"
"249003","593-UM","2017/08/15 18:09:13","新北市八里區中華路二段165巷19弄8號","121.409356666667","25.1511416666667","6502300","八里區"
"249005","759-BX","2017/08/15 18:09:30","新北市八里區荖阡坑路15號","121.4016","25.1400266666667","6502300","八里區"
"248006","077-UY","2017/08/15 18:09:30","新北市五股區中興路二段86號","121.46074","25.0773466666667","6501500","五股區"
"248008","095-VK","2017/08/15 18:09:17","新北市五股區更洲路32巷15弄9號","121.458181666667","25.0805116666667","6501500","五股區"
"248020","225-UY","2017/08/15 18:09:28","新北市五股區成泰路3段651-1號","121.452843333333","25.105505","6501500","五股區"
"248014","261-SL","2017/08/15 18:09:13","新北市五股區成泰路一段187號","121.435021666667","25.0765016666667","6501500","五股區"
"248010","272-BY","2017/08/15 18:09:24","新北市五股區成泰路一段212號","121.436363333333","25.079205","6501500","五股區"
"248004","677-BX","2017/08/15 18:09:25","新北市五股區成泰路二段63號","121.438033333333","25.0836033333333","6501500","五股區"
"248002","678-BX","2017/08/15 18:09:14","新北市五股區成泰路三段101-1號","121.44426","25.0900633333333","6501500","五股區"
"232011","375-UM","2017/08/15 18:09:17","新北市坪林區坪雙路一段56號","121.713951666667","24.942575","6502000","坪林區"
"244007","080-UY","2017/08/15 18:09:16","新北市林口區林口路124巷10弄11號","121.389306666667","25.0814716666667","6501700","林口區"
"244019","403-UM","2017/08/15 18:09:21","新北市林口區忠孝路528號","121.372355","25.0686083333333","6501700","林口區"
"244009","410-SL","2017/08/15 18:09:22","新北市林口區佳林路56巷6弄14號","121.385611666667","25.08224","6501700","林口區"
"244017","656-BX","2017/08/15 18:07:50","新北市林口區忠孝路502號","121.37075","25.0701166666667","6501700","林口區"
"244023","657-BX","2017/08/15 18:09:22","新北市林口區東湖路126號","121.384175","25.0734616666667","6501700","林口區"
"244013","658-BX","2017/08/15 18:09:24","新北市林口區中山路56號","121.394781666667","25.0785233333333","6501700","林口區"
"244011","701-TV","2017/08/15 18:09:23","新北市林口區中正路44號","121.395413333333","25.077545","6501700","林口區"
"244025","837-TS","2017/08/15 18:09:19","新北市林口區文明街182號","121.360823333333","25.072405","6501700","林口區"
"244021","838-TS","2017/08/15 18:09:23","新北市林口區自強九街22號","121.400586666667","25.0757333333333","6501700","林口區"
"243013","AAD-798","2017/08/15 18:08:06","新北市泰山區犁頭窠12-3號","121.421663333333","25.0566316666667","6501600","泰山區"
"222003","436-BY","2017/08/15 18:09:23","新北市深坑區腳坑2-3號","121.611303333333","24.9961966666667","6501800","深坑區"
"222002","659-BX","2017/08/15 18:09:15","新北市深坑區文化街42號","121.61912","25.00178","6501800","深坑區"
"222001","696-SL","2017/08/15 18:09:27","新北市深坑區北深路二段188號","121.614026666667","25.0021333333333","6501800","深坑區"
"231061","047-UY","2017/08/15 18:09:25","新北市新店區安華路28-1號","121.519285","24.9609933333333","6500600","新店區"
"231060","106-UY","2017/08/15 18:09:31","新北市新店區安華路28-1號","121.519693333333","24.9607883333333","6500600","新店區"
"231063","268-BY","2017/08/15 18:09:12","新北市新店區安華路1-1號","121.51934","24.96042","6500600","新店區"
"231046","278-BY","2017/08/15 18:09:26","新北市新店區直潭路113號","121.532338333333","24.9348266666667","6500600","新店區"
"231065","512-UM","2017/08/15 18:09:18","新北市新店區安華路28-1號","121.519301666667","24.9611133333333","6500600","新店區"
"231042","616-UM","2017/08/15 18:09:26","新北市新店區安華路1-1號","121.519391666667","24.9603633333333","6500600","新店區"
"231045","617-UM","2017/08/15 18:09:31","新北市新店區安華路28-1號","121.519451666667","24.9609416666667","6500600","新店區"
"231040","619-UM","2017/08/15 16:09:54","新北市新店區安華路28-1號","121.519476666667","24.960905","6500600","新店區"
"231044","897-TW","2017/08/15 18:09:23","新北市新店區安華路28-1號","121.519785","24.9606383333333","6500600","新店區"
"241024","065-VK","2017/08/15 18:09:27","新北市三重區中正北路193巷35弄23號","121.477066666667","25.0709816666667","6500200","三重區"
"241033","AAC-255","2017/08/15 18:09:16","新北市三重區中興北街56-1號","121.468978333333","25.0514766666667","6500200","三重區"
"235064","005-UY","2017/08/15 18:09:16","新北市中和區錦和路350-1號","121.49015","24.99355","6500300","中和區"
"235063","006-UY","2017/08/15 18:09:18","新北市中和區員山路36巷16-3號","121.484986666667","24.991215","6500300","中和區"
"235065","098-UM","2017/08/15 18:09:18","新北市中和區橋和路98號","121.490668333333","25.00546","6500300","中和區"
"235058","151-BY","2017/08/15 18:09:25","新北市中和區圓通路367巷33弄59號","121.495611666667","24.9861183333333","6500300","中和區"
"235038","185-VK","2017/08/15 18:09:33","新北市中和區景新街309號","121.51094","24.9924833333333","6500300","中和區"
"235067","255-BX","2017/08/15 18:09:31","新北市中和區和城路一段271巷1號","121.485536666667","24.9919266666667","6500300","中和區"
"235072","301-VK","2017/08/15 18:09:29","新北市中和區員山路36巷13號","121.48433","24.9907466666667","6500300","中和區"
"235051","376-QA","2017/08/15 18:09:21","新北市中和區中正路395號","121.489905","24.9935933333333","6500300","中和區"
"235061","378-QA","2017/08/15 18:09:23","新北市中和區中正路637巷52弄1號","121.485351666667","24.9939116666667","6500300","中和區"
"235050","4979-A6","2017/08/15 18:09:18","新北市中和區中正路305號","121.492548333333","24.9938316666667","6500300","中和區"
"235069","4980-A6","2017/08/15 18:08:22","新北市中和區景平路634-2號","121.50091","24.9983166666667","6500300","中和區"
"235042","551-UM","2017/08/15 18:09:31","新北市中和區景平路159巷29弄3號","121.512943333333","24.991335","6500300","中和區"
"235070","558-UM","2017/08/15 18:09:34","新北市中和區員山路36巷16-2號","121.485278333333","24.99167","6500300","中和區"
"235045","565-BX","2017/08/15 18:09:26","新北市中和區中正路637巷60弄61號","121.485453333333","24.99291","6500300","中和區"
"235054","640-BX","2017/08/15 18:09:17","新北市中和區中正路637巷52弄1號","121.485543333333","24.993395","6500300","中和區"
"235062","800-TS","2017/08/15 18:09:31","新北市中和區中正路828號","121.484968333333","25.0036716666667","6500300","中和區"
"235057","801-TS","2017/08/15 18:09:32","新北市中和區員山路36巷16-3號","121.484945","24.9914766666667","6500300","中和區"
"235052","805-TS","2017/08/15 18:09:26","新北市中和區中正路637巷52弄1號","121.485543333333","24.99351","6500300","中和區"
"235037","AAC-213","2017/08/15 18:09:16","新北市中和區中正路277號","121.495301666667","24.9937633333333","6500300","中和區"
"247012","007-UY","2017/08/15 18:09:33","新北市五股區孝義路11號","121.451261666667","25.1066133333333","6501400","蘆洲區"
"226004","205-ST","2017/08/15 18:09:14","新北市平溪區薯榔里薯榔寮23號","121.715485","25.0194733333333","6502400","平溪區"
"228001","212-TW","2017/08/15 18:09:17","新北市貢寮區真理里新港街26巷55弄2-1號","121.927375","25.0528516666667","6502600","貢寮區"
"228002","663-BX","2017/08/15 18:09:31","新北市貢寮區福連里馬崗街2-7號","121.9991","25.0139833333333","6502600","貢寮區"
"228003","828-UM","2017/08/15 18:09:27","新北市貢寮區真理里美艷山街6-2號","121.928863333333","25.0606966666667","6502600","貢寮區"
"224010","AGQ-8101","2017/08/15 09:01:21","新北市瑞芳區民權街3-1號","121.809453333333","25.108225","6501200","瑞芳區"
"224006","676-BX","2017/08/15 18:09:30","新北市瑞芳區中山路219號","121.800956666667","25.1067266666667","6501200","瑞芳區"
"224002","639-TC","2017/08/15 18:09:25","新北市瑞芳區三爪子坑路165-1號","121.810696666667","25.10582","6501200","瑞芳區"
"224011","420-VK","2017/08/15 18:07:35","新北市瑞芳區明燈路一段1號","121.827443333333","25.1095366666667","6501200","瑞芳區"
"224009","285-BY","2017/08/15 18:09:30","新北市瑞芳區金光路115號","121.853573333333","25.1062466666667","6501200","瑞芳區"
"224008","275-VK","2017/08/15 18:09:25","新北市瑞芳區三爪子坑路25號","121.813501666667","25.1075533333333","6501200","瑞芳區"
"224007","273-VK","2017/08/15 18:09:15","新北市瑞芳區四腳亭坑路2-7號","121.777575","25.1071483333333","6501200","瑞芳區"
"224005","271-BY","2017/08/15 18:09:10","新北市瑞芳區深澳路19號","121.816873333333","25.12916","6501200","瑞芳區"
"253006","032-BX","2017/08/15 18:09:29","新北市石門區老梅路52巷25弄2-1號","121.546991666667","25.286195","6502200","石門區"
"253005","295-VK","2017/08/15 18:09:28","新北市石門區福安街26號","121.568463333333","25.2920183333333","6502200","石門區"
"208002","742-BX","2017/08/15 18:09:11","新北市金山區三界壇路111巷26號","121.618505","25.2317416666667","6502700","金山區"
"208003","665-BX","2017/08/15 18:09:21","新北市金山區民生路25號","121.643843333333","25.22169","6502700","金山區"
"208001","761-BX","2017/08/15 18:09:24","新北市金山區磺港里磺港路110號","121.64636","25.226805","6502700","金山區"
"251004","009-UM","2017/08/15 18:09:25","新北市淡水區民族路45號","121.462666666667","25.1353833333333","6501000","淡水區"
"251005","010-UM","2017/08/15 18:09:19","新北市淡水區水源街一段141號","121.447246666667","25.1718816666667","6501000","淡水區"
"251014","180-VK","2017/08/15 18:09:18","新北市淡水區南平14-2號","121.485738333333","25.22077","6501000","淡水區"
"251008","181-VK","2017/08/15 18:09:29","新北市淡水區淡金路2號","121.457891666667","25.1586783333333","6501000","淡水區"
"251010","413-VK","2017/08/15 18:09:16","新北市淡水區中正路二段52號","121.419821666667","25.1833583333333","6501000","淡水區"
"251012","441-VK","2017/08/15 18:09:27","新北市淡水區北新路三段173號","121.492473333333","25.1921733333333","6501000","淡水區"
"251016","442-VK","2017/08/15 18:08:03","新北市淡水區淡金路三段46巷54號","121.45026","25.20001","6501000","淡水區"
"251001","559-UM","2017/08/15 18:09:26","新北市淡水區自立路8號","121.46278","25.12949","6501000","淡水區"
"251006","561-UM","2017/08/15 18:09:25","新北市淡水區新民街74號","121.438748333333","25.1764416666667","6501000","淡水區"
"251009","575-R6","2017/08/15 18:09:14","新北市淡水區大忠街34巷23號","121.444376666667","25.1758166666667","6501000","淡水區"
"251011","650-BX","2017/08/15 18:09:15","新北市淡水區三空泉9-2號","121.474168333333","25.1634633333333","6501000","淡水區"
"251002","672-BX","2017/08/15 18:08:53","新北市淡水區中正東路一段36號","121.452606666667","25.1622783333333","6501000","淡水區"
"251003","673-BX","2017/08/15 18:09:18","新北市淡水區北新路182巷28號","121.448906666667","25.177795","6501000","淡水區"
"207003","550-UM","2017/08/15 18:09:18","新北市萬里區野柳里港西路68-3號","121.685233333333","25.20453","6502800","萬里區"
"207004","225-TW","2017/08/15 18:09:12","新北市萬里區中幅里中福路93號","121.675935","25.16966","6502800","萬里區"
"252002","178-VK","2017/08/15 18:09:30","新北市三芝區中山路二段38號","121.502978333333","25.2551166666667","6502100","三芝區"
"252003","249-BX","2017/08/15 18:09:24","新北市三芝區埔頭里埔頭37號","121.498513333333","25.2603216666667","6502100","三芝區"
"252001","292-VK","2017/08/15 18:09:29","新北市三芝區中興街二段2號","121.498313333333","25.2566766666667","6502100","三芝區"
"237004","078-UY","2017/08/15 18:09:30","新北市三峽區圳頭40號","121.376386666667","24.8851966666667","6500900","三峽區"
"237007","153-BY","2017/08/15 18:09:17","新北市三峽區中正路二段399號","121.364838333333","24.9076633333333","6500900","三峽區"
"237009","210-TH","2017/08/15 18:09:25","新北市三峽區大仁路61號","121.365158333333","24.9374033333333","6500900","三峽區"
"237013","252-BX","2017/08/15 18:09:30","新北市三峽區長泰街33巷14弄9號","121.377211666667","24.9319366666667","6500900","三峽區"
"237012","275-BY","2017/08/15 18:09:30","新北市三峽區民生街19巷7弄36-4號","121.377358333333","24.93548","6500900","三峽區"
"237008","302-VK","2017/08/15 18:09:16","新北市三峽區白雞44-49號","121.378135","24.9101216666667","6500900","三峽區"
"237014","433-BY","2017/08/15 18:09:19","新北市三峽區復興路159號","121.370538333333","24.9382983333333","6500900","三峽區"
"237006","5529-G3","2017/08/15 18:09:19","新北市三峽區溪東路178巷13弄10號","121.406191666667","24.9321983333333","6500900","三峽區"
"237011","572-TV","2017/08/15 18:09:24","新北市三峽區溪東路107號","121.402031666667","24.9344433333333","6500900","三峽區"
"237016","649-BX","2017/08/15 18:09:16","新北市三峽區紫新路36巷1號","121.42197","24.9223216666667","6500900","三峽區"
"237010","706-TV","2017/08/15 18:09:27","新北市三峽區民族街147號","121.369033333333","24.9281466666667","6500900","三峽區"
"237005","AKY-6261","2017/08/15 18:09:31","新北市三峽區忠孝街23號","121.37089","24.9341366666667","6500900","三峽區"
"236070","105-UM","2017/08/15 18:09:30","新北市土城區明德路一段273號","121.461176666667","24.9775733333333","6501300","土城區"
"236043","107-UM","2017/08/15 18:09:29","新北市土城區裕生路82巷2號","121.447471666667","24.9860066666667","6501300","土城區"
"236079","166-UM","2017/08/15 18:09:26","新北市土城區永安街97號","121.43006","24.96417","6501300","土城區"
"236031","253-BX","2017/08/15 18:09:21","新北市土城區城林路6巷80號","121.438421666667","24.979905","6501300","土城區"
"236027","269-VK","2017/08/15 18:09:25","新北市土城區承天路18號","121.439361666667","24.9635833333333","6501300","土城區"
"236015","270-VK","2017/08/15 18:09:18","新北市土城區學府路一段150號","121.45464","24.9869283333333","6501300","土城區"
"236038","271-VK","2017/08/15 18:09:21","新北市土城區青雲路453號","121.458885","24.9745916666667","6501300","土城區"
"236023","401-BY","2017/08/15 18:09:24","新北市土城區城林路6巷80號","121.438758333333","24.97987","6501300","土城區"
"236059","912-UM","2017/08/15 18:09:30","新北市土城區中央路四段128-1號","121.417811666667","24.9587633333333","6501300","土城區"
"236049","913-UM","2017/08/15 18:09:20","新北市土城區明德路一段398-1號","121.453548333333","24.9791116666667","6501300","土城區"
"236063","915-UM","2017/08/15 18:09:26","新北市土城區中正路69號","121.44466","24.9757066666667","6501300","土城區"
"236055","AAC-216","2017/08/15 18:09:20","新北市土城區中華路二段52號","121.439141666667","24.9775533333333","6501300","土城區"
"242021","AAC-296","2017/08/15 18:09:13","新北市新莊區建興街41巷1號","121.449998333333","25.0371566666667","6500500","新莊區"
"242029","986-R7","2017/08/15 18:09:24","新北市新莊區中平路110巷26號","121.446036666667","25.04547","6500500","新莊區"
"242048","751-BX","2017/08/15 18:09:18","新北市新莊區萬安街3號","121.421758333333","25.025015","6500500","新莊區"
"242025","615-BX","2017/08/15 18:09:26","新北市新莊區五權一路13-3號","121.459873333333","25.068145","6500500","新莊區"
"242023","613-BX","2017/08/15 18:09:30","新北市新莊區幸福路834號","121.445236666667","25.049075","6500500","新莊區"
"242027","612-BX","2017/08/15 18:09:16","新北市新莊區幸福路511號","121.455745","25.0493266666667","6500500","新莊區"
"242037","566-BX","2017/08/15 18:09:24","新北市新莊區建福路48巷5號","121.426155","25.027425","6500500","新莊區"
"242042","497-BY","2017/08/15 18:09:21","新北市新莊區天祥街121巷10號","121.41425","25.0293433333333","6500500","新莊區"
"242005","442-UM","2017/08/15 18:09:16","新北市新莊區自立街80號","121.454465","25.0453516666667","6500500","新莊區"
"242046","441-UM","2017/08/15 18:09:20","新北市新莊區中正路651-8號","121.430066666667","25.03009","6500500","新莊區"
"242051","440-UM","2017/08/15 18:09:28","新北市新莊區民本街23巷19號","121.429131666667","25.0198566666667","6500500","新莊區"
"242032","415-TV","2017/08/15 18:09:13","新北市新莊區新泰路277巷47號","121.44388","25.04012","6500500","新莊區"
"242002","413-TV","2017/08/15 18:09:31","新北市新莊區新莊路1號","121.459386666667","25.0378833333333","6500500","新莊區"
"242039","400-BY","2017/08/15 18:09:19","新北市新莊區民安東路52-1號","121.429821666667","25.0208216666667","6500500","新莊區"
"242061","362-BY","2017/08/15 18:09:11","新北市新莊區新樹路226號","121.433565","25.019905","6500500","新莊區"
"242058","353-BY","2017/08/15 18:09:16","新北市新莊區壽山路49-4號","121.414331666667","25.0308666666667","6500500","新莊區"
"242015","132-UY","2017/08/15 18:09:29","新北市新莊區中和街59巷10弄14號","121.446888333333","25.047165","6500500","新莊區"
"242034","133-UY","2017/08/15 18:09:22","新北市新莊區新豐街68巷5號","121.446368333333","25.0338983333333","6500500","新莊區"
"242019","135-UY","2017/08/15 18:09:31","新北市新莊區民樂街20巷2號","121.457735","25.040225","6500500","新莊區"
"242044","172-VK","2017/08/15 18:09:29","新北市新莊區天泉二街1號","121.41529","25.0246266666667","6500500","新莊區"
"242007","173-VK","2017/08/15 18:09:30","新北市新莊區自強街23巷9號","121.454048333333","25.04629","6500500","新莊區"
"242056","176-VK","2017/08/15 18:09:28","新北市新莊區豐年街55-10號","121.446675","25.030745","6500500","新莊區"
"242011","346-TH","2017/08/15 18:09:27","新北市新莊區中榮街33號","121.450141666667","25.052765","6500500","新莊區"
"242013","347-TH","2017/08/15 18:09:31","新北市新莊區幸福路827號","121.445105","25.04906","6500500","新莊區"
"242017","348-TH","2017/08/15 18:09:28","新北市新莊區永樂街152號","121.449061666667","25.0447683333333","6500500","新莊區"
"242054","349-TH","2017/08/15 18:09:32","新北市新莊區民安西路321號","121.42742","25.0112316666667","6500500","新莊區"
"242009","351-TH","2017/08/15 18:09:24","新北市新莊區中華路二段181號","121.45271","25.0522633333333","6500500","新莊區"
"238015","755-BX","2017/08/15 18:09:22","新北市樹林區大安路438號","121.415131666667","24.9885383333333","6500700","樹林區"
"238023","601-UM","2017/08/15 18:09:31","新北市樹林區龍興街55號","121.40323","25.0152883333333","6500700","樹林區"
"238019","599-UM","2017/08/15 18:09:21","新北市樹林區水源街27號","121.425306666667","24.9824716666667","6500700","樹林區"
"238018","571-TV","2017/08/15 18:09:24","新北市樹林區中正路7-1號","121.430498333333","24.9974166666667","6500700","樹林區"
"238022","312-TH","2017/08/15 18:09:18","新北市樹林區太平路150巷74號","121.417031666667","24.97729","6500700","樹林區"
"238021","311-TH","2017/08/14 21:04:52","新北市樹林區中山路三段204號","121.387111666667","24.968275","6500700","樹林區"
"238025","303-VK","2017/08/15 18:09:26","新北市樹林區保安街二段163號","121.415296666667","25.0028366666667","6500700","樹林區"
"238017","283-BY","2017/08/15 18:09:25","新北市樹林區中正路865號","121.408755","25.0182033333333","6500700","樹林區"
"238014","282-BY","2017/08/15 18:09:25","新北市樹林區潭興街57號","121.4241","24.998175","6500700","樹林區"
"238020","268-VK","2017/08/15 17:12:11","新北市樹林區中山路三段204號","121.386853333333","24.96876","6500700","樹林區"
"238026","172-UY","2017/08/15 18:09:15","新北市樹林區育德街57號","121.391338333333","24.970185","6500700","樹林區"
"238016","169-UY","2017/08/15 18:09:20","新北市樹林區日新街172巷8號","121.41971","24.9882933333333","6500700","樹林區"
"239007","AAC-297","2017/08/15 18:09:12","新北市鶯歌區尖山埔路129號","121.346725","24.951155","6500800","鶯歌區"
"239006","891-R6","2017/08/15 18:09:31","新北市鶯歌區鶯桃路377號","121.333761666667","24.963175","6500800","鶯歌區"
"239008","527-UM","2017/08/15 18:09:30","新北市鶯歌區國際一路179號","121.336218333333","24.9765383333333","6500800","鶯歌區"
"239005","526-UM","2017/08/15 18:09:31","新北市鶯歌區鶯桃路668巷73號","121.329878333333","24.9717916666667","6500800","鶯歌區"
"239001","417-VK","2017/08/15 18:09:23","新北市鶯歌區高職東街3巷18號","121.339951666667","24.9423733333333","6500800","鶯歌區"
"239003","360-BY","2017/08/15 18:09:22","新北市鶯歌區福安街58號","121.335571666667","24.9651916666667","6500800","鶯歌區"
"239002","359-BY","2017/08/15 18:09:26","新北市鶯歌區國慶街100號","121.350386666667","24.9544283333333","6500800","鶯歌區"
"239004","193-VK","2017/08/15 18:09:25","新北市鶯歌區尖山路137巷5弄2衖18號","121.347648333333","24.94801","6500800","鶯歌區"
"221008","489-VK","2017/08/15 18:09:32","新北市汐止區明峰街206號","121.627581666667","25.0692233333333","6501100","汐止區"
"221036","130-UY","2017/08/15 18:09:16","新北市汐止區大同路三段101號","121.668308333333","25.0775116666667","6501100","汐止區"
"221015","131-UY","2017/08/15 18:09:16","新北市汐止區鄉長路二段90-1號","121.66604","25.0854866666667","6501100","汐止區"
"221010","269-BY","2017/08/15 18:09:25","新北市汐止區汐萬路二段275巷1弄2號","121.645593333333","25.0888783333333","6501100","汐止區"
"241031","276-VK","2017/08/15 13:19:10","新北市汐止區汐萬路一段256巷3號","121.653445","25.07462","6500200","三重區"
"221012","278-VK","2017/08/15 18:09:02","新北市汐止區保長路35巷36號","121.673923333333","25.08014","6501100","汐止區"
"221023","279-VK","2017/08/15 17:54:52","新北市汐止區民族一街1-1號","121.634863333333","25.0708733333333","6501100","汐止區"
"221032","280-BY","2017/08/15 18:09:31","新北市汐止區力行街16號","121.617021666667","25.0508116666667","6501100","汐止區"
"221027","281-BY","2017/08/15 18:09:32","新北市汐止區中正路7號","121.663196666667","25.0699666666667","6501100","汐止區"
"221038","297-VK","2017/08/15 18:09:27","新北市汐止區南興路83巷6號","121.653241666667","25.05904","6501100","汐止區"
"221029","298-VK","2017/08/15 18:09:13","新北市汐止區樟樹二路134號","121.639983333333","25.0656616666667","6501100","汐止區"
"221021","299-VK","2017/08/15 17:29:02","新北市汐止區汐萬路一段256巷3號","121.652291666667","25.07526","6501100","汐止區"
"221031","353-TW","2017/08/15 18:09:18","新北市汐止區中興路216號","121.630955","25.06633","6501100","汐止區"
"221035","622-UM","2017/08/15 18:09:33","新北市汐止區汐萬路一段2號","121.656286666667","25.06709","6501100","汐止區"
"221025","623-UM","2017/08/15 18:09:24","新北市汐止區秀峰路151巷1號","121.660725","25.0619933333333","6501100","汐止區"
"221033","647-BX","2017/08/15 18:09:14","新北市汐止區宜興街10巷19號","121.621858333333","25.0407733333333","6501100","汐止區"
"221002","707-TV","2017/08/15 18:09:30","新北市汐止區福德一路207號","121.635138333333","25.065585","6501100","汐止區"
"221018","753-BX","2017/08/15 18:09:12","新北市汐止區忠孝東路346號","121.665425","25.0698883333333","6501100","汐止區"
