"lineid","car","time","location","longitude","latitude","cityid","cityname"
"234086","338-UY","2017/08/15 18:13:20","新北市永和區福和路1號","121.52655","25.009615","6500400","永和區"
"234026","9371-KE","2017/08/15 18:13:16","新北市永和區福和路362號","121.514681666667","25.0077433333333","6500400","永和區"
"234011","9373-KE","2017/08/15 18:13:15","新北市永和區豫溪街217巷1號","121.525255","25.0097966666667","6500400","永和區"
"249005","172-UM","2017/08/15 16:50:35","新北市八里區挖子尾街6號","121.41544","25.1641916666667","6502300","八里區"
"249001","173-UM","2017/08/15 18:13:15","新北市八里區龍米路一段251號","121.45104","25.1333316666667","6502300","八里區"
"249004","303-UY","2017/08/15 18:13:16","新北市八里區龍米路二段230-2號","121.431663333333","25.1586383333333","6502300","八里區"
"249002","305-UY","2017/08/15 18:13:25","新北市八里區龍形一街3號","121.450711666667","25.13069","6502300","八里區"
"249003","593-UM","2017/08/15 18:13:13","新北市八里區中華路二段466-1號","121.400848333333","25.146135","6502300","八里區"
"249005","759-BX","2017/08/15 18:13:10","新北市八里區荖阡坑路15號","121.401593333333","25.14003","6502300","八里區"
"248016","026-BX","2017/08/15 18:13:26","新北市五股區成泰路三段221巷18號","121.445751666667","25.0934666666667","6501500","五股區"
"248006","077-UY","2017/08/15 18:13:10","新北市五股區中興路二段53號","121.46181","25.0765083333333","6501500","五股區"
"248008","095-VK","2017/08/15 18:13:17","新北市五股區更洲路32巷8弄14號","121.459263333333","25.0796233333333","6501500","五股區"
"248020","225-UY","2017/08/15 18:13:08","新北市五股區孝義路32-1號","121.45316","25.1089516666667","6501500","五股區"
"248014","261-SL","2017/08/15 18:13:13","新北市五股區成泰路一段191號","121.43483","25.0766133333333","6501500","五股區"
"248010","272-BY","2017/08/15 18:13:24","新北市五股區成泰路一段189巷20-1號","121.433273333333","25.0767516666667","6501500","五股區"
"248004","677-BX","2017/08/15 18:13:25","新北市五股區中興路四段56號","121.437771666667","25.0830966666667","6501500","五股區"
"248002","678-BX","2017/08/15 18:13:14","新北市五股區西雲路16號","121.443031666667","25.09033","6501500","五股區"
"232011","375-UM","2017/08/15 18:13:17","新北市坪林區坪雙路一段43號","121.711756666667","24.942425","6502000","坪林區"
"244007","080-UY","2017/08/15 18:13:16","新北市林口區林口路113巷57號","121.387755","25.0796483333333","6501700","林口區"
"244019","403-UM","2017/08/15 18:13:21","新北市林口區忠孝路542巷11弄2號","121.373075","25.0669866666667","6501700","林口區"
"244009","410-SL","2017/08/15 18:13:22","新北市林口區竹林路614號","121.386498333333","25.08244","6501700","林口區"
"244017","656-BX","2017/08/15 18:13:30","新北市林口區忠孝路508號","121.370935","25.0698866666667","6501700","林口區"
"244023","657-BX","2017/08/15 18:13:22","新北市林口區東湖路117巷22號","121.383305","25.0724483333333","6501700","林口區"
"244013","658-BX","2017/08/15 18:13:25","新北市林口區中山路148號","121.39126","25.078735","6501700","林口區"
"244011","701-TV","2017/08/15 18:13:23","新北市林口區中正路74巷5弄4號","121.39452","25.0780266666667","6501700","林口區"
"244025","837-TS","2017/08/15 18:13:19","新北市林口區文化北路一段301-1號","121.360133333333","25.0729516666667","6501700","林口區"
"244021","838-TS","2017/08/15 18:13:25","新北市林口區自強一街72號","121.39999","25.0769033333333","6501700","林口區"
"243013","AAD-798","2017/08/15 18:13:25","新北市泰山區南林路99巷21號","121.417768333333","25.0497366666667","6501600","泰山區"
"222003","436-BY","2017/08/15 18:13:23","新北市深坑區阿柔洋35號","121.613705","24.9981116666667","6501800","深坑區"
"222002","659-BX","2017/08/15 18:13:15","新北市深坑區文化街30號","121.619773333333","25.0015433333333","6501800","深坑區"
"222001","696-SL","2017/08/15 18:13:27","新北市深坑區北深路二段115號","121.61695","25.0032466666667","6501800","深坑區"
"231041","002-UM","2017/08/15 18:13:23","新北市新店區安華路28-1號","121.519738333333","24.9607583333333","6500600","新店區"
"231061","047-UY","2017/08/15 18:13:25","新北市新店區安華路28-1號","121.519251666667","24.9609216666667","6500600","新店區"
"231060","106-UY","2017/08/15 18:13:31","新北市新店區安華路28-1號","121.519668333333","24.9607933333333","6500600","新店區"
"231053","187-VK","2017/08/15 18:13:20","新北市新店區安華路28-1號","121.519538333333","24.9611016666667","6500600","新店區"
"231063","268-BY","2017/08/15 18:13:12","新北市新店區安華路1-1號","121.519345","24.9604266666667","6500600","新店區"
"231046","278-BY","2017/08/15 18:13:26","新北市新店區直潭七街60號","121.532258333333","24.939905","6500600","新店區"
"231058","3712-VJ","2017/08/15 18:13:20","新北市新店區安華路28-1號","121.5197","24.9610816666667","6500600","新店區"
"231055","3713-VJ","2017/08/15 18:13:17","新北市新店區安華路28-1號","121.519196666667","24.9606616666667","6500600","新店區"
"231065","512-UM","2017/08/15 18:13:19","新北市新店區安華路28-1號","121.519591666667","24.96114","6500600","新店區"
"231042","616-UM","2017/08/15 18:13:26","新北市新店區安華路1-1號","121.519413333333","24.960385","6500600","新店區"
"231045","617-UM","2017/08/15 18:13:31","新北市新店區安華路28-1號","121.519471666667","24.9608566666667","6500600","新店區"
"231040","619-UM","2017/08/15 16:09:54","新北市新店區安華路28-1號","121.519476666667","24.960905","6500600","新店區"
"231062","720-UM","2017/08/15 18:13:22","新北市新店區安華路28-1號","121.519265","24.9612766666667","6500600","新店區"
"231044","897-TW","2017/08/15 18:13:23","新北市新店區安華路28-1號","121.519843333333","24.9606866666667","6500600","新店區"
"241033","AAC-255","2017/08/15 18:13:16","新北市三重區中興北街42巷41號","121.467735","25.0492983333333","6500200","三重區"
"235064","005-UY","2017/08/15 18:13:16","新北市中和區中正路277-6號","121.495061666667","24.9937416666667","6500300","中和區"
"235063","006-UY","2017/08/15 18:13:18","新北市中和區員山路36巷16-3號","121.48498","24.99122","6500300","中和區"
"235039","097-UM","2017/08/15 18:13:22","新北市中和區和城路一段271巷1號","121.485518333333","24.99194","6500300","中和區"
"235065","098-UM","2017/08/15 18:13:18","新北市中和區勝利路1號","121.500095","25.00814","6500300","中和區"
"235058","151-BY","2017/08/15 18:13:25","新北市中和區圓通路367巷33弄33號","121.49461","24.98541","6500300","中和區"
"235038","185-VK","2017/08/15 18:13:13","新北市中和區景平路116號","121.519485","24.99181","6500300","中和區"
"235067","255-BX","2017/08/15 18:13:11","新北市中和區和城路一段271巷1號","121.485528333333","24.9919266666667","6500300","中和區"
"235072","301-VK","2017/08/15 18:13:09","新北市中和區員山路36巷13號","121.48432","24.99075","6500300","中和區"
"235043","352-BY","2017/08/15 18:13:26","新北市中和區錦和路350-1號","121.490376666667","24.9935833333333","6500300","中和區"
"235051","376-QA","2017/08/15 18:13:21","新北市中和區中正路305號","121.492513333333","24.9937816666667","6500300","中和區"
"235061","378-QA","2017/08/15 18:13:23","新北市中和區連城路526-1號","121.476096666667","24.9916783333333","6500300","中和區"
"235050","4979-A6","2017/08/15 18:10:18","新北市中和區中正路305號","121.492566666667","24.9938466666667","6500300","中和區"
"235069","4980-A6","2017/08/15 18:13:22","新北市中和區連城路137號","121.495813333333","24.9989033333333","6500300","中和區"
"235042","551-UM","2017/08/15 18:13:11","新北市中和區景平路296號","121.513018333333","24.9925316666667","6500300","中和區"
"235070","558-UM","2017/08/15 18:13:14","新北市中和區員山路36巷16-2號","121.485225","24.9917216666667","6500300","中和區"
"235045","565-BX","2017/08/15 18:13:26","新北市中和區中正路434號","121.491381666667","24.9936016666667","6500300","中和區"
"235054","640-BX","2017/08/15 18:13:17","新北市中和區連城路518巷1號","121.476823333333","24.9920183333333","6500300","中和區"
"235047","732-UM","2017/08/15 18:13:20","新北市中和區員山路36巷13號","121.48418","24.990785","6500300","中和區"
"235062","800-TS","2017/08/15 18:13:31","新北市中和區橋和路2-1號","121.488363333333","25.005015","6500300","中和區"
"235057","801-TS","2017/08/15 18:13:13","新北市中和區中正路637巷60弄61號","121.485466666667","24.99316","6500300","中和區"
"235052","805-TS","2017/08/15 18:13:26","新北市中和區錦和路350-1號","121.490816666667","24.9936133333333","6500300","中和區"
"235053","900-TW","2017/08/15 18:13:27","新北市中和區員山路36巷16-2號","121.485023333333","24.9918083333333","6500300","中和區"
"235037","AAC-213","2017/08/15 18:13:15","新北市中和區景平路239巷3號","121.510028333333","24.99275","6500300","中和區"
"247012","007-UY","2017/08/15 18:11:53","新北市五股區中直路17-4號","121.422561666667","25.111405","6501400","蘆洲區"
"226004","205-ST","2017/08/15 18:12:54","新北市平溪區靜安路二段3巷61號","121.706461666667","25.0185716666667","6502400","平溪區"
"228001","212-TW","2017/08/15 18:13:17","新北市貢寮區真理里新港街26巷55弄2-1號","121.927378333333","25.0528516666667","6502600","貢寮區"
"228002","663-BX","2017/08/15 18:13:31","新北市貢寮區福連里馬崗街22號","122.002778333333","25.0137666666667","6502600","貢寮區"
"228003","828-UM","2017/08/15 18:13:27","新北市貢寮區真理里美艷山街6-2號","121.928873333333","25.06069","6502600","貢寮區"
"224010","AGQ-8101","2017/08/15 09:01:21","新北市瑞芳區民權街3-1號","121.809453333333","25.108225","6501200","瑞芳區"
"224006","676-BX","2017/08/15 18:13:09","新北市瑞芳區中正路23號","121.80808","25.1070616666667","6501200","瑞芳區"
"224002","639-TC","2017/08/15 18:13:25","新北市瑞芳區三爪子坑路149巷20號","121.811241666667","25.1064916666667","6501200","瑞芳區"
"224011","420-VK","2017/08/15 18:13:15","新北市瑞芳區輕便路30號","121.846178333333","25.1107883333333","6501200","瑞芳區"
"224009","285-BY","2017/08/15 18:13:10","新北市瑞芳區金光路115號","121.853571666667","25.10625","6501200","瑞芳區"
"224008","275-VK","2017/08/15 18:13:25","新北市瑞芳區逢甲路38號","121.811361666667","25.1083933333333","6501200","瑞芳區"
"224007","273-VK","2017/08/15 18:13:15","新北市瑞芳區四腳亭坑路2-4號","121.77489","25.1093366666667","6501200","瑞芳區"
"224005","271-BY","2017/08/15 18:13:11","新北市瑞芳區建基路二段84號","121.814613333333","25.1293016666667","6501200","瑞芳區"
"227003","642-TC","2017/08/15 18:13:15","新北市雙溪區共和里泰和街33號","121.860768333333","25.0332616666667","6502500","雙溪區"
"227009","400-TW","2017/08/15 18:13:09","新北市雙溪區三貂里政光路3-1號","121.850648333333","25.0631433333333","6502500","雙溪區"
"253006","032-BX","2017/08/15 18:13:29","新北市石門區老梅路52巷21號","121.546415","25.28848","6502200","石門區"
"253005","295-VK","2017/08/15 18:13:28","新北市石門區中央路52號","121.568091666667","25.293215","6502200","石門區"
"208002","742-BX","2017/08/15 18:13:11","新北市金山區海興路3號","121.629166666667","25.2364","6502700","金山區"
"208003","665-BX","2017/08/15 18:13:21","新北市金山區民生路2號","121.649693333333","25.224855","6502700","金山區"
"208001","761-BX","2017/08/15 18:13:24","新北市金山區磺港里磺港路59號","121.648363333333","25.2279216666667","6502700","金山區"
"251004","009-UM","2017/08/15 18:13:30","新北市淡水區民族路91號","121.462636666667","25.1338133333333","6501000","淡水區"
"251005","010-UM","2017/08/15 18:13:19","新北市淡水區水源街一段141號","121.447233333333","25.1718766666667","6501000","淡水區"
"251014","180-VK","2017/08/15 18:13:18","新北市淡水區南平14-2號","121.485983333333","25.2207483333333","6501000","淡水區"
"251008","181-VK","2017/08/15 18:13:29","新北市淡水區坪頂路70巷41號","121.460683333333","25.1603833333333","6501000","淡水區"
"251010","413-VK","2017/08/15 18:13:16","新北市淡水區中正路二段96號","121.418195","25.18503","6501000","淡水區"
"251012","441-VK","2017/08/15 18:13:27","新北市淡水區北新路三段16-7號","121.483526666667","25.1860883333333","6501000","淡水區"
"251016","442-VK","2017/08/15 18:13:23","新北市淡水區下圭柔山15-1號","121.452683333333","25.20188","6501000","淡水區"
"251001","559-UM","2017/08/15 18:13:26","新北市淡水區自強路108-19號","121.461681666667","25.1312083333333","6501000","淡水區"
"251006","561-UM","2017/08/15 18:13:25","新北市淡水區新民街76巷34弄1號","121.439295","25.177735","6501000","淡水區"
"251009","575-R6","2017/08/15 18:13:14","新北市淡水區中山北路一段382號","121.444553333333","25.1828883333333","6501000","淡水區"
"251011","650-BX","2017/08/15 18:13:15","新北市淡水區三空泉5號","121.4767","25.1613333333333","6501000","淡水區"
"251002","672-BX","2017/08/15 18:13:19","新北市淡水區中正東路一段123-1號","121.454283333333","25.1596766666667","6501000","淡水區"
"251003","673-BX","2017/08/15 18:13:18","新北市淡水區北新路135號","121.449343333333","25.1789283333333","6501000","淡水區"
"207003","550-UM","2017/08/15 18:12:02","新北市萬里區野柳里港西路78-19號","121.685923333333","25.2062183333333","6502800","萬里區"
"207004","225-TW","2017/08/15 18:13:12","新北市萬里區中幅里中福路161號","121.673373333333","25.16612","6502800","萬里區"
"252002","178-VK","2017/08/15 18:13:30","新北市三芝區中山路二段38號","121.502971666667","25.255135","6502100","三芝區"
"252003","249-BX","2017/08/15 18:13:24","新北市三芝區古庄里四棧橋18-3號","121.490155","25.2609283333333","6502100","三芝區"
"252001","292-VK","2017/08/15 18:13:09","新北市三芝區中興街一段50號","121.498356666667","25.2567883333333","6502100","三芝區"
"237004","078-UY","2017/08/15 18:13:10","新北市三峽區五寮36-7號","121.3727","24.8689666666667","6500900","三峽區"
"237007","153-BY","2017/08/15 18:13:16","新北市三峽區中正路二段534號","121.360673333333","24.90652","6500900","三峽區"
"237009","210-TH","2017/08/15 18:13:25","新北市三峽區大仁路1號","121.366836666667","24.9376633333333","6500900","三峽區"
"237013","252-BX","2017/08/15 18:13:24","新北市三峽區永安街21號","121.37724","24.9302866666667","6500900","三峽區"
"237012","275-BY","2017/08/15 18:13:10","新北市三峽區民生街1巷1-17號","121.377661666667","24.9358933333333","6500900","三峽區"
"237008","302-VK","2017/08/15 18:13:16","新北市三峽區白雞42-3號","121.379356666667","24.9113383333333","6500900","三峽區"
"237014","433-BY","2017/08/15 18:13:19","新北市三峽區國光街63巷6號","121.373906666667","24.9380233333333","6500900","三峽區"
"237006","5529-G3","2017/08/15 18:13:19","新北市三峽區溪東路240號","121.408365","24.93162","6500900","三峽區"
"237011","572-TV","2017/08/15 18:13:24","新北市三峽區溪東路182號","121.406693333333","24.932575","6500900","三峽區"
"237016","649-BX","2017/08/15 18:13:16","新北市三峽區紫新路36巷2號","121.422135","24.922205","6500900","三峽區"
"237010","706-TV","2017/08/15 18:13:27","新北市三峽區民族街7號","121.369231666667","24.9311216666667","6500900","三峽區"
"237005","AKY-6261","2017/08/15 18:13:31","新北市三峽區忠孝街29號","121.371073333333","24.9340516666667","6500900","三峽區"
"236070","105-UM","2017/08/15 18:13:30","新北市土城區明德路一段107號","121.465581666667","24.9825166666667","6501300","土城區"
"236043","107-UM","2017/08/15 18:13:29","新北市土城區裕生路82巷2號","121.447478333333","24.9860133333333","6501300","土城區"
"236079","166-UM","2017/08/15 18:13:26","新北市土城區中央路三段281巷23弄19號","121.426365","24.9615166666667","6501300","土城區"
"236031","253-BX","2017/08/15 18:13:21","新北市土城區員福街2號","121.442066666667","24.97832","6501300","土城區"
"236027","269-VK","2017/08/15 18:13:25","新北市土城區承天路65號","121.439433333333","24.9638133333333","6501300","土城區"
"236015","270-VK","2017/08/15 18:13:18","新北市土城區青雲路39巷7號","121.460388333333","24.987605","6501300","土城區"
"236038","271-VK","2017/08/15 18:13:21","新北市土城區青雲路449-1號","121.458851666667","24.9746833333333","6501300","土城區"
"236023","401-BY","2017/08/15 18:13:24","新北市土城區學士路123號","121.446701666667","24.9758483333333","6501300","土城區"
"236059","912-UM","2017/08/15 18:13:22","新北市土城區中央路四段147號","121.415595","24.9570883333333","6501300","土城區"
"236049","913-UM","2017/08/15 18:13:20","新北市土城區明德路一段365-1號","121.453516666667","24.9791233333333","6501300","土城區"
"236063","915-UM","2017/08/15 18:13:26","新北市土城區金城路二段205-2號","121.454236666667","24.9814016666667","6501300","土城區"
"236055","AAC-216","2017/08/15 18:13:20","新北市土城區中華路二段92號","121.438236666667","24.97474","6501300","土城區"
"242021","AAC-296","2017/08/15 18:13:12","新北市新莊區建興街52-1號","121.450118333333","25.0381566666667","6500500","新莊區"
"242029","986-R7","2017/08/15 18:13:24","新北市新莊區中平路156號","121.444753333333","25.0473216666667","6500500","新莊區"
"242048","751-BX","2017/08/15 18:13:17","新北市新莊區富國路156號","121.423258333333","25.0248866666667","6500500","新莊區"
"242025","615-BX","2017/08/15 18:13:26","新北市新莊區五工二路95號","121.459265","25.06671","6500500","新莊區"
"242023","613-BX","2017/08/15 18:13:30","新北市新莊區新泰路528號","121.442076666667","25.0473833333333","6500500","新莊區"
"242027","612-BX","2017/08/15 18:13:16","新北市新莊區幸福路599號","121.453263333333","25.0492483333333","6500500","新莊區"
"242037","566-BX","2017/08/15 18:13:24","新北市新莊區後港一路49巷3弄1號","121.425776666667","25.0268433333333","6500500","新莊區"
"242042","497-BY","2017/08/15 18:13:17","新北市新莊區天祥街80號","121.41566","25.0293783333333","6500500","新莊區"
"242046","441-UM","2017/08/15 18:13:23","新北市新莊區福營路385-1號","121.422685","25.0273566666667","6500500","新莊區"
"242051","440-UM","2017/08/15 18:13:09","新北市新莊區民本街11巷24號","121.428871666667","25.0203033333333","6500500","新莊區"
"242032","415-TV","2017/08/15 18:13:16","新北市新莊區新泰路277巷9號","121.44532","25.0402266666667","6500500","新莊區"
"242002","413-TV","2017/08/15 18:13:19","新北市新莊區新莊路28號","121.458363333333","25.0372366666667","6500500","新莊區"
"242061","362-BY","2017/08/15 18:13:11","新北市新莊區新樹路168號","121.434876666667","25.022355","6500500","新莊區"
"242058","353-BY","2017/08/15 18:13:16","新北市新莊區新北大道七段720號","121.412508333333","25.02606","6500500","新莊區"
"242015","132-UY","2017/08/15 18:13:09","新北市新莊區中平路152巷36號","121.446211666667","25.0472883333333","6500500","新莊區"
"242034","133-UY","2017/08/15 18:13:23","新北市新莊區景德路302號","121.447716666667","25.033595","6500500","新莊區"
"242019","135-UY","2017/08/15 18:13:19","新北市新莊區中港路138巷13號","121.456431666667","25.0411033333333","6500500","新莊區"
"242044","172-VK","2017/08/15 18:13:29","新北市新莊區天泉二街26巷1號","121.414406666667","25.0257133333333","6500500","新莊區"
"242007","173-VK","2017/08/15 18:13:30","新北市新莊區自立街79巷20號","121.45452","25.0461583333333","6500500","新莊區"
"242056","176-VK","2017/08/15 18:13:28","新北市新莊區新泰路3巷33號","121.448996666667","25.0319816666667","6500500","新莊區"
"242011","346-TH","2017/08/15 18:13:27","新北市新莊區中港路591巷16號","121.450315","25.05242","6500500","新莊區"
"242017","348-TH","2017/08/15 18:13:28","新北市新莊區永樂街18號","121.451865","25.045125","6500500","新莊區"
"242054","349-TH","2017/08/15 18:13:12","新北市新莊區民安西路327巷4弄2號","121.428001666667","25.011385","6500500","新莊區"
"242009","351-TH","2017/08/15 18:13:24","新北市新莊區昌盛街2巷1弄2號","121.453015","25.04953","6500500","新莊區"
"238015","755-BX","2017/08/15 18:13:11","新北市樹林區大安路349號","121.416463333333","24.9905516666667","6500700","樹林區"
"238023","601-UM","2017/08/15 18:13:31","新北市樹林區龍興街46巷23號","121.40205","25.0151683333333","6500700","樹林區"
"238019","599-UM","2017/08/15 18:13:21","新北市樹林區水源街32巷21號","121.425261666667","24.981005","6500700","樹林區"
"238018","571-TV","2017/08/15 18:13:26","新北市新莊區新崑路59號","121.430865","24.99987","6500700","樹林區"
"238022","312-TH","2017/08/15 18:13:18","新北市樹林區太平路174巷3號","121.418015","24.97672","6500700","樹林區"
"238021","311-TH","2017/08/14 21:04:52","新北市樹林區中山路三段204號","121.387111666667","24.968275","6500700","樹林區"
"238025","303-VK","2017/08/15 18:13:26","新北市樹林區保安街一段327-3號","121.417501666667","24.9985233333333","6500700","樹林區"
"238017","283-BY","2017/08/15 18:13:25","新北市樹林區中正路755號","121.410418333333","25.0154333333333","6500700","樹林區"
"238014","282-BY","2017/08/15 18:13:25","新北市樹林區潭興街101號","121.4247","24.998345","6500700","樹林區"
"238020","268-VK","2017/08/15 17:12:11","新北市樹林區中山路三段204號","121.386853333333","24.96876","6500700","樹林區"
"238026","172-UY","2017/08/15 18:13:15","新北市樹林區育德街11號","121.392365","24.9704383333333","6500700","樹林區"
"238016","169-UY","2017/08/15 18:13:01","新北市樹林區中山路一段242巷12號","121.420746666667","24.9880466666667","6500700","樹林區"
"239007","AAC-297","2017/08/15 18:13:12","新北市鶯歌區育英街65-1號","121.347123333333","24.9525266666667","6500800","鶯歌區"
"239006","891-R6","2017/08/15 18:13:31","新北市鶯歌區鶯桃路365巷66號","121.331563333333","24.9622383333333","6500800","鶯歌區"
"239008","527-UM","2017/08/15 18:13:30","新北市鶯歌區國際一路179號","121.336218333333","24.9765366666667","6500800","鶯歌區"
"239005","526-UM","2017/08/15 18:13:31","新北市鶯歌區鶯桃路668巷53號","121.329395","24.9710133333333","6500800","鶯歌區"
"239001","417-VK","2017/08/15 18:13:23","新北市鶯歌區國中街106號","121.340236666667","24.9403366666667","6500800","鶯歌區"
"239003","360-BY","2017/08/15 18:13:22","新北市鶯歌區福安街58號","121.335573333333","24.96519","6500800","鶯歌區"
"239002","359-BY","2017/08/15 18:13:26","新北市鶯歌區文昌街2號","121.350576666667","24.9540983333333","6500800","鶯歌區"
"239004","193-VK","2017/08/15 18:13:25","新北市鶯歌區中正二路161號","121.344858333333","24.9492433333333","6500800","鶯歌區"
"221008","489-VK","2017/08/15 18:13:11","新北市汐止區康寧街315號","121.627195","25.0678333333333","6501100","汐止區"
"221036","130-UY","2017/08/15 18:13:17","新北市汐止區長安路48號","121.6686","25.078335","6501100","汐止區"
"221015","131-UY","2017/08/15 18:13:15","新北市汐止區鄉長路二段90號","121.666513333333","25.0849383333333","6501100","汐止區"
"221010","269-BY","2017/08/15 18:11:45","新北市汐止區汐萬路二段275巷1弄1號","121.645825","25.0888816666667","6501100","汐止區"
"241031","276-VK","2017/08/15 13:19:10","新北市汐止區汐萬路一段256巷3號","121.653445","25.07462","6500200","三重區"
"221012","278-VK","2017/08/15 18:13:02","新北市汐止區保一街9巷5號","121.674055","25.0810616666667","6501100","汐止區"
"221023","279-VK","2017/08/15 17:54:52","新北市汐止區民族一街1-1號","121.634863333333","25.0708733333333","6501100","汐止區"
"221032","280-BY","2017/08/15 18:13:11","新北市汐止區橫科路2巷15號","121.616311666667","25.050625","6501100","汐止區"
"221027","281-BY","2017/08/15 18:13:23","新北市汐止區和平街6巷1弄1號","121.663366666667","25.0710416666667","6501100","汐止區"
"221038","297-VK","2017/08/15 18:13:30","新北市汐止區環山路6號","121.65782","25.0601133333333","6501100","汐止區"
"221029","298-VK","2017/08/15 18:13:13","新北市汐止區樟樹二路301號","121.641135","25.0700916666667","6501100","汐止區"
"221021","299-VK","2017/08/15 17:29:02","新北市汐止區汐萬路一段256巷3號","121.652291666667","25.07526","6501100","汐止區"
"221031","353-TW","2017/08/15 18:13:18","新北市汐止區中興路181巷14弄10號","121.629885","25.0667433333333","6501100","汐止區"
"221035","622-UM","2017/08/15 18:13:14","新北市汐止區大同路二段196號","121.652845","25.0644066666667","6501100","汐止區"
"221025","623-UM","2017/08/15 18:13:24","新北市汐止區勤進路10號","121.659646666667","25.0616066666667","6501100","汐止區"
"221033","647-BX","2017/08/15 18:13:14","新北市汐止區林森街21號","121.621733333333","25.0404083333333","6501100","汐止區"
"221002","707-TV","2017/08/15 18:13:29","新北市汐止區福德一路213巷35號","121.635755","25.06483","6501100","汐止區"
"221018","753-BX","2017/08/15 18:13:12","新北市汐止區茄苳路43號","121.6658","25.0708833333333","6501100","汐止區"
