"lineid","car","time","location","longitude","latitude","cityid","cityname"
"234046","148-BY","2017/08/15 18:35:33","新北市永和區豫溪街217巷29號","121.524586666667","25.0104516666667","6500400","永和區"
"234013","149-BY","2017/08/15 18:35:36","新北市永和區環河東路一段76號","121.519501666667","25.0167233333333","6500400","永和區"
"234007","207-UY","2017/08/15 18:35:32","新北市永和區環河西路二段195號","121.502378333333","25.0111333333333","6500400","永和區"
"234081","298-R6","2017/08/15 18:35:28","新北市永和區林森路81號","121.523956666667","25.003805","6500400","永和區"
"234086","338-UY","2017/08/15 18:35:40","新北市中和區安和路21號","121.51101","24.994","6500400","永和區"
"234030","746-BX","2017/08/15 18:35:35","新北市永和區環河東路三段32號","121.526475","25.0069133333333","6500400","永和區"
"234061","AAD-866","2017/08/15 18:35:32","新北市永和區福和路1號","121.525901666667","25.0094733333333","6500400","永和區"
"234042","862-TW","2017/08/15 18:35:39","新北市永和區福和路376號","121.514205","25.0077466666667","6500400","永和區"
"234050","863-TW","2017/08/15 18:29:43","新北市永和區福和路1號","121.526518333333","25.0098733333333","6500400","永和區"
"234026","9371-KE","2017/08/15 18:35:36","新北市永和區永貞路417巷7號","121.506991666667","25.00915","6500400","永和區"
"234011","9373-KE","2017/08/15 18:35:35","新北市永和區仁愛路40巷9弄4號","121.513785","25.0141816666667","6500400","永和區"
"249005","172-UM","2017/08/15 16:50:35","新北市八里區挖子尾街6號","121.41544","25.1641916666667","6502300","八里區"
"249001","173-UM","2017/08/15 18:35:31","新北市八里區龍米路一段290號","121.451553333333","25.1295833333333","6502300","八里區"
"249004","303-UY","2017/08/15 18:35:36","新北市八里區忠四街3號","121.424788333333","25.1595016666667","6502300","八里區"
"249002","305-UY","2017/08/15 18:35:25","新北市八里區龍形一街12巷8號","121.449888333333","25.13079","6502300","八里區"
"249005","759-BX","2017/08/15 18:35:30","新北市八里區中華路三段236號","121.389658333333","25.1260916666667","6502300","八里區"
"248016","026-BX","2017/08/15 18:35:26","新北市五股區凌雲路一段148號","121.449203333333","25.1024216666667","6501500","五股區"
"248008","095-VK","2017/08/15 18:35:37","新北市五股區中興路一段155號","121.464983333333","25.07366","6501500","五股區"
"248020","225-UY","2017/08/15 18:35:28","新北市五股區孝義路102號","121.44535","25.1196166666667","6501500","五股區"
"248012","247-BX","2017/08/15 18:35:35","新北市五股區御史路90號","121.43995","25.0950566666667","6501500","五股區"
"248014","261-SL","2017/08/15 18:35:32","新北市五股區明德路5號","121.435083333333","25.0712783333333","6501500","五股區"
"248010","272-BY","2017/08/15 18:35:44","新北市五股區明德路31號","121.434501666667","25.0712483333333","6501500","五股區"
"248004","677-BX","2017/08/15 18:35:45","新北市五股區民義路一段206號","121.430321666667","25.0890566666667","6501500","五股區"
"248002","678-BX","2017/08/15 18:35:33","新北市五股區西雲路199號","121.448056666667","25.096115","6501500","五股區"
"234023","9380-KE","2017/08/15 18:35:33","新北市永和區福和路76巷5弄14號","121.522321666667","25.0083533333333","6500400","永和區"
"234077","969-R7","2017/08/15 18:35:33","新北市永和區環河東路二段92號","121.524493333333","25.0106383333333","6500400","永和區"
"234067","AAC-212","2017/08/15 18:35:02","新北市永和區福和路1號","121.525933333333","25.00915","6500400","永和區"
"234003","AAC-295","2017/08/15 18:35:43","新北市永和區福和路1號","121.526443333333","25.0097866666667","6500400","永和區"
"232011","375-UM","2017/08/15 18:13:57","新北市坪林區坪雙路一段43號","121.711766666667","24.94243","6502000","坪林區"
"244007","080-UY","2017/08/15 18:35:38","新北市林口區湖北里55號","121.384671666667","25.1065733333333","6501700","林口區"
"244019","403-UM","2017/08/15 18:35:41","新北市林口區文化一路一段100巷11號","121.37408","25.0708666666667","6501700","林口區"
"244009","410-SL","2017/08/15 18:35:42","新北市林口區文林一街35號","121.377403333333","25.08671","6501700","林口區"
"244017","656-BX","2017/08/15 18:35:31","新北市林口區文化二路一段271號","121.367708333333","25.070965","6501700","林口區"
"244023","657-BX","2017/08/15 18:35:42","新北市林口區四維路176號","121.381281666667","25.0751283333333","6501700","林口區"
"244013","658-BX","2017/08/15 18:35:24","新北市林口區文化一路二段200號","121.382975","25.0805466666667","6501700","林口區"
"244011","701-TV","2017/08/15 18:35:23","新北市林口區仁愛路一段272巷15號","121.392225","25.076625","6501700","林口區"
"244025","837-TS","2017/08/15 18:35:39","新北市林口區南勢街280號","121.357533333333","25.0763683333333","6501700","林口區"
"244021","838-TS","2017/08/15 18:35:43","新北市林口區工六路2號","121.397596666667","25.0793783333333","6501700","林口區"
"243013","AAD-798","2017/08/15 18:35:25","新北市泰山區明志路三段206巷3號","121.423291666667","25.0379166666667","6501600","泰山區"
"243012","646-TV","2017/08/15 18:35:28","新北市泰山區泰林路二段152-1號","121.434035","25.0601216666667","6501600","泰山區"
"222003","436-BY","2017/08/15 18:35:43","新北市深坑區翠谷街81巷8號","121.628015","25.0093483333333","6501800","深坑區"
"222002","659-BX","2017/08/15 18:35:35","新北市深坑區雲鄉路52號","121.622063333333","24.9995466666667","6501800","深坑區"
"222001","696-SL","2017/08/15 18:35:27","新北市深坑區北深路一段102號","121.635598333333","25.0107233333333","6501800","深坑區"
"231041","002-UM","2017/08/15 18:35:43","新北市新店區安華路28-1號","121.519793333333","24.9609316666667","6500600","新店區"
"231059","046-UY","2017/08/15 18:35:36","新北市新店區安華路28-1號","121.519501666667","24.9608316666667","6500600","新店區"
"231061","047-UY","2017/08/15 18:35:25","新北市新店區安華路28-1號","121.519075","24.960695","6500600","新店區"
"231060","106-UY","2017/08/15 18:35:31","新北市新店區安華路28-1號","121.519733333333","24.960785","6500600","新店區"
"231051","107-UY","2017/08/15 18:35:38","新北市新店區安康路一段230-3號","121.52228","24.96375","6500600","新店區"
"231048","108-UY","2017/08/15 18:35:32","新北市新店區安康路一段94-1號","121.527683333333","24.962215","6500600","新店區"
"231053","187-VK","2017/08/15 18:35:40","新北市新店區新烏路一段58-3號","121.546138333333","24.9500133333333","6500600","新店區"
"231057","256-BX","2017/08/15 18:35:44","新北市新店區新烏路一段100-2號","121.545108333333","24.9367133333333","6500600","新店區"
"231063","268-BY","2017/08/15 18:35:32","新北市新店區安華路1-1號","121.519435","24.9604866666667","6500600","新店區"
"231046","278-BY","2017/08/15 18:35:26","新北市新店區直潭一街76號","121.535383333333","24.939985","6500600","新店區"
"231050","AAD-862","2017/08/15 18:35:30","新北市新店區安華路28-1號","121.520116666667","24.9611633333333","6500600","新店區"
"231058","3712-VJ","2017/08/15 18:35:41","新北市新店區新店後街24號","121.537916666667","24.953295","6500600","新店區"
"231055","3713-VJ","2017/08/15 18:35:37","新北市新店區中華路139號","121.538498333333","24.9698716666667","6500600","新店區"
"231056","372-TH","2017/08/15 18:35:37","新北市新店區二十張路92號","121.536326666667","24.9798316666667","6500600","新店區"
"231067","4772-VM","2017/08/15 18:35:40","新北市新店區安華路3號","121.51897","24.96038","6500600","新店區"
"231065","512-UM","2017/08/15 18:35:39","新北市新店區安華路28-1號","121.519586666667","24.9614866666667","6500600","新店區"
"231054","513-UM","2017/08/15 18:35:28","新北市新店區安華路28-1號","121.519741666667","24.961115","6500600","新店區"
"231064","515-UM","2017/08/15 18:35:41","新北市新店區安華路28-1號","121.519576666667","24.9612366666667","6500600","新店區"
"231042","616-UM","2017/08/15 18:35:26","新北市新店區安華路1-1號","121.519438333333","24.9604433333333","6500600","新店區"
"231045","617-UM","2017/08/15 18:35:31","新北市新店區安華路28-1號","121.51949","24.9608333333333","6500600","新店區"
"231040","619-UM","2017/08/15 18:35:35","新北市新店區安華路28-1號","121.519551666667","24.9609983333333","6500600","新店區"
"231049","719-UM","2017/08/15 16:37:05","新北市新店區安華路28-1號","121.519506666667","24.96122","6500600","新店區"
"231062","720-UM","2017/08/15 18:35:42","新北市新店區安華路28-1號","121.519243333333","24.9611316666667","6500600","新店區"
"231044","897-TW","2017/08/15 18:35:23","新北市新店區安華路28-1號","121.519661666667","24.96082","6500600","新店區"
"231043","899-TW","2017/08/15 15:45:12","新北市新店區安華路28-1號","121.519231666667","24.9608033333333","6500600","新店區"
"231066","AKT-0513","2017/08/15 18:35:29","新北市新店區安華路28-1號","121.519556666667","24.9605383333333","6500600","新店區"
"241035","462-BY","2017/08/15 18:35:34","新北市三重區重新路四段121號","121.484906666667","25.052065","6500200","三重區"
"235066","003-UY","2017/08/15 18:35:25","新北市中和區中山路二段122號","121.50257","25.00365","6500300","中和區"
"235064","005-UY","2017/08/15 18:35:36","新北市中和區連城路139巷69號","121.497016666667","24.9970083333333","6500300","中和區"
"235063","006-UY","2017/08/15 18:35:38","新北市中和區連城路347巷4弄37號","121.486638333333","24.9955383333333","6500300","中和區"
"235056","096-UM","2017/08/15 18:35:29","新北市中和區員山路611巷5弄1號","121.477973333333","25.0113016666667","6500300","中和區"
"235039","097-UM","2017/08/15 18:35:43","新北市中和區安平路166號","121.512765","24.9988083333333","6500300","中和區"
"235065","098-UM","2017/08/15 18:35:38","新北市中和區莊敬路57號","121.501713333333","25.00528","6500300","中和區"
"235040","150-BY","2017/08/15 18:35:42","新北市中和區中正路12號","121.502925","24.99362","6500300","中和區"
"235058","151-BY","2017/08/15 18:35:24","新北市中和區圓通路369巷30弄38號","121.488853333333","24.984615","6500300","中和區"
"235055","183-VK","2017/08/15 18:35:26","新北市中和區民生街21-6號","121.47076","25.00558","6500300","中和區"
"235038","185-VK","2017/08/15 18:35:33","新北市中和區自強路6-1號","121.520035","24.9960416666667","6500300","中和區"
"235049","186-VK","2017/08/15 18:35:35","新北市中和區景安路143號","121.505626666667","24.9954266666667","6500300","中和區"
"235067","255-BX","2017/08/15 18:35:31","新北市中和區連城路469巷5號","121.48366","24.995745","6500300","中和區"
"235072","301-VK","2017/08/15 18:35:29","新北市中和區連城路130號","121.495863333333","24.9990716666667","6500300","中和區"
"235043","352-BY","2017/08/15 18:35:26","新北市中和區景平路149號","121.513891666667","24.9922116666667","6500300","中和區"
"235051","376-QA","2017/08/15 18:35:41","新北市中和區華新街232巷6號","121.505863333333","24.9819166666667","6500300","中和區"
"235068","377-QA","2017/08/15 18:35:37","新北市中和區中正路273-4號","121.495615","24.9933966666667","6500300","中和區"
"235061","378-QA","2017/08/15 18:35:43","新北市中和區民享街90巷33號","121.473426666667","24.99999","6500300","中和區"
"235050","4979-A6","2017/08/15 18:35:38","新北市中和區忠孝街144-1號","121.51258","24.98715","6500300","中和區"
"235069","4980-A6","2017/08/15 18:35:42","新北市中和區連城路87號","121.49672","25.0001983333333","6500300","中和區"
"235042","551-UM","2017/08/15 18:35:31","新北市中和區成功路107巷4號","121.526161666667","24.991065","6500300","中和區"
"235070","558-UM","2017/08/15 18:35:34","新北市中和區景平路429-2號","121.501338333333","24.99546","6500300","中和區"
"235045","565-BX","2017/08/15 18:35:26","新北市中和區南山路236巷36弄5號","121.504081666667","24.98836","6500300","中和區"
"235054","640-BX","2017/08/15 18:35:37","新北市中和區民享街87號","121.474468333333","25.00162","6500300","中和區"
"235060","647-TV","2017/08/15 18:35:41","新北市中和區員山路463號","121.48045","25.0044416666667","6500300","中和區"
"235047","732-UM","2017/08/15 18:35:41","新北市中和區南山路320巷15號","121.507396666667","24.98638","6500300","中和區"
"235046","733-UM","2017/08/15 18:35:43","新北市中和區中正路169號","121.497983333333","24.9933466666667","6500300","中和區"
"235062","800-TS","2017/08/15 18:35:31","新北市中和區中山路二段296號","121.496138333333","25.0024183333333","6500300","中和區"
"235057","801-TS","2017/08/15 18:35:32","新北市中和區民安街41號","121.479915","25.0002816666667","6500300","中和區"
"235041","802-TS","2017/08/15 18:35:29","新北市中和區中正路305號","121.492245","24.9937183333333","6500300","中和區"
"235052","805-TS","2017/08/15 18:35:26","新北市中和區興南路二段188號","121.503366666667","24.982275","6500300","中和區"
"235048","896-TW","2017/08/15 18:35:32","新北市中和區中正路19號","121.502915","24.9934183333333","6500300","中和區"
"235053","900-TW","2017/08/15 18:35:27","新北市中和區莒光路211-39號","121.470308333333","24.9931433333333","6500300","中和區"
"235037","AAC-213","2017/08/15 18:35:36","新北市中和區景德街103號","121.515586666667","24.9911783333333","6500300","中和區"
"235059","AAC-215","2017/08/15 18:35:37","新北市中和區中正路521號","121.488306666667","24.99351","6500300","中和區"
"220068","013-TV","2017/08/15 18:35:28","新北市板橋區民生路二段17號","121.47253","25.0164616666667","6500100","板橋區"
"220072","015-TV","2017/08/15 18:35:38","新北市板橋區華東街1-10號","121.448318333333","24.9950783333333","6500100","板橋區"
"220065","072-UY","2017/08/15 18:35:29","新北市板橋區民生路二段17號","121.47238","25.0164483333333","6500100","板橋區"
"226004","205-ST","2017/08/15 18:35:34","新北市平溪區平溪里三坑路35號","121.734855","25.03198","6502400","平溪區"
"228001","212-TW","2017/08/15 18:35:37","新北市貢寮區仁理村仁和路106巷2號","121.924678333333","25.05077","6502600","貢寮區"
"228002","663-BX","2017/08/15 18:35:31","新北市貢寮區福連里香蘭街3-3號","121.971216666667","25.02445","6502600","貢寮區"
"228003","828-UM","2017/08/15 18:35:27","新北市貢寮區和美里龍洞街26號","121.917378333333","25.109275","6502600","貢寮區"
"224010","AGQ-8101","2017/08/15 09:01:21","新北市瑞芳區民權街3-1號","121.809453333333","25.108225","6501200","瑞芳區"
"224006","676-BX","2017/08/15 18:35:38","新北市瑞芳區明燈路三段39號","121.806865","25.1079416666667","6501200","瑞芳區"
"224002","639-TC","2017/08/15 18:35:24","新北市瑞芳區靜安路四段113號","121.793111666667","25.1098316666667","6501200","瑞芳區"
"224011","420-VK","2017/08/15 18:35:35","新北市瑞芳區崙頂路1-6號","121.847045","25.104775","6501200","瑞芳區"
"224009","285-BY","2017/08/15 18:35:30","新北市瑞芳區五號路308號","121.856876666667","25.1114616666667","6501200","瑞芳區"
"224008","275-VK","2017/08/15 18:35:25","新北市瑞芳區瑞芳街28號","121.806475","25.1095266666667","6501200","瑞芳區"
"224007","273-VK","2017/08/15 18:35:41","新北市瑞芳區大埔路67巷3-1號","121.764438333333","25.10156","6501200","瑞芳區"
"224005","271-BY","2017/08/15 18:35:30","新北市瑞芳區瑞濱路159-1號","121.818248333333","25.1183066666667","6501200","瑞芳區"
"227003","642-TC","2017/08/15 18:35:35","新北市雙溪區魚行里坤溪3-5號","121.876211666667","25.020805","6502500","雙溪區"
"227009","400-TW","2017/08/15 18:35:31","新北市雙溪區牡丹里牡丹216號","121.85072","25.0563516666667","6502500","雙溪區"
"253006","032-BX","2017/08/15 18:35:41","新北市石門區楓林28-1號","121.542226666667","25.2893716666667","6502200","石門區"
"253005","295-VK","2017/08/15 18:35:28","新北市石門區中央路4-2號","121.565508333333","25.2912516666667","6502200","石門區"
"208002","742-BX","2017/08/15 18:35:31","新北市金山區龜子山路30號","121.639261666667","25.218105","6502700","金山區"
"208003","665-BX","2017/08/15 18:35:44","新北市金山區中山路280號","121.634923333333","25.22435","6502700","金山區"
"208001","761-BX","2017/08/15 18:35:44","新北市金山區文化一路3巷4號","121.636091666667","25.224235","6502700","金山區"
"251004","009-UM","2017/08/15 18:35:43","新北市淡水區大同路2號","121.461656666667","25.1407666666667","6501000","淡水區"
"251014","180-VK","2017/08/15 18:35:38","新北市淡水區南平20號","121.494061666667","25.2165816666667","6501000","淡水區"
"251008","181-VK","2017/08/15 18:35:29","新北市淡水區北投子83號","121.467476666667","25.1789183333333","6501000","淡水區"
"251010","413-VK","2017/08/15 18:35:37","新北市淡水區沙崙路122號","121.42335","25.1827116666667","6501000","淡水區"
"251012","441-VK","2017/08/15 18:35:42","新北市淡水區北新路175號","121.450611666667","25.1794433333333","6501000","淡水區"
"251016","442-VK","2017/08/15 18:35:24","新北市淡水區下圭柔山102號","121.440943333333","25.2087716666667","6501000","淡水區"
"251001","559-UM","2017/08/15 18:35:26","新北市淡水區自強路419號","121.465711666667","25.13436","6501000","淡水區"
"251006","561-UM","2017/08/15 18:35:25","新北市淡水區崁頂37-11號","121.438961666667","25.1945383333333","6501000","淡水區"
"251011","650-BX","2017/08/15 18:35:37","新北市淡水區學府路19號","121.447706666667","25.16854","6501000","淡水區"
"251002","672-BX","2017/08/15 18:35:39","新北市淡水區中正東路一段9巷1號","121.451103333333","25.1639316666667","6501000","淡水區"
"251003","673-BX","2017/08/15 18:35:38","新北市淡水區北新路69巷26號","121.446705","25.1801","6501000","淡水區"
"207003","550-UM","2017/08/15 18:35:42","新北市萬里區野柳里港東路62-1號","121.68757","25.2038416666667","6502800","萬里區"
"207004","225-TW","2017/08/15 18:35:32","新北市萬里區萬里里瑪鋉路202號","121.68999","25.180385","6502800","萬里區"
"252002","178-VK","2017/08/15 18:35:30","新北市三芝區中山路二段35號","121.502896666667","25.2551866666667","6502100","三芝區"
"252003","249-BX","2017/08/15 18:35:31","新北市三芝區後厝里土地公坑54-16號","121.46607","25.249515","6502100","三芝區"
"252001","292-VK","2017/08/15 18:35:29","新北市三芝區中興街二段56號","121.499596666667","25.25491","6502100","三芝區"
"237004","078-UY","2017/08/15 18:35:30","新北市三峽區插角220-1號","121.415426666667","24.8670666666667","6500900","三峽區"
"237007","153-BY","2017/08/15 18:35:36","新北市三峽區中正路三段178-1號","121.351858333333","24.9034583333333","6500900","三峽區"
"237009","210-TH","2017/08/15 18:35:25","新北市三峽區大同路278號","121.365011666667","24.925305","6500900","三峽區"
"237013","252-BX","2017/08/15 18:35:44","新北市三峽區光明路69巷25號","121.376628333333","24.92914","6500900","三峽區"
"237012","275-BY","2017/08/15 18:35:30","新北市三峽區三樹路214巷9號","121.379696666667","24.9420083333333","6500900","三峽區"
"237008","302-VK","2017/08/15 18:35:36","新北市三峽區白雞68-225號","121.390731666667","24.908935","6500900","三峽區"
"237014","433-BY","2017/08/15 18:35:39","新北市三峽區文化路117號","121.37026","24.9360833333333","6500900","三峽區"
"237006","5529-G3","2017/08/15 18:35:44","新北市三峽區溪東路134號","121.404826666667","24.9333016666667","6500900","三峽區"
"237011","572-TV","2017/08/15 18:35:24","新北市三峽區介壽路三段112號","121.397106666667","24.94138","6500900","三峽區"
"237016","649-BX","2017/08/15 18:32:35","新北市三峽區竹崙路97號","121.43293","24.917145","6500900","三峽區"
"237010","706-TV","2017/08/15 18:35:27","新北市三峽區復興路323號","121.364815","24.9387733333333","6500900","三峽區"
"237005","AKY-6261","2017/08/15 18:35:31","新北市三峽區民生街104巷2-9號","121.373638333333","24.9360533333333","6500900","三峽區"
"236070","105-UM","2017/08/15 18:35:30","新北市土城區永豐路157巷29弄6-1號","121.46838","24.9814683333333","6501300","土城區"
"236043","107-UM","2017/08/15 18:35:29","新北市土城區學成路78巷9號","121.451258333333","24.9889666666667","6501300","土城區"
"236079","166-UM","2017/08/15 18:35:26","新北市土城區中央路四段67巷58-4號","121.417668333333","24.95561","6501300","土城區"
"236031","253-BX","2017/08/15 18:35:41","新北市土城區中央路二段278巷6-3號","121.44032","24.9746983333333","6501300","土城區"
"236027","269-VK","2017/08/15 18:35:25","新北市土城區忠義路90號","121.4437","24.9610133333333","6501300","土城區"
"236015","270-VK","2017/08/15 18:35:38","新北市土城區青雲路151巷21號","121.459903333333","24.9844433333333","6501300","土城區"
"236038","271-VK","2017/08/15 18:35:41","新北市土城區青山路35號","121.463926666667","24.975125","6501300","土城區"
"236023","401-BY","2017/08/15 18:35:24","新北市土城區延吉街253巷18弄8號","121.467136666667","24.98402","6501300","土城區"
"236059","912-UM","2017/08/15 18:35:43","新北市土城區中央路四段172號","121.416733333333","24.9579866666667","6501300","土城區"
"236049","913-UM","2017/08/15 18:35:39","新北市土城區明德路一段197號","121.463796666667","24.9789133333333","6501300","土城區"
"236063","915-UM","2017/08/15 18:35:26","新北市土城區延壽路13巷11號","121.470755","24.9905983333333","6501300","土城區"
"236055","AAC-216","2017/08/15 18:35:40","新北市土城區中華路一段103號","121.444601666667","24.9871833333333","6501300","土城區"
"242046","441-UM","2017/08/15 18:35:40","新北市新莊區富國路77巷23號","121.420401666667","25.0265366666667","6500500","新莊區"
"242061","362-BY","2017/08/15 18:35:36","新北市新莊區富國路176巷5號","121.42412","25.0241816666667","6500500","新莊區"
"242058","353-BY","2017/08/15 18:35:35","新北市新莊區中正路887-17號","121.416153333333","25.0241566666667","6500500","新莊區"
"242044","172-VK","2017/08/15 18:35:29","新北市新莊區中正路692-8號","121.419775","25.0284383333333","6500500","新莊區"
"242054","349-TH","2017/08/15 18:35:32","新北市新莊區樹新路120巷49弄1號","121.430245","24.99577","6500500","新莊區"
"238015","755-BX","2017/08/15 18:35:31","新北市樹林區大安路515號","121.414086666667","24.9861266666667","6500700","樹林區"
"238023","601-UM","2017/08/15 18:35:31","新北市樹林區三福街114號","121.406488333333","25.01629","6500700","樹林區"
"238019","599-UM","2017/08/15 18:35:41","新北市樹林區中華路190號","121.411951666667","24.9805483333333","6500700","樹林區"
"238018","571-TV","2017/08/15 18:35:36","新北市樹林區樹新路28巷13號","121.42769","24.9942","6500700","樹林區"
"238021","311-TH","2017/08/15 18:34:15","新北市樹林區柑園街二段32-23號","121.38628","24.955445","6500700","樹林區"
"238025","303-VK","2017/08/15 18:35:26","新北市樹林區中山路三段22號","121.395586666667","24.9729133333333","6500700","樹林區"
"238017","283-BY","2017/08/15 18:35:25","新北市樹林區光興街50號","121.409831666667","25.0027366666667","6500700","樹林區"
"238014","282-BY","2017/08/15 18:35:25","新北市樹林區大安路111巷11號","121.423018333333","24.9977316666667","6500700","樹林區"
"238020","268-VK","2017/08/15 17:12:11","新北市樹林區中山路三段204號","121.386853333333","24.96876","6500700","樹林區"
"238026","172-UY","2017/08/15 18:35:35","新北市樹林區育德街78-1號","121.387796666667","24.968285","6500700","樹林區"
"238016","169-UY","2017/08/15 18:35:33","新北市樹林區文化街28號","121.41932","24.9877783333333","6500700","樹林區"
"239007","AAC-297","2017/08/15 18:35:31","新北市鶯歌區中正一路478號","121.366505","24.9568183333333","6500800","鶯歌區"
"239006","891-R6","2017/08/15 18:35:30","新北市鶯歌區鶯桃路296巷48-1號","121.335873333333","24.9612633333333","6500800","鶯歌區"
"239008","527-UM","2017/08/15 18:35:30","新北市鶯歌區朝陽街2號","121.33623","24.9765683333333","6500800","鶯歌區"
"239005","526-UM","2017/08/15 18:35:31","新北市鶯歌區鳳吉三街5號","121.32643","24.973555","6500800","鶯歌區"
"239001","417-VK","2017/08/15 18:35:43","新北市鶯歌區高職南街5號","121.337196666667","24.9396666666667","6500800","鶯歌區"
"239003","360-BY","2017/08/15 18:35:42","新北市鶯歌區鶯桃路524-1號","121.331536666667","24.9667316666667","6500800","鶯歌區"
"239002","359-BY","2017/08/15 18:35:26","新北市鶯歌區中正一路478號","121.366441666667","24.95684","6500800","鶯歌區"
"239004","193-VK","2017/08/15 18:35:25","新北市鶯歌區國中街183號","121.33903","24.93961","6500800","鶯歌區"
"221008","489-VK","2017/08/15 18:35:32","新北市汐止區康寧街901號","121.651455","25.0750266666667","6501100","汐止區"
"221036","130-UY","2017/08/15 18:35:36","新北市汐止區南昌街13號","121.663466666667","25.0694783333333","6501100","汐止區"
"221015","131-UY","2017/08/15 18:35:35","新北市汐止區吉祥街26號","121.667775","25.081075","6501100","汐止區"
"221010","269-BY","2017/08/15 18:35:25","新北市汐止區汐萬路三段262號","121.643778333333","25.10499","6501100","汐止區"
"241031","276-VK","2017/08/15 13:19:10","新北市汐止區汐萬路一段256巷3號","121.653445","25.07462","6500200","三重區"
"221012","278-VK","2017/08/15 18:33:22","新北市汐止區大同路三段275號","121.676298333333","25.0759666666667","6501100","汐止區"
"221023","279-VK","2017/08/15 18:34:47","新北市汐止區康寧街543號","121.634108333333","25.0691966666667","6501100","汐止區"
"221032","280-BY","2017/08/15 18:35:31","台北市南港區福山街56巷10號","121.61758","25.0459566666667","6501100","汐止區"
"221027","281-BY","2017/08/15 18:35:42","新北市汐止區大同路二段373號","121.657285","25.0673166666667","6501100","汐止區"
"221038","297-VK","2017/08/15 18:35:27","新北市汐止區汐萬路一段39號","121.655238333333","25.068885","6501100","汐止區"
"221029","298-VK","2017/08/15 18:35:34","新北市汐止區樟樹一路150號","121.64226","25.0652133333333","6501100","汐止區"
"221021","299-VK","2017/08/15 17:29:02","新北市汐止區汐萬路一段256巷3號","121.652291666667","25.07526","6501100","汐止區"
"221031","353-TW","2017/08/15 18:35:38","新北市汐止區光復街8巷1-4號","121.63896","25.0583816666667","6501100","汐止區"
"221035","622-UM","2017/08/15 18:35:33","新北市汐止區大同路二段169巷22弄1號","121.651113333333","25.0649666666667","6501100","汐止區"
"221025","623-UM","2017/08/15 18:35:44","新北市汐止區仁愛路119巷8號","121.66241","25.063975","6501100","汐止區"
"221033","647-BX","2017/08/15 18:35:34","台北市南港區舊莊街一段199巷16弄12號","121.623771666667","25.038905","6501100","汐止區"
"221002","707-TV","2017/08/15 18:35:29","新北市汐止區中興路31-3號","121.636143333333","25.0604466666667","6501100","汐止區"
"221018","753-BX","2017/08/15 18:35:32","新北市汐止區茄苳路250巷15號","121.671661666667","25.0678333333333","6501100","汐止區"
"220079","145-BY","2017/08/15 18:35:32","新北市板橋區南雅南路二段144巷60號","121.450161666667","24.9973283333333","6500100","板橋區"
"220080","200-UY","2017/08/15 18:35:34","新北市板橋區華東街1-9號","121.448278333333","24.994795","6500100","板橋區"
"220075","256-TC","2017/08/15 18:35:37","新北市板橋區華東街1-9號","121.448121666667","24.9949166666667","6500100","板橋區"
"220056","276-BY","2017/08/15 18:35:38","新北市板橋區中山路一段156號","121.465233333333","25.0115166666667","6500100","板橋區"
"220073","282-UM","2017/08/15 18:35:41","新北市板橋區華東街1-10號","121.448261666667","24.99501","6500100","板橋區"
"220094","283-UM","2017/08/15 18:35:29","新北市板橋區民生路二段161巷1號","121.47025","25.0198866666667","6500100","板橋區"
"220071","283-VK","2017/08/15 18:35:45","新北市板橋區民生路二段17號","121.472466666667","25.01644","6500100","板橋區"
"220053","285-VK","2017/08/15 18:35:27","新北市板橋區民生路二段36-1號","121.472478333333","25.0166433333333","6500100","板橋區"
"220083","286-VK","2017/08/15 18:35:34","新北市板橋區華東街1-9號","121.448181666667","24.99495","6500100","板橋區"
"220081","287-VK","2017/08/15 18:35:25","新北市板橋區華東街1-10號","121.44823","24.9950366666667","6500100","板橋區"
"220061","293-UM","2017/08/15 18:35:41","新北市板橋區民生路二段16號","121.47297","25.0165033333333","6500100","板橋區"
"220084","296-UM","2017/08/15 18:35:40","新北市板橋區華東街1-9號","121.44811","24.9949533333333","6500100","板橋區"
"220062","303-R5","2017/08/15 18:35:43","新北市板橋區民生路二段36-1號","121.472433333333","25.016625","6500100","板橋區"
"220088","491-VK","2017/08/15 18:35:43","新北市板橋區民生路二段161巷1號","121.47004","25.0199383333333","6500100","板橋區"
"220035","560-BX","2017/08/15 18:35:33","新北市板橋區南雅西路二段145巷3號","121.45172","25.011445","6500100","板橋區"
"220063","609-BX","2017/08/15 15:48:43","新北市板橋區民生路二段17號","121.472658333333","25.01651","6500100","板橋區"
"220077","687-BX","2017/08/15 18:35:24","新北市板橋區華東街1-10號","121.448281666667","24.9949033333333","6500100","板橋區"
"220074","895-R6","2017/08/15 18:35:40","新北市板橋區華東街1-9號","121.448235","24.9949516666667","6500100","板橋區"
"220073","985-R7","2017/08/15 18:35:37","新北市板橋區華東街1-10號","121.448325","24.99498","6500100","板橋區"
"220070","AAC-253","2017/08/15 18:35:42","新北市板橋區民生路二段36-1號","121.472598333333","25.0166583333333","6500100","板橋區"
