"lineid","car","time","location","longitude","latitude","cityid","cityname"
"234046","148-BY","2017/08/15 18:49:33","新北市永和區永元路52巷52號","121.524465","25.0006033333333","6500400","永和區"
"234013","149-BY","2017/08/15 18:49:35","新北市永和區保福路二段135號","121.509586666667","25.0139466666667","6500400","永和區"
"234007","207-UY","2017/08/15 18:49:31","新北市永和區永和路二段166號","121.515511666667","25.01286","6500400","永和區"
"234081","298-R6","2017/08/15 18:49:28","新北市永和區永利路108號","121.521266666667","25.0034433333333","6500400","永和區"
"234038","336-UY","2017/08/15 18:49:24","新北市永和區成功路二段207號","121.526598333333","24.9959266666667","6500400","永和區"
"234064","337-UY","2017/08/15 18:49:19","新北市永和區豫溪街217巷7號","121.524658333333","25.00962","6500400","永和區"
"234086","338-UY","2017/08/15 18:49:31","新北市永和區中正路39-1號","121.514393333333","24.9959716666667","6500400","永和區"
"234070","552-UM","2017/08/15 18:49:36","新北市永和區竹林路96巷11號","121.519015","25.0120233333333","6500400","永和區"
"234054","553-UM","2017/08/15 18:49:30","新北市永和區竹林路64號","121.518248333333","25.01347","6500400","永和區"
"234030","746-BX","2017/08/15 18:49:15","新北市永和區得和路319巷2號","121.523465","24.99977","6500400","永和區"
"234061","AAD-866","2017/08/15 18:49:32","新北市永和區福和路299號","121.51646","25.0071966666667","6500400","永和區"
"234042","862-TW","2017/08/15 18:49:39","新北市永和區永貞路308號","121.51186","25.0048816666667","6500400","永和區"
"234050","863-TW","2017/08/15 18:49:23","新北市永和區保安路2號","121.5108","25.0173933333333","6500400","永和區"
"234026","9371-KE","2017/08/15 18:49:36","新北市永和區自由街56號","121.513695","25.0059116666667","6500400","永和區"
"234011","9373-KE","2017/08/15 18:49:35","新北市永和區文化路124號","121.51306","25.0153866666667","6500400","永和區"
"249005","172-UM","2017/08/15 16:50:35","新北市八里區挖子尾街6號","121.41544","25.1641916666667","6502300","八里區"
"249001","173-UM","2017/08/15 18:49:31","新北市八里區龍米路二段26號","121.448746666667","25.1394216666667","6502300","八里區"
"249004","303-UY","2017/08/15 18:49:36","新北市八里區博物館路9號","121.415416666667","25.1641116666667","6502300","八里區"
"249002","305-UY","2017/08/15 18:49:25","新北市八里區龍形一街33巷6-1號","121.449331666667","25.1295066666667","6502300","八里區"
"249005","759-BX","2017/08/15 18:49:30","新北市八里區長道坑16-3號","121.395758333333","25.11546","6502300","八里區"
"248016","026-BX","2017/08/15 18:49:26","新北市五股區凌雲路一段135號","121.449403333333","25.1019666666667","6501500","五股區"
"248008","095-VK","2017/08/15 18:49:37","新北市五股區中興路一段128巷11號","121.46562","25.0741116666667","6501500","五股區"
"248020","225-UY","2017/08/15 18:49:28","新北市五股區凌雲路三段45-2號","121.427908333333","25.1208416666667","6501500","五股區"
"248012","247-BX","2017/08/15 18:49:35","新北市五股區成泰路二段147巷34-6號","121.436618333333","25.0888066666667","6501500","五股區"
"248014","261-SL","2017/08/15 18:49:32","新北市五股區民義路一段93號","121.434696666667","25.0858566666667","6501500","五股區"
"248010","272-BY","2017/08/15 18:49:24","新北市五股區水碓五路81號","121.430005","25.0719116666667","6501500","五股區"
"248004","677-BX","2017/08/15 18:49:23","新北市五股區民義路二段46-6號","121.413583333333","25.101705","6501500","五股區"
"248002","678-BX","2017/08/15 18:49:34","新北市五股區成泰路三段454號","121.45144","25.10041","6501500","五股區"
"234023","9380-KE","2017/08/15 18:49:33","新北市永和區竹林路119巷53弄2號","121.522233333333","25.0118916666667","6500400","永和區"
"234077","969-R7","2017/08/15 18:49:33","新北市永和區中正路2巷7號","121.512941666667","24.9933766666667","6500400","永和區"
"234067","AAC-212","2017/08/15 18:49:22","新北市永和區中和路625號","121.512951666667","25.0048833333333","6500400","永和區"
"234003","AAC-295","2017/08/15 18:49:23","新北市永和區豫溪街33號","121.516381666667","25.009845","6500400","永和區"
"232011","375-UM","2017/08/15 18:49:23","新北市坪林區坪林街79號","121.711575","24.9371383333333","6502000","坪林區"
"244007","080-UY","2017/08/15 18:49:36","新北市林口區太平里28號","121.376771666667","25.118425","6501700","林口區"
"244019","403-UM","2017/08/15 18:49:21","新北市林口區忠孝路552巷17-8號","121.374631666667","25.0672616666667","6501700","林口區"
"244009","410-SL","2017/08/15 18:49:22","新北市林口區竹林路326巷11號","121.391818333333","25.0823666666667","6501700","林口區"
"244017","656-BX","2017/08/15 18:49:31","新北市林口區文化二路一段20巷25弄61號","121.36606","25.067675","6501700","林口區"
"244023","657-BX","2017/08/15 18:49:22","新北市林口區吉祥路176號","121.376315","25.0806583333333","6501700","林口區"
"244013","658-BX","2017/08/15 18:49:24","新北市林口區文化一路一段223號","121.379165","25.07586","6501700","林口區"
"244011","701-TV","2017/08/15 18:49:23","新北市林口區仁愛路一段285巷90號","121.394943333333","25.0749916666667","6501700","林口區"
"244025","837-TS","2017/08/15 18:49:18","新北市林口區忠孝一路182號","121.358968333333","25.074355","6501700","林口區"
"243013","AAD-798","2017/08/15 18:49:25","新北市泰山區明志路三段206巷3號","121.42331","25.0379416666667","6501600","泰山區"
"243012","646-TV","2017/08/15 18:49:28","新北市泰山區福興三街13號","121.434448333333","25.0577516666667","6501600","泰山區"
"243016","680-BX","2017/08/15 18:49:20","新北市泰山區明志路二段121號","121.428075","25.0515233333333","6501600","泰山區"
"222003","436-BY","2017/08/15 18:49:23","新北市深坑區翠谷街17巷40號","121.625313333333","25.010095","6501800","深坑區"
"222002","659-BX","2017/08/15 18:49:15","新北市深坑區文山路一段69號","121.627058333333","25.0018666666667","6501800","深坑區"
"222001","696-SL","2017/08/15 18:49:27","新北市深坑區松柏街42號","121.638781666667","25.0115616666667","6501800","深坑區"
"231041","002-UM","2017/08/15 18:49:23","新北市新店區安華路28-1號","121.519856666667","24.9608116666667","6500600","新店區"
"231059","046-UY","2017/08/15 18:49:37","新北市新店區安華路28-1號","121.519565","24.9608316666667","6500600","新店區"
"231061","047-UY","2017/08/15 18:49:25","新北市新店區安康路二段51-1號","121.514765","24.9633233333333","6500600","新店區"
"231060","106-UY","2017/08/15 18:49:31","新北市新店區安華路28-1號","121.51989","24.9607216666667","6500600","新店區"
"231051","107-UY","2017/08/15 18:49:38","新北市新店區中央路85號","121.532303333333","24.9764366666667","6500600","新店區"
"231048","108-UY","2017/08/15 18:49:32","新北市新店區德正街22號","121.543873333333","24.972175","6500600","新店區"
"231053","187-VK","2017/08/15 18:49:20","新北市新店區新烏路一段105巷15號","121.546248333333","24.9407483333333","6500600","新店區"
"231057","256-BX","2017/08/15 18:47:17","新北市新店區花園一路一段2號","121.55312","24.932435","6500600","新店區"
"231063","268-BY","2017/08/15 18:49:32","新北市新店區車子路109號","121.505248333333","24.9521233333333","6500600","新店區"
"231046","278-BY","2017/08/15 18:49:26","新北市新店區直潭路43號","121.53342","24.9425116666667","6500600","新店區"
"231050","AAD-862","2017/08/15 18:49:30","新北市新店區安康路一段61號","121.53053","24.9610216666667","6500600","新店區"
"231058","3712-VJ","2017/08/15 18:48:53","新北市新店區北宜路一段105巷4弄1號","121.539888333333","24.9554216666667","6500600","新店區"
"231055","3713-VJ","2017/08/15 18:49:37","新北市新店區新生街14號","121.540071666667","24.9661766666667","6500600","新店區"
"231056","372-TH","2017/08/15 18:49:17","新北市新店區民族路75-2號","121.539176666667","24.97803","6500600","新店區"
"231067","4772-VM","2017/08/15 18:49:20","新北市新店區安康路一段76巷28-2號","121.528128333333","24.9631","6500600","新店區"
"231065","512-UM","2017/08/15 18:47:44","新北市新店區安康路二段362號","121.501726666667","24.95739","6500600","新店區"
"231054","513-UM","2017/08/15 18:49:28","新北市新店區北新路一段2-17號","121.538386666667","24.960065","6500600","新店區"
"231064","515-UM","2017/08/15 18:49:21","新北市新店區安康路一段238-1號","121.522176666667","24.9637483333333","6500600","新店區"
"231042","616-UM","2017/08/15 18:49:26","新北市新店區中正路71號","121.543488333333","24.9696583333333","6500600","新店區"
"231045","617-UM","2017/08/15 18:49:31","新北市新店區安康路一段83-1號","121.52964","24.96132","6500600","新店區"
"231040","619-UM","2017/08/15 18:49:15","新北市新店區環河路116號","121.537073333333","24.967195","6500600","新店區"
"231049","719-UM","2017/08/15 18:49:36","新北市新店區中正路454-5號","121.53447","24.9790483333333","6500600","新店區"
"231062","720-UM","2017/08/15 18:49:22","新北市新店區安忠路57巷13號","121.513103333333","24.9573316666667","6500600","新店區"
"231044","897-TW","2017/08/15 18:49:23","新北市新店區中興路三段6號","121.54666","24.976905","6500600","新店區"
"231043","899-TW","2017/08/15 18:49:27","新北市新店區安康路一段111-1號","121.528611666667","24.9616833333333","6500600","新店區"
"231066","AKT-0513","2017/08/15 18:49:29","新北市新店區安豐路22巷5-2號","121.502013333333","24.9558983333333","6500600","新店區"
"241035","462-BY","2017/08/15 18:49:34","新北市三重區重新路四段121號","121.484918333333","25.0520666666667","6500200","三重區"
"235066","003-UY","2017/08/15 18:49:25","新北市中和區水源路7巷4號","121.504101666667","25.0035966666667","6500300","中和區"
"235064","005-UY","2017/08/15 18:49:36","新北市中和區連城路75巷3弄4號","121.49804","24.999295","6500300","中和區"
"235063","006-UY","2017/08/15 18:49:38","新北市中和區錦和路95號","121.489983333333","24.9956283333333","6500300","中和區"
"235056","096-UM","2017/08/15 18:49:29","新北市中和區員山路466號","121.48","25.006455","6500300","中和區"
"235039","097-UM","2017/08/15 18:49:22","新北市中和區宜安路18巷13號","121.51393","24.9963216666667","6500300","中和區"
"235065","098-UM","2017/08/15 18:49:18","新北市中和區莊敬路49巷29弄6-6號","121.501396666667","25.0064466666667","6500300","中和區"
"235040","150-BY","2017/08/15 18:49:22","新北市中和區安平路36巷7號","121.510336666667","24.9948233333333","6500300","中和區"
"235058","151-BY","2017/08/15 18:49:24","新北市中和區連城路571-1號","121.479235","24.994485","6500300","中和區"
"235055","183-VK","2017/08/15 18:49:26","新北市中和區民生街37號","121.470285","25.0054233333333","6500300","中和區"
"235038","185-VK","2017/08/15 18:49:33","新北市中和區自強路64號","121.519901666667","24.9943816666667","6500300","中和區"
"235049","186-VK","2017/08/15 18:49:31","新北市中和區景平路504巷10號","121.504101666667","24.994175","6500300","中和區"
"235067","255-BX","2017/08/15 18:49:31","新北市中和區中山路二段449巷1弄11號","121.48388","25.003925","6500300","中和區"
"235044","293-VK","2017/08/15 18:49:27","新北市中和區復興路280巷18弄8號","121.502233333333","24.9917166666667","6500300","中和區"
"235072","301-VK","2017/08/15 18:49:35","新北市中和區中山路二段80號","121.503498333333","25.00454","6500300","中和區"
"235043","352-BY","2017/08/15 18:49:31","新北市中和區秀朗路三段72號","121.526366666667","24.9945033333333","6500300","中和區"
"235051","376-QA","2017/08/15 18:49:21","新北市中和區興南路二段114巷2號","121.504348333333","24.9842783333333","6500300","中和區"
"235068","377-QA","2017/08/15 18:49:17","新北市中和區中正路211巷13弄12號","121.497343333333","24.9933433333333","6500300","中和區"
"235061","378-QA","2017/08/15 18:49:23","新北市中和區民享街57號","121.474135","25.0025416666667","6500300","中和區"
"235050","4979-A6","2017/08/15 18:49:22","新北市中和區忠孝街39-2號","121.511645","24.9838333333333","6500300","中和區"
"235069","4980-A6","2017/08/15 18:49:22","新北市中和區南山路54號","121.501925","24.9974183333333","6500300","中和區"
"235042","551-UM","2017/08/15 18:49:31","新北市中和區秀朗路三段135巷18弄1號","121.525233333333","24.99181","6500300","中和區"
"235070","558-UM","2017/08/15 18:49:34","新北市中和區南華路51號","121.50404","24.9968233333333","6500300","中和區"
"235045","565-BX","2017/08/15 18:49:26","新北市中和區復興路37號","121.505191666667","24.9898916666667","6500300","中和區"
"235054","640-BX","2017/08/15 18:49:37","新北市中和區民享街54巷3號","121.473753333333","25.0023983333333","6500300","中和區"
"235060","647-TV","2017/08/15 18:49:21","新北市中和區中山路三段142號","121.473855","25.0061966666667","6500300","中和區"
"235047","732-UM","2017/08/15 18:49:20","新北市中和區興南路二段34巷55弄1號","121.504836666667","24.9862416666667","6500300","中和區"
"235046","733-UM","2017/08/15 18:49:22","新北市中和區仁愛街36巷44號","121.51136","24.9863033333333","6500300","中和區"
"235062","800-TS","2017/08/15 18:49:31","新北市中和區景平路703巷2弄2號","121.496248333333","25.003505","6500300","中和區"
"235057","801-TS","2017/08/15 18:49:32","新北市中和區民安街22巷16號","121.4797","25.001415","6500300","中和區"
"235041","802-TS","2017/08/15 18:49:29","新北市中和區宜安路170號","121.50885","24.9990066666667","6500300","中和區"
"235052","805-TS","2017/08/15 18:49:26","新北市中和區興南路二段399巷66號","121.49975","24.9787266666667","6500300","中和區"
"235048","896-TW","2017/08/15 18:49:32","新北市中和區南山路282號","121.507916666667","24.9877733333333","6500300","中和區"
"235053","900-TW","2017/08/15 18:49:27","新北市中和區華福街44號","121.466441666667","24.9965566666667","6500300","中和區"
"235037","AAC-213","2017/08/15 18:49:36","新北市中和區景平路73號","121.518978333333","24.99139","6500300","中和區"
"235059","AAC-215","2017/08/15 18:49:17","新北市中和區圓通路393巷16號","121.489776666667","24.9886333333333","6500300","中和區"
"220068","013-TV","2017/08/15 18:49:28","新北市板橋區民生路二段46號","121.472391666667","25.0174566666667","6500100","板橋區"
"220072","015-TV","2017/08/15 18:49:38","新北市板橋區金門街27號","121.433506666667","24.9944166666667","6500100","板橋區"
"220065","072-UY","2017/08/15 18:49:29","新北市板橋區民生路二段17號","121.472503333333","25.01626","6500100","板橋區"
"220034","073-UY","2017/08/15 18:49:34","新北市板橋區南雅西路二段192巷1弄21號","121.452326666667","25.0150533333333","6500100","板橋區"
"220106","075-UY","2017/08/15 18:49:20","新北市板橋區民生路二段161巷5號","121.470258333333","25.01973","6500100","板橋區"
"220069","AAD-861","2017/08/15 18:49:33","新北市板橋區民生路二段15號","121.472456666667","25.0159566666667","6500100","板橋區"
"226004","205-ST","2017/08/15 18:49:34","新北市平溪區靜安路二段530巷7號","121.744916666667","25.0273133333333","6502400","平溪區"
"228001","212-TW","2017/08/15 18:49:37","新北市貢寮區仁理村研海街12-1號","121.923758333333","25.051645","6502600","貢寮區"
"228002","663-BX","2017/08/15 18:49:31","新北市貢寮區福隆里東興街6-11號","121.950796666667","25.0210916666667","6502600","貢寮區"
"228003","828-UM","2017/08/15 18:49:27","新北市貢寮區和美里龍洞街56-3號","121.913261666667","25.1149616666667","6502600","貢寮區"
"224006","676-BX","2017/08/15 18:49:30","新北市瑞芳區民生街21號","121.805678333333","25.107555","6501200","瑞芳區"
"224011","420-VK","2017/08/15 18:49:35","新北市瑞芳區崙頂路1-6號","121.847046666667","25.1047866666667","6501200","瑞芳區"
"224009","285-BY","2017/08/15 18:49:30","新北市瑞芳區祈堂路53-1號","121.859595","25.1104466666667","6501200","瑞芳區"
"224008","275-VK","2017/08/15 18:49:25","新北市瑞芳區逢甲路412-2號","121.798031666667","25.1143333333333","6501200","瑞芳區"
"224007","273-VK","2017/08/15 18:49:15","新北市瑞芳區大埔路東泰新村2號","121.761425","25.1011983333333","6501200","瑞芳區"
"224005","271-BY","2017/08/15 18:49:30","新北市瑞芳區瑞濱路7號","121.827068333333","25.1215966666667","6501200","瑞芳區"
"227003","642-TC","2017/08/15 18:49:35","新北市雙溪區平林里梅竹蹊28號","121.861626666667","25.0360083333333","6502500","雙溪區"
"227009","400-TW","2017/08/15 18:49:35","新北市雙溪區牡丹里聖南15號","121.859901666667","25.05127","6502500","雙溪區"
"253006","032-BX","2017/08/15 18:49:29","新北市石門區下員坑16號","121.510591666667","25.2838716666667","6502200","石門區"
"253005","295-VK","2017/08/15 18:49:27","新北市石門區中山路28-3號","121.565781666667","25.2898733333333","6502200","石門區"
"208002","742-BX","2017/08/15 18:49:31","新北市金山區信義路60號","121.63575","25.2190516666667","6502700","金山區"
"208003","665-BX","2017/08/15 18:49:21","新北市金山區中山路393號","121.6334","25.2252383333333","6502700","金山區"
"208001","761-BX","2017/08/15 18:49:24","新北市金山區文化三路66巷2弄1號","121.634313333333","25.2257083333333","6502700","金山區"
"251004","009-UM","2017/08/15 18:49:23","新北市淡水區中正東路二段143巷2弄1號","121.460653333333","25.1472483333333","6501000","淡水區"
"251014","180-VK","2017/08/15 18:49:17","新北市淡水區崙頂29號","121.48717","25.22297","6501000","淡水區"
"251008","181-VK","2017/08/15 18:49:29","新北市淡水區淡金路二段371號","121.44702","25.1860166666667","6501000","淡水區"
"251010","413-VK","2017/08/15 18:49:37","新北市淡水區沙崙路11號","121.421133333333","25.1812733333333","6501000","淡水區"
"251012","441-VK","2017/08/15 18:49:24","新北市淡水區新興街6號","121.444065","25.1802516666667","6501000","淡水區"
"251016","442-VK","2017/08/15 18:49:23","新北市淡水區下圭柔山71-3號","121.44708","25.2061616666667","6501000","淡水區"
"251001","559-UM","2017/08/15 18:49:28","新北市淡水區自強路88號","121.462641666667","25.128375","6501000","淡水區"
"251009","575-R6","2017/08/15 18:49:34","新北市淡水區重建街125-4號","121.440313333333","25.1731233333333","6501000","淡水區"
"251011","650-BX","2017/08/15 18:49:35","新北市淡水區鄧公路30巷2弄31號","121.453381666667","25.169075","6501000","淡水區"
"251002","672-BX","2017/08/15 18:49:25","新北市淡水區學府路88號","121.44895","25.170715","6501000","淡水區"
"251003","673-BX","2017/08/15 18:49:38","新北市淡水區中山北路一段153號","121.443238333333","25.1774783333333","6501000","淡水區"
"207003","550-UM","2017/08/15 18:49:38","新北市萬里區大鵬里頂社1號","121.657016666667","25.20971","6502800","萬里區"
"207004","225-TW","2017/08/15 18:49:32","新北市萬里區萬里里獅頭路23號","121.693213333333","25.1782533333333","6502800","萬里區"
"252002","178-VK","2017/08/15 18:49:36","新北市三芝區智成街68號","121.50481","25.2561966666667","6502100","三芝區"
"252003","249-BX","2017/08/15 18:49:24","新北市三芝區後厝里大片頭76號","121.459271666667","25.2456866666667","6502100","三芝區"
"252001","292-VK","2017/08/15 18:49:29","新北市三芝區中正路三段9號","121.502961666667","25.253895","6502100","三芝區"
"237004","078-UY","2017/08/15 18:49:30","新北市三峽區有木154-5號","121.450305","24.8446066666667","6500900","三峽區"
"237007","153-BY","2017/08/15 18:49:36","新北市三峽區中正路二段399號","121.365016666667","24.907595","6500900","三峽區"
"237009","210-TH","2017/08/15 18:49:25","新北市三峽區中山路459巷52-1號","121.35723","24.9363416666667","6500900","三峽區"
"237013","252-BX","2017/08/15 18:49:24","新北市三峽區光明路69巷24號","121.376621666667","24.9290733333333","6500900","三峽區"
"237012","275-BY","2017/08/15 18:49:30","新北市三峽區三樹路340號","121.383921666667","24.9433533333333","6500900","三峽區"
"237008","302-VK","2017/08/15 18:49:36","新北市三峽區白雞35號","121.375731666667","24.911975","6500900","三峽區"
"237014","433-BY","2017/08/15 18:49:39","新北市三峽區隆恩街230號","121.358436666667","24.941365","6500900","三峽區"
"237006","5529-G3","2017/08/15 18:49:19","新北市三峽區溪東路233巷47弄2號","121.411281666667","24.9352116666667","6500900","三峽區"
"237011","572-TV","2017/08/15 18:49:24","新北市三峽區介壽路三段65號","121.395495","24.9379566666667","6500900","三峽區"
"237016","649-BX","2017/08/15 18:49:36","新北市三峽區成福路284號","121.428525","24.9230216666667","6500900","三峽區"
"237010","706-TV","2017/08/15 18:49:07","新北市三峽區國光街364巷11號","121.371085","24.9400883333333","6500900","三峽區"
"237005","AKY-6261","2017/08/15 18:49:31","新北市三峽區中山路365-1號","121.357638333333","24.9365333333333","6500900","三峽區"
"236070","105-UM","2017/08/15 18:49:30","新北市土城區延和路19號","121.46422","24.988145","6501300","土城區"
"236043","107-UM","2017/08/15 18:49:29","新北市土城區裕民路92巷25弄5號","121.44981","24.9858983333333","6501300","土城區"
"236079","166-UM","2017/08/15 18:49:26","新北市土城區中央路四段121號","121.416278333333","24.9575483333333","6501300","土城區"
"236031","253-BX","2017/08/15 18:49:21","新北市土城區中華路二段96號","121.438193333333","24.9744683333333","6501300","土城區"
"236027","269-VK","2017/08/15 18:49:25","新北市土城區農豐街14號","121.44257","24.973905","6501300","土城區"
"236015","270-VK","2017/08/15 18:49:18","新北市土城區金城路二段354巷8號","121.460861666667","24.984535","6501300","土城區"
"236038","271-VK","2017/08/15 18:49:21","新北市土城區明德路一段235巷13弄2號","121.463403333333","24.977595","6501300","土城區"
"236023","401-BY","2017/08/15 18:49:37","新北市土城區延安街39巷1號","121.468265","24.9838566666667","6501300","土城區"
"236059","912-UM","2017/08/15 18:49:23","新北市土城區中央路三段137號","121.433591666667","24.9654233333333","6501300","土城區"
"236049","913-UM","2017/08/15 18:49:34","新北市土城區廣福街68巷18弄1號","121.459501666667","24.990545","6501300","土城區"
"236063","915-UM","2017/08/15 18:49:26","新北市土城區延和路215號","121.469848333333","24.98979","6501300","土城區"
"236055","AAC-216","2017/08/15 18:49:20","新北市土城區裕民路193-1號","121.4537","24.984225","6501300","土城區"
"242061","362-BY","2017/08/15 18:49:31","新北市新莊區民安東路34號","121.428833333333","25.0208883333333","6500500","新莊區"
"242044","172-VK","2017/08/15 18:49:29","新北市泰山區全興路332號","121.438285","25.049745","6500500","新莊區"
"242054","349-TH","2017/08/15 18:49:32","新北市樹林區八德街247巷24-3號","121.419936666667","24.97332","6500500","新莊區"
"238023","601-UM","2017/08/15 18:49:31","新北市樹林區三福街114號","121.406485","25.0162533333333","6500700","樹林區"
"238019","599-UM","2017/08/15 18:49:21","新北市樹林區東陽街30號","121.413158333333","24.9813916666667","6500700","樹林區"
"238018","571-TV","2017/08/15 18:49:23","新北市樹林區樹新路113號","121.428155","24.9959316666667","6500700","樹林區"
"238022","312-TH","2017/08/15 18:49:38","新北市樹林區東大街1號","121.41395","24.9766316666667","6500700","樹林區"
"238025","303-VK","2017/08/15 18:49:26","新北市樹林區中山路三段22號","121.395673333333","24.972995","6500700","樹林區"
"238017","283-BY","2017/08/15 18:49:25","新北市樹林區光興街50號","121.409866666667","25.0027716666667","6500700","樹林區"
"238014","282-BY","2017/08/15 18:49:25","新北市樹林區潭興街109號","121.425003333333","24.999055","6500700","樹林區"
"238020","268-VK","2017/08/15 17:12:11","新北市樹林區中山路三段204號","121.386853333333","24.96876","6500700","樹林區"
"238026","172-UY","2017/08/15 18:49:35","新北市樹林區信和街100號","121.388441666667","24.9734066666667","6500700","樹林區"
"238016","169-UY","2017/08/15 18:49:33","新北市樹林區文化街28號","121.419318333333","24.9877733333333","6500700","樹林區"
"239007","AAC-297","2017/08/15 18:49:31","新北市鶯歌區成功街9號","121.358496666667","24.9575066666667","6500800","鶯歌區"
"239006","891-R6","2017/08/15 18:49:30","新北市鶯歌區鶯桃路296巷72弄31號","121.337445","24.9610533333333","6500800","鶯歌區"
"239008","527-UM","2017/08/15 18:49:30","新北市鶯歌區國際二路70巷30號","121.336338333333","24.9752983333333","6500800","鶯歌區"
"239005","526-UM","2017/08/15 18:49:31","新北市鶯歌區大湖路361巷50號","121.330888333333","24.977535","6500800","鶯歌區"
"239001","417-VK","2017/08/15 18:49:23","新北市鶯歌區永明街7號","121.338181666667","24.95508","6500800","鶯歌區"
"239003","360-BY","2017/08/15 18:49:22","新北市鶯歌區鶯桃路628號","121.329736666667","24.968685","6500800","鶯歌區"
"239002","359-BY","2017/08/15 18:49:26","新北市鶯歌區中山路170號","121.348836666667","24.9570233333333","6500800","鶯歌區"
"239004","193-VK","2017/08/15 18:49:25","新北市鶯歌區中正三路259巷11號","121.333183333333","24.9375566666667","6500800","鶯歌區"
"221008","489-VK","2017/08/15 18:37:55","新北市汐止區康寧街901號","121.65145","25.0750183333333","6501100","汐止區"
"221036","130-UY","2017/08/15 18:49:36","新北市汐止區水碓街18號","121.664108333333","25.0697883333333","6501100","汐止區"
"221015","131-UY","2017/08/15 18:49:35","新北市汐止區鄉長路一段55巷17號","121.664866666667","25.0762566666667","6501100","汐止區"
"221010","269-BY","2017/08/15 18:49:25","新北市汐止區汐萬路一段256巷3號","121.652635","25.0746066666667","6501100","汐止區"
"241031","276-VK","2017/08/15 13:19:10","新北市汐止區汐萬路一段256巷3號","121.653445","25.07462","6500200","三重區"
"221012","278-VK","2017/08/15 18:45:22","新北市汐止區汐萬路一段170號","121.652756666667","25.0717116666667","6501100","汐止區"
"221023","279-VK","2017/08/15 18:49:12","新北市汐止區汐萬路一段256巷3號","121.653658333333","25.0744416666667","6501100","汐止區"
"221032","280-BY","2017/08/15 18:49:31","新北市汐止區橫科路322巷24弄6-1號","121.620536666667","25.0499883333333","6501100","汐止區"
"221027","281-BY","2017/08/15 18:49:38","新北市汐止區康寧街901號","121.650861666667","25.0752583333333","6501100","汐止區"
"221038","297-VK","2017/08/15 18:49:27","新北市汐止區汐萬路一段312號","121.650671666667","25.0753116666667","6501100","汐止區"
"221029","298-VK","2017/08/15 18:49:34","新北市汐止區工建路66號","121.640333333333","25.0630066666667","6501100","汐止區"
"221021","299-VK","2017/08/15 17:29:02","新北市汐止區汐萬路一段256巷3號","121.652291666667","25.07526","6501100","汐止區"
"221031","353-TW","2017/08/15 18:49:18","新北市汐止區福德一路270號","121.632173333333","25.06401","6501100","汐止區"
"221035","622-UM","2017/08/15 18:49:33","新北市汐止區大同路二段182號","121.652128333333","25.0640433333333","6501100","汐止區"
"221025","623-UM","2017/08/15 18:49:24","新北市汐止區忠孝東路9號","121.657765","25.0656316666667","6501100","汐止區"
"221033","647-BX","2017/08/15 18:49:34","新北市汐止區南勢街1巷1號","121.627033333333","25.0374316666667","6501100","汐止區"
"221002","707-TV","2017/08/15 18:49:29","新北市汐止區大同路一段154-1號","121.631916666667","25.055975","6501100","汐止區"
"221018","753-BX","2017/08/15 18:49:33","新北市汐止區茄苳路43號","121.6659","25.0708233333333","6501100","汐止區"
"220079","145-BY","2017/08/15 18:49:32","新北市板橋區民權路202巷8弄2號","121.46011","25.0147266666667","6500100","板橋區"
"220093","146-RM","2017/08/15 18:49:23","新北市板橋區民生路二段120號","121.470506666667","25.019595","6500100","板橋區"
"220080","200-UY","2017/08/15 18:49:34","新北市板橋區大觀路二段265巷72弄1號","121.442473333333","24.9968233333333","6500100","板橋區"
"220075","256-TC","2017/08/15 18:49:22","新北市板橋區大觀路一段28巷106-1號","121.450756666667","25.0109566666667","6500100","板橋區"
"220056","276-BY","2017/08/15 18:49:18","新北市板橋區四川路二段113號","121.451478333333","24.9942666666667","6500100","板橋區"
"220073","282-UM","2017/08/15 18:49:21","新北市板橋區篤行路二段136號","121.429981666667","24.9887066666667","6500100","板橋區"
"220094","283-UM","2017/08/15 18:49:30","新北市板橋區民生路二段120號","121.470411666667","25.01955","6500100","板橋區"
"220071","283-VK","2017/08/15 18:49:25","新北市板橋區民生路二段15號","121.472541666667","25.0161133333333","6500100","板橋區"
"220053","285-VK","2017/08/15 18:49:27","新北市板橋區民生路二段46號","121.472445","25.017445","6500100","板橋區"
"220083","286-VK","2017/08/15 18:49:35","新北市板橋區大觀路二段22巷26號","121.445385","25.0035816666667","6500100","板橋區"
"220081","287-VK","2017/08/15 18:49:25","新北市板橋區南雅西路二段177號","121.451761666667","25.0125616666667","6500100","板橋區"
"220090","288-VK","2017/08/15 18:49:25","新北市板橋區民生路二段120號","121.470386666667","25.019565","6500100","板橋區"
"220061","293-UM","2017/08/15 18:49:20","新北市板橋區民生路二段36號","121.472528333333","25.0172516666667","6500100","板橋區"
"220055","295-UM","2017/08/15 18:49:21","新北市板橋區民生路二段17號","121.472576666667","25.016205","6500100","板橋區"
"220084","296-UM","2017/08/15 18:49:20","新北市板橋區大觀路二段148巷50號","121.44186","25.000325","6500100","板橋區"
"220098","299-UM","2017/08/15 18:49:28","新北市板橋區民生路二段120號","121.470406666667","25.0198666666667","6500100","板橋區"
"220062","303-R5","2017/08/15 18:49:22","新北市板橋區觀光街1巷1號","121.472176666667","25.0154566666667","6500100","板橋區"
"220092","307-R5","2017/08/15 18:49:23","新北市板橋區民生路二段120號","121.470455","25.0197016666667","6500100","板橋區"
"220064","486-VK","2017/08/15 15:19:55","新北市板橋區民生路二段36-1號","121.472461666667","25.016655","6500100","板橋區"
"220089","487-VK","2017/08/15 18:49:22","新北市板橋區民生路二段120號","121.470565","25.01952","6500100","板橋區"
"220088","491-VK","2017/08/15 18:49:23","新北市板橋區民生路二段161巷1號","121.469951666667","25.0197466666667","6500100","板橋區"
"220035","560-BX","2017/08/15 18:49:34","新北市板橋區中正路275巷62弄4-3號","121.453075","25.0181066666667","6500100","板橋區"
"220063","609-BX","2017/08/15 15:48:43","新北市板橋區民生路二段17號","121.472658333333","25.01651","6500100","板橋區"
"220077","687-BX","2017/08/15 18:49:38","新北市板橋區大觀路二段174巷181號","121.44213","25.0038783333333","6500100","板橋區"
"220054","741-BX","2017/08/15 18:49:36","新北市板橋區莊敬路8號","121.473181666667","25.0280716666667","6500100","板橋區"
"220102","830-TW","2017/08/15 15:36:54","新北市板橋區民生路二段161巷7號","121.470296666667","25.01973","6500100","板橋區"
"220096","831-TW","2017/08/15 16:05:27","新北市板橋區民生路二段161巷5號","121.470205","25.01975","6500100","板橋區"
"220074","895-R6","2017/08/15 18:49:29","新北市板橋區南門街52號","121.456905","25.0080816666667","6500100","板橋區"
"220073","985-R7","2017/08/15 18:49:37","新北市板橋區館前西路121號","121.456733333333","25.007445","6500100","板橋區"
"220097","AAC-210","2017/08/15 18:49:21","新北市板橋區民生路二段120號","121.47039","25.019595","6500100","板橋區"
"220070","AAC-253","2017/08/15 18:49:22","新北市板橋區民生路二段36-1號","121.472328333333","25.0168583333333","6500100","板橋區"
