"lineid","car","time","location","longitude","latitude","cityid","cityname"
"234046","148-BY","2017/08/15 19:24:33","新北市永和區得和路275號","121.522365","24.9996316666667","6500400","永和區"
"234013","149-BY","2017/08/15 19:25:15","新北市永和區中山路一段7號","121.5142","25.0102433333333","6500400","永和區"
"234007","207-UY","2017/08/15 19:25:12","新北市永和區中山路一段64號","121.51278","25.0107766666667","6500400","永和區"
"234081","298-R6","2017/08/15 19:25:25","新北市永和區環河東路三段52巷7號","121.526333333333","25.0058633333333","6500400","永和區"
"234038","336-UY","2017/08/15 19:25:24","新北市永和區民樂街28號","121.527478333333","25.001505","6500400","永和區"
"234064","337-UY","2017/08/15 19:25:19","新北市永和區秀朗路二段24巷33號","121.52045","25.00201","6500400","永和區"
"234086","338-UY","2017/08/15 19:25:20","新北市永和區林森路92號","121.523315","25.0036816666667","6500400","永和區"
"234070","552-UM","2017/08/15 19:25:23","新北市永和區警光街2號","121.520151666667","25.0096483333333","6500400","永和區"
"234054","553-UM","2017/08/15 19:25:30","新北市永和區中興街1號","121.515398333333","25.0121583333333","6500400","永和區"
"234017","745-BX","2017/08/15 19:24:53","新北市永和區環河西路一段87-1號","121.512523333333","25.0180316666667","6500400","永和區"
"234030","746-BX","2017/08/15 19:25:15","新北市永和區民權路60號","121.519938333333","24.998155","6500400","永和區"
"234061","AAD-866","2017/08/15 19:25:12","新北市永和區秀朗路一段80-7號","121.5159","25.0055566666667","6500400","永和區"
"234042","862-TW","2017/08/15 19:25:19","新北市永和區永貞路285號","121.511136666667","25.00541","6500400","永和區"
"234050","863-TW","2017/08/15 19:25:23","新北市永和區信義路117號","121.512333333333","25.0148483333333","6500400","永和區"
"234026","9371-KE","2017/08/15 19:25:16","新北市永和區安樂路144巷15號","121.514693333333","25.00026","6500400","永和區"
"234011","9373-KE","2017/08/15 19:25:15","新北市永和區保福路二段15巷11號","121.510518333333","25.0109383333333","6500400","永和區"
"249005","172-UM","2017/08/15 16:50:35","新北市八里區挖子尾街6號","121.41544","25.1641916666667","6502300","八里區"
"248008","095-VK","2017/08/15 19:25:16","新北市五股區中興路二段83巷26-6號","121.459673333333","25.0748733333333","6501500","五股區"
"248020","225-UY","2017/08/15 19:25:18","新北市五股區凌雲路三段71-12號","121.424806666667","25.1235233333333","6501500","五股區"
"248012","247-BX","2017/08/15 19:25:15","新北市五股區中興路四段48巷16號","121.438623333333","25.08346","6501500","五股區"
"248010","272-BY","2017/08/15 19:25:24","新北市五股區自強路90巷72號","121.430695","25.07126","6501500","五股區"
"248004","677-BX","2017/08/15 19:25:25","新北市五股區五福路147號","121.431861666667","25.091625","6501500","五股區"
"248002","678-BX","2017/08/15 19:25:14","新北市五股區凌雲路一段158巷6號","121.447801666667","25.10296","6501500","五股區"
"234023","9380-KE","2017/08/15 19:25:13","新北市永和區竹林路91巷28號","121.520766666667","25.01235","6500400","永和區"
"234077","969-R7","2017/08/15 19:25:13","新北市永和區民治街29號","121.519633333333","24.9976816666667","6500400","永和區"
"234074","AAC-211","2017/08/15 19:25:16","新北市永和區光復街60巷25號","121.517758333333","25.017525","6500400","永和區"
"234067","AAC-212","2017/08/15 19:25:22","新北市永和區永貞路378巷29號","121.510403333333","25.0078783333333","6500400","永和區"
"234003","AAC-295","2017/08/15 19:25:23","新北市永和區中山路一段80號","121.512073333333","25.01084","6500400","永和區"
"244019","403-UM","2017/08/15 19:25:20","新北市林口區麗園二街60巷19號","121.381201666667","25.0675066666667","6501700","林口區"
"244023","657-BX","2017/08/15 19:25:22","新北市林口區民有街30號","121.372113333333","25.0765633333333","6501700","林口區"
"244013","658-BX","2017/08/15 19:25:24","新北市林口區麗園一街1號","121.375793333333","25.0724833333333","6501700","林口區"
"244011","701-TV","2017/08/15 19:25:23","新北市林口區嘉寶里1鄰4-1號","121.344181666667","25.10124","6501700","林口區"
"243013","AAD-798","2017/08/15 19:25:26","新北市泰山區明志路三段145巷36弄2號","121.426546666667","25.0393616666667","6501600","泰山區"
"243009","297-R6","2017/08/15 19:25:19","新北市泰山區明志路一段21號","121.433838333333","25.06573","6501600","泰山區"
"243015","380-SR","2017/08/15 19:25:18","新北市泰山區明志路二段51號","121.429398333333","25.0527866666667","6501600","泰山區"
"243014","421-VK","2017/08/15 19:25:14","新北市泰山區泰林路二段33-1號","121.435843333333","25.0569433333333","6501600","泰山區"
"243010","548-UM","2017/08/15 19:25:22","新北市泰山區民族街10巷2號","121.429086666667","25.05177","6501600","泰山區"
"243011","549-UM","2017/08/15 19:25:28","新北市三重區新北大道六段50-1號","121.429111666667","25.0402283333333","6501600","泰山區"
"243012","646-TV","2017/08/15 19:25:28","新北市泰山區仁義路220巷2號","121.432933333333","25.0539933333333","6501600","泰山區"
"243016","680-BX","2017/08/15 19:25:20","新北市泰山區工專路74號","121.422471666667","25.0405033333333","6501600","泰山區"
"222003","436-BY","2017/08/15 19:25:23","新北市深坑區深南路111號","121.625971666667","25.0162533333333","6501800","深坑區"
"222002","659-BX","2017/08/15 19:25:15","新北市深坑區北深路一段177號","121.63256","25.0109233333333","6501800","深坑區"
"222001","696-SL","2017/08/15 19:25:27","新北市深坑區北深路二段117號","121.616856666667","25.00321","6501800","深坑區"
"231041","002-UM","2017/08/15 19:25:30","新北市新店區中正路695巷6-1號","121.53397","24.99076","6500600","新店區"
"231059","046-UY","2017/08/15 19:25:26","新北市新店區安和路三段59號","121.517861666667","24.9830116666667","6500600","新店區"
"231061","047-UY","2017/08/15 19:25:25","新北市新店區安康路一段361號","121.51809","24.9640683333333","6500600","新店區"
"231060","106-UY","2017/08/15 19:25:11","新北市新店區安康路二段3-3號","121.51582","24.9637333333333","6500600","新店區"
"231051","107-UY","2017/08/15 19:25:17","新北市新店區中央路208號","121.530303333333","24.9739216666667","6500600","新店區"
"231048","108-UY","2017/08/15 19:25:32","新北市新店區五峰路121號","121.54499","24.966515","6500600","新店區"
"231068","110-UY","2017/08/15 19:12:26","新北市新店區安華路28-1號","121.519136666667","24.9612816666667","6500600","新店區"
"231053","187-VK","2017/08/15 19:25:20","新北市新店區櫻花街190號","121.54791","24.9202333333333","6500600","新店區"
"231063","268-BY","2017/08/15 19:25:12","新北市新店區達觀路16號","121.502855","24.940875","6500600","新店區"
"231046","278-BY","2017/08/15 19:25:26","新北市新店區華城路2號","121.530513333333","24.9605566666667","6500600","新店區"
"231050","AAD-862","2017/08/15 19:25:30","新北市新店區北宜路二段82-39號","121.553691666667","24.9532316666667","6500600","新店區"
"231058","3712-VJ","2017/08/15 19:25:20","新北市新店區北新路二段2號","121.542593333333","24.97056","6500600","新店區"
"231067","4772-VM","2017/08/15 19:25:20","新北市新店區薏仁坑路自強巷1號","121.497638333333","24.9577066666667","6500600","新店區"
"231065","512-UM","2017/08/15 19:25:17","新北市新店區安祥路109巷3弄6號","121.47542","24.959655","6500600","新店區"
"231054","513-UM","2017/08/15 19:25:28","新北市新店區文中路40號","121.539786666667","24.9565233333333","6500600","新店區"
"231064","515-UM","2017/08/15 19:25:27","新北市新店區安忠路57巷5-6號","121.513135","24.958785","6500600","新店區"
"231042","616-UM","2017/08/15 19:25:26","新北市新店區北宜路一段3號","121.538423333333","24.9585516666667","6500600","新店區"
"231045","617-UM","2017/08/15 19:25:11","新北市新店區北宜路二段205號","121.553046666667","24.9533866666667","6500600","新店區"
"231040","619-UM","2017/08/15 19:25:15","新北市新店區中華路52號","121.539566666667","24.96854","6500600","新店區"
"231049","719-UM","2017/08/15 19:25:16","新北市新店區北新路三段65巷16號","121.540713333333","24.9810366666667","6500600","新店區"
"231062","720-UM","2017/08/15 19:25:22","新北市新店區莒光路59號","121.523446666667","24.9588466666667","6500600","新店區"
"231044","897-TW","2017/08/15 19:25:23","新北市新店區中興路三段225號","121.543196666667","24.983135","6500600","新店區"
"231043","899-TW","2017/08/15 19:25:28","新北市新店區北新路二段214號","121.542891666667","24.9768883333333","6500600","新店區"
"231066","AKT-0513","2017/08/15 19:25:29","新北市新店區安康路三段207巷15號","121.488413333333","24.95081","6500600","新店區"
"241028","022-UY","2017/08/15 19:25:16","新北市三重區中寮街31號","121.492655","25.0588983333333","6500200","三重區"
"241009","060-VK","2017/08/15 19:25:26","新北市三重區溪尾街242巷33號","121.486825","25.081675","6500200","三重區"
"241031","061-VK","2017/08/15 19:25:29","新北市三重區集美街21-1號","121.487948333333","25.05605","6500200","三重區"
"241017","063-VK","2017/08/15 19:25:29","新北市三重區長壽西街174號","121.493073333333","25.0663916666667","6500200","三重區"
"241026","066-VK","2017/08/15 19:25:09","新北市三重區文化南路47巷37號","121.499275","25.0611533333333","6500200","三重區"
"241006","156-TC","2017/08/15 19:25:15","新北市三重區力行路二段151號","121.483681666667","25.0775333333333","6500200","三重區"
"241008","265-UM","2017/08/15 19:25:30","新北市三重區永福街135巷32弄14號","121.476978333333","25.0765566666667","6500200","三重區"
"241022","267-UM","2017/08/15 19:25:15","新北市三重區三民街88號","121.485551666667","25.063035","6500200","三重區"
"241032","269-UM","2017/08/15 19:25:19","新北市三重區三陽路13巷8-3號","121.485728333333","25.0592633333333","6500200","三重區"
"241025","271-UM","2017/08/15 19:25:23","新北市三重區頂崁街210巷23弄13號","121.476211666667","25.0686733333333","6500200","三重區"
"241020","412-TH","2017/08/15 19:25:25","新北市三重區三和路四段44巷27號","121.489311666667","25.0741","6500200","三重區"
"241035","462-BY","2017/08/15 19:25:14","新北市三重區信義西街138號","121.49547","25.0641466666667","6500200","三重區"
"241030","480-VK","2017/08/15 19:25:13","新北市三重區成功路41巷45號","121.490796666667","25.052275","6500200","三重區"
"241029","942-UM","2017/08/15 19:25:21","新北市三重區中正南路199號","121.493256666667","25.0544816666667","6500200","三重區"
"235066","003-UY","2017/08/15 19:25:25","新北市中和區中和路102號","121.502663333333","24.999765","6500300","中和區"
"235064","005-UY","2017/08/15 19:25:16","新北市中和區連城路2號","121.499238333333","25.0024716666667","6500300","中和區"
"235063","006-UY","2017/08/15 19:25:18","新北市中和區中正路262號","121.495388333333","24.9944","6500300","中和區"
"235056","096-UM","2017/08/15 19:25:09","新北市中和區中山路三段102號","121.476953333333","25.0059666666667","6500300","中和區"
"235039","097-UM","2017/08/15 19:25:22","新北市中和區景平路4號","121.52431","24.99029","6500300","中和區"
"235065","098-UM","2017/08/15 19:25:18","新北市中和區中山路二段64巷7弄5號","121.503536666667","25.00479","6500300","中和區"
"235040","150-BY","2017/08/15 19:25:22","新北市中和區保健路50巷45號","121.509691666667","24.9959133333333","6500300","中和區"
"235058","151-BY","2017/08/15 19:25:25","新北市中和區中正路637巷60弄61號","121.485425","24.9929983333333","6500300","中和區"
"235055","183-VK","2017/08/15 19:25:26","新北市中和區莒光路105號","121.472413333333","25.0028233333333","6500300","中和區"
"235038","185-VK","2017/08/15 19:25:13","新北市中和區大仁街8號","121.517836666667","24.9925716666667","6500300","中和區"
"235049","186-VK","2017/08/15 19:25:31","新北市中和區景平路396-1號","121.50983","24.993205","6500300","中和區"
"235067","255-BX","2017/08/15 19:25:11","新北市中和區民樂路81號","121.484543333333","25.0013533333333","6500300","中和區"
"235044","293-VK","2017/08/15 19:25:27","新北市中和區中興街256號","121.499141666667","24.9877366666667","6500300","中和區"
"235072","301-VK","2017/08/15 19:25:09","新北市中和區連城路265巷8弄2號","121.491521666667","24.9957566666667","6500300","中和區"
"235043","352-BY","2017/08/15 19:25:26","新北市中和區南山路201號","121.502928333333","24.9945583333333","6500300","中和區"
"235051","376-QA","2017/08/15 19:25:21","新北市中和區和平街2巷2弄1號","121.510143333333","24.9902933333333","6500300","中和區"
"235068","377-QA","2017/08/15 19:25:17","新北市中和區景平路545巷1弄1號","121.498445","24.99924","6500300","中和區"
"235061","378-QA","2017/08/15 19:25:23","新北市中和區連城路424號","121.480133333333","24.9950766666667","6500300","中和區"
"235050","4979-A6","2017/08/15 19:25:18","新北市中和區中正路149號","121.4991","24.9931733333333","6500300","中和區"
"235069","4980-A6","2017/08/15 19:25:22","新北市中和區橋和路170號","121.494401666667","25.006515","6500300","中和區"
"235042","551-UM","2017/08/15 19:25:31","新北市中和區安樂路143巷2弄5號","121.514026666667","24.99776","6500300","中和區"
"235070","558-UM","2017/08/15 19:25:14","新北市中和區中山路二段207號","121.499608333333","25.002345","6500300","中和區"
"235045","565-BX","2017/08/15 19:25:26","新北市中和區景新街423巷35弄34號","121.513951666667","24.99032","6500300","中和區"
"235054","640-BX","2017/08/15 19:25:17","新北市中和區國光街107巷2弄18號","121.469806666667","24.9996016666667","6500300","中和區"
"235060","647-TV","2017/08/15 19:25:21","新北市中和區員山路393號","121.481233333333","25.0029266666667","6500300","中和區"
"235047","732-UM","2017/08/15 19:25:20","新北市中和區景平路241巷1號","121.5096","24.99259","6500300","中和區"
"235046","733-UM","2017/08/15 19:25:22","新北市中和區忠孝街20巷10號","121.510513333333","24.982385","6500300","中和區"
"235057","801-TS","2017/08/15 19:25:13","新北市中和區員山路423巷12弄1號","121.480491666667","25.0031883333333","6500300","中和區"
"235041","802-TS","2017/08/15 19:25:29","新北市永和區中和路331號","121.507453333333","24.99972","6500300","中和區"
"235052","805-TS","2017/08/15 19:25:25","新北市中和區華新街143巷19號","121.506635","24.9809683333333","6500300","中和區"
"235048","896-TW","2017/08/15 19:25:13","新北市中和區忠孝街128號","121.512025","24.98657","6500300","中和區"
"235053","900-TW","2017/08/15 19:25:27","新北市中和區民德路232號","121.468078333333","24.9975966666667","6500300","中和區"
"235071","911-UM","2017/08/15 19:25:19","新北市中和區連城路469巷33號","121.483588333333","24.9946483333333","6500300","中和區"
"235037","AAC-213","2017/08/15 19:25:15","新北市中和區秀朗路三段10巷37弄4號","121.524096666667","24.9958","6500300","中和區"
"235059","AAC-215","2017/08/15 19:25:17","新北市中和區圓通路286巷18號","121.491723333333","24.991475","6500300","中和區"
"220068","013-TV","2017/08/15 19:25:28","新北市板橋區翠華街6巷82號","121.481748333333","25.0246466666667","6500100","板橋區"
"220072","015-TV","2017/08/15 19:25:18","新北市板橋區金門街335號","121.429273333333","24.9857083333333","6500100","板橋區"
"220065","072-UY","2017/08/15 19:25:29","新北市板橋區國泰街77號","121.467405","25.006505","6500100","板橋區"
"220034","073-UY","2017/08/15 19:25:23","新北市板橋區國光路173巷3弄2號","121.460363333333","25.0188483333333","6500100","板橋區"
"220106","075-UY","2017/08/15 19:25:14","新北市板橋區雙十路三段72號","121.470203333333","25.0325966666667","6500100","板橋區"
"220069","AAD-861","2017/08/15 19:25:17","新北市板橋區大明街20巷25-3號","121.458831666667","25.0035583333333","6500100","板橋區"
"220103","120-SR","2017/08/15 19:25:25","新北市板橋區文化路一段188巷11號","121.466551666667","25.01949","6500100","板橋區"
"247014","057-VK","2017/08/15 19:25:17","新北市蘆洲區中央路151號","121.472383333333","25.0845016666667","6501400","蘆洲區"
"247004","056-VK","2017/08/15 19:25:19","新北市蘆洲區長安街291號","121.45813","25.084555","6501400","蘆洲區"
"226004","205-ST","2017/08/15 19:25:14","新北市平溪區靜安路三段369號","121.780816666667","25.046385","6502400","平溪區"
"228001","212-TW","2017/08/15 19:25:17","新北市貢寮區真理里大澳街1號","121.924886666667","25.0555083333333","6502600","貢寮區"
"228002","663-BX","2017/08/15 19:25:31","新北市貢寮區龍門里龍門街11-1號","121.931693333333","25.0254666666667","6502600","貢寮區"
"228003","828-UM","2017/08/15 19:25:27","新北市貢寮區和美里和美街19-2號","121.912795","25.0825883333333","6502600","貢寮區"
"224010","AGQ-8101","2017/08/15 19:25:05","新北市瑞芳區基山街132號","121.843773333333","25.1082533333333","6501200","瑞芳區"
"224006","676-BX","2017/08/15 19:25:28","新北市瑞芳區中山路70號","121.802761666667","25.1064633333333","6501200","瑞芳區"
"224011","420-VK","2017/08/15 19:25:15","新北市瑞芳區崙頂路1-6號","121.84705","25.1047166666667","6501200","瑞芳區"
"224009","285-BY","2017/08/15 19:25:10","新北市瑞芳區洞頂路155-10號","121.861505","25.1220216666667","6501200","瑞芳區"
"227003","642-TC","2017/08/15 19:25:15","新北市雙溪區雙溪里太平路8號","121.864143333333","25.035095","6502500","雙溪區"
"227009","400-TW","2017/08/15 19:25:29","新北市雙溪區新基里新基北街43號","121.868151666667","25.0396883333333","6502500","雙溪區"
"253006","032-BX","2017/08/15 19:25:09","新北市石門區楓林23-10號","121.538775","25.2911533333333","6502200","石門區"
"253005","295-VK","2017/08/15 19:25:28","新北市石門區小坑14-3號","121.600628333333","25.2872966666667","6502200","石門區"
"208002","742-BX","2017/08/15 19:25:29","新北市金山區中華路7號","121.634781666667","25.2203616666667","6502700","金山區"
"208003","665-BX","2017/08/15 19:25:21","新北市金山區中山路263巷14號","121.636403333333","25.221585","6502700","金山區"
"208001","761-BX","2017/08/15 19:25:24","新北市金山區金包里街79號","121.63815","25.2219616666667","6502700","金山區"
"251005","010-UM","2017/08/15 19:25:19","新北市淡水區水源街一段71巷11號","121.444425","25.1728683333333","6501000","淡水區"
"251014","180-VK","2017/08/15 19:25:17","新北市淡水區小中寮19-7號","121.484783333333","25.2296366666667","6501000","淡水區"
"251010","413-VK","2017/08/15 19:25:16","新北市淡水區淡海路184巷1-2號","121.420535","25.18505","6501000","淡水區"
"251016","442-VK","2017/08/15 19:25:23","新北市淡水區淡金路三段350巷18號","121.450791666667","25.2083933333333","6501000","淡水區"
"251001","559-UM","2017/08/15 19:25:26","新北市淡水區民權路183-2號","121.459591666667","25.1345066666667","6501000","淡水區"
"251006","561-UM","2017/08/15 19:25:25","新北市淡水區大義街29巷18號","121.441446666667","25.1780133333333","6501000","淡水區"
"251009","575-R6","2017/08/15 19:25:14","新北市淡水區大忠街5巷9號","121.443401666667","25.1765516666667","6501000","淡水區"
"251007","577-R6","2017/08/15 19:25:26","新北市淡水區坪頂路47號","121.457636666667","25.1625233333333","6501000","淡水區"
"251011","650-BX","2017/08/15 19:25:14","新北市淡水區中正東路二段143巷2弄1號","121.460773333333","25.147355","6501000","淡水區"
"251003","673-BX","2017/08/15 19:25:18","新北市淡水區中山北路一段204號","121.444603333333","25.1795633333333","6501000","淡水區"
"207003","550-UM","2017/08/15 19:25:18","新北市萬里區大鵬里萬里加投123號","121.645555","25.21343","6502800","萬里區"
"207004","225-TW","2017/08/15 19:25:12","新北市萬里區萬里里瑪鋉路4號","121.687655","25.17507","6502800","萬里區"
"252002","178-VK","2017/08/15 19:25:10","新北市三芝區淡金路二段18-1號","121.502686666667","25.2595016666667","6502100","三芝區"
"252001","292-VK","2017/08/15 19:25:29","新北市三芝區長勤街37巷18號","121.50111","25.2551266666667","6502100","三芝區"
"237004","078-UY","2017/08/15 19:25:30","新北市三峽區有木205-1號","121.439061666667","24.8515733333333","6500900","三峽區"
"237007","153-BY","2017/08/15 19:25:16","新北市三峽區中正路二段584巷4弄5號","121.359065","24.9067983333333","6500900","三峽區"
"237009","210-TH","2017/08/15 19:25:25","新北市三峽區信義街2號","121.370816666667","24.936115","6500900","三峽區"
"237013","252-BX","2017/08/15 19:25:24","新北市三峽區大同路5巷31號","121.378586666667","24.9280566666667","6500900","三峽區"
"237012","275-BY","2017/08/15 19:25:10","新北市三峽區三樹路222巷236弄8-3號","121.391373333333","24.943025","6500900","三峽區"
"237008","302-VK","2017/08/15 19:25:16","新北市三峽區光明路106巷52號","121.375313333333","24.9268183333333","6500900","三峽區"
"237014","433-BY","2017/08/15 19:25:19","新北市三峽區中山路63巷8號","121.366915","24.9343466666667","6500900","三峽區"
"237006","5529-G3","2017/08/15 19:25:19","新北市三峽區中正路一段336巷15弄2號","121.369971666667","24.9249383333333","6500900","三峽區"
"237016","649-BX","2017/08/15 19:25:16","新北市三峽區建安64-7號","121.448208333333","24.927645","6500900","三峽區"
"237005","AKY-6261","2017/08/15 19:25:31","新北市三峽區中山路190號","121.36376","24.9368766666667","6500900","三峽區"
"236070","105-UM","2017/08/15 19:25:10","新北市土城區學成路29號","121.452826666667","24.9869583333333","6501300","土城區"
"236079","166-UM","2017/08/15 19:25:26","新北市土城區中州路13號","121.413898333333","24.9575716666667","6501300","土城區"
"236027","269-VK","2017/08/15 19:25:25","新北市土城區中央路二段149巷33號","121.443061666667","24.9767216666667","6501300","土城區"
"236015","270-VK","2017/08/15 19:25:18","新北市土城區廣興街9號","121.456418333333","24.9916133333333","6501300","土城區"
"236023","401-BY","2017/08/15 19:25:24","新北市土城區峰廷街3號","121.469116666667","24.9873366666667","6501300","土城區"
"236059","912-UM","2017/08/15 19:25:22","新北市土城區中央路二段239-1號","121.440191666667","24.9719216666667","6501300","土城區"
"236049","913-UM","2017/08/15 19:25:19","新北市土城區清水路95號","121.45656","24.9817466666667","6501300","土城區"
"236063","915-UM","2017/08/15 19:25:26","新北市土城區金城路三段202-3號","121.469433333333","24.988555","6501300","土城區"
"238015","755-BX","2017/08/15 19:25:12","新北市樹林區復興路390巷18號","121.414595","24.9858683333333","6500700","樹林區"
"238023","601-UM","2017/08/15 19:25:11","新北市樹林區三興路25號","121.397088333333","25.015145","6500700","樹林區"
"238019","599-UM","2017/08/15 19:25:22","新北市樹林區鎮前街363號","121.416161666667","24.9837666666667","6500700","樹林區"
"238018","571-TV","2017/08/15 19:25:16","新北市樹林區太平路56巷25號","121.418395","24.9816133333333","6500700","樹林區"
"238024","5061-A6","2017/08/15 19:25:22","新北市樹林區福德街47號","121.399418333333","24.97481","6500700","樹林區"
"238022","312-TH","2017/08/15 19:25:18","新北市樹林區八德街118號","121.421335","24.97948","6500700","樹林區"
"238025","303-VK","2017/08/15 19:25:26","新北市樹林區中山路一段106號","121.423028333333","24.9908733333333","6500700","樹林區"
"238017","283-BY","2017/08/15 19:25:25","新北市樹林區光興街180號","121.407465","25.0045983333333","6500700","樹林區"
"238014","282-BY","2017/08/15 19:25:25","新北市樹林區千歲街19巷7號","121.424613333333","24.9957733333333","6500700","樹林區"
"238020","268-VK","2017/08/15 17:12:11","新北市樹林區中山路三段204號","121.386853333333","24.96876","6500700","樹林區"
"238026","172-UY","2017/08/15 19:25:15","新北市樹林區佳園路三段61號","121.387701666667","24.9530433333333","6500700","樹林區"
"238016","169-UY","2017/08/15 19:25:13","新北市樹林區中山路二段76巷8號","121.415153333333","24.9844416666667","6500700","樹林區"
"239007","AAC-297","2017/08/15 19:25:11","新北市鶯歌區大湖路137號","121.343051666667","24.96526","6500800","鶯歌區"
"239006","891-R6","2017/08/15 19:25:11","新北市鶯歌區永昌街108號","121.340946666667","24.949925","6500800","鶯歌區"
"239001","417-VK","2017/08/15 19:25:23","新北市鶯歌區鶯桃路7號","121.343971666667","24.9503966666667","6500800","鶯歌區"
"239003","360-BY","2017/08/15 19:25:22","新北市鶯歌區國華路13號","121.342953333333","24.9563766666667","6500800","鶯歌區"
"239002","359-BY","2017/08/15 19:25:26","新北市鶯歌區大湖路185巷22號","121.342635","24.9704766666667","6500800","鶯歌區"
"239004","193-VK","2017/08/15 19:25:25","新北市鶯歌區中正三路鄭厝巷15號","121.332655","24.9337416666667","6500800","鶯歌區"
"221008","489-VK","2017/08/15 19:25:11","新北市汐止區康寧街235號","121.623988333333","25.0668","6501100","汐止區"
"221036","130-UY","2017/08/15 19:25:16","新北市汐止區汐萬路一段256巷1號","121.651786666667","25.0748333333333","6501100","汐止區"
"221015","131-UY","2017/08/15 19:25:15","新北市汐止區康寧街901號","121.65162","25.0749066666667","6501100","汐止區"
"221010","269-BY","2017/08/15 19:25:25","新北市汐止區康寧街901號","121.6514","25.075025","6501100","汐止區"
"241031","276-VK","2017/08/15 13:19:10","新北市汐止區汐萬路一段256巷3號","121.653445","25.07462","6500200","三重區"
"221012","278-VK","2017/08/15 19:25:02","新北市汐止區鄉長路二段18巷1號","121.66814","25.0817616666667","6501100","汐止區"
"221023","279-VK","2017/08/15 19:25:00","新北市汐止區汐萬路一段333巷23號","121.648066666667","25.075935","6501100","汐止區"
"221027","281-BY","2017/08/15 19:25:11","新北市汐止區汐萬路一段39號","121.655028333333","25.0690166666667","6501100","汐止區"
"221038","297-VK","2017/08/15 19:25:27","新北市汐止區汐萬路一段312號","121.650668333333","25.0752733333333","6501100","汐止區"
"221029","298-VK","2017/08/15 19:25:13","新北市汐止區康寧街901號","121.651613333333","25.0749633333333","6501100","汐止區"
"221021","299-VK","2017/08/15 17:29:02","新北市汐止區汐萬路一段256巷3號","121.652291666667","25.07526","6501100","汐止區"
"221031","353-TW","2017/08/15 19:25:18","新北市汐止區汐萬路一段256巷3號","121.652568333333","25.074515","6501100","汐止區"
"221025","623-UM","2017/08/15 19:25:24","新北市汐止區汐萬路一段39號","121.655178333333","25.0688333333333","6501100","汐止區"
"221033","647-BX","2017/08/15 19:25:14","新北市汐止區南勢街3號","121.627038333333","25.0373516666667","6501100","汐止區"
"221002","707-TV","2017/08/15 19:25:29","新北市汐止區大同路一段323號","121.638056666667","25.0592416666667","6501100","汐止區"
"221018","753-BX","2017/08/15 19:25:12","新北市汐止區康寧街901號","121.651503333333","25.0749116666667","6501100","汐止區"
"220079","145-BY","2017/08/15 19:25:12","新北市板橋區民權路202巷11弄24號","121.459758333333","25.0161533333333","6500100","板橋區"
"220093","146-RM","2017/08/15 19:25:23","新北市板橋區文化路一段247號","121.464386666667","25.018035","6500100","板橋區"
"220080","200-UY","2017/08/15 19:25:23","新北市板橋區大觀路二段19巷58號","121.448376666667","25.0030166666667","6500100","板橋區"
"220101","245-BX","2017/08/15 19:25:22","新北市板橋區縣民大道三段147號","121.478125","25.0235966666667","6500100","板橋區"
"220075","256-TC","2017/08/15 19:25:16","新北市板橋區中正路379巷21-2號","121.452651666667","25.0223333333333","6500100","板橋區"
"220056","276-BY","2017/08/15 19:25:18","新北市板橋區信義路209號","121.45935","24.991535","6500100","板橋區"
"220073","282-UM","2017/08/15 19:25:21","新北市板橋區篤行路三段玉平巷76弄7號","121.427478333333","24.9858333333333","6500100","板橋區"
"220094","283-UM","2017/08/15 19:25:10","新北市板橋區吳鳳路17巷26弄14號","121.467088333333","25.0296816666667","6500100","板橋區"
"220071","283-VK","2017/08/15 19:25:25","新北市板橋區重慶路327巷19弄3-2號","121.4648","24.9988683333333","6500100","板橋區"
"220053","285-VK","2017/08/15 19:25:27","新北市板橋區永豐街122號","121.47656","25.020975","6500100","板橋區"
"220083","286-VK","2017/08/15 19:25:14","新北市板橋區大觀路二段174巷186弄2號","121.442351666667","25.0035933333333","6500100","板橋區"
"220081","287-VK","2017/08/15 19:25:25","新北市板橋區南雅西路一段62號","121.453728333333","25.0050716666667","6500100","板橋區"
"220090","288-VK","2017/08/15 19:25:25","新北市板橋區長江路一段106巷12弄16號","121.459775","25.0287566666667","6500100","板橋區"
"220061","293-UM","2017/08/15 19:25:18","新北市板橋區中山路二段251號","121.477261666667","25.0177833333333","6500100","板橋區"
"220055","295-UM","2017/08/15 19:25:21","新北市板橋區實踐路65巷6-7號","121.464465","25.0065116666667","6500100","板橋區"
"220084","296-UM","2017/08/15 19:25:20","新北市板橋區滿平街110巷10號","121.428036666667","24.988315","6500100","板橋區"
"220098","299-UM","2017/08/15 19:25:28","新北市板橋區民有街126號","121.464188333333","25.028865","6500100","板橋區"
"220062","303-R5","2017/08/15 19:25:22","新北市板橋區三民路二段153巷4弄1號","121.479588333333","25.01477","6500100","板橋區"
"220092","307-R5","2017/08/15 19:25:23","新北市板橋區文化路二段125巷35號","121.469695","25.027645","6500100","板橋區"
"220064","486-VK","2017/08/15 19:25:21","新北市板橋區民生路一段33號","121.476208333333","25.012135","6500100","板橋區"
"220089","487-VK","2017/08/15 19:25:22","新北市板橋區文化路一段106號","121.464691666667","25.0182433333333","6500100","板橋區"
"220088","491-VK","2017/08/15 19:25:23","新北市板橋區雙十路二段6-7號","121.476718333333","25.0262733333333","6500100","板橋區"
"220035","560-BX","2017/08/15 19:25:13","新北市板橋區中正路431號","121.454191666667","25.0231466666667","6500100","板橋區"
"220063","609-BX","2017/08/15 19:25:24","新北市板橋區三民路一段1巷35號","121.48027","25.02472","6500100","板橋區"
"220091","637-BX","2017/08/15 19:25:22","新北市板橋區文聖街70號","121.47717","25.0303216666667","6500100","板橋區"
"220057","686-BX","2017/08/15 19:25:19","新北市板橋區重慶路293號","121.463301666667","24.9992316666667","6500100","板橋區"
"220077","687-BX","2017/08/15 19:25:24","新北市板橋區僑中二街90巷1號","121.446348333333","25.00902","6500100","板橋區"
"220054","741-BX","2017/08/15 19:25:21","新北市板橋區四川路一段205號","121.460165","25.0036066666667","6500100","板橋區"
"220067","829-TW","2017/08/15 19:25:17","新北市板橋區漢生東路313巷2弄2號","121.472065","25.0081683333333","6500100","板橋區"
"220102","830-TW","2017/08/15 19:25:26","新北市板橋區松柏街3號","121.473768333333","25.0295216666667","6500100","板橋區"
"220096","831-TW","2017/08/15 19:25:09","新北市板橋區大同街35巷9號","121.47764","25.0276466666667","6500100","板橋區"
"220074","895-R6","2017/08/15 19:25:20","新北市板橋區中正路自強新村45-1號","121.454766666667","25.0139633333333","6500100","板橋區"
"220073","985-R7","2017/08/15 19:25:25","新北市板橋區瑞安街54號","121.455398333333","25.0218033333333","6500100","板橋區"
"220097","AAC-210","2017/08/15 19:25:21","新北市板橋區幸福路60巷77-2號","121.459883333333","25.022115","6500100","板橋區"
"220070","AAC-253","2017/08/15 19:25:22","新北市板橋區忠孝路101號","121.462433333333","25.00223","6500100","板橋區"
