"lineid","car","time","location","longitude","latitude","cityid","cityname"
"234046","148-BY","2017/08/15 20:09:13","新北市永和區成功路一段20號","121.526986666667","25.00498","6500400","永和區"
"234013","149-BY","2017/08/15 20:09:15","新北市永和區永貞路387號","121.508021666667","25.0085833333333","6500400","永和區"
"234007","207-UY","2017/08/15 20:09:11","新北市永和區保順路51巷6號","121.502831666667","25.0104433333333","6500400","永和區"
"234081","298-R6","2017/08/15 20:09:28","新北市永和區國中路101號","121.524198333333","25.006145","6500400","永和區"
"234038","336-UY","2017/08/15 20:09:24","新北市永和區環河東路三段96號","121.5282","25.0040516666667","6500400","永和區"
"234064","337-UY","2017/08/15 20:09:19","新北市永和區永元路95巷1號","121.522385","25.001875","6500400","永和區"
"234086","338-UY","2017/08/15 20:09:31","新北市永和區福和路208號","121.51968","25.0076916666667","6500400","永和區"
"234070","552-UM","2017/08/15 20:09:16","新北市永和區福和路263巷7弄1號","121.517908333333","25.0069433333333","6500400","永和區"
"234054","553-UM","2017/08/15 20:09:30","新北市永和區博愛街20巷2號","121.517805","25.015815","6500400","永和區"
"234017","745-BX","2017/08/15 20:09:13","新北市永和區文化路12號","121.515451666667","25.0150483333333","6500400","永和區"
"234030","746-BX","2017/08/15 20:09:15","新北市中和區立人街14巷34號","121.519373333333","24.9955766666667","6500400","永和區"
"234061","AAD-866","2017/08/15 20:09:12","新北市永和區中正路151巷8弄2號","121.516038333333","24.99856","6500400","永和區"
"234042","862-TW","2017/08/15 20:09:19","新北市永和區雙和街16巷10號","121.509968333333","25.0024083333333","6500400","永和區"
"234050","863-TW","2017/08/15 20:09:23","新北市永和區環河西路二段147號","121.505561666667","25.0143316666667","6500400","永和區"
"234026","9371-KE","2017/08/15 20:09:16","新北市永和區保生路55號","121.50475","25.0107116666667","6500400","永和區"
"234011","9373-KE","2017/08/15 20:09:15","新北市永和區仁愛路352巷110號","121.500575","25.0082816666667","6500400","永和區"
"249005","172-UM","2017/08/15 16:50:35","新北市八里區挖子尾街6號","121.41544","25.1641916666667","6502300","八里區"
"249001","173-UM","2017/08/15 20:09:15","新北市八里區中華路二段312號","121.403783333333","25.1483333333333","6502300","八里區"
"249004","303-UY","2017/08/15 20:09:13","新北市八里區中山路一段189巷3號","121.411826666667","25.1582033333333","6502300","八里區"
"249002","305-UY","2017/08/15 20:09:26","新北市八里區龍米路一段51號","121.456418333333","25.119215","6502300","八里區"
"249003","593-UM","2017/08/15 20:09:26","新北市八里區中山路二段540巷9弄6號","121.39681","25.1470166666667","6502300","八里區"
"249005","759-BX","2017/08/15 20:09:30","新北市八里區下罟子61號","121.38717","25.136325","6502300","八里區"
"248016","026-BX","2017/08/15 20:09:27","新北市五股區天乙路50巷3弄8號","121.448983333333","25.1045916666667","6501500","五股區"
"248020","225-UY","2017/08/15 20:09:18","新北市五股區凌雲路二段58-1號","121.441316666667","25.102155","6501500","五股區"
"248012","247-BX","2017/08/15 20:09:15","新北市五股區民義路一段212號","121.430535","25.0894833333333","6501500","五股區"
"248014","261-SL","2017/08/15 20:09:24","新北市五股區五福路6巷17號","121.4353","25.0884866666667","6501500","五股區"
"248010","272-BY","2017/08/15 20:09:24","新北市五股區成泰路一段7巷66號","121.432685","25.06787","6501500","五股區"
"248004","677-BX","2017/08/15 20:09:25","新北市五股區成泰路一段68號","121.435535","25.06961","6501500","五股區"
"248002","678-BX","2017/08/15 20:09:13","新北市五股區成泰路三段323號","121.447998333333","25.0949466666667","6501500","五股區"
"234023","9380-KE","2017/08/15 20:09:13","新北市永和區中正路660-1號","121.516813333333","25.0087433333333","6500400","永和區"
"234077","969-R7","2017/08/15 20:09:13","新北市永和區民享街18號","121.51541","24.995145","6500400","永和區"
"234074","AAC-211","2017/08/15 20:09:16","新北市永和區竹林路201巷24弄4號","121.52227","25.0095983333333","6500400","永和區"
"234067","AAC-212","2017/08/15 20:09:22","新北市永和區永貞路313號","121.51008","25.0065933333333","6500400","永和區"
"234003","AAC-295","2017/08/15 20:09:23","新北市永和區中正路603號","121.516313333333","25.0095066666667","6500400","永和區"
"244024","837-TS","2017/08/15 20:09:19","新北市林口區粉寮路二段160巷28號","121.405223333333","25.0907283333333","6501700","林口區"
"243013","AAD-798","2017/08/15 20:09:25","新北市泰山區明志路三段74巷23號","121.423915","25.041665","6501600","泰山區"
"243009","297-R6","2017/08/15 20:09:19","新北市泰山區泰林路二段140號","121.434435","25.0599033333333","6501600","泰山區"
"243015","380-SR","2017/08/15 20:09:24","新北市泰山區明志路一段418號","121.430628333333","25.0566266666667","6501600","泰山區"
"243014","421-VK","2017/08/15 20:09:18","新北市泰山區明志路一段43號","121.433633333333","25.0652816666667","6501600","泰山區"
"243010","548-UM","2017/08/15 20:09:23","新北市泰山區明志路二段136巷17號","121.426233333333","25.0518166666667","6501600","泰山區"
"243011","549-UM","2017/08/15 20:09:28","新北市新莊區壽山路31號","121.420211666667","25.0291016666667","6501600","泰山區"
"243012","646-TV","2017/08/15 20:09:28","新北市泰山區楓江路46巷5號","121.435318333333","25.0620883333333","6501600","泰山區"
"243016","680-BX","2017/08/15 20:09:20","新北市泰山區明志路三段321號","121.422475","25.03577","6501600","泰山區"
"222003","436-BY","2017/08/15 20:09:13","新北市深坑區埔新街60號","121.620256666667","25.0025283333333","6501800","深坑區"
"222002","659-BX","2017/08/15 20:09:15","新北市深坑區北深路三段137號","121.603928333333","25.0026116666667","6501800","深坑區"
"222001","696-SL","2017/08/15 20:09:27","新北市深坑區北深路三段191號","121.601246666667","25.0036916666667","6501800","深坑區"
"231041","002-UM","2017/08/15 20:09:23","新北市新店區中正路468號","121.53404","24.979425","6500600","新店區"
"231059","046-UY","2017/08/15 20:09:17","新北市新店區安德街37號","121.511408333333","24.9625033333333","6500600","新店區"
"231061","047-UY","2017/08/15 20:09:25","新北市新店區安興路32號","121.51579","24.9703766666667","6500600","新店區"
"231060","106-UY","2017/08/15 20:09:31","新北市新店區安康路三段177號","121.488441666667","24.9517733333333","6500600","新店區"
"231051","107-UY","2017/08/15 20:09:17","新北市新店區中央六街1號","121.530546666667","24.9744433333333","6500600","新店區"
"231048","108-UY","2017/08/15 20:09:12","新北市新店區永華街24號","121.5441","24.9758966666667","6500600","新店區"
"231068","110-UY","2017/08/15 20:09:18","新北市新店區北新路二段158號","121.542926666667","24.97558","6500600","新店區"
"231053","187-VK","2017/08/15 20:09:19","新北市新店區新烏路三段227-1號","121.547191666667","24.8965566666667","6500600","新店區"
"231057","256-BX","2017/08/15 20:09:20","新北市新店區花園一路一段2號","121.553075","24.932405","6500600","新店區"
"231063","268-BY","2017/08/15 20:09:12","新北市新店區黎明路55巷1號","121.502428333333","24.9482433333333","6500600","新店區"
"231050","AAD-862","2017/08/15 20:09:10","新北市新店區北宜路二段360-1號","121.564756666667","24.9523616666667","6500600","新店區"
"231055","3713-VJ","2017/08/15 20:09:17","新北市新店區中華路42巷12號","121.54046","24.9685416666667","6500600","新店區"
"231056","372-TH","2017/08/15 20:09:17","新北市新店區明德路26巷4號","121.542165","24.9777533333333","6500600","新店區"
"231067","4772-VM","2017/08/15 20:09:20","新北市新店區安康路一段32號","121.531651666667","24.9612633333333","6500600","新店區"
"231065","512-UM","2017/08/15 20:09:17","新北市新店區安祥路106巷341號","121.472733333333","24.9592683333333","6500600","新店區"
"231054","513-UM","2017/08/15 20:09:28","新北市新店區檳榔路38號","121.541548333333","24.9637866666667","6500600","新店區"
"231064","515-UM","2017/08/15 20:09:27","新北市新店區安康路二段118-5號","121.51237","24.9631983333333","6500600","新店區"
"231042","616-UM","2017/08/15 20:09:26","新北市新店區中興路二段192號","121.548425","24.9734366666667","6500600","新店區"
"231045","617-UM","2017/08/15 20:09:20","新北市新店區北宜路一段314號","121.547323333333","24.9520966666667","6500600","新店區"
"231040","619-UM","2017/08/15 20:09:15","新北市新店區中正路110號","121.542968333333","24.9705616666667","6500600","新店區"
"231049","719-UM","2017/08/15 20:09:16","新北市新店區北新路二段121巷6弄1號","121.542108333333","24.97509","6500600","新店區"
"231062","720-UM","2017/08/15 20:09:22","新北市新店區車子路15號","121.503908333333","24.9544833333333","6500600","新店區"
"231044","897-TW","2017/08/15 20:09:23","新北市新店區寶慶街58巷6號","121.542146666667","24.9870083333333","6500600","新店區"
"231043","899-TW","2017/08/15 20:09:27","新北市新店區民族路190號","121.53634","24.9757033333333","6500600","新店區"
"231066","AKT-0513","2017/08/15 20:09:29","新北市新店區柴埕路60巷1-1號","121.510225","24.9634966666667","6500600","新店區"
"241011","013-R5","2017/08/15 20:09:22","新北市三重區龍門路174號","121.49907","25.0732016666667","6500200","三重區"
"241028","022-UY","2017/08/15 20:09:15","新北市三重區仁化街137號","121.494673333333","25.0574583333333","6500200","三重區"
"241009","060-VK","2017/08/15 20:09:26","新北市三重區永安北路一段91號","121.47845","25.0777433333333","6500200","三重區"
"241031","061-VK","2017/08/15 20:09:29","新北市三重區過圳街9-1號","121.488776666667","25.0601683333333","6500200","三重區"
"241015","062-VK","2017/08/15 20:09:27","新北市三重區福德北路24號","121.502291666667","25.0648666666667","6500200","三重區"
"241017","063-VK","2017/08/15 20:09:29","新北市三重區大智街108號","121.493196666667","25.066725","6500200","三重區"
"241024","065-VK","2017/08/15 20:09:27","新北市三重區中正北路294號","121.480163333333","25.0688533333333","6500200","三重區"
"241026","066-VK","2017/08/15 20:09:09","新北市三重區福德南路69號","121.502215","25.060275","6500200","三重區"
"241002","090-VK","2017/08/15 20:09:26","新北市三重區五華街35巷46號","121.495425","25.08166","6500200","三重區"
"241003","091-VK","2017/08/15 20:09:19","新北市三重區仁愛街445巷8號","121.490301666667","25.0826","6500200","三重區"
"241006","156-TC","2017/08/15 20:09:15","新北市三重區力行路二段93號","121.482663333333","25.0758616666667","6500200","三重區"
"241005","262-UM","2017/08/15 20:09:24","新北市三重區碧華街294巷11號","121.48911","25.08415","6500200","三重區"
"241008","265-UM","2017/08/15 20:09:26","新北市三重區永福街197巷27號","121.478535","25.0744483333333","6500200","三重區"
"241016","266-UM","2017/08/15 20:09:28","新北市三重區大同北路65號","121.495005","25.0635716666667","6500200","三重區"
"241022","267-UM","2017/08/15 20:09:15","新北市三重區新北大道一段17號","121.487988333333","25.06117","6500200","三重區"
"241018","268-UM","2017/08/15 20:09:15","新北市三重區正義北路250號","121.496098333333","25.0684466666667","6500200","三重區"
"241032","269-UM","2017/08/15 20:09:19","新北市三重區捷運路65號","121.483438333333","25.055475","6500200","三重區"
"241013","270-UM","2017/08/15 20:09:27","新北市三重區三和路三段139巷40號","121.494283333333","25.0741233333333","6500200","三重區"
"241025","271-UM","2017/08/15 20:09:23","新北市三重區中正北路237號","121.47561","25.0707616666667","6500200","三重區"
"241020","412-TH","2017/08/15 20:09:25","新北市三重區三和路三段121號","121.492821666667","25.0731816666667","6500200","三重區"
"241035","462-BY","2017/08/15 20:09:15","新北市三重區平安街7號","121.498786666667","25.0642966666667","6500200","三重區"
"241004","475-VK","2017/08/15 20:09:25","新北市三重區自強路四段100號","121.491298333333","25.079705","6500200","三重區"
"241019","478-VK","2017/08/15 20:09:28","新北市三重區自強路二段33巷21號","121.490288333333","25.0696233333333","6500200","三重區"
"241030","480-VK","2017/08/15 20:09:13","新北市三重區成功路145巷35號","121.487828333333","25.0532283333333","6500200","三重區"
"241014","543-UM","2017/08/15 20:09:12","新北市三重區長樂街135巷4號","121.503595","25.06983","6500200","三重區"
"241023","545-UM","2017/08/15 20:09:15","新北市三重區頂崁街233號","121.476956666667","25.06854","6500200","三重區"
"241001","547-UM","2017/08/15 20:09:16","新北市三重區溪尾街26號","121.490926666667","25.07634","6500200","三重區"
"241012","941-UM","2017/08/15 20:09:24","新北市三重區仁福街64巷37號","121.497538333333","25.075745","6500200","三重區"
"241029","942-UM","2017/08/15 20:09:21","新北市三重區光明路36號","121.491468333333","25.0584733333333","6500200","三重區"
"241033","AAC-255","2017/08/15 20:09:25","新北市三重區光復路一段59號","121.472508333333","25.049275","6500200","三重區"
"235066","003-UY","2017/08/15 20:09:25","新北市中和區保平路300號","121.507818333333","25.0045083333333","6500300","中和區"
"235039","097-UM","2017/08/15 20:09:22","新北市中和區景平路276-1號","121.513945","24.992655","6500300","中和區"
"235065","098-UM","2017/08/15 20:09:18","新北市中和區福祥路66號","121.499261666667","25.004975","6500300","中和區"
"235040","150-BY","2017/08/15 20:09:22","新北市中和區保健路42-1號","121.509298333333","24.9972883333333","6500300","中和區"
"235058","151-BY","2017/08/15 20:09:24","新北市中和區中正路657號","121.485126666667","24.9962433333333","6500300","中和區"
"235055","183-VK","2017/08/15 20:09:26","新北市中和區民生街23巷4弄2號","121.470955","25.005105","6500300","中和區"
"235038","185-VK","2017/08/15 20:09:13","新北市永和區民族街81巷62號","121.520488333333","24.9963266666667","6500300","中和區"
"235044","293-VK","2017/08/15 20:09:27","新北市中和區中正路91號","121.500396666667","24.9933416666667","6500300","中和區"
"235072","301-VK","2017/08/15 20:09:29","新北市八里區下罟子17號","121.379993333333","25.1432166666667","6500300","中和區"
"235051","376-QA","2017/08/15 20:09:21","新北市中和區復興路279-1號","121.502221666667","24.9902766666667","6500300","中和區"
"235068","377-QA","2017/08/15 20:09:17","新北市中和區中山路二段258號","121.49765","25.0025216666667","6500300","中和區"
"235050","4979-A6","2017/08/15 20:09:18","新北市中和區景新街296號","121.51124","24.992075","6500300","中和區"
"235069","4980-A6","2017/08/15 20:09:21","新北市中和區圓通路157號","121.498156666667","24.995635","6500300","中和區"
"235070","558-UM","2017/08/15 20:09:14","新北市中和區圓通路119號","121.499243333333","24.99626","6500300","中和區"
"235054","640-BX","2017/08/15 20:09:17","新北市中和區莒光路4號","121.472","25.00474","6500300","中和區"
"235046","733-UM","2017/08/15 20:09:22","新北市中和區忠孝街31巷35號","121.509906666667","24.9847","6500300","中和區"
"235041","802-TS","2017/08/15 20:09:28","新北市中和區永貞路239巷24號","121.512471666667","25.00308","6500300","中和區"
"235052","805-TS","2017/08/15 20:09:25","新北市中和區華新街95號","121.508736666667","24.9831183333333","6500300","中和區"
"235048","896-TW","2017/08/15 20:09:12","新北市中和區景新街557號","121.515388333333","24.9866266666667","6500300","中和區"
"235037","AAC-213","2017/08/15 20:09:15","新北市中和區自立路99巷22弄3號","121.523385","24.99436","6500300","中和區"
"235059","AAC-215","2017/08/15 20:09:17","新北市中和區圓通路335巷33弄13號","121.493391666667","24.98887","6500300","中和區"
"220068","013-TV","2017/08/15 20:09:18","新北市板橋區中山路二段422-11號","121.483605","25.0213433333333","6500100","板橋區"
"220072","015-TV","2017/08/15 20:09:18","新北市板橋區金門街109巷31號","121.433953333333","24.9913783333333","6500100","板橋區"
"220065","072-UY","2017/08/15 20:09:29","新北市板橋區縣民大道三段270巷2號","121.478175","25.023395","6500100","板橋區"
"220034","073-UY","2017/08/15 20:09:14","新北市板橋區南雅西路二段7巷27號","121.451973333333","25.0094133333333","6500100","板橋區"
"220106","075-UY","2017/08/15 20:09:20","新北市板橋區民治街42巷20號","121.478481666667","25.0332616666667","6500100","板橋區"
"220069","AAD-861","2017/08/15 20:09:27","新北市板橋區大明街23號","121.458578333333","25.00248","6500100","板橋區"
"220103","120-SR","2017/08/15 20:09:25","新北市板橋區陽明街247號","121.46288","25.0248766666667","6500100","板橋區"
"247020","893-R6","2017/08/15 20:09:21","新北市蘆洲區民義街68巷24號","121.473955","25.0892366666667","6501400","蘆洲區"
"247010","546-UM","2017/08/15 20:09:09","新北市蘆洲區集賢路406號","121.480055","25.0817133333333","6501400","蘆洲區"
"247018","500-BY","2017/08/15 20:09:18","新北市蘆洲區民族路275號","121.475846666667","25.0907916666667","6501400","蘆洲區"
"247008","339-TH","2017/08/15 20:09:07","新北市蘆洲區集賢路300號","121.481631666667","25.0851383333333","6501400","蘆洲區"
"247024","337-TH","2017/08/15 20:09:32","新北市蘆洲區光榮路120巷8弄21號","121.465216666667","25.0882633333333","6501400","蘆洲區"
"247002","336-TH","2017/08/15 20:09:22","新北市蘆洲區長安街307號","121.45781","25.0854","6501400","蘆洲區"
"247006","335-TH","2017/08/15 20:09:23","新北市蘆洲區九芎街15巷12號","121.467788333333","25.077865","6501400","蘆洲區"
"247014","057-VK","2017/08/15 20:09:17","新北市蘆洲區中山二路228號","121.469626666667","25.0797633333333","6501400","蘆洲區"
"247004","056-VK","2017/08/15 20:09:19","新北市蘆洲區永安南路二段328巷17弄1號","121.456623333333","25.083915","6501400","蘆洲區"
"247022","053-VK","2017/08/15 20:09:21","新北市蘆洲區三民路122-1號","121.471105","25.08731","6501400","蘆洲區"
"247012","007-UY","2017/08/15 20:09:25","新北市蘆洲區民族路236巷35號","121.480383333333","25.0886816666667","6501400","蘆洲區"
"247016","001-UY","2017/08/15 20:09:24","新北市蘆洲區光華路162巷8弄2號","121.465235","25.0825566666667","6501400","蘆洲區"
"224010","AGQ-8101","2017/08/15 20:09:25","新北市瑞芳區輕便路194號","121.845396666667","25.110395","6501200","瑞芳區"
"224011","420-VK","2017/08/15 20:09:15","新北市瑞芳區崙頂路1-6號","121.847073333333","25.1046666666667","6501200","瑞芳區"
"208002","742-BX","2017/08/15 20:09:11","新北市金山區環金路341號","121.630663333333","25.2240066666667","6502700","金山區"
"208003","665-BX","2017/08/15 20:09:29","新北市金山區海興路35-1號","121.629585","25.2368","6502700","金山區"
"251004","009-UM","2017/08/15 20:08:43","新北市淡水區民族路31巷36號","121.462533333333","25.1365266666667","6501000","淡水區"
"251005","010-UM","2017/08/15 20:09:19","新北市淡水區學府路136巷8號","121.450913333333","25.172885","6501000","淡水區"
"251014","180-VK","2017/08/15 20:09:17","新北市淡水區石頭厝1號","121.458706666667","25.2355366666667","6501000","淡水區"
"251008","181-VK","2017/08/15 20:09:29","新北市淡水區沙崙路156巷20號","121.423991666667","25.1822966666667","6501000","淡水區"
"251010","413-VK","2017/08/15 20:09:16","新北市淡水區新市二路二段96號","121.427925","25.19539","6501000","淡水區"
"251012","441-VK","2017/08/15 20:09:27","新北市淡水區下圭柔山56-12號","121.447266666667","25.2046616666667","6501000","淡水區"
"251016","442-VK","2017/08/15 20:09:23","新北市淡水區番子田25-5號","121.456493333333","25.229595","6501000","淡水區"
"251006","561-UM","2017/08/15 20:09:25","新北市淡水區北新路141巷60弄13號","121.44802","25.1796816666667","6501000","淡水區"
"251009","575-R6","2017/08/15 20:09:13","新北市淡水區博愛街14號","121.446108333333","25.16988","6501000","淡水區"
"251011","650-BX","2017/08/15 20:07:24","新北市淡水區崁頂142號","121.431081666667","25.205755","6501000","淡水區"
"251002","672-BX","2017/08/15 20:09:20","新北市淡水區中正路342號","121.434818333333","25.1737066666667","6501000","淡水區"
"251003","673-BX","2017/08/15 20:09:20","新北市淡水區中山北路二段157號","121.443726666667","25.1837116666667","6501000","淡水區"
"207003","550-UM","2017/08/15 20:09:18","新北市萬里區大鵬里萬里加投186號","121.642823333333","25.21563","6502800","萬里區"
"207004","225-TW","2017/08/15 20:09:12","新北市萬里區北基里孝七街29號","121.682471666667","25.17671","6502800","萬里區"
"252002","178-VK","2017/08/15 20:09:10","新北市三芝區三民街39巷12號","121.505258333333","25.25785","6502100","三芝區"
"252001","292-VK","2017/08/15 20:09:29","新北市三芝區公正街66號","121.499768333333","25.2574416666667","6502100","三芝區"
"237007","153-BY","2017/08/15 20:09:16","新北市三峽區二鬮路136巷81號","121.356886666667","24.9097466666667","6500900","三峽區"
"237012","275-BY","2017/08/15 20:09:30","新北市三峽區安溪路315號","121.371043333333","24.9305983333333","6500900","三峽區"
"237008","302-VK","2017/08/15 20:09:16","新北市三峽區中華路75巷17號","121.372818333333","24.92954","6500900","三峽區"
"237006","5529-G3","2017/08/15 20:09:18","新北市三峽區嘉添227-14號","121.370698333333","24.911265","6500900","三峽區"
"237016","649-BX","2017/08/15 20:09:15","新北市三峽區介壽路二段138巷1弄42-3號","121.39798","24.932805","6500900","三峽區"
"237005","AKY-6261","2017/08/15 20:09:11","新北市三峽區三樹路44巷2號","121.37802","24.93741","6500900","三峽區"
"236070","105-UM","2017/08/15 20:09:30","新北市土城區中央路三段141-4號","121.433331666667","24.96551","6501300","土城區"
"236043","107-UM","2017/08/15 20:09:08","新北市土城區學府路一段148號","121.454731666667","24.986995","6501300","土城區"
"236079","166-UM","2017/08/15 20:09:26","新北市土城區金安街46號","121.420455","24.9653483333333","6501300","土城區"
"236031","253-BX","2017/08/15 20:09:23","新北市土城區中央路一段118巷1弄15號","121.4458","24.9877333333333","6501300","土城區"
"236027","269-VK","2017/08/15 20:09:27","新北市土城區中央路一段289號","121.444425","24.9843333333333","6501300","土城區"
"236015","270-VK","2017/08/15 20:09:18","新北市土城區德興街137號","121.455196666667","24.9916666666667","6501300","土城區"
"236038","271-VK","2017/08/15 20:09:21","新北市土城區明德路一段20巷1弄2號","121.464695","24.98484","6501300","土城區"
"236023","401-BY","2017/08/15 20:09:24","新北市土城區延吉街111巷15號","121.471825","24.9861233333333","6501300","土城區"
"236059","912-UM","2017/08/15 20:09:22","新北市土城區中央路一段324號","121.443325","24.9816283333333","6501300","土城區"
"236049","913-UM","2017/08/15 20:08:59","新北市土城區金城路三段118號","121.46649","24.98706","6501300","土城區"
"236063","915-UM","2017/08/15 20:09:26","新北市土城區金城路三段33巷17號","121.465185","24.9870883333333","6501300","土城區"
"236055","AAC-216","2017/08/15 20:09:20","新北市土城區學府路一段39號","121.457871666667","24.9883716666667","6501300","土城區"
"242021","AAC-296","2017/08/15 20:09:26","新北市新莊區建中街48巷10弄6號","121.448325","25.0383883333333","6500500","新莊區"
"242029","986-R7","2017/08/15 20:09:24","新北市新莊區中榮街99號","121.444973333333","25.0528116666667","6500500","新莊區"
"242048","751-BX","2017/08/15 20:09:26","新北市新莊區四維路152巷41號","121.421996666667","25.0221633333333","6500500","新莊區"
"242025","615-BX","2017/08/15 20:09:14","新北市新莊區五工三路78巷8號","121.459213333333","25.0653066666667","6500500","新莊區"
"242023","613-BX","2017/08/15 20:09:22","新北市新莊區化成路540-1號","121.466351666667","25.0532583333333","6500500","新莊區"
"242027","612-BX","2017/08/15 20:09:12","新北市新莊區幸福路819號","121.445501666667","25.048915","6500500","新莊區"
"242042","497-BY","2017/08/15 20:09:16","新北市新莊區雙鳳路134巷34號","121.412376666667","25.0288416666667","6500500","新莊區"
"242005","442-UM","2017/08/15 20:09:17","新北市新莊區化成路205-47號","121.465883333333","25.05113","6500500","新莊區"
"242046","441-UM","2017/08/15 20:09:20","新北市新莊區裕民街55巷12號","121.419155","25.0237883333333","6500500","新莊區"
"242051","440-UM","2017/08/15 20:09:28","新北市新莊區民安西路175號","121.426078333333","25.0159116666667","6500500","新莊區"
"242032","415-TV","2017/08/15 20:09:27","新北市新莊區忠孝街29巷18號","121.443635","25.0362883333333","6500500","新莊區"
"242002","413-TV","2017/08/15 20:09:25","新北市新莊區中正路1號","121.465335","25.041835","6500500","新莊區"
"242039","400-BY","2017/08/15 20:09:27","新北市新莊區民安西路111巷1號","121.426833333333","25.0182383333333","6500500","新莊區"
"242061","362-BY","2017/08/15 20:09:27","新北市新莊區瓊林路瓊英巷4弄2號","121.443601666667","25.02741","6500500","新莊區"
"242058","353-BY","2017/08/15 20:09:15","新北市新莊區八德街169號","121.423393333333","25.01908","6500500","新莊區"
"242015","132-UY","2017/08/15 20:09:25","新北市新莊區中平路26巷24號","121.445773333333","25.0432666666667","6500500","新莊區"
"242034","133-UY","2017/08/15 20:09:22","新北市新莊區中正路316號","121.446341666667","25.0350483333333","6500500","新莊區"
"242019","135-UY","2017/08/15 20:09:20","新北市新莊區思源路123號","121.459853333333","25.0425416666667","6500500","新莊區"
"242044","172-VK","2017/08/15 20:09:10","新北市新莊區中正路929巷19號","121.41113","25.020285","6500500","新莊區"
"242007","173-VK","2017/08/15 20:09:12","新北市新莊區思源路421號","121.459315","25.0526533333333","6500500","新莊區"
"242056","176-VK","2017/08/15 20:09:28","新北市新莊區豐年街28巷1弄11號","121.446176666667","25.0318433333333","6500500","新莊區"
"242011","346-TH","2017/08/15 20:09:27","新北市新莊區中信街67巷8號","121.448605","25.050735","6500500","新莊區"
"242013","347-TH","2017/08/15 20:09:19","新北市新莊區幸福路688號","121.450333333333","25.0494466666667","6500500","新莊區"
"242017","348-TH","2017/08/15 20:09:11","新北市新莊區中港一街1號","121.451808333333","25.045625","6500500","新莊區"
"242054","349-TH","2017/08/15 20:09:12","新北市新莊區西盛街387巷11號","121.428491666667","25.0131383333333","6500500","新莊區"
"242009","351-TH","2017/08/15 20:09:26","新北市新莊區昌平街30號","121.454878333333","25.053","6500500","新莊區"
"238023","601-UM","2017/08/15 20:09:31","新北市樹林區中山路二段121-1號","121.408205","24.9799283333333","6500700","樹林區"
"238021","311-TH","2017/08/15 20:08:52","新北市樹林區佳園路三段101巷120-3號","121.397325","24.9502783333333","6500700","樹林區"
"239002","359-BY","2017/08/15 20:09:26","新北市鶯歌區二甲路12-2號","121.34587","24.9346833333333","6500800","鶯歌區"
"221008","489-VK","2017/08/15 20:09:11","台北市內湖區康樂街16號","121.618006666667","25.0680583333333","6501100","汐止區"
"221036","130-UY","2017/08/15 20:09:16","新北市汐止區新台五路二段110號","121.662663333333","25.0661066666667","6501100","汐止區"
"221015","131-UY","2017/08/15 20:09:15","新北市汐止區建成路19號","121.6644","25.07246","6501100","汐止區"
"221010","269-BY","2017/08/15 20:09:25","新北市汐止區八連路一段121-3號","121.64366","25.079825","6501100","汐止區"
"241031","276-VK","2017/08/15 13:19:10","新北市汐止區汐萬路一段256巷3號","121.653445","25.07462","6500200","三重區"
"221012","278-VK","2017/08/15 20:09:22","新北市汐止區汐平路二段26號","121.694135","25.0659016666667","6501100","汐止區"
"221023","279-VK","2017/08/15 19:52:28","新北市汐止區中興路286巷1號","121.628368333333","25.0695333333333","6501100","汐止區"
"221032","280-BY","2017/08/15 20:09:11","新北市汐止區弘道街8巷5弄6號","121.617375","25.0478216666667","6501100","汐止區"
"221027","281-BY","2017/08/15 20:09:26","新北市汐止區中正路131號","121.660118333333","25.0692966666667","6501100","汐止區"
"221038","297-VK","2017/08/15 20:09:27","新北市汐止區橋東街5巷2號","121.667073333333","25.07588","6501100","汐止區"
"221029","298-VK","2017/08/15 20:09:13","新北市汐止區樟樹一路119巷8-6號","121.641291666667","25.0644783333333","6501100","汐止區"
"221021","299-VK","2017/08/15 17:29:02","新北市汐止區汐萬路一段256巷3號","121.652291666667","25.07526","6501100","汐止區"
"221031","353-TW","2017/08/15 20:09:18","新北市汐止區中興路115號","121.632031666667","25.0651166666667","6501100","汐止區"
"221035","622-UM","2017/08/15 20:09:13","新北市汐止區長江街67巷2弄2號","121.656733333333","25.0722183333333","6501100","汐止區"
"221025","623-UM","2017/08/15 20:09:24","新北市汐止區水源路一段233號","121.654316666667","25.0605883333333","6501100","汐止區"
"221033","647-BX","2017/08/15 20:09:14","新北市汐止區東勢街201巷104號","121.633518333333","25.0429533333333","6501100","汐止區"
"221002","707-TV","2017/08/15 20:09:29","新北市汐止區工建路302-1號","121.634323333333","25.0604266666667","6501100","汐止區"
"221018","753-BX","2017/08/15 20:09:18","新北市汐止區茄苳路306號","121.67331","25.06679","6501100","汐止區"
"220093","146-RM","2017/08/15 20:06:43","新北市板橋區長江路二段299號","121.470683333333","25.033175","6500100","板橋區"
"220080","200-UY","2017/08/15 20:07:34","新北市板橋區大觀路二段163巷28號","121.446421666667","25.0000783333333","6500100","板橋區"
"220101","245-BX","2017/08/15 20:09:22","新北市板橋區莒光路165巷42-1號","121.474413333333","25.0251566666667","6500100","板橋區"
"220075","256-TC","2017/08/15 20:09:16","新北市板橋區金華街10巷88號","121.458183333333","25.0203683333333","6500100","板橋區"
"220073","282-UM","2017/08/15 20:09:21","新北市板橋區金門街175號","121.43254","24.9900883333333","6500100","板橋區"
"220071","283-VK","2017/08/15 20:09:25","新北市板橋區五權街1-9號","121.463718333333","24.9952666666667","6500100","板橋區"
"220053","285-VK","2017/08/15 20:09:27","新北市板橋區懷仁街90-2號","121.477486666667","25.0181433333333","6500100","板橋區"
"220083","286-VK","2017/08/15 20:09:15","新北市板橋區僑中二街12巷18號","121.446048333333","25.0107883333333","6500100","板橋區"
"220081","287-VK","2017/08/15 20:09:25","新北市板橋區僑中一街124巷18弄38號","121.447611666667","25.0135566666667","6500100","板橋區"
"220061","293-UM","2017/08/15 20:09:20","新北市板橋區中山路一段102-3號","121.462378333333","25.0103783333333","6500100","板橋區"
"220055","295-UM","2017/08/15 20:09:21","新北市板橋區仁愛路64號","121.45986","24.999375","6500100","板橋區"
"220084","296-UM","2017/08/15 20:09:26","新北市板橋區滿平街2巷10號","121.425088333333","24.9893683333333","6500100","板橋區"
"220098","299-UM","2017/08/15 20:09:28","新北市板橋區新海路72巷5弄31-3號","121.461455","25.023095","6500100","板橋區"
"220092","307-R5","2017/08/15 20:09:23","新北市板橋區雨農路32號","121.461245","25.024415","6500100","板橋區"
"220064","486-VK","2017/08/15 20:09:30","新北市板橋區實踐路169號","121.464281666667","25.00377","6500100","板橋區"
"220089","487-VK","2017/08/15 20:09:22","新北市板橋區互助街83號","121.459898333333","25.025935","6500100","板橋區"
"220088","491-VK","2017/08/15 20:09:23","新北市板橋區民治街52巷1號","121.479465","25.0332316666667","6500100","板橋區"
"220035","560-BX","2017/08/15 20:09:13","新北市板橋區新生街37號","121.456766666667","25.021095","6500100","板橋區"
"220057","686-BX","2017/08/15 20:09:23","新北市板橋區四川路一段338號","121.456728333333","24.9967866666667","6500100","板橋區"
"220067","829-TW","2017/08/15 20:09:17","新北市板橋區中山路二段260號","121.478898333333","25.0184","6500100","板橋區"
"220102","830-TW","2017/08/15 20:09:26","新北市板橋區板新路200巷22號","121.468561666667","25.01685","6500100","板橋區"
"220074","895-R6","2017/08/15 20:09:00","新北市板橋區文化路一段52巷24號","121.46136","25.01103","6500100","板橋區"
"220073","985-R7","2017/08/15 20:09:17","新北市板橋區南雅西路二段2-1號","121.453235","25.0089083333333","6500100","板橋區"
"220097","AAC-210","2017/08/15 20:09:21","新北市板橋區文化路一段221巷10號","121.463291666667","25.0177566666667","6500100","板橋區"
"220070","AAC-253","2017/08/15 20:09:22","新北市板橋區四川路二段47巷4弄17號","121.453475","24.9943583333333","6500100","板橋區"
