"lineid","car","time","location","longitude","latitude","cityid","cityname"
"234046","148-BY","2017/08/15 20:29:13","新北市永和區林森路65號","121.524146666667","25.004145","6500400","永和區"
"234081","298-R6","2017/08/15 20:29:28","新北市永和區永貞路31號","121.521018333333","25.00662","6500400","永和區"
"234038","336-UY","2017/08/15 20:29:24","新北市永和區環河東路四段38號","121.5287","24.998945","6500400","永和區"
"234064","337-UY","2017/08/15 20:29:26","新北市永和區中正路417號","121.51719","25.004755","6500400","永和區"
"234086","338-UY","2017/08/15 20:29:20","新北市永和區光復街13號","121.51647","25.0173433333333","6500400","永和區"
"234054","553-UM","2017/08/15 20:29:10","新北市永和區光復街60巷25號","121.517756666667","25.017505","6500400","永和區"
"234030","746-BX","2017/08/15 20:29:14","新北市新店區安和路三段1號","121.51738","24.9796883333333","6500400","永和區"
"234061","AAD-866","2017/08/15 20:29:12","新北市永和區安樂路194巷17弄10號","121.51615","25.00138","6500400","永和區"
"234042","862-TW","2017/08/15 20:29:19","新北市永和區安樂路248號","121.514636666667","25.0032583333333","6500400","永和區"
"234050","863-TW","2017/08/15 20:29:23","新北市永和區新生路138巷3弄9號","121.506381666667","25.0143516666667","6500400","永和區"
"234011","9373-KE","2017/08/15 20:29:15","新北市永和區仁愛路352巷120號","121.500215","25.0084783333333","6500400","永和區"
"249005","172-UM","2017/08/15 16:50:35","新北市八里區挖子尾街6號","121.41544","25.1641916666667","6502300","八里區"
"249001","173-UM","2017/08/15 20:29:15","新北市八里區中山路三段106號","121.39331","25.14387","6502300","八里區"
"249004","303-UY","2017/08/15 20:29:13","新北市八里區中山路一段129巷19-1號","121.413923333333","25.1585883333333","6502300","八里區"
"249002","305-UY","2017/08/15 20:29:25","新北市八里區龍米路二段125巷2號","121.446333333333","25.145","6502300","八里區"
"249003","593-UM","2017/08/15 20:29:26","新北市八里區華峰一街43號","121.398765","25.1463166666667","6502300","八里區"
"234023","9380-KE","2017/08/15 20:29:13","新北市永和區光復街2巷16弄36號","121.518075","25.0162833333333","6500400","永和區"
"234074","AAC-211","2017/08/15 20:29:16","新北市永和區竹林路119巷22弄17號","121.521528333333","25.011525","6500400","永和區"
"234067","AAC-212","2017/08/15 20:29:22","新北市永和區保平路268巷9號","121.508393333333","25.0054066666667","6500400","永和區"
"234003","AAC-295","2017/08/15 20:29:23","新北市永和區大新街52巷1弄1號","121.516178333333","25.0082266666667","6500400","永和區"
"244024","837-TS","2017/08/15 20:11:18","新北市林口區粉寮路二段160巷28號","121.405221666667","25.0907283333333","6501700","林口區"
"243013","AAD-798","2017/08/15 20:29:27","新北市泰山區貴子路9巷8號","121.42557","25.0423633333333","6501600","泰山區"
"243009","297-R6","2017/08/15 20:29:19","新北市泰山區憲訓路36號","121.429036666667","25.0646866666667","6501600","泰山區"
"243015","380-SR","2017/08/15 20:29:18","新北市泰山區全興路111號","121.43399","25.0565716666667","6501600","泰山區"
"243014","421-VK","2017/08/15 20:29:14","新北市泰山區泰林路二段2-4號","121.419645","25.065115","6501600","泰山區"
"243010","548-UM","2017/08/15 20:29:22","新北市泰山區新生路31巷7號","121.42765","25.0458466666667","6501600","泰山區"
"243011","549-UM","2017/08/15 20:29:28","新北市泰山區明志路三段42巷18號","121.424191666667","25.0423116666667","6501600","泰山區"
"243012","646-TV","2017/08/15 20:29:28","新北市泰山區泰林路二段347號","121.428963333333","25.06351","6501600","泰山區"
"243016","680-BX","2017/08/15 20:29:00","新北市泰山區明志路二段196號","121.427485","25.04949","6501600","泰山區"
"222003","436-BY","2017/08/15 20:29:13","新北市深坑區深坑街37號","121.61569","25.0022016666667","6501800","深坑區"
"222002","659-BX","2017/08/15 20:28:38","新北市深坑區萬福路16巷45號","121.610018333333","25.0087","6501800","深坑區"
"222001","696-SL","2017/08/15 20:29:27","新北市深坑區北深路三段345號","121.597185","25.00504","6501800","深坑區"
"231041","002-UM","2017/08/15 20:29:23","新北市新店區中正路520號","121.533873333333","24.9836533333333","6500600","新店區"
"231059","046-UY","2017/08/15 20:29:17","新北市新店區安豐路46號","121.500108333333","24.95495","6500600","新店區"
"231061","047-UY","2017/08/15 20:29:25","新北市新店區新和街36號","121.519303333333","24.9848866666667","6500600","新店區"
"231060","106-UY","2017/08/15 20:29:11","新北市新店區錦秀路62號","121.478973333333","24.9429683333333","6500600","新店區"
"231051","107-UY","2017/08/15 20:29:17","新北市新店區中央六街127號","121.524695","24.977805","6500600","新店區"
"231048","108-UY","2017/08/15 20:29:12","新北市新店區寶慶街58巷10號","121.542153333333","24.9871916666667","6500600","新店區"
"231068","110-UY","2017/08/15 20:29:18","新北市新店區寶元路一段61號","121.542163333333","24.9859316666667","6500600","新店區"
"231053","187-VK","2017/08/15 20:29:19","新北市新店區松林路30號","121.545083333333","24.9107266666667","6500600","新店區"
"231057","256-BX","2017/08/15 20:29:20","新北市新店區花園五路二段1號","121.55351","24.9341383333333","6500600","新店區"
"231063","268-BY","2017/08/15 20:29:12","新北市新店區安康路三段47號","121.49264","24.9525983333333","6500600","新店區"
"231050","AAD-862","2017/08/15 20:29:10","新北市新店區博愛街8巷1號","121.541241666667","24.9734983333333","6500600","新店區"
"231058","3712-VJ","2017/08/15 20:29:20","新北市新店區安德街60巷19-1號","121.51045","24.9632133333333","6500600","新店區"
"231056","372-TH","2017/08/15 20:29:17","新北市新店區中正路328巷40號","121.53809","24.9764216666667","6500600","新店區"
"231067","4772-VM","2017/08/15 20:29:20","新北市新店區安康路一段266巷4號","121.52003","24.9639533333333","6500600","新店區"
"231065","512-UM","2017/08/15 20:29:17","新北市新店區安祥路102巷30弄13號","121.484625","24.9635583333333","6500600","新店區"
"231054","513-UM","2017/08/15 20:29:32","新北市新店區檳榔路174號","121.544196666667","24.9618483333333","6500600","新店區"
"231064","515-UM","2017/08/15 20:29:27","新北市新店區永安街74巷17號","121.519165","24.98591","6500600","新店區"
"231042","616-UM","2017/08/15 20:29:26","新北市新店區寶橋路230號","121.551515","24.9789333333333","6500600","新店區"
"231045","617-UM","2017/08/15 20:29:11","新北市新店區新坡一街60號","121.54973","24.963205","6500600","新店區"
"231040","619-UM","2017/08/15 20:29:15","新北市新店區三民路133號","121.534438333333","24.97246","6500600","新店區"
"231049","719-UM","2017/08/15 20:29:24","新北市新店區永業路81巷7弄1號","121.530495","24.9487533333333","6500600","新店區"
"231062","720-UM","2017/08/15 20:29:22","新北市新店區安泰路60巷86號","121.483921666667","24.9455816666667","6500600","新店區"
"231044","897-TW","2017/08/15 20:29:31","新北市新店區民族路39號","121.540713333333","24.9786333333333","6500600","新店區"
"231043","899-TW","2017/08/15 20:29:27","新北市新店區民族路65號","121.539648333333","24.9782133333333","6500600","新店區"
"231066","AKT-0513","2017/08/15 20:29:08","新北市新店區安興路112號","121.514698333333","24.9775983333333","6500600","新店區"
"241011","013-R5","2017/08/15 20:29:16","新北市三重區龍門路72號","121.496873333333","25.0726416666667","6500200","三重區"
"241028","022-UY","2017/08/15 20:29:15","新北市三重區光興街91號","121.49741","25.05998","6500200","三重區"
"241009","060-VK","2017/08/15 20:29:26","新北市三重區永福街62號","121.480995","25.077875","6500200","三重區"
"241031","061-VK","2017/08/15 20:29:09","新北市三重區三寧街22號","121.489478333333","25.0598983333333","6500200","三重區"
"241015","062-VK","2017/08/15 20:29:27","新北市三重區文化北路47號","121.498826666667","25.0655","6500200","三重區"
"241017","063-VK","2017/08/15 20:29:29","新北市三重區大仁街20號","121.491588333333","25.0634816666667","6500200","三重區"
"241024","065-VK","2017/08/15 20:29:27","新北市三重區三民街270號","121.479075","25.0680216666667","6500200","三重區"
"241002","090-VK","2017/08/15 20:29:28","新北市三重區仁義街211巷5號","121.49712","25.082005","6500200","三重區"
"241003","091-VK","2017/08/15 20:29:19","新北市三重區富華街160號","121.492516666667","25.0845116666667","6500200","三重區"
"241005","262-UM","2017/08/15 20:29:24","新北市三重區碧華街337號","121.49172","25.0847883333333","6500200","三重區"
"241008","265-UM","2017/08/15 20:29:10","新北市三重區下竹圍街91號","121.481123333333","25.0748683333333","6500200","三重區"
"241016","266-UM","2017/08/15 20:29:27","新北市三重區正義北路186號","121.496193333333","25.0668033333333","6500200","三重區"
"241022","267-UM","2017/08/15 20:29:15","新北市三重區重陽路二段19巷6號","121.487526666667","25.0625016666667","6500200","三重區"
"241018","268-UM","2017/08/15 20:29:15","新北市三重區正義北路210號","121.496075","25.067515","6500200","三重區"
"241032","269-UM","2017/08/15 20:29:19","新北市三重區重陽路一段120巷46號","121.485111666667","25.06015","6500200","三重區"
"241013","270-UM","2017/08/15 20:29:22","新北市三重區溪尾街5巷22號","121.49246","25.0745766666667","6500200","三重區"
"241025","271-UM","2017/08/15 20:29:23","新北市三重區頂崁街210巷23弄1號","121.475825","25.0681583333333","6500200","三重區"
"241020","412-TH","2017/08/15 20:29:25","新北市三重區正義北路351號","121.493296666667","25.0718483333333","6500200","三重區"
"241035","462-BY","2017/08/15 20:29:23","新北市三重區正義北路98號","121.496983333333","25.0649516666667","6500200","三重區"
"241004","475-VK","2017/08/15 20:29:20","新北市三重區溪尾街200號","121.488175","25.0811966666667","6500200","三重區"
"241019","478-VK","2017/08/15 20:29:28","新北市三重區重陽路四段83號","121.492605","25.07105","6500200","三重區"
"241030","480-VK","2017/08/15 20:29:13","新北市三重區成功路62號","121.488585","25.0509316666667","6500200","三重區"
"241014","543-UM","2017/08/15 20:29:13","新北市三重區萬壽街10號","121.49921","25.0693416666667","6500200","三重區"
"241023","545-UM","2017/08/15 20:29:15","新北市三重區自由街19號","121.479791666667","25.0666033333333","6500200","三重區"
"241001","547-UM","2017/08/15 20:29:14","新北市三重區自強路四段32-2號","121.489005","25.076895","6500200","三重區"
"241012","941-UM","2017/08/15 20:29:24","新北市三重區龍濱路261號","121.501451666667","25.072875","6500200","三重區"
"241029","942-UM","2017/08/15 20:29:21","新北市三重區集美街225號","121.492066666667","25.0551133333333","6500200","三重區"
"241033","AAC-255","2017/08/15 20:29:25","新北市三重區五谷王北街80巷37號","121.475225","25.0531666666667","6500200","三重區"
"235066","003-UY","2017/08/15 20:29:24","新北市中和區光華街70號","121.505846666667","25.0035083333333","6500300","中和區"
"235039","097-UM","2017/08/15 20:29:22","新北市中和區大勇街27巷16號","121.516688333333","24.9939316666667","6500300","中和區"
"235065","098-UM","2017/08/15 20:29:18","新北市中和區永和路128巷28號","121.497631666667","25.0068066666667","6500300","中和區"
"235072","301-VK","2017/08/15 20:29:29","新北市五股區中直路15號","121.42351","25.11088","6500300","中和區"
"235068","377-QA","2017/08/15 20:29:17","新北市中和區福祥路67號","121.499231666667","25.0048816666667","6500300","中和區"
"235050","4979-A6","2017/08/15 20:21:58","新北市中和區景安路177巷9號","121.505761666667","24.9942316666667","6500300","中和區"
"235069","4980-A6","2017/08/15 20:29:21","新北市中和區新生街262號","121.483721666667","24.997305","6500300","中和區"
"235026","800-TS","2017/08/15 20:29:10","新北市中和區員山路36巷16-3號","121.484856666667","24.9916266666667","6500300","中和區"
"235059","AAC-215","2017/08/15 20:29:17","新北市中和區員山路7-6號","121.482413333333","24.9854633333333","6500300","中和區"
"220103","120-SR","2017/08/15 20:29:25","新北市板橋區漢生東路23巷48號","121.465945","25.018075","6500100","板橋區"
"247020","893-R6","2017/08/15 20:29:21","新北市蘆洲區民族路424號","121.473856666667","25.0917916666667","6501400","蘆洲區"
"247010","546-UM","2017/08/15 20:29:29","新北市蘆洲區信義路222巷63號","121.481343333333","25.08527","6501400","蘆洲區"
"247018","500-BY","2017/08/15 20:29:18","新北市蘆洲區民族路336巷14號","121.477298333333","25.0908983333333","6501400","蘆洲區"
"247008","339-TH","2017/08/15 20:29:27","新北市蘆洲區永安北路二段70號","121.483368333333","25.0841616666667","6501400","蘆洲區"
"247024","337-TH","2017/08/15 20:29:12","新北市蘆洲區光華路186巷65號","121.465218333333","25.0839733333333","6501400","蘆洲區"
"247002","336-TH","2017/08/15 20:29:22","新北市蘆洲區長安街282號","121.457365","25.087555","6501400","蘆洲區"
"247006","335-TH","2017/08/15 20:29:23","新北市蘆洲區和平路206號","121.465773333333","25.0820516666667","6501400","蘆洲區"
"247014","057-VK","2017/08/15 20:29:17","新北市蘆洲區中山二路76號","121.473181666667","25.0820716666667","6501400","蘆洲區"
"247004","056-VK","2017/08/15 20:29:19","新北市蘆洲區長安街303號","121.458","25.08495","6501400","蘆洲區"
"247022","053-VK","2017/08/15 20:29:21","新北市蘆洲區中正路279號","121.466985","25.0878783333333","6501400","蘆洲區"
"247012","007-UY","2017/08/15 20:29:25","新北市蘆洲區中興街117-2號","121.482113333333","25.0891866666667","6501400","蘆洲區"
"247016","001-UY","2017/08/15 20:29:24","新北市蘆洲區中正路33號","121.471148333333","25.0822616666667","6501400","蘆洲區"
"224011","420-VK","2017/08/15 20:29:15","新北市瑞芳區明燈路一段12號","121.821538333333","25.10708","6501200","瑞芳區"
"251014","180-VK","2017/08/15 20:29:17","新北市淡水區石頭厝9-6號","121.4605","25.23772","6501000","淡水區"
"251008","181-VK","2017/08/15 20:29:29","新北市淡水區淡海路189巷10號","121.419798333333","25.1844516666667","6501000","淡水區"
"251010","413-VK","2017/08/15 20:29:16","新北市淡水區沙崙路181巷15號","121.423978333333","25.1843633333333","6501000","淡水區"
"251012","441-VK","2017/08/15 20:29:27","新北市淡水區頂田寮路37號","121.455481666667","25.2162933333333","6501000","淡水區"
"251016","442-VK","2017/08/15 20:29:23","新北市淡水區後洲子19號","121.45036","25.223805","6501000","淡水區"
"251001","559-UM","2017/08/15 20:29:26","新北市淡水區中山北路二段169號","121.444345","25.184495","6501000","淡水區"
"251006","561-UM","2017/08/15 20:29:28","新北市淡水區商工路329號","121.464451666667","25.1858733333333","6501000","淡水區"
"251011","650-BX","2017/08/15 20:29:14","新北市淡水區義山路一段222號","121.438116666667","25.1911666666667","6501000","淡水區"
"251002","672-BX","2017/08/15 20:29:20","新北市淡水區中正路21號","121.442631666667","25.1695816666667","6501000","淡水區"
"251003","673-BX","2017/08/15 20:29:20","新北市淡水區新生街47號","121.440311666667","25.1748183333333","6501000","淡水區"
"207004","225-TW","2017/08/15 20:29:11","新北市萬里區北基里忠二街13號","121.684798333333","25.17556","6502800","萬里區"
"252002","178-VK","2017/08/15 20:29:10","新北市三芝區淡金路二段15號","121.502585","25.25912","6502100","三芝區"
"252001","292-VK","2017/08/15 20:29:29","新北市三芝區中山路一段35號","121.500631666667","25.2579783333333","6502100","三芝區"
"236070","105-UM","2017/08/15 20:29:10","新北市土城區福安街71-1號","121.417005","24.963775","6501300","土城區"
"236015","270-VK","2017/08/15 20:29:18","新北市板橋區四川路二段245巷95-2號","121.453045","24.9931516666667","6501300","土城區"
"242021","AAC-296","2017/08/15 20:29:18","新北市新莊區和興街19號","121.44737","25.0393066666667","6500500","新莊區"
"242029","986-R7","2017/08/15 20:29:24","新北市新莊區中華路二段227號","121.452066666667","25.05326","6500500","新莊區"
"242048","751-BX","2017/08/15 20:29:21","新北市新莊區龍安路252-2號","121.421253333333","25.019435","6500500","新莊區"
"242025","615-BX","2017/08/15 20:29:14","新北市新莊區五工三路62巷23號","121.460243333333","25.0650566666667","6500500","新莊區"
"242023","613-BX","2017/08/15 20:29:31","新北市新莊區化成路539-1號","121.465115","25.0644783333333","6500500","新莊區"
"242027","612-BX","2017/08/15 20:29:32","新北市新莊區思源路309號","121.459981666667","25.0490233333333","6500500","新莊區"
"242042","497-BY","2017/08/15 20:29:16","新北市新莊區中正路694巷80號","121.417441666667","25.0294733333333","6500500","新莊區"
"242005","442-UM","2017/08/15 20:29:22","新北市新莊區頭前路70-1號","121.466581666667","25.052625","6500500","新莊區"
"242046","441-UM","2017/08/15 20:29:20","新北市新莊區裕民街83號","121.418541666667","25.0238166666667","6500500","新莊區"
"242051","440-UM","2017/08/15 20:29:28","新北市新莊區民安西路189巷16號","121.426788333333","25.0152383333333","6500500","新莊區"
"242032","415-TV","2017/08/15 20:29:27","新北市泰山區新生路181號","121.435596666667","25.0393883333333","6500500","新莊區"
"242002","413-TV","2017/08/15 20:29:30","新北市新莊區中正路82-1號","121.456873333333","25.0377","6500500","新莊區"
"242039","400-BY","2017/08/15 20:29:27","新北市新莊區民安路232號","121.426245","25.0222733333333","6500500","新莊區"
"242061","362-BY","2017/08/15 20:29:27","新北市新莊區新樹路244巷61號","121.431145","25.0195016666667","6500500","新莊區"
"242058","353-BY","2017/08/15 20:29:15","新北市新莊區四維路157號","121.42257","25.0218466666667","6500500","新莊區"
"242015","132-UY","2017/08/15 20:29:25","新北市新莊區永樂街248號","121.445628333333","25.044455","6500500","新莊區"
"242034","133-UY","2017/08/15 20:29:22","新北市新莊區中正路330號","121.445901666667","25.03484","6500500","新莊區"
"242019","135-UY","2017/08/15 20:29:20","新北市新莊區銘德街34號","121.458223333333","25.0437416666667","6500500","新莊區"
"242044","172-VK","2017/08/15 20:29:29","新北市新莊區中正路新建巷14號","121.413985","25.02235","6500500","新莊區"
"242007","173-VK","2017/08/15 20:29:09","新北市新莊區思源路287巷1弄25號","121.45947","25.0472666666667","6500500","新莊區"
"242056","176-VK","2017/08/15 20:29:28","新北市新莊區新莊路751巷85號","121.442781666667","25.0307566666667","6500500","新莊區"
"242011","346-TH","2017/08/15 20:29:31","新北市新莊區中義街14號","121.451075","25.05119","6500500","新莊區"
"242013","347-TH","2017/08/15 20:29:28","新北市新莊區中平路270巷5-2號","121.445401666667","25.0505416666667","6500500","新莊區"
"242017","348-TH","2017/08/15 20:29:11","新北市新莊區中港二街88號","121.44938","25.045875","6500500","新莊區"
"242054","349-TH","2017/08/15 20:29:12","新北市新莊區西盛街344巷9號","121.427483333333","25.0141066666667","6500500","新莊區"
"242009","351-TH","2017/08/15 20:29:20","新北市新莊區福壽街99巷15弄4號","121.456561666667","25.0504166666667","6500500","新莊區"
"238023","601-UM","2017/08/15 20:29:11","新北市樹林區育德街78-1號","121.387636666667","24.9682566666667","6500700","樹林區"
"221008","489-VK","2017/08/15 20:29:11","新北市汐止區康寧街543號","121.63438","25.0691","6501100","汐止區"
"221036","130-UY","2017/08/15 20:29:31","新北市汐止區新台五路二段130號","121.663676666667","25.0664566666667","6501100","汐止區"
"221015","131-UY","2017/08/15 20:29:15","新北市汐止區建成路142巷19弄2號","121.66222","25.0739666666667","6501100","汐止區"
"221010","269-BY","2017/08/15 20:29:25","新北市汐止區八連路二段636-3號","121.625825","25.11042","6501100","汐止區"
"241031","276-VK","2017/08/15 13:19:10","新北市汐止區汐萬路一段256巷3號","121.653445","25.07462","6500200","三重區"
"221012","278-VK","2017/08/15 20:29:22","新北市汐止區大同路三段279號","121.674128333333","25.075145","6501100","汐止區"
"221023","279-VK","2017/08/15 19:52:28","新北市汐止區中興路286巷1號","121.628368333333","25.0695333333333","6501100","汐止區"
"221032","280-BY","2017/08/15 20:29:31","新北市汐止區弘道街53巷19弄2號","121.618718333333","25.0494433333333","6501100","汐止區"
"221027","281-BY","2017/08/15 20:29:26","新北市汐止區中正路189號","121.658818333333","25.069","6501100","汐止區"
"221038","297-VK","2017/08/15 20:29:27","新北市汐止區忠孝東路438號","121.66612","25.0724116666667","6501100","汐止區"
"221029","298-VK","2017/08/15 20:29:13","新北市汐止區樟樹一路129巷34弄19號","121.640413333333","25.0652916666667","6501100","汐止區"
"221021","299-VK","2017/08/15 17:29:02","新北市汐止區汐萬路一段256巷3號","121.652291666667","25.07526","6501100","汐止區"
"221031","353-TW","2017/08/15 20:29:18","新北市汐止區中興路110巷10號","121.633738333333","25.0641583333333","6501100","汐止區"
"221035","622-UM","2017/08/15 20:29:13","新北市汐止區長江街101-5號","121.658681666667","25.073195","6501100","汐止區"
"221025","623-UM","2017/08/15 20:29:24","新北市汐止區水源路二段88巷1弄9號","121.656545","25.055475","6501100","汐止區"
"221033","647-BX","2017/08/15 20:29:14","新北市汐止區林森街73巷5號","121.623523333333","25.04097","6501100","汐止區"
"221002","707-TV","2017/08/15 20:29:29","新北市汐止區福德二路48號","121.634293333333","25.0673483333333","6501100","汐止區"
"221018","753-BX","2017/08/15 20:29:18","新北市汐止區茄苳路225巷9弄1號","121.671406666667","25.0691883333333","6501100","汐止區"
"220083","286-VK","2017/08/15 20:29:14","新北市板橋區僑中二街102巷26號","121.445116666667","25.0085916666667","6500100","板橋區"
"220081","287-VK","2017/08/15 20:29:05","新北市板橋區大觀路二段181號","121.444931666667","25.0000483333333","6500100","板橋區"
"220089","487-VK","2017/08/15 20:29:31","新北市板橋區互助街18號","121.462741666667","25.0275216666667","6500100","板橋區"
"220067","829-TW","2017/08/15 20:29:17","新北市八里區商港路120號","121.392853333333","25.1500733333333","6500100","板橋區"
"220074","895-R6","2017/08/15 20:29:20","新北市板橋區南雅南路一段7巷22弄11號","121.455656666667","25.00457","6500100","板橋區"
"220070","AAC-253","2017/08/15 20:29:22","新北市板橋區大觀路一段28巷106-3號","121.45099","25.01108","6500100","板橋區"
