"lineid","car","time","location","longitude","latitude","cityid","cityname"
"244024","837-TS","2017/08/15 20:11:18","新北市林口區粉寮路二段160巷28號","121.405221666667","25.0907283333333","6501700","林口區"
"243001","297-R6","2017/08/15 21:17:36","新北市泰山區黎明路31號","121.421591666667","25.0606066666667","6501600","泰山區"
"231059","046-UY","2017/08/15 21:19:17","新北市新店區安康路一段355號","121.519866666667","24.9637483333333","6500600","新店區"
"231061","047-UY","2017/08/15 21:19:25","新北市新店區溪園路365-5號","121.522801666667","24.9802916666667","6500600","新店區"
"231051","107-UY","2017/08/15 21:19:17","新北市新店區中正路680巷33弄1號","121.535108333333","24.9893266666667","6500600","新店區"
"231048","108-UY","2017/08/15 21:19:12","新北市新店區民族路161號","121.5376","24.9767616666667","6500600","新店區"
"231063","268-BY","2017/08/15 21:19:12","新北市新店區玫瑰路57巷32號","121.496821666667","24.946305","6500600","新店區"
"231050","AAD-862","2017/08/15 21:19:10","新北市新店區中華路117巷3號","121.537911666667","24.9685416666667","6500600","新店區"
"231067","4772-VM","2017/08/15 21:19:20","新北市新店區薏仁坑路自強巷6號","121.49665","24.958405","6500600","新店區"
"231065","512-UM","2017/08/15 21:19:17","新北市新店區車子路18-1號","121.505705","24.95442","6500600","新店區"
"231040","619-UM","2017/08/15 21:19:17","新北市新店區光明街306號","121.540576666667","24.9649016666667","6500600","新店區"
"241011","013-R5","2017/08/15 21:19:16","新北市三重區龍濱路199號","121.501833333333","25.0714666666667","6500200","三重區"
"241028","022-UY","2017/08/15 21:19:15","新北市三重區正義南路169號","121.498928333333","25.057475","6500200","三重區"
"241009","060-VK","2017/08/15 21:19:26","新北市三重區忠孝路三段13號","121.481681666667","25.06739","6500200","三重區"
"241031","061-VK","2017/08/15 21:19:29","新北市三重區重新路五段408巷19號","121.47576","25.0455483333333","6500200","三重區"
"241017","063-VK","2017/08/15 21:19:09","新北市三重區中正北路25巷2號","121.493243333333","25.06268","6500200","三重區"
"241024","065-VK","2017/08/15 21:19:27","新北市三重區中正北路145巷14號","121.484133333333","25.0678333333333","6500200","三重區"
"241026","066-VK","2017/08/15 21:19:09","新北市三重區大同南路218號","121.496791666667","25.0563683333333","6500200","三重區"
"241002","090-VK","2017/08/15 21:19:26","新北市三重區五華街19號","121.494883333333","25.0803816666667","6500200","三重區"
"241003","091-VK","2017/08/15 21:19:19","新北市三重區仁義街220巷2號","121.495301666667","25.0841266666667","6500200","三重區"
"241006","156-TC","2017/08/15 21:19:15","新北市三重區新北大道一段96號","121.485718333333","25.0615883333333","6500200","三重區"
"241005","262-UM","2017/08/15 21:19:24","新北市三重區三信路182號","121.488045","25.086125","6500200","三重區"
"241008","265-UM","2017/08/15 21:19:09","新北市三重區自強路1段71-1號","121.497341666667","25.06693","6500200","三重區"
"241016","266-UM","2017/08/15 21:19:27","新北市三重區信義西街138號","121.495566666667","25.0643166666667","6500200","三重區"
"241018","268-UM","2017/08/15 21:19:15","新北市三重區忠孝路一段171號","121.48766","25.0717233333333","6500200","三重區"
"241032","269-UM","2017/08/15 21:19:19","新北市三重區中興北街175巷4號","121.46945","25.0559183333333","6500200","三重區"
"241013","270-UM","2017/08/15 21:19:21","新北市三重區仁愛街81號","121.495893333333","25.073065","6500200","三重區"
"241007","398-BY","2017/08/15 21:19:17","新北市三重區車路頭街76號","121.484316666667","25.0738433333333","6500200","三重區"
"241004","475-VK","2017/08/15 21:19:20","新北市三重區仁愛街423-1號","121.49044","25.0814483333333","6500200","三重區"
"241019","478-VK","2017/08/15 21:19:28","新北市三重區重陽路三段7-4號","121.489296666667","25.0665233333333","6500200","三重區"
"241030","480-VK","2017/08/15 21:19:13","新北市三重區五谷王北街42巷2號","121.475775","25.0491333333333","6500200","三重區"
"241014","543-UM","2017/08/15 21:19:12","新北市三重區安和路111號","121.500685","25.0702883333333","6500200","三重區"
"241023","545-UM","2017/08/15 21:19:15","新北市三重區中正北路176巷27號","121.482616666667","25.065995","6500200","三重區"
"241001","547-UM","2017/08/15 21:19:14","新北市三重區仁愛街465號","121.489436666667","25.0820066666667","6500200","三重區"
"241012","941-UM","2017/08/15 21:19:24","新北市三重區龍門路286號","121.502021666667","25.0741683333333","6500200","三重區"
"241029","942-UM","2017/08/15 21:19:21","新北市三重區新北大道一段50號","121.487543333333","25.061415","6500200","三重區"
"241033","AAC-255","2017/08/15 21:19:28","新北市三重區光復路二段102巷23號","121.470296666667","25.0581133333333","6500200","三重區"
"235026","800-TS","2017/08/15 21:19:26","新北市中和區員山路36巷16-3號","121.48488","24.991675","6500300","中和區"
"247020","893-R6","2017/08/15 21:19:21","新北市蘆洲區民族路422巷82弄14號","121.473971666667","25.09392","6501400","蘆洲區"
"247010","546-UM","2017/08/15 21:19:29","新北市蘆洲區鷺江街16-2號","121.478803333333","25.0825166666667","6501400","蘆洲區"
"247018","500-BY","2017/08/15 21:19:18","新北市蘆洲區復興路105巷9號","121.476385","25.0883066666667","6501400","蘆洲區"
"247008","339-TH","2017/08/15 21:19:27","新北市蘆洲區信義路75巷2號","121.476343333333","25.0798683333333","6501400","蘆洲區"
"247024","337-TH","2017/08/15 21:19:12","新北市蘆洲區光明路112號","121.463665","25.08807","6501400","蘆洲區"
"247002","336-TH","2017/08/15 21:19:22","新北市蘆洲區永樂街38巷40號","121.458618333333","25.08997","6501400","蘆洲區"
"247006","335-TH","2017/08/15 21:19:23","新北市蘆洲區長安街63號","121.462848333333","25.0798533333333","6501400","蘆洲區"
"247014","057-VK","2017/08/15 21:19:17","新北市蘆洲區保和街24號","121.47052","25.086575","6501400","蘆洲區"
"247004","056-VK","2017/08/15 21:19:19","新北市蘆洲區永安南路二段320號","121.457065","25.0827233333333","6501400","蘆洲區"
"247022","053-VK","2017/08/15 21:19:21","新北市蘆洲區三民路241-15號","121.468841666667","25.08873","6501400","蘆洲區"
"247012","007-UY","2017/08/15 21:19:25","新北市蘆洲區中興街105號","121.482265","25.0887433333333","6501400","蘆洲區"
"247016","001-UY","2017/08/15 21:19:24","新北市蘆洲區長興路50巷33號","121.464556666667","25.0845033333333","6501400","蘆洲區"
"224011","420-VK","2017/08/15 20:33:48","新北市瑞芳區明燈路二段66號","121.809378333333","25.10761","6501200","瑞芳區"
"251004","009-UM","2017/08/15 21:19:23","新北市淡水區民族路33號","121.462346666667","25.1358483333333","6501000","淡水區"
"251005","010-UM","2017/08/15 21:19:19","新北市淡水區仁愛街14號","121.446545","25.1703666666667","6501000","淡水區"
"251014","180-VK","2017/08/15 21:19:17","新北市淡水區六塊厝3-2號","121.450475","25.2406016666667","6501000","淡水區"
"251008","181-VK","2017/08/15 21:19:09","新北市淡水區水源街二段234號","121.460731666667","25.1763183333333","6501000","淡水區"
"251010","413-VK","2017/08/15 21:19:16","新北市淡水區中正路一段156巷51號","121.421851666667","25.1808766666667","6501000","淡水區"
"251012","441-VK","2017/08/15 21:19:26","新北市淡水區淡金路五段20號","121.452933333333","25.2323766666667","6501000","淡水區"
"251016","442-VK","2017/08/15 21:19:23","新北市淡水區牛埔子7-8號","121.447735","25.2183","6501000","淡水區"
"251001","559-UM","2017/08/15 21:19:26","新北市淡水區濱海路一段53號","121.44334","25.18914","6501000","淡水區"
"251009","575-R6","2017/08/15 21:19:22","新北市淡水區民族路33巷16-19號","121.462453333333","25.1358283333333","6501000","淡水區"
"251007","577-R6","2017/08/15 21:19:22","新北市淡水區水源街二段194號","121.456846666667","25.1760966666667","6501000","淡水區"
"251011","650-BX","2017/08/15 21:19:14","新北市淡水區新民街120巷29號","121.438945","25.1788083333333","6501000","淡水區"
"251002","672-BX","2017/08/15 21:15:18","新北市淡水區學府路172巷21號","121.448295","25.1749383333333","6501000","淡水區"
"251003","673-BX","2017/08/15 21:19:20","新北市淡水區新春街85巷35號","121.438561666667","25.18347","6501000","淡水區"
"242054","349-TH","2017/08/15 21:19:12","新北市八里區商港路88-1號","121.393176666667","25.149605","6500500","新莊區"
"241031","276-VK","2017/08/15 13:19:10","新北市汐止區汐萬路一段256巷3號","121.653445","25.07462","6500200","三重區"
"220063","609-BX","2017/08/15 21:10:31","新北市板橋區民生路二段56-4號","121.472008333333","25.017395","6500100","板橋區"
"220070","AAC-253","2017/08/15 21:19:21","新北市八里區商港路6號","121.397093333333","25.1442233333333","6500100","板橋區"
