"lineid","car","time","location","longitude","latitude","cityid","cityname"
"248005","653-BX","2017/12/08 09:49:38","新北市五股區成泰路一段239-9號","121.43675","25.0805833333333","6501500","五股區"
"222005","289-BY","2017/12/08 09:49:40","新北市深坑區深坑街75號","121.614735","25.001215","6501800","深坑區"
"231007","189-VK","2017/12/08 09:49:37","新北市新店區新潭路三段215巷36號","121.509091666667","24.9041883333333","6500600","新店區"
"231009","192-VK","2017/12/08 09:37:48","新北市新店區平廣路一段250號","121.508305","24.8885266666667","6500600","新店區"
"223005","677-TV","2017/12/08 09:40:47","新北市石碇區小粗坑(潭邊里)6號","121.675066666667","24.9841816666667","6501900","石碇區"
"227005","282-VK","2017/12/08 09:49:45","新北市雙溪區泰平里灣潭路36號","121.811435","24.9287933333333","6502500","雙溪區"
"237001","159-UY","2017/12/08 09:49:39","新北市三峽區大學路156號","121.373541666667","24.94545","6500900","三峽區"
"236006","498-BY","2017/12/08 09:49:37","新北市土城區城林路6巷80號","121.43883","24.9796783333333","6501300","土城區"
"239001","417-VK","2017/12/08 09:49:37","桃園市大園區民生南路186號","121.201848333333","25.0645433333333","6500800","鶯歌區"
