"lineid","car","time","location","longitude","latitude","cityid","cityname"
"234044","148-BY","2017/12/08 13:59:41","新北市永和區成功路一段130號","121.526803333333","25.0020533333333","6500400","永和區"
"234012","149-BY","2017/12/08 13:59:33","新北市永和區仁愛路289號","121.505461666667","25.00943","6500400","永和區"
"234005","207-UY","2017/12/08 13:59:41","新北市中和區中和路306-1號","121.508813333333","25.0000716666667","6500400","永和區"
"234078","298-R6","2017/12/08 13:59:40","新北市永和區國中路33號","121.524551666667","25.00547","6500400","永和區"
"234036","336-UY","2017/12/08 13:59:38","新北市永和區成功路二段152-2號","121.526558333333","24.9966516666667","6500400","永和區"
"234062","337-UY","2017/12/08 13:59:52","新北市永和區中正路412巷20弄10號","121.518708333333","25.001585","6500400","永和區"
"234084","338-UY","2017/12/08 13:59:48","新北市永和區福和路18號","121.52417","25.0084866666667","6500400","永和區"
"234068","552-UM","2017/12/08 13:59:42","新北市永和區國光路39-2號","121.51907","25.0080566666667","6500400","永和區"
"234052","553-UM","2017/12/08 13:59:44","新北市永和區竹林路39巷30號","121.519551666667","25.0150333333333","6500400","永和區"
"234015","745-BX","2017/12/08 13:59:53","新北市永和區文化路92號","121.513825","25.0151833333333","6500400","永和區"
"234028","746-BX","2017/12/08 13:59:44","新北市永和區民生路67巷56號","121.525488333333","24.9975016666667","6500400","永和區"
"234060","AAD-866","2017/12/08 13:59:49","新北市永和區中正路151巷5弄1號","121.516018333333","24.9985583333333","6500400","永和區"
"234040","862-TW","2017/12/08 13:59:36","新北市永和區中和路421巷5弄18號","121.508321666667","25.00071","6500400","永和區"
"234048","863-TW","2017/12/08 13:59:36","新北市永和區保安路268號","121.505731666667","25.0122533333333","6500400","永和區"
"234025","9371-KE","2017/12/08 13:59:34","新北市永和區自由街58號","121.513813333333","25.0059516666667","6500400","永和區"
"234010","9373-KE","2017/12/08 13:59:47","新北市永和區仁愛路352巷112弄15號","121.501068333333","25.0086183333333","6500400","永和區"
"248019","225-UY","2017/12/08 13:59:05","新北市五股區凌雲路三段57號","121.425295","25.1250166666667","6501500","五股區"
"234022","9380-KE","2017/12/08 13:59:54","新北市永和區永和路二段168號","121.515448333333","25.012985","6500400","永和區"
"234076","969-R7","2017/12/08 13:59:47","新北市永和區民治街59巷10號","121.518468333333","24.9972483333333","6500400","永和區"
"234072","AAC-211","2017/12/08 13:59:48","新北市永和區豫溪街185號","121.522488333333","25.0103583333333","6500400","永和區"
"234066","AAC-212","2017/12/08 13:59:30","新北市永和區永貞路358號","121.5102","25.0066333333333","6500400","永和區"
"234001","AAC-295","2017/12/08 13:59:51","新北市永和區福和路327號","121.515768333333","25.007205","6500400","永和區"
"244004","248-BX","2017/12/08 13:59:24","新北市林口區林口路76號","121.38969","25.0806933333333","6501700","林口區"
"231002","001-UM","2017/12/08 13:59:38","新北市新店區中正路669號","121.53393","24.9897866666667","6500600","新店區"
"231028","046-UY","2017/12/08 13:59:49","新北市新店區安和路三段21巷3號","121.51718","24.9809533333333","6500600","新店區"
"231030","047-UY","2017/12/08 13:59:35","新北市新店區安民街65巷21-2號","121.515171666667","24.9675","6500600","新店區"
"231029","106-UY","2017/12/08 13:59:45","新北市新店區安康路二段106號","121.513378333333","24.9629533333333","6500600","新店區"
"231018","107-UY","2017/12/08 13:59:42","新北市新店區中央路97號","121.53114","24.9751","6500600","新店區"
"231012","108-UY","2017/12/08 13:59:46","新北市新店區中興路一段282-5號","121.54616","24.968135","6500600","新店區"
"231022","187-VK","2017/12/08 13:59:44","新北市新店區自強路117號","121.546111666667","24.9231266666667","6500600","新店區"
"231016","KEA-2219","2017/12/08 13:59:41","新北市新店區北宜路二段112-1號","121.55645","24.95397","6500600","新店區"
"231026","256-BX","2017/12/08 13:59:41","新北市新店區環河路180-3號","121.535698333333","24.9689966666667","6500600","新店區"
"231010","278-BY","2017/12/08 13:59:35","新北市新店區安康路一段24巷5號","121.531995","24.9608183333333","6500600","新店區"
"231023","AAD-862","2017/12/08 13:59:42","新北市新店區文中路40號","121.53973","24.956555","6500600","新店區"
"231027","3712-VJ","2017/12/08 13:59:35","新北市新店區中興路一段24號","121.538711666667","24.9582783333333","6500600","新店區"
"231025","3713-VJ","2017/12/08 13:59:34","新北市新店區中正路275巷40號","121.536636666667","24.9726816666667","6500600","新店區"
"231024","4716-K9","2017/12/08 13:59:49","新北市新店區北新路一段271巷8號","121.540501666667","24.9667766666667","6500600","新店區"
"231038","4715-K9","2017/12/08 13:59:41","新北市新店區溪洲路121號","121.53122","24.96277","6500600","新店區"
"231036","512-UM","2017/12/08 13:59:34","新北市新店區安祥路109巷3弄39號","121.478991666667","24.9607433333333","6500600","新店區"
"231035","515-UM","2017/12/08 13:59:45","新北市新店區安康路二段96號","121.513616666667","24.96311","6500600","新店區"
"231003","616-UM","2017/12/08 13:59:51","新北市新店區光明街28號","121.538463333333","24.9587383333333","6500600","新店區"
"231006","617-UM","2017/12/08 13:59:52","新北市新店區北宜路二段211號","121.553186666667","24.9534533333333","6500600","新店區"
"231001","619-UM","2017/12/08 13:59:44","新北市新店區三民路45號","121.537118333333","24.97094","6500600","新店區"
"231034","645-TV","2017/12/08 13:59:51","新北市新店區達觀路16號","121.503483333333","24.94033","6500600","新店區"
"231013","719-UM","2017/12/08 13:59:41","新北市新店區明德路111號","121.541493333333","24.9794816666667","6500600","新店區"
"231032","720-UM","2017/12/08 13:59:38","新北市新店區莒光路44巷21弄11-3號","121.51853","24.9521516666667","6500600","新店區"
"231005","897-TW","2017/12/08 13:59:48","新北市新店區中興路三段160號","121.544308333333","24.980775","6500600","新店區"
"231004","899-TW","2017/12/08 13:59:41","新北市新店區北新路二段165號","121.542686666667","24.976285","6500600","新店區"
"231037","AKT-0513","2017/12/08 13:59:49","新北市新店區安康路三段165巷2弄1號","121.489441666667","24.95129","6500600","新店區"
"235030","003-UY","2017/12/08 13:59:47","新北市中和區中山路二段131巷5弄7號","121.502908333333","25.0029733333333","6500300","中和區"
"235027","006-UY","2017/12/08 13:59:42","新北市中和區中正路700號","121.48625","24.996305","6500300","中和區"
"235010","031-BX","2017/12/08 13:59:34","新北市中和區興南路一段117巷3弄1號","121.50941","24.9875233333333","6500300","中和區"
"235020","096-UM","2017/12/08 13:59:48","新北市中和區立德街329號","121.48153","25.01054","6500300","中和區"
"235003","097-UM","2017/12/08 13:59:46","新北市中和區景平路64巷14弄22號","121.522758333333","24.9912516666667","6500300","中和區"
"235029","098-UM","2017/12/08 13:59:41","新北市中和區中山路二段2巷91號","121.500671666667","25.007765","6500300","中和區"
"235004","150-BY","2017/12/08 13:59:45","新北市中和區保健路63號","121.509646666667","24.9972983333333","6500300","中和區"
"235022","151-BY","2017/12/08 13:59:46","新北市中和區員山路143巷24號","121.479925","24.9958583333333","6500300","中和區"
"235019","183-VK","2017/12/08 13:59:52","新北市中和區中山路三段210號","121.471465","25.0065816666667","6500300","中和區"
"235002","185-VK","2017/12/08 13:59:39","新北市中和區大仁街20巷1號","121.51779","24.9933466666667","6500300","中和區"
"235013","186-VK","2017/12/08 13:59:44","新北市中和區景安路167巷11號","121.5061","24.9947783333333","6500300","中和區"
"235031","255-BX","2017/12/08 13:59:33","新北市中和區新生街174號","121.48366","24.99996","6500300","中和區"
"235008","293-VK","2017/12/08 13:59:43","新北市中和區中興街178號","121.499861666667","24.9910916666667","6500300","中和區"
"235036","301-VK","2017/12/08 13:59:36","新北市中和區中山路二段41號","121.504628333333","25.0051283333333","6500300","中和區"
"235007","352-BY","2017/12/08 13:59:44","新北市中和區成功路5號","121.526445","24.994055","6500300","中和區"
"235032","377-QA","2017/12/08 13:59:38","新北市中和區圓通路229號","121.496261666667","24.9942616666667","6500300","中和區"
"235025","378-QA","2017/12/08 13:59:38","新北市中和區中山路三段61號","121.476705","25.005605","6500300","中和區"
"235035","269-TV","2017/12/08 13:59:35","新北市中和區中山路二段482巷31號","121.48993","25.0066016666667","6500300","中和區"
"235014","4979-A6","2017/12/08 13:59:52","新北市中和區華新街50巷4號","121.507741666667","24.9840316666667","6500300","中和區"
"235033","4980-A6","2017/12/08 13:59:53","新北市中和區中和路219-3號","121.504203333333","25.0001016666667","6500300","中和區"
"235006","551-UM","2017/12/08 13:59:39","新北市中和區秀朗路三段60巷68號","121.523931666667","24.99474","6500300","中和區"
"235034","558-UM","2017/12/08 13:59:51","新北市中和區中和路169號","121.503005","24.9998933333333","6500300","中和區"
"235009","565-BX","2017/12/08 13:59:54","新北市中和區景新街467巷22號","121.514175","24.9882983333333","6500300","中和區"
"235018","640-BX","2017/12/08 13:59:41","新北市中和區民享街6號","121.474031666667","25.0048433333333","6500300","中和區"
"235024","647-TV","2017/12/08 13:59:51","新北市中和區中山路三段210號","121.471448333333","25.0065733333333","6500300","中和區"
"235011","732-UM","2017/12/08 13:59:39","新北市中和區興南路一段129號","121.508998333333","24.9878433333333","6500300","中和區"
"235026","800-TS","2017/12/08 13:59:49","新北市中和區中山路二段340巷48號","121.493225","25.004195","6500300","中和區"
"235021","801-TS","2017/12/08 13:59:38","新北市中和區民利街58巷1號","121.478873333333","24.9990333333333","6500300","中和區"
"235005","802-TS","2017/12/08 13:59:43","新北市中和區中安街32-1號","121.51323","25.00284","6500300","中和區"
"235016","805-TS","2017/12/08 13:59:39","新北市中和區興南路二段399巷55-1號","121.501215","24.9765033333333","6500300","中和區"
"235012","896-TW","2017/12/08 13:59:37","新北市中和區華新街60號","121.508105","24.9839016666667","6500300","中和區"
"235017","900-TW","2017/12/08 13:59:36","新北市中和區民德路290巷42號","121.466481666667","24.9960283333333","6500300","中和區"
"235028","911-UM","2017/12/08 13:59:44","新北市中和區泰和街14號","121.499785","25.000935","6500300","中和區"
"235015","157-BY","2017/12/08 13:59:46","新北市中和區忠孝街31巷33弄3號","121.509796666667","24.984525","6500300","中和區"
"235001","AAC-213","2017/12/08 13:59:42","新北市永和區民生路83號","121.52275","24.9967166666667","6500300","中和區"
"235023","AAC-215","2017/12/08 13:59:46","新北市中和區圓通路369巷5弄12號","121.491393333333","24.9884216666667","6500300","中和區"
"220016","013-TV","2017/12/07 21:22:45","新北市板橋區文化路二段656號","121.480163333333","25.03846","6500100","板橋區"
"220013","072-UY","2017/12/08 13:59:50","新北市板橋區漢生東路340巷1號","121.471711666667","25.0074283333333","6500100","板橋區"
"220034","073-UY","2017/12/08 13:59:35","新北市板橋區中正路236巷32號","121.456958333333","25.0191833333333","6500100","板橋區"
"220105","075-UY","2017/12/08 13:59:34","新北市板橋區文化路二段124巷28-2號","121.471281666667","25.02562","6500100","板橋區"
"220017","AAD-861","2017/12/08 13:59:41","新北市板橋區南雅南路一段3巷25-10號","121.4568","25.0056916666667","6500100","板橋區"
"220051","120-SR","2017/12/08 13:59:45","新北市板橋區縣民大道三段133巷35號","121.47704","25.0247483333333","6500100","板橋區"
"247019","500-BY","2017/12/08 13:59:50","新北市蘆洲區民族路422巷35-1號","121.47346","25.0937883333333","6501400","蘆洲區"
"247007","341-TH","2017/12/08 13:59:39","新北市三重區仁愛街747號","121.481311666667","25.080625","6501400","蘆洲區"
"247009","339-TH","2017/12/08 13:59:45","新北市蘆洲區集賢路422號","121.479805","25.081145","6501400","蘆洲區"
"247001","337-TH","2017/12/08 13:59:41","新北市蘆洲區三民路605號","121.460555","25.0936966666667","6501400","蘆洲區"
"247003","336-TH","2017/12/08 13:59:45","新北市蘆洲區中華街8號","121.463348333333","25.0816366666667","6501400","蘆洲區"
"247015","057-VK","2017/12/08 13:59:48","新北市蘆洲區光華路50號","121.468661666667","25.083","6501400","蘆洲區"
"247005","056-VK","2017/12/08 13:59:46","新北市蘆洲區永安南路二段62號","121.465085","25.0779166666667","6501400","蘆洲區"
"247013","007-UY","2017/12/08 13:59:49","新北市蘆洲區中正路102號","121.46978","25.08439","6501400","蘆洲區"
"247017","001-UY","2017/12/08 13:59:44","新北市蘆洲區民族路327巷138號","121.475353333333","25.0893666666667","6501400","蘆洲區"
"223002","198-BX","2017/12/08 13:48:11","新北市石碇區八分寮45號","121.64294","25.0133416666667","6501900","石碇區"
"208004","AAC-292","2017/12/08 13:59:51","新北市金山區山城路10巷30弄25號","121.594016666667","25.1990183333333","6502700","金山區"
"207002","749-BX","2017/12/08 13:59:45","新北市萬里區溪底里溪底路10號","121.615745","25.1480816666667","6502800","萬里區"
"207001","662-BX","2017/12/08 13:59:44","新北市萬里區磺潭里清水18號","121.637873333333","25.1975083333333","6502800","萬里區"
"236067","105-UM","2017/12/08 13:59:35","新北市土城區員福街34號","121.441128333333","24.9787633333333","6501300","土城區"
"236041","107-UM","2017/12/08 13:59:35","新北市土城區城林路6巷80號","121.438411666667","24.9798383333333","6501300","土城區"
"236029","253-BX","2017/12/08 13:59:41","新北市土城區城林路6巷80號","121.438571666667","24.9797433333333","6501300","土城區"
"236025","269-VK","2017/12/08 13:59:48","新北市土城區承天路24號","121.439326666667","24.9631083333333","6501300","土城區"
"236013","270-VK","2017/12/08 13:59:35","新北市土城區城林路6巷80號","121.438368333333","24.9798166666667","6501300","土城區"
"236035","271-VK","2017/12/08 13:59:37","新北市土城區城林路6巷80號","121.438508333333","24.9797516666667","6501300","土城區"
"236019","401-BY","2017/12/08 13:59:39","新北市土城區城林路6巷80號","121.438596666667","24.979775","6501300","土城區"
"236006","498-BY","2017/12/08 13:59:41","新北市土城區中央路一段365巷27弄1號","121.446673333333","24.97986","6501300","土城區"
"236057","912-UM","2017/12/08 13:59:34","新北市土城區大安路2號","121.432848333333","24.9654866666667","6501300","土城區"
"236046","913-UM","2017/12/08 13:59:37","新北市土城區城林路6巷80號","121.438396666667","24.9798583333333","6501300","土城區"
"236061","915-UM","2017/12/08 13:59:48","新北市土城區城林路6巷80號","121.438358333333","24.9797633333333","6501300","土城區"
"236054","AAC-216","2017/12/08 13:59:47","新北市土城區城林路6巷80號","121.438365","24.97983","6501300","土城區"
"242046","172-VK","2017/12/08 13:59:38","新北市新莊區龍安路266巷32號","121.421531666667","25.0184483333333","6500500","新莊區"
"221012","276-VK","2017/12/08 13:19:06","新北市汐止區汐萬路一段256巷3號","121.65347","25.07466","6501100","汐止區"
"220027","145-BY","2017/12/08 13:59:42","新北市板橋區民權路260巷1弄11號","121.458166666667","25.01587","6500100","板橋區"
"220030","610-BX","2017/12/08 13:59:38","新北市板橋區溪崑一街126號","121.429195","24.98823","6500100","板橋區"
"220050","245-BX","2017/12/08 13:59:38","新北市板橋區文化路二段182巷5弄2號","121.471745","25.0269916666667","6500100","板橋區"
"220052","257-TC","2017/12/08 13:59:51","新北市板橋區介壽街81號","121.469418333333","25.0192283333333","6500100","板橋區"
"220040","267-BY","2017/12/08 13:59:35","新北市板橋區大同街30號","121.478206666667","25.0273716666667","6500100","板橋區"
"220004","276-BY","2017/12/08 13:59:39","新北市板橋區信義路150巷19-2號","121.458423333333","24.9916916666667","6500100","板橋區"
"220020","277-BY","2017/12/08 13:59:36","新北市板橋區篤行路一段29號","121.432033333333","24.994585","6500100","板橋區"
"220019","283-VK","2017/12/08 13:59:39","新北市板橋區忠孝路156號","121.464058333333","25.0022916666667","6500100","板橋區"
"220043","285-UM","2017/12/08 13:59:35","新北市板橋區文化路二段41號","121.468983333333","25.0250383333333","6500100","板橋區"
"220001","285-VK","2017/12/08 13:59:38","新北市板橋區成功路10號","121.475513333333","25.0169583333333","6500100","板橋區"
"220031","286-VK","2017/12/08 13:59:35","新北市板橋區大觀路一段38巷156弄61-1號","121.442258333333","25.0069633333333","6500100","板橋區"
"220029","287-VK","2017/12/08 13:59:50","新北市板橋區光華街21號","121.453886666667","25.0123716666667","6500100","板橋區"
"220039","288-VK","2017/12/08 13:59:51","新北市板橋區四維路177巷2弄1號","121.46397","25.02627","6500100","板橋區"
"220009","293-UM","2017/12/08 13:59:51","新北市板橋區富山街100號","121.47634","25.0219383333333","6500100","板橋區"
"220032","296-UM","2017/12/08 13:59:45","新北市板橋區大觀路二段343號","121.441043333333","24.998425","6500100","板橋區"
"220023","297-UM","2017/12/08 13:59:50","新北市板橋區南雅西路二段20號","121.453051666667","25.0094433333333","6500100","板橋區"
"220092","299-UM","2017/12/08 13:59:46","新北市板橋區漢生東路83巷2-1號","121.467025","25.015795","6500100","板橋區"
"220010","305-R5","2017/12/08 13:59:40","新北市板橋區三民路二段257號","121.479006666667","25.0116116666667","6500100","板橋區"
"220047","317-R6","2017/12/08 13:59:45","新北市板橋區民有街32號","121.46598","25.0254183333333","6500100","板橋區"
"220028","461-BY","2017/12/08 13:59:50","新北市板橋區大觀路二段文和巷88號","121.444545","24.9981933333333","6500100","板橋區"
"220012","486-VK","2017/12/08 13:59:43","新北市板橋區板新路237號","121.467515","25.015855","6500100","板橋區"
"220038","487-VK","2017/12/08 13:59:43","新北市板橋區文化路二段294號","121.471963333333","25.0294333333333","6500100","板橋區"
"220037","491-VK","2017/12/08 13:59:53","新北市板橋區莊敬路87號","121.472778333333","25.0265283333333","6500100","板橋區"
"220104","560-BX","2017/12/08 13:59:38","新北市板橋區中正路375巷27號","121.45378","25.0201916666667","6500100","板橋區"
"220011","609-BX","2017/12/08 13:59:49","新北市板橋區中山路二段121號","121.474868333333","25.0162933333333","6500100","板橋區"
"220005","686-BX","2017/12/08 13:59:36","新北市板橋區南雅西路一段7巷5號","121.454496666667","25.0039083333333","6500100","板橋區"
"220025","687-BX","2017/12/08 13:59:19","新北市板橋區大觀路一段38巷156弄4號","121.44256","25.004495","6500100","板橋區"
"220042","689-BX","2017/12/08 13:59:41","新北市板橋區民生路三段56號","121.46715","25.0252666666667","6500100","板橋區"
"220002","741-BX","2017/12/08 13:59:41","新北市板橋區重慶路139巷15號","121.463426666667","25.0046183333333","6500100","板橋區"
"220003","827-TW","2017/12/08 13:59:48","新北市板橋區新站路3號","121.467185","25.0113783333333","6500100","板橋區"
"220014","829-TW","2017/12/08 13:59:43","新北市板橋區三民路二段正隆巷12弄22號","121.477503333333","25.0136783333333","6500100","板橋區"
"220045","831-TW","2017/12/08 13:59:49","新北市板橋區莒光路122號","121.472715","25.023805","6500100","板橋區"
"220022","895-R6","2017/12/08 13:59:38","新北市板橋區西門街55巷1號","121.45405","25.0102116666667","6500100","板橋區"
"220021","985-R7","2017/12/08 13:59:49","新北市板橋區北門街55號","121.45603","25.0116816666667","6500100","板橋區"
"220046","AAC-210","2017/12/08 13:59:52","新北市板橋區漢生西路197號","121.463183333333","25.0241983333333","6500100","板橋區"
"220018","AAC-253","2017/12/08 13:59:36","新北市板橋區四川路一段256號","121.459038333333","25.0013466666667","6500100","板橋區"
