"lineid","car","time","location","longitude","latitude","cityid","cityname"
"234052","553-UM","2017/12/08 14:49:34","新北市永和區環河東路一段80號","121.51962","25.0164783333333","6500400","永和區"
"234028","746-BX","2017/12/08 14:49:53","新北市永和區中正路664號","121.516813333333","25.0089133333333","6500400","永和區"
"234025","9371-KE","2017/12/08 14:49:34","新北市永和區雙和街52巷1號","121.508986666667","25.0032","6500400","永和區"
"244004","248-BX","2017/12/08 14:49:55","新北市林口區竹林路265號","121.389641666667","25.0807483333333","6501700","林口區"
"231002","001-UM","2017/12/08 14:49:39","新北市新店區民權路63號","121.539205","24.98294","6500600","新店區"
"231028","046-UY","2017/12/08 14:49:49","新北市新店區安康路二段309-1號","121.501446666667","24.95704","6500600","新店區"
"231030","047-UY","2017/12/08 14:49:55","新北市新店區安民街339號","121.516918333333","24.9749033333333","6500600","新店區"
"231029","106-UY","2017/12/08 14:49:44","新北市新店區錦秀路11巷103號","121.480886666667","24.9444783333333","6500600","新店區"
"231018","107-UY","2017/12/08 14:49:42","新北市新店區中央六街7號","121.530241666667","24.9744866666667","6500600","新店區"
"231012","108-UY","2017/12/08 14:49:46","新北市新店區永華街61號","121.544688333333","24.9755183333333","6500600","新店區"
"231022","187-VK","2017/12/08 14:49:44","新北市新店區新烏路二段198巷2弄6號","121.548086666667","24.9178383333333","6500600","新店區"
"231016","KEA-2219","2017/12/08 14:49:41","新北市新店區北宜路三段335巷15號","121.610096666667","24.959035","6500600","新店區"
"231023","AAD-862","2017/12/08 14:49:41","新北市新店區檳榔路105號","121.544556666667","24.96174","6500600","新店區"
"231027","3712-VJ","2017/12/08 14:49:35","新北市新店區溪園路395號","121.523563333333","24.9774783333333","6500600","新店區"
"231025","3713-VJ","2017/12/08 14:49:54","新北市新店區建國路140號","121.538955","24.9790733333333","6500600","新店區"
"231024","4716-K9","2017/12/08 14:49:48","新北市新店區北新路一段235號","121.540435","24.9657483333333","6500600","新店區"
"231036","512-UM","2017/12/08 14:49:34","新北市新店區安祥路104巷6弄36號","121.483093333333","24.9629633333333","6500600","新店區"
"231035","515-UM","2017/12/08 14:49:41","新北市新店區安利街26號","121.519246666667","24.9746316666667","6500600","新店區"
"231003","616-UM","2017/12/08 14:49:51","新北市新店區中興路一段302號","121.546193333333","24.9696666666667","6500600","新店區"
"231006","617-UM","2017/12/08 14:49:52","新北市新店區北宜路一段140巷1號","121.539771666667","24.9547683333333","6500600","新店區"
"231001","619-UM","2017/12/08 14:49:44","新北市新店區三民路127號","121.534595","24.972425","6500600","新店區"
"231034","645-TV","2017/12/08 14:49:51","新北市新店區玫瑰路4-1號","121.493555","24.9513833333333","6500600","新店區"
"231039","718-UY","2017/12/08 14:49:39","新北市新店區安康路一段266巷4號","121.520061666667","24.96456","6500600","新店區"
"231032","720-UM","2017/12/08 14:49:38","新北市新店區安康路二段382號","121.500176666667","24.9569533333333","6500600","新店區"
"231005","897-TW","2017/12/08 14:49:48","新北市新店區復興路2號","121.532371666667","24.9882866666667","6500600","新店區"
"231004","899-TW","2017/12/08 14:49:41","新北市新店區建國路133號","121.539328333333","24.9782283333333","6500600","新店區"
"235030","003-UY","2017/12/08 14:49:47","新北市中和區南工路28號","121.505656666667","25.0009516666667","6500300","中和區"
"235027","006-UY","2017/12/08 14:49:42","新北市中和區連城路263巷20號","121.492575","24.99481","6500300","中和區"
"235010","031-BX","2017/12/08 14:49:54","新北市中和區仁愛街6號","121.510533333333","24.989175","6500300","中和區"
"235020","096-UM","2017/12/08 14:49:48","新北市中和區員山路581巷2-10號","121.477203333333","25.0088816666667","6500300","中和區"
"235003","097-UM","2017/12/08 14:49:46","新北市中和區安平路192號","121.51312","24.9991716666667","6500300","中和區"
"235029","098-UM","2017/12/08 14:49:41","新北市中和區福美路256巷6號","121.49819","25.0056083333333","6500300","中和區"
"235004","150-BY","2017/12/08 14:49:52","新北市中和區安平路38號","121.509741666667","24.9949833333333","6500300","中和區"
"235022","151-BY","2017/12/08 14:49:46","新北市中和區員山路150巷2弄12號","121.481556666667","24.997985","6500300","中和區"
"235019","183-VK","2017/12/08 14:49:52","新北市中和區民德路21號","121.468818333333","25.00278","6500300","中和區"
"235002","185-VK","2017/12/08 14:49:39","新北市中和區更生街15號","121.522051666667","24.9961516666667","6500300","中和區"
"235013","186-VK","2017/12/08 14:49:44","新北市中和區中正路60號","121.501543333333","24.9937383333333","6500300","中和區"
"235031","255-BX","2017/12/08 14:49:54","新北市中和區員山路146巷19號","121.482508333333","24.9968266666667","6500300","中和區"
"235008","293-VK","2017/12/08 14:49:43","新北市中和區南山路361號","121.50597","24.9906183333333","6500300","中和區"
"235036","301-VK","2017/12/08 14:49:36","新北市中和區連城路164-1號","121.49387","24.99846","6500300","中和區"
"235007","352-BY","2017/12/08 14:49:44","新北市中和區景平路334號","121.511941666667","24.9928066666667","6500300","中和區"
"235032","377-QA","2017/12/08 14:49:38","新北市中和區景平路736巷1弄12號","121.497575","25.00405","6500300","中和區"
"235035","269-TV","2017/12/08 14:49:55","新北市中和區建康路101號","121.488066666667","25.0003566666667","6500300","中和區"
"235014","4979-A6","2017/12/08 14:49:47","新北市中和區景平路241巷84弄54號","121.506143333333","24.9924183333333","6500300","中和區"
"235033","4980-A6","2017/12/08 14:49:44","新北市中和區南山路37巷3弄1號","121.5027","24.9988383333333","6500300","中和區"
"235034","558-UM","2017/12/08 14:49:51","新北市中和區景平路634-16號","121.498096666667","25.0000366666667","6500300","中和區"
"235018","640-BX","2017/12/08 14:49:41","新北市中和區莒光路153號","121.47271","25.0009683333333","6500300","中和區"
"235024","647-TV","2017/12/08 14:49:51","新北市中和區員山路437-3號","121.480776666667","25.0039733333333","6500300","中和區"
"235011","732-UM","2017/12/08 14:49:39","新北市中和區和平街90號","121.507391666667","24.9912583333333","6500300","中和區"
"235026","800-TS","2017/12/08 14:49:49","新北市中和區中山路二段361號","121.487848333333","25.0047333333333","6500300","中和區"
"235021","801-TS","2017/12/08 14:49:39","新北市中和區員山路134號","121.48115","24.9963583333333","6500300","中和區"
"235005","802-TS","2017/12/08 14:49:43","新北市永和區中和路603號","121.512306666667","25.004175","6500300","中和區"
"235016","805-TS","2017/12/08 14:49:39","新北市中和區華新街30巷12-3號","121.50714","24.9843033333333","6500300","中和區"
"235012","896-TW","2017/12/08 14:49:57","新北市中和區信義街115號","121.512211666667","24.9868366666667","6500300","中和區"
"235017","900-TW","2017/12/08 14:49:35","新北市中和區國光街184巷10號","121.467218333333","25.0020666666667","6500300","中和區"
"235028","911-UM","2017/12/08 14:49:44","新北市中和區圓通路25號","121.501173333333","24.99783","6500300","中和區"
"235015","157-BY","2017/12/08 14:49:46","新北市中和區復興路301巷16號","121.501481666667","24.9895466666667","6500300","中和區"
"235001","AAC-213","2017/12/08 14:49:42","新北市中和區自立路58巷2號","121.523573333333","24.9916816666667","6500300","中和區"
"235023","AAC-215","2017/12/08 14:49:46","新北市中和區圓通路367巷6號","121.491646666667","24.9893583333333","6500300","中和區"
"220016","013-TV","2017/12/07 21:22:45","新北市板橋區文化路二段656號","121.480163333333","25.03846","6500100","板橋區"
"220013","072-UY","2017/12/08 14:49:53","新北市板橋區民族路276巷22號","121.469695","25.006255","6500100","板橋區"
"220105","075-UY","2017/12/08 14:49:54","新北市板橋區民治街61巷24號","121.480533333333","25.0333933333333","6500100","板橋區"
"220017","AAD-861","2017/12/08 14:49:41","新北市板橋區南雅南路二段76號","121.453723333333","25.0017483333333","6500100","板橋區"
"220051","120-SR","2017/12/08 14:49:54","新北市板橋區文化路二段410巷1弄1號","121.474318333333","25.03117","6500100","板橋區"
"247001","337-TH","2017/12/08 14:49:53","新北市蘆洲區永康街8號","121.459276666667","25.0858316666667","6501400","蘆洲區"
"247015","057-VK","2017/12/08 14:49:47","新北市蘆洲區和平路178號","121.46636","25.0813766666667","6501400","蘆洲區"
"247013","007-UY","2017/12/08 14:49:49","新北市蘆洲區中山二路144號","121.471338333333","25.081415","6501400","蘆洲區"
"247023","002-UY","2017/12/08 14:49:43","新北市蘆洲區和平路77號","121.469235","25.0791933333333","6501400","蘆洲區"
"208004","AAC-292","2017/12/08 14:49:51","新北市金山區法鼓路555號","121.615996666667","25.2397466666667","6502700","金山區"
"207002","749-BX","2017/12/08 14:49:45","新北市萬里區崁腳里崁腳路73號","121.647581666667","25.1596016666667","6502800","萬里區"
"207001","662-BX","2017/12/08 14:49:44","新北市萬里區雙興里二坪路1-1號","121.65086","25.1768066666667","6502800","萬里區"
"236067","105-UM","2017/12/08 14:49:35","新北市土城區明德路一段398-1號","121.453666666667","24.97906","6501300","土城區"
"236041","107-UM","2017/12/08 14:49:35","新北市土城區學府路一段256巷19號","121.450636666667","24.98497","6501300","土城區"
"236077","166-UM","2017/12/08 14:49:51","新北市土城區中央路四段67巷2弄1號","121.417648333333","24.9578233333333","6501300","土城區"
"236029","253-BX","2017/12/08 14:49:41","新北市土城區忠義路24號","121.440411666667","24.9700616666667","6501300","土城區"
"236025","269-VK","2017/12/08 14:49:53","新北市土城區慶安街44號","121.44123","24.9733383333333","6501300","土城區"
"236013","270-VK","2017/12/08 14:49:55","新北市土城區金城路二段356號","121.461531666667","24.9850933333333","6501300","土城區"
"236035","271-VK","2017/12/08 14:49:37","新北市土城區明德路一段193號","121.463786666667","24.978945","6501300","土城區"
"236019","401-BY","2017/12/08 14:49:39","新北市土城區延吉街194號","121.4677","24.9850933333333","6501300","土城區"
"236057","912-UM","2017/12/08 14:49:54","新北市土城區中央路三段155號","121.432076666667","24.9655616666667","6501300","土城區"
"236046","913-UM","2017/12/08 14:49:38","新北市土城區廣福街68巷24號","121.458785","24.9904533333333","6501300","土城區"
"236061","915-UM","2017/12/08 14:49:48","新北市土城區延壽路15號","121.471226666667","24.9906133333333","6501300","土城區"
"236054","AAC-216","2017/12/08 14:49:47","新北市土城區裕民路181號","121.453551666667","24.9846916666667","6501300","土城區"
"221012","276-VK","2017/12/08 13:19:06","新北市汐止區汐萬路一段256巷3號","121.65347","25.07466","6501100","汐止區"
"221002","707-TV","2017/12/08 14:49:44","新北市汐止區新興路85巷2號","121.658075","25.061255","6501100","汐止區"
"220027","145-BY","2017/12/08 14:49:42","新北市板橋區中正路135巷12-2號","121.455815","25.0155466666667","6500100","板橋區"
"220030","610-BX","2017/12/08 14:49:54","新北市板橋區溪崑一街24號","121.430145","24.9911183333333","6500100","板橋區"
"220050","245-BX","2017/12/08 14:49:38","新北市板橋區縣民大道三段79巷14號","121.475168333333","25.0220933333333","6500100","板橋區"
"220052","257-TC","2017/12/08 14:49:51","新北市板橋區陽明街29巷1弄22號","121.464238333333","25.0220816666667","6500100","板橋區"
"220040","267-BY","2017/12/08 14:49:47","新北市板橋區懷德街127巷23弄31號","121.480238333333","25.0322083333333","6500100","板橋區"
"220020","277-BY","2017/12/08 14:49:36","新北市板橋區金門街127巷17號","121.43374","24.99115","6500100","板橋區"
"220019","283-VK","2017/12/08 14:49:39","新北市板橋區五權街30巷24弄25號","121.463638333333","24.993695","6500100","板橋區"
"220043","285-UM","2017/12/08 14:49:55","新北市板橋區長江路一段21號","121.458121666667","25.029325","6500100","板橋區"
"220001","285-VK","2017/12/08 14:49:38","新北市板橋區中山路二段60巷1弄19號","121.47491","25.0157183333333","6500100","板橋區"
"220031","286-VK","2017/12/08 14:49:35","新北市板橋區僑中二街8巷34號","121.445551666667","25.01148","6500100","板橋區"
"220029","287-VK","2017/12/08 14:49:50","新北市板橋區僑中一街80巷12弄2號","121.448013333333","25.01292","6500100","板橋區"
"220039","288-VK","2017/12/08 14:49:51","新北市板橋區龍泉街90巷3號","121.456206666667","25.0249233333333","6500100","板橋區"
"220009","293-UM","2017/12/08 14:49:51","新北市板橋區中山路一段283巷2號","121.47","25.0146683333333","6500100","板橋區"
"220032","296-UM","2017/12/08 14:49:48","新北市板橋區滿平街2巷10號","121.425381666667","24.9895433333333","6500100","板橋區"
"220023","297-UM","2017/12/08 14:49:56","新北市板橋區金華街10巷13號","121.45632","25.02011","6500100","板橋區"
"220041","299-UM","2017/12/08 14:49:46","新北市板橋區四維路259巷21號","121.46221","25.0275466666667","6500100","板橋區"
"220010","305-R5","2017/12/08 14:49:40","新北市板橋區光復街29號","121.481435","25.01903","6500100","板橋區"
"220047","317-R6","2017/12/08 14:49:38","新北市板橋區龍泉街157號","121.458093333333","25.0243683333333","6500100","板橋區"
"220028","461-BY","2017/12/08 14:49:50","新北市板橋區大觀路二段163巷23號","121.446633333333","25.0000416666667","6500100","板橋區"
"220012","486-VK","2017/12/08 14:49:33","新北市板橋區館前東路98-2號","121.462631666667","25.0076083333333","6500100","板橋區"
"220038","487-VK","2017/12/08 14:49:55","新北市板橋區龍泉街101-4號","121.457051666667","25.02435","6500100","板橋區"
"220037","491-VK","2017/12/08 14:49:53","新北市板橋區文聖街115號","121.477945","25.0290683333333","6500100","板橋區"
"220011","609-BX","2017/12/08 14:49:40","新北市板橋區中山路二段531巷32號","121.482925","25.0223766666667","6500100","板橋區"
"220005","686-BX","2017/12/08 14:49:36","新北市板橋區廣和街62號","121.462083333333","24.9939566666667","6500100","板橋區"
"220025","687-BX","2017/12/08 14:49:41","新北市板橋區僑中一街102巷5弄16號","121.446018333333","25.0127783333333","6500100","板橋區"
"220042","689-BX","2017/12/08 14:49:41","新北市板橋區長江路二段59號","121.464638333333","25.03153","6500100","板橋區"
"220002","741-BX","2017/12/08 14:49:41","新北市板橋區忠孝路201巷76號","121.464673333333","25.00439","6500100","板橋區"
"220003","827-TW","2017/12/08 14:49:56","新北市板橋區仁愛路55號","121.460353333333","24.9996383333333","6500100","板橋區"
"220014","829-TW","2017/12/08 14:49:42","新北市板橋區漢生東路193巷77號","121.47256","25.011725","6500100","板橋區"
"220045","831-TW","2017/12/08 14:49:56","新北市板橋區文化路二段124巷34弄8號","121.47102","25.0253816666667","6500100","板橋區"
"220022","895-R6","2017/12/08 14:49:38","新北市板橋區府中路67號","121.458123333333","25.009525","6500100","板橋區"
"220021","985-R7","2017/12/08 14:49:52","新北市板橋區館前西路166-1號","121.45234","25.0085666666667","6500100","板橋區"
"220046","AAC-210","2017/12/08 14:49:52","新北市板橋區光正街45巷25號","121.461638333333","25.0161416666667","6500100","板橋區"
"220018","AAC-253","2017/12/08 14:49:56","新北市板橋區館前東路116-1號","121.463585","25.0075333333333","6500100","板橋區"
