"lineid","car","time","location","longitude","latitude","cityid","cityname"
"234026","9381-KE","2017/12/08 16:39:11","新北市永和區福和路1號","121.52554","25.0094566666667","6500400","永和區"
"249005","172-UM","2017/12/08 17:13:45","新北市八里區華富山15號","121.417473333333","25.1351033333333","6502300","八里區"
"249001","173-UM","2017/12/08 17:13:52","新北市八里區中華路二段165巷1-2號","121.408245","25.15054","6502300","八里區"
"249004","303-UY","2017/12/08 17:13:50","新北市八里區忠孝路133號","121.424355","25.1605916666667","6502300","八里區"
"249002","305-UY","2017/12/08 17:13:45","新北市八里區龍米路二段117巷3號","121.446775","25.14296","6502300","八里區"
"249003","759-BX","2017/12/08 17:13:40","新北市八里區中山路二段417號","121.397178333333","25.14625","6502300","八里區"
"244013","069-UM","2017/12/08 17:13:49","新北市林口區粉寮69號","121.405101666667","25.0908116666667","6501700","林口區"
"244007","080-UY","2017/12/08 17:13:48","新北市林口區中湖26-6號","121.377333333333","25.0949733333333","6501700","林口區"
"244019","403-UM","2017/12/08 17:13:52","新北市林口區公園路225-3號","121.374346666667","25.074855","6501700","林口區"
"244023","483-VK","2017/12/08 17:13:48","新北市林口區仁愛路一段246號","121.39583","25.0757966666667","6501700","林口區"
"244021","838-TS","2017/12/08 17:13:38","新北市林口區粉寮路二段46-1號","121.403508333333","25.0869916666667","6501700","林口區"
"231046","278-BY","2017/12/08 17:13:54","新北市新店區直潭路92號","121.53092","24.9376316666667","6500600","新店區"
"241011","013-R5","2017/12/08 17:13:37","新北市三重區河邊北街100巷22號","121.503013333333","25.0702016666667","6500200","三重區"
"241028","022-UY","2017/12/08 17:13:39","新北市三重區重新路三段110號","121.492325","25.0602683333333","6500200","三重區"
"241008","059-VK","2017/12/08 17:13:51","新北市三重區下竹圍街50號","121.481045","25.0747016666667","6500200","三重區"
"241009","060-VK","2017/12/08 17:13:33","新北市三重區三和路四段231巷15號","121.481791666667","25.0800666666667","6500200","三重區"
"241015","062-VK","2017/12/08 17:13:35","新北市三重區長生街66號","121.500901666667","25.066695","6500200","三重區"
"241017","063-VK","2017/12/08 17:13:48","新北市三重區大同北路91號","121.494696666667","25.0636233333333","6500200","三重區"
"241024","065-VK","2017/12/08 17:13:53","新北市三重區中正北路193巷11弄22號","121.477751666667","25.0703716666667","6500200","三重區"
"241026","066-VK","2017/12/08 17:13:35","新北市三重區重新路一段96號","121.501411666667","25.0634166666667","6500200","三重區"
"241002","090-VK","2017/12/08 17:13:37","新北市三重區仁愛街357巷89號","121.493993333333","25.0812133333333","6500200","三重區"
"241003","091-VK","2017/12/08 17:13:39","新北市三重區富福街86號","121.492731666667","25.08508","6500200","三重區"
"241005","262-UM","2017/12/08 17:13:52","新北市三重區永安北路二段25巷19號","121.48263","25.081815","6500200","三重區"
"241006","265-UM","2017/12/08 17:13:44","新北市三重區三和路四段109號","121.486221666667","25.0770183333333","6500200","三重區"
"241016","266-UM","2017/12/08 17:13:38","新北市三重區大同北路54巷3號","121.494053333333","25.0635566666667","6500200","三重區"
"241022","267-UM","2017/12/08 17:13:40","新北市三重區中正北路118巷2號","121.485655","25.0650516666667","6500200","三重區"
"241018","268-UM","2017/12/08 17:13:33","新北市三重區正義北路310號","121.495195","25.06998","6500200","三重區"
"241032","269-UM","2017/12/08 17:13:44","新北市三重區興華街56號","121.484873333333","25.0597733333333","6500200","三重區"
"241013","270-UM","2017/12/08 17:13:40","新北市三重區三和路三段107巷25號","121.495196666667","25.0731416666667","6500200","三重區"
"241025","271-UM","2017/12/08 17:13:54","新北市三重區中正北路558號","121.470856666667","25.0717266666667","6500200","三重區"
"241007","398-BY","2017/12/08 17:13:45","新北市三重區三和路四段163巷10號","121.483611666667","25.0788083333333","6500200","三重區"
"241020","413-TH","2017/12/08 17:13:47","新北市三重區自強路三段18號","121.486966666667","25.0723066666667","6500200","三重區"
"241004","475-VK","2017/12/08 17:13:52","新北市三重區五華街122巷25號","121.490941666667","25.0826133333333","6500200","三重區"
"241019","478-VK","2017/12/08 17:13:55","新北市三重區三張街155號","121.48633","25.069515","6500200","三重區"
"241030","480-VK","2017/12/08 17:13:54","新北市三重區昌隆街72號","121.490958333333","25.0507783333333","6500200","三重區"
"241014","543-UM","2017/12/08 17:13:26","新北市三重區長壽街120巷23號","121.502465","25.06946","6500200","三重區"
"241023","545-UM","2017/12/08 17:13:42","新北市三重區忠孝路三段84巷1號","121.480256666667","25.064485","6500200","三重區"
"241001","547-UM","2017/12/08 17:13:39","新北市三重區仁愛街269巷56號","121.494713333333","25.0796916666667","6500200","三重區"
"241012","941-UM","2017/12/08 17:13:45","新北市三重區河邊北街238號","121.501921666667","25.07575","6500200","三重區"
"241029","942-UM","2017/12/08 17:13:38","新北市三重區重新路四段2-1號","121.489591666667","25.058185","6500200","三重區"
"241033","AAC-255","2017/12/08 17:13:37","新北市三重區中興北街271號","121.469131666667","25.060625","6500200","三重區"
"235046","031-BX","2017/12/08 15:46:36","新北市中和區員山路36巷16-2號","121.485255","24.9915883333333","6500300","中和區"
"247022","893-R6","2017/12/08 17:13:47","新北市蘆洲區水湳街36-1號","121.4707","25.0895383333333","6501400","蘆洲區"
"247012","546-UM","2017/12/08 17:13:41","新北市蘆洲區信義路266巷22號","121.478991666667","25.08731","6501400","蘆洲區"
"247020","500-BY","2017/12/08 17:13:40","新北市蘆洲區仁愛街2號","121.472685","25.0923383333333","6501400","蘆洲區"
"247008","341-TH","2017/12/08 17:13:47","新北市蘆洲區永安北路一段72巷31號","121.476233333333","25.0769383333333","6501400","蘆洲區"
"247010","339-TH","2017/12/08 17:13:41","新北市蘆洲區鷺江街31號","121.478665","25.0824133333333","6501400","蘆洲區"
"247002","337-TH","2017/12/08 17:13:53","新北市蘆洲區永樂街38巷19弄23號","121.456976666667","25.0891283333333","6501400","蘆洲區"
"247004","336-TH","2017/12/08 17:13:38","新北市蘆洲區長安街225號","121.459291666667","25.0824133333333","6501400","蘆洲區"
"247016","057-VK","2017/12/08 17:13:51","新北市蘆洲區正和街68號","121.468685","25.0812016666667","6501400","蘆洲區"
"247006","056-VK","2017/12/08 17:13:34","新北市蘆洲區中華街6巷52號","121.462366666667","25.0827283333333","6501400","蘆洲區"
"247014","007-UY","2017/12/08 17:13:41","新北市蘆洲區中正路50號","121.470886666667","25.08275","6501400","蘆洲區"
"247024","002-UY","2017/12/08 17:13:40","新北市蘆洲區光華路188號","121.464708333333","25.0819","6501400","蘆洲區"
"247018","001-UY","2017/12/08 17:13:40","新北市蘆洲區復興路114號","121.47626","25.087255","6501400","蘆洲區"
"228002","585-TW","2017/12/08 17:13:47","新北市貢寮區雙玉里下雙溪街10-1號","121.914926666667","25.0146766666667","6502600","貢寮區"
"228001","670-TC","2017/12/08 17:13:48","新北市貢寮區仁理村尖山腳街4-2號","121.926081666667","25.0479166666667","6502600","貢寮區"
"228003","828-UM","2017/12/08 17:13:42","新北市貢寮區福隆里東興街104號","121.945861666667","25.0169016666667","6502600","貢寮區"
"224010","AGQ-8101","2017/12/08 09:15:55","新北市瑞芳區民權街3-1號","121.809456666667","25.1082883333333","6501200","瑞芳區"
"224006","676-BX","2017/12/08 17:13:56","新北市瑞芳區大寮路55號","121.78176","25.097775","6501200","瑞芳區"
"224009","285-BY","2017/12/08 17:13:46","新北市瑞芳區石崁巷49號","121.837656666667","25.10957","6501200","瑞芳區"
"224008","275-VK","2017/12/08 17:13:44","新北市瑞芳區侯硐路158號","121.827916666667","25.085335","6501200","瑞芳區"
"224005","271-BY","2017/12/08 17:13:48","新北市瑞芳區南雅路89-8號","121.886195","25.1219683333333","6501200","瑞芳區"
"227003","642-TC","2017/12/08 17:13:51","新北市雙溪區上林里內平林138號","121.820246666667","25.024305","6502500","雙溪區"
"227011","400-TW","2017/12/08 17:13:52","新北市雙溪區三貂里子崙坑8號","121.846926666667","25.0579833333333","6502500","雙溪區"
"251004","009-UM","2017/12/08 17:13:41","新北市淡水區中正東路二段88巷15號","121.459063333333","25.1504466666667","6501000","淡水區"
"251005","010-UM","2017/12/08 17:13:43","新北市淡水區鄧公路19號","121.451426666667","25.1700083333333","6501000","淡水區"
"251013","180-VK","2017/12/08 17:13:43","新北市淡水區大埤頭8號","121.481446666667","25.19547","6501000","淡水區"
"251008","181-VK","2017/12/08 17:13:49","新北市淡水區民生路169號","121.469683333333","25.1421516666667","6501000","淡水區"
"251015","182-VK","2017/12/08 17:13:47","新北市淡水區樹林口12號","121.478858333333","25.1680066666667","6501000","淡水區"
"251010","413-VK","2017/12/08 17:11:34","新北市淡水區濱海路三段148巷50弄78號","121.430411666667","25.1900766666667","6501000","淡水區"
"251012","441-VK","2017/12/08 17:13:40","新北市淡水區中山北路一段158號","121.44428","25.1779116666667","6501000","淡水區"
"251006","561-UM","2017/12/08 17:13:44","新北市淡水區重建街永興巷11號","121.439306666667","25.1726983333333","6501000","淡水區"
"251009","575-R6","2017/12/08 17:13:43","新北市淡水區三民街24號","121.439118333333","25.1718033333333","6501000","淡水區"
"251007","577-R6","2017/12/08 17:13:50","新北市淡水區民權路42號","121.460036666667","25.13716","6501000","淡水區"
"251011","650-BX","2017/12/08 17:13:44","新北市淡水區坪頂路38巷1號","121.457386666667","25.16222","6501000","淡水區"
"251002","672-BX","2017/12/08 17:13:43","新北市淡水區中正路二段31號","121.41931","25.18157","6501000","淡水區"
"251003","673-BX","2017/12/08 17:13:48","新北市淡水區中正路二段12號","121.420376666667","25.1807283333333","6501000","淡水區"
"252002","178-VK","2017/12/08 17:13:38","新北市三芝區忠孝街1-14號","121.505503333333","25.25392","6502100","三芝區"
"252001","292-VK","2017/12/08 17:13:36","新北市三芝區埔頭里埔頭15-6號","121.495771666667","25.2598883333333","6502100","三芝區"
"242032","AAC-296","2017/12/08 05:04:55","新北市新莊區新泰路357巷3弄57號","121.442178333333","25.0394666666667","6500500","新莊區"
"242029","986-R7","2017/12/08 17:13:44","新北市新莊區新泰路357巷3弄1號","121.442476666667","25.0412466666667","6500500","新莊區"
"242050","751-BX","2017/12/08 17:13:31","新北市新莊區瓊林路172-6號","121.44093","25.0231283333333","6500500","新莊區"
"242025","615-BX","2017/12/08 17:13:44","新北市新莊區新泰路357巷3弄57號","121.442415","25.039355","6500500","新莊區"
"242023","613-BX","2017/12/08 17:13:44","新北市新莊區新泰路357巷1弄57號","121.442568333333","25.0394816666667","6500500","新莊區"
"242027","612-BX","2017/12/08 17:13:48","新北市新莊區新泰路480號","121.442531666667","25.0454783333333","6500500","新莊區"
"242039","566-BX","2017/12/08 17:13:36","新北市新莊區新樹路65號","121.43989","25.0316083333333","6500500","新莊區"
"242044","497-BY","2017/12/08 17:13:36","新北市新莊區民安路33號","121.423373333333","25.0270183333333","6500500","新莊區"
"242048","441-UM","2017/12/08 17:13:51","新北市新莊區富國路10號","121.418233333333","25.0264183333333","6500500","新莊區"
"242054","440-UM","2017/12/08 17:13:41","新北市新莊區瓊林路108號","121.442186666667","25.0264233333333","6500500","新莊區"
"242034","415-TV","2017/12/08 01:15:02","新北市新莊區新泰路357巷3弄57號","121.442133333333","25.039335","6500500","新莊區"
"242005","413-TV","2017/12/08 17:12:32","新北市新莊區新泰路357巷3弄57號","121.442063333333","25.0395916666667","6500500","新莊區"
"242041","400-BY","2017/12/08 17:13:53","新北市新莊區新樹路65-7號","121.439303333333","25.03073","6500500","新莊區"
"242060","362-BY","2017/12/08 17:13:51","新北市新莊區三和路12-21號","121.442185","25.0385533333333","6500500","新莊區"
"242058","353-BY","2017/12/08 17:13:35","新北市新莊區新泰路357巷1弄57號","121.442581666667","25.0397266666667","6500500","新莊區"
"242037","133-UY","2017/12/08 17:13:38","新北市新莊區民安路429巷3號","121.433933333333","25.023185","6500500","新莊區"
"242021","135-UY","2017/12/08 17:13:37","新北市新莊區中環路二段392-1號","121.442438333333","25.04551","6500500","新莊區"
"242046","172-VK","2017/12/08 15:16:10","新北市新莊區三和路12-21號","121.442033333333","25.03875","6500500","新莊區"
"242009","173-VK","2017/12/08 14:31:21","新北市新莊區瓊林路13-3號","121.448801666667","25.03084","6500500","新莊區"
"242015","175-VK","2017/12/08 17:13:33","新北市新莊區三和路12-21號","121.442403333333","25.0381816666667","6500500","新莊區"
"242002","176-VK","2017/12/08 17:13:49","新北市新莊區三和路12-21號","121.442071666667","25.038515","6500500","新莊區"
"242013","346-TH","2017/12/07 22:05:20","新北市新莊區三和路12-17號","121.442235","25.0375083333333","6500500","新莊區"
"242007","347-TH","2017/12/08 15:12:15","新北市新莊區三和路12-15號","121.442086666667","25.0373016666667","6500500","新莊區"
"242019","348-TH","2017/12/08 17:13:51","新北市新莊區新泰路500號","121.442346666667","25.0458666666667","6500500","新莊區"
"242056","349-TH","2017/12/08 15:05:49","新北市新莊區三和路12-16號","121.441998333333","25.0374383333333","6500500","新莊區"
"242017","350-TH","2017/12/08 17:13:50","新北市新莊區中平路82巷2號","121.444878333333","25.0447783333333","6500500","新莊區"
"242011","351-TH","2017/12/08 17:13:43","新北市新莊區新泰路255巷83號","121.44262","25.039055","6500500","新莊區"
"238015","755-BX","2017/12/08 17:13:39","新北市樹林區中洲街41號","121.39691","24.971385","6500700","樹林區"
"238023","601-UM","2017/12/08 17:13:43","新北市樹林區東興街3號","121.409968333333","24.980455","6500700","樹林區"
"238019","599-UM","2017/12/08 17:13:42","新北市樹林區太平路270-1號","121.41797","24.9733333333333","6500700","樹林區"
"238018","571-TV","2017/12/08 17:13:45","新北市樹林區環河路10-1號","121.424706666667","24.9762783333333","6500700","樹林區"
"238024","5061-A6","2017/12/08 17:13:46","新北市樹林區環河路2-2號","121.424928333333","24.97645","6500700","樹林區"
"238021","KEA-2217","2017/12/08 17:13:49","新北市樹林區西圳街165巷20弄26號","121.395556666667","24.960095","6500700","樹林區"
"238022","KEA-2213","2017/12/08 17:13:49","新北市樹林區八德街367-1號","121.416905","24.9718716666667","6500700","樹林區"
"238025","303-VK","2017/12/08 17:13:44","新北市樹林區中山路三段51-1號","121.400943333333","24.9752","6500700","樹林區"
"238017","283-BY","2017/12/08 17:13:49","新北市樹林區八德街224號","121.415543333333","24.9718416666667","6500700","樹林區"
"238014","282-BY","2017/12/08 17:13:44","新北市樹林區中洲街27號","121.397171666667","24.97199","6500700","樹林區"
"238020","268-VK","2017/12/08 17:13:34","新北市樹林區中山路三段125-10號","121.397385","24.9733816666667","6500700","樹林區"
"238026","172-UY","2017/12/08 17:13:41","新北市樹林區新興街9號","121.400181666667","24.9735616666667","6500700","樹林區"
"238016","169-UY","2017/12/08 17:13:43","新北市樹林區中山路三段125-10號","121.397356666667","24.97348","6500700","樹林區"
"239007","AAC-297","2017/12/08 17:13:36","新北市鶯歌區光復街74巷10號","121.351783333333","24.9565616666667","6500800","鶯歌區"
"239006","891-R6","2017/12/08 17:13:27","新北市鶯歌區八德路37號","121.334468333333","24.95345","6500800","鶯歌區"
"239008","527-UM","2017/12/08 17:13:54","新北市鶯歌區中山路1號","121.353128333333","24.957085","6500800","鶯歌區"
"239005","526-UM","2017/12/08 17:13:34","新北市鶯歌區鶯桃路514號","121.33166","24.96656","6500800","鶯歌區"
"239001","417-VK","2017/12/08 17:13:45","新北市鶯歌區尖山路187號","121.344365","24.947305","6500800","鶯歌區"
"239003","360-BY","2017/12/08 17:13:35","新北市鶯歌區德昌二街70巷32弄83號","121.329895","24.9577","6500800","鶯歌區"
"239002","359-BY","2017/12/08 17:13:55","新北市鶯歌區建國路302號","121.344928333333","24.952595","6500800","鶯歌區"
"239004","193-VK","2017/12/08 17:13:48","新北市鶯歌區文化路224號","121.35266","24.9487766666667","6500800","鶯歌區"
"221012","276-VK","2017/12/08 13:19:06","新北市汐止區汐萬路一段256巷3號","121.65347","25.07466","6501100","汐止區"
"220014","829-TW","2017/12/08 15:16:57","新北市板橋區民生路二段120號","121.470426666667","25.019735","6500100","板橋區"
