"lineid","car","time","location","longitude","latitude","cityid","cityname"
"234046","148-BY","2017/12/08 19:09:45","新北市永和區得和路373巷31弄12號","121.524396666667","25.0004433333333","6500400","永和區"
"234013","149-BY","2017/12/08 19:09:46","新北市永和區保福路二段20號","121.510963333333","25.01146","6500400","永和區"
"234007","207-UY","2017/12/08 19:09:44","新北市永和區中山路一段211-1號","121.508666666667","25.0083266666667","6500400","永和區"
"234038","336-UY","2017/12/08 19:09:38","新北市永和區民樂街90巷1號","121.527326666667","24.9973833333333","6500400","永和區"
"234064","337-UY","2017/12/08 19:09:41","新北市永和區秀朗路二段33號","121.521255","25.0024333333333","6500400","永和區"
"234086","338-UY","2017/12/08 19:09:33","新北市永和區永貞路98號","121.519205","25.0045","6500400","永和區"
"234070","552-UM","2017/12/08 19:09:52","新北市永和區豫溪街137巷1弄13號","121.519043333333","25.0104316666667","6500400","永和區"
"234054","553-UM","2017/12/08 19:09:43","新北市永和區中興街133巷8號","121.518738333333","25.0126916666667","6500400","永和區"
"234017","745-BX","2017/12/08 19:09:52","新北市永和區文化路90巷16號","121.513886666667","25.0159133333333","6500400","永和區"
"234030","746-BX","2017/12/08 19:09:42","新北市永和區四維街109號","121.523745","24.9982883333333","6500400","永和區"
"234081","839-RS","2017/12/08 19:09:50","新北市永和區永貞路39巷9弄11號","121.52212","25.0069616666667","6500400","永和區"
"234061","AAD-866","2017/12/08 19:09:49","新北市永和區安樂路300號","121.514426666667","25.0049266666667","6500400","永和區"
"234040","862-TW","2017/12/08 19:09:37","新北市永和區保平路212號","121.509838333333","25.0058766666667","6500400","永和區"
"234050","863-TW","2017/12/08 19:09:49","新北市永和區文化路135巷9號","121.510691666667","25.0143616666667","6500400","永和區"
"234026","9381-KE","2017/12/08 19:09:45","新北市永和區安樂路417號","121.514531666667","25.0039816666667","6500400","永和區"
"234011","9373-KE","2017/12/08 19:09:50","新北市永和區中山路一段60巷8號","121.513081666667","25.0110833333333","6500400","永和區"
"249005","172-UM","2017/12/08 19:09:45","新北市八里區中華路三段77號","121.3943","25.1404416666667","6502300","八里區"
"249001","173-UM","2017/12/08 19:09:52","新北市八里區龍米路三段2號","121.429641666667","25.15897","6502300","八里區"
"248016","026-BX","2017/12/08 19:09:43","新北市五股區成泰路三段543巷52-1號","121.449706666667","25.1030266666667","6501500","五股區"
"248006","077-UY","2017/12/08 19:09:36","新北市五股區四維路90-1號","121.467555","25.0732516666667","6501500","五股區"
"248018","225-UY","2017/12/08 19:09:49","新北市五股區民義路一段220巷36號","121.428673333333","25.094455","6501500","五股區"
"248012","247-BX","2017/12/08 19:09:43","新北市五股區中興路四段48巷16號","121.43864","25.08347","6501500","五股區"
"248010","272-BY","2017/12/08 19:09:48","新北市五股區水碓一路23號","121.430723333333","25.0713416666667","6501500","五股區"
"248004","677-BX","2017/12/08 19:09:54","新北市五股區民義路一段185-1號","121.431083333333","25.088585","6501500","五股區"
"248002","678-BX","2017/12/08 19:09:45","新北市五股區凌雲路一段158巷6號","121.447791666667","25.1029866666667","6501500","五股區"
"234023","9380-KE","2017/12/08 19:09:40","新北市永和區中興街25號","121.516071666667","25.0120033333333","6500400","永和區"
"234077","969-R7","2017/12/08 19:09:54","新北市永和區得和路198號","121.520301666667","25.000015","6500400","永和區"
"234074","AAC-211","2017/12/08 19:09:53","新北市永和區竹林路177號","121.52055","25.009825","6500400","永和區"
"234067","AAC-212","2017/12/08 19:09:38","新北市永和區保平路9號","121.512995","25.0075633333333","6500400","永和區"
"234003","AAC-295","2017/12/08 19:09:51","新北市永和區保福路一段49號","121.512378333333","25.0092583333333","6500400","永和區"
"244013","069-UM","2017/12/08 19:09:49","新北市林口區麗園二街1巷6-1號","121.378035","25.0703683333333","6501700","林口區"
"244019","403-UM","2017/12/08 19:09:52","新北市林口區麗園二街87號","121.382663333333","25.0667383333333","6501700","林口區"
"244009","410-SL","2017/12/08 19:09:50","新北市林口區竹林路265號","121.38936","25.0807883333333","6501700","林口區"
"244023","483-VK","2017/12/08 19:09:48","新北市林口區文化三路一段617巷126號","121.37083","25.0786016666667","6501700","林口區"
"244017","485-VK","2017/12/08 19:09:44","新北市林口區公園路84號","121.36934","25.0702366666667","6501700","林口區"
"244011","701-TV","2017/12/08 19:09:48","新北市林口區中正路327號","121.388468333333","25.07767","6501700","林口區"
"243012","AAD-798","2017/12/08 19:09:42","新北市泰山區吳厝窠1號","121.427925","25.0585216666667","6501600","泰山區"
"243011","297-R6","2017/12/08 19:09:51","新北市泰山區明志路二段366號","121.425451666667","25.0449933333333","6501600","泰山區"
"243015","380-SR","2017/12/08 19:09:52","新北市泰山區明志路一段431號","121.430858333333","25.05659","6501600","泰山區"
"243014","421-VK","2017/12/08 19:09:38","新北市泰山區泰林路二段483號","121.425053333333","25.0639466666667","6501600","泰山區"
"243010","KEA-2215","2017/12/08 19:09:39","新北市泰山區明志路一段408號","121.430791666667","25.0571","6501600","泰山區"
"243009","KEA-2216","2017/12/08 19:09:37","新北市泰山區楓樹街15巷5號","121.434748333333","25.0629966666667","6501600","泰山區"
"243016","680-BX","2017/12/08 19:09:51","新北市泰山區明志路二段368號","121.425566666667","25.0447833333333","6501600","泰山區"
"222003","436-BY","2017/12/08 19:09:40","新北市深坑區深南路162號","121.626086666667","25.0149733333333","6501800","深坑區"
"222002","659-BX","2017/12/08 19:09:40","新北市深坑區紅葉街61號","121.632265","25.0138683333333","6501800","深坑區"
"231041","001-UM","2017/12/08 19:09:52","新北市新店區溪園路259號","121.52337","24.9810333333333","6500600","新店區"
"231059","046-UY","2017/12/08 19:09:50","新北市新店區安和路二段216號","121.51776","24.9755333333333","6500600","新店區"
"231061","047-UY","2017/12/08 19:09:37","新北市新店區安康路一段65號","121.530368333333","24.9610533333333","6500600","新店區"
"231060","106-UY","2017/12/08 19:09:53","新北市新店區安康路二段212-1號","121.509968333333","24.9593916666667","6500600","新店區"
"231051","107-UY","2017/12/08 19:09:52","新北市新店區中正路382巷21號","121.535501666667","24.9781216666667","6500600","新店區"
"231048","108-UY","2017/12/08 19:09:45","新北市新店區德正街25巷4號","121.544518333333","24.9717016666667","6500600","新店區"
"231053","187-VK","2017/12/08 19:09:52","新北市新店區自強路125號","121.546078333333","24.922845","6500600","新店區"
"231050","KEA-2219","2017/12/08 19:09:51","新北市新店區竹林路2巷31號","121.550416666667","24.950245","6500600","新店區"
"231046","278-BY","2017/12/08 19:09:54","新北市新店區新潭路一段26號","121.523131666667","24.942585","6500600","新店區"
"231054","AAD-862","2017/12/08 19:09:50","新北市新店區新店路201號","121.537161666667","24.956425","6500600","新店區"
"231058","3712-VJ","2017/12/08 19:09:54","新北市新店區光明街138巷13弄9號","121.540086666667","24.9615216666667","6500600","新店區"
"231056","3713-VJ","2017/12/08 19:09:53","新北市新店區二十張路46巷37弄21-1號","121.535808333333","24.981525","6500600","新店區"
"231055","4716-K9","2017/12/08 19:09:46","新北市新店區新生街13巷26號","121.538923333333","24.9664866666667","6500600","新店區"
"231067","4772-VM","2017/12/08 19:09:54","新北市新店區安康路一段266巷4號","121.51986","24.9640066666667","6500600","新店區"
"231065","512-UM","2017/12/08 19:09:49","新北市新店區安祥路110巷2號","121.474755","24.95696","6500600","新店區"
"231064","515-UM","2017/12/08 19:09:42","新北市新店區安忠路205巷8號","121.509315","24.9543233333333","6500600","新店區"
"231042","616-UM","2017/12/08 19:09:48","新北市新店區中興路一段115號","121.54141","24.9628033333333","6500600","新店區"
"231045","617-UM","2017/12/08 19:09:54","新北市新店區北宜路一段123號","121.5404","24.9535566666667","6500600","新店區"
"231040","619-UM","2017/12/08 19:09:49","新北市新店區三民路98-2號","121.53391","24.9734866666667","6500600","新店區"
"231063","645-TV","2017/12/08 19:09:52","新北市新店區車子路155號","121.505345","24.94703","6500600","新店區"
"231049","719-UM","2017/12/08 19:09:52","新北市新店區二十張路25巷18弄27號","121.539306666667","24.9812633333333","6500600","新店區"
"231062","720-UM","2017/12/08 19:09:39","新北市新店區安平路13巷1號","121.524381666667","24.9655866666667","6500600","新店區"
"231044","897-TW","2017/12/08 19:09:38","新北市新店區中興路三段184號","121.544118333333","24.98148","6500600","新店區"
"231043","899-TW","2017/12/08 19:09:50","新北市新店區寶橋路98號","121.546851666667","24.975905","6500600","新店區"
"231066","AKT-0513","2017/12/08 19:09:56","新北市新店區安康路三段359巷12弄2號","121.484543333333","24.9501216666667","6500600","新店區"
"241026","066-VK","2017/12/08 19:09:55","新北市三重區泉州街74號","121.494681666667","25.0546633333333","6500200","三重區"
"241035","462-BY","2017/12/08 19:09:48","新北市三重區新北大道一段7號","121.489791666667","25.061515","6500200","三重區"
"241029","942-UM","2017/12/08 19:09:42","新北市三重區集美街263號","121.49247","25.0557283333333","6500200","三重區"
"241033","AAC-255","2017/12/08 18:29:13","新北市三重區光復路一段61巷27號","121.473495","25.0491866666667","6500200","三重區"
"235066","003-UY","2017/12/08 19:09:51","新北市中和區廣福路8號","121.50585","25.003025","6500300","中和區"
"235063","006-UY","2017/12/08 19:09:39","新北市中和區中正路630號","121.485463333333","24.9959566666667","6500300","中和區"
"235046","031-BX","2017/12/08 19:09:43","新北市中和區忠孝街1號","121.508868333333","24.9831","6500300","中和區"
"235056","096-UM","2017/12/08 19:09:45","新北市板橋區三民路二段228號","121.478868333333","25.0114266666667","6500300","中和區"
"235039","097-UM","2017/12/08 19:09:55","新北市永和區民有街100號","121.517818333333","24.995675","6500300","中和區"
"235065","098-UM","2017/12/08 19:09:42","新北市中和區勝利路33號","121.498925","25.007845","6500300","中和區"
"235040","150-BY","2017/12/08 19:09:44","新北市中和區保健路123號","121.512491666667","24.99627","6500300","中和區"
"235058","151-BY","2017/12/08 19:09:35","新北市中和區員山路125號","121.480975","24.9955466666667","6500300","中和區"
"235055","183-VK","2017/12/08 19:09:45","新北市中和區德光路19號","121.470995","25.0043866666667","6500300","中和區"
"235038","185-VK","2017/12/08 19:09:39","新北市中和區大仁街10巷27弄4號","121.519196666667","24.99275","6500300","中和區"
"235049","186-VK","2017/12/08 19:09:51","新北市中和區明禮街5號","121.505151666667","24.9957166666667","6500300","中和區"
"235067","255-BX","2017/12/08 19:09:40","新北市中和區新生街164號","121.483568333333","25.0002416666667","6500300","中和區"
"235044","293-VK","2017/12/08 19:09:37","新北市中和區中興街235巷1號","121.500733333333","24.9895533333333","6500300","中和區"
"235072","301-VK","2017/12/08 19:09:45","新北市中和區福祥路30號","121.49941","25.0036483333333","6500300","中和區"
"235043","352-BY","2017/12/08 19:09:50","新北市中和區景平路77號","121.51804","24.99196","6500300","中和區"
"235068","377-QA","2017/12/08 19:09:41","新北市中和區圓通路162巷8號","121.496908333333","24.99542","6500300","中和區"
"235061","378-QA","2017/12/08 19:09:49","新北市中和區中山路三段149號","121.473643333333","25.0060233333333","6500300","中和區"
"235050","4979-A6","2017/12/08 19:09:40","新北市中和區復興路249巷11弄3號","121.50352","24.9896933333333","6500300","中和區"
"235069","4980-A6","2017/12/08 19:09:43","新北市中和區中山路二段181巷5號","121.501128333333","25.0019516666667","6500300","中和區"
"235070","558-UM","2017/12/08 19:09:35","新北市中和區中和路212號","121.506023333333","24.9995566666667","6500300","中和區"
"235045","565-BX","2017/12/08 19:09:42","新北市中和區景新街467巷33號","121.514705","24.988825","6500300","中和區"
"235054","640-BX","2017/12/08 19:09:43","新北市中和區國光街102巷2號","121.470331666667","25.0003833333333","6500300","中和區"
"235060","647-TV","2017/12/08 19:09:47","新北市中和區民治街1巷1號","121.474923333333","25.0056133333333","6500300","中和區"
"235047","732-UM","2017/12/08 19:09:50","新北市中和區和平街38巷25號","121.509495","24.9911216666667","6500300","中和區"
"235057","801-TS","2017/12/08 19:06:40","新北市中和區民安街150號","121.477205","25.0014066666667","6500300","中和區"
"235041","802-TS","2017/12/08 19:09:57","新北市中和區景安路44號","121.50706","24.99807","6500300","中和區"
"235052","805-TS","2017/12/08 19:09:37","新北市中和區興南路二段242巷20號","121.502146666667","24.9832666666667","6500300","中和區"
"235048","896-TW","2017/12/08 19:09:38","新北市中和區忠孝街2號","121.50879","24.9829216666667","6500300","中和區"
"235053","900-TW","2017/12/08 19:09:56","新北市中和區和平路218-1號","121.464066666667","24.9962516666667","6500300","中和區"
"235028","911-UM","2017/12/08 19:09:50","新北市中和區泰和街44巷24號","121.498526666667","25.000665","6500300","中和區"
"235051","157-BY","2017/12/08 19:09:36","新北市中和區興南路一段77號","121.51013","24.9891116666667","6500300","中和區"
"235037","AAC-213","2017/12/08 19:09:38","新北市中和區秀朗路三段128巷33弄2號","121.524713333333","24.9946066666667","6500300","中和區"
"235059","AAC-215","2017/12/08 19:09:48","新北市中和區圓通路296巷31弄1號","121.488581666667","24.9904333333333","6500300","中和區"
"220068","013-TV","2017/12/08 19:09:51","新北市板橋區中山路二段467號","121.481953333333","25.0204766666667","6500100","板橋區"
"220065","072-UY","2017/12/08 19:09:42","新北市板橋區民族路219巷44號","121.46944","25.0087416666667","6500100","板橋區"
"220086","073-UY","2017/12/08 19:09:47","新北市板橋區國光路173巷12號","121.460423333333","25.0190233333333","6500100","板橋區"
"220106","075-UY","2017/12/08 19:09:54","新北市板橋區文化路二段317號","121.472096666667","25.0298466666667","6500100","板橋區"
"220069","AAD-861","2017/12/08 19:09:37","新北市板橋區東興街66-1號","121.457405","25.0052183333333","6500100","板橋區"
"220102","120-SR","2017/12/08 19:09:48","新北市板橋區田單街2巷39-3號","121.482321666667","25.0276783333333","6500100","板橋區"
"247004","336-TH","2017/12/08 19:09:54","新北市五股區中興路三段5號","121.449195","25.079825","6501400","蘆洲區"
"226004","312-R5","2017/12/08 19:09:46","新北市平溪區南山里南山坪15號","121.767363333333","25.0332616666667","6502400","平溪區"
"228002","585-TW","2017/12/08 19:09:47","新北市貢寮區福隆里福隆街36號","121.945158333333","25.0174833333333","6502600","貢寮區"
"228001","670-TC","2017/12/08 19:09:48","新北市貢寮區真理里新港街10號","121.925521666667","25.0543833333333","6502600","貢寮區"
"228003","828-UM","2017/12/08 19:09:42","新北市貢寮區和美里和美街32-5號","121.913246666667","25.0842683333333","6502600","貢寮區"
"224006","676-BX","2017/12/08 19:09:36","新北市瑞芳區三爪子坑路118-1號","121.806431666667","25.105335","6501200","瑞芳區"
"224009","285-BY","2017/12/08 19:09:46","新北市瑞芳區洞頂路148號","121.859521666667","25.1183","6501200","瑞芳區"
"224008","275-VK","2017/12/08 19:09:53","新北市瑞芳區一坑路74號","121.80314","25.1082083333333","6501200","瑞芳區"
"224005","271-BY","2017/12/08 19:09:49","新北市瑞芳區三爪子坑路303-2號","121.818303333333","25.1056733333333","6501200","瑞芳區"
"227003","642-TC","2017/12/08 19:09:51","新北市雙溪區平林里外平林9-25號","121.860183333333","25.03732","6502500","雙溪區"
"227011","400-TW","2017/12/08 19:09:52","新北市雙溪區雙溪里中正路18號","121.865035","25.0368666666667","6502500","雙溪區"
"253005","032-BX","2017/12/08 19:09:41","新北市石門區阿里荖42號","121.605311666667","25.2803966666667","6502200","石門區"
"253006","741-TV","2017/12/08 19:09:37","新北市石門區崁子腳58-10號","121.530816666667","25.2869133333333","6502200","石門區"
"222001","KEA-2212","2017/12/08 19:09:35","新北市深坑區北深路一段300號","121.624136666667","25.00577","6501800","深坑區"
"208002","742-BX","2017/12/08 19:09:41","新北市金山區中正路73號","121.633778333333","25.22173","6502700","金山區"
"208003","665-BX","2017/12/08 19:09:52","新北市金山區中正路118號","121.632571666667","25.2215833333333","6502700","金山區"
"208001","761-BX","2017/12/08 19:09:41","新北市金山區福德街16巷4號","121.639195","25.2216483333333","6502700","金山區"
"251005","010-UM","2017/12/08 19:09:53","新北市淡水區原德路16號","121.442248333333","25.1716316666667","6501000","淡水區"
"251013","180-VK","2017/12/08 19:09:43","新北市淡水區安子內12號","121.481528333333","25.2190816666667","6501000","淡水區"
"251015","182-VK","2017/12/08 19:09:47","新北市淡水區南勢埔6-2號","121.482483333333","25.1809016666667","6501000","淡水區"
"251010","413-VK","2017/12/08 19:09:34","新北市淡水區中正路一段156巷3號","121.421131666667","25.180245","6501000","淡水區"
"251001","559-UM","2017/12/08 19:09:57","新北市淡水區自強路201巷39號","121.462118333333","25.126845","6501000","淡水區"
"251006","561-UM","2017/12/08 19:09:44","新北市淡水區中山北路二段3號","121.44438","25.1831916666667","6501000","淡水區"
"251009","575-R6","2017/12/08 19:09:43","新北市淡水區中正路38-1號","121.443725","25.16931","6501000","淡水區"
"251007","577-R6","2017/12/08 19:09:35","新北市淡水區民生路145巷58號","121.468093333333","25.1388583333333","6501000","淡水區"
"251002","672-BX","2017/12/08 19:09:43","新北市淡水區中山路88號","121.442745","25.1705516666667","6501000","淡水區"
"251003","673-BX","2017/12/08 19:09:48","新北市淡水區中山北路一段68號","121.4421","25.1758966666667","6501000","淡水區"
"207003","550-UM","2017/12/08 19:09:44","新北市萬里區大鵬里萬里加投24號","121.649136666667","25.2076783333333","6502800","萬里區"
"207004","225-TW","2017/12/08 19:09:36","新北市萬里區萬里里瑪鋉路112-1號","121.691095","25.1787483333333","6502800","萬里區"
"252002","178-VK","2017/12/08 19:09:38","新北市三芝區埔坪里埔頭坑84號","121.508311666667","25.2542483333333","6502100","三芝區"
"252003","249-BX","2017/12/08 19:09:49","新北市三芝區錫板里南勢崗6號","121.479541666667","25.26198","6502100","三芝區"
"252001","292-VK","2017/12/08 19:09:35","新北市三芝區長勤街45巷2號","121.500333333333","25.2550516666667","6502100","三芝區"
"237004","078-UY","2017/12/08 19:09:53","新北市三峽區有木205-1號","121.439046666667","24.8515033333333","6500900","三峽區"
"237007","153-BY","2017/12/08 19:09:49","新北市三峽區麻園12-2號","121.362291666667","24.9162733333333","6500900","三峽區"
"237013","252-BX","2017/12/08 19:09:56","新北市三峽區光明路69巷24號","121.376576666667","24.9290733333333","6500900","三峽區"
"237012","275-BY","2017/12/08 19:09:44","新北市三峽區三樹路222巷254弄49-1號","121.393225","24.944275","6500900","三峽區"
"237008","302-VK","2017/12/08 19:09:44","新北市三峽區光明路106巷3號","121.376555","24.9273816666667","6500900","三峽區"
"237014","433-BY","2017/12/08 19:09:38","新北市三峽區中山路299巷13弄2號","121.361061666667","24.9369516666667","6500900","三峽區"
"237006","5529-G3","2017/12/08 19:09:52","新北市三峽區橫溪路120巷6號","121.398358333333","24.93543","6500900","三峽區"
"237011","572-TV","2017/12/08 18:56:22","新北市三峽區光明路48號","121.374305","24.929625","6500900","三峽區"
"237015","649-BX","2017/12/06 10:49:54","新北市三峽區中山路459巷137號","121.349958333333","24.933995","6500900","三峽區"
"237010","706-TV","2017/12/08 18:59:12","新北市三峽區復興路1號","121.374543333333","24.935825","6500900","三峽區"
"237005","AKY-6261","2017/12/08 19:09:42","新北市三峽區中山路459巷163-3號","121.34866","24.9329116666667","6500900","三峽區"
"236072","105-UM","2017/12/08 19:09:48","新北市土城區裕生路84巷4號","121.447056666667","24.9854966666667","6501300","土城區"
"236079","166-UM","2017/12/08 15:45:31","新北市土城區民權街11號","121.414995","24.9634933333333","6501300","土城區"
"236027","269-VK","2017/12/08 19:09:46","新北市土城區中正路56巷2號","121.443833333333","24.9753733333333","6501300","土城區"
"236015","270-VK","2017/12/08 19:09:39","新北市土城區學府路一段75巷16弄1號","121.457241666667","24.987625","6501300","土城區"
"236039","271-VK","2017/12/08 19:09:41","新北市土城區清水路98巷3弄1號","121.457506666667","24.9813433333333","6501300","土城區"
"236022","401-BY","2017/12/08 19:09:41","新北市土城區延峰街27巷1號","121.469321666667","24.9853566666667","6501300","土城區"
"236059","912-UM","2017/12/08 19:09:48","新北市土城區金城路二段206號","121.455233333333","24.9818983333333","6501300","土城區"
"236050","913-UM","2017/12/08 19:09:53","新北市土城區明德路一段398-1號","121.453646666667","24.97908","6501300","土城區"
"236055","AAC-216","2017/12/08 19:09:45","新北市土城區學府路一段239號","121.450493333333","24.9835716666667","6501300","土城區"
"238015","755-BX","2017/12/08 19:09:34","新北市樹林區備內街158巷17號","121.407741666667","24.9899283333333","6500700","樹林區"
"238023","601-UM","2017/12/08 19:09:43","新北市樹林區大慶街31號","121.39699","25.01391","6500700","樹林區"
"238019","599-UM","2017/12/08 19:09:42","新北市樹林區東榮街91巷4弄8號","121.41602","24.9819066666667","6500700","樹林區"
"238018","571-TV","2017/12/08 19:09:44","新北市樹林區太平路48號","121.419033333333","24.9825366666667","6500700","樹林區"
"238021","KEA-2217","2017/12/08 19:09:40","新北市樹林區柑園街二段276巷40號","121.37171","24.9536466666667","6500700","樹林區"
"238022","KEA-2213","2017/12/08 19:09:49","新北市樹林區中山路二段151巷8弄37號","121.405941666667","24.9775033333333","6500700","樹林區"
"238025","303-VK","2017/12/08 19:09:44","新北市樹林區中山路三段76號","121.393568333333","24.9723016666667","6500700","樹林區"
"238017","283-BY","2017/12/08 19:06:49","新北市樹林區光興街376巷3號","121.406211666667","25.0057766666667","6500700","樹林區"
"238014","282-BY","2017/12/08 19:09:44","新北市樹林區千歲街63-14號","121.427048333333","24.99868","6500700","樹林區"
"238020","268-VK","2017/12/08 19:09:34","新北市樹林區俊英街181號","121.423773333333","25.0122566666667","6500700","樹林區"
"238026","172-UY","2017/12/08 19:09:41","新北市樹林區佳園路一段41巷2號","121.393298333333","24.9707616666667","6500700","樹林區"
"238016","169-UY","2017/12/08 19:09:52","新北市樹林區復興路335巷3號","121.418075","24.98807","6500700","樹林區"
"239007","AAC-297","2017/12/08 19:09:36","新北市鶯歌區中山路138巷36號","121.351316666667","24.95958","6500800","鶯歌區"
"239006","891-R6","2017/12/08 19:09:47","新北市鶯歌區永昌街84號","121.34166","24.949705","6500800","鶯歌區"
"239008","527-UM","2017/12/08 19:09:54","新北市鶯歌區國際二路12巷1號","121.337768333333","24.974445","6500800","鶯歌區"
"239005","526-UM","2017/12/08 19:09:54","新北市鶯歌區三界公坑30-1號","121.352906666667","24.97119","6500800","鶯歌區"
"239001","417-VK","2017/12/08 19:09:45","新北市鶯歌區鶯桃路97-3號","121.33895","24.9539533333333","6500800","鶯歌區"
"239003","360-BY","2017/12/08 19:09:35","新北市鶯歌區德昌二街92-1號","121.332733333333","24.95514","6500800","鶯歌區"
"239002","359-BY","2017/12/08 19:09:34","新北市鶯歌區國際二路6巷12號","121.338745","24.973765","6500800","鶯歌區"
"239004","193-VK","2017/12/08 19:09:51","新北市鶯歌區二甲路中心巷13弄1號","121.337706666667","24.9355016666667","6500800","鶯歌區"
"221008","489-VK","2017/12/08 19:09:35","新北市汐止區康寧街426號","121.630761666667","25.0680266666667","6501100","汐止區"
"221036","130-UY","2017/12/08 19:09:36","新北市汐止區信義路1號","121.662545","25.0694083333333","6501100","汐止區"
"221010","269-BY","2017/12/08 19:09:47","新北市汐止區康寧街901號","121.651318333333","25.07502","6501100","汐止區"
"221012","276-VK","2017/12/08 13:19:06","新北市汐止區汐萬路一段256巷3號","121.65347","25.07466","6501100","汐止區"
"221012","278-VK","2017/12/08 19:09:56","新北市汐止區康寧街901號","121.6508","25.0752716666667","6501100","汐止區"
"221023","279-VK","2017/12/08 19:09:52","新北市汐止區康寧街901號","121.650986666667","25.075235","6501100","汐止區"
"221027","281-BY","2017/12/08 19:09:47","新北市汐止區康寧街901號","121.651405","25.07498","6501100","汐止區"
"221029","298-VK","2017/12/08 19:09:41","新北市汐止區康寧街901號","121.651626666667","25.07495","6501100","汐止區"
"221031","353-TW","2017/12/08 19:09:51","新北市汐止區福德三路20號","121.637261666667","25.0693783333333","6501100","汐止區"
"221015","567-BX","2017/12/08 19:09:53","新北市汐止區汐萬路一段256巷3號","121.653321666667","25.0744883333333","6501100","汐止區"
"221025","623-UM","2017/12/08 19:09:50","新北市汐止區康寧街901號","121.651573333333","25.0749466666667","6501100","汐止區"
"221038","646-BX","2017/12/08 19:09:45","新北市汐止區康寧街901號","121.650701666667","25.0753416666667","6501100","汐止區"
"221033","647-BX","2017/12/08 19:09:44","新北市汐止區南勢街1巷1號","121.626998333333","25.0374433333333","6501100","汐止區"
"221002","707-TV","2017/12/08 19:09:38","台北市南港區南港路一段8號","121.619565","25.054695","6501100","汐止區"
"221012","753-BX","2017/12/08 19:09:46","新北市汐止區康寧街901號","121.651591666667","25.074915","6501100","汐止區"
"220079","145-BY","2017/12/08 19:09:52","新北市板橋區民權路260巷20號","121.458556666667","25.01528","6500100","板橋區"
"220082","610-BX","2017/12/08 19:09:51","新北市板橋區滿平街64號","121.427168333333","24.98941","6500100","板橋區"
"220101","245-BX","2017/12/08 19:09:49","新北市板橋區萬板路15號","121.470573333333","25.0210133333333","6500100","板橋區"
"220103","257-TC","2017/12/08 19:09:47","新北市板橋區介壽街84巷30號","121.469111666667","25.0179516666667","6500100","板橋區"
"220091","267-BY","2017/12/08 19:09:34","新北市板橋區縣民大道三段247巷14號","121.481755","25.0263233333333","6500100","板橋區"
"220056","276-BY","2017/12/08 19:09:39","新北市板橋區信義路74巷1弄3號","121.457326666667","24.9931133333333","6500100","板橋區"
"220072","277-BY","2017/12/08 19:09:52","新北市板橋區金門街262號","121.429916666667","24.9865983333333","6500100","板橋區"
"220071","283-VK","2017/12/08 19:09:52","新北市板橋區重慶路245巷50弄37號","121.465265","24.9997533333333","6500100","板橋區"
"220094","285-UM","2017/12/08 19:09:42","新北市板橋區光武街127巷1號","121.466015","25.0287066666667","6500100","板橋區"
"220053","285-VK","2017/12/08 19:09:49","新北市板橋區懷仁街35巷2弄1號","121.476916666667","25.0196666666667","6500100","板橋區"
"220083","286-VK","2017/12/08 19:09:54","新北市板橋區大觀路二段174巷176弄16號","121.442805","25.0031766666667","6500100","板橋區"
"220081","287-VK","2017/12/08 19:09:47","新北市板橋區南雅西路二段156巷28號","121.452371666667","25.0127266666667","6500100","板橋區"
"220090","288-VK","2017/12/08 19:09:45","新北市板橋區裕民街37號","121.461688333333","25.0286633333333","6500100","板橋區"
"220061","293-UM","2017/12/08 19:09:43","新北市板橋區懷仁街91號","121.477493333333","25.01818","6500100","板橋區"
"220084","296-UM","2017/12/08 19:09:52","新北市板橋區溪崑一街30巷13號","121.429468333333","24.9912983333333","6500100","板橋區"
"220092","299-UM","2017/12/08 19:09:54","新北市板橋區文化路二段225巷60弄48號","121.469233333333","25.02957","6500100","板橋區"
"220062","305-R5","2017/12/08 19:09:54","新北市板橋區三民路二段245巷4弄8號","121.480926666667","25.011945","6500100","板橋區"
"220098","317-R6","2017/12/08 19:09:48","新北市板橋區四維路103巷26號","121.464628333333","25.0240616666667","6500100","板橋區"
"220080","461-BY","2017/12/08 19:09:51","新北市板橋區大觀路二段7巷72號","121.449445","25.0030783333333","6500100","板橋區"
"220064","486-VK","2017/12/08 19:09:41","新北市板橋區板新路141號","121.470245","25.015395","6500100","板橋區"
"220089","487-VK","2017/12/08 19:09:49","新北市板橋區文化路二段347號","121.472648333333","25.03047","6500100","板橋區"
"220088","491-VK","2017/12/08 19:09:53","新北市板橋區文化路二段182巷1弄8號","121.471221666667","25.0276616666667","6500100","板橋區"
"220035","560-BX","2017/12/08 19:09:52","新北市板橋區新生街23巷17號","121.456538333333","25.0225133333333","6500100","板橋區"
"220075","568-UM","2017/12/08 19:09:51","新北市板橋區館前西路161號","121.455985","25.00812","6500100","板橋區"
"220063","609-BX","2017/12/08 19:09:46","新北市板橋區三民路二段206-1號","121.47885","25.01206","6500100","板橋區"
"220057","686-BX","2017/12/08 19:09:42","新北市板橋區重慶路91-1號","121.462141666667","25.0059183333333","6500100","板橋區"
"220077","687-BX","2017/12/08 19:09:46","新北市板橋區大觀路一段43號","121.448208333333","25.00786","6500100","板橋區"
"220093","689-BX","2017/12/08 19:09:56","新北市板橋區民生路三段241號","121.464791666667","25.0288666666667","6500100","板橋區"
"220054","741-BX","2017/12/08 19:09:47","新北市板橋區重慶路139巷21號","121.46373","25.00479","6500100","板橋區"
"220055","827-TW","2017/12/08 19:09:36","新北市板橋區中山路一段160-5號","121.466161666667","25.01195","6500100","板橋區"
"220067","829-TW","2017/12/08 19:09:43","新北市板橋區中山路二段90巷43弄2號","121.476465","25.014875","6500100","板橋區"
"220096","831-TW","2017/12/08 19:09:47","新北市板橋區雙十路二段33巷22號","121.4759","25.0254","6500100","板橋區"
"220074","895-R6","2017/12/08 19:09:43","新北市板橋區中正路自強新村43-2號","121.455026666667","25.01392","6500100","板橋區"
"220073","985-R7","2017/12/08 19:09:42","新北市板橋區中正路302號","121.454826666667","25.0206266666667","6500100","板橋區"
"220097","AAC-210","2017/12/08 19:09:41","新北市板橋區英士路153號","121.459423333333","25.02389","6500100","板橋區"
"220070","AAC-253","2017/12/08 19:09:50","新北市板橋區四川路一段479號","121.457106666667","24.9973816666667","6500100","板橋區"
