"lineid","car","time","location","longitude","latitude","cityid","cityname"
"248005","653-BX","2017/12/18 08:09:49","新北市五股區明德路12巷6號","121.43335","25.07181","6501500","五股區"
"232001","290-BY","2017/12/18 08:09:44","新北市坪林區大粗坑6-1號","121.732295","24.9482283333333","6502000","坪林區"
"232012","291-BY","2017/12/18 08:09:35","新北市坪林區九芎根10號","121.664395","24.8811816666667","6502000","坪林區"
"232017","705-BZ","2017/12/18 08:09:51","新北市坪林區坪雙路二段162號","121.763193333333","24.9631716666667","6502000","坪林區"
"232005","758-BX","2017/12/18 08:09:52","新北市坪林區鶯子瀨6號","121.707975","24.9152516666667","6502000","坪林區"
"244012","069-UM","2017/12/18 08:09:51","新北市林口區粉寮路19號","121.399865","25.0820783333333","6501700","林口區"
"244001","248-BX","2017/12/18 08:09:40","新北市林口區嘉寶里3鄰5-5號","121.334623333333","25.1069383333333","6501700","林口區"
"244022","483-VK","2017/12/18 08:09:44","新北市林口區粉寮路一段52號","121.396573333333","25.0771766666667","6501700","林口區"
"244008","657-BX","2017/12/18 08:09:47","新北市林口區林口路296號","121.385928333333","25.0855","6501700","林口區"
"244024","837-TS","2017/12/18 08:09:50","新北市林口區中山路51號","121.394401666667","25.0784633333333","6501700","林口區"
"244020","838-TS","2017/12/18 08:09:44","新北市林口區粉寮路二段286號","121.40503","25.0951333333333","6501700","林口區"
"243012","539-UM","2017/12/18 08:09:43","新北市泰山區明志路三段427號","121.420925","25.03331","6501600","泰山區"
"222005","289-BY","2017/12/18 08:09:56","新北市深坑區北深路二段124號","121.61626","25.0030366666667","6501800","深坑區"
"231007","189-VK","2017/12/18 08:09:51","新北市新店區華潭街51號","121.528795","24.954055","6500600","新店區"
"231008","192-VK","2017/12/18 08:09:36","新北市新店區環河路1-2號","121.538218333333","24.9615966666667","6500600","新店區"
"226005","5620-A6","2017/12/18 07:59:34","新北市平溪區嶺腳里嶺腳寮83-2號","121.750446666667","25.0350566666667","6502400","平溪區"
"226001","7418-A5","2017/12/18 08:09:52","新北市平溪區望古里灰3-1號","121.754735","25.0288183333333","6502400","平溪區"
"223006","022-BY","2017/12/18 08:09:50","新北市石碇區雙溪79號","121.657285","25.0068516666667","6501900","石碇區"
"223002","198-BX","2017/12/18 08:09:48","新北市石碇區碇格路二段42號","121.636181666667","24.9549366666667","6501900","石碇區"
"223008","406-TH","2017/12/18 08:09:56","新北市石碇區番子坑109號","121.674948333333","25.0111966666667","6501900","石碇區"
"223001","437-BY","2017/12/18 08:09:50","新北市石碇區北宜路六段塗潭巷2號","121.644976666667","24.93755","6501900","石碇區"
"223004","660-BX","2017/12/18 08:09:55","新北市石碇區石崁1號","121.651928333333","25.0007466666667","6501900","石碇區"
"223007","661-BX","2017/12/18 08:09:40","新北市石碇區靜安路一段213號","121.674206666667","25.0097933333333","6501900","石碇區"
"223005","677-TV","2017/12/18 08:09:37","新北市石碇區碇坪路一段18號","121.651805","25.0038083333333","6501900","石碇區"
"227005","282-VK","2017/12/18 08:09:50","新北市雙溪區上林里內平林120-2號","121.824236666667","25.0261583333333","6502500","雙溪區"
"252006","073-UM","2017/12/18 08:09:49","新北市三芝區後厝里芝麻一街1號","121.474311666667","25.245545","6502100","三芝區"
"252004","249-BX","2017/12/18 08:09:22","新北市三芝區興華里車埕36-8號","121.505741666667","25.1930933333333","6502100","三芝區"
"237001","361-BY","2017/12/18 08:09:44","新北市三峽區大學路35號","121.376941666667","24.9403683333333","6500900","三峽區"
"236007","165-UM","2017/12/18 08:09:52","新北市土城區清水路171號","121.45931","24.9815316666667","6501300","土城區"
"236001","339-SR","2017/12/18 08:09:40","新北市土城區龍泉路80-1號","121.435696666667","24.9423566666667","6501300","土城區"
"242030","AAC-296","2017/12/18 08:09:37","新北市新莊區新泰路321巷4弄1號","121.444405","25.04136","6500500","新莊區"
"242028","986-R7","2017/12/18 08:09:41","新北市新莊區復興路一段165號","121.450995","25.04342","6500500","新莊區"
"242049","751-BX","2017/12/18 08:09:46","新北市新莊區西盛街265號","121.428075","25.0156616666667","6500500","新莊區"
"242024","615-BX","2017/12/18 08:09:50","新北市新莊區思源路120號","121.4601","25.0473983333333","6500500","新莊區"
"242022","613-BX","2017/12/18 08:09:47","新北市新莊區民樂街37號","121.45778","25.0412133333333","6500500","新莊區"
"242026","612-BX","2017/12/18 08:09:42","新北市新莊區思源路317號","121.459948333333","25.0492433333333","6500500","新莊區"
"242038","566-BX","2017/12/18 08:09:44","新北市新莊區民全街15號","121.428988333333","25.0216466666667","6500500","新莊區"
"242043","497-BY","2017/12/18 08:09:48","新北市新莊區中正路871巷9弄4號","121.4188","25.0268666666667","6500500","新莊區"
"242001","442-UM","2017/12/18 08:09:50","新北市新莊區景德路192號","121.450011666667","25.034135","6500500","新莊區"
"242047","441-UM","2017/12/18 08:09:42","新北市新莊區萬安街108號","121.420553333333","25.0222266666667","6500500","新莊區"
"242052","440-UM","2017/12/18 08:09:45","新北市樹林區樹新路84巷9號","121.429985","24.9972516666667","6500500","新莊區"
"242033","415-TV","2017/12/18 08:09:46","新北市新莊區新莊路651號","121.445041666667","25.03279","6500500","新莊區"
"242040","400-BY","2017/12/18 08:09:50","新北市新莊區中正路656號","121.421213333333","25.02854","6500500","新莊區"
"242059","362-BY","2017/12/18 08:09:38","新北市新莊區瓊林南路118-24號","121.433855","25.010875","6500500","新莊區"
"242057","353-BY","2017/12/18 08:09:50","新北市新莊區中正路726-4號","121.416313333333","25.02451","6500500","新莊區"
"242006","132-UY","2017/12/18 08:09:52","新北市新莊區福樂街71巷4號","121.456938333333","25.0477583333333","6500500","新莊區"
"242020","135-UY","2017/12/18 08:09:51","新北市新莊區中華路一段228號","121.452671666667","25.0431683333333","6500500","新莊區"
"242045","172-VK","2017/12/18 08:09:44","新北市新莊區建國一路19號","121.433936666667","25.031585","6500500","新莊區"
"242008","173-VK","2017/12/18 08:09:10","新北市新莊區昌明街14巷2弄1號","121.457433333333","25.0527566666667","6500500","新莊區"
"242014","175-VK","2017/12/18 08:09:55","新北市新莊區中平路34號","121.444788333333","25.0435516666667","6500500","新莊區"
"242012","346-TH","2017/12/18 08:09:39","新北市新莊區中誠街116號","121.449463333333","25.0477533333333","6500500","新莊區"
"242035","347-TH","2017/12/18 08:09:57","新北市新莊區後港一路167號","121.432065","25.0283583333333","6500500","新莊區"
"242003","348-TH","2017/12/18 08:09:52","新北市新莊區自立街229號","121.456321666667","25.0456033333333","6500500","新莊區"
"242055","349-TH","2017/12/18 08:09:51","新北市新莊區泰豐街18巷21號","121.449031666667","25.031735","6500500","新莊區"
"242016","350-TH","2017/12/18 08:09:47","新北市新莊區永安街172號","121.448773333333","25.0444816666667","6500500","新莊區"
"242010","351-TH","2017/12/18 08:09:49","新北市新莊區中港路644號","121.450921666667","25.0556083333333","6500500","新莊區"
"239006","661-UM","2017/12/18 08:09:47","新北市鶯歌區大湖路351號","121.338286666667","24.9716933333333","6500800","鶯歌區"
"220057","282-UM","2017/12/18 08:09:51","新北市新莊區中環路三段200號","121.442366666667","25.05493","6500100","板橋區"
"242018","281-VK","2017/12/18 08:09:36","新北市新莊區中港路151號","121.455061666667","25.0409316666667","6500500","新莊區"
