"lineid","car","time","location","longitude","latitude","cityid","cityname"
"248005","653-BX","2017/12/18 08:19:49","新北市五股區明德路12巷6號","121.433361666667","25.0718316666667","6501500","五股區"
"232001","290-BY","2017/12/18 08:19:44","新北市坪林區九芎坑13號","121.735761666667","24.9506316666667","6502000","坪林區"
"232012","291-BY","2017/12/18 08:19:35","新北市坪林區九芎根3-1號","121.666805","24.8862716666667","6502000","坪林區"
"232017","705-BZ","2017/12/18 08:18:51","新北市坪林區柑腳坑13號","121.766493333333","24.9484316666667","6502000","坪林區"
"232005","758-BX","2017/12/18 08:18:44","新北市坪林區鶯子瀨3-1號","121.705888333333","24.9141016666667","6502000","坪林區"
"244012","069-UM","2017/12/18 08:19:51","新北市林口區中正路559號","121.381053333333","25.07693","6501700","林口區"
"244006","080-UY","2017/12/18 08:19:57","新北市林口區中湖58-2號","121.375711666667","25.0926166666667","6501700","林口區"
"244001","248-BX","2017/12/18 08:19:40","新北市林口區下福16號","121.311906666667","25.111095","6501700","林口區"
"244018","403-UM","2017/12/18 08:19:43","新北市林口區文化一路一段190巷5弄1號","121.378521666667","25.075115","6501700","林口區"
"244022","483-VK","2017/12/18 08:19:44","新北市林口區仁愛路一段649號","121.388396666667","25.0764","6501700","林口區"
"244017","485-VK","2017/12/18 08:19:45","新北市林口區文化二路一段170號","121.369181666667","25.07154","6501700","林口區"
"244010","656-BX","2017/12/18 08:19:39","新北市林口區佳林路231號","121.383453333333","25.0763783333333","6501700","林口區"
"244008","657-BX","2017/12/18 08:19:47","新北市林口區中北三街178號","121.383071666667","25.0827383333333","6501700","林口區"
"244024","837-TS","2017/12/18 08:19:50","新北市林口區文化三路一段415號","121.367353333333","25.0739516666667","6501700","林口區"
"244020","838-TS","2017/12/18 08:19:44","新北市林口區粉寮路一段105號","121.39789","25.08031","6501700","林口區"
"243012","539-UM","2017/12/18 08:19:43","新北市泰山區明志路三段427號","121.420923333333","25.0332616666667","6501600","泰山區"
"222005","289-BY","2017/12/18 08:19:36","新北市深坑區萬福路36-1號","121.605451666667","25.012365","6501800","深坑區"
"231007","189-VK","2017/12/18 08:19:51","新北市新店區新潭路一段42號","121.523581666667","24.9415483333333","6500600","新店區"
"231008","192-VK","2017/12/18 08:19:57","新北市新店區新烏路一段179-1號","121.545395","24.93389","6500600","新店區"
"226005","5620-A6","2017/12/18 08:19:54","新北市平溪區新寮里頂寮子62-1號","121.774913333333","25.051015","6502400","平溪區"
"226001","7418-A5","2017/12/18 08:19:52","新北市平溪區東勢里芊蓁林51-7號","121.754056666667","25.0091566666667","6502400","平溪區"
"226003","AGD-0702","2017/12/18 08:19:43","新北市平溪區十分里十分街54號","121.775213333333","25.041435","6502400","平溪區"
"223006","022-BY","2017/12/18 08:19:50","新北市深坑區文山路一段64號","121.624045","25.000825","6501900","石碇區"
"223002","198-BX","2017/12/18 08:19:48","新北市石碇區烏塗窟26-1號","121.657023333333","24.975545","6501900","石碇區"
"223008","406-TH","2017/12/18 08:19:56","新北市石碇區串空湖8-1號","121.67031","25.0014383333333","6501900","石碇區"
"223001","437-BY","2017/12/18 08:19:50","新北市石碇區北宜路六段塗潭巷55號","121.652463333333","24.935035","6501900","石碇區"
"223004","660-BX","2017/12/18 08:19:55","新北市石碇區外按9-2號","121.65066","24.99742","6501900","石碇區"
"223007","661-BX","2017/12/18 08:19:40","新北市石碇區靜安路一段97號","121.661598333333","25.0075533333333","6501900","石碇區"
"223005","677-TV","2017/12/18 08:19:57","新北市石碇區外按16-1號","121.650618333333","24.9975333333333","6501900","石碇區"
"227005","282-VK","2017/12/18 08:19:50","新北市雙溪區外柑里過溪3-1號","121.824836666667","25.0189666666667","6502500","雙溪區"
"252006","073-UM","2017/12/18 08:19:49","新北市三芝區後厝里大片頭88號","121.457766666667","25.24553","6502100","三芝區"
"252004","249-BX","2017/12/18 08:19:42","新北市三芝區興華里車埕62-1號","121.499911666667","25.1966716666667","6502100","三芝區"
"237001","361-BY","2017/12/18 08:19:44","新北市三峽區大觀路2號","121.37609","24.9437983333333","6500900","三峽區"
"236007","165-UM","2017/12/18 08:19:52","新北市土城區石門路60-1號","121.457066666667","24.9582233333333","6501300","土城區"
"236001","339-SR","2017/12/18 08:19:40","新北市土城區龍泉路26號","121.411215","24.9473983333333","6501300","土城區"
"236005","498-BY","2017/12/18 08:19:42","新北市土城區永平街3號","121.427663333333","24.96338","6501300","土城區"
"242030","AAC-296","2017/12/18 08:19:37","新北市新莊區新泰路354號","121.444731666667","25.0426116666667","6500500","新莊區"
"242028","986-R7","2017/12/18 08:19:42","新北市新莊區中平路60號","121.444771666667","25.0442383333333","6500500","新莊區"
"242049","751-BX","2017/12/18 08:19:51","新北市新莊區龍安路500號","121.426713333333","25.0171016666667","6500500","新莊區"
"242024","615-BX","2017/12/18 08:19:50","新北市新莊區新北大道二段292號","121.465133333333","25.061375","6500500","新莊區"
"242022","613-BX","2017/12/18 08:19:46","新北市新莊區福樂街102號","121.457598333333","25.047545","6500500","新莊區"
"242026","612-BX","2017/12/18 08:19:42","新北市新莊區福壽街144號","121.457813333333","25.0519283333333","6500500","新莊區"
"242038","566-BX","2017/12/18 08:19:44","新北市新莊區民安路170號","121.42502","25.024095","6500500","新莊區"
"242043","497-BY","2017/12/18 08:19:57","新北市新莊區雙鳳路101號","121.414646666667","25.027805","6500500","新莊區"
"242001","442-UM","2017/12/18 08:19:55","新北市新莊區中正路145-18號","121.458271666667","25.0376266666667","6500500","新莊區"
"242047","441-UM","2017/12/18 08:19:57","新北市新莊區萬安街146巷18號","121.419996666667","25.021875","6500500","新莊區"
"242052","440-UM","2017/12/18 08:19:45","新北市新莊區新樹路713號","121.432011666667","25.0020216666667","6500500","新莊區"
"242033","415-TV","2017/12/18 08:19:46","新北市新莊區景德路532號","121.443843333333","25.0332216666667","6500500","新莊區"
"242040","400-BY","2017/12/18 08:19:40","新北市新莊區中正路692-8號","121.420033333333","25.0284116666667","6500500","新莊區"
"242059","362-BY","2017/12/18 08:19:38","新北市新莊區新樹路505號","121.432723333333","25.0108933333333","6500500","新莊區"
"242057","353-BY","2017/12/18 08:19:50","新北市新莊區雙鳳路134巷7號","121.412675","25.0281083333333","6500500","新莊區"
"242006","132-UY","2017/12/18 08:19:52","新北市新莊區自信街81巷1號","121.45595","25.0481633333333","6500500","新莊區"
"242020","135-UY","2017/12/18 08:19:51","新北市新莊區中華路一段66巷7號","121.452651666667","25.0387016666667","6500500","新莊區"
"242045","172-VK","2017/12/18 08:19:44","新北市新莊區福營路127號","121.432945","25.031745","6500500","新莊區"
"242008","173-VK","2017/12/18 08:11:46","新北市新莊區福壽街169巷6號","121.457598333333","25.0537583333333","6500500","新莊區"
"242014","175-VK","2017/12/18 08:19:55","新北市新莊區中平路130號","121.444848333333","25.0466766666667","6500500","新莊區"
"242012","346-TH","2017/12/18 08:19:39","新北市新莊區中和街82巷7號","121.448281666667","25.0465433333333","6500500","新莊區"
"242035","347-TH","2017/12/18 08:19:37","新北市新莊區後港一路87號","121.427623333333","25.02678","6500500","新莊區"
"242003","348-TH","2017/12/18 08:19:52","新北市新莊區自立街247號","121.458688333333","25.045535","6500500","新莊區"
"242055","349-TH","2017/12/18 08:19:43","新北市新莊區瓊林路40巷27號","121.446711666667","25.0301183333333","6500500","新莊區"
"242016","350-TH","2017/12/18 08:19:47","新北市新莊區中和街60巷45號","121.449873333333","25.0451","6500500","新莊區"
"242010","351-TH","2017/12/18 08:19:43","新北市新莊區中港路594號","121.45125","25.0538083333333","6500500","新莊區"
"239006","661-UM","2017/12/18 08:19:47","新北市鶯歌區大湖路760號","121.331986666667","24.9772266666667","6500800","鶯歌區"
"220057","282-UM","2017/12/18 08:19:51","新北市五股區凌雲路三段24巷21-9號","121.433966666667","25.10761","6500100","板橋區"
"242018","281-VK","2017/12/18 08:19:56","新北市新莊區長青街2號","121.45796","25.042485","6500500","新莊區"
