"lineid","car","time","location","longitude","latitude","cityid","cityname"
"248005","653-BX","2017/12/18 08:39:29","新北市五股區明德路12巷8號","121.4334","25.0719816666667","6501500","五股區"
"232001","290-BY","2017/12/18 08:39:44","新北市坪林區九芎坑16-2號","121.741046666667","24.94975","6502000","坪林區"
"232012","291-BY","2017/12/18 08:39:35","新北市坪林區金瓜寮19號","121.6798","24.9133433333333","6502000","坪林區"
"232017","705-BZ","2017/12/18 08:35:30","新北市坪林區中心崙9號","121.781471666667","24.940235","6502000","坪林區"
"232005","758-BX","2017/12/18 08:39:51","新北市坪林區石12-2號","121.709843333333","24.908575","6502000","坪林區"
"244012","069-UM","2017/12/18 08:39:51","新北市林口區中山路27號","121.395438333333","25.078295","6501700","林口區"
"244006","080-UY","2017/12/18 08:39:53","新北市林口區林口路272巷23號","121.386918333333","25.0845066666667","6501700","林口區"
"244001","248-BX","2017/12/18 08:38:00","新北市林口區寶斗厝坑83號","121.332578333333","25.1198666666667","6501700","林口區"
"244018","403-UM","2017/12/18 08:39:56","新北市林口區公園路116號","121.37034","25.0710283333333","6501700","林口區"
"244022","483-VK","2017/12/18 08:39:44","新北市林口區興林路221巷27號","121.389795","25.0717316666667","6501700","林口區"
"244017","485-VK","2017/12/18 08:39:45","新北市林口區八德路48巷19號","121.366943333333","25.0669483333333","6501700","林口區"
"244010","656-BX","2017/12/18 08:39:39","新北市林口區中正路30巷4號","121.395803333333","25.0776216666667","6501700","林口區"
"244008","657-BX","2017/12/18 08:39:47","新北市林口區竹林路582巷16號","121.385966666667","25.08339","6501700","林口區"
"244024","837-TS","2017/12/18 08:39:50","新北市林口區文化北路一段192-100號","121.357513333333","25.07064","6501700","林口區"
"244020","838-TS","2017/12/18 08:39:44","新北市林口區自強一街12號","121.398091666667","25.078365","6501700","林口區"
"243012","539-UM","2017/12/18 08:39:43","新北市泰山區明志路三段427號","121.420811666667","25.0333166666667","6501600","泰山區"
"222005","289-BY","2017/12/18 08:39:56","新北市深坑區深南路125號","121.62398","25.0167816666667","6501800","深坑區"
"231007","189-VK","2017/12/18 08:39:51","新北市新店區新潭路二段80號","121.518038333333","24.9254033333333","6500600","新店區"
"231008","192-VK","2017/12/18 08:39:36","新北市新店區新烏路三段165巷64號","121.553975","24.9015316666667","6500600","新店區"
"226005","5620-A6","2017/12/18 08:39:54","新北市平溪區南山里六分12號","121.798855","25.0489333333333","6502400","平溪區"
"226001","7418-A5","2017/12/18 08:39:52","新北市平溪區東勢里火燒寮36-1號","121.769133333333","24.9855216666667","6502400","平溪區"
"226003","AGD-0702","2017/12/18 08:39:43","新北市平溪區十分里十分街246號","121.77763","25.0444966666667","6502400","平溪區"
"223006","022-BY","2017/12/18 08:39:50","新北市石碇區楓子林51號","121.640503333333","25.00807","6501900","石碇區"
"223002","198-BX","2017/12/18 08:39:48","新北市深坑區昇高坑路72號","121.630981666667","24.9880516666667","6501900","石碇區"
"223008","406-TH","2017/12/18 08:39:56","新北市石碇區光明路8號","121.679133333333","25.02705","6501900","石碇區"
"223001","437-BY","2017/12/18 08:39:50","新北市石碇區北宜路六段水底寮巷12-1號","121.664956666667","24.9471383333333","6501900","石碇區"
"223004","660-BX","2017/12/18 08:39:55","新北市石碇區崩山15號","121.67493","24.9706916666667","6501900","石碇區"
"223007","661-BX","2017/12/18 08:39:55","新北市石碇區碇南路二段5-1號","121.671486666667","25.0249566666667","6501900","石碇區"
"223005","677-TV","2017/12/18 08:39:37","新北市石碇區崩山22號","121.677328333333","24.9718416666667","6501900","石碇區"
"227005","282-VK","2017/12/18 08:39:50","新北市雙溪區泰平里泰平1-5號","121.847716666667","24.9919116666667","6502500","雙溪區"
"252006","073-UM","2017/12/18 08:39:49","新北市三芝區後厝里北勢子20-3號","121.47361","25.25387","6502100","三芝區"
"252004","249-BX","2017/12/18 08:39:42","新北市三芝區興華里楓子林38號","121.490816666667","25.207265","6502100","三芝區"
"237001","361-BY","2017/12/18 08:39:44","新北市三峽區隆恩街198號","121.360408333333","24.942135","6500900","三峽區"
"236007","165-UM","2017/12/18 08:39:52","新北市土城區石門路73號","121.461456666667","24.9593016666667","6501300","土城區"
"236001","339-SR","2017/12/18 08:39:40","新北市土城區大暖路110巷3號","121.420025","24.9568516666667","6501300","土城區"
"236005","498-BY","2017/12/18 08:39:40","新北市土城區永寧路12-2號","121.430346666667","24.9636366666667","6501300","土城區"
"242030","AAC-296","2017/12/18 08:39:57","新北市新莊區新泰路255巷36號","121.444621666667","25.039705","6500500","新莊區"
"242028","986-R7","2017/12/18 08:39:41","新北市新莊區幸福路904號","121.443023333333","25.0490633333333","6500500","新莊區"
"242049","751-BX","2017/12/18 08:39:46","新北市新莊區民安西路81巷21號","121.428175","25.0193116666667","6500500","新莊區"
"242024","615-BX","2017/12/18 08:39:50","新北市新莊區五權一路12巷12號","121.457325","25.0645683333333","6500500","新莊區"
"242022","613-BX","2017/12/18 08:39:46","新北市新莊區化成路290號","121.465676666667","25.0477683333333","6500500","新莊區"
"242026","612-BX","2017/12/18 08:39:43","新北市新莊區福壽街84巷16號","121.45885","25.0496666666667","6500500","新莊區"
"242038","566-BX","2017/12/18 08:39:44","新北市新莊區民安路346號","121.429451666667","25.0223783333333","6500500","新莊區"
"242043","497-BY","2017/12/18 08:39:46","新北市新莊區雙鳳路135號","121.412993333333","25.0275116666667","6500500","新莊區"
"242001","442-UM","2017/12/18 08:39:37","新北市新莊區新泰路76號","121.44901","25.0350233333333","6500500","新莊區"
"242047","441-UM","2017/12/18 08:39:42","新北市新莊區民安路49號","121.423893333333","25.026175","6500500","新莊區"
"242052","440-UM","2017/12/18 08:39:51","新北市新莊區光華街2號","121.428686666667","25.010565","6500500","新莊區"
"242033","415-TV","2017/12/18 08:39:46","新北市新莊區仁愛街3號","121.444196666667","25.0348266666667","6500500","新莊區"
"242040","400-BY","2017/12/18 08:39:40","新北市新莊區天祥街121巷19號","121.414201666667","25.0289166666667","6500500","新莊區"
"242059","362-BY","2017/12/18 08:39:38","新北市新莊區新樹路205號","121.43603","25.0242733333333","6500500","新莊區"
"242057","353-BY","2017/12/18 08:39:50","新北市新莊區中正路742-1號","121.41357","25.0228916666667","6500500","新莊區"
"242006","132-UY","2017/12/18 08:39:52","新北市新莊區思源路593巷6弄12號","121.459095","25.059955","6500500","新莊區"
"242020","135-UY","2017/12/18 08:39:51","新北市新莊區新興街26號","121.450711666667","25.0368283333333","6500500","新莊區"
"242045","172-VK","2017/12/18 08:39:44","新北市新莊區福營路304號","121.42239","25.0274616666667","6500500","新莊區"
"242008","173-VK","2017/12/18 08:39:46","新北市新莊區中華路二段254號","121.452651666667","25.0530416666667","6500500","新莊區"
"242014","175-VK","2017/12/18 08:39:55","新北市新莊區中平路184巷10弄1號","121.445438333333","25.048065","6500500","新莊區"
"242012","346-TH","2017/12/18 08:39:39","新北市新莊區中港路391號","121.451368333333","25.046995","6500500","新莊區"
"242035","347-TH","2017/12/18 08:39:57","新北市新莊區後港一路31巷1弄1號","121.425155","25.0262316666667","6500500","新莊區"
"242003","348-TH","2017/12/18 08:39:52","新北市新莊區復興路二段113號","121.456486666667","25.04442","6500500","新莊區"
"242055","349-TH","2017/12/18 08:39:43","新北市新莊區豐年街豐2巷39號","121.447878333333","25.03091","6500500","新莊區"
"242016","350-TH","2017/12/18 08:39:47","新北市新莊區中港路352號","121.451826666667","25.046765","6500500","新莊區"
"242010","351-TH","2017/12/18 08:39:38","新北市新莊區中港路615巷21弄1號","121.450136666667","25.0531633333333","6500500","新莊區"
"239006","661-UM","2017/12/18 08:39:47","桃園市龜山區宏德司法新村1號","121.331631666667","24.9794733333333","6500800","鶯歌區"
"220057","282-UM","2017/12/18 08:39:51","新北市林口區汕頭32號","121.366506666667","25.1347133333333","6500100","板橋區"
"242018","281-VK","2017/12/18 08:39:56","新北市新莊區公園路129-1號","121.456973333333","25.0406633333333","6500500","新莊區"
