"lineid","car","time","location","longitude","latitude","cityid","cityname"
"244018","403-UM","2017/12/18 10:49:43","新北市林口區粉寮路二段98號","121.404463333333","25.0895333333333","6501700","林口區"
"244025","837-TS","2017/12/18 09:39:25","新北市林口區粉寮路二段160巷28號","121.4052","25.0907233333333","6501700","林口區"
"231007","189-VK","2017/12/18 10:49:51","新北市新店區新潭路二段80號","121.517458333333","24.9250216666667","6500600","新店區"
"231008","192-VK","2017/12/18 10:49:57","新北市新店區松林路16巷41號","121.54685","24.9074766666667","6500600","新店區"
"227005","282-VK","2017/12/18 10:49:50","新北市雙溪區泰平里泰平45-5號","121.831216666667","24.977745","6502500","雙溪區"
"242028","986-R7","2017/12/18 10:49:41","新北市新莊區新泰路357巷3弄57號","121.44198","25.0390733333333","6500500","新莊區"
