"lineid","car","time","location","longitude","latitude","cityid","cityname"
"234044","148-BY","2017/12/18 13:09:53","新北市永和區永元路18巷17號","121.52336","25.0002033333333","6500400","永和區"
"234012","149-BY","2017/12/18 13:09:57","新北市永和區信義路17巷22號","121.513178333333","25.0111916666667","6500400","永和區"
"234005","207-UY","2017/12/18 13:09:56","新北市永和區中山路一段138-1號","121.5103","25.0099066666667","6500400","永和區"
"234078","298-R6","2017/12/18 13:09:52","新北市永和區福和路57巷14弄6號","121.522636666667","25.0071583333333","6500400","永和區"
"234036","336-UY","2017/12/18 13:09:43","新北市永和區民樂街71巷2號","121.527348333333","24.9974083333333","6500400","永和區"
"234062","337-UY","2017/12/18 13:09:44","新北市永和區秀朗路二段46號","121.521525","25.0023183333333","6500400","永和區"
"234084","338-UY","2017/12/18 13:09:52","新北市永和區永貞路73號","121.518798333333","25.00444","6500400","永和區"
"234052","553-UM","2017/12/18 13:09:56","新北市永和區竹林路72巷2號","121.519205","25.013015","6500400","永和區"
"234015","745-BX","2017/12/18 13:09:43","新北市永和區文化路90巷15弄5號","121.51355","25.0161166666667","6500400","永和區"
"234028","746-BX","2017/12/18 13:09:43","新北市永和區民生路21號","121.522826666667","24.9989466666667","6500400","永和區"
"234060","AAD-866","2017/12/18 13:09:46","新北市永和區安樂路306-6號","121.514656666667","25.0055066666667","6500400","永和區"
"234068","847-RS","2017/12/18 13:09:50","新北市永和區豫溪街137巷2號","121.519756666667","25.010485","6500400","永和區"
"234040","862-TW","2017/12/18 13:09:54","新北市永和區保平路109號","121.511015","25.0066866666667","6500400","永和區"
"234048","863-TW","2017/12/18 13:09:52","新北市永和區文化路135巷28號","121.510703333333","25.0142766666667","6500400","永和區"
"234025","9371-KE","2017/12/18 13:09:45","新北市永和區秀朗路一段10巷19號","121.513445","25.0062716666667","6500400","永和區"
"234010","9373-KE","2017/12/18 13:09:57","新北市永和區仁愛路31號","121.51431","25.0131633333333","6500400","永和區"
"248013","025-BX","2017/12/18 13:09:40","新北市五股區成泰路一段189巷18-1號","121.433715","25.0765716666667","6501500","五股區"
"248015","026-BX","2017/12/18 13:09:47","新北市五股區成泰路三段221巷18號","121.44576","25.093515","6501500","五股區"
"248005","077-UY","2017/12/18 13:09:50","新北市五股區中興路二段67-7號","121.461221666667","25.076965","6501500","五股區"
"248007","095-VK","2017/12/18 13:09:39","新北市五股區更洲路32巷15弄9號","121.458381666667","25.0804416666667","6501500","五股區"
"248019","225-UY","2017/12/18 13:09:51","新北市五股區成泰路三段544-1號","121.454563333333","25.1025216666667","6501500","五股區"
"248011","247-BX","2017/12/18 13:09:45","新北市五股區新五路二段259號","121.442378333333","25.084845","6501500","五股區"
"248009","272-BY","2017/12/18 13:09:51","新北市五股區成泰路一段229-1號","121.434151666667","25.0776783333333","6501500","五股區"
"248003","677-BX","2017/12/18 13:09:55","新北市五股區成泰路二段55號","121.437893333333","25.08338","6501500","五股區"
"248001","678-BX","2017/12/18 13:09:49","新北市五股區成泰路三段101-1號","121.444213333333","25.090215","6501500","五股區"
"234022","9380-KE","2017/12/18 13:09:45","新北市永和區中興街10巷17號","121.515805","25.011265","6500400","永和區"
"234076","969-R7","2017/12/18 13:09:48","新北市永和區民光街2號","121.5152","24.99643","6500400","永和區"
"234072","AAC-211","2017/12/18 13:09:53","新北市永和區竹林路166號","121.520343333333","25.0102783333333","6500400","永和區"
"234066","AAC-212","2017/12/18 13:09:45","新北市永和區永和路一段93號","121.513386666667","25.00752","6500400","永和區"
"234001","AAC-295","2017/12/18 13:09:27","新北市永和區中山路一段15號","121.513905","25.0103733333333","6500400","永和區"
"244001","248-BX","2017/12/18 13:09:39","新北市林口區中山路303號","121.383938333333","25.0804716666667","6501700","林口區"
"244025","837-TS","2017/12/18 09:39:25","新北市林口區粉寮路二段160巷28號","121.4052","25.0907233333333","6501700","林口區"
"243007","380-SR","2017/12/18 03:21:15","新北市泰山區犁頭窠3-1號","121.422185","25.0606033333333","6501600","泰山區"
"243005","646-TV","2017/12/18 13:09:50","新北市泰山區南林路89-4號","121.415516666667","25.0512266666667","6501600","泰山區"
"231025","0293-UT","2017/12/18 13:09:48","新北市新店區安華路28-1號","121.519671666667","24.96145","6500600","新店區"
"231028","046-UY","2017/12/18 13:09:43","新北市新店區安華路28-1號","121.519553333333","24.9608733333333","6500600","新店區"
"231030","047-UY","2017/12/18 13:09:41","新北市新店區安華路28-1號","121.519186666667","24.9609533333333","6500600","新店區"
"231029","106-UY","2017/12/18 13:09:53","新北市新店區安華路28-1號","121.519588333333","24.9608583333333","6500600","新店區"
"231018","107-UY","2017/12/18 13:09:35","新北市新店區安華路28-1號","121.519228333333","24.9612316666667","6500600","新店區"
"231011","108-UY","2017/12/18 13:09:51","新北市新店區安華路28-1號","121.519626666667","24.9609983333333","6500600","新店區"
"231019","187-VK","2017/12/18 13:09:47","新北市新店區安華路28-1號","121.519526666667","24.96115","6500600","新店區"
"231014","KEA-2219","2017/12/18 13:09:41","新北市新店區安華路28-1號","121.519665","24.961305","6500600","新店區"
"231026","256-BX","2017/12/18 13:09:47","新北市新店區安華路28-1號","121.519646666667","24.9611333333333","6500600","新店區"
"231010","278-BY","2017/12/18 13:09:38","新北市新店區安華路28-1號","121.519465","24.9613216666667","6500600","新店區"
"231023","AAD-862","2017/12/18 13:09:35","新北市新店區安華路28-1號","121.520013333333","24.9612733333333","6500600","新店區"
"231027","3712-VJ","2017/12/18 13:09:56","新北市新店區安華路28-1號","121.519335","24.960605","6500600","新店區"
"231024","4716-K9","2017/12/18 13:09:37","新北市新店區安華路28-1號","121.519328333333","24.96127","6500600","新店區"
"231038","4715-K9","2017/12/18 13:09:57","新北市新店區安華路28-1號","121.51948","24.9606333333333","6500600","新店區"
"231036","512-UM","2017/12/18 13:09:43","新北市新店區安華路28-1號","121.519366666667","24.9612433333333","6500600","新店區"
"231035","515-UM","2017/12/18 13:09:44","新北市新店區安華路28-1號","121.519605","24.9612883333333","6500600","新店區"
"231002","618-UM","2017/12/17 03:43:24","新北市新店區安華路28-1號","121.519423333333","24.9610783333333","6500600","新店區"
"231001","619-UM","2017/12/18 13:09:56","新北市新店區安華路28-1號","121.519708333333","24.9607183333333","6500600","新店區"
"231003","641-BX","2017/12/18 13:09:53","新北市新店區安華路28-1號","121.519551666667","24.96059","6500600","新店區"
"231034","645-TV","2017/12/18 13:09:46","新北市新店區安華路28-1號","121.519358333333","24.96062","6500600","新店區"
"231013","719-UM","2017/12/18 13:09:56","新北市新店區安華路28-1號","121.519498333333","24.961195","6500600","新店區"
"231005","897-TW","2017/12/18 13:09:49","新北市新店區安華路28-1號","121.519623333333","24.9606683333333","6500600","新店區"
"231006","898-TW","2017/12/18 13:09:45","新北市新店區安華路28-1號","121.519425","24.960895","6500600","新店區"
"231004","899-TW","2017/12/18 13:09:50","新北市新店區安華路28-1號","121.519218333333","24.9605816666667","6500600","新店區"
"235030","003-UY","2017/12/18 13:09:47","新北市中和區廣福路106號","121.50241","25.0012533333333","6500300","中和區"
"235003","097-UM","2017/12/18 13:09:58","新北市中和區中正路571巷2弄3號","121.486383333333","24.9937433333333","6500300","中和區"
"235004","150-BY","2017/12/18 13:09:39","新北市中和區和城路一段271巷1號","121.485941666667","24.9919433333333","6500300","中和區"
"235022","151-BY","2017/12/18 13:09:47","新北市中和區圓通路367巷58號","121.49218","24.98483","6500300","中和區"
"235002","185-VK","2017/12/18 13:09:52","新北市中和區大智街55巷1號","121.520815","24.992045","6500300","中和區"
"235031","255-BX","2017/12/18 13:09:46","新北市中和區新生街13巷7號","121.483631666667","25.004395","6500300","中和區"
"235036","301-VK","2017/12/18 13:09:53","新北市中和區員山路36巷13號","121.484056666667","24.9909716666667","6500300","中和區"
"235025","378-QA","2017/12/18 03:50:17","新北市中和區員山路36巷13號","121.484061666667","24.9915","6500300","中和區"
"235035","269-TV","2017/12/18 13:09:49","新北市中和區板南路520巷15號","121.48385","25.008915","6500300","中和區"
"235033","4980-A6","2017/12/18 13:09:47","新北市中和區中正路637巷52弄1號","121.4855","24.9934783333333","6500300","中和區"
"235006","551-UM","2017/12/18 13:09:57","新北市中和區景平路159巷56號","121.512908333333","24.9912033333333","6500300","中和區"
"235018","640-BX","2017/12/18 13:09:42","新北市土城區金城路三段257號","121.47184","24.99","6500300","中和區"
"235026","800-TS","2017/12/18 13:09:47","新北市中和區建一路85號","121.487915","25.0025333333333","6500300","中和區"
"235005","802-TS","2017/12/18 13:09:53","新北市中和區中正路277-6號","121.495146666667","24.9938333333333","6500300","中和區"
"235016","805-TS","2017/12/18 13:09:50","新北市中和區圓通路208號","121.495966666667","24.9939333333333","6500300","中和區"
"235015","157-BY","2017/12/18 13:09:46","新北市中和區南山路148號","121.504216666667","24.9922166666667","6500300","中和區"
"235001","AAC-213","2017/12/18 13:09:49","新北市中和區景平路155號","121.513541666667","24.9922216666667","6500300","中和區"
"253003","6232-TK","2017/12/18 13:09:56","新北市石門區石崩山27-7號","121.564386666667","25.2800133333333","6502200","石門區"
"253001","6251-TK","2017/12/18 13:09:43","新北市石門區老梅路43號","121.545315","25.2895466666667","6502200","石門區"
"253002","637-UY","2017/12/18 13:09:57","新北市石門區老崩山35號","121.556855","25.2765116666667","6502200","石門區"
"253004","8270-PC","2017/12/18 13:09:36","新北市石門區小坑20-1號","121.597135","25.280665","6502200","石門區"
"208004","AAC-292","2017/12/18 13:09:45","新北市金山區中山路192號","121.637866666667","25.2215166666667","6502700","金山區"
"207002","749-BX","2017/12/18 13:07:53","新北市萬里區溪底里香員林路7號","121.63282","25.1649166666667","6502800","萬里區"
"252005","073-UM","2017/12/18 13:09:50","新北市三芝區八賢里八連溪39-1號","121.512316666667","25.2376616666667","6502100","三芝區"
"207001","662-BX","2017/12/18 13:09:53","新北市萬里區萬里里瑪鋉路20號","121.688646666667","25.1768316666667","6502800","萬里區"
"236005","498-BY","2017/12/18 13:09:49","新北市土城區亞洲路58巷3弄2號","121.434766666667","24.9737383333333","6501300","土城區"
"238026","308-TH","2017/12/18 13:09:54","新北市樹林區東豐街49巷22弄15號","121.414531666667","24.9746983333333","6500700","樹林區"
