"lineid","car","time","location","longitude","latitude","cityid","cityname"
"234044","148-BY","2017/12/18 13:29:36","新北市永和區秀朗路二段251號","121.52631","24.9994466666667","6500400","永和區"
"234012","149-BY","2017/12/18 13:29:38","新北市永和區仁愛路100號","121.512156666667","25.0132633333333","6500400","永和區"
"234005","207-UY","2017/12/18 13:29:56","新北市永和區中山路一段197號","121.509025","25.00878","6500400","永和區"
"234078","298-R6","2017/12/18 13:26:33","新北市永和區福和路7巷10弄2號","121.525091666667","25.0081166666667","6500400","永和區"
"234036","336-UY","2017/12/18 13:29:43","新北市永和區成功路二段1巷12號","121.52754","25.00132","6500400","永和區"
"234062","337-UY","2017/12/18 13:29:49","新北市永和區得和路243巷31號","121.520755","25.0013616666667","6500400","永和區"
"234084","338-UY","2017/12/18 13:29:52","新北市永和區林森路65號","121.524173333333","25.0040133333333","6500400","永和區"
"234052","553-UM","2017/12/18 13:29:56","新北市永和區永和路二段168號","121.51549","25.0130033333333","6500400","永和區"
"234015","745-BX","2017/12/18 13:29:36","新北市永和區環河西路一段1號","121.51526","25.0180716666667","6500400","永和區"
"234028","746-BX","2017/12/18 13:29:43","新北市永和區民生路63號","121.522678333333","24.9973116666667","6500400","永和區"
"234060","AAD-866","2017/12/18 13:29:46","新北市永和區中正路532號","121.517273333333","25.0052416666667","6500400","永和區"
"234068","847-RS","2017/12/18 13:29:50","新北市永和區竹林路169號","121.520486666667","25.0100266666667","6500400","永和區"
"234040","862-TW","2017/12/18 13:29:53","新北市永和區中和路525號","121.511175","25.002955","6500400","永和區"
"234048","863-TW","2017/12/18 13:29:56","新北市永和區保福路二段116號","121.509953333333","25.0138166666667","6500400","永和區"
"234025","9371-KE","2017/12/18 13:29:45","新北市永和區永和路一段155-4號","121.514313333333","25.0094516666667","6500400","永和區"
"234010","9373-KE","2017/12/18 13:29:50","新北市永和區仁愛路141巷5弄6號","121.511978333333","25.0120033333333","6500400","永和區"
"248013","025-BX","2017/12/18 13:29:40","新北市五股區明德路9號","121.435","25.0711783333333","6501500","五股區"
"248015","026-BX","2017/12/18 13:29:47","新北市五股區凌雲路一段133巷11號","121.449318333333","25.101715","6501500","五股區"
"248005","077-UY","2017/12/18 13:29:57","新北市五股區四維路25號","121.467086666667","25.0706233333333","6501500","五股區"
"248007","095-VK","2017/12/18 13:29:38","新北市五股區中興路二段78-5號","121.461341666667","25.0786233333333","6501500","五股區"
"248019","225-UY","2017/12/18 13:29:51","新北市五股區孝義路90號","121.448898333333","25.1152883333333","6501500","五股區"
"248011","247-BX","2017/12/18 13:29:45","新北市五股區御成路43號","121.44166","25.0917833333333","6501500","五股區"
"248009","272-BY","2017/12/18 13:29:51","新北市五股區明德路12巷3號","121.433276666667","25.0718016666667","6501500","五股區"
"248003","677-BX","2017/12/18 13:29:54","新北市五股區工商路150號","121.433116666667","25.0873833333333","6501500","五股區"
"248001","678-BX","2017/12/18 13:29:49","新北市五股區西雲路168號","121.446848333333","25.094725","6501500","五股區"
"234022","9380-KE","2017/12/18 13:29:45","新北市永和區竹林路91巷45號","121.521321666667","25.0129","6500400","永和區"
"234076","969-R7","2017/12/18 13:29:48","新北市永和區智光街22號","121.518071666667","24.9992566666667","6500400","永和區"
"234072","AAC-211","2017/12/18 13:29:51","新北市永和區光復街60巷25號","121.51789","25.0175","6500400","永和區"
"234066","AAC-212","2017/12/18 13:29:45","新北市永和區保平路174巷1號","121.510361666667","25.007185","6500400","永和區"
"234001","AAC-295","2017/12/18 13:29:46","新北市永和區永和路一段118號","121.513943333333","25.0078133333333","6500400","永和區"
"244001","248-BX","2017/12/18 13:29:39","新北市林口區嘉寶里13鄰57-2號","121.339301666667","25.11788","6501700","林口區"
"244025","837-TS","2017/12/18 09:39:25","新北市林口區粉寮路二段160巷28號","121.4052","25.0907233333333","6501700","林口區"
"243007","380-SR","2017/12/18 03:21:15","新北市泰山區犁頭窠3-1號","121.422185","25.0606033333333","6501600","泰山區"
"243001","KEA-2216","2017/12/18 13:29:38","新北市泰山區黎明路37-2號","121.421845","25.05982","6501600","泰山區"
"243005","646-TV","2017/12/18 13:29:30","新北市泰山區錢厝坑13號","121.414043333333","25.04206","6501600","泰山區"
"231025","0293-UT","2017/12/18 13:29:48","新北市新店區中央七街61巷8號","121.528596666667","24.9763866666667","6500600","新店區"
"231028","046-UY","2017/12/18 13:29:43","新北市新店區安康路一段266巷4號","121.519826666667","24.964095","6500600","新店區"
"231030","047-UY","2017/12/18 13:29:41","新北市新店區安康路一段351-1號","121.519386666667","24.9639383333333","6500600","新店區"
"231029","106-UY","2017/12/18 13:29:53","新北市新店區安豐路49號","121.500161666667","24.954085","6500600","新店區"
"231018","107-UY","2017/12/18 13:29:55","新北市新店區中央路151號","121.52925","24.97208","6500600","新店區"
"231011","108-UY","2017/12/18 13:29:51","新北市新店區德正街21巷2號","121.543951666667","24.9720916666667","6500600","新店區"
"231019","187-VK","2017/12/18 13:29:47","新北市新店區永興路88-1號","121.544025","24.933745","6500600","新店區"
"231014","KEA-2219","2017/12/18 13:29:41","新北市新店區新烏路一段11巷7號","121.54729","24.9513","6500600","新店區"
"231026","256-BX","2017/12/18 13:29:47","新北市新店區北宜路一段6號","121.538216666667","24.957805","6500600","新店區"
"231010","278-BY","2017/12/18 13:29:38","新北市新店區三民路181號","121.535036666667","24.9752483333333","6500600","新店區"
"231023","AAD-862","2017/12/18 13:29:35","新北市新店區新店路13號","121.54027","24.9528416666667","6500600","新店區"
"231027","3712-VJ","2017/12/18 13:29:36","新北市新店區新店後街102號","121.537653333333","24.9552566666667","6500600","新店區"
"231024","4716-K9","2017/12/18 13:29:37","新北市新店區北新路二段29巷3弄1號","121.542185","24.9730583333333","6500600","新店區"
"231038","4715-K9","2017/12/18 13:29:37","新北市新店區安華路30巷1號","121.51956","24.9592716666667","6500600","新店區"
"231036","512-UM","2017/12/18 13:29:43","新北市新店區建業路90號","121.479641666667","24.9553733333333","6500600","新店區"
"231035","515-UM","2017/12/18 13:29:44","新北市新店區安華路28-1號","121.51967","24.9611616666667","6500600","新店區"
"231002","618-UM","2017/12/18 13:29:44","新北市新店區環河路60號","121.536975","24.9625316666667","6500600","新店區"
"231001","619-UM","2017/12/18 13:29:36","新北市新店區溪洲路55號","121.5335","24.9605333333333","6500600","新店區"
"231003","641-BX","2017/12/18 13:29:53","新北市新店區北新路一段96巷23號","121.54299","24.9688583333333","6500600","新店區"
"231034","645-TV","2017/12/18 13:29:46","新北市新店區車子路115-2號","121.505393333333","24.953195","6500600","新店區"
"231013","719-UM","2017/12/18 13:29:56","新北市新店區中正路454-5號","121.534418333333","24.9790633333333","6500600","新店區"
"231031","720-UM","2017/12/18 13:29:53","新北市新店區僑信路2巷2號","121.499783333333","24.9536916666667","6500600","新店區"
"231005","897-TW","2017/12/18 13:29:49","新北市新店區光明街151號","121.539433333333","24.962295","6500600","新店區"
"231006","898-TW","2017/12/18 13:29:45","新北市新店區秀山路14號","121.532656666667","24.9603433333333","6500600","新店區"
"231004","899-TW","2017/12/18 13:29:50","新北市新店區安康路一段9-2號","121.533651666667","24.9604866666667","6500600","新店區"
"231037","AKT-0513","2017/12/18 13:29:50","新北市新店區薏仁坑路28-3號","121.495526666667","24.9635083333333","6500600","新店區"
"235030","003-UY","2017/12/18 13:29:47","新北市中和區中山路二段116巷3弄7號","121.502391666667","25.0039333333333","6500300","中和區"
"235027","006-UY","2017/12/18 13:29:48","新北市中和區連城路347巷2弄2號","121.488","24.995925","6500300","中和區"
"235020","096-UM","2017/12/18 13:29:44","新北市中和區中山路二段479號","121.483061666667","25.0048683333333","6500300","中和區"
"235003","097-UM","2017/12/18 13:29:38","新北市中和區安和路43號","121.509638333333","24.9948483333333","6500300","中和區"
"235004","150-BY","2017/12/18 13:29:39","新北市中和區保健路50巷68號","121.509141666667","24.9951683333333","6500300","中和區"
"235022","151-BY","2017/12/18 13:29:47","新北市中和區圓通路369巷72號","121.490138333333","24.98219","6500300","中和區"
"235019","183-VK","2017/12/18 13:29:36","新北市中和區民享街245號","121.472095","24.9962266666667","6500300","中和區"
"235002","185-VK","2017/12/18 13:29:53","新北市中和區立人街14巷51號","121.518975","24.9955566666667","6500300","中和區"
"235013","186-VK","2017/12/18 13:29:51","新北市中和區景安路132巷5號","121.504905","24.99413","6500300","中和區"
"235031","255-BX","2017/12/18 13:29:46","新北市中和區新生街288號","121.483653333333","24.996565","6500300","中和區"
"235008","293-VK","2017/12/18 13:29:53","新北市中和區復興路301巷2弄1號","121.501493333333","24.989885","6500300","中和區"
"235036","301-VK","2017/12/18 13:29:53","新北市中和區錦和路91-1號","121.490015","24.9957416666667","6500300","中和區"
"235007","352-BY","2017/12/18 13:29:39","新北市中和區景平路305號","121.506553333333","24.9931033333333","6500300","中和區"
"235032","377-QA","2017/12/18 13:29:48","新北市中和區連勝街121巷18弄1號","121.495183333333","24.9943133333333","6500300","中和區"
"235025","378-QA","2017/12/18 13:29:49","新北市中和區民享街89巷4弄16號","121.475208333333","25.0009866666667","6500300","中和區"
"235035","269-TV","2017/12/18 13:29:49","新北市中和區中原街176號","121.484183333333","25.012905","6500300","中和區"
"235014","4979-A6","2017/12/18 13:29:55","新北市中和區景新街410巷18弄20號","121.511856666667","24.9898466666667","6500300","中和區"
"235033","4980-A6","2017/12/18 13:29:47","新北市中和區連城路127巷6弄2號","121.49643","24.998705","6500300","中和區"
"235006","551-UM","2017/12/18 13:29:37","新北市中和區自立路56巷19號","121.522626666667","24.9916583333333","6500300","中和區"
"235034","558-UM","2017/12/18 13:29:44","新北市中和區圓通路124號","121.498641666667","24.995875","6500300","中和區"
"235009","565-BX","2017/12/18 13:29:54","新北市中和區復興路43號","121.504923333333","24.989915","6500300","中和區"
"235018","640-BX","2017/12/18 13:29:42","新北市中和區民享街92號","121.474898333333","24.9998683333333","6500300","中和區"
"235024","647-TV","2017/12/18 13:29:50","新北市中和區員山路163號","121.481143333333","24.99668","6500300","中和區"
"235011","732-UM","2017/12/18 13:29:48","新北市中和區南山路523-1號","121.507913333333","24.98723","6500300","中和區"
"235026","800-TS","2017/12/18 13:29:50","新北市中和區景平路741號","121.496321666667","25.00449","6500300","中和區"
"235021","801-TS","2017/12/18 13:29:46","新北市中和區民安街111巷4弄3號","121.476346666667","24.9990283333333","6500300","中和區"
"235005","802-TS","2017/12/18 13:29:53","新北市中和區中和路324巷3弄2號","121.509988333333","25.000835","6500300","中和區"
"235016","805-TS","2017/12/18 13:29:50","新北市中和區興南路二段96號","121.504931666667","24.9839783333333","6500300","中和區"
"235012","896-TW","2017/12/18 13:29:41","新北市中和區錦和路350-1號","121.49052","24.9935733333333","6500300","中和區"
"235017","900-TW","2017/12/18 13:29:44","新北市中和區員山路36巷16-3號","121.485008333333","24.9917033333333","6500300","中和區"
"235029","911-UM","2017/12/18 13:29:53","新北市中和區莊敬路49巷10弄10號","121.50187","25.005395","6500300","中和區"
"235015","157-BY","2017/12/18 13:29:46","新北市中和區興南路二段142巷37弄1號","121.502243333333","24.9846233333333","6500300","中和區"
"235001","AAC-213","2017/12/18 13:29:49","新北市中和區景德街130號","121.51443","24.9909916666667","6500300","中和區"
"235023","AAC-215","2017/12/18 13:29:37","新北市中和區員山路36巷16-3號","121.485008333333","24.9911333333333","6500300","中和區"
"220016","013-TV","2017/12/18 13:29:35","新北市板橋區民生路二段120號","121.470373333333","25.0198283333333","6500100","板橋區"
"220013","072-UY","2017/12/18 13:29:36","新北市板橋區南雅南路二段120-11號","121.452131666667","24.9992866666667","6500100","板橋區"
"220034","073-UY","2017/12/18 13:29:51","新北市板橋區華東街260號","121.452661666667","25.0016616666667","6500100","板橋區"
"247003","336-TH","2017/12/18 13:29:53","新北市五股區新五路二段258號","121.440925","25.082205","6501400","蘆洲區"
"253003","6232-TK","2017/12/18 13:29:46","新北市石門區內石門85號","121.56912","25.2651366666667","6502200","石門區"
"253001","6251-TK","2017/12/18 13:29:43","新北市石門區下員坑33-2號","121.519481666667","25.2831666666667","6502200","石門區"
"253002","637-UY","2017/12/18 13:29:39","新北市石門區九芎林5-3號","121.5598","25.2683566666667","6502200","石門區"
"253004","8270-PC","2017/12/18 13:29:56","新北市石門區竹子湖1號","121.614828333333","25.2656683333333","6502200","石門區"
"208004","AAC-292","2017/12/18 13:29:45","新北市金山區南勢湖84號","121.613226666667","25.2121933333333","6502700","金山區"
"207002","749-BX","2017/12/18 13:29:53","新北市萬里區崁腳里崁腳路166號","121.644891666667","25.1559483333333","6502800","萬里區"
"252005","073-UM","2017/12/18 13:29:50","新北市三芝區圓山里八連溪頭8-1號","121.528331666667","25.2206833333333","6502100","三芝區"
"207001","662-BX","2017/12/18 13:29:53","新北市萬里區大鵬里萬里加投9號","121.652493333333","25.208885","6502800","萬里區"
"236005","498-BY","2017/12/18 13:29:49","新北市土城區亞洲路11巷1弄35號","121.436123333333","24.971985","6501300","土城區"
"220027","145-BY","2017/12/18 13:29:45","新北市板橋區華東街1-10號","121.44832","24.99508","6500100","板橋區"
"220028","200-UY","2017/12/18 13:29:36","新北市板橋區華東街1-10號","121.44837","24.994875","6500100","板橋區"
"220019","283-VK","2017/12/18 13:29:47","新北市板橋區華東街1-9號","121.448058333333","24.994905","6500100","板橋區"
"220031","286-VK","2017/12/18 13:29:41","新北市板橋區華東街1-10號","121.44832","24.9951","6500100","板橋區"
"220010","305-R5","2017/12/18 13:29:45","新北市板橋區民生路二段120號","121.47036","25.019755","6500100","板橋區"
"220012","486-VK","2017/12/18 13:29:52","新北市板橋區縣民大道一段288號","121.4611","25.0102","6500100","板橋區"
"220104","560-BX","2017/12/18 13:29:48","新北市板橋區林園街7號","121.453916666667","25.009245","6500100","板橋區"
"220011","609-BX","2017/12/18 00:24:08","新北市板橋區民生路二段161巷1號","121.469986666667","25.0199833333333","6500100","板橋區"
"220005","686-BX","2017/12/18 13:29:48","新北市板橋區華東街1-9號","121.448191666667","24.994905","6500100","板橋區"
"220025","687-BX","2017/12/18 13:29:50","新北市板橋區篤行路一段48號","121.431828333333","24.99365","6500100","板橋區"
"220002","741-BX","2017/12/18 13:29:49","新北市板橋區華東街1-9號","121.448171666667","24.9949183333333","6500100","板橋區"
"220022","895-R6","2017/12/18 13:29:35","新北市板橋區華東街1-10號","121.448825","24.994705","6500100","板橋區"
"220021","985-R7","2017/12/18 13:29:42","新北市板橋區華東街1-9號","121.448178333333","24.99499","6500100","板橋區"
"220018","AAC-253","2017/12/18 13:29:38","新北市板橋區華東街1-9號","121.448235","24.9948666666667","6500100","板橋區"
