"lineid","car","time","location","longitude","latitude","cityid","cityname"
"232002","290-BY","2017/12/19 06:39:49","新北市坪林區北宜路八段558號","121.71802","24.909085","6502000","坪林區"
"232013","291-BY","2017/12/19 06:39:44","新北市坪林區北宜路八段558號","121.717965","24.90914","6502000","坪林區"
"223006","022-BY","2017/12/19 06:39:50","新北市石碇區碇坪路一段18號","121.651581666667","25.003825","6501900","石碇區"
"223002","198-BX","2017/12/19 06:39:39","新北市石碇區碇坪路一段118號","121.658518333333","24.99133","6501900","石碇區"
"223008","406-TH","2017/12/19 06:39:50","新北市石碇區下橫坪15號","121.668926666667","24.9834516666667","6501900","石碇區"
"223001","437-BY","2017/12/19 06:39:43","新北市石碇區湳窟29號","121.66274","24.99198","6501900","石碇區"
"223007","661-BX","2017/12/19 06:39:42","新北市石碇區石崁14-1號","121.655405","24.9939366666667","6501900","石碇區"
"236008","165-UM","2017/12/19 06:39:53","新北市土城區永平街51號","121.42795","24.9591633333333","6501300","土城區"
"220080","461-BY","2017/12/19 06:39:53","新北市板橋區華東街328號","121.452838333333","25.0033683333333","6500100","板橋區"
