"lineid","car","time","location","longitude","latitude","cityid","cityname"
"248005","653-BX","2017/12/19 07:38:17","新北市五股區明德路12巷6號","121.433348333333","25.0718016666667","6501500","五股區"
"244002","248-BX","2017/12/19 07:39:38","桃園市蘆竹區坑子里貓尾崎10號","121.339503333333","25.083825","6501700","林口區"
"222004","289-BY","2017/12/19 07:20:03","新北市深坑區文化街39巷1號","121.618878333333","25.0011533333333","6501800","深坑區"
"231007","189-VK","2017/12/19 07:39:42","新北市新店區安華路28-1號","121.51935","24.9610616666667","6500600","新店區"
"226005","5620-A6","2017/12/19 07:39:40","新北市平溪區嶺腳里嶺腳寮66號","121.7474","25.0319016666667","6502400","平溪區"
"226002","7418-A5","2017/12/19 07:39:53","新北市平溪區平湖里大湖19-1號","121.780376666667","25.0225633333333","6502400","平溪區"
"226003","AGD-0702","2017/12/19 07:39:48","新北市平溪區嶺腳里嶺腳寮74號","121.747903333333","25.03223","6502400","平溪區"
"223006","022-BY","2017/12/19 07:39:41","新北市坪林區北宜路八段553號","121.716985","24.90957","6501900","石碇區"
"223002","198-BX","2017/12/19 07:39:38","新北市石碇區北宜路六段塗潭巷7號","121.646353333333","24.9336","6501900","石碇區"
"223008","406-TH","2017/12/19 07:39:46","新北市石碇區靜安路一段337號","121.69894","25.0146383333333","6501900","石碇區"
"223001","437-BY","2017/12/19 07:39:43","新北市石碇區四分子6-9號","121.662628333333","24.963","6501900","石碇區"
"223004","660-BX","2017/12/19 07:39:37","新北市石碇區八分寮47號","121.642263333333","25.01383","6501900","石碇區"
"223007","661-BX","2017/12/19 07:39:42","新北市石碇區靜安路一段337號","121.699","25.0145833333333","6501900","石碇區"
"223005","677-TV","2017/12/19 07:39:53","新北市石碇區八分寮47-1號","121.64249","25.0138733333333","6501900","石碇區"
"227006","282-VK","2017/12/19 07:39:52","新北市雙溪區雙溪里太平路54號","121.864753333333","25.035505","6502500","雙溪區"
"252004","249-BX","2017/12/19 07:39:51","新北市三芝區店子里店子52號","121.50289","25.2061433333333","6502100","三芝區"
"252007","AAC-283","2017/12/19 07:39:37","新北市三芝區古庄里茂興店63號","121.488761666667","25.2662116666667","6502100","三芝區"
"237001","159-UY","2017/12/19 07:39:47","新北市三峽區三樹路176號","121.378645","24.9412433333333","6500900","三峽區"
"236008","165-UM","2017/12/19 07:39:53","新北市土城區金城路三段19號","121.465078333333","24.9864666666667","6501300","土城區"
"236002","339-SR","2017/12/19 07:39:51","新北市土城區龍泉路89-3號","121.447108333333","24.9435","6501300","土城區"
"220080","461-BY","2017/12/19 07:39:53","新北市板橋區國光路51號","121.458145","25.0180216666667","6500100","板橋區"
