"lineid","car","time","location","longitude","latitude","cityid","cityname"
"232007","290-BY","2017/07/20 08:39:36","新北市坪林區九芎林32號","121.702615","24.9215533333333","6502000","坪林區"
"244012","069-UM","2017/07/20 08:39:47","新北市林口區中山路27號","121.395393333333","25.0782866666667","6501700","林口區"
"244006","080-UY","2017/07/20 08:39:42","新北市林口區竹林路77號","121.388266666667","25.0791733333333","6501700","林口區"
"244003","248-BX","2017/07/20 08:39:35","新北市林口區下福里147-4號","121.29929","25.1170083333333","6501700","林口區"
"244018","403-UM","2017/07/20 08:39:44","新北市林口區公園路126號","121.371075","25.0713066666667","6501700","林口區"
"244008","410-SL","2017/07/20 08:39:53","新北市林口區佳林路56巷23號","121.385365","25.08113","6501700","林口區"
"244022","483-VK","2017/07/20 08:39:50","新北市林口區興林路221巷9號","121.388916666667","25.0715866666667","6501700","林口區"
"244016","485-VK","2017/07/20 08:39:41","新北市林口區忠孝路504巷21號","121.369695","25.069665","6501700","林口區"
"244024","656-BX","2017/07/20 08:39:35","新北市林口區文化北路一段258號","121.359241666667","25.0718516666667","6501700","林口區"
"244020","657-BX","2017/07/20 08:39:35","新北市林口區自強二街49號","121.398988333333","25.0772733333333","6501700","林口區"
"244010","701-TV","2017/07/20 08:39:47","新北市林口區粉寮路一段41號","121.396401666667","25.0773766666667","6501700","林口區"
"222006","289-BY","2017/07/20 08:39:46","新北市深坑區大坪街11號","121.630701666667","25.0205983333333","6501800","深坑區"
"231069","189-VK","2017/07/20 08:39:43","新北市新店區新潭路三段81巷2號","121.505445","24.9101333333333","6500600","新店區"
"231008","192-VK","2017/07/20 08:39:40","新北市新店區新烏路三段3號","121.552401666667","24.9062216666667","6500600","新店區"
"235026","800-TS","2017/07/20 08:39:39","新北市中和區橋和路270號","121.495701666667","25.006605","6500300","中和區"
"247001","402-BY","2017/07/20 08:39:40","新北市蘆洲區復興路323巷139號","121.480591666667","25.0942866666667","6501400","蘆洲區"
"226005","5620-A6","2017/07/20 08:39:48","新北市平溪區十分里十分街96-2號","121.77666","25.0425566666667","6502400","平溪區"
"226002","7418-A5","2017/07/20 08:39:46","新北市平溪區東勢里芊蓁坑30號","121.727498333333","24.9791283333333","6502400","平溪區"
"226003","AGD-0702","2017/07/20 08:39:38","新北市平溪區新寮里石碣11號","121.78799","25.0573566666667","6502400","平溪區"
"223006","022-BY","2017/07/20 08:39:38","新北市石碇區雙溪79號","121.65799","25.0070283333333","6501900","石碇區"
"223002","198-BX","2017/07/20 08:30:12","新北市石碇區北宜路五段80號","121.646555","24.9517783333333","6501900","石碇區"
"223003","205-TH","2017/07/20 08:39:39","新北市石碇區北宜路六段小金瓜寮巷2-1號","121.655473333333","24.9358516666667","6501900","石碇區"
"223008","406-TH","2017/07/20 08:39:37","新北市石碇區番子坑78號","121.675731666667","25.0109666666667","6501900","石碇區"
"223001","437-BY","2017/07/20 08:39:13","新北市石碇區北宜路六段獅子頭坑巷6-1號","121.645163333333","24.9422533333333","6501900","石碇區"
"223004","660-BX","2017/07/20 08:39:43","新北市石碇區崩山26-1號","121.676791666667","24.9671616666667","6501900","石碇區"
"223007","661-BX","2017/07/20 08:39:52","新北市石碇區靜安路一段213號","121.673958333333","25.0094183333333","6501900","石碇區"
"223005","677-TV","2017/07/20 08:39:51","新北市石碇區崩山33-3號","121.67708","24.9655716666667","6501900","石碇區"
"253003","6232-TK","2017/07/20 08:39:17","新北市石門區石崩山20-7號","121.567658333333","25.2756216666667","6502200","石門區"
"253001","6251-TK","2017/07/20 08:39:38","新北市石門區白沙灣別墅5-1號","121.508951666667","25.2780833333333","6502200","石門區"
"253002","637-UY","2017/07/20 08:39:50","新北市石門區九芎林33-1號","121.565551666667","25.2576466666667","6502200","石門區"
"252004","249-BX","2017/07/20 08:39:41","新北市三芝區興華里田心子14-5號","121.49171","25.2061683333333","6502100","三芝區"
"252007","AAC-283","2017/07/20 08:39:39","新北市三芝區後厝里番子崙25號","121.483988333333","25.243345","6502100","三芝區"
"236009","165-UM","2017/07/20 08:39:49","新北市土城區石門路44號","121.45766","24.9637766666667","6501300","土城區"
"236003","339-SR","2017/07/20 08:39:47","新北市土城區大暖路110巷3號","121.419895","24.956745","6501300","土城區"
"236005","498-BY","2017/07/20 08:39:52","新北市土城區永寧路12-2號","121.430286666667","24.9636666666667","6501300","土城區"
"242020","AAC-296","2017/07/20 08:39:45","新北市新莊區新興街37巷2號","121.450706666667","25.0378716666667","6500500","新莊區"
"242028","986-R7","2017/07/20 08:39:51","新北市新莊區中平路181號","121.444701666667","25.0491166666667","6500500","新莊區"
"242022","705-TV","2017/07/20 08:39:46","新北市新莊區福壽街63號","121.458246666667","25.049255","6500500","新莊區"
"242024","615-BX","2017/07/20 08:39:50","新北市新莊區五工一路97巷3號","121.460426666667","25.0677216666667","6500500","新莊區"
"242022","613-BX","2017/07/20 08:39:40","新北市新莊區新泰路205號","121.447006666667","25.0382583333333","6500500","新莊區"
"242026","612-BX","2017/07/20 08:39:33","新北市新莊區中華路二段89號","121.452856666667","25.0492766666667","6500500","新莊區"
"242035","566-BX","2017/07/20 08:39:39","新北市新莊區後港一路49巷3弄10號","121.425141666667","25.0267833333333","6500500","新莊區"
"242040","497-BY","2017/07/20 08:39:36","新北市新莊區天祥街107巷31號","121.414633333333","25.02878","6500500","新莊區"
"242003","442-UM","2017/07/20 08:39:46","新北市新莊區中華路二段13號","121.453785","25.0455983333333","6500500","新莊區"
"242045","441-UM","2017/07/20 08:39:53","新北市新莊區福營路330號","121.421851666667","25.0268716666667","6500500","新莊區"
"242049","440-UM","2017/07/20 08:39:37","新北市新莊區西盛街131號","121.42828","25.0186766666667","6500500","新莊區"
"242030","415-TV","2017/07/20 08:39:51","新北市新莊區新泰路277巷57弄14號","121.442936666667","25.03986","6500500","新莊區"
"242001","413-TV","2017/07/20 08:39:38","新北市新莊區碧江街27-11號","121.452445","25.0332066666667","6500500","新莊區"
"242038","400-BY","2017/07/20 08:39:38","新北市新莊區民安路299巷55弄2號","121.42938","25.0239116666667","6500500","新莊區"
"242059","362-BY","2017/07/20 08:39:41","新北市新莊區後港一路24號","121.425191666667","25.025985","6500500","新莊區"
"242057","353-BY","2017/07/20 08:39:50","新北市新莊區中正路885號","121.417106666667","25.0249716666667","6500500","新莊區"
"242010","132-UY","2017/07/20 08:39:54","新北市新莊區中榮街32號","121.449778333333","25.05283","6500500","新莊區"
"242033","133-UY","2017/07/20 08:39:37","新北市新莊區景德路256號","121.448766666667","25.0337833333333","6500500","新莊區"
"242018","135-UY","2017/07/20 08:39:35","新北市新莊區長青街37巷22弄1號","121.456171666667","25.0411816666667","6500500","新莊區"
"242043","172-VK","2017/07/20 08:39:44","新北市新莊區天泉二街26巷1號","121.41448","25.0256433333333","6500500","新莊區"
"242006","173-VK","2017/07/20 08:39:36","新北市新莊區新北大道三段5號","121.458563333333","25.0602833333333","6500500","新莊區"
"242012","175-VK","2017/07/20 08:39:52","新北市新莊區中誠街86號","121.450245","25.0478566666667","6500500","新莊區"
"242055","176-VK","2017/07/20 08:39:45","新北市新莊區豐年街53巷48號","121.447856666667","25.031845","6500500","新莊區"
"242047","347-TH","2017/07/20 08:39:50","新北市新莊區民安路37巷1號","121.423783333333","25.0268283333333","6500500","新莊區"
"242016","348-TH","2017/07/20 08:39:50","新北市新莊區中安街27號","121.452636666667","25.0463933333333","6500500","新莊區"
"242052","349-TH","2017/07/20 08:39:47","新北市新莊區民安西路400號","121.428756666667","25.0101783333333","6500500","新莊區"
"242014","350-TH","2017/07/20 08:39:45","新北市新莊區中平路198巷9號","121.44559","25.048495","6500500","新莊區"
"242008","351-TH","2017/07/20 08:39:47","新北市新莊區昌盛街35巷2弄1號","121.45417","25.050365","6500500","新莊區"
"220005","686-BX","2017/07/20 08:31:56","新北市板橋區溪城路90-2號","121.42914","24.9802916666667","6500100","板橋區"
