"lineid","car","time","location","longitude","latitude","cityid","cityname"
"234044","148-BY","2017/07/20 13:49:47","新北市永和區永元路118號","121.522703333333","25.002565","6500400","永和區"
"234012","149-BY","2017/07/20 13:49:43","新北市永和區仁愛路240號","121.508243333333","25.01163","6500400","永和區"
"234005","207-UY","2017/07/20 13:49:38","新北市永和區永和路一段84號","121.513093333333","25.006635","6500400","永和區"
"234078","298-R6","2017/07/20 13:49:46","新北市永和區林森路101巷4號","121.523241666667","25.0035183333333","6500400","永和區"
"234036","336-UY","2017/07/20 13:49:40","新北市永和區成功路二段141號","121.526686666667","24.9978566666667","6500400","永和區"
"234062","337-UY","2017/07/20 13:49:51","新北市永和區中正路368巷30號","121.519106666667","25.0006483333333","6500400","永和區"
"234084","338-UY","2017/07/20 13:49:47","新北市永和區永亨路107號","121.523405","25.004705","6500400","永和區"
"234068","552-UM","2017/07/20 13:49:39","新北市永和區國光路14號","121.519036666667","25.0083233333333","6500400","永和區"
"234052","553-UM","2017/07/20 13:49:39","新北市永和區竹林路39巷28弄1號","121.5194","25.0149083333333","6500400","永和區"
"234015","745-BX","2017/07/20 13:49:40","新北市永和區永和路二段278號","121.516016666667","25.01536","6500400","永和區"
"234028","746-BX","2017/07/20 13:49:52","新北市永和區民生路22巷33號","121.520905","24.9968583333333","6500400","永和區"
"234060","AAD-866","2017/07/20 13:49:40","新北市永和區中正路164號","121.515073333333","24.996585","6500400","永和區"
"234040","862-TW","2017/07/20 13:49:54","新北市永和區中和路305巷20弄2號","121.507791666667","25.0018533333333","6500400","永和區"
"234048","863-TW","2017/07/20 13:49:50","新北市永和區保安路77號","121.508621666667","25.0148483333333","6500400","永和區"
"234010","9373-KE","2017/07/20 13:49:45","新北市永和區保安路292號","121.505023333333","25.0117883333333","6500400","永和區"
"248015","026-BX","2017/07/20 13:49:42","新北市五股區凌雲路一段133巷13號","121.449258333333","25.101595","6501500","五股區"
"248007","095-VK","2017/07/20 13:49:52","新北市五股區中興路一段132號","121.46522","25.0735816666667","6501500","五股區"
"248017","225-UY","2017/07/20 13:49:40","新北市五股區民義路二段22巷35-2號","121.424218333333","25.100535","6501500","五股區"
"248011","247-BX","2017/07/18 21:13:34","新北市五股區中興路二段161號","121.457565","25.07699","6501500","五股區"
"248013","261-SL","2017/07/20 13:49:40","新北市五股區民義路一段107巷32號","121.432375","25.0847066666667","6501500","五股區"
"248009","272-BY","2017/07/20 13:49:50","新北市五股區水碓七路81號","121.429711666667","25.0722316666667","6501500","五股區"
"248003","677-BX","2017/07/20 13:49:42","新北市五股區民義路二段50-29號","121.412213333333","25.1028416666667","6501500","五股區"
"248001","678-BX","2017/07/20 13:49:53","新北市五股區成泰路三段521號","121.451516666667","25.1006633333333","6501500","五股區"
"234022","9380-KE","2017/07/20 13:49:54","新北市永和區永和路二段105號","121.514888333333","25.01188","6500400","永和區"
"234076","969-R7","2017/07/20 13:49:49","新北市永和區民權路32號","121.520205","24.9989883333333","6500400","永和區"
"234072","AAC-211","2017/07/20 13:49:43","新北市永和區豫溪街215巷22號","121.523921666667","25.0101","6500400","永和區"
"234066","AAC-212","2017/07/20 13:49:52","新北市永和區保平路50巷8弄2號","121.511146666667","25.0075","6500400","永和區"
"234001","AAC-295","2017/07/20 13:49:38","新北市永和區永和路一段118號","121.51396","25.0078083333333","6500400","永和區"
"244003","248-BX","2017/07/20 13:49:45","新北市林口區瑞樹坑34-8號","121.351526666667","25.1296333333333","6501700","林口區"
"243005","AAD-798","2017/07/20 13:49:50","新北市泰山區明志路三段206巷8號","121.423306666667","25.038045","6501600","泰山區"
"243007","380-SR","2017/07/20 13:49:42","新北市泰山區美寧街54號","121.430485","25.0644916666667","6501600","泰山區"
"243006","421-VK","2017/07/20 09:14:05","新北市泰山區黎明路25號","121.422125","25.060645","6501600","泰山區"
"243002","548-UM","2017/07/20 13:49:41","新北市泰山區明志路一段376號","121.43063","25.0576366666667","6501600","泰山區"
"243003","549-UM","2017/07/20 13:49:37","新北市泰山區明志路二段214巷16弄2號","121.426841666667","25.0491333333333","6501600","泰山區"
"243004","646-TV","2017/07/20 13:49:55","新北市泰山區福興三街13號","121.434458333333","25.057805","6501600","泰山區"
"243008","680-BX","2017/07/20 13:49:53","新北市泰山區明志路二段135號","121.427761666667","25.0507083333333","6501600","泰山區"
"231002","002-UM","2017/07/20 13:49:54","新北市新店區溪園路245-6號","121.525231666667","24.9831566666667","6500600","新店區"
"231025","0293-UT","2017/07/20 13:49:43","新北市新店區中央六街56號","121.527985","24.9757666666667","6500600","新店區"
"231028","046-UY","2017/07/20 13:49:50","新北市新店區安和路三段12號","121.517936666667","24.9810483333333","6500600","新店區"
"231030","047-UY","2017/07/20 13:49:41","新北市新店區安康路一段134號","121.526691666667","24.96278","6500600","新店區"
"231029","106-UY","2017/07/20 13:49:53","新北市新店區安康路二段125-1號","121.512353333333","24.9609533333333","6500600","新店區"
"231018","107-UY","2017/07/20 13:49:45","新北市新店區中正路400巷22號","121.5352","24.9782433333333","6500600","新店區"
"231011","108-UY","2017/07/20 13:49:51","新北市新店區德正街45號","121.545128333333","24.971115","6500600","新店區"
"231021","187-VK","2017/07/20 13:49:39","新北市新店區新烏路二段1號","121.543393333333","24.9298866666667","6500600","新店區"
"231007","189-VK","2017/07/20 12:02:48","新北市新店區安華路28-1號","121.519613333333","24.960945","6500600","新店區"
"231026","256-BX","2017/07/20 13:49:40","新北市新店區三民路149-1號","121.533886666667","24.9732216666667","6500600","新店區"
"231010","278-BY","2017/07/20 13:49:46","新北市新店區平等街17號","121.536851666667","24.9738633333333","6500600","新店區"
"231017","AAD-862","2017/07/20 13:49:50","新北市新店區竹林路72巷1號","121.553753333333","24.9510616666667","6500600","新店區"
"231027","3712-VJ","2017/07/20 13:49:53","新北市新店區北宜路一段41號","121.538186666667","24.95718","6500600","新店區"
"231024","3713-VJ","2017/07/20 13:47:37","新北市新店區中華路47巷9號","121.53969","24.967425","6500600","新店區"
"231038","4715-K9","2017/07/20 13:49:58","新北市新店區安康路一段323-1號","121.521831666667","24.9635716666667","6500600","新店區"
"231036","512-UM","2017/07/20 13:49:37","新北市新店區安祥路110巷19號","121.473825","24.956155","6500600","新店區"
"231023","513-UM","2017/07/20 13:49:40","新北市新店區國校路20-1號","121.537881666667","24.9550266666667","6500600","新店區"
"231035","515-UM","2017/07/20 13:49:53","新北市新店區安忠路57巷7弄2號","121.513415","24.9585716666667","6500600","新店區"
"231001","619-UM","2017/07/20 13:49:37","新北市新店區三民路64號","121.535093333333","24.97229","6500600","新店區"
"231003","641-BX","2017/07/20 13:49:49","新北市新店區中興路一段160號","121.542656666667","24.9639716666667","6500600","新店區"
"231034","645-TV","2017/07/20 13:49:43","新北市新店區達觀路16號","121.503076666667","24.9407733333333","6500600","新店區"
"231013","719-UM","2017/07/20 13:49:39","新北市新店區二十張路25巷16號","121.539233333333","24.982","6500600","新店區"
"231031","720-UM","2017/07/20 13:49:40","新北市新店區莒光路44巷21弄11-3號","121.518446666667","24.95216","6500600","新店區"
"231005","897-TW","2017/07/20 13:49:48","新北市新店區寶中路103號","121.548995","24.9802583333333","6500600","新店區"
"231006","898-TW","2017/07/20 13:49:50","新北市新店區北宜路一段188號","121.54097","24.9529616666667","6500600","新店區"
"231004","899-TW","2017/07/20 13:49:41","新北市新店區寶橋路98號","121.54687","24.97577","6500600","新店區"
"231037","AKT-0513","2017/07/20 13:49:46","新北市新店區安康路二段387-1號","121.49461","24.9543616666667","6500600","新店區"
"235030","003-UY","2017/07/20 13:49:41","新北市中和區水源路7巷4號","121.50406","25.0035633333333","6500300","中和區"
"235028","005-UY","2017/07/20 13:49:51","新北市中和區連城路89巷36號","121.49748","24.998815","6500300","中和區"
"235027","006-UY","2017/07/20 13:49:49","新北市中和區連城路268-7號","121.48656","24.996285","6500300","中和區"
"235020","096-UM","2017/07/20 13:49:43","新北市中和區中正路1192號","121.480456666667","25.010315","6500300","中和區"
"235003","097-UM","2017/07/20 13:49:37","新北市中和區大勇街29巷23弄1號","121.515456666667","24.9946316666667","6500300","中和區"
"235029","098-UM","2017/07/20 13:49:52","新北市中和區中山路二段2巷13弄20號","121.502785","25.0065033333333","6500300","中和區"
"235001","150-BY","2017/07/20 13:49:38","新北市中和區安平路55號","121.50942","24.9954316666667","6500300","中和區"
"235022","151-BY","2017/07/20 13:49:40","新北市中和區連城路532巷3-1號","121.475483333333","24.9918333333333","6500300","中和區"
"235019","183-VK","2017/07/20 13:49:47","新北市中和區德光路77巷6弄2號","121.469828333333","25.003465","6500300","中和區"
"235002","185-VK","2017/07/20 13:49:47","新北市中和區自強路62巷12號","121.519415","24.9945766666667","6500300","中和區"
"235013","186-VK","2017/07/20 13:49:48","新北市中和區景安路177巷19號","121.506111666667","24.9943416666667","6500300","中和區"
"235031","255-BX","2017/07/20 13:49:42","新北市中和區新生街220巷1弄5號","121.483356666667","24.9982883333333","6500300","中和區"
"235008","293-VK","2017/07/20 13:49:36","新北市中和區復興路280巷18弄6號","121.502315","24.9915716666667","6500300","中和區"
"235036","301-VK","2017/07/20 13:49:49","新北市中和區中山路二段133號","121.502313333333","25.003145","6500300","中和區"
"235007","352-BY","2017/07/20 13:49:44","新北市中和區成功路139號","121.525841666667","24.9904983333333","6500300","中和區"
"235015","376-QA","2017/07/20 13:49:53","新北市中和區華新街109巷11弄3-10號","121.508895","24.97981","6500300","中和區"
"235032","377-QA","2017/07/20 13:49:43","新北市中和區中正路211巷38號","121.497818333333","24.9926216666667","6500300","中和區"
"235025","378-QA","2017/07/20 13:49:51","新北市中和區民治街128巷1號","121.47515","25.00291","6500300","中和區"
"235014","4979-A6","2017/07/20 13:49:45","新北市中和區忠孝街58巷6號","121.511596666667","24.9833566666667","6500300","中和區"
"235033","4980-A6","2017/07/20 13:49:38","新北市中和區南山路52巷21號","121.501163333333","24.99721","6500300","中和區"
"235006","551-UM","2017/07/20 13:49:41","新北市中和區秀朗路三段70巷52號","121.524915","24.99434","6500300","中和區"
"235009","565-BX","2017/07/20 13:49:35","新北市中和區南山路208巷1弄4號","121.50591","24.9900283333333","6500300","中和區"
"235034","611-BX","2017/07/20 13:49:52","新北市中和區南華路69號","121.504645","24.99738","6500300","中和區"
"235018","640-BX","2017/07/20 13:49:45","新北市中和區民享街48號","121.474005","25.0026966666667","6500300","中和區"
"235024","647-TV","2017/07/20 13:49:42","新北市中和區中山路三段141號","121.47398","25.0061216666667","6500300","中和區"
"235011","732-UM","2017/07/20 13:49:42","新北市中和區興南路二段92號","121.505336666667","24.9845116666667","6500300","中和區"
"235010","733-UM","2017/07/20 13:49:43","新北市中和區仁愛街36巷42號","121.51131","24.9863833333333","6500300","中和區"
"235035","783-BX","2017/07/20 13:49:51","新北市中和區中山路二段486號","121.487666666667","25.0053866666667","6500300","中和區"
"235026","800-TS","2017/07/20 13:49:49","新北市中和區景平路703巷3號","121.49615","25.0034366666667","6500300","中和區"
"235021","801-TS","2017/07/20 13:49:42","新北市中和區民安街4號","121.480926666667","25.001085","6500300","中和區"
"235005","802-TS","2017/07/20 13:49:42","新北市中和區中和路400巷21號","121.511686666667","25.002285","6500300","中和區"
"235016","805-TS","2017/07/20 13:49:41","新北市中和區興南路二段399巷86號","121.500055","24.9783866666667","6500300","中和區"
"235012","896-TW","2017/07/20 13:49:46","新北市中和區南山路391號","121.506576666667","24.9902366666667","6500300","中和區"
"235017","900-TW","2017/07/20 13:49:44","新北市中和區華福街18號","121.465821666667","24.9967616666667","6500300","中和區"
"235023","911-UM","2017/07/20 13:49:37","新北市中和區錦和路350-1號","121.490463333333","24.993745","6500300","中和區"
"235001","AAC-213","2017/07/20 13:49:40","新北市中和區景平路151巷59號","121.514791666667","24.9902033333333","6500300","中和區"
"235023","AAC-215","2017/07/20 13:45:06","新北市中和區員山路36巷16-3號","121.485005","24.991585","6500300","中和區"
"220016","013-TV","2017/07/20 13:49:49","新北市板橋區民生路二段48號","121.472368333333","25.0176866666667","6500100","板橋區"
"220013","072-UY","2017/07/20 13:49:46","新北市板橋區民生路二段36-1號","121.47254","25.01682","6500100","板橋區"
"220034","073-UY","2017/07/20 13:49:24","新北市板橋區大智街71巷15號","121.452933333333","25.014305","6500100","板橋區"
"220105","075-UY","2017/07/20 13:49:39","新北市板橋區民生路二段120號","121.470388333333","25.019715","6500100","板橋區"
"247001","402-BY","2017/07/20 13:49:48","新北市三重區三德街66號","121.483923333333","25.0867016666667","6501400","蘆洲區"
"247005","341-TH","2017/07/20 13:49:42","新北市蘆洲區和平路77號","121.469291666667","25.0790216666667","6501400","蘆洲區"
"247007","339-TH","2017/07/20 13:49:42","新北市蘆洲區集賢路255號","121.481453333333","25.0847","6501400","蘆洲區"
"247013","057-VK","2017/07/20 13:49:44","新北市蘆洲區中正路102號","121.469775","25.0843866666667","6501400","蘆洲區"
"247003","056-VK","2017/07/20 13:49:56","新北市蘆洲區長安街108巷5弄18號","121.460876666667","25.082335","6501400","蘆洲區"
"247015","001-UY","2017/07/20 13:49:44","新北市蘆洲區光華路31號","121.469146666667","25.0831516666667","6501400","蘆洲區"
"228005","097-TW","2017/07/20 13:49:46","新北市貢寮區美豐里土地公嶺10號","121.888965","25.05819","6502600","貢寮區"
"228004","212-TW","2017/07/20 13:32:16","新北市貢寮區龍崗里石壁坑街23號","121.912406666667","24.9957883333333","6502600","貢寮區"
"228005","828-UM","2017/07/20 11:56:01","新北市貢寮區貢寮里朝陽街1-2號","121.912343333333","25.0212283333333","6502600","貢寮區"
"208004","AAC-292","2017/07/20 13:49:47","新北市金山區山城路10巷34弄17號","121.59527","25.1984633333333","6502700","金山區"
"207002","749-BX","2017/07/20 13:49:51","新北市萬里區崁腳里崁腳路167號","121.645396666667","25.1555166666667","6502800","萬里區"
"207001","463-BY","2017/07/20 13:49:48","新北市萬里區磺潭里清水18號","121.637828333333","25.1977166666667","6502800","萬里區"
"252005","AAC-283","2017/07/20 13:49:48","新北市三芝區圓山里內柑宅25-2號","121.538303333333","25.2269666666667","6502100","三芝區"
"236066","105-UM","2017/07/20 13:49:48","新北市土城區城林路6巷80號","121.438293333333","24.9797733333333","6501300","土城區"
"236040","107-UM","2017/07/20 13:49:50","新北市土城區中華路二段2號","121.439401666667","24.9796166666667","6501300","土城區"
"236076","166-UM","2017/07/20 13:49:22","新北市土城區永寧路20號","121.429841666667","24.9615933333333","6501300","土城區"
"236028","253-BX","2017/07/20 13:49:49","新北市土城區員福街10號","121.441683333333","24.9785266666667","6501300","土城區"
"236024","269-VK","2017/07/20 13:49:47","新北市土城區城林路6巷80號","121.43827","24.9797566666667","6501300","土城區"
"236012","270-VK","2017/07/20 13:49:48","新北市土城區城林路6巷80號","121.43808","24.97952","6501300","土城區"
"236033","271-VK","2017/07/20 13:49:48","新北市土城區城林路6巷80號","121.438605","24.97973","6501300","土城區"
"236018","401-BY","2017/07/20 13:49:53","新北市土城區城林路6巷80號","121.438556666667","24.9797466666667","6501300","土城區"
"236005","498-BY","2017/07/20 13:49:50","新北市土城區中華路二段128號","121.43768","24.9735116666667","6501300","土城區"
"236056","912-UM","2017/07/20 13:49:54","新北市土城區城林路6巷80號","121.438311666667","24.97971","6501300","土城區"
"236047","913-UM","2017/07/20 13:49:43","新北市土城區城林路6巷80號","121.438376666667","24.97971","6501300","土城區"
"236060","915-UM","2017/07/20 13:49:45","新北市土城區城林路6巷80號","121.438411666667","24.97977","6501300","土城區"
"236052","AAC-216","2017/07/20 13:49:46","新北市土城區城林路6巷80號","121.438405","24.9797516666667","6501300","土城區"
"221002","753-BX","2017/07/20 13:49:47","新北市汐止區福德一路226巷2號","121.633653333333","25.065625","6501100","汐止區"
"220027","145-BY","2017/07/20 13:49:38","新北市板橋區中正路170號","121.456465","25.0170616666667","6500100","板橋區"
"220028","200-UY","2017/07/20 13:49:51","新北市板橋區大觀路二段265巷128號","121.4423","24.996225","6500100","板橋區"
"220030","610-BX","2017/07/20 13:49:49","新北市板橋區篤行路三段玉平巷37號","121.428908333333","24.9869816666667","6500100","板橋區"
"220050","245-BX","2017/07/18 21:31:59","新北市板橋區民生路二段120號","121.47051","25.0194683333333","6500100","板橋區"
"220017","258-TC","2017/07/20 13:49:35","新北市板橋區觀光街2-1號","121.472345","25.0154","6500100","板橋區"
"220004","276-BY","2017/07/20 13:49:40","新北市板橋區四川路二段31號","121.454381666667","24.9955783333333","6500100","板橋區"
"220020","277-BY","2017/07/20 13:49:54","新北市板橋區金門街25巷16號","121.434085","24.9942116666667","6500100","板橋區"
"220012","280-UM","2017/07/20 13:49:53","新北市板橋區民生路二段5號","121.472798333333","25.01588","6500100","板橋區"
"220019","283-VK","2017/07/20 13:49:44","新北市板橋區民生路二段15號","121.472601666667","25.0160866666667","6500100","板橋區"
"220043","285-UM","2017/07/20 13:49:51","新北市板橋區民生路二段161巷1號","121.470241666667","25.019915","6500100","板橋區"
"220001","285-VK","2017/07/20 13:49:39","新北市板橋區永豐街49巷36號","121.472538333333","25.0174766666667","6500100","板橋區"
"220031","286-VK","2017/07/20 13:49:44","新北市板橋區大觀路二段20巷3號","121.445336666667","25.0036716666667","6500100","板橋區"
"220029","287-VK","2017/07/20 13:49:46","新北市板橋區南雅西路二段177號","121.451891666667","25.0125466666667","6500100","板橋區"
"220039","288-VK","2017/07/20 13:49:45","新北市板橋區民生路二段120號","121.470311666667","25.0196983333333","6500100","板橋區"
"220009","293-UM","2017/07/20 13:49:42","新北市板橋區民生路二段74號","121.471956666667","25.0182133333333","6500100","板橋區"
"220032","296-UM","2017/07/20 13:49:51","新北市板橋區大觀路二段150巷77號","121.441435","25.00117","6500100","板橋區"
"220023","297-UM","2017/07/20 13:49:49","新北市板橋區大觀路一段28巷104號","121.450135","25.0110716666667","6500100","板橋區"
"220010","303-R5","2017/07/20 13:49:37","新北市板橋區中山路二段23號","121.472368333333","25.0153016666667","6500100","板橋區"
"220041","307-R5","2017/07/20 13:49:39","新北市板橋區民生路二段120號","121.470465","25.0196616666667","6500100","板橋區"
"220047","317-R6","2017/07/20 13:49:37","新北市板橋區民生路二段120號","121.470683333333","25.0200166666667","6500100","板橋區"
"220038","487-VK","2017/07/20 13:49:53","新北市板橋區民生路二段120號","121.470501666667","25.019525","6500100","板橋區"
"220037","491-VK","2017/07/20 13:49:55","新北市板橋區民生路二段161巷1號","121.470115","25.0199366666667","6500100","板橋區"
"220104","560-BX","2017/07/20 13:49:52","新北市板橋區中正路325巷49號","121.452931666667","25.0185283333333","6500100","板橋區"
"220052","561-BX","2017/07/20 13:49:40","新北市板橋區民生路二段161巷3號","121.470195","25.0198283333333","6500100","板橋區"
"220011","609-BX","2017/07/20 13:49:52","新北市板橋區民生路二段36-1號","121.472408333333","25.0168583333333","6500100","板橋區"
"220040","637-BX","2017/07/20 13:49:42","新北市板橋區民生路二段120號","121.470453333333","25.0197333333333","6500100","板橋區"
"220005","686-BX","2017/07/20 13:49:40","新北市板橋區民生路二段36-1號","121.472216666667","25.0166666666667","6500100","板橋區"
"220025","687-BX","2017/07/20 13:49:43","新北市板橋區金門街64號","121.433341666667","24.9929466666667","6500100","板橋區"
"220042","689-BX","2017/07/20 13:49:52","新北市板橋區民生路二段161巷1號","121.470136666667","25.0198433333333","6500100","板橋區"
"220002","741-BX","2017/07/20 13:49:53","新北市板橋區觀光街2-4號","121.472226666667","25.0154866666667","6500100","板橋區"
"220003","827-TW","2017/07/20 13:49:41","新北市板橋區民生路二段17號","121.472653333333","25.01647","6500100","板橋區"
"220014","829-TW","2017/07/20 13:49:55","新北市板橋區民生路二段15號","121.472568333333","25.0160033333333","6500100","板橋區"
"220051","830-TW","2017/07/20 13:49:51","新北市板橋區民生路二段32號","121.472723333333","25.01722","6500100","板橋區"
"220045","831-TW","2017/07/20 01:44:05","新北市板橋區民生路二段120號","121.470515","25.01963","6500100","板橋區"
"220022","895-R6","2017/07/20 13:49:52","新北市板橋區府中路37號","121.458653333333","25.008965","6500100","板橋區"
"220021","985-R7","2017/07/20 13:49:46","新北市板橋區館前西路88號","121.45748","25.0072383333333","6500100","板橋區"
"220046","AAC-210","2017/07/20 13:49:48","新北市板橋區民生路二段161巷1號","121.470126666667","25.019915","6500100","板橋區"
"220018","AAC-253","2017/07/20 13:49:48","新北市板橋區民生路二段56-1號","121.472225","25.0169616666667","6500100","板橋區"
