"lineid","car","time","location","longitude","latitude","cityid","cityname"
"234044","148-BY","2017/07/20 13:59:47","新北市永和區永利路354巷2號","121.525818333333","25.0033183333333","6500400","永和區"
"234012","149-BY","2017/07/20 13:59:43","新北市永和區永平路316號","121.507","25.0126933333333","6500400","永和區"
"234005","207-UY","2017/07/20 13:59:39","新北市中和區中和路380號","121.51076","25.0020666666667","6500400","永和區"
"234078","298-R6","2017/07/20 13:59:46","新北市永和區國中路12號","121.524363333333","25.0049833333333","6500400","永和區"
"234036","336-UY","2017/07/20 13:59:40","新北市永和區成功路一段114號","121.526713333333","25.002485","6500400","永和區"
"234062","337-UY","2017/07/20 13:59:51","新北市永和區秀朗路一段196巷10號","121.51974","25.00263","6500400","永和區"
"234084","338-UY","2017/07/20 13:59:47","新北市永和區福和路243號","121.518208333333","25.0073933333333","6500400","永和區"
"234068","552-UM","2017/07/20 13:59:39","新北市永和區福和路183巷1號","121.520005","25.0073716666667","6500400","永和區"
"234052","553-UM","2017/07/20 13:59:39","新北市永和區竹林路39巷30號","121.519571666667","25.0150116666667","6500400","永和區"
"234015","745-BX","2017/07/20 13:59:40","新北市永和區文化路121巷1號","121.512498333333","25.015165","6500400","永和區"
"234028","746-BX","2017/07/20 13:59:54","新北市永和區民權路49巷23號","121.521278333333","24.9974166666667","6500400","永和區"
"234060","AAD-866","2017/07/20 13:59:46","新北市永和區得和路47號","121.516626666667","25.0002283333333","6500400","永和區"
"234040","862-TW","2017/07/20 13:59:47","新北市永和區中和路335巷18弄2號","121.507611666667","25.000185","6500400","永和區"
"234048","863-TW","2017/07/20 13:59:50","新北市永和區保安路254號","121.506271666667","25.012585","6500400","永和區"
"234025","9371-KE","2017/07/20 13:59:55","新北市永和區安樂路453號","121.5143","25.0050383333333","6500400","永和區"
"234010","9373-KE","2017/07/20 13:59:45","新北市永和區仁愛路352巷106號","121.500653333333","25.00809","6500400","永和區"
"248015","026-BX","2017/07/20 13:59:42","新北市五股區成泰路三段543巷12弄11號","121.451286666667","25.102395","6501500","五股區"
"248007","095-VK","2017/07/20 13:59:52","新北市五股區中興路一段118巷6弄7號","121.466296666667","25.07441","6501500","五股區"
"248017","225-UY","2017/07/20 13:59:40","新北市五股區民義路一段251號","121.428061666667","25.0908516666667","6501500","五股區"
"248011","247-BX","2017/07/18 21:13:34","新北市五股區中興路二段161號","121.457565","25.07699","6501500","五股區"
"248009","272-BY","2017/07/20 13:59:50","新北市五股區水碓一路23號","121.430663333333","25.071325","6501500","五股區"
"248003","677-BX","2017/07/20 13:59:42","新北市五股區民義路二段54-3號","121.407816666667","25.1063333333333","6501500","五股區"
"248001","678-BX","2017/07/20 13:59:44","新北市五股區凌雲路一段158巷6號","121.448118333333","25.1027","6501500","五股區"
"234022","9380-KE","2017/07/20 13:59:54","新北市永和區永和路二段267號","121.515846666667","25.015405","6500400","永和區"
"234076","969-R7","2017/07/20 13:59:49","新北市永和區民權路56號","121.519978333333","24.9982616666667","6500400","永和區"
"234072","AAC-211","2017/07/20 13:59:52","新北市永和區竹林路179巷34號","121.522018333333","25.0099383333333","6500400","永和區"
"234066","AAC-212","2017/07/20 13:59:39","新北市永和區永貞路386巷1號","121.509585","25.00725","6500400","永和區"
"234001","AAC-295","2017/07/20 13:59:53","新北市永和區福和路307號","121.516233333333","25.0071383333333","6500400","永和區"
"243005","AAD-798","2017/07/20 13:59:50","新北市泰山區明志路三段271號","121.423106666667","25.03703","6501600","泰山區"
"243007","380-SR","2017/07/20 13:59:46","新北市泰山區明志路一段203號","121.432718333333","25.0614033333333","6501600","泰山區"
"243006","421-VK","2017/07/20 13:59:46","新北市泰山區泰林路二段595號","121.421698333333","25.0634566666667","6501600","泰山區"
"243002","548-UM","2017/07/20 13:59:41","新北市泰山區辭修路24號","121.429035","25.0581416666667","6501600","泰山區"
"243003","549-UM","2017/07/20 13:59:48","新北市泰山區明志路二段320巷12號","121.42517","25.0465566666667","6501600","泰山區"
"243004","646-TV","2017/07/20 13:59:55","新北市泰山區仁德路112號","121.43274","25.0569466666667","6501600","泰山區"
"243008","680-BX","2017/07/20 13:59:53","新北市泰山區明志路二段210-1號","121.427438333333","25.0491216666667","6501600","泰山區"
"231002","002-UM","2017/07/20 13:59:54","新北市新店區中正路675號","121.53394","24.9900566666667","6500600","新店區"
"231025","0293-UT","2017/07/20 13:59:47","新北市新店區中正路296號","121.537681666667","24.97441","6500600","新店區"
"231028","046-UY","2017/07/20 13:59:50","新北市新店區安和路三段143號","121.516836666667","24.985495","6500600","新店區"
"231030","047-UY","2017/07/20 13:59:41","新北市新店區吉安街37-1號","121.515735","24.96621","6500600","新店區"
"231029","106-UY","2017/07/20 13:59:52","新北市新店區安康路二段22號","121.515933333333","24.9637366666667","6500600","新店區"
"231018","107-UY","2017/07/20 13:59:45","新北市新店區中央路116號","121.531185","24.9752016666667","6500600","新店區"
"231011","108-UY","2017/07/20 13:59:57","新北市新店區五峰路71號","121.54636","24.968095","6500600","新店區"
"231021","187-VK","2017/07/20 13:59:39","新北市新店區自強路117號","121.546115","24.9231266666667","6500600","新店區"
"231007","189-VK","2017/07/20 12:02:48","新北市新店區安華路28-1號","121.519613333333","24.960945","6500600","新店區"
"231026","256-BX","2017/07/20 13:59:40","新北市新店區安康路一段3-1號","121.53433","24.9607733333333","6500600","新店區"
"231010","278-BY","2017/07/20 13:59:46","新北市新店區平等街48巷8號","121.53585","24.9730966666667","6500600","新店區"
"231017","AAD-862","2017/07/20 13:59:46","新北市新店區北宜路二段235號","121.553721666667","24.9534816666667","6500600","新店區"
"231027","3712-VJ","2017/07/20 13:59:54","新北市新店區北宜路一段39巷20號","121.53887","24.9584583333333","6500600","新店區"
"231024","3713-VJ","2017/07/20 13:59:37","新北市新店區新生街13巷13號","121.539496666667","24.965945","6500600","新店區"
"231038","4715-K9","2017/07/20 13:59:38","新北市新店區溪洲路121號","121.531146666667","24.96283","6500600","新店區"
"231036","512-UM","2017/07/20 13:59:57","新北市新店區安祥路109巷3弄64號","121.477496666667","24.9610466666667","6500600","新店區"
"231023","513-UM","2017/07/20 13:59:40","新北市新店區文中路40-6號","121.539818333333","24.9565533333333","6500600","新店區"
"231035","515-UM","2017/07/20 13:59:48","新北市新店區安和路一段52巷2-1號","121.517708333333","24.96642","6500600","新店區"
"231001","619-UM","2017/07/20 13:59:37","新北市新店區三民路24號","121.537166666667","24.971045","6500600","新店區"
"231003","641-BX","2017/07/20 13:59:49","新北市新店區光明街36號","121.538716666667","24.9589866666667","6500600","新店區"
"231034","645-TV","2017/07/20 13:59:43","新北市新店區達觀路6號","121.505648333333","24.9426033333333","6500600","新店區"
"231013","719-UM","2017/07/20 13:59:39","新北市新店區明德路68號","121.541596666667","24.979685","6500600","新店區"
"231031","720-UM","2017/07/20 13:59:39","新北市新店區秀山路72號","121.531428333333","24.96085","6500600","新店區"
"231005","897-TW","2017/07/20 13:59:48","新北市新店區寶中路49-1號","121.546148333333","24.979755","6500600","新店區"
"231006","898-TW","2017/07/20 13:59:50","新北市新店區北宜路二段207號","121.553148333333","24.9532283333333","6500600","新店區"
"231004","899-TW","2017/07/20 13:59:47","新北市新店區寶橋路8號","121.543936666667","24.9737283333333","6500600","新店區"
"231037","AKT-0513","2017/07/20 13:59:46","新北市新店區安康路三段355巷13號","121.484831666667","24.9504766666667","6500600","新店區"
"235030","003-UY","2017/07/20 13:59:41","新北市中和區中山路二段131巷5弄4號","121.502993333333","25.00288","6500300","中和區"
"235028","005-UY","2017/07/20 13:59:51","新北市中和區連城路75巷3弄3號","121.497873333333","24.9997533333333","6500300","中和區"
"235027","006-UY","2017/07/20 13:59:49","新北市中和區連城路319巷3弄3號","121.489256666667","24.9957016666667","6500300","中和區"
"235020","096-UM","2017/07/20 13:59:43","新北市中和區員山路572巷4號","121.479205","25.011175","6500300","中和區"
"235003","097-UM","2017/07/20 13:59:57","新北市中和區景平路64巷13弄22號","121.521461666667","24.99145","6500300","中和區"
"235029","098-UM","2017/07/20 13:59:43","新北市中和區勝利路35巷1弄36號","121.500518333333","25.007845","6500300","中和區"
"235001","150-BY","2017/07/20 13:59:38","新北市中和區保健路46巷24弄1號","121.508551666667","24.99551","6500300","中和區"
"235022","151-BY","2017/07/20 13:59:54","新北市中和區員山路105號","121.48087","24.994425","6500300","中和區"
"235019","183-VK","2017/07/20 13:59:47","新北市中和區中山路三段229巷35號","121.469585","25.005755","6500300","中和區"
"235002","185-VK","2017/07/20 13:59:47","新北市中和區大勇街43巷13號","121.517018333333","24.9946333333333","6500300","中和區"
"235013","186-VK","2017/07/20 13:59:48","新北市中和區景安路167巷9號","121.505928333333","24.9947616666667","6500300","中和區"
"235031","255-BX","2017/07/20 13:59:42","新北市中和區新生街264號","121.483725","24.9971416666667","6500300","中和區"
"235008","293-VK","2017/07/20 13:59:56","新北市中和區中興街137號","121.49992","24.9914333333333","6500300","中和區"
"235036","301-VK","2017/07/20 13:59:49","新北市中和區中山路二段111號","121.503173333333","25.003695","6500300","中和區"
"235007","352-BY","2017/07/20 13:59:44","新北市中和區秀朗路三段107號","121.52648","24.994625","6500300","中和區"
"235015","376-QA","2017/07/20 13:59:53","新北市中和區忠孝街11巷14號","121.509971666667","24.9832966666667","6500300","中和區"
"235032","377-QA","2017/07/20 13:59:43","新北市中和區圓通路287號","121.495228333333","24.9929033333333","6500300","中和區"
"235025","378-QA","2017/07/20 13:59:51","新北市中和區中山路三段63巷9號","121.477005","25.0045283333333","6500300","中和區"
"235014","4979-A6","2017/07/20 13:59:41","新北市中和區華新街45號","121.507853333333","24.9846966666667","6500300","中和區"
"235033","4980-A6","2017/07/20 13:59:38","新北市中和區中和路130號","121.503701666667","24.9997766666667","6500300","中和區"
"235006","551-UM","2017/07/20 13:59:41","新北市中和區秀朗路三段22巷5號","121.525973333333","24.9962066666667","6500300","中和區"
"235009","565-BX","2017/07/20 13:59:58","新北市中和區景新街459號","121.51328","24.988335","6500300","中和區"
"235034","611-BX","2017/07/20 13:59:52","新北市中和區景平路471號","121.500505","24.9969","6500300","中和區"
"235018","640-BX","2017/07/20 13:59:45","新北市中和區民享街35巷12號","121.474721666667","25.00394","6500300","中和區"
"235024","647-TV","2017/07/20 13:59:42","新北市中和區民治街10巷1號","121.475038333333","25.00474","6500300","中和區"
"235011","732-UM","2017/07/20 13:59:55","新北市中和區興南路二段52號","121.506488333333","24.985115","6500300","中和區"
"235010","733-UM","2017/07/20 13:59:43","新北市中和區興南路二段11號","121.508228333333","24.98621","6500300","中和區"
"235035","783-BX","2017/07/20 13:59:51","新北市中和區立德街26巷5弄28號","121.489615","25.0082583333333","6500300","中和區"
"235026","800-TS","2017/07/20 13:59:49","新北市中和區中山路二段340巷48號","121.493218333333","25.0041866666667","6500300","中和區"
"235021","801-TS","2017/07/20 13:59:50","新北市中和區民利街14巷3-3號","121.480623333333","24.999565","6500300","中和區"
"235005","802-TS","2017/07/20 13:59:42","新北市中和區永貞路280號","121.513111666667","25.004025","6500300","中和區"
"235016","805-TS","2017/07/20 13:59:41","新北市中和區興南路二段131-15號","121.504211666667","24.9801983333333","6500300","中和區"
"235012","896-TW","2017/07/20 13:59:46","新北市中和區華新街33號","121.507723333333","24.9847483333333","6500300","中和區"
"235017","900-TW","2017/07/20 13:59:44","新北市中和區華福街4巷12弄10號","121.465408333333","24.9962683333333","6500300","中和區"
"235023","911-UM","2017/07/20 13:59:53","新北市中和區圓通路393巷15號","121.49006","24.988605","6500300","中和區"
"235001","AAC-213","2017/07/20 13:59:55","新北市中和區秀朗路三段175巷4號","121.524673333333","24.9912166666667","6500300","中和區"
"235023","AAC-215","2017/07/20 13:45:06","新北市中和區員山路36巷16-3號","121.485005","24.991585","6500300","中和區"
"220016","013-TV","2017/07/20 13:59:49","新北市板橋區中山路二段465巷12號","121.481645","25.0209033333333","6500100","板橋區"
"220013","072-UY","2017/07/20 13:59:46","新北市板橋區民族路247巷9弄2號","121.471246666667","25.00786","6500100","板橋區"
"220034","073-UY","2017/07/20 13:59:44","新北市板橋區民權路209號","121.457891666667","25.0148816666667","6500100","板橋區"
"220105","075-UY","2017/07/20 13:59:39","新北市板橋區莊敬路133號","121.471821666667","25.0252533333333","6500100","板橋區"
"247019","893-R6","2017/07/20 13:59:54","新北市蘆洲區民族路422巷84-1號","121.4736","25.0937933333333","6501400","蘆洲區"
"247009","546-UM","2017/07/20 13:59:48","新北市蘆洲區集賢路224巷23號","121.481591666667","25.0870016666667","6501400","蘆洲區"
"247017","500-BY","2017/07/20 13:59:55","新北市蘆洲區民族路327巷13弄2號","121.474885","25.0905033333333","6501400","蘆洲區"
"247001","402-BY","2017/07/20 13:59:48","新北市三重區三德街68號","121.483866666667","25.08682","6501400","蘆洲區"
"247005","341-TH","2017/07/20 13:59:42","新北市蘆洲區永安南路二段50-1號","121.465958333333","25.0776866666667","6501400","蘆洲區"
"247007","339-TH","2017/07/20 13:59:42","新北市三重區三和路四段390巷68號","121.47922","25.0784266666667","6501400","蘆洲區"
"247001","336-TH","2017/07/20 13:59:45","新北市蘆洲區永平街32巷70號","121.460461666667","25.09339","6501400","蘆洲區"
"247013","057-VK","2017/07/20 13:59:44","新北市蘆洲區保和街50-1號","121.469408333333","25.0862466666667","6501400","蘆洲區"
"247003","056-VK","2017/07/20 13:59:36","新北市蘆洲區長榮路48號","121.462743333333","25.0834883333333","6501400","蘆洲區"
"247011","007-UY","2017/07/20 13:59:54","新北市蘆洲區民族路156號","121.479635","25.08616","6501400","蘆洲區"
"247021","002-UY","2017/07/20 13:59:39","新北市蘆洲區中正路263巷2號","121.467306666667","25.08745","6501400","蘆洲區"
"247015","001-UY","2017/07/20 13:59:49","新北市蘆洲區光華路28號","121.4694","25.083295","6501400","蘆洲區"
"228005","097-TW","2017/07/20 13:53:26","新北市貢寮區美豐里雞母嶺街52號","121.889775","25.0679516666667","6502600","貢寮區"
"228004","212-TW","2017/07/20 13:59:36","新北市貢寮區龍崗里嵩陽街35-1號","121.906718333333","25.0175033333333","6502600","貢寮區"
"228005","828-UM","2017/07/20 11:56:01","新北市貢寮區貢寮里朝陽街1-2號","121.912343333333","25.0212283333333","6502600","貢寮區"
"208004","AAC-292","2017/07/20 13:59:47","新北市金山區重和里三重橋1號","121.595531666667","25.19717","6502700","金山區"
"207002","749-BX","2017/07/20 13:59:51","新北市萬里區溪底里烏塗炭9號","121.637598333333","25.1516733333333","6502800","萬里區"
"207001","463-BY","2017/07/20 13:59:48","新北市萬里區磺潭里清水18號","121.637828333333","25.1977116666667","6502800","萬里區"
"252005","AAC-283","2017/07/20 13:59:45","新北市三芝區橫山里橫山56-6號","121.535016666667","25.2492316666667","6502100","三芝區"
"236066","105-UM","2017/07/20 13:59:48","新北市土城區城林路6巷80號","121.438505","24.97969","6501300","土城區"
"236040","107-UM","2017/07/20 13:59:50","新北市土城區裕生路61號","121.447638333333","24.986105","6501300","土城區"
"236076","166-UM","2017/07/20 13:59:43","新北市土城區永寧路32巷10弄3號","121.428863333333","24.961025","6501300","土城區"
"236028","253-BX","2017/07/20 13:59:49","新北市土城區興城路79號","121.439863333333","24.9707283333333","6501300","土城區"
"236024","269-VK","2017/07/20 13:59:47","新北市土城區承天路67號","121.439496666667","24.96359","6501300","土城區"
"236012","270-VK","2017/07/20 13:59:48","新北市土城區員福街38號","121.440906666667","24.9789116666667","6501300","土城區"
"236033","271-VK","2017/07/20 13:59:48","新北市土城區員福街10號","121.441675","24.9785016666667","6501300","土城區"
"236018","401-BY","2017/07/20 13:59:53","新北市土城區城林路6巷80號","121.438373333333","24.9797566666667","6501300","土城區"
"236005","498-BY","2017/07/20 13:59:50","新北市土城區中央路一段365巷18弄2號","121.445801666667","24.9800716666667","6501300","土城區"
"236056","912-UM","2017/07/20 13:59:34","新北市土城區中央路三段196號","121.4304","24.9648883333333","6501300","土城區"
"236047","913-UM","2017/07/20 13:59:43","新北市土城區城林路6巷80號","121.438461666667","24.9796566666667","6501300","土城區"
"236060","915-UM","2017/07/20 13:59:45","新北市土城區城林路6巷80號","121.438455","24.9797333333333","6501300","土城區"
"236052","AAC-216","2017/07/20 13:59:46","新北市土城區中華路二段1號","121.439535","24.9790733333333","6501300","土城區"
"220027","145-BY","2017/07/20 13:59:18","新北市板橋區民權路202巷7弄2號","121.460056666667","25.0147783333333","6500100","板橋區"
"220028","200-UY","2017/07/20 13:59:51","新北市板橋區大觀路二段265巷3弄1號","121.442943333333","24.9983016666667","6500100","板橋區"
"220030","610-BX","2017/07/20 13:59:54","新北市板橋區篤行路三段8號","121.429383333333","24.987825","6500100","板橋區"
"220050","245-BX","2017/07/20 13:59:54","新北市板橋區文化路二段22號","121.468911666667","25.0244166666667","6500100","板橋區"
"220017","258-TC","2017/07/20 13:59:55","新北市板橋區大華街70號","121.459071666667","25.0058633333333","6500100","板橋區"
"220004","276-BY","2017/07/20 13:59:48","新北市板橋區信義路161號","121.45852","24.9925966666667","6500100","板橋區"
"220020","277-BY","2017/07/20 13:59:54","新北市板橋區大觀路三段50巷103號","121.431018333333","24.996645","6500100","板橋區"
"220012","280-UM","2017/07/20 13:59:53","新北市板橋區板新路238號","121.467758333333","25.0160666666667","6500100","板橋區"
"220019","283-VK","2017/07/20 13:59:44","新北市板橋區忠孝路176巷46號","121.465313333333","25.0016733333333","6500100","板橋區"
"220043","285-UM","2017/07/20 13:59:51","新北市板橋區文化路二段31號","121.468878333333","25.0248883333333","6500100","板橋區"
"220001","285-VK","2017/07/20 13:59:43","新北市板橋區永豐街49巷17號","121.473605","25.01755","6500100","板橋區"
"220031","286-VK","2017/07/20 13:59:40","新北市板橋區大觀路一段38巷164號","121.4421","25.00459","6500100","板橋區"
"220029","287-VK","2017/07/20 13:59:46","新北市板橋區南雅西路二段102號","121.45238","25.011795","6500100","板橋區"
"220039","288-VK","2017/07/20 13:59:45","新北市板橋區四維路177巷2弄1號","121.464043333333","25.0262516666667","6500100","板橋區"
"220009","293-UM","2017/07/20 13:59:42","新北市板橋區永豐街120巷2弄2號","121.476541666667","25.0206166666667","6500100","板橋區"
"220032","296-UM","2017/07/20 13:59:51","新北市板橋區龍興街63巷2號","121.443018333333","25.0013083333333","6500100","板橋區"
"220023","297-UM","2017/07/20 13:59:49","新北市板橋區南興路30號","121.454793333333","25.0076916666667","6500100","板橋區"
"220010","303-R5","2017/07/20 13:59:49","新北市板橋區三民路二段245巷60號","121.481015","25.0122216666667","6500100","板橋區"
"220041","307-R5","2017/07/20 13:59:42","新北市板橋區文化路一段106號","121.464715","25.01816","6500100","板橋區"
"220047","317-R6","2017/07/20 13:59:57","新北市板橋區民生路三段66號","121.466821666667","25.0255616666667","6500100","板橋區"
"220038","487-VK","2017/07/20 13:59:53","新北市板橋區文化路二段26號","121.468911666667","25.0244783333333","6500100","板橋區"
"220037","491-VK","2017/07/20 13:59:55","新北市板橋區民生路二段216號","121.46927","25.0215933333333","6500100","板橋區"
"220104","560-BX","2017/07/20 13:59:48","新北市板橋區中正路341巷35號","121.454241666667","25.0197366666667","6500100","板橋區"
"220052","561-BX","2017/07/20 13:59:40","新北市板橋區縣民大道二段279號","121.469935","25.0178633333333","6500100","板橋區"
"220011","609-BX","2017/07/20 13:59:52","新北市板橋區中山路二段87號","121.474123333333","25.0159016666667","6500100","板橋區"
"220040","637-BX","2017/07/20 13:59:42","新北市板橋區莒光路165巷46號","121.474493333333","25.0253233333333","6500100","板橋區"
"220005","686-BX","2017/07/20 13:59:54","新北市板橋區館前東路9號","121.45989","25.0071383333333","6500100","板橋區"
"220025","687-BX","2017/07/20 13:59:47","新北市板橋區大觀路二段156巷45號","121.440995","24.9999016666667","6500100","板橋區"
"220042","689-BX","2017/07/20 13:59:52","新北市板橋區民生路三段42號","121.46725","25.0249183333333","6500100","板橋區"
"220002","741-BX","2017/07/20 13:59:53","新北市板橋區後埔街43號","121.460576666667","25.0060283333333","6500100","板橋區"
"220003","827-TW","2017/07/20 13:59:41","新北市板橋區民安街13號","121.466838333333","25.0117266666667","6500100","板橋區"
"220014","829-TW","2017/07/20 13:59:55","新北市板橋區三民路二段正隆巷12弄16-2號","121.47773","25.01354","6500100","板橋區"
"220051","830-TW","2017/07/20 13:59:51","新北市板橋區懷德街233巷8號","121.480871666667","25.02882","6500100","板橋區"
"220045","831-TW","2017/07/20 13:59:37","新北市板橋區莒光路99號","121.47248","25.0241216666667","6500100","板橋區"
"220022","895-R6","2017/07/20 13:59:44","新北市板橋區南雅南路一段117號","121.455316666667","25.0047866666667","6500100","板橋區"
"220021","985-R7","2017/07/20 13:59:46","新北市板橋區南門街63號","121.457096666667","25.0082016666667","6500100","板橋區"
"220046","AAC-210","2017/07/20 13:59:48","新北市板橋區陽明街162號","121.463333333333","25.0243","6500100","板橋區"
"220018","AAC-253","2017/07/20 13:59:48","新北市板橋區四川路一段107號","121.459805","25.0051733333333","6500100","板橋區"
