"lineid","car","time","location","longitude","latitude","cityid","cityname"
"234044","148-BY","2017/07/20 14:29:47","新北市永和區成功路一段16巷11號","121.526378333333","25.00527","6500400","永和區"
"234012","149-BY","2017/07/20 14:29:42","新北市中和區橋和路281巷1號","121.495791666667","25.0078683333333","6500400","永和區"
"234005","207-UY","2017/07/20 14:29:39","新北市永和區中正路657號","121.514826666667","25.0102016666667","6500400","永和區"
"234078","298-R6","2017/07/20 14:29:53","新北市永和區永貞路72號","121.520428333333","25.00525","6500400","永和區"
"234036","336-UY","2017/07/20 14:29:40","新北市中和區成功路127巷12弄10號","121.527091666667","24.99032","6500400","永和區"
"234062","337-UY","2017/07/20 14:29:50","新北市永和區中正路417號","121.51711","25.0047983333333","6500400","永和區"
"234084","338-UY","2017/07/20 14:29:47","新北市永和區永和路二段303號","121.516061666667","25.01646","6500400","永和區"
"234052","553-UM","2017/07/20 14:29:39","新北市永和區光復街31-1號","121.516556666667","25.018015","6500400","永和區"
"234028","746-BX","2017/07/20 14:29:52","新北市五股區五工一路113號","121.45599","25.07143","6500400","永和區"
"234060","AAD-866","2017/07/20 14:29:39","新北市永和區安樂路194巷30號","121.516531666667","25.0011983333333","6500400","永和區"
"234040","862-TW","2017/07/20 14:29:47","新北市永和區安樂路250號","121.514601666667","25.003515","6500400","永和區"
"234048","863-TW","2017/07/20 14:29:10","新北市永和區新生路118巷1弄17號","121.506681666667","25.0144033333333","6500400","永和區"
"234025","9371-KE","2017/07/20 14:29:47","新北市中和區安平路222號","121.513936666667","25.000225","6500400","永和區"
"248015","026-BX","2017/07/20 14:29:42","新北市五股區成泰路3段651-1號","121.452871666667","25.1053566666667","6501500","五股區"
"248007","095-VK","2017/07/20 14:29:52","新北市五股區中興路一段95巷15號","121.466578333333","25.07229","6501500","五股區"
"248017","225-UY","2017/07/20 14:18:00","新北市五股區壟路16-1號","121.414758333333","25.0853816666667","6501500","五股區"
"248011","247-BX","2017/07/18 21:13:34","新北市五股區中興路二段161號","121.457565","25.07699","6501500","五股區"
"248013","261-SL","2017/07/20 14:29:52","新北市五股區民義路一段161-16號","121.431983333333","25.0869166666667","6501500","五股區"
"248009","272-BY","2017/07/20 14:29:50","新北市五股區水碓一路23號","121.430681666667","25.071375","6501500","五股區"
"248003","677-BX","2017/07/20 14:29:42","新北市五股區五福路47號","121.43307","25.0895533333333","6501500","五股區"
"248001","678-BX","2017/07/20 14:29:52","新北市五股區成泰路三段553號","121.452016666667","25.101855","6501500","五股區"
"234072","AAC-211","2017/07/20 14:29:45","新北市永和區環河東路二段6號","121.522076666667","25.0134916666667","6500400","永和區"
"234066","AAC-212","2017/07/20 14:29:39","新北市永和區保平路214巷8弄2號","121.509553333333","25.0061833333333","6500400","永和區"
"234001","AAC-295","2017/07/20 14:29:38","新北市永和區自強街4號","121.514235","25.00798","6500400","永和區"
"243005","AAD-798","2017/07/20 14:29:50","新北市泰山區貴子路36巷10號","121.425826666667","25.04142","6501600","泰山區"
"243001","297-R6","2017/07/20 14:29:42","新北市泰山區美寧街76號","121.43141","25.06458","6501600","泰山區"
"243007","380-SR","2017/07/20 14:29:22","新北市泰山區民權街81號","121.428645","25.0497783333333","6501600","泰山區"
"243006","421-VK","2017/07/20 14:29:46","新北市泰山區仁愛路6巷5弄3號","121.431275","25.0541683333333","6501600","泰山區"
"243002","548-UM","2017/07/20 14:29:41","新北市泰山區明志路二段62號","121.429145","25.0527566666667","6501600","泰山區"
"243003","549-UM","2017/07/20 14:29:37","新北市泰山區貴子路67巷24弄4號","121.431251666667","25.0408983333333","6501600","泰山區"
"243004","646-TV","2017/07/20 14:29:55","新北市泰山區全興路28號","121.432596666667","25.0584116666667","6501600","泰山區"
"243008","680-BX","2017/07/20 14:29:53","新北市泰山區新北大道七段18號","121.420321666667","25.0321866666667","6501600","泰山區"
"231002","002-UM","2017/07/20 14:29:54","新北市新店區中央六街1號","121.530598333333","24.9744016666667","6500600","新店區"
"231025","0293-UT","2017/07/20 14:29:43","新北市新店區民族路161號","121.5377","24.9767366666667","6500600","新店區"
"231028","046-UY","2017/07/20 14:29:50","新北市新店區安康路二段147號","121.511271666667","24.9598783333333","6500600","新店區"
"231030","047-UY","2017/07/20 14:29:41","新北市新店區安民街65巷17號","121.516008333333","24.9669166666667","6500600","新店區"
"231029","106-UY","2017/07/20 14:29:52","新北市新店區安康路二段335號","121.498526666667","24.9559683333333","6500600","新店區"
"231018","107-UY","2017/07/20 14:29:45","新北市新店區中央二街69號","121.526371666667","24.9748166666667","6500600","新店區"
"231011","108-UY","2017/07/20 14:29:37","新北市新店區中興路二段246號","121.54764","24.9755733333333","6500600","新店區"
"231021","187-VK","2017/07/20 14:29:39","新北市新店區桂山路51巷4號","121.563763333333","24.9010316666667","6500600","新店區"
"231007","189-VK","2017/07/20 12:02:48","新北市新店區安華路28-1號","121.519613333333","24.960945","6500600","新店區"
"231017","AAD-862","2017/07/20 14:29:40","新北市新店區北宜路三段54號","121.573223333333","24.951355","6500600","新店區"
"231027","3712-VJ","2017/07/20 14:29:53","新北市新店區北新路二段228巷1號","121.542901666667","24.9776883333333","6500600","新店區"
"231038","4715-K9","2017/07/20 14:29:38","新北市新店區溪洲路8巷3號","121.533483333333","24.9613516666667","6500600","新店區"
"231036","512-UM","2017/07/20 14:29:57","新北市新店區安祥路109巷8號","121.475438333333","24.9588433333333","6500600","新店區"
"231023","513-UM","2017/07/20 14:29:40","新北市新店區北宜路一段9號","121.538263333333","24.958175","6500600","新店區"
"231035","515-UM","2017/07/20 14:29:48","新北市新店區安光路10-1號","121.513836666667","24.9641833333333","6500600","新店區"
"231001","619-UM","2017/07/20 14:29:37","新北市新店區北新路一段96巷23號","121.542875","24.968765","6500600","新店區"
"231003","641-BX","2017/07/20 14:29:49","新北市新店區中興路一段273號","121.545223333333","24.9680733333333","6500600","新店區"
"231034","645-TV","2017/07/20 14:29:44","新北市新店區黎明路54巷2號","121.502333333333","24.9484616666667","6500600","新店區"
"231013","719-UM","2017/07/20 14:29:39","新北市新店區民權路108-4號","121.535931666667","24.9833316666667","6500600","新店區"
"231031","720-UM","2017/07/20 14:29:40","新北市新店區安業街33號","121.517853333333","24.9769366666667","6500600","新店區"
"231005","897-TW","2017/07/20 14:29:48","新北市新店區中興路三段134號","121.544675","24.9797366666667","6500600","新店區"
"231006","898-TW","2017/07/20 14:29:50","新北市新店區北宜路二段332號","121.562341666667","24.9536083333333","6500600","新店區"
"231004","899-TW","2017/07/20 14:29:46","新北市新店區中正路187號","121.540573333333","24.9722183333333","6500600","新店區"
"235030","003-UY","2017/07/20 14:29:41","新北市中和區景新街34巷2號","121.503336666667","24.9992233333333","6500300","中和區"
"235028","005-UY","2017/07/20 14:29:51","新北市中和區景平路642號","121.497868333333","25.0003333333333","6500300","中和區"
"235027","006-UY","2017/07/20 14:29:49","新北市中和區連勝街117號","121.495015","24.9953","6500300","中和區"
"235020","096-UM","2017/07/20 14:29:43","新北市中和區中山路三段102號","121.476895","25.0059616666667","6500300","中和區"
"235003","097-UM","2017/07/20 14:29:37","新北市中和區秀峰街127巷2號","121.5196","24.99094","6500300","中和區"
"235029","098-UM","2017/07/20 14:29:31","新北市中和區福美路258號","121.498246666667","25.0051516666667","6500300","中和區"
"235001","150-BY","2017/07/20 14:29:57","新北市中和區安樂路81號","121.512653333333","24.9944483333333","6500300","中和區"
"235022","151-BY","2017/07/20 14:29:40","新北市中和區連城路469巷10號","121.483535","24.995365","6500300","中和區"
"235019","183-VK","2017/07/20 14:29:47","新北市中和區中山路三段181巷18弄37號","121.472661666667","25.0049466666667","6500300","中和區"
"235002","185-VK","2017/07/20 14:29:47","新北市中和區大仁街10巷50號","121.520298333333","24.9926483333333","6500300","中和區"
"235013","186-VK","2017/07/20 14:29:48","新北市中和區景新街285巷10號","121.51024","24.99354","6500300","中和區"
"235031","255-BX","2017/07/20 14:29:41","新北市中和區連城路286號","121.48423","24.9963366666667","6500300","中和區"
"235008","293-VK","2017/07/20 14:29:36","新北市中和區復興路311號","121.501176666667","24.9902633333333","6500300","中和區"
"235036","301-VK","2017/07/20 14:29:49","新北市中和區中和路94號","121.501171666667","25.0002766666667","6500300","中和區"
"235007","352-BY","2017/07/20 14:29:44","新北市中和區景平路169巷9號","121.512376666667","24.99208","6500300","中和區"
"235015","376-QA","2017/07/20 14:29:53","新北市中和區興南路一段71號","121.510285","24.989265","6500300","中和區"
"235032","377-QA","2017/07/20 14:29:43","新北市中和區景平路493巷3-1號","121.499741666667","24.99754","6500300","中和區"
"235025","378-QA","2017/07/20 14:29:51","新北市中和區民安街36號","121.480103333333","25.0005666666667","6500300","中和區"
"235014","4979-A6","2017/07/20 14:29:41","新北市中和區中正路637巷60弄61號","121.485456666667","24.9929583333333","6500300","中和區"
"235006","551-UM","2017/07/20 14:29:41","新北市中和區中和路378巷23號","121.511558333333","25.0015666666667","6500300","中和區"
"235009","565-BX","2017/07/20 14:29:55","新北市中和區景新街421號","121.51286","24.9892133333333","6500300","中和區"
"235034","611-BX","2017/07/20 14:29:52","新北市中和區中和路20號","121.499735","25.0018933333333","6500300","中和區"
"235018","640-BX","2017/07/20 14:29:45","新北市中和區國光街109巷15號","121.46966","24.9998666666667","6500300","中和區"
"235024","647-TV","2017/07/20 14:29:42","新北市中和區新生街114巷37弄2號","121.482223333333","25.0022216666667","6500300","中和區"
"235011","732-UM","2017/07/20 14:29:41","新北市中和區景平路241巷64弄10號","121.507558333333","24.992665","6500300","中和區"
"235010","733-UM","2017/07/20 14:29:43","新北市中和區忠孝街18號","121.51044","24.9827616666667","6500300","中和區"
"235035","783-BX","2017/07/20 14:29:51","新北市中和區連城路519號","121.48203","24.9953466666667","6500300","中和區"
"235026","800-TS","2017/07/20 14:29:49","新北市中和區中山路二段355號","121.490066666667","25.0036","6500300","中和區"
"235021","801-TS","2017/07/20 14:29:42","新北市中和區員山路423巷2弄2號","121.48078","25.0033966666667","6500300","中和區"
"235005","802-TS","2017/07/20 14:29:42","新北市中和區中安街178巷13弄1號","121.510245","24.99867","6500300","中和區"
"235016","805-TS","2017/07/20 14:29:50","新北市中和區華新街143巷57號","121.506361666667","24.9799","6500300","中和區"
"235012","896-TW","2017/07/20 14:29:26","新北市中和區忠孝街39-1號","121.511481666667","24.9836833333333","6500300","中和區"
"235017","900-TW","2017/07/20 14:29:44","新北市中和區華順街17號","121.467451666667","24.9986516666667","6500300","中和區"
"235023","911-UM","2017/07/20 14:29:53","新北市中和區圓通路252巷6-2號","121.492783333333","24.9918783333333","6500300","中和區"
"235001","AAC-213","2017/07/20 14:29:40","新北市中和區秀朗路三段50巷2號","121.525951666667","24.99547","6500300","中和區"
"235023","AAC-215","2017/07/20 14:26:44","新北市中和區員山路36巷16-3號","121.484848333333","24.9913583333333","6500300","中和區"
"220016","013-TV","2017/07/20 14:29:49","新北市板橋區萬安街1號","121.484758333333","25.022395","6500100","板橋區"
"220013","072-UY","2017/07/20 14:29:46","新北市板橋區國泰街75巷29號","121.468061666667","25.0055366666667","6500100","板橋區"
"220034","073-UY","2017/07/20 14:29:44","新北市板橋區中正路250巷60號","121.457851666667","25.0196383333333","6500100","板橋區"
"220105","075-UY","2017/07/20 14:29:39","新北市板橋區文化路二段441巷11號","121.474421666667","25.0336016666667","6500100","板橋區"
"247019","893-R6","2017/07/20 14:29:49","新北市蘆洲區水湳街102號","121.469525","25.0929716666667","6501400","蘆洲區"
"247009","546-UM","2017/07/20 14:29:48","新北市蘆洲區三民路26巷20弄7號","121.477671666667","25.0825433333333","6501400","蘆洲區"
"247017","500-BY","2017/07/20 14:29:55","新北市蘆洲區復興路227巷47-1號","121.479385","25.09168","6501400","蘆洲區"
"247001","402-BY","2017/07/20 14:29:48","新北市蘆洲區復興路58號","121.4739","25.086185","6501400","蘆洲區"
"247005","341-TH","2017/07/20 14:29:42","新北市蘆洲區長安街91號","121.461998333333","25.0804333333333","6501400","蘆洲區"
"247007","339-TH","2017/07/20 14:29:42","新北市蘆洲區信義路91-1號","121.477215","25.0798133333333","6501400","蘆洲區"
"247023","337-TH","2017/07/20 14:29:49","新北市蘆洲區中正路101號","121.469898333333","25.0839783333333","6501400","蘆洲區"
"247001","336-TH","2017/07/20 14:29:45","新北市蘆洲區環堤大道166號","121.45609","25.0895933333333","6501400","蘆洲區"
"247013","057-VK","2017/07/20 14:29:44","新北市蘆洲區中山二路190號","121.470525","25.0805383333333","6501400","蘆洲區"
"247003","056-VK","2017/07/20 14:29:36","新北市蘆洲區中原路73號","121.458433333333","25.08183","6501400","蘆洲區"
"247011","007-UY","2017/07/20 14:29:54","新北市蘆洲區中興街163號","121.482013333333","25.0897533333333","6501400","蘆洲區"
"247021","002-UY","2017/07/20 14:29:39","新北市蘆洲區三民路128巷47號","121.46978","25.0899616666667","6501400","蘆洲區"
"247015","001-UY","2017/07/20 14:29:43","新北市蘆洲區中正路185巷68弄31號","121.465868333333","25.085575","6501400","蘆洲區"
"228005","097-TW","2017/07/20 14:29:46","新北市貢寮區美豐里巫里岸9-1號","121.90194","25.070085","6502600","貢寮區"
"228004","212-TW","2017/07/20 14:29:36","新北市貢寮區雙玉里田寮洋街33-1號","121.932203333333","25.01362","6502600","貢寮區"
"228005","828-UM","2017/07/20 11:56:01","新北市貢寮區貢寮里朝陽街1-2號","121.912343333333","25.0212283333333","6502600","貢寮區"
"208004","AAC-292","2017/07/20 14:29:47","新北市金山區重和里六股林口8-1號","121.608128333333","25.2211","6502700","金山區"
"207002","749-BX","2017/07/20 14:29:51","新北市萬里區溪底里溪底路1號","121.618945","25.1517266666667","6502800","萬里區"
"207001","463-BY","2017/07/20 14:29:48","新北市萬里區磺潭里清水13號","121.639583333333","25.199305","6502800","萬里區"
"252005","AAC-283","2017/07/20 14:29:45","新北市三芝區埔坪里埔頭坑91-3號","121.508221666667","25.2526066666667","6502100","三芝區"
"236066","105-UM","2017/07/20 14:29:48","新北市土城區永豐路314號","121.472591666667","24.9775516666667","6501300","土城區"
"236040","107-UM","2017/07/20 14:29:50","新北市土城區學成路99巷11號","121.450006666667","24.988345","6501300","土城區"
"236076","166-UM","2017/07/20 14:29:42","新北市土城區中央路四段27巷5號","121.424526666667","24.9621283333333","6501300","土城區"
"236028","253-BX","2017/07/20 14:29:49","新北市土城區福仁街10號","121.440246666667","24.9761133333333","6501300","土城區"
"236024","269-VK","2017/07/20 14:29:47","新北市土城區承天路67號","121.439525","24.9635866666667","6501300","土城區"
"236012","270-VK","2017/07/20 14:29:48","新北市土城區立清街69號","121.460385","24.9873483333333","6501300","土城區"
"236033","271-VK","2017/07/20 14:29:48","新北市土城區青雲路449-1號","121.458983333333","24.974665","6501300","土城區"
"236018","401-BY","2017/07/20 14:29:53","新北市土城區永豐路202巷5-2號","121.466321666667","24.9832866666667","6501300","土城區"
"236005","498-BY","2017/07/20 14:29:50","新北市土城區日新街58號","121.443035","24.98827","6501300","土城區"
"236056","912-UM","2017/07/20 14:29:54","新北市土城區中央路四段323號","121.410375","24.9509383333333","6501300","土城區"
"236047","913-UM","2017/07/20 14:29:43","新北市土城區青雲路461號","121.458613333333","24.9743966666667","6501300","土城區"
"236060","915-UM","2017/07/20 14:29:48","新北市土城區延壽路111巷19號","121.468533333333","24.9936316666667","6501300","土城區"
"236052","AAC-216","2017/07/20 14:29:46","新北市土城區中華路二段181號","121.438528333333","24.9748533333333","6501300","土城區"
"221002","753-BX","2017/07/20 14:29:47","新北市汐止區福德一路300巷11號","121.630958333333","25.0636566666667","6501100","汐止區"
"220027","145-BY","2017/07/20 14:29:49","新北市板橋區民權路202巷21弄1號","121.460635","25.0171483333333","6500100","板橋區"
"220028","200-UY","2017/07/20 14:29:55","新北市板橋區大觀路二段3巷15號","121.447916666667","25.0038133333333","6500100","板橋區"
"220030","610-BX","2017/07/20 14:29:54","新北市板橋區金門街377號","121.428163333333","24.9844833333333","6500100","板橋區"
"220050","245-BX","2017/07/20 14:29:54","新北市板橋區縣民大道三段127巷2號","121.477435","25.023145","6500100","板橋區"
"220017","258-TC","2017/07/20 14:29:42","新北市板橋區華興街31巷16號","121.458361666667","25.0039216666667","6500100","板橋區"
"220004","276-BY","2017/07/20 14:29:48","新北市板橋區國慶路49巷19弄15號","121.458823333333","24.9959716666667","6500100","板橋區"
"220020","277-BY","2017/07/20 14:29:54","新北市板橋區篤行路二段161巷19號","121.430065","24.98739","6500100","板橋區"
"220012","280-UM","2017/07/20 14:29:53","新北市板橋區中山路一段50-3號","121.460988333333","25.0092766666667","6500100","板橋區"
"220019","283-VK","2017/07/20 14:29:44","新北市板橋區忠孝路48巷36號","121.460961666667","25.0004633333333","6500100","板橋區"
"220043","285-UM","2017/07/20 14:29:51","新北市板橋區松江街124巷7號","121.469573333333","25.0303116666667","6500100","板橋區"
"220001","285-VK","2017/07/20 14:29:51","新北市板橋區富山街87號","121.47668","25.0218116666667","6500100","板橋區"
"220031","286-VK","2017/07/20 14:29:40","新北市板橋區大觀路一段38巷156弄4-1號","121.442421666667","25.0043816666667","6500100","板橋區"
"220029","287-VK","2017/07/20 14:29:46","新北市板橋區南雅西路一段19巷8號","121.454068333333","25.0038916666667","6500100","板橋區"
"220039","288-VK","2017/07/20 14:29:45","新北市板橋區長江路一段106巷12弄11號","121.459895","25.0286283333333","6500100","板橋區"
"220009","293-UM","2017/07/20 14:29:50","新北市板橋區成功路6巷5號","121.475788333333","25.0170033333333","6500100","板橋區"
"220032","296-UM","2017/07/20 14:29:51","新北市板橋區滿平街136巷7弄1號","121.42803","24.9872833333333","6500100","板橋區"
"220023","297-UM","2017/07/20 14:29:49","新北市板橋區南雅東路1號","121.455505","25.0055233333333","6500100","板橋區"
"220010","303-R5","2017/07/20 14:29:58","新北市板橋區三民路二段181巷1號","121.479646666667","25.01441","6500100","板橋區"
"220041","307-R5","2017/07/20 14:29:39","新北市板橋區光武街4巷23號","121.468228333333","25.0258866666667","6500100","板橋區"
"220047","317-R6","2017/07/20 14:29:37","新北市板橋區四維路266巷2弄20號","121.463936666667","25.02819","6500100","板橋區"
"220038","487-VK","2017/07/20 14:29:54","新北市板橋區文化路一段203號","121.463408333333","25.0167066666667","6500100","板橋區"
"220037","491-VK","2017/07/20 14:29:52","新北市板橋區雙十路一段25號","121.477525","25.0245233333333","6500100","板橋區"
"220104","560-BX","2017/07/20 14:29:48","新北市板橋區中正路399巷34號","121.453015","25.0230033333333","6500100","板橋區"
"220052","561-BX","2017/07/20 14:29:40","新北市板橋區文化路一段268號","121.467345","25.020705","6500100","板橋區"
"220011","609-BX","2017/07/20 14:29:52","新北市板橋區三民路二段204-3號","121.478876666667","25.0123366666667","6500100","板橋區"
"220040","637-BX","2017/07/20 14:29:42","新北市板橋區文聖街149巷25號","121.479513333333","25.0285966666667","6500100","板橋區"
"220005","686-BX","2017/07/20 14:29:40","新北市板橋區五權街30巷1號","121.464791666667","24.9934166666667","6500100","板橋區"
"220025","687-BX","2017/07/20 14:29:49","新北市板橋區大觀路二段22-2號","121.446671666667","25.0031333333333","6500100","板橋區"
"220042","689-BX","2017/07/20 14:29:52","新北市板橋區雨農路54號","121.460908333333","25.0242583333333","6500100","板橋區"
"220002","741-BX","2017/07/20 14:29:53","新北市板橋區四川路一段281號","121.459466666667","25.0020366666667","6500100","板橋區"
"220003","827-TW","2017/07/20 14:29:49","新北市板橋區重慶路278巷7號","121.462585","24.9996366666667","6500100","板橋區"
"220014","829-TW","2017/07/20 14:29:55","新北市板橋區漢生東路299巷11號","121.472648333333","25.0088583333333","6500100","板橋區"
"220051","830-TW","2017/07/20 14:29:51","新北市板橋區松柏街22巷9-2號","121.47476","25.0294683333333","6500100","板橋區"
"220045","831-TW","2017/07/20 14:29:37","新北市板橋區大同街2號","121.47683","25.0268016666667","6500100","板橋區"
"220022","895-R6","2017/07/20 14:29:44","新北市板橋區府中路42號","121.45738","25.0095183333333","6500100","板橋區"
"220021","985-R7","2017/07/20 14:29:46","新北市板橋區中正路362號","121.454326666667","25.0238466666667","6500100","板橋區"
"220046","AAC-210","2017/07/20 14:29:48","新北市板橋區陽明街133號","121.463318333333","25.0238216666667","6500100","板橋區"
"220018","AAC-253","2017/07/20 14:29:52","新北市板橋區忠孝路131號","121.463085","25.0023716666667","6500100","板橋區"
