"lineid","car","time","location","longitude","latitude","cityid","cityname"
"249005","172-UM","2017/07/20 16:39:41","新北市八里區博物館路9號","121.415451666667","25.163835","6502300","八里區"
"249002","305-UY","2017/07/20 16:39:42","新北市八里區大堀湖7-3號","121.425446666667","25.151815","6502300","八里區"
"249003","593-UM","2017/07/20 16:39:37","新北市八里區挖子尾街6號","121.415503333333","25.1641666666667","6502300","八里區"
"248010","272-BY","2017/07/20 15:29:31","新北市五股區中興路二段83巷26-6號","121.459891666667","25.0751316666667","6501500","五股區"
"243009","297-R6","2017/07/20 16:19:09","新北市泰山區黎明路25號","121.42212","25.0609133333333","6501600","泰山區"
"243011","549-UM","2017/07/20 16:02:36","新北市泰山區黎明路25號","121.421985","25.0610483333333","6501600","泰山區"
"243016","680-BX","2017/07/20 15:54:05","新北市泰山區犁頭窠3-1號","121.421985","25.0605916666667","6501600","泰山區"
"231007","189-VK","2017/07/20 12:02:48","新北市新店區安華路28-1號","121.519613333333","24.960945","6500600","新店區"
"231046","278-BY","2017/07/20 16:39:44","新北市新店區灣潭路38-1號","121.542076666667","24.94605","6500600","新店區"
"241011","013-R5","2017/07/20 16:39:43","新北市三重區仁愛街43巷33號","121.49804","25.0720133333333","6500200","三重區"
"241028","022-UY","2017/07/20 16:39:42","新北市三重區重新路三段80號","121.493238333333","25.06109","6500200","三重區"
"241009","060-VK","2017/07/20 16:39:41","新北市三重區三和路四段203巷61號","121.483458333333","25.079795","6500200","三重區"
"241031","061-VK","2017/07/20 16:39:56","新北市三重區重新路四段61-1號","121.487378333333","25.0574033333333","6500200","三重區"
"241015","062-VK","2017/07/20 16:39:34","新北市三重區文化北路37-2號","121.498995","25.0650816666667","6500200","三重區"
"241017","063-VK","2017/07/20 16:39:45","新北市三重區中正北路25巷2號","121.493283333333","25.0627166666667","6500200","三重區"
"241024","065-VK","2017/07/20 16:39:50","新北市三重區中正北路315巷6弄68號","121.476535","25.0725583333333","6500200","三重區"
"241026","066-VK","2017/07/20 16:39:36","新北市三重區和平街44號","121.502278333333","25.0627633333333","6500200","三重區"
"241002","090-VK","2017/07/20 16:39:49","新北市三重區仁義街243號","121.496271666667","25.0825733333333","6500200","三重區"
"241003","091-VK","2017/07/20 16:39:50","新北市三重區五華街71巷63號","121.493736666667","25.0835616666667","6500200","三重區"
"241019","156-TC","2017/07/20 16:39:48","新北市三重區重陽路三段142-1號","121.489455","25.067245","6500200","三重區"
"241001","265-UM","2017/07/20 16:39:40","新北市三重區仁愛街249號","121.493415","25.078085","6500200","三重區"
"241016","266-UM","2017/07/20 16:39:57","新北市三重區大智街7號","121.494738333333","25.065075","6500200","三重區"
"241022","267-UM","2017/07/20 16:39:38","新北市三重區三民街89號","121.485526666667","25.06317","6500200","三重區"
"241018","268-UM","2017/07/20 16:39:50","新北市三重區正義北路338巷50號","121.493065","25.0703566666667","6500200","三重區"
"241032","269-UM","2017/07/20 16:39:50","新北市三重區三民街28號","121.485596666667","25.06121","6500200","三重區"
"241013","270-UM","2017/07/20 16:39:40","新北市三重區三和路三段103號","121.494518333333","25.0726316666667","6500200","三重區"
"241025","271-UM","2017/07/20 16:39:44","新北市三重區中正北路428巷7弄6號","121.474226666667","25.0701116666667","6500200","三重區"
"241007","398-BY","2017/07/20 16:39:53","新北市三重區三和路四段167巷47號","121.485178333333","25.0794033333333","6500200","三重區"
"241008","412-TH","2017/07/20 16:39:49","新北市三重區永安北路一段27巷40號","121.477678333333","25.0755683333333","6500200","三重區"
"241020","413-TH","2017/07/20 16:39:39","新北市三重區車路頭街51巷8號","121.484805","25.0724833333333","6500200","三重區"
"241004","475-VK","2017/07/20 16:39:32","新北市三重區仁愛街377巷134號","121.493875","25.0822083333333","6500200","三重區"
"241005","478-VK","2017/07/20 16:39:42","新北市三重區仁華街126號","121.48638","25.0830766666667","6500200","三重區"
"241030","480-VK","2017/07/20 16:39:43","新北市三重區環河南路286號","121.489198333333","25.0488433333333","6500200","三重區"
"241014","543-UM","2017/07/20 16:39:51","新北市三重區龍濱路40號","121.502795","25.0683833333333","6500200","三重區"
"241023","545-UM","2017/07/20 16:39:45","新北市三重區忠孝路三段50巷53號","121.483296666667","25.0641916666667","6500200","三重區"
"241006","AAD-863","2017/07/20 16:39:52","新北市三重區車路頭街150號","121.483753333333","25.0763316666667","6500200","三重區"
"241012","941-UM","2017/07/20 16:39:39","新北市三重區仁興街3巷47號","121.501231666667","25.0742333333333","6500200","三重區"
"241029","942-UM","2017/07/20 16:39:50","新北市三重區集美街150號","121.48969","25.0531766666667","6500200","三重區"
"241033","AAC-255","2017/07/20 16:39:43","新北市三重區光復路一段97號","121.4723","25.051005","6500200","三重區"
"235026","800-TS","2017/07/20 16:39:49","新北市中和區建八路125巷6弄11號","121.490263333333","24.9992616666667","6500300","中和區"
"235023","AAC-215","2017/07/20 14:26:44","新北市中和區員山路36巷16-3號","121.484848333333","24.9913583333333","6500300","中和區"
"247004","056-VK","2017/07/20 16:39:47","新北市蘆洲區長安街247號","121.459025","25.08325","6501400","蘆洲區"
"228003","097-TW","2017/07/20 15:25:59","新北市貢寮區貢寮里朝陽街1-2號","121.91235","25.0212333333333","6502600","貢寮區"
"228001","212-TW","2017/07/20 16:39:36","新北市貢寮區貢寮里朝陽街2號","121.912551666667","25.0213933333333","6502600","貢寮區"
"228002","585-TW","2017/07/20 16:39:37","新北市貢寮區貢寮里朝陽街18號","121.911463333333","25.02164","6502600","貢寮區"
"228005","828-UM","2017/07/20 11:56:01","新北市貢寮區貢寮里朝陽街1-2號","121.912343333333","25.0212283333333","6502600","貢寮區"
"224006","676-BX","2017/07/20 16:39:43","新北市瑞芳區大寮路356-1號","121.784693333333","25.103205","6501200","瑞芳區"
"224008","275-VK","2017/07/20 16:39:43","新北市瑞芳區民權街3-1號","121.809355","25.1083616666667","6501200","瑞芳區"
"224007","273-VK","2017/07/20 16:39:47","新北市瑞芳區月眉路19號","121.760576666667","25.1075933333333","6501200","瑞芳區"
"224005","271-BY","2017/07/20 16:39:50","新北市瑞芳區洞頂路210-4號","121.861386666667","25.1247033333333","6501200","瑞芳區"
"227010","642-TC","2017/07/20 16:39:42","新北市雙溪區牡丹里中正路65號","121.865263333333","25.0436933333333","6502500","雙溪區"
"227004","400-TW","2017/07/20 16:39:52","新北市雙溪區外柑里外柑腳56號","121.80795","25.0178433333333","6502500","雙溪區"
"251008","181-VK","2017/07/20 16:39:53","新北市淡水區樹梅坑9號","121.472805","25.1426416666667","6501000","淡水區"
"251014","182-VK","2017/07/20 16:39:40","新北市淡水區淡金路三段426號","121.450348333333","25.2116","6501000","淡水區"
"251016","442-VK","2017/07/20 16:39:36","新北市淡水區北新路二段7號","121.475595","25.1852933333333","6501000","淡水區"
"252002","178-VK","2017/07/20 16:39:43","新北市三芝區迎旭街71號","121.510335","25.2579983333333","6502100","三芝區"
"252001","292-VK","2017/07/20 16:39:51","新北市三芝區茂長里陳厝坑2-2號","121.507926666667","25.266095","6502100","三芝區"
"242017","348-TH","2017/07/20 16:39:30","新北市新莊區新泰路357巷3弄57號","121.441835","25.039625","6500500","新莊區"
"242009","351-TH","2017/07/20 16:39:47","新北市新莊區新泰路357巷3弄57號","121.442025","25.0395583333333","6500500","新莊區"
"238010","601-UM","2017/07/20 16:39:36","新北市樹林區大安路208號","121.42034","24.9955883333333","6500700","樹林區"
"238025","303-VK","2017/07/20 16:39:44","新北市樹林區中正路22-1號","121.427876666667","24.999265","6500700","樹林區"
"238004","283-BY","2017/07/20 16:39:43","新北市樹林區中正路433-1號","121.41466","25.0080566666667","6500700","樹林區"
"238001","282-BY","2017/07/20 16:39:35","新北市樹林區大慶街99號","121.427321666667","24.9995266666667","6500700","樹林區"
"238007","268-VK","2017/07/20 16:39:56","新北市樹林區俊英街121巷2號","121.42456","25.01047","6500700","樹林區"
"220042","689-BX","2017/07/20 16:39:29","新北市板橋區民生路二段120號","121.47056","25.01953","6500100","板橋區"
"220018","AAC-253","2017/07/20 16:39:48","新北市板橋區民生路二段36-1號","121.472556666667","25.0167","6500100","板橋區"
