"lineid","car","time","location","longitude","latitude","cityid","cityname"
"249005","172-UM","2017/07/20 16:59:40","新北市八里區渡船頭3-17號","121.434195","25.1525066666667","6502300","八里區"
"249004","303-UY","2017/07/20 16:59:52","新北市八里區挖子尾17號","121.415061666667","25.166815","6502300","八里區"
"249002","305-UY","2017/07/20 16:56:42","新北市八里區牛寮埔20號","121.431855","25.1429233333333","6502300","八里區"
"249003","593-UM","2017/07/20 16:59:37","新北市八里區中山路二段277號","121.401865","25.14877","6502300","八里區"
"249001","759-BX","2017/07/20 16:59:35","新北市八里區中山路三段106號","121.393153333333","25.1437433333333","6502300","八里區"
"248010","272-BY","2017/07/20 15:29:31","新北市五股區中興路二段83巷26-6號","121.459891666667","25.0751316666667","6501500","五股區"
"244007","080-UY","2017/07/20 16:59:46","新北市林口區中華路96號","121.38477","25.090445","6501700","林口區"
"244019","403-UM","2017/07/20 16:59:48","新北市林口區粉寮路一段77-2號","121.397048333333","25.0794183333333","6501700","林口區"
"244023","483-VK","2017/07/20 16:59:49","新北市林口區粉寮69號","121.405115","25.09086","6501700","林口區"
"244021","657-BX","2017/07/20 16:59:35","新北市林口區粉寮69號","121.404816666667","25.0908783333333","6501700","林口區"
"243009","297-R6","2017/07/20 16:19:09","新北市泰山區黎明路25號","121.42212","25.0609133333333","6501600","泰山區"
"243011","549-UM","2017/07/20 16:02:36","新北市泰山區黎明路25號","121.421985","25.0610483333333","6501600","泰山區"
"243016","680-BX","2017/07/20 15:54:05","新北市泰山區犁頭窠3-1號","121.421985","25.0605916666667","6501600","泰山區"
"231007","189-VK","2017/07/20 12:02:48","新北市新店區安華路28-1號","121.519613333333","24.960945","6500600","新店區"
"231046","278-BY","2017/07/20 16:59:45","新北市新店區灣潭路23-2號","121.538646666667","24.9411183333333","6500600","新店區"
"241011","013-R5","2017/07/20 16:59:48","新北市三重區仁愛街55巷168號","121.499946666667","25.07312","6500200","三重區"
"241028","022-UY","2017/07/20 16:59:42","新北市三重區中正南路41巷1號","121.493863333333","25.0598833333333","6500200","三重區"
"241009","060-VK","2017/07/20 16:59:41","新北市三重區仁美街108巷16號","121.485051666667","25.0805533333333","6500200","三重區"
"241031","061-VK","2017/07/20 16:59:36","新北市三重區三寧街18號","121.489206666667","25.0598566666667","6500200","三重區"
"241015","062-VK","2017/07/20 16:59:54","新北市三重區三和路二段16-1號","121.500525","25.067185","6500200","三重區"
"241017","063-VK","2017/07/20 16:59:45","新北市三重區大仁街3巷43號","121.492796666667","25.0640583333333","6500200","三重區"
"241024","065-VK","2017/07/20 16:59:50","新北市三重區大勇街82巷15弄30號","121.48115","25.0719333333333","6500200","三重區"
"241026","066-VK","2017/07/20 16:59:56","新北市三重區文化南路42號","121.500343333333","25.06028","6500200","三重區"
"241002","090-VK","2017/07/20 16:59:49","新北市三重區仁義街101巷8號","121.49826","25.08018","6500200","三重區"
"241003","091-VK","2017/07/20 16:59:50","新北市三重區集賢路87-1號","121.493793333333","25.0868866666667","6500200","三重區"
"241019","156-TC","2017/07/20 16:59:48","新北市三重區自強路二段74巷19號","121.488018333333","25.069975","6500200","三重區"
"241001","265-UM","2017/07/20 16:59:40","新北市三重區仁政街1號","121.493566666667","25.0760016666667","6500200","三重區"
"241016","266-UM","2017/07/20 16:59:37","新北市三重區大智街12號","121.495256666667","25.064575","6500200","三重區"
"241022","267-UM","2017/07/20 16:59:41","新北市三重區中華路125號","121.483605","25.0640566666667","6500200","三重區"
"241018","268-UM","2017/07/20 16:59:50","新北市三重區六張街126巷2弄24號","121.492596666667","25.0694616666667","6500200","三重區"
"241032","269-UM","2017/07/20 16:59:50","新北市三重區新北大道一段57巷11號","121.485406666667","25.0608083333333","6500200","三重區"
"241013","270-UM","2017/07/20 16:59:40","新北市三重區仁壽街5號","121.496366666667","25.0732416666667","6500200","三重區"
"241025","271-UM","2017/07/20 16:59:44","新北市三重區中正北路361-1號","121.47263","25.0717766666667","6500200","三重區"
"241007","398-BY","2017/07/20 16:59:53","新北市三重區三和路四段181巷263號","121.48832","25.08063","6500200","三重區"
"241008","412-TH","2017/07/20 16:59:49","新北市三重區永福街179巷26號","121.478136666667","25.0748733333333","6500200","三重區"
"241020","413-TH","2017/07/20 16:59:39","新北市三重區國道路一段1號","121.486425","25.0735366666667","6500200","三重區"
"241004","475-VK","2017/07/20 16:59:32","新北市三重區五華街96號","121.492688333333","25.0822666666667","6500200","三重區"
"241005","478-VK","2017/07/20 16:59:41","新北市三重區仁華街106號","121.485258333333","25.08326","6500200","三重區"
"241030","480-VK","2017/07/20 16:59:43","新北市三重區昌隆街45號","121.491343333333","25.0514816666667","6500200","三重區"
"241014","543-UM","2017/07/20 16:59:51","新北市三重區三和路二段173巷149號","121.501241666667","25.0706616666667","6500200","三重區"
"241023","545-UM","2017/07/20 16:59:45","新北市三重區名源街56號","121.482556666667","25.058995","6500200","三重區"
"241006","AAD-863","2017/07/20 16:59:51","新北市三重區車路頭街117巷26號","121.48493","25.0755483333333","6500200","三重區"
"241012","941-UM","2017/07/20 16:59:39","新北市三重區仁壽街200號","121.501086666667","25.0748616666667","6500200","三重區"
"241029","942-UM","2017/07/20 16:59:50","新北市三重區集美街257號","121.492378333333","25.0556416666667","6500200","三重區"
"241033","AAC-255","2017/07/20 16:59:56","新北市三重區中興北街275號","121.46909","25.0608366666667","6500200","三重區"
"235062","800-TS","2017/07/20 16:59:49","新北市中和區員山路36巷16-3號","121.485083333333","24.9914033333333","6500300","中和區"
"235023","AAC-215","2017/07/20 16:54:09","新北市中和區員山路36巷16-3號","121.48496","24.9912183333333","6500300","中和區"
"247018","500-BY","2017/07/20 16:59:38","新北市蘆洲區復興路111-7號","121.476806666667","25.0884616666667","6501400","蘆洲區"
"247006","341-TH","2017/07/20 16:59:40","新北市蘆洲區永安南路二段236號","121.460451666667","25.0796116666667","6501400","蘆洲區"
"247007","339-TH","2017/07/20 16:59:47","新北市蘆洲區信義路57號","121.475151666667","25.0797833333333","6501400","蘆洲區"
"247024","337-TH","2017/07/20 16:59:44","新北市蘆洲區長興路202號","121.460571666667","25.0874766666667","6501400","蘆洲區"
"247002","336-TH","2017/07/20 16:59:55","新北市蘆洲區長榮路518號","121.459486666667","25.08999","6501400","蘆洲區"
"247013","057-VK","2017/07/20 16:59:34","新北市蘆洲區中山二路36巷9號","121.474261666667","25.08266","6501400","蘆洲區"
"247004","056-VK","2017/07/20 16:59:47","新北市蘆洲區永安南路二段256號","121.459636666667","25.0803783333333","6501400","蘆洲區"
"247012","007-UY","2017/07/20 16:59:41","新北市蘆洲區信義路298號","121.477581666667","25.0875266666667","6501400","蘆洲區"
"247022","002-UY","2017/07/20 16:59:41","新北市蘆洲區三民路128巷130號","121.468733333333","25.09193","6501400","蘆洲區"
"247016","001-UY","2017/07/20 16:59:56","新北市蘆洲區光華路67號","121.468236666667","25.0827183333333","6501400","蘆洲區"
"228003","097-TW","2017/07/20 16:59:47","新北市貢寮區福隆里興隆街24-1號","121.944275","25.01658","6502600","貢寮區"
"228001","212-TW","2017/07/20 16:59:36","新北市貢寮區貢寮里朝陽街1-2號","121.912355","25.0212416666667","6502600","貢寮區"
"228002","585-TW","2017/07/20 16:59:37","新北市貢寮區貢寮里朝陽街11-1號","121.909496666667","25.02062","6502600","貢寮區"
"228005","828-UM","2017/07/20 11:56:01","新北市貢寮區貢寮里朝陽街1-2號","121.912343333333","25.0212283333333","6502600","貢寮區"
"224010","AGQ-8101","2017/07/20 10:07:32","新北市瑞芳區民權街3-1號","121.809405","25.1083133333333","6501200","瑞芳區"
"224006","676-BX","2017/07/20 16:59:43","新北市瑞芳區大寮路356-1號","121.784713333333","25.1030383333333","6501200","瑞芳區"
"224009","285-BY","2017/07/20 16:59:36","新北市瑞芳區明燈路一段169號","121.819261666667","25.1075333333333","6501200","瑞芳區"
"224008","275-VK","2017/07/20 16:59:43","新北市瑞芳區蛇子形路6號","121.825045","25.1065983333333","6501200","瑞芳區"
"224007","273-VK","2017/07/20 16:59:41","新北市瑞芳區瑞竹路101號","121.763115","25.103465","6501200","瑞芳區"
"224005","271-BY","2017/07/20 16:59:46","新北市瑞芳區哩咾路1號","121.872743333333","25.12401","6501200","瑞芳區"
"227010","642-TC","2017/07/20 16:59:42","新北市雙溪區牡丹里聖南14號","121.858845","25.05277","6502500","雙溪區"
"227004","400-TW","2017/07/20 16:59:52","新北市雙溪區長源里柑腳35號","121.803921666667","25.0136283333333","6502500","雙溪區"
"251004","009-UM","2017/07/20 16:59:48","新北市淡水區中正路二段31號","121.419435","25.1823283333333","6501000","淡水區"
"251007","179-VK","2017/07/20 16:59:41","新北市淡水區中山路42號","121.444201666667","25.1699983333333","6501000","淡水區"
"251008","181-VK","2017/07/20 16:59:53","新北市淡水區樹梅坑9號","121.472741666667","25.1426966666667","6501000","淡水區"
"251014","182-VK","2017/07/20 16:59:40","新北市淡水區淡金路四段472巷24號","121.45294","25.2239716666667","6501000","淡水區"
"251012","441-VK","2017/07/20 16:59:41","新北市淡水區中正路二段31號","121.41956","25.181495","6501000","淡水區"
"251016","442-VK","2017/07/20 16:59:36","新北市淡水區瓦坑7-2號","121.478188333333","25.1826433333333","6501000","淡水區"
"251005","443-VK","2017/07/20 16:58:58","新北市淡水區中正東路36-1號","121.448875","25.1657633333333","6501000","淡水區"
"251011","650-BX","2017/07/20 16:59:35","新北市淡水區中正東路一段3巷2號","121.450513333333","25.164725","6501000","淡水區"
"252002","178-VK","2017/07/20 16:59:43","新北市三芝區忠孝街177號","121.505276666667","25.2614966666667","6502100","三芝區"
"252001","292-VK","2017/07/20 16:59:51","新北市三芝區淡金路二段89號","121.503925","25.260805","6502100","三芝區"
"242021","AAC-296","2017/07/20 16:56:24","新北市新莊區新泰路357巷3弄57號","121.44209","25.0393183333333","6500500","新莊區"
"242027","612-BX","2017/07/20 16:59:49","新北市新莊區新泰路357巷3弄57號","121.44214","25.0395183333333","6500500","新莊區"
"242036","566-BX","2017/07/20 16:59:48","新北市新莊區新泰路255巷83號","121.442025","25.0389966666667","6500500","新莊區"
"242034","497-BY","2017/07/20 16:59:35","新北市新莊區新泰路357巷3弄57號","121.442188333333","25.03948","6500500","新莊區"
"242046","441-UM","2017/07/20 10:43:19","新北市新莊區三和路12-21號","121.442091666667","25.0383516666667","6500500","新莊區"
"242031","415-TV","2017/07/20 16:59:49","新北市新莊區新泰路357巷3弄57號","121.441916666667","25.039115","6500500","新莊區"
"242039","400-BY","2017/07/20 16:59:41","新北市新莊區新泰路357巷3弄57號","121.442076666667","25.0396466666667","6500500","新莊區"
"242061","362-BY","2017/07/20 16:59:38","新北市新莊區新泰路255巷83號","121.442213333333","25.0387866666667","6500500","新莊區"
"242011","132-UY","2017/07/20 11:00:10","新北市新莊區新泰路255巷83號","121.442071666667","25.0390316666667","6500500","新莊區"
"242034","133-UY","2017/07/20 16:59:33","新北市新莊區三和路12-21號","121.442056666667","25.038715","6500500","新莊區"
"242044","172-VK","2017/07/20 10:54:51","新北市新莊區新泰路255巷83號","121.442201666667","25.0387916666667","6500500","新莊區"
"242007","173-VK","2017/07/20 11:00:08","新北市新莊區三和路12-21號","121.442031666667","25.0386233333333","6500500","新莊區"
"242013","175-VK","2017/07/20 16:59:37","新北市新莊區三和路12-21號","121.442021666667","25.0386433333333","6500500","新莊區"
"242017","348-TH","2017/07/20 16:59:50","新北市新莊區新泰路357巷3弄57號","121.442131666667","25.0395116666667","6500500","新莊區"
"242015","350-TH","2017/07/20 10:46:52","新北市新莊區新泰路255巷83號","121.442075","25.03891","6500500","新莊區"
"242009","351-TH","2017/07/20 16:59:47","新北市新莊區新泰路357巷3弄57號","121.442073333333","25.0395866666667","6500500","新莊區"
"238010","601-UM","2017/07/20 16:59:36","新北市樹林區中山路三段118號","121.392471666667","24.9721383333333","6500700","樹林區"
"238019","599-UM","2017/07/20 16:59:41","新北市樹林區育德街78-1號","121.388415","24.9681083333333","6500700","樹林區"
"238024","5061-A6","2017/07/20 16:59:44","新北市樹林區鎮前街156號","121.424516666667","24.9901833333333","6500700","樹林區"
"238022","312-TH","2017/07/20 16:59:51","新北市樹林區八德街263-1號","121.419305","24.9737883333333","6500700","樹林區"
"238025","303-VK","2017/07/20 16:59:44","新北市樹林區中正路22-1號","121.427853333333","24.9992916666667","6500700","樹林區"
"238017","283-BY","2017/07/20 16:59:43","新北市樹林區光武街28號","121.415826666667","25.0055","6500700","樹林區"
"238001","282-BY","2017/07/20 16:59:35","新北市樹林區大慶街99-1號","121.427646666667","24.999655","6500700","樹林區"
"239007","AAC-297","2017/07/20 16:59:51","新北市鶯歌區環河路159號","121.346686666667","24.93779","6500800","鶯歌區"
"239006","891-R6","2017/07/20 16:59:47","新北市鶯歌區二甲路9-1號","121.34548","24.9358683333333","6500800","鶯歌區"
"239008","527-UM","2017/07/20 16:59:52","新北市鶯歌區環河路155-1號","121.346563333333","24.93867","6500800","鶯歌區"
"239005","526-UM","2017/07/20 16:59:34","新北市鶯歌區環河路85號","121.347041666667","24.9392466666667","6500800","鶯歌區"
"239001","417-VK","2017/07/20 16:59:41","新北市鶯歌區二甲路12-2號","121.345463333333","24.9350083333333","6500800","鶯歌區"
"239002","359-BY","2017/07/20 16:59:51","新北市鶯歌區環河路91號","121.348471666667","24.9416716666667","6500800","鶯歌區"
"239004","193-VK","2017/07/20 16:59:46","新北市鶯歌區二甲路175號","121.345251666667","24.9358716666667","6500800","鶯歌區"
"220042","689-BX","2017/07/20 16:39:29","新北市板橋區民生路二段120號","121.47056","25.01953","6500100","板橋區"
