"lineid","car","time","location","longitude","latitude","cityid","cityname"
"234026","9371-KE","2017/07/20 17:49:54","新北市永和區和平街109巷4號","121.510836666667","25.00975","6500400","永和區"
"234011","9373-KE","2017/07/20 17:46:14","新北市永和區福和路1號","121.52644","25.0097983333333","6500400","永和區"
"249005","172-UM","2017/07/20 17:49:40","新北市八里區荖阡坑路41-10號","121.402333333333","25.132855","6502300","八里區"
"249004","303-UY","2017/07/20 17:49:52","新北市八里區中華路一段88號","121.420688333333","25.1575883333333","6502300","八里區"
"249002","305-UY","2017/07/20 16:56:42","新北市八里區牛寮埔20號","121.431855","25.1429233333333","6502300","八里區"
"249003","593-UM","2017/07/20 17:49:37","新北市八里區中山路二段123號","121.405463333333","25.1518966666667","6502300","八里區"
"249001","759-BX","2017/07/20 17:49:55","新北市八里區龍米路二段129巷1號","121.445741666667","25.1470733333333","6502300","八里區"
"248016","026-BX","2017/07/20 17:49:56","新北市五股區中興路二段83巷26-3號","121.460028333333","25.07534","6501500","五股區"
"248006","077-UY","2017/07/20 14:04:39","新北市五股區中興路二段83巷26-6號","121.459998333333","25.0751233333333","6501500","五股區"
"248010","272-BY","2017/07/20 15:29:31","新北市五股區中興路二段83巷26-6號","121.459891666667","25.0751316666667","6501500","五股區"
"248001","678-BX","2017/07/20 17:49:43","新北市五股區中興路二段37巷28號","121.46007","25.0749066666667","6501500","五股區"
"232011","375-UM","2017/07/20 17:49:44","新北市坪林區北宜路八段153號","121.706941666667","24.9344833333333","6502000","坪林區"
"244013","069-UM","2017/07/20 17:49:53","新北市林口區中正路525巷26號","121.383151666667","25.0766733333333","6501700","林口區"
"244007","080-UY","2017/07/20 17:49:46","新北市林口區佳林路1號","121.387283333333","25.082505","6501700","林口區"
"244019","403-UM","2017/07/20 17:49:48","新北市林口區文化一路一段89-6號","121.371628333333","25.0706866666667","6501700","林口區"
"244009","410-SL","2017/07/20 17:49:39","新北市林口區中北三街71號","121.38448","25.085195","6501700","林口區"
"244023","483-VK","2017/07/20 17:49:49","新北市林口區興林路348號","121.38889","25.0697983333333","6501700","林口區"
"244017","485-VK","2017/07/20 17:49:38","新北市林口區忠孝路371-1號","121.369213333333","25.07169","6501700","林口區"
"244025","656-BX","2017/07/20 17:49:45","新北市林口區文化三路一段191巷12號","121.360935","25.0702616666667","6501700","林口區"
"244021","657-BX","2017/07/20 17:49:55","新北市林口區仁愛路一段61巷15號","121.397786666667","25.06959","6501700","林口區"
"244011","701-TV","2017/07/20 17:49:35","新北市林口區竹林路48號","121.386943333333","25.0775566666667","6501700","林口區"
"243009","297-R6","2017/07/20 16:19:09","新北市泰山區黎明路25號","121.42212","25.0609133333333","6501600","泰山區"
"222003","436-BY","2017/07/20 17:49:36","新北市深坑區阿柔洋60-1號","121.608651666667","24.9985533333333","6501800","深坑區"
"222002","659-BX","2017/07/20 17:49:54","新北市深坑區平埔街22巷17弄1號","121.614868333333","25.000885","6501800","深坑區"
"231007","189-VK","2017/07/20 12:02:48","新北市新店區安華路28-1號","121.519613333333","24.960945","6500600","新店區"
"231046","278-BY","2017/07/20 17:49:45","新北市新店區下石厝路19-1號","121.532185","24.9274166666667","6500600","新店區"
"241019","156-TC","2017/07/20 17:49:48","新北市三重區中正北路166號","121.484236666667","25.0661383333333","6500200","三重區"
"241016","266-UM","2017/07/20 17:49:36","新北市三重區重新路二段132-1號","121.496041666667","25.0615966666667","6500200","三重區"
"241024","743-BX","2017/07/20 17:49:52","新北市三重區車路頭街62巷53號","121.482738333333","25.0724116666667","6500200","三重區"
"241012","941-UM","2017/07/20 17:49:39","新北市三重區龍濱路287號","121.500776666667","25.0735033333333","6500200","三重區"
"241033","AAC-255","2017/07/20 17:49:36","新北市三重區光復路一段9號","121.472266666667","25.0471016666667","6500200","三重區"
"235062","800-TS","2017/07/20 17:49:39","新北市中和區員山路36巷16-3號","121.485018333333","24.9913166666667","6500300","中和區"
"235052","805-TS","2017/07/20 17:49:46","新北市中和區員山路36巷16-3號","121.48465","24.9911933333333","6500300","中和區"
"235023","AAC-215","2017/07/20 16:54:09","新北市中和區員山路36巷16-3號","121.48496","24.9912183333333","6500300","中和區"
"247020","893-R6","2017/07/20 17:49:38","新北市蘆洲區民義街71巷25號","121.472396666667","25.0908983333333","6501400","蘆洲區"
"247010","546-UM","2017/07/20 17:49:50","新北市蘆洲區信義路216號","121.478966666667","25.0850483333333","6501400","蘆洲區"
"247018","500-BY","2017/07/20 17:49:38","新北市蘆洲區復興路227巷2弄13號","121.480625","25.0903816666667","6501400","蘆洲區"
"247006","341-TH","2017/07/20 17:49:40","新北市蘆洲區長安街8號","121.464445","25.0789466666667","6501400","蘆洲區"
"247007","339-TH","2017/07/20 17:06:47","新北市蘆洲區民生街33號","121.47539","25.0789366666667","6501400","蘆洲區"
"247024","337-TH","2017/07/20 17:49:44","新北市蘆洲區長樂路229號","121.461606666667","25.0895983333333","6501400","蘆洲區"
"247002","336-TH","2017/07/20 17:49:46","新北市蘆洲區永平街32巷33弄23號","121.458406666667","25.0924533333333","6501400","蘆洲區"
"247013","057-VK","2017/07/20 17:49:34","新北市五股區成泰路一段98巷77號","121.45219","25.0805366666667","6501400","蘆洲區"
"247012","007-UY","2017/07/20 17:49:41","新北市蘆洲區民族路165號","121.479185","25.0882833333333","6501400","蘆洲區"
"247022","002-UY","2017/07/20 17:49:41","新北市蘆洲區中正路410號","121.463006666667","25.0938083333333","6501400","蘆洲區"
"247016","001-UY","2017/07/20 17:49:44","新北市蘆洲區中正路189號","121.46831","25.085465","6501400","蘆洲區"
"228003","097-TW","2017/07/20 17:49:47","新北市貢寮區真理里美艷山街6-2號","121.928848333333","25.0607616666667","6502600","貢寮區"
"228001","212-TW","2017/07/20 17:49:36","新北市貢寮區仁理村仁愛路95-1號","121.927728333333","25.0555","6502600","貢寮區"
"228002","585-TW","2017/07/20 17:49:37","新北市貢寮區福隆里龜壽谷街11-1號","121.953835","25.0070883333333","6502600","貢寮區"
"228005","828-UM","2017/07/20 11:56:01","新北市貢寮區貢寮里朝陽街1-2號","121.912343333333","25.0212283333333","6502600","貢寮區"
"224006","676-BX","2017/07/20 17:49:43","新北市瑞芳區瑞興新村12巷1號","121.788426666667","25.1083083333333","6501200","瑞芳區"
"224002","639-TC","2017/07/20 17:38:28","新北市瑞芳區明燈路二段46號","121.80964","25.108095","6501200","瑞芳區"
"224009","285-BY","2017/07/20 17:49:36","新北市瑞芳區金光路376號","121.850831666667","25.110895","6501200","瑞芳區"
"224008","275-VK","2017/07/20 17:49:43","新北市瑞芳區明燈路一段118號","121.818671666667","25.1089533333333","6501200","瑞芳區"
"224007","273-VK","2017/07/20 17:49:41","新北市瑞芳區靜安路四段16巷1號","121.797003333333","25.0919733333333","6501200","瑞芳區"
"224005","271-BY","2017/07/20 17:49:46","新北市瑞芳區瑞芳街32-8號","121.823168333333","25.121045","6501200","瑞芳區"
"253006","032-BX","2017/07/20 17:49:46","新北市石門區中央路1號","121.565636666667","25.2914416666667","6502200","石門區"
"208003","665-BX","2017/07/20 17:49:52","新北市金山區磺清路135號","121.639461666667","25.227735","6502700","金山區"
"208001","761-BX","2017/07/20 17:49:41","新北市金山區磺清路121號","121.639601666667","25.2279","6502700","金山區"
"251009","008-UM","2017/07/20 17:37:25","新北市淡水區中正路114號","121.441706666667","25.169595","6501000","淡水區"
"251004","009-UM","2017/07/20 17:49:48","新北市淡水區民權路50號","121.4594","25.1372233333333","6501000","淡水區"
"251007","179-VK","2017/07/20 17:49:41","新北市淡水區民生路48號","121.461798333333","25.138","6501000","淡水區"
"251008","181-VK","2017/07/20 17:49:53","新北市淡水區八勢路一段155號","121.467985","25.156405","6501000","淡水區"
"251014","182-VK","2017/07/20 17:49:40","新北市淡水區公埔子16-6號","121.481031666667","25.2245816666667","6501000","淡水區"
"251010","413-VK","2017/07/20 17:49:44","新北市淡水區中正路二段54號","121.418656666667","25.1843466666667","6501000","淡水區"
"251012","441-VK","2017/07/20 17:49:40","新北市淡水區北新路一段339號","121.466665","25.1823083333333","6501000","淡水區"
"251016","442-VK","2017/07/20 17:49:36","新北市淡水區埤島39-15號","121.452756666667","25.1958866666667","6501000","淡水區"
"251005","443-VK","2017/07/20 17:49:35","新北市淡水區學府路96號","121.449326666667","25.1711566666667","6501000","淡水區"
"251001","559-UM","2017/07/20 17:49:38","新北市淡水區民權路92巷35-1號","121.46215","25.1266516666667","6501000","淡水區"
"251006","561-UM","2017/07/20 17:49:55","新北市淡水區大信街1巷16號","121.440156666667","25.1768416666667","6501000","淡水區"
"251011","650-BX","2017/07/20 17:45:55","新北市淡水區吳(仔)厝9號","121.479186666667","25.147","6501000","淡水區"
"251002","672-BX","2017/07/20 17:49:42","新北市淡水區中山路46號","121.444201666667","25.1700666666667","6501000","淡水區"
"251003","766-UM","2017/07/20 17:49:33","新北市淡水區大忠街25號","121.44386","25.1761816666667","6501000","淡水區"
"207003","550-UM","2017/07/20 17:49:52","新北市萬里區野柳里東澳路66號","121.692765","25.20097","6502800","萬里區"
"207004","225-TW","2017/07/20 17:49:45","新北市萬里區萬里里瑪鋉頂街100-1號","121.687741666667","25.180415","6502800","萬里區"
"252002","178-VK","2017/07/20 17:49:43","新北市三芝區智成街62號","121.504531666667","25.256055","6502100","三芝區"
"252001","292-VK","2017/07/20 17:49:51","新北市三芝區中山路一段12號","121.500871666667","25.2585433333333","6502100","三芝區"
"208002","170-UY","2017/07/20 17:49:42","新北市金山區磺清路135號","121.639415","25.2276466666667","6502700","金山區"
"237004","078-UY","2017/07/20 17:49:34","新北市三峽區中山路184巷8號","121.364076666667","24.936655","6500900","三峽區"
"237009","210-TH","2017/07/20 17:49:36","新北市三峽區大勇路3巷38號","121.367411666667","24.9368","6500900","三峽區"
"237013","252-BX","2017/07/20 17:49:39","新北市三峽區愛國路16巷2號","121.374023333333","24.933475","6500900","三峽區"
"237012","275-BY","2017/07/20 17:49:37","新北市三峽區文化路216號","121.368141666667","24.93588","6500900","三峽區"
"237008","302-VK","2017/07/20 17:49:29","新北市三峽區中園街181號","121.367095","24.92149","6500900","三峽區"
"237014","433-BY","2017/07/20 17:49:44","新北市三峽區文化路120巷21號","121.370956666667","24.93675","6500900","三峽區"
"237006","5529-G3","2017/07/20 17:49:49","新北市三峽區介壽路二段38巷75-1號","121.39194","24.9339216666667","6500900","三峽區"
"237011","572-TV","2017/07/20 17:39:40","新北市三峽區中山路91號","121.366408333333","24.935375","6500900","三峽區"
"237016","649-BX","2017/07/20 17:49:33","新北市三峽區白雞30-3號","121.369891666667","24.9122683333333","6500900","三峽區"
"237010","706-TV","2017/07/20 17:49:44","新北市三峽區文化路212-6號","121.368405","24.9359916666667","6500900","三峽區"
"236071","105-UM","2017/07/20 17:49:55","新北市土城區明德路二段8巷2號","121.452273333333","24.9802866666667","6501300","土城區"
"236042","107-UM","2017/07/20 17:49:36","新北市土城區城林路6巷80號","121.438431666667","24.9797566666667","6501300","土城區"
"236078","166-UM","2017/07/20 17:49:41","新北市土城區中央路三段183號","121.431325","24.9653333333333","6501300","土城區"
"236026","269-VK","2017/07/20 17:49:35","新北市土城區城林路6巷80號","121.438558333333","24.9795666666667","6501300","土城區"
"236014","270-VK","2017/07/20 17:49:43","新北市土城區城林路6巷80號","121.438536666667","24.979585","6501300","土城區"
"236037","271-VK","2017/07/20 17:49:51","新北市土城區城林路6巷80號","121.43848","24.9797116666667","6501300","土城區"
"236021","401-BY","2017/07/20 17:49:53","新北市土城區城林路6巷80號","121.438463333333","24.979805","6501300","土城區"
"236058","912-UM","2017/07/20 17:49:44","新北市土城區城林路6巷80號","121.438463333333","24.9796033333333","6501300","土城區"
"236051","913-UM","2017/07/20 17:49:50","新北市土城區城林路6巷80號","121.438541666667","24.9797066666667","6501300","土城區"
"242021","AAC-296","2017/07/20 17:49:44","新北市新莊區公園路208號","121.455016666667","25.04034","6500500","新莊區"
"242029","986-R7","2017/07/20 17:49:40","新北市新莊區復興路一段29號","121.446355","25.04185","6500500","新莊區"
"242048","751-BX","2017/07/20 17:49:41","新北市新莊區萬安街146巷24號","121.419988333333","25.022045","6500500","新莊區"
"242025","615-BX","2017/07/20 17:49:48","新北市三重區新北大道二段37號","121.47105","25.0612866666667","6500500","新莊區"
"242023","613-BX","2017/07/20 17:49:53","新北市新莊區福樂街64號","121.457631666667","25.046255","6500500","新莊區"
"242027","612-BX","2017/07/20 17:49:49","新北市新莊區昌明街2號","121.457838333333","25.05245","6500500","新莊區"
"242036","566-BX","2017/07/20 17:49:48","新北市新莊區建福路59巷13號","121.427381666667","25.02753","6500500","新莊區"
"242042","497-BY","2017/07/20 17:49:35","新北市新莊區中正路618號","121.423685","25.02935","6500500","新莊區"
"242004","442-UM","2017/07/20 17:49:54","新北市新莊區自立街248號","121.458766666667","25.0455066666667","6500500","新莊區"
"242046","441-UM","2017/07/20 17:49:35","新北市新莊區福營路97巷5號","121.434565","25.0317366666667","6500500","新莊區"
"242051","440-UM","2017/07/20 17:49:53","新北市新莊區西盛街269巷21號","121.428913333333","25.0156833333333","6500500","新莊區"
"242031","415-TV","2017/07/20 17:49:49","新北市新莊區新泰路357巷1弄15號","121.442955","25.0407316666667","6500500","新莊區"
"242002","413-TV","2017/07/20 17:49:53","新北市新莊區景德路103號","121.451706666667","25.0346083333333","6500500","新莊區"
"242039","400-BY","2017/07/20 17:49:41","新北市新莊區民安西路1號","121.426725","25.0219633333333","6500500","新莊區"
"242061","362-BY","2017/07/20 17:49:38","新北市新莊區新樹路601號","121.433183333333","25.0058516666667","6500500","新莊區"
"242058","353-BY","2017/07/20 17:49:52","新北市新莊區中正路730-18號","121.414123333333","25.0233816666667","6500500","新莊區"
"242011","132-UY","2017/07/20 17:49:51","新北市新莊區中港路672號","121.45082","25.056525","6500500","新莊區"
"242034","133-UY","2017/07/20 17:49:53","新北市新莊區新樹路13號","121.440818333333","25.0328866666667","6500500","新莊區"
"242019","135-UY","2017/07/20 17:49:39","新北市新莊區復興路二段20-2號","121.454278333333","25.0439916666667","6500500","新莊區"
"242044","172-VK","2017/07/20 17:49:41","新北市新莊區中正路857號","121.419556666667","25.0280316666667","6500500","新莊區"
"242007","173-VK","2017/07/20 17:49:49","新北市新莊區福樂街108巷2號","121.457491666667","25.0478083333333","6500500","新莊區"
"242013","175-VK","2017/07/20 17:49:37","新北市新莊區中誠街164號","121.448146666667","25.047415","6500500","新莊區"
"242056","176-VK","2017/07/20 17:49:34","新北市新莊區瓊林路46-10號","121.446945","25.0292166666667","6500500","新莊區"
"242017","348-TH","2017/07/20 17:49:50","新北市新莊區永安街94號","121.450526666667","25.0446633333333","6500500","新莊區"
"242053","349-TH","2017/07/20 17:49:47","新北市新莊區新樹路575號","121.432918333333","25.0070083333333","6500500","新莊區"
"242015","350-TH","2017/07/20 17:49:49","新北市新莊區新泰路502巷40號","121.443723333333","25.0463583333333","6500500","新莊區"
"242009","351-TH","2017/07/20 17:48:41","新北市新莊區中華路二段210巷9號","121.453653333333","25.0526466666667","6500500","新莊區"
"238015","755-BX","2017/07/20 17:49:33","新北市樹林區長壽街21巷1號","121.421625","24.9941516666667","6500700","樹林區"
"238023","601-UM","2017/07/20 17:49:50","新北市樹林區三福街70巷1號","121.40483","25.0165233333333","6500700","樹林區"
"238019","599-UM","2017/07/20 17:49:41","新北市樹林區太平路148號","121.41856","24.9781516666667","6500700","樹林區"
"238018","571-TV","2017/07/20 17:49:46","新北市樹林區鎮前街18號","121.426176666667","24.9931966666667","6500700","樹林區"
"238022","312-TH","2017/07/20 17:49:51","新北市樹林區太順街64號","121.417813333333","24.9793666666667","6500700","樹林區"
"238021","311-TH","2017/07/20 01:11:40","新北市樹林區中山路三段204號","121.386868333333","24.9682666666667","6500700","樹林區"
"238025","303-VK","2017/07/20 17:49:44","新北市樹林區三俊街83-1號","121.415905","25.0154083333333","6500700","樹林區"
"238017","283-BY","2017/07/20 17:49:43","新北市樹林區三德街30巷16弄48號","121.413796666667","25.0118416666667","6500700","樹林區"
"238014","282-BY","2017/07/20 17:49:35","新北市樹林區保安街一段340號","121.418066666667","24.9981283333333","6500700","樹林區"
"238020","268-VK","2017/07/20 17:49:56","新北市樹林區俊英街254-2號","121.42448","25.0112266666667","6500700","樹林區"
"238026","172-UY","2017/07/20 17:49:41","新北市樹林區新興街19巷2弄3號","121.400811666667","24.9727516666667","6500700","樹林區"
"238016","169-UY","2017/07/20 17:49:41","新北市樹林區復興路339號","121.417678333333","24.98773","6500700","樹林區"
"239007","AAC-297","2017/07/20 17:49:51","新北市鶯歌區鶯桃路94巷59弄13號","121.341346666667","24.9552266666667","6500800","鶯歌區"
"239006","891-R6","2017/07/20 17:49:47","新北市鶯歌區鶯桃路436巷92弄9號","121.334605","24.9672516666667","6500800","鶯歌區"
"239008","527-UM","2017/07/20 17:49:52","新北市鶯歌區香賓街29巷1號","121.337666666667","24.979645","6500800","鶯歌區"
"239005","526-UM","2017/07/20 17:49:54","新北市鶯歌區鳳吉五街7號","121.32655","24.9723133333333","6500800","鶯歌區"
"239001","417-VK","2017/07/20 17:49:41","新北市鶯歌區中正三路450號","121.322628333333","24.934575","6500800","鶯歌區"
"239003","360-BY","2017/07/20 17:49:43","新北市鶯歌區永吉街46巷43號","121.33448","24.957665","6500800","鶯歌區"
"239002","359-BY","2017/07/20 17:49:51","新北市鶯歌區國華路37號","121.342806666667","24.9555033333333","6500800","鶯歌區"
"239004","193-VK","2017/07/20 17:49:46","新北市鶯歌區文化路152號","121.351986666667","24.9505266666667","6500800","鶯歌區"
"221008","489-VK","2017/07/20 17:49:50","新北市汐止區康寧街901號","121.651286666667","25.074975","6501100","汐止區"
"221036","130-UY","2017/07/20 17:49:48","新北市汐止區汐萬路一段116號","121.653831666667","25.0712216666667","6501100","汐止區"
"221015","131-UY","2017/07/20 17:49:47","新北市汐止區長江街249-1號","121.66283","25.0793566666667","6501100","汐止區"
"221010","269-BY","2017/07/20 17:49:52","新北市汐止區汐萬路一段411號","121.64924","25.079445","6501100","汐止區"
"221031","277-VK","2017/07/20 17:49:40","新北市汐止區樟樹二路351-1號","121.643748333333","25.0739333333333","6501100","汐止區"
"221012","278-VK","2017/07/20 01:06:24","新北市汐止區康寧街901號","121.651848333333","25.07501","6501100","汐止區"
"221023","279-VK","2017/07/20 02:18:13","新北市汐止區汐萬路一段256巷1號","121.651698333333","25.074845","6501100","汐止區"
"221032","280-BY","2017/07/20 17:49:47","新北市汐止區橫科路73巷16號","121.61961","25.05129","6501100","汐止區"
"221027","281-BY","2017/07/20 17:49:43","新北市汐止區康寧街901號","121.650785","25.0753033333333","6501100","汐止區"
"221038","297-VK","2017/07/20 17:49:51","新北市汐止區汐萬路一段265巷2號","121.65071","25.0742316666667","6501100","汐止區"
"221029","298-VK","2017/07/20 17:49:42","新北市汐止區康寧街901號","121.651586666667","25.0750666666667","6501100","汐止區"
"221021","299-VK","2017/07/20 17:49:43","新北市汐止區水源路一段9號","121.657356666667","25.0669233333333","6501100","汐止區"
"221035","622-UM","2017/07/20 17:49:56","新北市汐止區汐萬路一段150號","121.652821666667","25.0711333333333","6501100","汐止區"
"221025","623-UM","2017/07/20 17:49:47","新北市汐止區大同路二段171號","121.65161","25.0648083333333","6501100","汐止區"
"221033","647-BX","2017/07/20 17:49:48","新北市汐止區橫科路73巷20弄22號","121.619803333333","25.05165","6501100","汐止區"
"221018","753-BX","2017/07/20 17:49:38","新北市汐止區忠孝東路348號","121.665586666667","25.0697616666667","6501100","汐止區"
"220042","689-BX","2017/07/20 16:39:29","新北市板橋區民生路二段120號","121.47056","25.01953","6500100","板橋區"
