"lineid","car","time","location","longitude","latitude","cityid","cityname"
"234046","148-BY","2017/07/20 19:59:38","新北市永和區永元路120號","121.522921666667","25.00254","6500400","永和區"
"234013","149-BY","2017/07/20 19:59:48","新北市永和區永平路286號","121.50769","25.0120466666667","6500400","永和區"
"234007","207-UY","2017/07/20 19:59:51","新北市永和區保生路22巷6號","121.507161666667","25.007885","6500400","永和區"
"234081","298-R6","2017/07/20 19:59:49","新北市永和區永利路106號","121.521148333333","25.0035216666667","6500400","永和區"
"234038","336-UY","2017/07/20 19:59:48","新北市永和區成功路二段4號","121.526718333333","25.00106","6500400","永和區"
"234064","337-UY","2017/07/20 19:59:27","新北市永和區中正路368巷1弄45號","121.519135","25.0009683333333","6500400","永和區"
"234086","338-UY","2017/07/20 19:59:46","新北市永和區福和路278號","121.51789","25.007465","6500400","永和區"
"234070","552-UM","2017/07/20 19:59:43","新北市永和區中正路636號","121.517058333333","25.0081766666667","6500400","永和區"
"234054","553-UM","2017/07/20 19:59:46","新北市永和區環河東路一段122號","121.520615","25.0157183333333","6500400","永和區"
"234017","745-BX","2017/07/20 19:59:51","新北市永和區文化路121巷1號","121.51249","25.015225","6500400","永和區"
"234030","746-BX","2017/07/20 19:59:47","新北市永和區民族街67巷20號","121.51968","24.9971233333333","6500400","永和區"
"234061","AAD-866","2017/07/20 19:59:49","新北市永和區得和路49號","121.516695","25.0002266666667","6500400","永和區"
"234067","847-RS","2017/07/20 19:19:20","新北市永和區福和路1號","121.526716666667","25.0099466666667","6500400","永和區"
"234042","862-TW","2017/07/20 19:59:45","新北市永和區中和路373號","121.508341666667","24.9996833333333","6500400","永和區"
"234050","863-TW","2017/07/20 19:58:35","新北市永和區保安路254號","121.506166666667","25.0126866666667","6500400","永和區"
"234026","9371-KE","2017/07/20 19:59:54","新北市永和區水源街21巷5號","121.511545","25.0043233333333","6500400","永和區"
"234011","9373-KE","2017/07/20 19:59:36","新北市永和區仁愛路352巷92弄2號","121.501208333333","25.0079616666667","6500400","永和區"
"249005","172-UM","2017/07/20 19:59:40","新北市八里區楓林路1-11號","121.385343333333","25.1313083333333","6502300","八里區"
"249004","303-UY","2017/07/20 19:59:43","新北市八里區中華路一段333-1號","121.413113333333","25.1540516666667","6502300","八里區"
"249002","305-UY","2017/07/20 19:59:41","新北市八里區龍米路一段87巷31-12號","121.453395","25.1231283333333","6502300","八里區"
"249003","593-UM","2017/07/20 19:59:37","新北市八里區中華路二段562號","121.39873","25.144925","6502300","八里區"
"249001","759-BX","2017/07/20 19:59:40","新北市八里區中華路二段312號","121.403843333333","25.1482266666667","6502300","八里區"
"248016","026-BX","2017/07/20 19:59:50","新北市五股區成泰路三段577巷80弄7號","121.449478333333","25.1042566666667","6501500","五股區"
"248008","095-VK","2017/07/20 19:59:44","新北市五股區四維路30巷15號","121.468143333333","25.071545","6501500","五股區"
"248020","225-UY","2017/07/20 19:59:52","新北市五股區凌雲路三段3-1號","121.431225","25.1068083333333","6501500","五股區"
"248012","247-BX","2017/07/18 21:13:34","新北市五股區中興路二段161號","121.457565","25.07699","6501500","五股區"
"248014","261-SL","2017/07/20 19:59:44","新北市五股區五福路22巷6號","121.434676666667","25.0889833333333","6501500","五股區"
"248010","272-BY","2017/07/20 19:59:47","新北市五股區登林路46巷2號","121.43208","25.068615","6501500","五股區"
"248004","677-BX","2017/07/20 19:59:36","新北市五股區成泰路一段32巷60號","121.435021666667","25.0670466666667","6501500","五股區"
"248002","678-BX","2017/07/20 19:59:43","新北市五股區成泰路三段436號","121.450845","25.0994866666667","6501500","五股區"
"234023","9380-KE","2017/07/20 19:59:52","新北市永和區中正路662巷1號","121.517","25.0088383333333","6500400","永和區"
"234077","969-R7","2017/07/20 19:59:39","新北市永和區民有街10巷1號","121.516058333333","24.99701","6500400","永和區"
"234074","AAC-211","2017/07/20 19:59:43","新北市永和區豫溪街205號","121.52358","25.009625","6500400","永和區"
"234067","AAC-212","2017/07/20 19:59:52","新北市永和區中山路一段213號","121.508535","25.0081416666667","6500400","永和區"
"234003","AAC-295","2017/07/20 19:59:49","新北市永和區中正路748號","121.514913333333","25.01037","6500400","永和區"
"243013","AAD-798","2017/07/20 19:59:39","新北市泰山區應化街7號","121.42387","25.0437016666667","6501600","泰山區"
"243009","297-R6","2017/07/20 19:59:34","新北市泰山區楓江路16巷19號","121.433973333333","25.0615516666667","6501600","泰山區"
"243015","380-SR","2017/07/20 19:59:41","新北市泰山區明志路二段214巷16弄16號","121.42699","25.0496016666667","6501600","泰山區"
"243014","421-VK","2017/07/20 19:59:51","新北市泰山區泰林路二段183號","121.433475","25.0609383333333","6501600","泰山區"
"243010","548-UM","2017/07/20 19:59:36","新北市泰山區中華街10巷1號","121.427853333333","25.0525016666667","6501600","泰山區"
"243011","549-UM","2017/07/20 19:59:42","新北市泰山區工專路47號","121.422898333333","25.040055","6501600","泰山區"
"243012","646-TV","2017/07/20 19:59:45","新北市泰山區全興路111號","121.433918333333","25.05661","6501600","泰山區"
"243016","680-BX","2017/07/20 19:59:48","新北市泰山區新北大道六段365號","121.422641666667","25.032895","6501600","泰山區"
"222003","436-BY","2017/07/20 19:59:36","新北市深坑區埔新街14號","121.620748333333","25.003915","6501800","深坑區"
"222001","628-TS","2017/07/20 19:59:39","新北市深坑區北深路三段145號","121.603248333333","25.0029983333333","6501800","深坑區"
"222002","659-BX","2017/07/20 19:59:34","新北市深坑區北深路二段81巷8弄1號","121.618296666667","25.0030566666667","6501800","深坑區"
"231041","002-UM","2017/07/20 19:59:47","新北市新店區中正路331-1號","121.536066666667","24.97525","6500600","新店區"
"231056","0293-UT","2017/07/20 19:59:49","新北市新店區民權路42巷32號","121.539213333333","24.9837416666667","6500600","新店區"
"231059","046-UY","2017/07/20 19:59:51","新北市新店區安康路二段147號","121.51128","24.9598016666667","6500600","新店區"
"231061","047-UY","2017/07/20 19:59:53","新北市新店區安興路87號","121.515173333333","24.975795","6500600","新店區"
"231060","106-UY","2017/07/20 19:59:48","新北市新店區安康路二段341巷1號","121.496901666667","24.9552616666667","6500600","新店區"
"231051","107-UY","2017/07/20 19:59:32","新北市新店區中央五街17號","121.529431666667","24.9744433333333","6500600","新店區"
"231047","108-UY","2017/07/20 19:59:41","新北市新店區寶宏路3-6號","121.549245","24.9762483333333","6500600","新店區"
"231052","187-VK","2017/07/20 19:59:50","新北市新店區新烏路三段寶島巷2弄3號","121.552033333333","24.89862","6500600","新店區"
"231007","189-VK","2017/07/20 12:02:48","新北市新店區安華路28-1號","121.519613333333","24.960945","6500600","新店區"
"231057","256-BX","2017/07/20 19:59:48","新北市新店區花園二路一段11號","121.55551","24.9324433333333","6500600","新店區"
"231063","268-BY","2017/07/20 19:59:51","新北市新店區黎明路52巷9號","121.502028333333","24.9487733333333","6500600","新店區"
"231046","278-BY","2017/07/20 19:59:44","新北市新店區三民路159巷19弄1號","121.532806666667","24.9741816666667","6500600","新店區"
"231050","AAD-862","2017/07/20 19:59:50","新北市新店區北宜路二段360-1號","121.564698333333","24.9524733333333","6500600","新店區"
"231055","3713-VJ","2017/07/20 19:59:44","新北市新店區中華路83巷67號","121.53835","24.9672483333333","6500600","新店區"
"231067","4772-VM","2017/07/20 19:59:54","新北市新店區秀山路11巷8號","121.532015","24.9593533333333","6500600","新店區"
"231065","512-UM","2017/07/20 19:59:49","新北市新店區安祥路106巷248號","121.473268333333","24.959375","6500600","新店區"
"231054","513-UM","2017/07/20 19:59:51","新北市新店區光明街147號","121.539511666667","24.9621933333333","6500600","新店區"
"231064","515-UM","2017/07/20 19:59:43","新北市新店區光華街22號","121.516973333333","24.9692883333333","6500600","新店區"
"231040","619-UM","2017/07/20 19:59:48","新北市新店區中正路62號","121.544266666667","24.9700616666667","6500600","新店區"
"231042","641-BX","2017/07/20 19:59:51","新北市新店區中興路一段292號","121.545888333333","24.9692033333333","6500600","新店區"
"231068","718-UY","2017/07/20 19:59:42","新北市新店區安華路28-1號","121.519265","24.9611483333333","6500600","新店區"
"231049","719-UM","2017/07/20 19:59:50","新北市新店區明德路52號","121.541743333333","24.9786033333333","6500600","新店區"
"231062","720-UM","2017/07/20 19:59:52","新北市新店區華城路5-3號","121.529318333333","24.9583366666667","6500600","新店區"
"231044","897-TW","2017/07/20 19:59:47","新北市新店區復興路44-1號","121.538606666667","24.9867266666667","6500600","新店區"
"231045","898-TW","2017/07/20 19:59:43","新北市新店區北宜路二段92-1號","121.555095","24.95354","6500600","新店區"
"231043","899-TW","2017/07/20 19:59:48","新北市新店區中正路263-3號","121.538325","24.973745","6500600","新店區"
"241011","013-R5","2017/07/20 19:59:23","新北市三重區三和路三段28-2號","121.496495","25.0706366666667","6500200","三重區"
"241028","022-UY","2017/07/20 19:59:53","新北市三重區中正南路74號","121.494168333333","25.0592933333333","6500200","三重區"
"241009","060-VK","2017/07/20 19:59:41","新北市三重區三和路四段390巷20號","121.481191666667","25.0787166666667","6500200","三重區"
"241031","061-VK","2017/07/20 19:59:36","新北市三重區重新路四段184巷16號","121.487125","25.0549683333333","6500200","三重區"
"241015","062-VK","2017/07/20 19:59:41","新北市三重區三和路二段31號","121.500956666667","25.0670933333333","6500200","三重區"
"241017","063-VK","2017/07/20 19:59:45","新北市三重區自強路一段310號","121.491261666667","25.0684466666667","6500200","三重區"
"241024","065-VK","2017/07/20 19:59:36","新北市三重區力行路二段2號","121.481941666667","25.07189","6500200","三重區"
"241026","066-VK","2017/07/20 19:59:35","新北市三重區仁慈街17號","121.501931666667","25.0630633333333","6500200","三重區"
"241003","091-VK","2017/07/20 19:59:50","新北市三重區仁愛街445巷59號","121.491435","25.0832033333333","6500200","三重區"
"241019","156-TC","2017/07/20 19:59:48","新北市三重區自強路二段7號","121.490348333333","25.0690833333333","6500200","三重區"
"241001","265-UM","2017/07/20 19:59:32","新北市三重區仁愛街283巷25號","121.493911666667","25.0795433333333","6500200","三重區"
"241016","266-UM","2017/07/20 19:59:36","新北市三重區正義北路29號","121.497488333333","25.0635283333333","6500200","三重區"
"241022","267-UM","2017/07/20 19:59:52","新北市三重區過圳街31巷2號","121.488831666667","25.0605416666667","6500200","三重區"
"241018","268-UM","2017/07/20 19:59:19","新北市三重區雙園街60號","121.495868333333","25.0676766666667","6500200","三重區"
"241032","269-UM","2017/07/20 19:59:38","新北市三重區朝陽街26巷1弄1號","121.4832","25.0565433333333","6500200","三重區"
"241013","270-UM","2017/07/20 19:59:43","新北市三重區三和路三段121號","121.49283","25.073175","6500200","三重區"
"241007","398-BY","2017/07/20 19:59:53","新北市三重區慈愛街11號","121.485251666667","25.0786516666667","6500200","三重區"
"241008","412-TH","2017/07/20 19:59:38","新北市三重區力行路二段136巷49弄4號","121.47936","25.0751783333333","6500200","三重區"
"241020","413-TH","2017/07/20 19:59:39","新北市三重區忠孝路一段101號","121.489461666667","25.072115","6500200","三重區"
"241035","462-BY","2017/07/20 19:59:47","新北市三重區大榮街9號","121.498253333333","25.0631983333333","6500200","三重區"
"241004","475-VK","2017/07/20 19:59:53","新北市三重區仁愛街425巷87號","121.492216666667","25.0826116666667","6500200","三重區"
"241005","478-VK","2017/07/20 19:59:47","新北市三重區溪尾街325巷21號","121.488603333333","25.0834116666667","6500200","三重區"
"241030","480-VK","2017/07/20 19:59:42","新北市三重區成功路173號","121.485968333333","25.0527233333333","6500200","三重區"
"241014","543-UM","2017/07/20 19:59:51","新北市三重區三和路二段172號","121.499061666667","25.0687333333333","6500200","三重區"
"241023","545-UM","2017/07/20 19:59:45","新北市三重區大有街1-1號","121.477541666667","25.0655983333333","6500200","三重區"
"241006","AAD-863","2017/07/20 19:59:50","新北市三重區力行路二段41號","121.481951666667","25.0739216666667","6500200","三重區"
"241025","887-TS","2017/07/20 19:59:50","新北市三重區頂崁街210巷20號","121.476223333333","25.06784","6500200","三重區"
"241012","941-UM","2017/07/20 19:59:39","新北市三重區仁厚街47號","121.500306666667","25.076535","6500200","三重區"
"241029","942-UM","2017/07/20 19:59:49","新北市三重區重新路三段157號","121.489871666667","25.058725","6500200","三重區"
"241033","AAC-255","2017/07/20 19:59:36","新北市三重區中興北街77號","121.469481666667","25.0477316666667","6500200","三重區"
"235066","003-UY","2017/07/20 19:59:40","新北市中和區光華街5號","121.50436","25.0043583333333","6500300","中和區"
"235056","096-UM","2017/07/20 19:59:36","新北市中和區中山路三段157號","121.473493333333","25.0061533333333","6500300","中和區"
"235039","097-UM","2017/07/20 19:59:52","新北市中和區大勇街27巷17號","121.516713333333","24.9937033333333","6500300","中和區"
"235065","098-UM","2017/07/20 19:59:55","新北市中和區莊敬路31巷36-1號","121.499835","25.0057666666667","6500300","中和區"
"235040","150-BY","2017/07/20 19:59:44","新北市中和區景安路79巷19弄21號","121.507556666667","24.9974516666667","6500300","中和區"
"235058","151-BY","2017/07/20 19:59:44","新北市中和區員山路209-2號","121.48124","24.99772","6500300","中和區"
"235055","183-VK","2017/07/20 19:59:43","新北市中和區德光路15巷13號","121.471375","25.0037566666667","6500300","中和區"
"235038","185-VK","2017/07/20 19:59:54","新北市中和區大智街55巷30弄2號","121.520981666667","24.9929666666667","6500300","中和區"
"235049","186-VK","2017/07/20 19:59:55","新北市中和區中興街33號","121.501015","24.9947033333333","6500300","中和區"
"235067","255-BX","2017/07/20 19:59:37","新北市中和區中正路751巷3弄5號","121.484411666667","24.9994166666667","6500300","中和區"
"235008","293-VK","2017/07/20 19:59:34","新北市中和區南山路417號","121.507261666667","24.9895283333333","6500300","中和區"
"235072","301-VK","2017/07/20 19:59:50","新北市八里區荖阡坑路32號","121.403663333333","25.127505","6500300","中和區"
"235043","352-BY","2017/07/20 19:59:36","新北市中和區興南路二段159巷7號","121.505396666667","24.9830883333333","6500300","中和區"
"235051","376-QA","2017/07/20 19:59:41","新北市中和區中興街210號","121.499696666667","24.9901016666667","6500300","中和區"
"235068","377-QA","2017/07/20 19:59:42","新北市中和區莊敬路2號","121.499483333333","25.0042283333333","6500300","中和區"
"235050","4979-A6","2017/07/20 19:59:50","新北市中和區景平路153號","121.513506666667","24.9917316666667","6500300","中和區"
"235069","4980-A6","2017/07/20 19:59:46","新北市中和區景新街64巷11弄2號","121.503936666667","24.998425","6500300","中和區"
"235070","611-BX","2017/07/20 19:59:53","新北市中和區景平路634-9號","121.49867","24.99961","6500300","中和區"
"235054","640-BX","2017/07/20 19:59:49","新北市中和區莒光路101號","121.47246","25.0029183333333","6500300","中和區"
"235047","732-UM","2017/07/20 19:59:48","新北市中和區和平街122號","121.50689","24.9915866666667","6500300","中和區"
"235046","733-UM","2017/07/20 19:59:45","新北市中和區興南路一段97號","121.50965","24.9883433333333","6500300","中和區"
"235057","801-TS","2017/07/20 19:59:43","新北市中和區民樂路81號","121.48464","25.00126","6500300","中和區"
"235041","802-TS","2017/07/20 19:59:50","新北市中和區永貞路244號","121.514436666667","25.0037966666667","6500300","中和區"
"235052","805-TS","2017/07/20 19:59:46","新北市中和區華新街50巷5弄22號","121.507456666667","24.9834016666667","6500300","中和區"
"235048","896-TW","2017/07/20 19:59:34","新北市中和區興南路一段20-1號","121.511328333333","24.9910533333333","6500300","中和區"
"235053","900-TW","2017/07/20 19:59:44","新北市中和區國光街215巷29號","121.467318333333","25.0005266666667","6500300","中和區"
"235037","AAC-213","2017/07/20 19:59:49","新北市中和區秀朗路三段10巷21弄8號","121.525265","24.996065","6500300","中和區"
"235059","AAC-215","2017/07/20 19:59:52","新北市中和區圓通路355號","121.49142","24.9901466666667","6500300","中和區"
"220068","013-TV","2017/07/20 19:59:44","新北市板橋區光復街146號","121.484586666667","25.0193683333333","6500100","板橋區"
"220065","072-UY","2017/07/20 19:59:53","新北市板橋區海山路33號","121.46753","25.0092066666667","6500100","板橋區"
"220106","075-UY","2017/07/20 19:59:43","新北市板橋區民治街71巷27號","121.480518333333","25.032845","6500100","板橋區"
"247020","893-R6","2017/07/20 19:59:41","新北市蘆洲區民義街66號","121.472978333333","25.08973","6501400","蘆洲區"
"247018","500-BY","2017/07/20 19:59:38","新北市蘆洲區民族路229號","121.47758","25.089845","6501400","蘆洲區"
"247006","341-TH","2017/07/20 19:59:42","新北市蘆洲區九芎街109號","121.465686666667","25.0796766666667","6501400","蘆洲區"
"247008","339-TH","2017/07/20 19:59:37","新北市蘆洲區中山一路97巷32弄1號","121.475366666667","25.0810116666667","6501400","蘆洲區"
"247024","337-TH","2017/07/20 19:59:51","新北市蘆洲區光榮路120巷12號","121.46559","25.0882966666667","6501400","蘆洲區"
"247002","336-TH","2017/07/20 19:59:46","新北市蘆洲區永樂街31巷9號","121.45814","25.0870466666667","6501400","蘆洲區"
"247014","057-VK","2017/07/20 19:12:54","新北市蘆洲區中正路516巷5號","121.460893333333","25.0980233333333","6501400","蘆洲區"
"247004","056-VK","2017/07/20 19:59:49","新北市蘆洲區永康街75號","121.455793333333","25.0851933333333","6501400","蘆洲區"
"247012","007-UY","2017/07/20 19:59:53","新北市蘆洲區中興街15巷42號","121.47988","25.0884933333333","6501400","蘆洲區"
"247022","002-UY","2017/07/20 19:59:52","新北市蘆洲區中正路174巷5號","121.467526666667","25.0878566666667","6501400","蘆洲區"
"247016","001-UY","2017/07/20 19:59:00","新北市蘆洲區光華路80號","121.467868333333","25.0827133333333","6501400","蘆洲區"
"226004","312-R5","2017/07/20 19:59:49","新北市平溪區靜安路二段561號","121.74871","25.0246316666667","6502400","平溪區"
"228003","097-TW","2017/07/20 19:59:47","新北市貢寮區仁理村仁和路230號","121.923943333333","25.05372","6502600","貢寮區"
"228005","828-UM","2017/07/20 11:56:01","新北市貢寮區貢寮里朝陽街1-2號","121.912343333333","25.0212283333333","6502600","貢寮區"
"224011","420-VK","2017/07/20 19:59:36","新北市瑞芳區崙頂路1-6號","121.847076666667","25.104695","6501200","瑞芳區"
"227010","642-TC","2017/07/20 19:59:43","新北市雙溪區新基里新基南街25號","121.866265","25.03813","6502500","雙溪區"
"227004","400-TW","2017/07/20 19:59:44","新北市雙溪區共和里東榮街12號","121.865466666667","25.0342116666667","6502500","雙溪區"
"208003","665-BX","2017/07/20 19:59:52","新北市金山區永興里濆水路5號","121.62855","25.26639","6502700","金山區"
"208001","761-BX","2017/07/20 19:59:41","新北市金山區南勢湖1號","121.62214","25.21939","6502700","金山區"
"251009","008-UM","2017/07/20 19:13:25","新北市淡水區中正路55號","121.441745","25.1695333333333","6501000","淡水區"
"251004","009-UM","2017/07/20 19:59:50","新北市淡水區民族路50巷2弄4號","121.461333333333","25.1359133333333","6501000","淡水區"
"251007","179-VK","2017/07/20 19:59:41","新北市淡水區下圭柔山91-3號","121.431036666667","25.2098883333333","6501000","淡水區"
"251008","181-VK","2017/07/20 19:59:53","新北市淡水區淡海路76號","121.423215","25.18099","6501000","淡水區"
"251014","182-VK","2017/07/20 19:59:40","新北市淡水區石頭厝14-53號","121.464093333333","25.23665","6501000","淡水區"
"251012","441-VK","2017/07/20 19:59:40","新北市淡水區下圭柔山71-3號","121.447406666667","25.2059666666667","6501000","淡水區"
"251016","442-VK","2017/07/20 19:59:36","新北市淡水區番子田16-13號","121.453736666667","25.2316","6501000","淡水區"
"251005","443-VK","2017/07/20 19:59:35","新北市淡水區學府路136巷6號","121.45082","25.17293","6501000","淡水區"
"251001","559-UM","2017/07/20 19:59:38","新北市淡水區忠愛街3-2號","121.459046666667","25.1726516666667","6501000","淡水區"
"251006","561-UM","2017/07/20 19:59:35","新北市淡水區北新路8號","121.444475","25.1774416666667","6501000","淡水區"
"251011","650-BX","2017/07/20 19:59:52","新北市淡水區崁頂55-3號","121.442331666667","25.196625","6501000","淡水區"
"251003","766-UM","2017/07/20 19:59:53","新北市淡水區淡金路二段599號","121.44637","25.1918666666667","6501000","淡水區"
"207003","550-UM","2017/07/20 19:59:52","新北市萬里區磺潭里公館崙5號","121.641901666667","25.214235","6502800","萬里區"
"207004","225-TW","2017/07/20 19:59:44","新北市萬里區北基里忠二街35號","121.685661666667","25.1757333333333","6502800","萬里區"
"252002","178-VK","2017/07/20 19:59:43","新北市三芝區三民街39巷1號","121.505416666667","25.2578733333333","6502100","三芝區"
"252001","292-VK","2017/07/20 19:59:51","新北市三芝區公正街9號","121.499718333333","25.25752","6502100","三芝區"
"208002","170-UY","2017/07/20 19:59:42","新北市金山區自強路20-1號","121.639705","25.217325","6502700","金山區"
"237004","078-UY","2017/07/20 19:59:40","新北市三峽區嘉添191號","121.369508333333","24.911485","6500900","三峽區"
"237007","153-BY","2017/07/20 19:59:46","新北市三峽區二鬮路136巷20弄83號","121.358168333333","24.909065","6500900","三峽區"
"237009","210-TH","2017/07/20 19:59:36","新北市三峽區清水街435號","121.368485","24.9255033333333","6500900","三峽區"
"237013","252-BX","2017/07/20 19:59:38","新北市三峽區溪北街9號","121.396203333333","24.9364533333333","6500900","三峽區"
"237012","275-BY","2017/07/20 19:59:37","新北市三峽區中華路3巷2號","121.374783333333","24.9322283333333","6500900","三峽區"
"237008","302-VK","2017/07/20 19:59:49","新北市三峽區大同路170號","121.372716666667","24.926805","6500900","三峽區"
"237014","433-BY","2017/07/20 19:59:44","新北市三峽區添福13-1號","121.374516666667","24.9077816666667","6500900","三峽區"
"237006","5529-G3","2017/07/20 19:59:49","新北市三峽區中園街237-1號","121.367046666667","24.919395","6500900","三峽區"
"237016","649-BX","2017/07/20 19:59:33","新北市三峽區橫溪路99巷70號","121.400888333333","24.9375783333333","6500900","三峽區"
"237005","AKY-6261","2017/07/20 19:59:43","新北市三峽區長泰街6巷23號","121.379328333333","24.9319733333333","6500900","三峽區"
"236071","105-UM","2017/07/20 19:59:35","新北市土城區千歲路26號","121.441658333333","24.9689033333333","6501300","土城區"
"236042","107-UM","2017/07/20 19:59:37","新北市土城區裕民路185巷9號","121.454031666667","24.98487","6501300","土城區"
"236078","166-UM","2017/07/20 19:59:42","新北市土城區福安街73號","121.416875","24.9636983333333","6501300","土城區"
"236030","253-BX","2017/07/20 19:59:50","新北市土城區中央路一段250巷1號","121.444206666667","24.984645","6501300","土城區"
"236026","269-VK","2017/07/20 19:59:50","新北市土城區員林街61巷2弄17號","121.444723333333","24.9777083333333","6501300","土城區"
"236014","270-VK","2017/07/20 19:59:43","新北市土城區廣福街123號","121.45626","24.9928983333333","6501300","土城區"
"236037","271-VK","2017/07/20 19:59:51","新北市土城區國際路139巷12號","121.468481666667","24.976715","6501300","土城區"
"236021","401-BY","2017/07/20 19:59:53","新北市土城區延吉街167號","121.469906666667","24.98585","6501300","土城區"
"236058","912-UM","2017/07/20 19:59:44","新北市土城區中央路一段124號","121.446471666667","24.9879083333333","6501300","土城區"
"236051","913-UM","2017/07/20 19:59:51","新北市土城區金城路三段315號","121.475085","24.9911566666667","6501300","土城區"
"236062","915-UM","2017/07/20 19:59:45","新北市土城區金城路三段163巷16號","121.468845","24.9892466666667","6501300","土城區"
"236053","AAC-216","2017/07/20 19:59:48","新北市土城區金城路三段202號","121.469185","24.9884016666667","6501300","土城區"
"242021","AAC-296","2017/07/20 19:59:46","新北市新莊區建中街16巷27號","121.449056666667","25.0386983333333","6500500","新莊區"
"242029","986-R7","2017/07/20 19:59:32","新北市新莊區中平路304號","121.444816666667","25.0519033333333","6500500","新莊區"
"242048","751-BX","2017/07/20 19:59:50","新北市新莊區後港二路18-1號","121.422643333333","25.02363","6500500","新莊區"
"242025","615-BX","2017/07/20 19:59:47","新北市新莊區五工二路86巷30號","121.46047","25.0672116666667","6500500","新莊區"
"242023","613-BX","2017/07/20 19:59:37","新北市新莊區化成路159號","121.465771666667","25.0491966666667","6500500","新莊區"
"242027","612-BX","2017/07/20 19:59:37","新北市新莊區立信三街25號","121.442981666667","25.050495","6500500","新莊區"
"242036","566-BX","2017/07/20 19:59:48","新北市新莊區建安街41巷5號","121.429168333333","25.0251683333333","6500500","新莊區"
"242042","497-BY","2017/07/20 19:59:55","新北市新莊區青山路一段28巷1號","121.410756666667","25.02794","6500500","新莊區"
"242004","442-UM","2017/07/20 19:59:38","新北市新莊區化成路318號","121.465713333333","25.0484666666667","6500500","新莊區"
"242051","440-UM","2017/07/20 19:59:53","新北市新莊區西盛街137號","121.4282","25.0185683333333","6500500","新莊區"
"242031","415-TV","2017/07/20 19:59:46","新北市新莊區公園一路56號","121.44333","25.0359783333333","6500500","新莊區"
"242002","413-TV","2017/07/20 19:59:49","新北市新莊區中正路170號","121.451026666667","25.03588","6500500","新莊區"
"242039","400-BY","2017/07/20 19:59:51","新北市新莊區民安路287-5號","121.428818333333","25.0230833333333","6500500","新莊區"
"242061","362-BY","2017/07/20 19:59:50","新北市新莊區瓊泰路1號","121.44503","25.0286566666667","6500500","新莊區"
"242058","353-BY","2017/07/20 19:59:48","新北市新莊區八德街116號","121.423996666667","25.02095","6500500","新莊區"
"242011","132-UY","2017/07/20 19:59:50","新北市新莊區中港路531巷33號","121.450065","25.0514816666667","6500500","新莊區"
"242034","133-UY","2017/07/20 19:59:33","新北市新莊區建中街99號","121.446571666667","25.03647","6500500","新莊區"
"242019","135-UY","2017/07/20 19:59:53","新北市新莊區民生街28號","121.456353333333","25.042215","6500500","新莊區"
"242044","172-VK","2017/07/20 19:59:41","新北市新莊區中正路746巷43號","121.411895","25.02531","6500500","新莊區"
"242007","173-VK","2017/07/20 19:59:50","新北市新莊區思源路585號","121.459835","25.05924","6500500","新莊區"
"242013","175-VK","2017/07/20 19:59:43","新北市新莊區中港路390號","121.452428333333","25.04925","6500500","新莊區"
"242056","176-VK","2017/07/20 19:59:54","新北市新莊區中正路347巷17弄8號","121.447428333333","25.034325","6500500","新莊區"
"242017","348-TH","2017/07/20 19:59:47","新北市新莊區中華路二段45巷5號","121.453043333333","25.0465833333333","6500500","新莊區"
"242009","351-TH","2017/07/20 19:59:36","新北市新莊區昌盛街26號","121.453965","25.04982","6500500","新莊區"
"238015","755-BX","2017/07/20 19:59:40","新北市樹林區中山路三段245號","121.39275","24.9721916666667","6500700","樹林區"
"238023","601-UM","2017/07/20 19:59:35","新北市樹林區中正路755號","121.41046","25.0151333333333","6500700","樹林區"
"238024","5061-A6","2017/07/20 19:55:04","新北市樹林區中山路三段210-2號","121.380778333333","24.9669483333333","6500700","樹林區"
"238021","311-TH","2017/07/20 18:34:45","新北市樹林區佳園路一段153號","121.393918333333","24.9683516666667","6500700","樹林區"
"238025","303-VK","2017/07/20 19:57:24","新北市樹林區中山路三段210-2號","121.38085","24.9667766666667","6500700","樹林區"
"238017","283-BY","2017/07/20 19:59:43","新北市樹林區保安街二段45巷36號","121.414475","25.0001266666667","6500700","樹林區"
"238020","268-VK","2017/07/20 19:59:36","新北市板橋區大觀路三段50巷49號","121.432221666667","24.995815","6500700","樹林區"
"239006","891-R6","2017/07/20 19:59:47","新北市鶯歌區文化路55號","121.359163333333","24.9553916666667","6500800","鶯歌區"
"221008","489-VK","2017/07/20 19:59:50","台北市內湖區康樂街164號","121.619436666667","25.0731733333333","6501100","汐止區"
"221036","130-UY","2017/07/20 19:59:48","新北市汐止區忠孝東路258巷11弄2號","121.663663333333","25.0671716666667","6501100","汐止區"
"221015","131-UY","2017/07/20 19:59:47","新北市汐止區橋東街13號","121.666525","25.07588","6501100","汐止區"
"221010","269-BY","2017/07/20 19:59:51","新北市汐止區連峰街128號","121.64613","25.0791666666667","6501100","汐止區"
"221031","277-VK","2017/07/20 19:59:40","新北市汐止區福德一路176巷7弄1號","121.634981666667","25.066525","6501100","汐止區"
"221012","278-VK","2017/07/20 01:06:24","新北市汐止區康寧街901號","121.651848333333","25.07501","6501100","汐止區"
"221023","279-VK","2017/07/20 02:18:13","新北市汐止區汐萬路一段256巷1號","121.651698333333","25.074845","6501100","汐止區"
"221032","280-BY","2017/07/20 19:59:47","新北市汐止區力行街59巷7號","121.617183333333","25.0495583333333","6501100","汐止區"
"221027","281-BY","2017/07/20 19:59:52","新北市汐止區中正路55號","121.661886666667","25.069955","6501100","汐止區"
"221038","297-VK","2017/07/20 19:59:51","新北市汐止區忠孝東路438號","121.666106666667","25.07241","6501100","汐止區"
"221029","298-VK","2017/07/20 19:59:42","新北市汐止區樟樹一路137巷26號","121.641056666667","25.0659516666667","6501100","汐止區"
"221021","299-VK","2017/07/20 19:59:52","新北市汐止區復興路28號","121.656116666667","25.0632916666667","6501100","汐止區"
"221035","622-UM","2017/07/20 19:59:36","新北市汐止區長江街13巷6弄19號","121.655353333333","25.07192","6501100","汐止區"
"221025","623-UM","2017/07/20 19:59:46","新北市汐止區仁愛路77巷3號","121.661026666667","25.0634","6501100","汐止區"
"221033","647-BX","2017/07/20 19:59:48","新北市汐止區東勢街201巷2號","121.63367","25.0419483333333","6501100","汐止區"
"221018","753-BX","2017/07/20 19:59:38","新北市汐止區忠孝東路363號","121.665468333333","25.07082","6501100","汐止區"
"220079","145-BY","2017/07/20 19:59:45","新北市板橋區南雅西路二段175巷8號","121.451391666667","25.0126833333333","6500100","板橋區"
"220080","200-UY","2017/07/20 19:59:49","新北市板橋區大觀路二段55號","121.446715","25.0028133333333","6500100","板橋區"
"220082","610-BX","2017/07/20 19:59:37","新北市板橋區溪崑二街22巷2號","121.428706666667","24.9914533333333","6500100","板橋區"
"220101","245-BX","2017/07/20 19:59:39","新北市板橋區縣民大道三段103巷6號","121.476188333333","25.0227683333333","6500100","板橋區"
"220069","258-TC","2017/07/20 19:59:53","新北市板橋區南雅南路二段96號","121.453513333333","25.0013066666667","6500100","板橋區"
"220093","267-BY","2017/07/20 19:59:48","新北市板橋區長江路二段234號","121.468695","25.0324316666667","6500100","板橋區"
"220072","277-BY","2017/07/20 19:59:49","新北市板橋區金門街159號","121.432883333333","24.99042","6500100","板橋區"
"220064","280-UM","2017/07/20 19:59:47","新北市板橋區海山路41號","121.4671","25.0097866666667","6500100","板橋區"
"220071","283-VK","2017/07/20 19:59:46","新北市板橋區五權街32巷35號","121.463641666667","24.9925","6500100","板橋區"
"220094","285-UM","2017/07/20 19:59:52","新北市板橋區文德路13號","121.46246","25.0242966666667","6500100","板橋區"
"220053","285-VK","2017/07/20 19:59:50","新北市板橋區永豐街14號","121.474835","25.01684","6500100","板橋區"
"220083","286-VK","2017/07/20 19:59:51","新北市板橋區僑中二街112巷1號","121.445811666667","25.006985","6500100","板橋區"
"220081","287-VK","2017/07/20 19:59:45","新北市板橋區大觀路一段29巷59號","121.450406666667","25.0069283333333","6500100","板橋區"
"220090","288-VK","2017/07/20 19:59:47","新北市板橋區綠堤街33-4號","121.45571","25.0264466666667","6500100","板橋區"
"220061","293-UM","2017/07/20 19:59:50","新北市板橋區觀光街3巷7號","121.471628333333","25.0155583333333","6500100","板橋區"
"220084","296-UM","2017/07/20 19:59:54","新北市板橋區滿平街2-1號","121.426113333333","24.9902433333333","6500100","板橋區"
"220075","297-UM","2017/07/20 19:59:35","新北市板橋區金華街10巷48弄10號","121.457326666667","25.0198383333333","6500100","板橋區"
"220062","303-R5","2017/07/20 19:59:51","新北市板橋區光復街192巷11號","121.48629","25.0200883333333","6500100","板橋區"
"220092","307-R5","2017/07/20 19:59:45","新北市板橋區四維路259巷83號","121.460206666667","25.0264083333333","6500100","板橋區"
"220098","317-R6","2017/07/20 19:59:53","新北市板橋區新海路385巷18號","121.458211666667","25.02573","6500100","板橋區"
"220089","487-VK","2017/07/20 19:59:46","新北市板橋區龍泉街95-3號","121.45697","25.0246183333333","6500100","板橋區"
"220088","491-VK","2017/07/20 19:59:45","新北市板橋區大同街66號","121.479521666667","25.0278","6500100","板橋區"
"220035","560-BX","2017/07/20 19:59:47","新北市板橋區新生街29巷4弄1號","121.45661","25.0219033333333","6500100","板橋區"
"220103","561-BX","2017/07/20 19:59:48","新北市板橋區陽明街29巷1弄6號","121.464895","25.0215033333333","6500100","板橋區"
"220063","609-BX","2017/07/20 19:59:48","新北市板橋區中山路二段323號","121.479188333333","25.0186933333333","6500100","板橋區"
"220091","637-BX","2017/07/20 19:59:52","新北市板橋區文聖街89巷20號","121.478026666667","25.0301916666667","6500100","板橋區"
"220057","686-BX","2017/07/20 19:59:46","新北市板橋區信義路192號","121.459655","24.991095","6500100","板橋區"
"220054","741-BX","2017/07/20 19:59:39","新北市板橋區實踐路93巷74號","121.466713333333","25.0048466666667","6500100","板橋區"
"220055","827-TW","2017/07/20 19:59:38","新北市板橋區國慶路167巷35-3號","121.461495","24.9981183333333","6500100","板橋區"
"220067","829-TW","2017/07/20 19:59:43","新北市板橋區漢生東路195號","121.470121666667","25.01153","6500100","板橋區"
"220102","830-TW","2017/07/20 19:59:51","新北市板橋區仁化街56號","121.475656666667","25.03151","6500100","板橋區"
"220096","831-TW","2017/07/20 19:59:43","新北市板橋區文化路二段124巷34弄8號","121.471028333333","25.025385","6500100","板橋區"
"220074","895-R6","2017/07/20 19:59:35","新北市板橋區東門街1-2號","121.458005","25.009","6500100","板橋區"
"220073","985-R7","2017/07/20 19:59:37","新北市板橋區南雅西路二段235號","121.451525","25.0140466666667","6500100","板橋區"
"220097","AAC-210","2017/07/20 19:59:53","新北市板橋區光正街45巷34號","121.461533333333","25.0158833333333","6500100","板橋區"
"220070","AAC-253","2017/07/20 19:59:51","新北市板橋區民族路173號","121.468546666667","25.0075833333333","6500100","板橋區"
