"lineid","car","time","location","longitude","latitude","cityid","cityname"
"234067","847-RS","2017/07/20 19:19:20","新北市永和區福和路1號","121.526716666667","25.0099466666667","6500400","永和區"
"249002","305-UY","2017/07/20 20:49:41","新北市八里區商港路105巷15號","121.389026666667","25.1479383333333","6502300","八里區"
"234067","AAC-212","2017/07/20 20:49:52","新北市永和區保平路292巷46弄2號","121.507446666667","25.005375","6500400","永和區"
"234003","AAC-295","2017/07/20 20:49:53","新北市永和區福和路1號","121.526105","25.00977","6500400","永和區"
"222003","436-BY","2017/07/20 20:49:35","新北市深坑區文山路三段48-1號","121.609881666667","24.99852","6501800","深坑區"
"222001","628-TS","2017/07/20 20:49:39","新北市深坑區北深路三段133號","121.604015","25.0025066666667","6501800","深坑區"
"222002","659-BX","2017/07/20 20:49:54","新北市深坑區北深路三段93巷71號","121.603513333333","25.0011","6501800","深坑區"
"231041","002-UM","2017/07/20 20:49:47","新北市新店區中正路700巷1號","121.533948333333","24.9912966666667","6500600","新店區"
"231056","0293-UT","2017/07/20 20:49:49","新北市新店區中央三街123號","121.524425","24.9765016666667","6500600","新店區"
"231059","046-UY","2017/07/20 20:49:51","新北市新店區僑信路102巷42號","121.498845","24.946795","6500600","新店區"
"231061","047-UY","2017/07/20 20:49:53","新北市新店區新和街93巷8號","121.520888333333","24.9867016666667","6500600","新店區"
"231060","106-UY","2017/07/20 20:49:48","新北市新店區安康路三段738號","121.473883333333","24.941975","6500600","新店區"
"231051","107-UY","2017/07/20 20:49:52","新北市新店區中央路208號","121.530235","24.9738783333333","6500600","新店區"
"231047","108-UY","2017/07/20 20:49:41","新北市新店區寶元路二段1巷2號","121.550726666667","24.984055","6500600","新店區"
"231007","189-VK","2017/07/20 12:02:48","新北市新店區安華路28-1號","121.519613333333","24.960945","6500600","新店區"
"231057","256-BX","2017/07/20 20:49:48","新北市新店區新烏路一段215號","121.549315","24.9316466666667","6500600","新店區"
"231063","268-BY","2017/07/20 20:49:49","新北市新店區如意街11號","121.495091666667","24.9483783333333","6500600","新店區"
"231050","AAD-862","2017/07/20 20:49:50","新北市新店區中正路278號","121.538721666667","24.973805","6500600","新店區"
"231058","3712-VJ","2017/07/20 20:49:40","新北市新店區平等街1號","121.537071666667","24.9742833333333","6500600","新店區"
"231065","512-UM","2017/07/20 20:49:49","新北市新店區安祥路104巷6弄28號","121.482518333333","24.9629033333333","6500600","新店區"
"231054","513-UM","2017/07/20 20:49:39","新北市新店區北新路一段126巷27號","121.543205","24.969605","6500600","新店區"
"231064","515-UM","2017/07/20 20:49:43","新北市新店區安民街365巷10弄1號","121.515878333333","24.9758366666667","6500600","新店區"
"231040","619-UM","2017/07/20 20:49:48","新北市新店區中正路272號","121.538943333333","24.9736116666667","6500600","新店區"
"231042","641-BX","2017/07/20 20:49:31","新北市新店區寶高路118號","121.554543333333","24.975975","6500600","新店區"
"231068","718-UY","2017/07/20 20:49:42","新北市新店區寶元路一段105號","121.545493333333","24.9829566666667","6500600","新店區"
"231049","719-UM","2017/07/20 20:49:50","新北市新店區永業路96-1號","121.529911666667","24.9509883333333","6500600","新店區"
"231062","720-UM","2017/07/20 20:49:52","新北市新店區和成街11號","121.488311666667","24.9478866666667","6500600","新店區"
"231044","897-TW","2017/07/20 20:49:47","新北市新店區建國路148號","121.53874","24.979085","6500600","新店區"
"231043","899-TW","2017/07/20 20:49:48","新北市新店區博愛街13巷23號","121.540286666667","24.9741066666667","6500600","新店區"
"231066","AKT-0513","2017/07/20 20:49:39","新北市新店區安興路112號","121.514593333333","24.9775666666667","6500600","新店區"
"241011","013-R5","2017/07/20 20:49:43","新北市三重區龍濱路211號","121.501838333333","25.0717216666667","6500200","三重區"
"241028","022-UY","2017/07/20 20:49:53","新北市三重區中正南路50號","121.493973333333","25.0599066666667","6500200","三重區"
"241009","060-VK","2017/07/20 20:49:41","新北市三重區三和路四段388-2號","121.482071666667","25.079075","6500200","三重區"
"241031","061-VK","2017/07/20 20:49:36","新北市三重區重陽路一段113巷2弄2號","121.487493333333","25.059945","6500200","三重區"
"241015","062-VK","2017/07/20 20:49:41","新北市三重區自強路一段8號","121.498883333333","25.06825","6500200","三重區"
"241017","063-VK","2017/07/20 20:49:45","新北市三重區民生街42號","121.49165","25.06698","6500200","三重區"
"241024","065-VK","2017/07/20 20:49:36","新北市三重區大勇街82巷15弄30號","121.481258333333","25.07195","6500200","三重區"
"241026","066-VK","2017/07/20 20:49:35","新北市三重區文化南路3號","121.500043333333","25.0623833333333","6500200","三重區"
"241002","090-VK","2017/07/20 20:49:49","新北市三重區仁義街157巷28號","121.497728333333","25.0814816666667","6500200","三重區"
"241003","091-VK","2017/07/20 20:49:50","新北市三重區五華街141巷57號","121.493411666667","25.0864883333333","6500200","三重區"
"241019","156-TC","2017/07/20 20:49:48","新北市三重區自強路二段81號","121.488568333333","25.0701516666667","6500200","三重區"
"241001","265-UM","2017/07/20 20:49:52","新北市三重區自強路三段76巷25弄1號","121.485645","25.0740983333333","6500200","三重區"
"241016","266-UM","2017/07/20 20:49:36","新北市三重區自強路一段99號","121.49575","25.0664066666667","6500200","三重區"
"241022","267-UM","2017/07/20 20:49:52","新北市三重區中正北路20巷12號","121.488003333333","25.0624733333333","6500200","三重區"
"241018","268-UM","2017/07/20 20:49:39","新北市三重區正義北路291號","121.494861666667","25.0705816666667","6500200","三重區"
"241032","269-UM","2017/07/20 20:49:38","新北市三重區重陽路一段120巷48號","121.485053333333","25.0601633333333","6500200","三重區"
"241013","270-UM","2017/07/20 20:49:38","新北市三重區仁賢街12-1號","121.495636666667","25.0748666666667","6500200","三重區"
"241007","398-BY","2017/07/20 20:49:53","新北市三重區三和路四段143-1號","121.484368333333","25.07835","6500200","三重區"
"241008","412-TH","2017/07/20 20:49:38","新北市三重區永福街72巷11號","121.479456666667","25.0767466666667","6500200","三重區"
"241020","413-TH","2017/07/20 20:49:39","新北市三重區忠孝路一段101號","121.489426666667","25.072155","6500200","三重區"
"241035","462-BY","2017/07/20 20:49:47","新北市三重區文化北路119號","121.497741666667","25.0687566666667","6500200","三重區"
"241004","475-VK","2017/07/20 20:49:53","新北市三重區分子尾街19號","121.489526666667","25.0810233333333","6500200","三重區"
"241005","478-VK","2017/07/20 20:49:46","新北市三重區五華街141巷58號","121.493396666667","25.0865233333333","6500200","三重區"
"241030","480-VK","2017/07/20 20:49:42","新北市三重區昌隆街26號","121.492046666667","25.052235","6500200","三重區"
"241014","543-UM","2017/07/20 20:49:51","新北市三重區安和路54號","121.500773333333","25.0698783333333","6500200","三重區"
"241023","545-UM","2017/07/20 20:49:45","新北市三重區新北大道一段7號","121.489643333333","25.0612383333333","6500200","三重區"
"241006","AAD-863","2017/07/20 20:49:50","新北市三重區車路頭街139巷14號","121.484308333333","25.0762516666667","6500200","三重區"
"241025","887-TS","2017/07/20 20:49:50","新北市三重區貴陽街18-1號","121.484216666667","25.06191","6500200","三重區"
"241012","941-UM","2017/07/20 20:49:39","新北市三重區龍門路274巷45號","121.501231666667","25.0755433333333","6500200","三重區"
"241029","942-UM","2017/07/20 20:49:49","新北市三重區集美街263號","121.492475","25.0557583333333","6500200","三重區"
"241033","AAC-255","2017/07/20 20:49:36","新北市三重區光復路二段1號","121.472286666667","25.0534033333333","6500200","三重區"
"235072","301-VK","2017/07/20 20:49:50","新北市中和區員山路36巷12號","121.483986666667","24.99088","6500300","中和區"
"235026","800-TS","2017/07/20 20:38:52","新北市中和區員山路36巷16-3號","121.485165","24.9913566666667","6500300","中和區"
"235037","AAC-213","2017/07/20 20:49:49","新北市新店區溪園路247號","121.524726666667","24.9830916666667","6500300","中和區"
"247020","893-R6","2017/07/20 20:49:41","新北市蘆洲區仁愛街75號","121.471481666667","25.0938033333333","6501400","蘆洲區"
"247018","500-BY","2017/07/20 20:49:38","新北市蘆洲區民權路70號","121.474893333333","25.0873616666667","6501400","蘆洲區"
"247006","341-TH","2017/07/20 20:49:48","新北市蘆洲區永安南路二段14號","121.467446666667","25.07688","6501400","蘆洲區"
"247008","339-TH","2017/07/20 20:49:37","新北市蘆洲區集賢路269巷32號","121.482396666667","25.083205","6501400","蘆洲區"
"247024","337-TH","2017/07/20 20:49:51","新北市蘆洲區長樂路140號","121.462113333333","25.0901633333333","6501400","蘆洲區"
"247002","336-TH","2017/07/20 20:49:46","新北市蘆洲區長榮路345號","121.459501666667","25.087595","6501400","蘆洲區"
"247014","057-VK","2017/07/20 19:12:54","新北市蘆洲區中正路516巷5號","121.460893333333","25.0980233333333","6501400","蘆洲區"
"247004","056-VK","2017/07/20 20:49:49","新北市蘆洲區長安街100號","121.461625","25.08085","6501400","蘆洲區"
"247012","007-UY","2017/07/20 20:49:33","新北市蘆洲區民權路6-1號","121.476775","25.0855783333333","6501400","蘆洲區"
"247022","002-UY","2017/07/20 20:49:52","新北市蘆洲區三民路120號","121.471251666667","25.0872933333333","6501400","蘆洲區"
"247016","001-UY","2017/07/20 20:49:40","新北市蘆洲區正和街3號","121.470376666667","25.0827916666667","6501400","蘆洲區"
"228005","828-UM","2017/07/20 11:56:01","新北市貢寮區貢寮里朝陽街1-2號","121.912343333333","25.0212283333333","6502600","貢寮區"
"224011","420-VK","2017/07/20 20:33:24","新北市瑞芳區明燈路二段66號","121.809391666667","25.10758","6501200","瑞芳區"
"251007","179-VK","2017/07/20 20:49:41","新北市淡水區鄧公路29巷20號","121.45249","25.1700366666667","6501000","淡水區"
"251014","182-VK","2017/07/20 20:49:40","新北市淡水區公埔子32-8號","121.461823333333","25.2323916666667","6501000","淡水區"
"251010","413-VK","2017/07/20 20:49:44","新北市淡水區沙崙路145號","121.423443333333","25.1830533333333","6501000","淡水區"
"251012","441-VK","2017/07/20 20:49:40","新北市淡水區興仁路162號","121.451616666667","25.2209366666667","6501000","淡水區"
"251016","442-VK","2017/07/20 20:49:36","新北市淡水區後洲子19號","121.450875","25.22382","6501000","淡水區"
"251005","443-VK","2017/07/20 20:49:35","新北市淡水區水源街二段138-1號","121.453803333333","25.1749","6501000","淡水區"
"251001","559-UM","2017/07/20 20:49:38","新北市淡水區淡金路218號","121.460578333333","25.1672416666667","6501000","淡水區"
"251011","650-BX","2017/07/20 20:49:52","新北市淡水區新民街一段13-1號","121.432986666667","25.1845716666667","6501000","淡水區"
"251002","672-BX","2017/07/20 20:49:40","新北市淡水區中正東路3號","121.445341666667","25.169035","6501000","淡水區"
"251003","766-UM","2017/07/20 20:49:33","新北市淡水區中山北路一段247巷90號","121.442368333333","25.17939","6501000","淡水區"
"242021","AAC-296","2017/07/20 20:49:46","新北市新莊區中華路一段6號","121.451981666667","25.03665","6500500","新莊區"
"242029","986-R7","2017/07/20 20:49:52","新北市新莊區中華路二段61號","121.453048333333","25.0471383333333","6500500","新莊區"
"242048","751-BX","2017/07/20 20:49:41","新北市新莊區建國二路1號","121.435018333333","25.0237083333333","6500500","新莊區"
"242025","615-BX","2017/07/20 20:49:39","新北市三重區重新路五段283號","121.479193333333","25.0493366666667","6500500","新莊區"
"242023","613-BX","2017/07/20 20:49:37","新北市新莊區復興路三段43號","121.461508333333","25.0445283333333","6500500","新莊區"
"242027","612-BX","2017/07/20 20:49:37","新北市新莊區新樹路613號","121.435925","25.003835","6500500","新莊區"
"242036","566-BX","2017/07/20 20:49:48","新北市新莊區建國一路48號","121.434101666667","25.031155","6500500","新莊區"
"242042","497-BY","2017/07/20 20:49:55","新北市新莊區天祥街1巷1號","121.417178333333","25.0270916666667","6500500","新莊區"
"242046","441-UM","2017/07/20 20:49:35","新北市新莊區裕民街136號","121.418006666667","25.0218433333333","6500500","新莊區"
"242031","415-TV","2017/07/20 20:49:46","新北市新莊區新樹路110巷2號","121.43491","25.02622","6500500","新莊區"
"242002","413-TV","2017/07/20 20:49:49","新北市新莊區中港路10號","121.455046666667","25.0369283333333","6500500","新莊區"
"242039","400-BY","2017/07/20 20:49:52","新北市新莊區瓊林北路17號","121.439145","25.02197","6500500","新莊區"
"242061","362-BY","2017/07/20 20:49:47","新北市新莊區新樹路603號","121.43312","25.005675","6500500","新莊區"
"242034","133-UY","2017/07/20 20:49:33","新北市新莊區中正路362號","121.443275","25.0342966666667","6500500","新莊區"
"242017","348-TH","2017/07/20 20:49:37","新北市新莊區中華路一段6號","121.451961666667","25.0365083333333","6500500","新莊區"
"242053","349-TH","2017/07/20 20:49:47","新北市新莊區西盛街324巷7號","121.427531666667","25.01468","6500500","新莊區"
"242009","351-TH","2017/07/20 20:49:35","新北市新莊區環漢路二段142號","121.460381666667","25.0377066666667","6500500","新莊區"
"238023","601-UM","2017/07/20 20:49:56","新北市樹林區育德街78-1號","121.38737","24.96826","6500700","樹林區"
"221036","130-UY","2017/07/20 20:49:47","新北市汐止區忠孝東路276號","121.663575","25.068065","6501100","汐止區"
"221015","131-UY","2017/07/20 20:49:47","新北市汐止區大同路二段605號","121.66403","25.0707016666667","6501100","汐止區"
"221031","277-VK","2017/07/20 20:49:40","新北市汐止區康寧街302-1號","121.626356666667","25.0670833333333","6501100","汐止區"
"221027","281-BY","2017/07/20 20:49:38","新北市汐止區大同路二段381號","121.657561666667","25.0672316666667","6501100","汐止區"
"221038","297-VK","2017/07/20 20:49:51","新北市汐止區汐萬路一段227號","121.651828333333","25.072665","6501100","汐止區"
"221029","298-VK","2017/07/20 20:49:42","新北市汐止區樟樹二路339巷18號","121.64192","25.0716633333333","6501100","汐止區"
"221035","622-UM","2017/07/20 20:49:36","新北市汐止區汐萬路一段155號","121.653173333333","25.0710483333333","6501100","汐止區"
"221033","647-BX","2017/07/20 20:49:48","台北市南港區合順街8巷7弄38號","121.620261666667","25.041825","6501100","汐止區"
"221002","707-TV","2017/07/20 20:49:50","新北市汐止區福德二路171號","121.630768333333","25.0650666666667","6501100","汐止區"
"221018","753-BX","2017/07/20 20:49:42","新北市汐止區中華街33號","121.667201666667","25.0713483333333","6501100","汐止區"
"220083","286-VK","2017/07/20 20:49:51","新北市板橋區僑中二街112巷9號","121.445235","25.00717","6500100","板橋區"
"220070","AAC-253","2017/07/20 20:49:51","新北市五股區新五路二段222號","121.439161666667","25.0796016666667","6500100","板橋區"
