"lineid","car","time","location","longitude","latitude","cityid","cityname"
"234067","847-RS","2017/07/20 19:19:20","新北市永和區福和路1號","121.526716666667","25.0099466666667","6500400","永和區"
"231059","046-UY","2017/07/20 21:19:51","新北市新店區安豐路39號","121.50048","24.9558533333333","6500600","新店區"
"231061","047-UY","2017/07/20 21:19:33","新北市新店區柴埕路52巷1-1號","121.511436666667","24.96426","6500600","新店區"
"231051","107-UY","2017/07/20 21:19:32","新北市新店區中正路680巷51弄19號","121.535453333333","24.9898666666667","6500600","新店區"
"231047","108-UY","2017/07/20 21:19:40","新北市新店區溪園路395號","121.523556666667","24.97745","6500600","新店區"
"231007","189-VK","2017/07/20 12:02:48","新北市新店區安華路28-1號","121.519613333333","24.960945","6500600","新店區"
"231063","268-BY","2017/07/20 21:19:49","新北市新店區玫瑰路57巷39號","121.497068333333","24.9464866666667","6500600","新店區"
"231050","AAD-862","2017/07/20 21:19:50","新北市新店區中華路83巷4弄10號","121.538588333333","24.968515","6500600","新店區"
"231058","3712-VJ","2017/07/20 21:19:40","新北市新店區安康路二段414巷2號","121.495863333333","24.95778","6500600","新店區"
"231067","4772-VM","2017/07/20 21:19:42","新北市新店區薏仁坑路自強巷6號","121.496616666667","24.9585133333333","6500600","新店區"
"231065","512-UM","2017/07/20 21:19:29","新北市新店區薏仁坑路2-1號","121.50049","24.95772","6500600","新店區"
"231040","619-UM","2017/07/20 21:19:48","新北市新店區光明街231號","121.540271666667","24.96436","6500600","新店區"
"241011","013-R5","2017/07/20 21:19:43","新北市三重區龍濱路197號","121.50191","25.07144","6500200","三重區"
"241028","022-UY","2017/07/20 21:19:53","新北市三重區正義南路169號","121.498903333333","25.0574716666667","6500200","三重區"
"241009","060-VK","2017/07/20 21:19:41","新北市三重區忠孝路三段49號","121.481218333333","25.0667716666667","6500200","三重區"
"241031","061-VK","2017/07/20 21:19:36","新北市三重區五谷王南街46巷37號","121.475738333333","25.0455033333333","6500200","三重區"
"241017","063-VK","2017/07/20 21:19:45","新北市三重區中正北路25巷25弄2號","121.493251666667","25.0626316666667","6500200","三重區"
"241024","065-VK","2017/07/20 21:19:36","新北市三重區中正北路145巷14號","121.48414","25.0677833333333","6500200","三重區"
"241026","066-VK","2017/07/20 21:19:35","新北市三重區大同南路218號","121.49677","25.0562333333333","6500200","三重區"
"241002","090-VK","2017/07/20 21:19:49","新北市三重區五華街42-1號","121.494436666667","25.080935","6500200","三重區"
"241003","091-VK","2017/07/20 21:19:50","新北市三重區仁義街335號","121.495086666667","25.0847766666667","6500200","三重區"
"241019","156-TC","2017/07/20 21:19:48","新北市三重區重陽路三段7-3號","121.4892","25.0665483333333","6500200","三重區"
"241001","265-UM","2017/07/20 21:19:32","新北市三重區福隆路44號","121.492398333333","25.0783816666667","6500200","三重區"
"241016","266-UM","2017/07/20 21:19:36","新北市三重區自強路一段99號","121.495766666667","25.0663566666667","6500200","三重區"
"241018","268-UM","2017/07/20 21:19:39","新北市三重區忠孝路二段5號","121.486961666667","25.07151","6500200","三重區"
"241032","269-UM","2017/07/20 21:19:38","新北市三重區光復路二段175號","121.472176666667","25.0616933333333","6500200","三重區"
"241013","270-UM","2017/07/20 21:19:38","新北市三重區仁愛街81號","121.495993333333","25.0730783333333","6500200","三重區"
"241007","398-BY","2017/07/20 21:19:53","新北市三重區忠孝路一段75號","121.49058","25.0720133333333","6500200","三重區"
"241008","412-TH","2017/07/20 21:19:38","新北市三重區文化北路132巷49號","121.49742","25.0665083333333","6500200","三重區"
"241020","413-TH","2017/07/20 21:19:39","新北市三重區新北大道一段206巷48號","121.48255","25.06306","6500200","三重區"
"241004","475-VK","2017/07/20 21:19:53","新北市三重區碧華街272號","121.48872","25.082855","6500200","三重區"
"241005","478-VK","2017/07/20 21:19:46","新北市三重區三信路182號","121.488051666667","25.0861716666667","6500200","三重區"
"241030","480-VK","2017/07/20 21:19:42","新北市三重區五谷王北街77號","121.475736666667","25.0504783333333","6500200","三重區"
"241014","543-UM","2017/07/20 21:19:51","新北市三重區萬全街9號","121.499321666667","25.0696116666667","6500200","三重區"
"241023","545-UM","2017/07/20 21:19:45","新北市三重區中正北路176巷16號","121.482675","25.06592","6500200","三重區"
"241006","AAD-863","2017/07/20 21:19:50","新北市三重區新北大道一段7號","121.489605","25.0612266666667","6500200","三重區"
"241012","941-UM","2017/07/20 21:19:39","新北市三重區龍門路282號","121.501956666667","25.074055","6500200","三重區"
"241033","AAC-255","2017/07/20 21:19:36","新北市三重區光復路二段126巷23號","121.471008333333","25.05889","6500200","三重區"
"235026","800-TS","2017/07/20 20:38:52","新北市中和區員山路36巷16-3號","121.485165","24.9913566666667","6500300","中和區"
"247020","893-R6","2017/07/20 21:19:41","新北市蘆洲區復興路323巷368號","121.474025","25.0939416666667","6501400","蘆洲區"
"247010","546-UM","2017/07/20 21:19:45","新北市蘆洲區鷺江街16-2號","121.478845","25.08247","6501400","蘆洲區"
"247018","500-BY","2017/07/20 21:19:38","新北市蘆洲區復興路111-6號","121.476455","25.08832","6501400","蘆洲區"
"247006","341-TH","2017/07/20 21:19:42","新北市蘆洲區中華街71號","121.462135","25.0805633333333","6501400","蘆洲區"
"247008","339-TH","2017/07/20 21:19:37","新北市蘆洲區信義路74號","121.476496666667","25.0793883333333","6501400","蘆洲區"
"247024","337-TH","2017/07/20 21:19:51","新北市蘆洲區光明路110號","121.463545","25.088095","6501400","蘆洲區"
"247002","336-TH","2017/07/20 21:19:46","新北市蘆洲區永樂街38巷57弄1號","121.45841","25.0900816666667","6501400","蘆洲區"
"247004","056-VK","2017/07/20 21:19:49","新北市蘆洲區永安南路二段324號","121.456936666667","25.082765","6501400","蘆洲區"
"247012","007-UY","2017/07/20 21:19:33","新北市蘆洲區中興街114號","121.48231","25.088835","6501400","蘆洲區"
"247022","002-UY","2017/07/20 21:19:52","新北市蘆洲區三民路249號","121.468535","25.0890783333333","6501400","蘆洲區"
"247016","001-UY","2017/07/20 21:19:40","新北市蘆洲區長興路50巷35號","121.464713333333","25.0847133333333","6501400","蘆洲區"
"228005","828-UM","2017/07/20 11:56:01","新北市貢寮區貢寮里朝陽街1-2號","121.912343333333","25.0212283333333","6502600","貢寮區"
"224011","420-VK","2017/07/20 20:33:24","新北市瑞芳區明燈路二段66號","121.809391666667","25.10758","6501200","瑞芳區"
"251009","008-UM","2017/07/20 21:19:45","新北市淡水區民族路33巷16-14號","121.46314","25.1357533333333","6501000","淡水區"
"251004","009-UM","2017/07/20 21:19:40","新北市淡水區民族路33號","121.46226","25.135795","6501000","淡水區"
"251007","179-VK","2017/07/20 21:19:41","新北市淡水區水源街二段194號","121.456935","25.1761433333333","6501000","淡水區"
"251008","181-VK","2017/07/20 21:19:53","新北市淡水區水源街二段228號","121.460275","25.1763616666667","6501000","淡水區"
"251014","182-VK","2017/07/20 21:19:40","新北市淡水區六塊厝3-2號","121.450498333333","25.2406083333333","6501000","淡水區"
"251010","413-VK","2017/07/20 21:19:44","新北市淡水區中正路一段156巷51號","121.42191","25.180955","6501000","淡水區"
"251012","441-VK","2017/07/20 21:19:40","新北市淡水區石頭埔8號","121.452628333333","25.2345516666667","6501000","淡水區"
"251016","442-VK","2017/07/20 21:17:41","新北市淡水區前洲子11號","121.441903333333","25.218935","6501000","淡水區"
"251005","443-VK","2017/07/20 21:19:35","新北市淡水區水源街一段122巷37號","121.447078333333","25.1704766666667","6501000","淡水區"
"251001","559-UM","2017/07/20 21:19:38","新北市淡水區中山北路二段195號","121.444251666667","25.1854416666667","6501000","淡水區"
"251011","650-BX","2017/07/20 21:19:52","新北市淡水區新民街120巷29號","121.438841666667","25.1788083333333","6501000","淡水區"
"251002","672-BX","2017/07/20 21:19:40","新北市淡水區學府路172巷21號","121.448243333333","25.1749733333333","6501000","淡水區"
"251003","766-UM","2017/07/20 21:19:33","新北市淡水區新春街85巷25弄19號","121.438365","25.1836283333333","6501000","淡水區"
"242046","441-UM","2017/07/20 21:17:35","新北市樹林區中山路三段214號","121.380118333333","24.9680566666667","6500500","新莊區"
"221018","753-BX","2017/07/20 21:19:38","新北市汐止區汐萬路一段256巷1號","121.651961666667","25.0747533333333","6501100","汐止區"
"220070","AAC-253","2017/07/20 21:19:31","新北市八里區中山路三段409號","121.368771666667","25.1357466666667","6500100","板橋區"
