"lineid","car","time","location","longitude","latitude","cityid","cityname"
"234067","847-RS","2017/07/20 19:19:20","新北市永和區福和路1號","121.526716666667","25.0099466666667","6500400","永和區"
"231007","189-VK","2017/07/20 12:02:48","新北市新店區安華路28-1號","121.519613333333","24.960945","6500600","新店區"
"241020","413-TH","2017/07/20 22:39:49","新北市三重區重新路四段121號","121.485385","25.052035","6500200","三重區"
"235026","800-TS","2017/07/20 20:38:52","新北市中和區員山路36巷16-3號","121.485165","24.9913566666667","6500300","中和區"
"228005","828-UM","2017/07/20 11:56:01","新北市貢寮區貢寮里朝陽街1-2號","121.912343333333","25.0212283333333","6502600","貢寮區"
