"lineid","car","time","location","longitude","latitude","cityid","cityname"
"232001","290-BY","2017/10/12 06:37:55","新北市坪林區北宜路八段558號","121.718143333333","24.9092016666667","6502000","坪林區"
"232014","291-BY","2017/10/12 06:37:55","新北市坪林區北宜路八段558號","121.718056666667","24.909125","6502000","坪林區"
"232007","758-BX","2017/10/12 06:37:41","新北市坪林區北宜路八段558號","121.718161666667","24.9093383333333","6502000","坪林區"
"244003","657-BX","2017/10/12 06:37:46","新北市林口區粉寮路二段160巷28號","121.405093333333","25.09067","6501700","林口區"
"223006","022-BY","2017/10/12 06:37:45","新北市石碇區石崁14-1號","121.655026666667","24.994995","6501900","石碇區"
"223003","205-TH","2017/10/12 06:37:48","新北市石碇區碇坪路一段198號","121.671258333333","24.98227","6501900","石碇區"
"223008","406-TH","2017/10/12 06:37:49","新北市石碇區小粗坑(潭邊里)15-3號","121.67946","24.9799766666667","6501900","石碇區"
"227007","282-VK","2017/10/12 06:37:40","新北市雙溪區牡丹里下坑12號","121.851236666667","25.0562083333333","6502500","雙溪區"
