"lineid","car","time","location","longitude","latitude","cityid","cityname"
"244008","410-SL","2017/09/09 11:09:21","新北市林口區中山路146號","121.391365","25.0786916666667","6501700","林口區"
"231007","189-VK","2017/09/09 11:09:36","新北市新店區新潭路一段160巷17號","121.529626666667","24.93196","6500600","新店區"
"231008","192-VK","2017/09/09 11:09:17","新北市新店區新烏路二段300號","121.548426666667","24.9129716666667","6500600","新店區"
"227006","282-VK","2017/09/09 11:09:26","新北市雙溪區魚行里坤溪8號","121.86636","25.0212716666667","6502500","雙溪區"
"236004","339-SR","2017/09/09 10:17:18","新北市土城區永平街51號","121.427676666667","24.9591783333333","6501300","土城區"
