"lineid","car","time","location","longitude","latitude","cityid","cityname"
"222002","659-BX","2017/09/09 11:49:23","新北市深坑區深坑街89號","121.614476666667","25.0012383333333","6501800","深坑區"
"231008","192-VK","2017/09/09 11:23:37","新北市新店區成功路45-1號","121.539116666667","24.8996766666667","6500600","新店區"
"235031","255-BX","2017/09/09 11:22:10","新北市中和區和城路一段271巷1號","121.4857","24.9919466666667","6500300","中和區"
"228005","097-TW","2017/09/09 11:49:34","新北市貢寮區貢寮里朝陽街1-2號","121.912066666667","25.0213233333333","6502600","貢寮區"
"227006","282-VK","2017/09/09 11:49:26","新北市雙溪區魚行里魚杭7-1號","121.880241666667","25.026855","6502500","雙溪區"
"236004","339-SR","2017/09/09 10:17:18","新北市土城區永平街51號","121.427676666667","24.9591783333333","6501300","土城區"
