"lineid","car","time","location","longitude","latitude","cityid","cityname"
"231008","192-VK","2017/09/09 12:09:25","新北市新店區頂石厝路72號","121.535355","24.91847","6500600","新店區"
"235031","255-BX","2017/09/09 11:22:10","新北市中和區和城路一段271巷1號","121.4857","24.9919466666667","6500300","中和區"
"228005","097-TW","2017/09/09 12:09:14","新北市貢寮區福隆里東興街29-1號","121.949635","25.0181216666667","6502600","貢寮區"
"228004","212-TW","2017/09/09 12:09:15","新北市貢寮區貢寮里長泰路3號","121.907158333333","25.020605","6502600","貢寮區"
"236004","339-SR","2017/09/09 10:17:18","新北市土城區永平街51號","121.427676666667","24.9591783333333","6501300","土城區"
