"lineid","car","time","location","longitude","latitude","cityid","cityname"
"234015","745-BX","2017/09/09 12:19:35","新北市永和區福和路1號","121.526363333333","25.0098683333333","6500400","永和區"
"234076","969-R7","2017/09/09 12:19:29","新北市永和區福和路1號","121.52659","25.0099683333333","6500400","永和區"
"231008","192-VK","2017/09/09 12:19:17","新北市新店區新烏路二段9號","121.544963333333","24.9291633333333","6500600","新店區"
"235031","255-BX","2017/09/09 11:22:10","新北市中和區和城路一段271巷1號","121.4857","24.9919466666667","6500300","中和區"
"228005","097-TW","2017/09/09 12:19:14","新北市貢寮區福連里福興街39-3號","121.994078333333","25.0136283333333","6502600","貢寮區"
"228004","212-TW","2017/09/09 12:19:15","新北市貢寮區貢寮里長泰路15號","121.896556666667","25.0208233333333","6502600","貢寮區"
"236004","339-SR","2017/09/09 10:17:18","新北市土城區永平街51號","121.427676666667","24.9591783333333","6501300","土城區"
