"lineid","car","time","location","longitude","latitude","cityid","cityname"
"234044","148-BY","2017/09/09 13:19:33","新北市永和區得和路373巷19號","121.524946666667","25.00012","6500400","永和區"
"234012","149-BY","2017/09/09 13:19:16","新北市永和區信義路38號","121.513415","25.0124","6500400","永和區"
"234005","207-UY","2017/09/09 13:19:28","新北市中和區中山路二段19號","121.50501","25.0054883333333","6500400","永和區"
"234078","298-R6","2017/09/09 13:19:15","新北市永和區林森路10巷18弄1號","121.525761666667","25.0064216666667","6500400","永和區"
"234036","336-UY","2017/09/09 13:19:19","新北市永和區成功路二段47巷11號","121.527433333333","25.000165","6500400","永和區"
"234062","337-UY","2017/09/09 13:19:31","新北市永和區秀朗路二段54巷3號","121.521691666667","25.001635","6500400","永和區"
"234084","338-UY","2017/09/09 13:19:21","新北市永和區永亨路11號","121.519448333333","25.0058983333333","6500400","永和區"
"234068","552-UM","2017/09/09 13:19:31","新北市永和區中正路666巷59號","121.519083333333","25.009155","6500400","永和區"
"234052","553-UM","2017/09/09 13:19:15","新北市永和區中興街37號","121.516301666667","25.0118916666667","6500400","永和區"
"234015","745-BX","2017/09/09 13:19:15","新北市永和區文化路144巷31弄6號","121.512481666667","25.01683","6500400","永和區"
"234028","746-BX","2017/09/09 13:19:35","新北市永和區民權路29巷11號","121.520765","24.9979333333333","6500400","永和區"
"234060","AAD-866","2017/09/09 13:19:26","新北市永和區秀朗路一段175號","121.517105","25.0036716666667","6500400","永和區"
"234040","862-TW","2017/09/09 13:19:32","新北市永和區保平路151巷7號","121.510215","25.0054733333333","6500400","永和區"
"234048","863-TW","2017/09/09 13:19:05","新北市永和區保福路二段88巷18號","121.5115","25.01359","6500400","永和區"
"234025","9371-KE","2017/09/09 13:19:36","新北市永和區豫溪街28巷4號","121.51522","25.0095783333333","6500400","永和區"
"234010","9373-KE","2017/09/09 13:19:18","新北市永和區永和路二段425巷57弄7號","121.513646666667","25.017145","6500400","永和區"
"248017","225-UY","2017/09/09 13:19:19","新北市五股區御史路203號","121.431731666667","25.0999883333333","6501500","五股區"
"234022","9380-KE","2017/09/09 13:19:23","新北市永和區竹林路89號","121.519693333333","25.0121616666667","6500400","永和區"
"234076","969-R7","2017/09/09 13:19:28","新北市永和區民有街69號","121.51784","24.9956616666667","6500400","永和區"
"234072","AAC-211","2017/09/09 13:19:33","新北市永和區竹林路21號","121.517175","25.0148166666667","6500400","永和區"
"234066","AAC-212","2017/09/09 13:19:27","新北市永和區保平路50巷22弄2號","121.510606666667","25.0079433333333","6500400","永和區"
"234001","AAC-295","2017/09/09 13:19:33","新北市永和區保福路一段94號","121.512078333333","25.0104666666667","6500400","永和區"
"244005","657-BX","2017/09/09 13:19:34","新北市林口區南勢里91號","121.346103333333","25.0782416666667","6501700","林口區"
"231002","002-UM","2017/09/09 13:19:24","新北市新店區安華路28-1號","121.519836666667","24.9608483333333","6500600","新店區"
"231028","046-UY","2017/09/09 13:19:26","新北市新店區安華路28-1號","121.519656666667","24.96087","6500600","新店區"
"231030","047-UY","2017/09/09 13:19:32","新北市新店區安康路一段299-1號","121.522266666667","24.9636733333333","6500600","新店區"
"231029","106-UY","2017/09/09 13:19:23","新北市新店區安華路28-1號","121.519658333333","24.9609066666667","6500600","新店區"
"231018","107-UY","2017/09/09 13:19:20","新北市新店區安康路一段226-2號","121.523326666667","24.96366","6500600","新店區"
"231012","108-UY","2017/09/09 13:19:16","新北市新店區安康路一段11號","121.533461666667","24.96049","6500600","新店區"
"231020","187-VK","2017/09/09 13:19:25","新北市新店區安康路一段85號","121.529373333333","24.9614433333333","6500600","新店區"
"231026","256-BX","2017/09/09 13:19:31","新北市新店區安華路28-1號","121.519673333333","24.9611666666667","6500600","新店區"
"231034","268-BY","2017/09/09 13:19:29","新北市新店區安華路28-1號","121.519376666667","24.9606616666667","6500600","新店區"
"231010","278-BY","2017/09/09 13:19:21","新北市新店區秀山路68號","121.530918333333","24.9608783333333","6500600","新店區"
"231017","AAD-862","2017/09/09 13:19:25","新北市新店區安康路一段355號","121.519861666667","24.9631233333333","6500600","新店區"
"231001","355-BY","2017/09/09 13:19:29","新北市新店區安華路28-1號","121.519143333333","24.9610466666667","6500600","新店區"
"231027","3712-VJ","2017/09/09 13:19:33","新北市新店區環河路9號","121.537901666667","24.9612883333333","6500600","新店區"
"231024","3713-VJ","2017/09/09 13:19:24","新北市新店區安康路一段222-2號","121.522983333333","24.9637116666667","6500600","新店區"
"231025","4716-K9","2017/09/09 13:19:29","新北市新店區安康路一段355-10號","121.520561666667","24.9638833333333","6500600","新店區"
"231038","4715-K9","2017/09/09 13:19:24","新北市新店區安華路28-1號","121.519258333333","24.9606083333333","6500600","新店區"
"231036","512-UM","2017/09/09 13:19:28","新北市新店區安豐路49號","121.500023333333","24.9540816666667","6500600","新店區"
"231023","513-UM","2017/09/09 13:19:32","新北市新店區安康路一段9-2號","121.533883333333","24.9605916666667","6500600","新店區"
"231035","515-UM","2017/09/09 13:19:25","新北市新店區安華路28-1號","121.519766666667","24.9611716666667","6500600","新店區"
"231003","616-UM","2017/09/09 13:19:35","新北市新店區安華路28-1號","121.519468333333","24.96061","6500600","新店區"
"231006","617-UM","2017/09/09 13:19:34","新北市新店區安華路28-1號","121.519451666667","24.9609416666667","6500600","新店區"
"231013","719-UM","2017/09/09 13:19:26","新北市新店區安康路一段52巷2號","121.530158333333","24.9611816666667","6500600","新店區"
"231033","720-UM","2017/09/09 13:19:23","新北市新店區安華路30巷1號","121.51943","24.95979","6500600","新店區"
"231005","897-TW","2017/09/09 13:19:20","新北市新店區安華路28-1號","121.519606666667","24.96088","6500600","新店區"
"231004","899-TW","2017/09/09 13:19:20","新北市新店區安華路28-1號","121.519075","24.9609616666667","6500600","新店區"
"231037","AKT-0513","2017/09/09 13:19:26","新北市新店區安華路30巷1號","121.519395","24.959585","6500600","新店區"
"235030","003-UY","2017/09/09 13:18:30","新北市中和區中山路二段64巷14弄1號","121.503425","25.00556","6500300","中和區"
"235028","005-UY","2017/09/09 13:19:25","新北市中和區中正路171號","121.497795","24.99365","6500300","中和區"
"235027","006-UY","2017/09/09 13:19:16","新北市中和區員山路36巷16-3號","121.484993333333","24.9913916666667","6500300","中和區"
"235003","097-UM","2017/09/09 13:19:21","新北市中和區安平路59號","121.50967","24.9950683333333","6500300","中和區"
"235029","098-UM","2017/09/09 13:19:33","新北市中和區莊敬路49巷20弄22號","121.502743333333","25.005905","6500300","中和區"
"235004","150-BY","2017/09/09 13:19:17","新北市中和區安平路59號","121.50943","24.9952583333333","6500300","中和區"
"235022","151-BY","2017/09/09 13:19:14","新北市中和區圓通路367巷29號","121.492246666667","24.9853766666667","6500300","中和區"
"235019","183-VK","2017/09/09 13:19:26","新北市中和區員山路36巷16-3號","121.485046666667","24.99147","6500300","中和區"
"235002","185-VK","2017/09/09 13:19:18","新北市中和區大智街31號","121.520343333333","24.9919616666667","6500300","中和區"
"235013","186-VK","2017/09/09 13:19:30","新北市中和區中正路637巷52弄1號","121.485515","24.9935116666667","6500300","中和區"
"235031","255-BX","2017/09/09 13:19:13","新北市中和區新生街232號","121.483886666667","24.998155","6500300","中和區"
"235008","293-VK","2017/09/09 13:19:32","新北市中和區員山路36巷13號","121.484346666667","24.99076","6500300","中和區"
"235036","301-VK","2017/09/09 13:19:29","新北市中和區員山路36巷16-8號","121.485448333333","24.9923616666667","6500300","中和區"
"235007","352-BY","2017/09/09 13:19:18","新北市中和區景平路379號","121.504058333333","24.9934983333333","6500300","中和區"
"235015","376-QA","2017/09/09 13:19:22","新北市中和區信義街73號","121.51174","24.9877583333333","6500300","中和區"
"235032","377-QA","2017/09/09 13:19:21","新北市中和區員山路36巷16-2號","121.485198333333","24.99134","6500300","中和區"
"235025","378-QA","2017/09/09 13:19:32","新北市中和區民德路224號","121.468096666667","24.99774","6500300","中和區"
"235014","4979-A6","2017/09/09 13:19:35","新北市中和區興南路一段86號","121.509983333333","24.989365","6500300","中和區"
"235033","4980-A6","2017/09/09 13:19:15","新北市中和區連城路129號","121.496215","24.9990616666667","6500300","中和區"
"235006","551-UM","2017/09/09 13:19:28","新北市中和區大仁街20巷25弄21號","121.518686666667","24.9936133333333","6500300","中和區"
"235034","558-UM","2017/09/09 13:19:23","新北市中和區圓通路215號","121.496795","24.9943083333333","6500300","中和區"
"235009","565-BX","2017/09/09 13:19:33","新北市中和區中正路273-1號","121.49556","24.9936016666667","6500300","中和區"
"235018","640-BX","2017/09/09 13:19:17","新北市中和區莒光路169號","121.472796666667","24.9999683333333","6500300","中和區"
"235011","732-UM","2017/09/09 13:19:32","新北市中和區南山路523-1號","121.507966666667","24.9872","6500300","中和區"
"235010","733-UM","2017/09/09 13:19:28","新北市中和區員山路36巷13號","121.484201666667","24.9910133333333","6500300","中和區"
"235026","800-TS","2017/09/09 13:19:24","新北市中和區景平路989巷31號","121.495163333333","25.0049183333333","6500300","中和區"
"235005","802-TS","2017/09/09 13:19:28","新北市中和區中和路252巷3號","121.507691666667","24.9992183333333","6500300","中和區"
"235016","805-TS","2017/09/09 13:19:26","新北市中和區中正路275號","121.495425","24.99376","6500300","中和區"
"235012","896-TW","2017/09/09 13:19:22","新北市中和區員山路36巷16-4號","121.485085","24.9920283333333","6500300","中和區"
"235017","900-TW","2017/09/09 13:19:25","新北市中和區員山路36巷16-3號","121.484981666667","24.9917783333333","6500300","中和區"
"235023","911-UM","2017/09/09 13:19:33","新北市中和區員山路36巷16-8號","121.485433333333","24.9922616666667","6500300","中和區"
"235001","AAC-213","2017/09/09 13:19:27","新北市中和區景平路73號","121.518898333333","24.9914333333333","6500300","中和區"
"235023","AAC-215","2017/09/09 00:36:40","新北市中和區員山路36巷16-3號","121.485011666667","24.9912266666667","6500300","中和區"
"228005","097-TW","2017/09/09 13:19:15","新北市貢寮區美豐里丹裡街18-1號","121.912695","25.0572633333333","6502600","貢寮區"
"228004","212-TW","2017/09/09 13:19:15","新北市貢寮區吉林里內寮街23號","121.901953333333","24.985605","6502600","貢寮區"
"208004","AAC-292","2017/09/09 13:19:19","新北市金山區南勢湖56號","121.614336666667","25.2145416666667","6502700","金山區"
"207002","749-BX","2017/09/09 13:19:18","新北市萬里區崁腳里崁腳路166號","121.645175","25.1561266666667","6502800","萬里區"
"252005","073-UM","2017/09/09 13:19:18","新北市三芝區八賢里八連溪65號","121.517621666667","25.231435","6502100","三芝區"
"207001","662-BX","2017/09/09 13:19:33","新北市萬里區龜吼里玉田路29號","121.681018333333","25.1948116666667","6502800","萬里區"
"236004","339-SR","2017/09/09 10:17:18","新北市土城區永平街51號","121.427676666667","24.9591783333333","6501300","土城區"
"236006","498-BY","2017/09/09 13:19:22","新北市土城區大安路138巷5號","121.43383","24.9710833333333","6501300","土城區"
"221032","280-BY","2017/09/09 13:19:33","新北市汐止區水源路一段56號","121.657543333333","25.0657533333333","6501100","汐止區"
"221002","753-BX","2017/09/09 13:19:14","新北市汐止區福德一路357號","121.628806666667","25.0615333333333","6501100","汐止區"
