"lineid","car","time","location","longitude","latitude","cityid","cityname"
"234044","148-BY","2017/09/09 13:39:33","新北市永和區永元路94號","121.52259","25.0017","6500400","永和區"
"234012","149-BY","2017/09/09 13:39:16","新北市永和區永平路258號","121.50817","25.011285","6500400","永和區"
"234005","207-UY","2017/09/09 13:39:28","新北市永和區永和路一段102號","121.513326666667","25.00721","6500400","永和區"
"234078","298-R6","2017/09/09 13:39:20","新北市永和區林森路48巷2號","121.524858333333","25.004725","6500400","永和區"
"234036","336-UY","2017/09/09 13:39:19","新北市永和區環河東路四段20號","121.528581666667","24.9996633333333","6500400","永和區"
"234062","337-UY","2017/09/09 13:39:31","新北市永和區中正路412巷19號","121.518625","25.0021066666667","6500400","永和區"
"234084","338-UY","2017/09/09 13:39:21","新北市永和區林森路41巷31號","121.526273333333","25.0042733333333","6500400","永和區"
"234068","552-UM","2017/09/09 13:39:35","新北市永和區竹林路55號","121.518196666667","25.0137616666667","6500400","永和區"
"234052","553-UM","2017/09/09 13:39:22","新北市永和區竹林路39巷24弄11號","121.51933","25.01414","6500400","永和區"
"234015","745-BX","2017/09/09 13:39:15","新北市永和區環河西路一段51巷24號","121.514193333333","25.0175683333333","6500400","永和區"
"234028","746-BX","2017/09/09 13:39:27","新北市永和區民生路67巷37號","121.524758333333","24.997455","6500400","永和區"
"234060","AAD-866","2017/09/09 13:39:26","新北市永和區中正路456號","121.517445","25.0029333333333","6500400","永和區"
"234040","862-TW","2017/09/09 13:39:12","新北市永和區中和路305巷10弄1號","121.506953333333","25.0008583333333","6500400","永和區"
"234048","863-TW","2017/09/09 13:39:26","新北市永和區保安路32號","121.5105","25.0170433333333","6500400","永和區"
"234025","9371-KE","2017/09/09 13:39:16","新北市永和區和平街95巷19號","121.511143333333","25.0091533333333","6500400","永和區"
"234010","9373-KE","2017/09/09 13:39:18","新北市永和區保福路二段23巷19號","121.510158333333","25.0112633333333","6500400","永和區"
"248017","225-UY","2017/09/09 13:39:19","新北市五股區民義路二段52-3號","121.410223333333","25.1045933333333","6501500","五股區"
"234022","9380-KE","2017/09/09 13:39:23","新北市永和區中正路702巷20弄1號","121.516528333333","25.0105666666667","6500400","永和區"
"234076","969-R7","2017/09/09 13:39:28","新北市永和區民權路28號","121.520265","24.99912","6500400","永和區"
"234072","AAC-211","2017/09/09 13:39:13","新北市永和區竹林路215號","121.520973333333","25.0088516666667","6500400","永和區"
"234066","AAC-212","2017/09/09 13:39:32","新北市永和區永貞路355巷3號","121.50895","25.0074766666667","6500400","永和區"
"234001","AAC-295","2017/09/09 13:39:33","新北市永和區自由街47號","121.513956666667","25.0059933333333","6500400","永和區"
"244005","657-BX","2017/09/09 13:39:14","新北市林口區粉寮路二段27號","121.400971666667","25.08457","6501700","林口區"
"231002","002-UM","2017/09/09 13:39:24","新北市新店區中央三街127號","121.524173333333","24.9769116666667","6500600","新店區"
"231028","046-UY","2017/09/09 13:39:26","新北市新店區安和路二段160號","121.519771666667","24.9735516666667","6500600","新店區"
"231030","047-UY","2017/09/09 13:39:32","新北市新店區安康路一段107-2號","121.528671666667","24.96166","6500600","新店區"
"231029","106-UY","2017/09/09 13:39:24","新北市新店區安康路二段226號","121.509535","24.9592416666667","6500600","新店區"
"231018","107-UY","2017/09/09 13:39:29","新北市新店區中正路384號","121.534718333333","24.9770033333333","6500600","新店區"
"231012","108-UY","2017/09/09 13:39:16","新北市新店區德正街27巷25號","121.545593333333","24.9715333333333","6500600","新店區"
"231020","187-VK","2017/09/09 13:39:25","新北市新店區永興路95-3號","121.544643333333","24.93207","6500600","新店區"
"231026","256-BX","2017/09/09 13:39:31","新北市新店區北新路一段72號","121.541303333333","24.9670266666667","6500600","新店區"
"231034","268-BY","2017/09/09 13:39:29","新北市新店區車子路109號","121.505256666667","24.9521666666667","6500600","新店區"
"231010","278-BY","2017/09/09 13:39:21","新北市新店區中正路307巷2號","121.536483333333","24.9745916666667","6500600","新店區"
"231017","AAD-862","2017/09/09 13:39:25","新北市新店區竹林路2巷27弄1號","121.550265","24.9509066666667","6500600","新店區"
"231001","355-BY","2017/09/09 13:39:29","新北市新店區中正路438號","121.534146666667","24.9782633333333","6500600","新店區"
"231027","3712-VJ","2017/09/09 13:39:13","新北市新店區新店路59號","121.538988333333","24.9523416666667","6500600","新店區"
"231024","3713-VJ","2017/09/09 13:39:24","新北市新店區華興街38巷3號","121.537201666667","24.96927","6500600","新店區"
"231025","4716-K9","2017/09/09 13:39:29","新北市新店區中央六街56號","121.527935","24.97578","6500600","新店區"
"231038","4715-K9","2017/09/09 13:39:24","新北市新店區安華路30巷1號","121.519718333333","24.959335","6500600","新店區"
"231036","512-UM","2017/09/09 13:39:28","新北市新店區安祥路147巷33號","121.476755","24.9568933333333","6500600","新店區"
"231023","513-UM","2017/09/09 13:39:32","新北市新店區新店路166號","121.537153333333","24.955705","6500600","新店區"
"231035","515-UM","2017/09/09 13:39:25","新北市新店區安忠路56巷2號","121.512846666667","24.95922","6500600","新店區"
"231003","616-UM","2017/09/09 13:39:15","新北市新店區中正路82號","121.543721666667","24.970325","6500600","新店區"
"231006","617-UM","2017/09/09 13:39:34","新北市新店區北宜路一段83號","121.53868","24.9559166666667","6500600","新店區"
"231013","719-UM","2017/09/09 13:39:26","新北市新店區二十張路135號","121.53569","24.9791983333333","6500600","新店區"
"231033","720-UM","2017/09/09 13:39:23","新北市新店區莒光路44巷21弄11-6號","121.51848","24.9522133333333","6500600","新店區"
"231005","897-TW","2017/09/09 13:39:20","新北市新店區寶橋路217巷5號","121.547663333333","24.9786266666667","6500600","新店區"
"231004","899-TW","2017/09/09 13:39:20","新北市新店區北新路二段1號","121.54267","24.9712833333333","6500600","新店區"
"231037","AKT-0513","2017/09/09 13:39:30","新北市新店區安康路二段406號","121.496853333333","24.95532","6500600","新店區"
"235030","003-UY","2017/09/09 13:39:31","新北市中和區水源路34巷2號","121.504756666667","25.0035666666667","6500300","中和區"
"235028","005-UY","2017/09/09 13:39:25","新北市中和區連城路137號","121.495931666667","24.998805","6500300","中和區"
"235027","006-UY","2017/09/09 13:39:16","新北市中和區連城路389巷8號","121.486453333333","24.99566","6500300","中和區"
"235003","097-UM","2017/09/09 13:39:21","新北市中和區大勇街25巷46號","121.515326666667","24.9940716666667","6500300","中和區"
"235029","098-UM","2017/09/09 13:39:33","新北市中和區莊敬路33巷36弄14號","121.500596666667","25.0064416666667","6500300","中和區"
"235004","150-BY","2017/09/09 13:39:17","新北市中和區保健路50巷68號","121.509113333333","24.9952316666667","6500300","中和區"
"235022","151-BY","2017/09/09 13:39:14","新北市中和區圓通路369巷36弄55號","121.490493333333","24.983645","6500300","中和區"
"235019","183-VK","2017/09/09 13:39:26","新北市中和區莒光路120巷12號","121.471653333333","25.0017533333333","6500300","中和區"
"235002","185-VK","2017/09/09 13:39:18","新北市中和區自立路147號","121.522628333333","24.99308","6500300","中和區"
"235013","186-VK","2017/09/09 13:39:30","新北市中和區明義街11巷10弄1號","121.503806666667","24.9947483333333","6500300","中和區"
"235031","255-BX","2017/09/09 13:39:33","新北市中和區新生街220巷4號","121.482985","24.9985416666667","6500300","中和區"
"235008","293-VK","2017/09/09 13:39:32","新北市中和區復興路263巷7-3號","121.502868333333","24.9899033333333","6500300","中和區"
"235036","301-VK","2017/09/09 13:39:29","新北市中和區連城路221號","121.494235","24.997685","6500300","中和區"
"235007","352-BY","2017/09/09 13:39:18","新北市中和區景平路163號","121.512368333333","24.9924583333333","6500300","中和區"
"235015","376-QA","2017/09/09 13:39:22","新北市中和區華新街232巷24號","121.505678333333","24.9825833333333","6500300","中和區"
"235032","377-QA","2017/09/09 13:39:24","新北市中和區中正路211巷8號","121.496983333333","24.99327","6500300","中和區"
"235025","378-QA","2017/09/09 13:39:32","新北市中和區民享街92巷16號","121.47436","24.999875","6500300","中和區"
"235014","4979-A6","2017/09/09 13:39:22","新北市中和區景新街496巷30弄1號","121.51347","24.9855033333333","6500300","中和區"
"235033","4980-A6","2017/09/09 13:39:15","新北市中和區南山路24號","121.502065","24.9983133333333","6500300","中和區"
"235006","551-UM","2017/09/09 13:39:28","新北市中和區成功路97巷5弄17號","121.526473333333","24.9923516666667","6500300","中和區"
"235034","558-UM","2017/09/09 13:39:23","新北市中和區南華路17號","121.50279","24.9957533333333","6500300","中和區"
"235009","565-BX","2017/09/09 13:39:33","新北市中和區復興路49巷2號","121.504631666667","24.9898433333333","6500300","中和區"
"235018","640-BX","2017/09/09 13:39:17","新北市中和區民享街93-2號","121.474721666667","25.0003966666667","6500300","中和區"
"235024","647-TV","2017/09/09 13:39:16","新北市中和區中山路二段612號","121.481658333333","25.0054316666667","6500300","中和區"
"235011","732-UM","2017/09/09 13:39:32","新北市中和區南山路322號","121.507855","24.9866083333333","6500300","中和區"
"235010","733-UM","2017/09/09 13:39:32","新北市中和區興南路一段85巷5號","121.510016666667","24.9887466666667","6500300","中和區"
"235026","800-TS","2017/09/09 13:39:24","新北市中和區中山路二段340巷38號","121.493376666667","25.003915","6500300","中和區"
"235021","801-TS","2017/09/09 13:39:27","新北市中和區民享街97巷17號","121.475415","24.9996316666667","6500300","中和區"
"235005","802-TS","2017/09/09 13:39:28","新北市中和區中安街76號","121.512093333333","25.00206","6500300","中和區"
"235016","805-TS","2017/09/09 13:39:26","新北市中和區興南路三段42-2號","121.49586","24.9772333333333","6500300","中和區"
"235012","896-TW","2017/09/09 13:39:22","新北市中和區中正路81號","121.500755","24.9934233333333","6500300","中和區"
"235017","900-TW","2017/09/09 13:39:25","新北市土城區延壽路77巷2號","121.469191666667","24.9928","6500300","中和區"
"235020","911-UM","2017/09/09 13:39:33","新北市中和區員山路466巷21弄7號","121.4808","25.00697","6500300","中和區"
"235001","AAC-213","2017/09/09 13:39:27","新北市中和區景平路111巷63號","121.515216666667","24.9903366666667","6500300","中和區"
"235023","AAC-215","2017/09/09 00:36:40","新北市中和區員山路36巷16-3號","121.485011666667","24.9912266666667","6500300","中和區"
"220016","013-TV","2017/09/09 13:39:20","新北市板橋區民生路二段120號","121.470385","25.0196733333333","6500100","板橋區"
"220034","073-UY","2017/09/09 13:39:16","新北市板橋區南雅西路二段175巷2號","121.451528333333","25.0124833333333","6500100","板橋區"
"220017","AAD-861","2017/09/09 13:39:36","新北市板橋區華東街1-10號","121.448208333333","24.9950833333333","6500100","板橋區"
"247011","546-UM","2017/09/09 13:39:09","新北市蘆洲區三民路550號","121.461791666667","25.09351","6501400","蘆洲區"
"247009","339-TH","2017/09/09 13:39:15","新北市五股區凌雲路一段21號","121.455196666667","25.097705","6501400","蘆洲區"
"247015","057-VK","2017/09/09 13:39:29","新北市五股區凌雲路一段20號","121.45254","25.10058","6501400","蘆洲區"
"247005","056-VK","2017/09/09 13:39:28","新北市五股區中興路二段182巷50號","121.455543333333","25.0814966666667","6501400","蘆洲區"
"247017","001-UY","2017/09/09 13:39:15","新北市五股區成泰路三段358號","121.45138","25.098355","6501400","蘆洲區"
"228005","097-TW","2017/09/09 13:39:14","新北市貢寮區美豐里文秀坑8號","121.902591666667","25.0504533333333","6502600","貢寮區"
"228004","212-TW","2017/09/09 13:39:15","新北市貢寮區龍崗里嵩陽街17號","121.907495","25.009015","6502600","貢寮區"
"208004","AAC-292","2017/09/09 13:39:19","新北市金山區重和里茅埔頭22號","121.601528333333","25.213445","6502700","金山區"
"207002","749-BX","2017/09/09 13:39:18","新北市萬里區崁腳里崁腳路166號","121.645213333333","25.1560533333333","6502800","萬里區"
"252005","073-UM","2017/09/09 13:38:58","新北市三芝區圓山里木屐寮38-1號","121.528521666667","25.2258916666667","6502100","三芝區"
"207001","662-BX","2017/09/09 13:39:13","新北市萬里區磺潭里公館崙24號","121.635153333333","25.2130316666667","6502800","萬里區"
"236068","105-UM","2017/09/09 13:39:26","新北市土城區城林路6巷80號","121.438381666667","24.9798083333333","6501300","土城區"
"236041","107-UM","2017/09/09 13:39:26","新北市土城區城林路6巷80號","121.438515","24.9799316666667","6501300","土城區"
"236025","269-VK","2017/09/09 13:39:28","新北市土城區城林路6巷80號","121.438445","24.97991","6501300","土城區"
"236013","270-VK","2017/09/09 13:39:17","新北市土城區城林路6巷80號","121.438513333333","24.9797433333333","6501300","土城區"
"236035","271-VK","2017/09/09 13:39:24","新北市土城區城林路6巷80號","121.438501666667","24.97982","6501300","土城區"
"236004","339-SR","2017/09/09 10:17:18","新北市土城區永平街51號","121.427676666667","24.9591783333333","6501300","土城區"
"236006","498-BY","2017/09/09 13:39:22","新北市土城區員福街6號","121.441816666667","24.9784983333333","6501300","土城區"
"221032","280-BY","2017/09/09 13:39:33","新北市汐止區秀峰路60號","121.659663333333","25.0649383333333","6501100","汐止區"
"221002","753-BX","2017/09/09 13:39:14","新北市汐止區原興路60巷8-1號","121.633166666667","25.065855","6501100","汐止區"
"220027","145-BY","2017/09/09 13:39:28","新北市板橋區大仁街16號","121.455846666667","25.017","6500100","板橋區"
"220028","200-UY","2017/09/09 13:39:19","新北市板橋區華東街1-10號","121.448351666667","24.9951983333333","6500100","板橋區"
"220030","610-BX","2017/09/09 13:39:14","新北市板橋區華東街1-10號","121.448251666667","24.9950083333333","6500100","板橋區"
"220023","256-TC","2017/09/09 13:39:13","新北市板橋區華東街1-10號","121.448195","24.9950266666667","6500100","板橋區"
"220046","257-TC","2017/09/09 13:39:30","新北市板橋區民生路二段120號","121.4705","25.0195183333333","6500100","板橋區"
"220019","283-VK","2017/09/09 13:39:17","新北市板橋區華東街1-9號","121.448066666667","24.9949283333333","6500100","板橋區"
"220043","285-UM","2017/09/09 13:39:24","新北市板橋區民生路二段161巷1號","121.470188333333","25.0201133333333","6500100","板橋區"
"220001","285-VK","2017/09/09 13:39:29","新北市板橋區民生路二段120號","121.470428333333","25.0199116666667","6500100","板橋區"
"220039","288-VK","2017/09/09 13:39:20","新北市板橋區民生路二段120號","121.470343333333","25.0199283333333","6500100","板橋區"
"220014","299-UM","2017/09/09 13:39:24","新北市板橋區民生路二段120號","121.470481666667","25.0196733333333","6500100","板橋區"
"220047","317-R6","2017/09/09 00:35:39","新北市板橋區民生路二段161巷9號","121.470271666667","25.0196233333333","6500100","板橋區"
"220012","486-VK","2017/09/09 13:39:16","新北市板橋區館前西路60號","121.458181666667","25.0070516666667","6500100","板橋區"
"220104","560-BX","2017/09/09 13:39:31","新北市板橋區南雅西路二段145巷10號","121.451605","25.01195","6500100","板橋區"
"220032","568-UM","2017/09/09 13:39:18","新北市板橋區華東街1-9號","121.44821","24.9949666666667","6500100","板橋區"
"220025","687-BX","2017/09/09 13:39:26","新北市板橋區大觀路三段236-10號","121.429336666667","24.9921833333333","6500100","板橋區"
"220042","689-BX","2017/09/09 13:39:27","新北市板橋區民生路二段188號","121.470178333333","25.020455","6500100","板橋區"
"220002","741-BX","2017/09/09 13:39:15","新北市板橋區華東街1-9號","121.448066666667","24.9949533333333","6500100","板橋區"
"220045","831-TW","2017/09/09 01:38:22","新北市板橋區民生路二段161巷1號","121.470108333333","25.019905","6500100","板橋區"
"220022","895-R6","2017/09/09 13:39:32","新北市板橋區南雅南路一段8號","121.455746666667","25.006295","6500100","板橋區"
"220021","985-R7","2017/09/09 13:39:23","新北市板橋區華東街1-10號","121.4483","24.9950016666667","6500100","板橋區"
