"lineid","car","time","location","longitude","latitude","cityid","cityname"
"234044","148-BY","2017/09/09 14:09:33","新北市永和區成功路二段37號","121.526808333333","25.0004383333333","6500400","永和區"
"234012","149-BY","2017/09/09 14:09:29","新北市永和區永貞路407號","121.507556666667","25.0090966666667","6500400","永和區"
"234005","207-UY","2017/09/09 14:09:28","新北市永和區保平路222號","121.509665","25.00575","6500400","永和區"
"234078","298-R6","2017/09/09 14:09:34","新北市永和區國中路104巷2弄1號","121.524458333333","25.006835","6500400","永和區"
"234036","336-UY","2017/09/09 14:09:25","新北市永和區成功路一段93巷23弄15號","121.528448333333","25.0035183333333","6500400","永和區"
"234062","337-UY","2017/09/09 14:09:31","新北市永和區永元路50號","121.522261666667","25.0009783333333","6500400","永和區"
"234084","338-UY","2017/09/09 14:09:21","新北市永和區福和路51號","121.523211666667","25.0079433333333","6500400","永和區"
"234068","552-UM","2017/09/09 14:09:35","新北市永和區永寧街115巷9號","121.518456666667","25.0061766666667","6500400","永和區"
"234052","553-UM","2017/09/09 14:09:15","新北市永和區博愛街15號","121.517145","25.015825","6500400","永和區"
"234015","745-BX","2017/09/09 14:09:15","新北市永和區文化路20號","121.515321666667","25.0150666666667","6500400","永和區"
"234028","746-BX","2017/09/09 14:09:27","新北市中和區大勇街23號","121.517113333333","24.992785","6500400","永和區"
"234060","AAD-866","2017/09/09 14:09:32","新北市永和區安樂路100巷5號","121.514213333333","24.9993683333333","6500400","永和區"
"234040","862-TW","2017/09/09 14:09:32","新北市永和區雙和街64巷14號","121.509641666667","25.003295","6500400","永和區"
"234048","863-TW","2017/09/09 14:09:25","新北市永和區環河西路二段21號","121.507673333333","25.015955","6500400","永和區"
"234025","9371-KE","2017/09/09 14:09:16","新北市永和區安樂路272巷11號","121.51494","25.00439","6500400","永和區"
"234010","9373-KE","2017/09/09 14:09:29","新北市永和區仁愛路352巷122弄33號","121.500853333333","25.0092616666667","6500400","永和區"
"248017","225-UY","2017/09/09 14:09:19","新北市五股區民義路二段12-1號","121.421048333333","25.0963366666667","6501500","五股區"
"234022","9380-KE","2017/09/09 14:09:23","新北市永和區竹林路25巷38號","121.51831","25.015005","6500400","永和區"
"234076","969-R7","2017/09/09 14:09:29","新北市永和區民有街75巷10弄33號","121.519243333333","24.9960633333333","6500400","永和區"
"234072","AAC-211","2017/09/09 14:09:13","新北市永和區福和路174號","121.520946666667","25.0078066666667","6500400","永和區"
"234066","AAC-212","2017/09/09 14:09:27","新北市永和區保平路268巷49號","121.507286666667","25.00646","6500400","永和區"
"234001","AAC-295","2017/09/09 14:09:33","新北市永和區中正路708號","121.515971666667","25.0100133333333","6500400","永和區"
"244005","657-BX","2017/09/09 14:09:14","新北市林口區粉寮路二段160巷28號","121.40515","25.0907416666667","6501700","林口區"
"231002","002-UM","2017/09/09 14:09:24","新北市新店區中正路566號","121.533788333333","24.9875133333333","6500600","新店區"
"231028","046-UY","2017/09/09 14:09:26","新北市新店區安和路2段237-1號","121.516898333333","24.9766966666667","6500600","新店區"
"231030","047-UY","2017/09/09 14:09:32","新北市新店區安民街65巷21-2號","121.515233333333","24.967545","6500600","新店區"
"231029","106-UY","2017/09/09 14:09:23","新北市新店區安康路二段161號","121.510288333333","24.9594633333333","6500600","新店區"
"231018","107-UY","2017/09/09 14:09:19","新北市新店區中央五街9號","121.52991","24.9742033333333","6500600","新店區"
"231012","108-UY","2017/09/09 14:09:36","新北市新店區五峰路63巷8弄3號","121.546976666667","24.9691416666667","6500600","新店區"
"231020","187-VK","2017/09/09 14:09:25","新北市新店區新烏路二段198巷2弄6號","121.547973333333","24.9176866666667","6500600","新店區"
"231034","268-BY","2017/09/09 14:09:29","新北市新店區黎明路3號","121.503576666667","24.9524483333333","6500600","新店區"
"231017","AAD-862","2017/09/09 14:09:25","新北市新店區中生路128號","121.568073333333","24.9489066666667","6500600","新店區"
"231001","355-BY","2017/09/09 14:09:29","新北市新店區中華路97號","121.539111666667","24.9690816666667","6500600","新店區"
"231027","3712-VJ","2017/09/09 14:09:33","新北市新店區中興路一段24-2號","121.53849","24.95832","6500600","新店區"
"231025","4716-K9","2017/09/09 14:09:29","新北市新店區中正路328巷36號","121.537933333333","24.97621","6500600","新店區"
"231038","4715-K9","2017/09/09 14:09:24","新北市新店區溪洲路121號","121.53129","24.962675","6500600","新店區"
"231036","512-UM","2017/09/09 14:09:28","新北市新店區安祥路109巷6弄47號","121.475548333333","24.9573333333333","6500600","新店區"
"231023","513-UM","2017/09/09 14:09:32","新北市新店區文中路34號","121.539036666667","24.9569716666667","6500600","新店區"
"231035","515-UM","2017/09/09 14:09:25","新北市新店區安和路一段52巷2-1號","121.517663333333","24.966305","6500600","新店區"
"231003","616-UM","2017/09/09 14:09:35","新北市新店區中興路一段187號","121.543181666667","24.9649466666667","6500600","新店區"
"231006","617-UM","2017/09/09 14:09:14","新北市新店區北宜路二段150-2號","121.558031666667","24.95404","6500600","新店區"
"231013","719-UM","2017/09/09 14:09:26","新北市新店區北新路三段65巷34弄6號","121.540063333333","24.981295","6500600","新店區"
"231033","720-UM","2017/09/09 14:09:23","新北市新店區溪洲路123號","121.530578333333","24.963965","6500600","新店區"
"231005","897-TW","2017/09/09 14:09:20","新北市新店區中興路三段248號","121.542903333333","24.9839116666667","6500600","新店區"
"231004","899-TW","2017/09/09 14:09:23","新北市新店區北新路二段172號","121.543038333333","24.9758333333333","6500600","新店區"
"231037","AKT-0513","2017/09/09 14:09:26","新北市新店區安康路二段341巷13號","121.497041666667","24.9546783333333","6500600","新店區"
"235030","003-UY","2017/09/09 14:09:30","新北市中和區廣福路32號","121.50462","25.00243","6500300","中和區"
"235028","005-UY","2017/09/09 14:09:25","新北市中和區泰和街38巷2號","121.499248333333","25.0003016666667","6500300","中和區"
"235027","006-UY","2017/09/09 14:09:16","新北市中和區連城路249巷21弄2號","121.494073333333","24.99594","6500300","中和區"
"235003","097-UM","2017/09/09 14:09:21","新北市中和區景平路3號","121.523665","24.9902133333333","6500300","中和區"
"235029","098-UM","2017/09/09 14:09:13","新北市中和區中山路二段136巷4號","121.502021666667","25.00369","6500300","中和區"
"235004","150-BY","2017/09/09 14:09:17","新北市中和區保健路10巷25弄1號","121.50826","24.99655","6500300","中和區"
"235022","151-BY","2017/09/09 14:09:35","新北市中和區員山路143巷30號","121.479651666667","24.99565","6500300","中和區"
"235019","183-VK","2017/09/09 14:09:26","新北市中和區德光路94號","121.468698333333","25.003565","6500300","中和區"
"235002","185-VK","2017/09/09 14:09:18","新北市中和區自強路52號","121.520253333333","24.9947783333333","6500300","中和區"
"235013","186-VK","2017/09/09 14:09:30","新北市中和區明禮街45號","121.504023333333","24.9965433333333","6500300","中和區"
"235031","255-BX","2017/09/09 14:09:13","新北市中和區新生街199號","121.483756666667","25.00008","6500300","中和區"
"235008","293-VK","2017/09/09 14:09:32","新北市中和區中興街204號","121.499943333333","24.9903283333333","6500300","中和區"
"235036","301-VK","2017/09/09 14:09:29","新北市中和區中山路二段207號","121.499546666667","25.0023966666667","6500300","中和區"
"235007","352-BY","2017/09/09 14:09:18","新北市中和區景平路102號","121.519988333333","24.991485","6500300","中和區"
"235015","376-QA","2017/09/09 14:09:22","新北市中和區忠孝街19巷49號","121.509395","24.9852833333333","6500300","中和區"
"235032","377-QA","2017/09/09 14:09:21","新北市中和區圓通路177號","121.497538333333","24.9950333333333","6500300","中和區"
"235025","378-QA","2017/09/09 14:09:32","新北市中和區民有街1號","121.475573333333","25.0058083333333","6500300","中和區"
"235014","4979-A6","2017/09/09 14:09:35","新北市中和區復興路280巷18弄20號","121.501728333333","24.9923183333333","6500300","中和區"
"235033","4980-A6","2017/09/09 14:09:35","新北市中和區景平路736巷1弄4號","121.497196666667","25.0039716666667","6500300","中和區"
"235006","551-UM","2017/09/09 14:09:28","新北市中和區自立路113號","121.522255","24.9944783333333","6500300","中和區"
"235034","558-UM","2017/09/09 14:09:23","新北市中和區安和路205號","121.50613","24.9986433333333","6500300","中和區"
"235009","565-BX","2017/09/09 14:09:33","新北市中和區景新街467巷20弄154號","121.514936666667","24.9875866666667","6500300","中和區"
"235018","640-BX","2017/09/09 14:09:17","新北市中和區國光街107巷4弄10號","121.470285","24.999475","6500300","中和區"
"235024","647-TV","2017/09/09 14:09:15","新北市中和區民有街19號","121.475778333333","25.0053466666667","6500300","中和區"
"235011","732-UM","2017/09/09 14:09:32","新北市中和區興南路一段56巷11號","121.510283333333","24.9913016666667","6500300","中和區"
"235010","733-UM","2017/09/09 14:09:28","新北市中和區忠孝街1巷7號","121.50868","24.9834666666667","6500300","中和區"
"235026","800-TS","2017/09/09 14:09:24","新北市中和區中山路二段488-1號","121.48739","25.0049683333333","6500300","中和區"
"235021","801-TS","2017/09/09 14:09:27","新北市中和區民利街100巷2弄1號","121.477365","24.99814","6500300","中和區"
"235005","802-TS","2017/09/09 14:09:28","新北市中和區中安街110號","121.511413333333","25.0007583333333","6500300","中和區"
"235016","805-TS","2017/09/09 14:09:26","新北市中和區興南路二段261巷6-3號","121.502611666667","24.9795216666667","6500300","中和區"
"235012","896-TW","2017/09/09 14:09:22","新北市中和區華新街109巷11弄3-1號","121.508763333333","24.979515","6500300","中和區"
"235017","900-TW","2017/09/09 14:09:25","新北市板橋區重慶路378號","121.464455","24.9967116666667","6500300","中和區"
"235020","911-UM","2017/09/09 14:09:33","新北市中和區中正路1171號","121.481368333333","25.0095516666667","6500300","中和區"
"235001","AAC-213","2017/09/09 14:09:27","新北市中和區秀朗路三段60巷36號","121.525155","24.99501","6500300","中和區"
"235023","AAC-215","2017/09/09 14:09:26","新北市中和區圓通路294巷17-5號","121.488695","24.9904516666667","6500300","中和區"
"220016","013-TV","2017/09/09 14:09:20","新北市板橋區翠華街6巷29號","121.481405","25.024535","6500100","板橋區"
"220013","072-UY","2017/09/09 14:09:25","新北市板橋區民族路219巷7號","121.469373333333","25.0080266666667","6500100","板橋區"
"220034","073-UY","2017/09/09 14:09:16","新北市板橋區中正路236巷21號","121.456856666667","25.0192483333333","6500100","板橋區"
"220105","075-UY","2017/09/09 14:09:29","新北市板橋區文化路二段263巷16號","121.471018333333","25.0295383333333","6500100","板橋區"
"220017","AAD-861","2017/09/09 14:09:36","新北市板橋區館前西路33巷3號","121.458113333333","25.00635","6500100","板橋區"
"220051","120-SR","2017/09/09 14:09:32","新北市板橋區田單街49巷1弄4號","121.482801666667","25.02852","6500100","板橋區"
"247021","893-R6","2017/09/09 14:09:17","新北市蘆洲區三民路120號","121.471291666667","25.0872066666667","6501400","蘆洲區"
"247011","546-UM","2017/09/09 14:09:21","新北市蘆洲區信義路262號","121.478236666667","25.086765","6501400","蘆洲區"
"247019","500-BY","2017/09/09 14:09:29","新北市蘆洲區民族路422巷15弄23號","121.47296","25.0929316666667","6501400","蘆洲區"
"247009","339-TH","2017/09/09 14:09:35","新北市蘆洲區民族路60號","121.477256666667","25.084565","6501400","蘆洲區"
"247001","337-TH","2017/09/09 14:09:25","新北市蘆洲區永平街62號","121.457346666667","25.09163","6501400","蘆洲區"
"247003","336-TH","2017/09/09 14:09:31","新北市蘆洲區長安街108巷5弄2號","121.46138","25.0818516666667","6501400","蘆洲區"
"247015","057-VK","2017/09/09 14:09:29","新北市蘆洲區光華路46巷37號","121.46773","25.08431","6501400","蘆洲區"
"247005","056-VK","2017/09/09 14:09:28","新北市蘆洲區永安南路二段16巷17弄3號","121.467643333333","25.0778483333333","6501400","蘆洲區"
"247007","053-VK","2017/09/09 14:09:29","新北市蘆洲區中山一路285號","121.471911666667","25.079515","6501400","蘆洲區"
"247013","007-UY","2017/09/09 14:09:23","新北市蘆洲區三民路155號","121.47137","25.08674","6501400","蘆洲區"
"247023","002-UY","2017/09/09 14:09:16","新北市蘆洲區光榮路68號","121.46315","25.0886483333333","6501400","蘆洲區"
"247017","001-UY","2017/09/09 14:09:15","新北市蘆洲區復興路111-11號","121.477136666667","25.0886","6501400","蘆洲區"
"228005","097-TW","2017/09/09 13:54:14","新北市貢寮區美豐里土地公嶺24號","121.890411666667","25.0631333333333","6502600","貢寮區"
"228004","212-TW","2017/09/09 14:09:35","新北市貢寮區雙玉里下雙溪街6-2號","121.914811666667","25.0160066666667","6502600","貢寮區"
"208004","AAC-292","2017/09/09 14:09:19","新北市金山區六股里下六股65號","121.614418333333","25.2236216666667","6502700","金山區"
"207002","749-BX","2017/09/09 14:09:18","新北市萬里區溪底里瑞泉路13-1號","121.60494","25.1449283333333","6502800","萬里區"
"252005","073-UM","2017/09/09 14:09:18","新北市三芝區橫山里橫山56-6號","121.535228333333","25.250425","6502100","三芝區"
"207001","662-BX","2017/09/09 14:09:33","新北市萬里區磺潭里清水18號","121.637836666667","25.1976066666667","6502800","萬里區"
"236068","105-UM","2017/09/09 14:09:26","新北市土城區金城路二段58號","121.452083333333","24.9794533333333","6501300","土城區"
"236041","107-UM","2017/09/09 14:09:26","新北市土城區裕生路61號","121.447658333333","24.9860883333333","6501300","土城區"
"236075","166-UM","2017/09/09 14:09:28","新北市土城區永寧路45號","121.429976666667","24.961535","6501300","土城區"
"236029","253-BX","2017/09/09 14:09:21","新北市土城區中央路二段263號","121.439848333333","24.97079","6501300","土城區"
"236025","269-VK","2017/09/09 14:09:27","新北市土城區承天路67號","121.43955","24.9635283333333","6501300","土城區"
"236013","270-VK","2017/09/09 14:09:16","新北市土城區學府路一段212號","121.4523","24.9853316666667","6501300","土城區"
"236035","271-VK","2017/09/09 14:09:24","新北市土城區青雲路449號","121.458956666667","24.9750833333333","6501300","土城區"
"236004","339-SR","2017/09/09 10:17:18","新北市土城區永平街51號","121.427676666667","24.9591783333333","6501300","土城區"
"236017","401-BY","2017/09/09 14:09:19","新北市土城區城林路6巷80號","121.438121666667","24.9796133333333","6501300","土城區"
"236006","498-BY","2017/09/09 14:09:22","新北市土城區日新街47-1號","121.442833333333","24.9887066666667","6501300","土城區"
"236057","912-UM","2017/09/09 14:09:22","新北市土城區中央路四段22號","121.42099","24.960785","6501300","土城區"
"236045","913-UM","2017/09/09 14:09:17","新北市土城區明德路一段365-1號","121.453536666667","24.9791033333333","6501300","土城區"
"236061","915-UM","2017/09/09 14:09:19","新北市土城區金城路三段135號","121.46811","24.98803","6501300","土城區"
"236054","AAC-216","2017/09/09 14:09:29","新北市土城區中華路二段48號","121.439206666667","24.9779916666667","6501300","土城區"
"221032","280-BY","2017/09/09 14:09:33","新北市新店區薏仁坑路6號","121.500283333333","24.958125","6501100","汐止區"
"220027","145-BY","2017/09/09 14:09:28","新北市板橋區民權路260巷75號","121.460836666667","25.0148933333333","6500100","板橋區"
"220028","200-UY","2017/09/09 14:09:32","新北市板橋區大觀路二段7巷35號","121.448093333333","25.0033783333333","6500100","板橋區"
"220030","610-BX","2017/09/09 14:09:22","新北市板橋區溪崑二街23號","121.428646666667","24.9913316666667","6500100","板橋區"
"220023","256-TC","2017/09/09 14:09:33","新北市板橋區大智街71巷3弄1號","121.453483333333","25.0152883333333","6500100","板橋區"
"220046","257-TC","2017/09/09 14:09:30","新北市板橋區英士路76號","121.460106666667","25.0242533333333","6500100","板橋區"
"220040","267-BY","2017/09/09 14:09:20","新北市板橋區縣民大道247巷80號","121.482128333333","25.0269633333333","6500100","板橋區"
"220004","276-BY","2017/09/09 14:09:22","新北市板橋區信義路110巷2弄1號","121.457965","24.9922716666667","6500100","板橋區"
"220020","277-BY","2017/09/09 14:09:27","新北市板橋區金門街372巷33號","121.427436666667","24.9849716666667","6500100","板橋區"
"220050","280-UM","2017/09/09 14:09:33","新北市板橋區萬板路11號","121.47051","25.0208683333333","6500100","板橋區"
"220019","283-VK","2017/09/09 14:09:17","新北市板橋區重慶路353巷7號","121.464911666667","24.9981816666667","6500100","板橋區"
"220043","285-UM","2017/09/09 14:09:24","新北市板橋區光武街125巷12號","121.46559","25.0283933333333","6500100","板橋區"
"220001","285-VK","2017/09/09 14:09:29","新北市板橋區懷仁街14巷27號","121.475508333333","25.0194216666667","6500100","板橋區"
"220031","286-VK","2017/09/09 14:09:22","新北市板橋區大觀路二段174巷171號","121.441971666667","25.0035683333333","6500100","板橋區"
"220029","287-VK","2017/09/09 14:09:17","新北市板橋區南雅西路二段156巷7號","121.452241666667","25.0134166666667","6500100","板橋區"
"220039","288-VK","2017/09/09 14:09:29","新北市板橋區裕民街45巷2號","121.461501666667","25.0284166666667","6500100","板橋區"
"220010","293-UM","2017/09/09 14:09:18","新北市板橋區三民路二段居仁巷2號","121.479361666667","25.013265","6500100","板橋區"
"220009","295-UM","2017/09/09 14:09:31","新北市板橋區三民路二段21巷10號","121.480033333333","25.0180983333333","6500100","板橋區"
"220014","299-UM","2017/09/09 14:09:24","新北市板橋區三民路二段正隆巷38號","121.477053333333","25.0137016666667","6500100","板橋區"
"220041","307-R5","2017/09/09 14:09:24","新北市板橋區文化路二段9號","121.468681666667","25.0242033333333","6500100","板橋區"
"220047","317-R6","2017/09/09 14:09:19","新北市板橋區自由路51巷10號","121.465025","25.02354","6500100","板橋區"
"220012","486-VK","2017/09/09 14:09:16","新北市板橋區板新路88號","121.472651666667","25.0145666666667","6500100","板橋區"
"220038","487-VK","2017/09/09 14:09:18","新北市板橋區文化路二段516號","121.475738333333","25.033635","6500100","板橋區"
"220037","491-VK","2017/09/09 14:09:30","新北市板橋區文化路二段182巷3弄25號","121.471956666667","25.0280016666667","6500100","板橋區"
"220104","560-BX","2017/09/09 14:09:31","新北市板橋區中正路413巷2弄2號","121.453985","25.022745","6500100","板橋區"
"220052","561-BX","2017/09/09 14:09:31","新北市板橋區文化路一段188巷9弄112號","121.468631666667","25.0193166666667","6500100","板橋區"
"220032","568-UM","2017/09/09 14:09:18","新北市板橋區篤行路一段16號","121.431375","24.9955216666667","6500100","板橋區"
"220011","609-BX","2017/09/09 14:09:29","新北市板橋區三民路二段113號","121.47921","25.0158766666667","6500100","板橋區"
"220005","686-BX","2017/09/09 14:09:33","新北市板橋區重慶路182號","121.462565","25.0034483333333","6500100","板橋區"
"220025","687-BX","2017/09/09 14:09:28","新北市板橋區龍興街46號","121.443191666667","25.0008833333333","6500100","板橋區"
"220042","689-BX","2017/09/09 14:09:27","新北市板橋區民生路三段271號","121.464316666667","25.02982","6500100","板橋區"
"220002","741-BX","2017/09/09 14:09:29","新北市板橋區重慶路139巷12號","121.462971666667","25.0045783333333","6500100","板橋區"
"220003","827-TW","2017/09/09 14:09:19","新北市板橋區中山路一段156號","121.465125","25.0115833333333","6500100","板橋區"
"220045","831-TW","2017/09/09 14:09:21","新北市板橋區雙十路二段33巷1-1號","121.476555","25.0256916666667","6500100","板橋區"
"220022","895-R6","2017/09/09 14:09:32","新北市板橋區西門街59號","121.454376666667","25.0091433333333","6500100","板橋區"
"220021","985-R7","2017/09/09 14:09:27","新北市板橋區民權路252號","121.45833","25.014655","6500100","板橋區"
"220018","AAC-253","2017/09/09 14:09:33","新北市板橋區四川路一段489號","121.457135","24.9971733333333","6500100","板橋區"
