"lineid","car","time","location","longitude","latitude","cityid","cityname"
"234025","9371-KE","2017/09/09 15:19:16","新北市永和區福和路1號","121.525558333333","25.0093283333333","6500400","永和區"
"244005","657-BX","2017/09/09 15:19:13","新北市林口區粉寮69號","121.405135","25.0908133333333","6501700","林口區"
"231002","002-UM","2017/09/09 15:19:24","新北市新店區中正路700巷3號","121.533448333333","24.9917783333333","6500600","新店區"
"231028","046-UY","2017/09/09 15:19:26","新北市新店區僑信路84巷43號","121.498558333333","24.9475433333333","6500600","新店區"
"231030","047-UY","2017/09/09 15:19:12","新北市新店區安和路二段205巷3號","121.517638333333","24.9750616666667","6500600","新店區"
"231029","106-UY","2017/09/09 15:19:23","新北市新店區安康路三段738號","121.4739","24.9419633333333","6500600","新店區"
"231018","107-UY","2017/09/09 15:19:19","新北市新店區中央七街51號","121.528528333333","24.9760583333333","6500600","新店區"
"231012","108-UY","2017/09/09 15:19:16","新北市新店區順安街74號","121.541018333333","24.9866783333333","6500600","新店區"
"231020","187-VK","2017/09/09 15:19:25","新北市新店區湖興路128-16號","121.566978333333","24.93231","6500600","新店區"
"231026","256-BX","2017/09/09 15:19:33","新北市新店區中正路263號","121.538528333333","24.97345","6500600","新店區"
"231034","268-BY","2017/09/09 15:19:29","新北市新店區玫瑰路32號","121.495501666667","24.9500633333333","6500600","新店區"
"231001","355-BY","2017/09/09 15:19:29","新北市新店區北新路一段319號","121.541586666667","24.9681366666667","6500600","新店區"
"231024","3713-VJ","2017/09/09 15:19:24","新北市新店區北新路一段303號","121.541431666667","24.967545","6500600","新店區"
"231025","4716-K9","2017/09/09 15:19:29","新北市新店區民權路109號","121.536173333333","24.9820833333333","6500600","新店區"
"231036","512-UM","2017/09/09 15:19:28","新北市新店區安祥路69巷17號","121.481921666667","24.9613366666667","6500600","新店區"
"231023","513-UM","2017/09/09 15:19:32","新北市新店區行政街24號","121.542966666667","24.9656666666667","6500600","新店區"
"231035","515-UM","2017/09/09 15:19:26","新北市新店區永平街21-3號","121.51689","24.9829666666667","6500600","新店區"
"231003","616-UM","2017/09/09 15:19:35","新北市新店區寶高路120巷1號","121.554643333333","24.9760133333333","6500600","新店區"
"231039","718-UY","2017/09/09 15:19:31","新北市新店區寶慶街56號","121.542358333333","24.986715","6500600","新店區"
"231033","720-UM","2017/09/09 15:19:23","新北市新店區和成街14巷2號","121.487946666667","24.9476666666667","6500600","新店區"
"231005","897-TW","2017/09/09 15:19:20","新北市新店區建國路174號","121.538311666667","24.9798566666667","6500600","新店區"
"231004","899-TW","2017/09/09 15:19:19","新北市新店區博愛街13巷24號","121.540213333333","24.9740433333333","6500600","新店區"
"235030","003-UY","2017/09/09 15:19:30","新北市中和區光華街31巷22弄4號","121.505456666667","25.00471","6500300","中和區"
"235004","150-BY","2017/09/09 15:19:17","新北市永和區中正路2巷1號","121.512723333333","24.99362","6500300","中和區"
"235007","352-BY","2017/09/09 15:19:18","新北市中和區興南路二段159巷10號","121.505036666667","24.983215","6500300","中和區"
"235014","4979-A6","2017/09/09 15:19:14","新北市中和區景平路241巷84弄52號","121.506195","24.9923733333333","6500300","中和區"
"235033","4980-A6","2017/09/09 15:19:35","新北市中和區民樂路3號","121.481508333333","25.00124","6500300","中和區"
"235034","558-UM","2017/09/09 15:19:23","新北市中和區中正路226號","121.496213333333","24.9939033333333","6500300","中和區"
"235026","800-TS","2017/09/09 15:19:24","新北市中和區建八路139巷9弄1號","121.490215","24.9996916666667","6500300","中和區"
"235012","896-TW","2017/09/09 15:19:22","新北市中和區景新街379號","121.512371666667","24.9902616666667","6500300","中和區"
"235020","911-UM","2017/09/09 15:19:33","新北市中和區中正路637巷52弄3號","121.485293333333","24.9934783333333","6500300","中和區"
"235001","AAC-213","2017/09/09 15:19:27","新北市板橋區民生路一段36號","121.474396666667","25.0143633333333","6500300","中和區"
"235023","AAC-215","2017/09/09 15:19:26","新北市中和區圓通路367巷13弄2號","121.492736666667","24.9882183333333","6500300","中和區"
"220013","072-UY","2017/09/09 15:19:25","新北市板橋區民生路二段36-1號","121.472175","25.016815","6500100","板橋區"
"220017","AAD-861","2017/09/09 15:19:36","新北市板橋區華東街1-10號","121.448658333333","24.9950133333333","6500100","板橋區"
"220051","120-SR","2017/09/09 15:19:16","新北市板橋區文化路一段154號","121.46546","25.019215","6500100","板橋區"
"247007","053-VK","2017/09/09 15:19:28","新北市八里區中山路三段409號","121.368526666667","25.1343883333333","6501400","蘆洲區"
"227002","400-TW","2017/09/09 14:53:55","新北市雙溪區三貂里政光路3-1號","121.851141666667","25.063505","6502500","雙溪區"
"208004","AAC-292","2017/09/09 15:19:19","新北市金山區六股里下六股15號","121.625218333333","25.2243066666667","6502700","金山區"
"207002","749-BX","2017/09/09 15:19:18","新北市萬里區崁腳里內中福路38-1號","121.659555","25.1637","6502800","萬里區"
"207001","662-BX","2017/09/09 15:17:13","新北市萬里區磺潭里員潭路46號","121.64568","25.1928083333333","6502800","萬里區"
"236068","105-UM","2017/09/09 15:19:26","新北市土城區裕民路185巷36弄10號","121.454385","24.98453","6501300","土城區"
"236041","107-UM","2017/09/09 15:19:26","新北市土城區金城路二段245巷15號","121.455293333333","24.9832166666667","6501300","土城區"
"236075","166-UM","2017/09/09 15:19:28","新北市土城區中央路四段254號","121.414973333333","24.9569483333333","6501300","土城區"
"236029","253-BX","2017/09/09 15:19:21","新北市土城區中央路一段262巷2號","121.443741666667","24.9841083333333","6501300","土城區"
"236025","269-VK","2017/09/09 15:19:28","新北市土城區中央路二段61巷36號","121.443698333333","24.9786816666667","6501300","土城區"
"236013","270-VK","2017/09/09 15:19:16","新北市土城區廣福街32-1號","121.457023333333","24.9900983333333","6501300","土城區"
"236035","271-VK","2017/09/09 15:19:25","新北市土城區國際路158巷24弄26號","121.4683","24.9764916666667","6501300","土城區"
"236004","339-SR","2017/09/09 10:17:18","新北市土城區永平街51號","121.427676666667","24.9591783333333","6501300","土城區"
"236017","401-BY","2017/09/09 15:19:19","新北市土城區峰廷街3號","121.469048333333","24.98736","6501300","土城區"
"236057","912-UM","2017/09/09 15:19:22","新北市土城區中央路三段38號","121.43827","24.968555","6501300","土城區"
"236045","913-UM","2017/09/09 15:12:37","新北市土城區清水路271號","121.463763333333","24.9853716666667","6501300","土城區"
"236061","915-UM","2017/09/09 15:19:19","新北市土城區延和路146巷8號","121.468006666667","24.9896733333333","6501300","土城區"
"236054","AAC-216","2017/09/09 15:19:29","新北市土城區學府路一段276號","121.449956666667","24.9830233333333","6501300","土城區"
"220046","257-TC","2017/09/09 15:19:30","新北市板橋區文化路一段101巷11號","121.460793333333","25.0144883333333","6500100","板橋區"
"220050","280-UM","2017/09/09 15:19:18","新北市板橋區縣民大道三段32號","121.47172","25.0190483333333","6500100","板橋區"
"220031","286-VK","2017/09/09 15:19:17","新北市板橋區僑中二街106巷1號","121.445901666667","25.00754","6500100","板橋區"
"220041","307-R5","2017/09/09 15:19:24","新北市板橋區民權路174號","121.45962","25.013345","6500100","板橋區"
"220038","487-VK","2017/09/09 15:19:18","新北市板橋區四維路132號","121.465243333333","25.0252633333333","6500100","板橋區"
"220052","561-BX","2017/09/09 15:19:30","新北市板橋區漢生西路71號","121.462993333333","25.018695","6500100","板橋區"
"220042","689-BX","2017/09/09 15:19:07","新北市板橋區長江路一段351號","121.461221666667","25.0304383333333","6500100","板橋區"
"220018","AAC-253","2017/09/09 15:19:33","新北市板橋區四川路二段245巷71號","121.452796666667","24.992025","6500100","板橋區"
