"lineid","car","time","location","longitude","latitude","cityid","cityname"
"234025","9371-KE","2017/09/09 15:29:16","新北市永和區福和路1號","121.526246666667","25.009475","6500400","永和區"
"244005","657-BX","2017/09/09 15:29:33","新北市林口區粉寮路二段160巷28號","121.405146666667","25.0908133333333","6501700","林口區"
"231002","002-UM","2017/09/09 15:29:24","新北市新店區環河路119號","121.532458333333","24.9705883333333","6500600","新店區"
"231028","046-UY","2017/09/09 15:29:26","新北市新店區僑信路29巷27號","121.499393333333","24.9508716666667","6500600","新店區"
"231030","047-UY","2017/09/09 15:29:35","新北市新店區新和街46號","121.519333333333","24.9849866666667","6500600","新店區"
"231029","106-UY","2017/09/09 15:29:23","新北市新店區安康路三段578-2號","121.480411666667","24.9482983333333","6500600","新店區"
"231018","107-UY","2017/09/09 15:29:19","新北市新店區中央八街86號","121.527028333333","24.9773766666667","6500600","新店區"
"231012","108-UY","2017/09/09 15:29:16","新北市新店區寶慶街5號","121.544241666667","24.98655","6500600","新店區"
"231020","187-VK","2017/09/09 15:29:24","新北市新店區梅崗三路1號","121.557901666667","24.93114","6500600","新店區"
"231026","256-BX","2017/09/09 15:29:33","新北市新店區三民路117巷5弄2號","121.534125","24.9711233333333","6500600","新店區"
"231034","268-BY","2017/09/09 15:29:29","新北市新店區如意街31號","121.49405","24.9483216666667","6500600","新店區"
"231024","3713-VJ","2017/09/09 15:29:24","新北市新店區柴埕路59號","121.513661666667","24.9648083333333","6500600","新店區"
"231025","4716-K9","2017/09/09 15:29:29","新北市新店區中央路175-1號","121.53457","24.9698316666667","6500600","新店區"
"231036","512-UM","2017/09/09 15:29:28","新北市新店區安祥路69巷54弄34號","121.483028333333","24.9586133333333","6500600","新店區"
"231023","513-UM","2017/09/09 15:29:31","新北市新店區北新路一段96巷23號","121.542805","24.968745","6500600","新店區"
"231035","515-UM","2017/09/09 15:29:25","新北市新店區安民街365巷7弄1號","121.516135","24.9754183333333","6500600","新店區"
"231003","616-UM","2017/09/09 15:29:35","新北市新店區寶高路120巷1號","121.554593333333","24.97605","6500600","新店區"
"231039","718-UY","2017/09/09 15:29:32","新北市新店區寶元路一段74巷1號","121.544146666667","24.9841883333333","6500600","新店區"
"231033","720-UM","2017/09/09 15:29:23","新北市新店區裕合街82號","121.490346666667","24.9486583333333","6500600","新店區"
"231005","897-TW","2017/09/09 15:29:34","新北市新店區建國路297號","121.536948333333","24.986435","6500600","新店區"
"231004","899-TW","2017/09/09 15:29:25","新北市新店區民族路207號","121.53703","24.9760283333333","6500600","新店區"
"231037","AKT-0513","2017/09/09 15:29:26","新北市新店區安興路105-1號","121.514681666667","24.9777133333333","6500600","新店區"
"241015","062-VK","2017/09/09 15:29:32","新北市三重區重新路四段121號","121.48514","25.0520916666667","6500200","三重區"
"241007","398-BY","2017/09/09 15:29:28","新北市三重區重新路四段121號","121.485241666667","25.052055","6500200","三重區"
"241014","543-UM","2017/09/09 15:29:16","新北市三重區成功路112-4號","121.485665","25.0514733333333","6500200","三重區"
"235030","003-UY","2017/09/09 15:29:30","新北市中和區景新街291號","121.509936666667","24.9932416666667","6500300","中和區"
"235014","4979-A6","2017/09/09 15:29:14","新北市中和區景平路155巷30號","121.513571666667","24.9916433333333","6500300","中和區"
"235033","4980-A6","2017/09/09 15:29:15","新北市中和區連城路469巷70弄4號","121.483305","24.9936416666667","6500300","中和區"
"235026","800-TS","2017/09/09 15:29:24","新北市中和區中正路416號","121.491871666667","24.994145","6500300","中和區"
"235012","896-TW","2017/09/09 15:29:22","新北市中和區華新街87號","121.508425","24.983525","6500300","中和區"
"235020","911-UM","2017/09/09 15:22:47","新北市中和區員山路36巷13號","121.484391666667","24.991355","6500300","中和區"
"235001","AAC-213","2017/09/09 15:29:27","新北市五股區成泰路三段544號","121.454536666667","25.1038966666667","6500300","中和區"
"235023","AAC-215","2017/09/09 15:29:26","新北市中和區圓通路437-3號","121.485285","24.9868216666667","6500300","中和區"
"247007","053-VK","2017/09/09 15:29:28","新北市八里區商港路2號","121.39723","25.1440766666667","6501400","蘆洲區"
"227002","400-TW","2017/09/09 14:53:55","新北市雙溪區三貂里政光路3-1號","121.851141666667","25.063505","6502500","雙溪區"
"208004","AAC-292","2017/09/09 15:29:19","新北市金山區月眉25號","121.629111666667","25.21485","6502700","金山區"
"236068","105-UM","2017/09/09 15:29:26","新北市土城區中央路二段181號","121.442035","24.97598","6501300","土城區"
"236041","107-UM","2017/09/09 15:29:26","新北市土城區學府路一段141號","121.4537","24.98621","6501300","土城區"
"236075","166-UM","2017/09/09 15:29:28","新北市土城區龍泉路14號","121.409866666667","24.948675","6501300","土城區"
"236029","253-BX","2017/09/09 15:29:21","新北市土城區中央路一段186-3號","121.445488333333","24.9862533333333","6501300","土城區"
"236025","269-VK","2017/09/09 15:29:27","新北市土城區中央路二段89號","121.44227","24.9781733333333","6501300","土城區"
"236013","270-VK","2017/09/09 15:29:16","新北市土城區廣明街6號","121.456038333333","24.9918766666667","6501300","土城區"
"236035","271-VK","2017/09/09 15:29:32","新北市土城區延吉街296巷10號","121.464485","24.9846066666667","6501300","土城區"
"236004","339-SR","2017/09/09 10:17:18","新北市土城區永平街51號","121.427676666667","24.9591783333333","6501300","土城區"
"236017","401-BY","2017/09/09 15:29:19","新北市土城區金城路三段198號","121.468563333333","24.987895","6501300","土城區"
"236057","912-UM","2017/09/09 15:29:22","新北市土城區中央路二段7號","121.442971666667","24.9806133333333","6501300","土城區"
"236045","913-UM","2017/09/09 15:25:43","新北市土城區青雲路299-1號","121.459158333333","24.979565","6501300","土城區"
"236061","915-UM","2017/09/09 15:29:19","新北市土城區金城路三段73巷9弄17號","121.4657","24.987365","6501300","土城區"
"236054","AAC-216","2017/09/09 15:29:29","新北市土城區延和路20號","121.464591666667","24.9883266666667","6501300","土城區"
"220050","280-UM","2017/09/09 15:29:18","新北市板橋區中正路6號","121.456758333333","25.012345","6500100","板橋區"
"220031","286-VK","2017/09/09 15:29:26","新北市板橋區僑中二街116巷31號","121.444358333333","25.0065783333333","6500100","板橋區"
"220038","487-VK","2017/09/09 15:29:17","新北市板橋區四維路298號","121.462776666667","25.0294116666667","6500100","板橋區"
"220052","561-BX","2017/09/09 15:29:30","新北市板橋區漢生東路35號","121.465436666667","25.01688","6500100","板橋區"
"220042","689-BX","2017/09/09 15:29:27","新北市板橋區大觀路二段327號","121.441543333333","24.9985083333333","6500100","板橋區"
