"lineid","car","time","location","longitude","latitude","cityid","cityname"
"244005","657-BX","2017/09/09 15:49:13","新北市林口區粉寮路二段160巷28號","121.405138333333","25.0908066666667","6501700","林口區"
"231030","047-UY","2017/09/09 15:49:32","新北市新店區永安街22-1號","121.517406666667","24.9865083333333","6500600","新店區"
"231018","107-UY","2017/09/09 15:49:19","新北市新店區民生路156巷14號","121.528625","24.9812216666667","6500600","新店區"
"231012","108-UY","2017/09/09 15:49:16","新北市新店區文化路22-1號","121.543525","24.9797383333333","6500600","新店區"
"231020","187-VK","2017/09/09 15:49:24","新北市新店區新烏路一段85巷6-6號","121.549561666667","24.94276","6500600","新店區"
"231026","256-BX","2017/09/09 15:49:13","新北市新店區中正路539-5號","121.533496666667","24.98658","6500600","新店區"
"231034","268-BY","2017/09/09 15:49:29","新北市新店區玫瑰路64巷2號","121.495796666667","24.9457716666667","6500600","新店區"
"231046","278-BY","2017/09/09 15:49:31","新北市新店區安華路28-1號","121.519671666667","24.9611483333333","6500600","新店區"
"231017","AAD-862","2017/09/09 15:49:25","新北市新店區中華路83巷4弄10號","121.538705","24.9684583333333","6500600","新店區"
"231038","4715-K9","2017/09/09 15:49:24","新北市新店區安康路二段153號","121.510665","24.9596416666667","6500600","新店區"
"231035","515-UM","2017/09/09 15:49:25","新北市新店區安民街381號","121.516215","24.97634","6500600","新店區"
"231003","616-UM","2017/09/09 15:49:28","新北市新店區寶興路60巷6號","121.549765","24.9718583333333","6500600","新店區"
"231013","719-UM","2017/09/09 15:49:34","新北市新店區永業路81巷5弄4號","121.530321666667","24.949045","6500600","新店區"
"231033","720-UM","2017/09/09 15:49:23","新北市新店區雙城路60巷30-1號","121.49173","24.9478316666667","6500600","新店區"
"231005","897-TW","2017/09/09 15:49:20","新北市新店區北新路一段128-3號","121.542236666667","24.969855","6500600","新店區"
"231037","AKT-0513","2017/09/09 15:49:26","新北市新店區安興路105號","121.514723333333","24.9777533333333","6500600","新店區"
"241011","013-R5","2017/09/09 15:49:29","新北市三重區文化北路246號","121.497478333333","25.0699416666667","6500200","三重區"
"241028","022-UY","2017/09/09 15:49:25","新北市三重區中正南路32號","121.493658333333","25.06013","6500200","三重區"
"241008","059-VK","2017/09/09 15:49:24","新北市三重區重新路四段121號","121.48487","25.0518633333333","6500200","三重區"
"241015","062-VK","2017/09/09 15:49:31","新北市三重區重新路四段121號","121.485148333333","25.0521033333333","6500200","三重區"
"241017","063-VK","2017/09/09 15:49:16","新北市三重區明志街28號","121.491648333333","25.0639383333333","6500200","三重區"
"241024","065-VK","2017/09/09 15:49:32","新北市三重區新北大道一段250號","121.479935","25.0611716666667","6500200","三重區"
"241003","091-VK","2017/09/09 15:49:24","新北市三重區重新路四段121號","121.4847","25.0517116666667","6500200","三重區"
"241026","156-TC","2017/09/09 15:49:22","新北市三重區成功路39號","121.489576666667","25.05058","6500200","三重區"
"241005","262-UM","2017/09/09 15:49:21","新北市三重區河邊北街303號","121.502903333333","25.074655","6500200","三重區"
"241016","266-UM","2017/09/09 15:49:32","新北市三重區重新路四段121號","121.485175","25.0521166666667","6500200","三重區"
"241013","270-UM","2017/09/09 15:49:18","新北市三重區六張街23號","121.495218333333","25.070655","6500200","三重區"
"241007","398-BY","2017/09/09 15:49:28","新北市三重區重新路四段121號","121.485246666667","25.0520533333333","6500200","三重區"
"241020","413-TH","2017/09/09 15:49:28","新北市三重區忠孝路二段46號","121.485148333333","25.0704616666667","6500200","三重區"
"241014","543-UM","2017/09/09 15:49:17","新北市三重區重新路四段121號","121.485165","25.051935","6500200","三重區"
"241023","545-UM","2017/09/09 15:49:26","新北市三重區成功路112-2號","121.48655","25.051945","6500200","三重區"
"241001","547-UM","2017/09/09 15:49:20","新北市三重區重新路四段121號","121.484648333333","25.0524533333333","6500200","三重區"
"241006","AAD-863","2017/09/09 15:49:23","新北市三重區重新路四段121號","121.484735","25.0524966666667","6500200","三重區"
"241012","941-UM","2017/09/09 15:49:30","新北市三重區自強路一段58號","121.497435","25.0668416666667","6500200","三重區"
"241029","942-UM","2017/09/09 15:49:27","新北市三重區正義南路171號","121.499021666667","25.05733","6500200","三重區"
"241033","AAC-255","2017/09/09 15:49:19","新北市三重區興德路82號","121.474223333333","25.0530466666667","6500200","三重區"
"235030","003-UY","2017/09/09 15:49:30","新北市新店區車子路18-1號","121.505918333333","24.9544083333333","6500300","中和區"
"235014","4979-A6","2017/09/09 15:49:14","新北市中和區景平路480號","121.505191666667","24.993515","6500300","中和區"
"235062","800-TS","2017/09/09 15:40:17","新北市中和區員山路36巷16-3號","121.484913333333","24.991715","6500300","中和區"
"235020","911-UM","2017/09/09 15:22:47","新北市中和區員山路36巷13號","121.484391666667","24.991355","6500300","中和區"
"235001","AAC-213","2017/09/09 15:48:27","新北市八里區中山路三段409號","121.368451666667","25.1350133333333","6500300","中和區"
"235023","AAC-215","2017/09/09 15:49:10","新北市中和區員山路32-4號","121.48139","24.9882466666667","6500300","中和區"
"247012","546-UM","2017/09/09 15:41:11","新北市五股區中興路三段163號","121.44934","25.08086","6501400","蘆洲區"
"227010","642-TC","2017/09/09 15:49:26","新北市雙溪區牡丹里中正路54號","121.865368333333","25.0400433333333","6502500","雙溪區"
"227002","400-TW","2017/09/09 15:49:27","新北市雙溪區平林里外平林44號","121.852826666667","25.036335","6502500","雙溪區"
"236068","105-UM","2017/09/09 15:49:26","新北市土城區金安街48巷2號","121.420686666667","24.965405","6501300","土城區"
"236075","166-UM","2017/09/09 15:49:28","新北市土城區中山路47號","121.42072","24.963005","6501300","土城區"
"236025","269-VK","2017/09/09 15:49:27","新北市土城區中央路一段267巷9號","121.445468333333","24.9850816666667","6501300","土城區"
"236013","270-VK","2017/09/09 15:49:16","新北市土城區廣明街70號","121.455035","24.9937083333333","6501300","土城區"
"236004","339-SR","2017/09/09 10:17:18","新北市土城區永平街51號","121.427676666667","24.9591783333333","6501300","土城區"
"236017","401-BY","2017/09/09 15:49:19","新北市土城區延吉街111巷12弄15-3號","121.471615","24.984965","6501300","土城區"
"236057","912-UM","2017/09/09 15:49:22","新北市土城區中央路二段23號","121.442881666667","24.9802416666667","6501300","土城區"
"236045","913-UM","2017/09/09 15:49:23","新北市土城區清水路263號","121.463046666667","24.9845266666667","6501300","土城區"
"236054","AAC-216","2017/09/09 15:49:29","新北市土城區中央路一段45巷2弄1號","121.448496666667","24.9902783333333","6501300","土城區"
