"lineid","car","time","location","longitude","latitude","cityid","cityname"
"248005","653-BX","2017/11/10 08:25:01","新北市五股區水碓路5巷2-1號","121.433463333333","25.07219","6501500","五股區"
"222005","289-BY","2017/11/10 08:39:28","台北市南港區舊莊街一段290巷49號","121.62347","25.0188883333333","6501800","深坑區"
"231007","189-VK","2017/11/10 08:39:14","新北市新店區小坑二路100號","121.519533333333","24.9122716666667","6500600","新店區"
"231009","192-VK","2017/11/10 08:39:22","新北市新店區新烏路三段99巷8號","121.553116666667","24.9022433333333","6500600","新店區"
"226005","5620-A6","2017/11/10 08:39:32","新北市平溪區十分里十分街66巷17號","121.774883333333","25.0427116666667","6502400","平溪區"
"226001","7418-A5","2017/11/10 08:39:23","新北市平溪區東勢里火燒寮34-8號","121.76511","24.9892066666667","6502400","平溪區"
"226003","AGD-0702","2017/11/10 08:39:34","新北市平溪區十分里十分街238號","121.778088333333","25.0441466666667","6502400","平溪區"
"223002","198-BX","2017/11/10 08:23:38","新北市石碇區八分寮47-1號","121.64299","25.0133516666667","6501900","石碇區"
"223001","205-TH","2017/11/10 08:39:27","新北市石碇區北宜路六段柑腳巷1-1號","121.660026666667","24.9386066666667","6501900","石碇區"
"223008","406-TH","2017/11/10 08:39:26","新北市石碇區碇南路二段松柏崎巷8號","121.674721666667","25.0199466666667","6501900","石碇區"
"223004","437-BY","2017/11/10 08:39:22","新北市石碇區崩山15號","121.674955","24.9706983333333","6501900","石碇區"
"223001","592-UM","2017/11/10 08:39:30","新北市石碇區北宜路六段柑腳巷1-1號","121.660446666667","24.9389583333333","6501900","石碇區"
"223007","661-BX","2017/11/10 08:39:14","新北市石碇區碇南路二段鹿窟巷1號","121.671495","25.0213733333333","6501900","石碇區"
"223005","677-TV","2017/11/10 08:39:15","新北市石碇區崩山33-1號","121.677145","24.9653433333333","6501900","石碇區"
"227005","282-VK","2017/11/10 08:39:17","新北市雙溪區魚行里丁子蘭坑31號","121.84589","24.99937","6502500","雙溪區"
"237001","159-UY","2017/11/10 08:39:18","新北市三峽區學成路349號","121.376038333333","24.94488","6500900","三峽區"
"236010","165-UM","2017/11/10 08:20:32","新北市土城區石門路93-2號","121.45979","24.953145","6501300","土城區"
"236004","339-SR","2017/11/10 08:39:17","新北市土城區中央路三段153號","121.432136666667","24.96544","6501300","土城區"
"236006","498-BY","2017/11/10 08:39:07","新北市土城區永和街27號","121.435011666667","24.9629","6501300","土城區"
"242001","233-RS","2017/11/10 08:39:12","新北市新莊區環河路48-7號","121.436923333333","25.0098133333333","6500500","新莊區"
"220028","461-BY","2017/11/10 08:39:11","新北市八里區中山路三段369號","121.373238333333","25.1379433333333","6500100","板橋區"
