"lineid","car","time","location","longitude","latitude","cityid","cityname"
"234026","9381-KE","2017/11/10 17:59:30","新北市永和區永和路一段153號","121.514213333333","25.0093","6500400","永和區"
"249005","172-UM","2017/11/10 17:59:24","新北市八里區荖阡坑路16號","121.397838333333","25.1382933333333","6502300","八里區"
"249001","173-UM","2017/11/10 17:59:24","新北市八里區龍米路二段35號","121.448481666667","25.1400533333333","6502300","八里區"
"249004","303-UY","2017/11/10 17:59:30","新北市八里區龍米路三段58-9號","121.424171666667","25.158975","6502300","八里區"
"249002","305-UY","2017/11/10 17:59:33","新北市八里區龍米路一段428巷3號","121.451135","25.1339416666667","6502300","八里區"
"249003","593-UM","2017/11/10 17:59:33","新北市八里區中山路二段306號","121.40467","25.1501416666667","6502300","八里區"
"248014","025-BX","2017/11/10 17:59:32","新北市五股區中興路三段5號","121.450301666667","25.0795733333333","6501500","五股區"
"248006","077-UY","2017/11/10 17:59:31","新北市五股區中興路二段83巷26-6號","121.460008333333","25.0749183333333","6501500","五股區"
"248008","095-VK","2017/11/10 17:59:17","新北市五股區更洲路10號","121.45834","25.0788316666667","6501500","五股區"
"248018","225-UY","2017/11/10 17:59:20","新北市五股區中興路二段83巷26-6號","121.460085","25.07519","6501500","五股區"
"248004","677-BX","2017/11/09 20:36:31","新北市五股區中興路二段37巷28號","121.460151666667","25.07491","6501500","五股區"
"248002","678-BX","2017/11/10 17:59:24","新北市五股區中興路二段37巷28號","121.460185","25.07481","6501500","五股區"
"232011","375-UM","2017/11/10 17:59:27","新北市坪林區北宜路八段301號","121.711025","24.933955","6502000","坪林區"
"244013","069-UM","2017/11/10 17:59:21","新北市林口區中山路140-1號","121.391571666667","25.0786233333333","6501700","林口區"
"244007","080-UY","2017/11/10 17:59:26","新北市林口區中山路202-6號","121.388156666667","25.0790933333333","6501700","林口區"
"244019","403-UM","2017/11/10 17:59:21","新北市林口區忠孝路552巷17-1號","121.374106666667","25.0672333333333","6501700","林口區"
"244025","742-UY","2017/11/10 17:59:22","新北市林口區文化三路一段39巷181號","121.35924","25.0678266666667","6501700","林口區"
"244009","410-SL","2017/11/10 17:59:22","新北市林口區竹林路582巷16號","121.385978333333","25.0833833333333","6501700","林口區"
"244023","483-VK","2017/11/10 17:59:19","新北市林口區育林街30號","121.385908333333","25.07374","6501700","林口區"
"244017","485-VK","2017/11/10 17:59:31","新北市林口區公園路177號","121.370888333333","25.072095","6501700","林口區"
"244011","701-TV","2017/11/10 17:59:16","新北市林口區中正路266號","121.389343333333","25.07774","6501700","林口區"
"244021","838-TS","2017/11/10 17:59:05","新北市林口區新寮27-9號","121.396153333333","25.0662683333333","6501700","林口區"
"222003","436-BY","2017/11/10 17:59:20","新北市深坑區炮子崙23號","121.607186666667","24.99093","6501800","深坑區"
"222002","659-BX","2017/11/10 17:59:24","新北市深坑區文化街98號","121.617096666667","25.0019083333333","6501800","深坑區"
"231046","278-BY","2017/11/10 17:59:18","新北市新店區康雅崙路14號","121.53715","24.9267983333333","6500600","新店區"
"241024","065-VK","2017/11/10 17:59:21","新北市三重區中正北路193巷35弄69號","121.478646666667","25.071395","6500200","三重區"
"241005","262-UM","2017/11/10 17:59:17","新北市三重區集賢路6號","121.494726666667","25.0870566666667","6500200","三重區"
"241016","266-UM","2017/11/10 17:59:16","新北市三重區大同北路91號","121.494625","25.06373","6500200","三重區"
"241007","398-BY","2017/11/10 17:59:26","新北市三重區車路頭街139巷14號","121.484443333333","25.07629","6500200","三重區"
"241033","AAC-255","2017/11/10 17:59:29","新北市三重區重新路五段602號","121.468858333333","25.045055","6500200","三重區"
"235064","005-UY","2017/11/10 17:59:29","新北市中和區員山路36巷16-3號","121.48505","24.99134","6500300","中和區"
"235063","006-UY","2017/11/10 17:59:28","新北市中和區員山路36巷16-3號","121.485011666667","24.9913566666667","6500300","中和區"
"235058","151-BY","2017/11/10 17:59:29","新北市中和區中正路637巷52弄1號","121.485486666667","24.9935016666667","6500300","中和區"
"235038","185-VK","2017/11/10 17:59:16","新北市中和區錦和路350-1號","121.49053","24.99362","6500300","中和區"
"235067","255-BX","2017/11/10 17:59:30","新北市中和區和城路一段271巷1號","121.485356666667","24.9918033333333","6500300","中和區"
"235061","378-QA","2017/11/10 14:47:23","新北市中和區員山路36巷13號","121.484326666667","24.9914116666667","6500300","中和區"
"235069","4980-A6","2017/11/10 17:59:21","新北市中和區圓通路188號","121.496481666667","24.99443","6500300","中和區"
"235042","551-UM","2017/11/10 17:59:14","新北市中和區和城路一段271巷1號","121.485353333333","24.9918433333333","6500300","中和區"
"235070","558-UM","2017/11/10 17:59:23","新北市中和區員山路36巷16-2號","121.485186666667","24.9915783333333","6500300","中和區"
"235062","800-TS","2017/11/10 17:59:33","新北市中和區連城路469巷4號","121.483573333333","24.9955933333333","6500300","中和區"
"235052","805-TS","2017/11/10 17:59:19","新北市中和區員山路36巷16-3號","121.484598333333","24.99122","6500300","中和區"
"235053","900-TW","2017/11/10 17:59:17","新北市中和區員山路36巷16-2號","121.48521","24.9915183333333","6500300","中和區"
"235037","157-BY","2017/11/10 17:59:22","新北市中和區中正路637巷60弄61號","121.485436666667","24.992855","6500300","中和區"
"235037","AAC-213","2017/11/10 17:59:31","新北市中和區中正路395號","121.489888333333","24.9936116666667","6500300","中和區"
"235059","AAC-215","2017/11/10 17:59:25","新北市中和區員山路36巷16-3號","121.484835","24.991275","6500300","中和區"
"247022","893-R6","2017/11/10 17:59:30","新北市蘆洲區中正路516巷10-1號","121.46212","25.0979783333333","6501400","蘆洲區"
"247012","546-UM","2017/11/10 17:59:18","新北市蘆洲區民族路151號","121.479535","25.0879116666667","6501400","蘆洲區"
"247002","337-TH","2017/11/10 17:59:17","新北市蘆洲區永平街32巷57弄15號","121.459188333333","25.093045","6501400","蘆洲區"
"247016","057-VK","2017/11/10 17:59:05","新北市蘆洲區中正路185巷78弄1號","121.466063333333","25.0842733333333","6501400","蘆洲區"
"247024","002-UY","2017/11/10 17:59:16","新北市蘆洲區光復路30巷20號","121.463725","25.08409","6501400","蘆洲區"
"247018","001-UY","2017/11/10 17:59:31","新北市蘆洲區復興路298號","121.481056666667","25.0899283333333","6501400","蘆洲區"
"228001","212-TW","2017/11/10 17:59:31","新北市貢寮區真理里新港街26巷53號","121.92805","25.0535683333333","6502600","貢寮區"
"228002","663-BX","2017/11/10 17:59:25","新北市貢寮區福連里香蘭街3-3號","121.971848333333","25.0245516666667","6502600","貢寮區"
"228003","828-UM","2017/11/10 17:59:32","新北市貢寮區真理里美艷山街6-2號","121.928895","25.0607416666667","6502600","貢寮區"
"224006","676-BX","2017/11/10 17:59:28","新北市瑞芳區傑魚坑路183號","121.788431666667","25.10826","6501200","瑞芳區"
"224002","639-TC","2017/11/10 17:59:18","新北市瑞芳區三爪子坑路127號","121.810298333333","25.1069583333333","6501200","瑞芳區"
"224009","285-BY","2017/11/10 17:59:20","新北市瑞芳區山尖路173號","121.852236666667","25.1115983333333","6501200","瑞芳區"
"224008","275-VK","2017/11/10 17:59:29","新北市瑞芳區明燈路一段45巷95號","121.822058333333","25.1042783333333","6501200","瑞芳區"
"224007","273-VK","2017/11/10 17:59:22","新北市瑞芳區大寮路84號","121.780451666667","25.101305","6501200","瑞芳區"
"224005","271-BY","2017/11/10 17:59:26","新北市瑞芳區深澳路197-2號","121.819396666667","25.133825","6501200","瑞芳區"
"253005","032-BX","2017/11/10 17:59:29","新北市石門區中山路62-11號","121.56757","25.2897","6502200","石門區"
"253006","295-VK","2017/11/10 17:59:30","新北市石門區大丘田45-2號","121.54982","25.27487","6502200","石門區"
"222001","KEA-2212","2017/11/10 17:59:33","新北市深坑區北深路三段10號","121.610233333333","25.001015","6501800","深坑區"
"208002","742-BX","2017/11/10 17:59:27","新北市金山區三界壇路31號","121.627648333333","25.2279483333333","6502700","金山區"
"208003","665-BX","2017/11/10 17:59:31","新北市金山區磺港里磺港路319號","121.644783333333","25.22773","6502700","金山區"
"208001","761-BX","2017/11/10 17:59:15","新北市金山區磺港里社寮17號","121.639208333333","25.2263533333333","6502700","金山區"
"251004","009-UM","2017/11/10 17:59:25","新北市淡水區民權路187巷7號","121.4598","25.13351","6501000","淡水區"
"251013","180-VK","2017/11/10 17:59:24","新北市淡水區泉洲厝31號","121.479586666667","25.1910616666667","6501000","淡水區"
"251008","181-VK","2017/11/10 17:59:31","新北市淡水區八勢一街43-8號","121.461956666667","25.1557966666667","6501000","淡水區"
"251015","182-VK","2017/11/10 17:59:19","新北市淡水區興福寮88巷1號","121.485588333333","25.165095","6501000","淡水區"
"251010","413-VK","2017/11/10 17:59:31","新北市淡水區淡海路46號","121.423206666667","25.1801116666667","6501000","淡水區"
"251012","441-VK","2017/11/10 17:59:29","新北市淡水區北新路三段38巷5號","121.484521666667","25.187065","6501000","淡水區"
"251005","443-VK","2017/11/10 17:59:23","新北市淡水區英專路125-6號","121.446018333333","25.17265","6501000","淡水區"
"251001","559-UM","2017/11/10 17:59:24","新北市淡水區民權路94巷1號","121.46311","25.1247816666667","6501000","淡水區"
"251006","561-UM","2017/11/10 17:59:32","新北市淡水區新生街30巷1號","121.438928333333","25.1732266666667","6501000","淡水區"
"251009","575-R6","2017/11/10 17:59:17","新北市淡水區大仁街10號","121.442375","25.1747083333333","6501000","淡水區"
"251011","650-BX","2017/11/10 17:59:18","新北市淡水區三空泉5號","121.477631666667","25.161345","6501000","淡水區"
"251002","672-BX","2017/11/10 17:59:19","新北市淡水區鼻頭街18-5號","121.446833333333","25.16676","6501000","淡水區"
"251003","673-BX","2017/11/10 17:59:31","新北市淡水區大忠街113巷6號","121.446693333333","25.1775733333333","6501000","淡水區"
"207003","550-UM","2017/11/10 17:59:26","新北市萬里區港東路野柳風景區攤販66號","121.691303333333","25.205865","6502800","萬里區"
"207004","225-TW","2017/11/10 17:59:14","新北市萬里區中幅里中福路48號","121.683348333333","25.1741516666667","6502800","萬里區"
"252002","178-VK","2017/11/10 17:59:23","新北市三芝區中山路二段49號","121.502985","25.254685","6502100","三芝區"
"252001","292-VK","2017/11/10 17:59:32","新北市三芝區中興街一段45號","121.497895","25.2574466666667","6502100","三芝區"
"237004","078-UY","2017/11/10 17:59:27","新北市三峽區中正路二段328號","121.365963333333","24.9106216666667","6500900","三峽區"
"237007","153-BY","2017/11/10 17:59:33","新北市三峽區中正路二段82號","121.366525","24.91827","6500900","三峽區"
"237009","210-TH","2017/11/10 17:59:17","新北市三峽區中山路106巷18-2號","121.366055","24.9366616666667","6500900","三峽區"
"237013","252-BX","2017/11/10 17:59:15","新北市三峽區介壽路一段137號","121.376355","24.9315516666667","6500900","三峽區"
"237012","275-BY","2017/11/10 17:59:28","新北市三峽區民生街19巷3-1號","121.376128333333","24.9361833333333","6500900","三峽區"
"237008","302-VK","2017/11/10 17:59:23","新北市三峽區白雞33-24號","121.371183333333","24.9120483333333","6500900","三峽區"
"237014","433-BY","2017/11/10 17:59:18","新北市三峽區復興路101巷1弄28號","121.371015","24.9377333333333","6500900","三峽區"
"237006","5529-G3","2017/11/10 17:59:28","新北市三峽區介壽路二段138巷1弄88號","121.397888333333","24.9321066666667","6500900","三峽區"
"237011","572-TV","2017/11/10 17:57:22","新北市三峽區大同路50號","121.377113333333","24.92865","6500900","三峽區"
"237015","649-BX","2017/11/10 17:59:27","新北市三峽區紫微路109號","121.409185","24.9114366666667","6500900","三峽區"
"237010","706-TV","2017/11/10 17:36:31","新北市三峽區中山路198號","121.363181666667","24.93717","6500900","三峽區"
"237005","AKY-6261","2017/11/10 17:59:30","新北市三峽區復興路235號","121.368481666667","24.93891","6500900","三峽區"
"236072","105-UM","2017/11/10 17:59:26","新北市土城區城林路6巷80號","121.438426666667","24.9797233333333","6501300","土城區"
"236043","107-UM","2017/11/10 17:59:27","新北市土城區明德路二段211號","121.446333333333","24.9837666666667","6501300","土城區"
"236079","166-UM","2017/11/10 17:58:11","新北市土城區永寧路32巷10弄8號","121.429128333333","24.9610233333333","6501300","土城區"
"236031","253-BX","2017/11/10 17:59:31","新北市土城區城林路6巷80號","121.43846","24.979825","6501300","土城區"
"236027","269-VK","2017/11/10 17:59:25","新北市土城區中華路二段1號","121.439533333333","24.978875","6501300","土城區"
"236015","270-VK","2017/11/10 17:59:32","新北市土城區城林路6巷80號","121.438525","24.97965","6501300","土城區"
"236039","271-VK","2017/11/10 17:59:29","新北市土城區城林路6巷80號","121.438453333333","24.97975","6501300","土城區"
"236022","401-BY","2017/11/10 17:59:12","新北市土城區城林路6巷80號","121.438765","24.9797133333333","6501300","土城區"
"236050","752-BX","2017/11/10 17:59:17","新北市土城區城林路6巷80號","121.438595","24.9797316666667","6501300","土城區"
"236059","912-UM","2017/11/10 17:59:25","新北市土城區中央路三段42號","121.437573333333","24.9681633333333","6501300","土城區"
"236063","915-UM","2017/11/10 17:59:16","新北市土城區城林路6巷80號","121.438496666667","24.9798083333333","6501300","土城區"
"236055","AAC-216","2017/11/10 17:59:31","新北市土城區中央路二段280號","121.440746666667","24.9741133333333","6501300","土城區"
"242032","AAC-296","2017/11/10 17:59:18","新北市新莊區新泰路349號","121.444723333333","25.0422166666667","6500500","新莊區"
"242029","986-R7","2017/11/10 17:59:23","新北市新莊區中平路79號","121.444731666667","25.0452516666667","6500500","新莊區"
"242050","751-BX","2017/11/10 17:59:30","新北市新莊區民安西路155巷7弄4號","121.426925","25.01658","6500500","新莊區"
"242025","615-BX","2017/11/10 17:59:12","新北市新莊區五工路58號","121.458673333333","25.063025","6500500","新莊區"
"242023","613-BX","2017/11/10 17:59:13","新北市新莊區福壽街67號","121.45822","25.0494066666667","6500500","新莊區"
"242027","612-BX","2017/11/10 17:59:17","新北市新莊區思源路455號","121.459786666667","25.0534633333333","6500500","新莊區"
"242039","566-BX","2017/11/10 17:59:31","新北市新莊區民安西路2號","121.42649","25.0219166666667","6500500","新莊區"
"242044","497-BY","2017/11/10 17:59:12","新北市新莊區雙鳳路112號","121.413563333333","25.02809","6500500","新莊區"
"242056","442-UM","2017/11/10 17:59:26","新北市新莊區豐年街124巷10號","121.445788333333","25.0298216666667","6500500","新莊區"
"242048","441-UM","2017/11/10 17:59:27","新北市新莊區萬安街153號","121.42034","25.021485","6500500","新莊區"
"242054","440-UM","2017/11/10 17:59:28","新北市新莊區光華街8號","121.428731666667","25.0107166666667","6500500","新莊區"
"242034","415-TV","2017/11/10 17:59:17","新北市新莊區福海街31巷2號","121.445213333333","25.0340266666667","6500500","新莊區"
"242005","413-TV","2017/11/10 17:59:15","新北市新莊區福樂街72巷11號","121.458708333333","25.0467266666667","6500500","新莊區"
"242041","400-BY","2017/11/10 17:59:28","新北市新莊區中正路857-1號","121.419293333333","25.028005","6500500","新莊區"
"242060","362-BY","2017/11/10 17:59:30","新北市新莊區新樹路485號","121.432703333333","25.0125833333333","6500500","新莊區"
"242058","353-BY","2017/11/10 17:59:17","新北市新莊區新北大道七段239號","121.413015","25.029675","6500500","新莊區"
"242007","132-UY","2017/11/10 17:59:25","新北市新莊區自信街47號","121.454633333333","25.0483566666667","6500500","新莊區"
"242037","133-UY","2017/11/10 17:59:20","新北市新莊區建福路35號","121.426478333333","25.0284183333333","6500500","新莊區"
"242021","135-UY","2017/11/10 17:59:27","新北市新莊區建興街4號","121.450211666667","25.0363016666667","6500500","新莊區"
"242046","172-VK","2017/11/10 17:59:28","新北市新莊區福營路181號","121.431438333333","25.0308066666667","6500500","新莊區"
"242009","173-VK","2017/11/10 17:59:31","新北市新莊區中華路二段290號","121.452531666667","25.05363","6500500","新莊區"
"242015","175-VK","2017/11/10 17:59:23","新北市新莊區中平路87巷4號","121.444416666667","25.0459033333333","6500500","新莊區"
"242002","176-VK","2017/11/10 17:59:30","新北市新莊區中正路145-18號","121.458263333333","25.0376166666667","6500500","新莊區"
"242001","233-RS","2017/11/10 08:39:12","新北市新莊區環河路48-7號","121.436923333333","25.0098133333333","6500500","新莊區"
"242013","346-TH","2017/11/10 17:59:28","新北市新莊區中和街125巷12號","121.44699","25.0486083333333","6500500","新莊區"
"242017","350-TH","2017/11/10 17:59:29","新北市新莊區中和街60巷5號","121.448241666667","25.0448833333333","6500500","新莊區"
"242011","351-TH","2017/11/10 17:59:28","新北市新莊區中榮街56巷12號","121.44922","25.053675","6500500","新莊區"
"238015","755-BX","2017/11/10 17:59:22","新北市樹林區啟智街80巷10號","121.41906","24.99241","6500700","樹林區"
"238023","601-UM","2017/11/10 17:59:35","新北市樹林區龍興街31巷9號","121.403423333333","25.0160666666667","6500700","樹林區"
"238019","599-UM","2017/11/10 17:59:12","新北市樹林區忠孝街9號","121.423303333333","24.9828083333333","6500700","樹林區"
"238018","571-TV","2017/11/10 17:59:22","新北市樹林區樹新路98號","121.429466666667","24.9975783333333","6500700","樹林區"
"238021","KEA-2217","2017/11/10 17:59:20","新北市樹林區柑園街一段36-8號","121.4055","24.96166","6500700","樹林區"
"238022","KEA-2213","2017/11/10 17:59:14","新北市樹林區福順街59號","121.41612","24.9783583333333","6500700","樹林區"
"238016","308-TH","2017/11/10 13:02:47","新北市樹林區育德街121巷5號","121.388811666667","24.9682766666667","6500700","樹林區"
"238025","303-VK","2017/11/10 17:59:21","新北市樹林區三俊街81巷3號","121.41558","25.0156","6500700","樹林區"
"238017","283-BY","2017/11/10 17:59:23","新北市樹林區俊德街51號","121.415523333333","25.0132733333333","6500700","樹林區"
"238014","282-BY","2017/11/10 17:59:21","新北市樹林區大安路125巷15號","121.422966666667","24.9970083333333","6500700","樹林區"
"238020","268-VK","2017/11/10 17:59:27","新北市樹林區三俊街279號","121.422961666667","25.0141783333333","6500700","樹林區"
"238026","172-UY","2017/11/10 17:59:20","新北市樹林區中洲街16號","121.397361666667","24.9723816666667","6500700","樹林區"
"238016","169-UY","2017/11/10 17:59:23","新北市樹林區啟智街187巷2號","121.415073333333","24.9871766666667","6500700","樹林區"
"239007","AAC-297","2017/11/10 17:59:31","新北市鶯歌區鶯桃路47號","121.342138333333","24.95181","6500800","鶯歌區"
"239006","891-R6","2017/11/10 17:59:15","新北市鶯歌區鶯桃路455巷2弄2號","121.331846666667","24.9655333333333","6500800","鶯歌區"
"239008","527-UM","2017/11/10 17:59:24","新北市鶯歌區明圓街5號","121.335893333333","24.976945","6500800","鶯歌區"
"239005","526-UM","2017/11/10 17:59:32","新北市鶯歌區鶯桃路658巷4號","121.329435","24.96945","6500800","鶯歌區"
"239001","417-VK","2017/11/10 17:59:29","新北市鶯歌區尖山路卓厝巷7號","121.341685","24.94535","6500800","鶯歌區"
"239003","360-BY","2017/11/10 17:59:30","新北市鶯歌區鶯桃路272號","121.335495","24.9600133333333","6500800","鶯歌區"
"239002","359-BY","2017/11/10 17:59:24","新北市鶯歌區光明街15巷7號","121.34904","24.9552216666667","6500800","鶯歌區"
"239004","193-VK","2017/11/10 17:59:14","新北市鶯歌區尖山路103-6號","121.348178333333","24.9487483333333","6500800","鶯歌區"
"221008","489-VK","2017/11/10 17:59:20","新北市汐止區明峰街12-1號","121.634951666667","25.0715","6501100","汐止區"
"221036","130-UY","2017/11/10 17:59:15","新北市汐止區忠孝東路473巷24-1號","121.665068333333","25.07374","6501100","汐止區"
"221015","131-UY","2017/11/10 17:59:24","新北市汐止區長江街353號","121.667545","25.0821283333333","6501100","汐止區"
"221010","269-BY","2017/11/10 17:59:22","新北市汐止區汐萬路二段275巷3弄2號","121.64535","25.0879833333333","6501100","汐止區"
"221012","276-VK","2017/11/10 13:25:12","新北市汐止區汐萬路一段256巷3號","121.653465","25.0745983333333","6501100","汐止區"
"221012","278-VK","2017/11/10 17:59:23","新北市汐止區長興街二段30號","121.673258333333","25.0814933333333","6501100","汐止區"
"221023","279-VK","2017/11/10 17:59:15","新北市汐止區明峰街145號","121.629553333333","25.0705383333333","6501100","汐止區"
"221032","280-BY","2017/11/10 17:59:16","新北市汐止區大同路一段138號","121.631055","25.0551266666667","6501100","汐止區"
"221027","281-BY","2017/11/10 17:59:16","新北市汐止區汐萬路一段20號","121.655948333333","25.067525","6501100","汐止區"
"221029","298-VK","2017/11/10 17:59:30","新北市汐止區樟樹二路329號","121.641443333333","25.0704066666667","6501100","汐止區"
"221021","299-VK","2017/11/10 17:59:15","新北市汐止區水源路一段56號","121.657365","25.0657066666667","6501100","汐止區"
"221031","353-TW","2017/11/10 17:59:30","新北市汐止區中興路96巷1-3號","121.635216666667","25.0625016666667","6501100","汐止區"
"221002","358-BY","2017/11/10 17:59:18","新北市汐止區工建路157號","121.637871666667","25.063335","6501100","汐止區"
"221035","622-UM","2017/11/10 17:59:28","新北市汐止區新江北路30巷22弄7號","121.651228333333","25.069805","6501100","汐止區"
"221025","623-UM","2017/11/10 17:59:30","新北市汐止區仁愛路49號","121.659681666667","25.0631966666667","6501100","汐止區"
"221038","646-BX","2017/11/10 17:59:18","新北市汐止區連興街116號","121.653696666667","25.0626683333333","6501100","汐止區"
"221033","647-BX","2017/11/10 17:59:15","新北市汐止區合順街23巷1號","121.620106666667","25.0432866666667","6501100","汐止區"
"221018","753-BX","2017/11/10 17:59:22","新北市汐止區忠孝東路382巷1弄1號","121.665658333333","25.0697683333333","6501100","汐止區"
"242019","280-VK","2017/11/10 17:59:34","新北市新莊區明中街43巷4號","121.457518333333","25.0389633333333","6500500","新莊區"
