"lineid","car","time","location","longitude","latitude","cityid","cityname"
"234046","148-BY","2017/11/10 19:29:32","新北市永和區秀朗路二段181巷1號","121.526006666667","25.0014533333333","6500400","永和區"
"234013","149-BY","2017/11/10 19:29:24","新北市永和區保福路二段2號","121.51133","25.0107416666667","6500400","永和區"
"234007","207-UY","2017/11/10 19:29:33","新北市永和區永和路一段135巷2號","121.514103333333","25.0086533333333","6500400","永和區"
"234081","298-R6","2017/11/10 19:29:34","新北市永和區林森路10巷18弄17號","121.526293333333","25.0072166666667","6500400","永和區"
"234038","336-UY","2017/11/10 19:29:24","新北市永和區民樂街44號","121.527463333333","25.00049","6500400","永和區"
"234064","337-UY","2017/11/10 19:29:28","新北市永和區得和路243巷28弄1號","121.520841666667","25.0012066666667","6500400","永和區"
"234070","552-UM","2017/11/10 19:29:30","新北市永和區警光街14號","121.51969","25.0095216666667","6500400","永和區"
"234054","553-UM","2017/11/10 19:29:18","新北市永和區復興街24號","121.516018333333","25.0129366666667","6500400","永和區"
"234017","745-BX","2017/11/10 19:29:30","新北市永和區環河西路一段63號","121.513403333333","25.01813","6500400","永和區"
"234030","746-BX","2017/11/10 19:29:23","新北市永和區民生路69號","121.522626666667","24.997175","6500400","永和區"
"234061","AAD-866","2017/11/10 19:29:15","新北市永和區中正路512號","121.517413333333","25.0046516666667","6500400","永和區"
"234086","847-RS","2017/11/10 19:29:23","新北市永和區林森路80號","121.523506666667","25.0037633333333","6500400","永和區"
"234042","862-TW","2017/11/10 19:29:20","新北市永和區水源街39巷24號","121.51066","25.0033066666667","6500400","永和區"
"234050","863-TW","2017/11/10 19:29:24","新北市永和區信義路120號","121.512328333333","25.01461","6500400","永和區"
"234026","9381-KE","2017/11/10 19:29:30","新北市中和區中和路400巷17號","121.51153","25.002355","6500400","永和區"
"234011","9373-KE","2017/11/10 19:29:21","新北市永和區保福路二段9巷1號","121.510875","25.0108566666667","6500400","永和區"
"249002","305-UY","2017/11/10 19:29:26","新北市八里區頂寮二街138號","121.44928","25.1294383333333","6502300","八里區"
"249003","593-UM","2017/11/10 19:29:14","新北市八里區中山路二段496號","121.39843","25.14689","6502300","八里區"
"248014","025-BX","2017/11/10 19:29:33","新北市五股區民義路一段163-2號","121.432058333333","25.0877616666667","6501500","五股區"
"248018","225-UY","2017/11/10 19:27:00","新北市五股區外寮路9-25號","121.415885","25.0792383333333","6501500","五股區"
"248012","247-BX","2017/11/10 19:29:31","新北市五股區中興路四段38巷11-1號","121.438793333333","25.0836316666667","6501500","五股區"
"248010","272-BY","2017/11/10 19:29:30","新北市五股區水碓一路23號","121.430625","25.071285","6501500","五股區"
"248004","677-BX","2017/11/10 19:29:23","新北市五股區五福路53號","121.43307","25.0898783333333","6501500","五股區"
"248002","678-BX","2017/11/10 19:29:24","新北市五股區凌雲路一段158巷6號","121.447768333333","25.1030233333333","6501500","五股區"
"234023","9380-KE","2017/11/10 19:29:33","新北市永和區竹林路91巷43弄2號","121.521333333333","25.0128483333333","6500400","永和區"
"234077","969-R7","2017/11/10 19:29:23","新北市永和區民族街43巷14號","121.519188333333","24.9983583333333","6500400","永和區"
"234074","AAC-211","2017/11/10 19:29:23","新北市永和區環河東路一段114號","121.520318333333","25.01592","6500400","永和區"
"234067","AAC-212","2017/11/10 19:29:27","新北市永和區保平路178號","121.510741666667","25.0066183333333","6500400","永和區"
"234003","AAC-295","2017/11/10 19:29:20","新北市永和區自強街8巷5弄2號","121.514616666667","25.0075366666667","6500400","永和區"
"244019","403-UM","2017/11/10 19:29:21","新北市林口區麗園一街15號","121.377028333333","25.069215","6501700","林口區"
"244023","483-VK","2017/11/10 19:29:19","新北市林口區仁愛路二段267巷3號","121.373401666667","25.0771716666667","6501700","林口區"
"243012","AAD-798","2017/11/10 19:29:31","新北市泰山區仁愛路58號","121.431858333333","25.0548716666667","6501600","泰山區"
"243009","297-R6","2017/11/10 19:29:25","新北市五股區成泰路一段7巷11號","121.432996666667","25.0668566666667","6501600","泰山區"
"243015","380-SR","2017/11/10 19:29:23","新北市泰山區明志路二段136巷1-1號","121.42738","25.0512083333333","6501600","泰山區"
"243014","421-VK","2017/11/10 19:29:24","新北市泰山區中港西路422號","121.433791666667","25.0538616666667","6501600","泰山區"
"243010","KEA-2215","2017/11/10 19:29:16","新北市泰山區民族街10巷1號","121.429241666667","25.0517683333333","6501600","泰山區"
"243011","KEA-2216","2017/11/10 19:29:19","新北市泰山區中山路二段567號","121.429345","25.040165","6501600","泰山區"
"243013","646-TV","2017/11/10 19:29:24","新北市泰山區貴子路36巷16號","121.425905","25.041055","6501600","泰山區"
"243016","680-BX","2017/11/10 19:29:27","新北市泰山區明志路三段317號","121.422433333333","25.0358883333333","6501600","泰山區"
"222003","436-BY","2017/11/10 19:29:20","新北市深坑區深南路88巷1號","121.621265","25.0111516666667","6501800","深坑區"
"222002","659-BX","2017/11/10 19:29:24","新北市深坑區北深路一段177號","121.632543333333","25.0109016666667","6501800","深坑區"
"231041","002-UM","2017/11/10 19:29:07","新北市新店區中正路610號","121.533875","24.9884683333333","6500600","新店區"
"231059","046-UY","2017/11/10 19:29:26","新北市新店區安和路三段1-1號","121.51676","24.9798533333333","6500600","新店區"
"231061","047-UY","2017/11/10 19:29:15","新北市新店區安民街48號","121.516106666667","24.9657333333333","6500600","新店區"
"231060","106-UY","2017/11/10 19:29:29","新北市新店區安康路二段117號","121.512476666667","24.9615733333333","6500600","新店區"
"231048","108-UY","2017/11/10 19:29:26","新北市新店區中興路一段280號","121.545525","24.9684433333333","6500600","新店區"
"231053","187-VK","2017/11/10 19:29:19","新北市新店區新烏路二段200巷11號","121.547746666667","24.9169133333333","6500600","新店區"
"231050","KEA-2219","2017/11/10 19:29:32","新北市新店區秀水路34號","121.554951666667","24.9553183333333","6500600","新店區"
"231057","256-BX","2017/11/10 19:29:15","新北市新店區花園一路三段36號","121.550066666667","24.93304","6500600","新店區"
"231046","278-BY","2017/11/10 19:29:18","新北市新店區北新路一段91號","121.538696666667","24.9617433333333","6500600","新店區"
"231058","3712-VJ","2017/11/10 19:29:35","新北市新店區北新路二段228巷1號","121.54303","24.9777616666667","6500600","新店區"
"231055","4716-K9","2017/11/10 19:29:28","新北市新店區安德街60巷19號","121.510373333333","24.963195","6500600","新店區"
"231067","4772-VM","2017/11/10 19:29:19","新北市新店區薏仁坑路6號","121.50023","24.9580616666667","6500600","新店區"
"231065","512-UM","2017/11/10 19:29:31","新北市新店區安祥路109巷1弄21號","121.476348333333","24.95991","6500600","新店區"
"231054","513-UM","2017/11/10 19:29:24","新北市新店區文中路40號","121.539753333333","24.9564866666667","6500600","新店區"
"231064","515-UM","2017/11/10 19:29:19","新北市新店區安康路二段85巷1號","121.513591666667","24.9625016666667","6500600","新店區"
"231045","617-UM","2017/11/10 19:29:28","新北市新店區北宜路二段205號","121.553076666667","24.9533233333333","6500600","新店區"
"231040","619-UM","2017/11/10 19:29:31","新北市新店區北新路一段257號","121.540925","24.96618","6500600","新店區"
"231042","641-BX","2017/11/10 19:29:18","新北市新店區中興路一段176號","121.543096666667","24.96455","6500600","新店區"
"231063","645-TV","2017/11/10 19:29:12","新北市新店區達觀路16號","121.503111666667","24.9407533333333","6500600","新店區"
"231049","719-UM","2017/11/10 19:29:29","新北市新店區北新路三段65巷34弄20號","121.540176666667","24.9815733333333","6500600","新店區"
"231051","719-UY","2017/11/10 19:29:14","新北市新店區中央路95巷2號","121.531393333333","24.97489","6500600","新店區"
"231062","720-UM","2017/11/10 19:29:13","新北市新店區安康路一段92號","121.527973333333","24.9619116666667","6500600","新店區"
"231044","897-TW","2017/11/10 19:29:24","新北市新店區中興路三段201號","121.543756666667","24.981575","6500600","新店區"
"231043","899-TW","2017/11/10 19:29:17","新北市新店區北新路二段224號","121.542866666667","24.9771116666667","6500600","新店區"
"231066","AKT-0513","2017/11/10 19:29:31","新北市新店區安康路三段165巷2弄12號","121.48903","24.9513766666667","6500600","新店區"
"241028","022-UY","2017/11/10 19:29:29","新北市三重區中寮街82號","121.49315","25.05811","6500200","三重區"
"241008","059-VK","2017/11/10 19:29:27","新北市三重區永福街135巷33號","121.477525","25.07717","6500200","三重區"
"241009","060-VK","2017/11/10 19:29:30","新北市三重區溪尾街242巷77號","121.485866666667","25.081385","6500200","三重區"
"241017","063-VK","2017/11/10 19:29:23","新北市三重區中正北路25巷19號","121.493028333333","25.0625466666667","6500200","三重區"
"241026","066-VK","2017/11/10 19:29:23","新北市三重區文化南路47巷36號","121.4989","25.061045","6500200","三重區"
"241025","156-TC","2017/11/10 19:29:28","新北市三重區頂崁街210巷28弄9號","121.47578","25.06714","6500200","三重區"
"241005","262-UM","2017/11/10 19:29:17","新北市三重區自強路四段39號","121.489145","25.0769","6500200","三重區"
"241030","265-UM","2017/11/10 19:29:22","新北市三重區環河南路254巷23號","121.490101666667","25.0511883333333","6500200","三重區"
"241022","267-UM","2017/11/10 19:29:13","新北市三重區三民街157巷2號","121.483763333333","25.0646216666667","6500200","三重區"
"241032","269-UM","2017/11/10 19:29:32","新北市三重區三陽路25號","121.485536666667","25.0588033333333","6500200","三重區"
"241007","398-BY","2017/11/10 19:29:25","新北市三重區溪尾街128號","121.489318333333","25.0794333333333","6500200","三重區"
"241020","413-TH","2017/11/10 19:29:23","新北市三重區三和路四段44巷31號","121.489025","25.0740083333333","6500200","三重區"
"241031","480-VK","2017/11/10 19:29:27","新北市三重區集美街65-3號","121.488496666667","25.054115","6500200","三重區"
"241006","AAD-863","2017/11/10 19:29:28","新北市三重區車路頭街76號","121.484325","25.073905","6500200","三重區"
"241035","743-BX","2017/11/10 19:29:15","新北市三重區過圳街9號","121.488995","25.0588","6500200","三重區"
"241029","942-UM","2017/11/10 19:29:29","新北市三重區重安街103號","121.493923333333","25.05511","6500200","三重區"
"235066","003-UY","2017/11/10 19:29:17","新北市中和區景新街56號","121.503973333333","24.999075","6500300","中和區"
"235064","005-UY","2017/11/10 19:29:29","新北市中和區連城路5號","121.499278333333","25.002315","6500300","中和區"
"235063","006-UY","2017/11/10 19:29:28","新北市中和區連城路221號","121.494263333333","24.9975883333333","6500300","中和區"
"235056","096-UM","2017/11/10 19:29:31","新北市中和區中山路三段39-2號","121.477605","25.0055183333333","6500300","中和區"
"235039","097-UM","2017/11/10 19:29:21","新北市中和區秀峰街121號","121.519993333333","24.990715","6500300","中和區"
"235065","098-UM","2017/11/10 19:29:23","新北市中和區中山路二段2巷7弄1號","121.504233333333","25.0065416666667","6500300","中和區"
"235040","150-BY","2017/11/10 19:29:24","新北市中和區保健路46巷22弄1號","121.508665","24.9957766666667","6500300","中和區"
"235058","151-BY","2017/11/10 19:29:29","新北市中和區中正路637巷52弄1號","121.485406666667","24.993485","6500300","中和區"
"235055","183-VK","2017/11/10 19:29:14","新北市中和區莒光路120巷17弄2號","121.471706666667","25.00092","6500300","中和區"
"235038","185-VK","2017/11/10 19:29:16","新北市中和區立人街69巷2號","121.51989","24.9938816666667","6500300","中和區"
"235049","186-VK","2017/11/10 19:29:23","新北市中和區景新街273巷2號","121.50957","24.9937166666667","6500300","中和區"
"235067","255-BX","2017/11/10 19:29:30","新北市中和區連城路322號","121.483378333333","24.9960183333333","6500300","中和區"
"235044","293-VK","2017/11/10 19:29:14","新北市中和區捷運路163號","121.506225","24.9911783333333","6500300","中和區"
"235072","301-VK","2017/11/10 19:29:21","新北市中和區連城路265巷12弄2號","121.491708333333","24.9952166666667","6500300","中和區"
"235043","352-BY","2017/11/10 19:29:29","新北市中和區景新街149號","121.506503333333","24.9966066666667","6500300","中和區"
"235068","377-QA","2017/11/10 19:29:25","新北市中和區圓通路158巷24號","121.498361666667","24.997085","6500300","中和區"
"235061","378-QA","2017/11/10 19:29:26","新北市中和區民利街61巷15號","121.478771666667","24.9981233333333","6500300","中和區"
"235071","269-TV","2017/11/10 19:29:12","新北市中和區連城路318號","121.483515","24.9960033333333","6500300","中和區"
"235042","551-UM","2017/11/10 19:29:13","新北市中和區安平路159號","121.512385","24.9983666666667","6500300","中和區"
"235070","558-UM","2017/11/10 19:29:29","新北市中和區中山路二段261號","121.497253333333","25.0022583333333","6500300","中和區"
"235045","565-BX","2017/11/10 19:29:20","新北市中和區景新街423巷27號","121.513626666667","24.9894833333333","6500300","中和區"
"235054","640-BX","2017/11/10 19:29:13","新北市中和區國光街112巷11弄1號","121.469735","25.00159","6500300","中和區"
"235047","732-UM","2017/11/10 19:29:34","新北市中和區景平路241巷64弄8號","121.507653333333","24.992655","6500300","中和區"
"235046","733-UM","2017/11/10 19:29:23","新北市中和區忠孝街37巷52號","121.511076666667","24.9849033333333","6500300","中和區"
"235062","800-TS","2017/11/10 19:29:33","新北市新店區安豐路24號","121.500668333333","24.9565033333333","6500300","中和區"
"235057","801-TS","2017/11/10 19:29:26","新北市中和區員山路421號","121.480996666667","25.0033916666667","6500300","中和區"
"235041","802-TS","2017/11/10 19:29:29","新北市中和區中安街132號","121.510901666667","25.000445","6500300","中和區"
"235052","805-TS","2017/11/10 19:29:19","新北市中和區華新街143巷68號","121.506308333333","24.97932","6500300","中和區"
"235048","896-TW","2017/11/10 19:29:22","新北市中和區忠孝街113巷2號","121.512601666667","24.9875783333333","6500300","中和區"
"235053","900-TW","2017/11/10 19:29:17","新北市中和區華順街73號","121.465643333333","24.998405","6500300","中和區"
"235060","911-UM","2017/11/10 19:29:32","新北市中和區員山路266巷15號","121.481903333333","25.001855","6500300","中和區"
"235037","157-BY","2017/11/10 19:29:22","新北市中和區景新街128號","121.50522","24.9980966666667","6500300","中和區"
"235037","AAC-213","2017/11/10 19:29:31","新北市中和區秀朗路三段10巷14弄44號","121.524446666667","24.9964766666667","6500300","中和區"
"235059","AAC-215","2017/11/10 19:29:25","新北市中和區圓通路256號","121.493303333333","24.99107","6500300","中和區"
"220068","013-TV","2017/11/10 19:29:33","新北市板橋區萬安街103巷3號","121.483371666667","25.0246933333333","6500100","板橋區"
"220065","072-UY","2017/11/10 19:29:29","新北市板橋區國泰街111巷15號","121.46618","25.0059933333333","6500100","板橋區"
"220086","073-UY","2017/11/10 19:29:14","新北市板橋區中正路236巷53號","121.458053333333","25.0194266666667","6500100","板橋區"
"220106","075-UY","2017/11/10 19:29:29","新北市板橋區長江路三段58號","121.473585","25.03387","6500100","板橋區"
"220069","AAD-861","2017/11/10 19:29:36","新北市板橋區貴興路45號","121.457446666667","25.0035183333333","6500100","板橋區"
"247004","336-TH","2017/11/10 19:29:29","新北市蘆洲區長安街225號","121.45953","25.08262","6501400","蘆洲區"
"226004","205-ST","2017/11/10 19:29:23","新北市平溪區十分里十分街236號","121.778151666667","25.044095","6502400","平溪區"
"228001","212-TW","2017/11/10 19:29:16","新北市貢寮區真理里延平街68號","121.925358333333","25.0573883333333","6502600","貢寮區"
"228002","663-BX","2017/11/10 19:29:25","新北市貢寮區龍門里龍門街69號","121.93094","25.026535","6502600","貢寮區"
"228003","828-UM","2017/11/10 19:29:32","新北市貢寮區和美里和美街19-2號","121.912803333333","25.0825616666667","6502600","貢寮區"
"224010","AGQ-8101","2017/11/10 19:29:18","新北市瑞芳區基山街171號","121.843266666667","25.1080666666667","6501200","瑞芳區"
"224006","676-BX","2017/11/10 19:29:28","新北市瑞芳區三爪子坑路106巷1-11號","121.807731666667","25.1051","6501200","瑞芳區"
"224002","639-TC","2017/11/10 19:29:34","新北市瑞芳區三爪子坑路13巷47號","121.814233333333","25.1067433333333","6501200","瑞芳區"
"227011","642-TC","2017/11/10 19:29:18","新北市雙溪區新基里新基北街43號","121.868121666667","25.0397","6502500","雙溪區"
"227003","400-TW","2017/11/10 19:29:33","新北市雙溪區雙溪里光復街22號","121.865231666667","25.03547","6502500","雙溪區"
"253005","032-BX","2017/11/10 19:29:29","新北市石門區小坑9號","121.594333333333","25.2886283333333","6502200","石門區"
"253006","295-VK","2017/11/10 19:29:30","新北市石門區中央路42號","121.568068333333","25.29284","6502200","石門區"
"222001","KEA-2212","2017/11/10 19:29:32","新北市深坑區北深路二段140號","121.615686666667","25.0028566666667","6501800","深坑區"
"208002","742-BX","2017/11/10 19:29:35","新北市金山區仁愛路87巷1號","121.634605","25.22151","6502700","金山區"
"208003","665-BX","2017/11/10 19:29:31","新北市金山區中山路263巷14號","121.636366666667","25.2215333333333","6502700","金山區"
"208001","761-BX","2017/11/10 19:29:15","新北市金山區中正路20號","121.635915","25.22228","6502700","金山區"
"251013","180-VK","2017/11/10 19:29:24","新北市淡水區大牛稠5號","121.470236666667","25.2196883333333","6501000","淡水區"
"251015","182-VK","2017/11/10 19:29:18","新北市淡水區北新路三段146號","121.489808333333","25.1904016666667","6501000","淡水區"
"251010","413-VK","2017/11/10 19:29:31","新北市淡水區中正路二段150號","121.422956666667","25.1877","6501000","淡水區"
"251012","441-VK","2017/11/10 19:29:29","新北市淡水區中山北路三段164號","121.445628333333","25.1966266666667","6501000","淡水區"
"251005","443-VK","2017/11/10 19:29:23","新北市淡水區水源街一段53巷12號","121.444161666667","25.1729133333333","6501000","淡水區"
"251001","559-UM","2017/11/10 19:29:24","新北市淡水區民權路141-1號","121.46005","25.1363833333333","6501000","淡水區"
"251006","561-UM","2017/11/10 19:29:32","新北市淡水區大義街35號","121.44219","25.1783066666667","6501000","淡水區"
"251009","575-R6","2017/11/10 19:29:17","新北市淡水區大忠街5巷9號","121.443395","25.1765216666667","6501000","淡水區"
"251007","577-R6","2017/11/10 19:29:30","新北市淡水區淡金路16巷60弄31號","121.459635","25.1597883333333","6501000","淡水區"
"251011","650-BX","2017/11/10 19:29:30","新北市淡水區中正東路二段143巷2弄1號","121.460585","25.147305","6501000","淡水區"
"251003","673-BX","2017/11/10 19:29:31","新北市淡水區中山北路三段102號","121.444225","25.1909833333333","6501000","淡水區"
"207003","550-UM","2017/11/10 19:29:26","新北市萬里區大鵬里萬里加投199號","121.64395","25.21508","6502800","萬里區"
"207004","225-TW","2017/11/10 19:29:13","新北市萬里區萬里里瑪鋉路87-1號","121.688711666667","25.1772216666667","6502800","萬里區"
"252002","178-VK","2017/11/10 19:29:23","新北市三芝區淡金路二段27號","121.502846666667","25.2596933333333","6502100","三芝區"
"252001","292-VK","2017/11/10 19:29:32","新北市三芝區長勤街50-1號","121.500225","25.255475","6502100","三芝區"
"237004","078-UY","2017/11/10 19:29:27","新北市三峽區有木131-1號","121.436983333333","24.8531833333333","6500900","三峽區"
"237007","153-BY","2017/11/10 19:29:13","新北市三峽區二鬮路178號","121.359078333333","24.90682","6500900","三峽區"
"237009","210-TH","2017/11/10 19:29:16","新北市三峽區民權街99號","121.369238333333","24.9326633333333","6500900","三峽區"
"237013","252-BX","2017/11/10 19:29:30","新北市三峽區介壽路一段309號","121.381226666667","24.9305566666667","6500900","三峽區"
"237012","275-BY","2017/11/10 19:29:28","新北市三峽區三樹路98巷175號","121.384558333333","24.9399","6500900","三峽區"
"237008","302-VK","2017/11/10 19:29:23","新北市三峽區大同路154號","121.373113333333","24.926945","6500900","三峽區"
"237006","5529-G3","2017/11/10 19:29:28","新北市三峽區中正路一段336巷15弄2號","121.36995","24.92494","6500900","三峽區"
"237015","649-BX","2017/11/10 19:29:27","新北市三峽區成福路92號","121.42077","24.9298733333333","6500900","三峽區"
"237005","AKY-6261","2017/11/10 19:29:17","新北市三峽區復興路367巷1弄17號","121.36421","24.9378816666667","6500900","三峽區"
"236072","105-UM","2017/11/10 19:29:26","新北市土城區學府路一段157號","121.45332","24.9857483333333","6501300","土城區"
"236079","166-UM","2017/11/10 19:29:34","新北市土城區中州路24巷3號","121.414681666667","24.95763","6501300","土城區"
"236031","253-BX","2017/11/10 19:29:31","新北市土城區中央路一段324號","121.44326","24.9816483333333","6501300","土城區"
"236027","269-VK","2017/11/10 19:29:24","新北市土城區中央路二段61巷22號","121.4432","24.9787183333333","6501300","土城區"
"236022","401-BY","2017/11/10 19:29:32","新北市土城區峰廷街3號","121.469066666667","24.98733","6501300","土城區"
"236050","752-BX","2017/11/10 19:29:17","新北市土城區清水路176號","121.460033333333","24.9816516666667","6501300","土城區"
"236059","912-UM","2017/11/10 19:29:25","新北市土城區中央路二段134號","121.442046666667","24.97748","6501300","土城區"
"242001","233-RS","2017/11/10 08:39:12","新北市新莊區環河路48-7號","121.436923333333","25.0098133333333","6500500","新莊區"
"238015","755-BX","2017/11/10 19:29:26","新北市樹林區復興路231-1號","121.419831666667","24.9905316666667","6500700","樹林區"
"238023","601-UM","2017/11/10 19:29:30","新北市樹林區中正路865號","121.408836666667","25.018175","6500700","樹林區"
"238018","571-TV","2017/11/10 19:29:22","新北市樹林區中華路31號","121.423978333333","24.9834816666667","6500700","樹林區"
"238024","5061-A6","2017/11/10 19:29:24","新北市樹林區中山路三段46號","121.39461","24.972525","6500700","樹林區"
"238021","KEA-2217","2017/11/10 19:29:31","新北市樹林區柑園街二段382巷14號","121.368073333333","24.9498716666667","6500700","樹林區"
"238022","KEA-2213","2017/11/10 19:29:14","新北市樹林區名園街38號","121.419548333333","24.9789016666667","6500700","樹林區"
"238016","308-TH","2017/11/10 13:02:47","新北市樹林區育德街121巷5號","121.388811666667","24.9682766666667","6500700","樹林區"
"238025","303-VK","2017/11/10 19:29:21","新北市樹林區中山路一段37號","121.424101666667","24.9926016666667","6500700","樹林區"
"238017","283-BY","2017/11/10 19:29:23","新北市樹林區保安街二段22號","121.41548","25.00161","6500700","樹林區"
"238014","282-BY","2017/11/10 19:29:21","新北市樹林區保安二街64巷5弄1號","121.424443333333","24.99592","6500700","樹林區"
"238020","268-VK","2017/11/10 19:29:34","新北市樹林區俊英街111巷2-1號","121.424461666667","25.009685","6500700","樹林區"
"238026","172-UY","2017/11/10 19:29:20","新北市樹林區佳園路二段91號","121.390651666667","24.959355","6500700","樹林區"
"238016","169-UY","2017/11/10 19:29:32","新北市樹林區復興路444號","121.413576666667","24.9841783333333","6500700","樹林區"
"239007","AAC-297","2017/11/10 19:29:31","新北市鶯歌區大湖路326巷4號","121.346115","24.9703516666667","6500800","鶯歌區"
"239006","891-R6","2017/11/10 19:29:15","新北市鶯歌區文化路71號","121.357991666667","24.9560683333333","6500800","鶯歌區"
"239001","417-VK","2017/11/10 19:29:29","新北市鶯歌區中山路14號","121.352841666667","24.957095","6500800","鶯歌區"
"239002","359-BY","2017/11/10 19:29:24","新北市鶯歌區大湖路159號","121.34423","24.9670316666667","6500800","鶯歌區"
"221008","489-VK","2017/11/10 19:29:24","新北市汐止區康寧街145號","121.622036666667","25.0666416666667","6501100","汐止區"
"221036","130-UY","2017/11/10 19:29:15","新北市汐止區汐萬路一段256巷1號","121.651716666667","25.0748166666667","6501100","汐止區"
"221015","131-UY","2017/11/10 19:29:24","新北市汐止區康寧街901號","121.651641666667","25.0749066666667","6501100","汐止區"
"221010","269-BY","2017/11/10 19:29:22","新北市汐止區康寧街901號","121.651408333333","25.0750466666667","6501100","汐止區"
"221012","276-VK","2017/11/10 13:25:12","新北市汐止區汐萬路一段256巷3號","121.653465","25.0745983333333","6501100","汐止區"
"221012","278-VK","2017/11/10 19:29:23","新北市汐止區大同路三段271號","121.674156666667","25.0756733333333","6501100","汐止區"
"221023","279-VK","2017/11/10 19:29:15","新北市汐止區康寧街753巷2弄28號","121.640525","25.0747666666667","6501100","汐止區"
"221027","281-BY","2017/11/10 19:29:36","新北市汐止區忠孝東路9號","121.658233333333","25.0660433333333","6501100","汐止區"
"221029","298-VK","2017/11/10 19:29:30","新北市汐止區康寧街901號","121.651681666667","25.0749233333333","6501100","汐止區"
"221021","299-VK","2017/11/10 19:29:35","新北市汐止區康寧街901號","121.651483333333","25.0749983333333","6501100","汐止區"
"221031","353-TW","2017/11/10 19:29:30","新北市汐止區福德二路20號","121.634863333333","25.06808","6501100","汐止區"
"221002","358-BY","2017/11/10 19:29:18","新北市汐止區中興路17號","121.636958333333","25.0593566666667","6501100","汐止區"
"221025","623-UM","2017/11/10 19:29:30","新北市汐止區秀峰路60號","121.659518333333","25.065285","6501100","汐止區"
"221038","646-BX","2017/11/10 19:29:18","新北市汐止區汐萬路一段310號","121.650348333333","25.0747316666667","6501100","汐止區"
"221033","647-BX","2017/11/10 19:29:35","新北市汐止區南勢街1巷1號","121.627033333333","25.0373866666667","6501100","汐止區"
"221018","753-BX","2017/11/10 19:29:22","新北市汐止區康寧街901號","121.651631666667","25.0749466666667","6501100","汐止區"
"220079","145-BY","2017/11/10 19:29:32","新北市板橋區中正路185號","121.456525","25.0166583333333","6500100","板橋區"
"220080","200-UY","2017/11/10 19:29:29","新北市板橋區民權路9號","121.462676666667","25.0100116666667","6500100","板橋區"
"220082","610-BX","2017/11/10 19:29:26","新北市板橋區金門街96-2號","121.43312","24.99239","6500100","板橋區"
"220101","245-BX","2017/11/10 19:29:34","新北市板橋區縣民大道三段121巷3號","121.476868333333","25.0228916666667","6500100","板橋區"
"220056","276-BY","2017/11/10 19:29:30","新北市板橋區信義路1巷26弄39號","121.459105","24.9966783333333","6500100","板橋區"
"220072","277-BY","2017/11/10 19:29:30","新北市板橋區篤行路二段141巷20號","121.430393333333","24.9877816666667","6500100","板橋區"
"220071","283-VK","2017/11/10 19:29:33","新北市板橋區忠孝路24巷20號","121.460128333333","25.001225","6500100","板橋區"
"220094","285-UM","2017/11/10 19:29:21","新北市板橋區吳鳳路15-2號","121.467863333333","25.0304616666667","6500100","板橋區"
"220053","285-VK","2017/11/10 19:29:28","新北市板橋區富山街53巷1弄1號","121.477581666667","25.0207116666667","6500100","板橋區"
"220081","287-VK","2017/11/10 19:29:27","新北市板橋區大觀路一段75巷24號","121.448093333333","25.0043266666667","6500100","板橋區"
"220090","288-VK","2017/11/10 19:29:15","新北市板橋區裕民街59號","121.46094","25.0283183333333","6500100","板橋區"
"220061","295-UM","2017/11/10 19:29:29","新北市板橋區中山路二段257號","121.477293333333","25.0177733333333","6500100","板橋區"
"220084","296-UM","2017/11/10 19:29:16","新北市板橋區篤行路三段玉平巷5-3號","121.429168333333","24.9878516666667","6500100","板橋區"
"220075","297-UM","2017/11/10 19:29:31","新北市板橋區中正路287號","121.45537","25.0192183333333","6500100","板橋區"
"220096","299-UM","2017/11/10 19:29:34","新北市板橋區大同街14-4號","121.477588333333","25.026865","6500100","板橋區"
"220062","303-R5","2017/11/10 19:29:19","新北市板橋區三民路二段202-7號","121.479078333333","25.0143433333333","6500100","板橋區"
"220092","307-R5","2017/11/10 19:29:32","新北市板橋區光武街6號","121.468021666667","25.0249566666667","6500100","板橋區"
"220098","317-R6","2017/11/10 19:29:23","新北市板橋區民生路三段281巷2弄3號","121.463546666667","25.0300366666667","6500100","板橋區"
"220064","486-VK","2017/11/10 19:29:18","新北市板橋區館前東路8-4號","121.459765","25.0070716666667","6500100","板橋區"
"220089","487-VK","2017/11/10 19:29:34","新北市板橋區文化路一段235號","121.464101666667","25.0175883333333","6500100","板橋區"
"220088","491-VK","2017/11/10 19:29:19","新北市板橋區雙十路二段73號","121.476235","25.02688","6500100","板橋區"
"220035","560-BX","2017/11/10 19:29:35","新北市板橋區中正路375巷38號","121.45384","25.0205566666667","6500100","板橋區"
"220103","561-BX","2017/11/10 19:29:15","新北市板橋區文化路一段220號","121.46672","25.0206216666667","6500100","板橋區"
"220083","568-UM","2017/11/10 19:29:34","新北市板橋區龍興街73巷49號","121.441965","25.002925","6500100","板橋區"
"220063","609-BX","2017/11/10 19:29:35","新北市板橋區三民路一段31巷89弄3號","121.481746666667","25.0234266666667","6500100","板橋區"
"220091","637-BX","2017/11/10 19:29:19","新北市板橋區文聖街149巷18號","121.479298333333","25.0283816666667","6500100","板橋區"
"220057","686-BX","2017/11/10 19:29:20","新北市中和區和平路250號","121.464748333333","24.9970566666667","6500100","板橋區"
"220077","687-BX","2017/11/10 19:29:26","新北市板橋區僑中二街114巷2號","121.445766666667","25.0068483333333","6500100","板橋區"
"220093","689-BX","2017/11/10 19:29:20","新北市板橋區新海路119號","121.460941666667","25.02281","6500100","板橋區"
"220054","741-BX","2017/11/10 19:29:22","新北市板橋區光明街86號","121.461865","25.002745","6500100","板橋區"
"220055","827-TW","2017/11/10 19:29:20","新北市板橋區重慶路290巷22弄4號","121.462308333333","24.99911","6500100","板橋區"
"220067","829-TW","2017/11/10 19:29:19","新北市板橋區長安街138巷12號","121.472908333333","25.0092383333333","6500100","板橋區"
"220102","830-TW","2017/11/10 19:29:26","新北市板橋區松柏街22巷1號","121.474656666667","25.0298466666667","6500100","板橋區"
"220074","895-R6","2017/11/10 19:29:33","新北市板橋區民權路174號","121.459666666667","25.0132533333333","6500100","板橋區"
"220073","985-R7","2017/11/10 19:29:29","新北市板橋區中正路221號","121.456098333333","25.01769","6500100","板橋區"
"220097","AAC-210","2017/11/10 19:29:30","新北市板橋區漢生西路153巷1號","121.463068333333","25.0226933333333","6500100","板橋區"
"220070","AAC-253","2017/11/10 19:29:25","新北市板橋區四川路一段57號","121.45959","25.0062166666667","6500100","板橋區"
