"lineid","car","time","location","longitude","latitude","cityid","cityname"
"234046","148-BY","2017/11/10 19:49:32","新北市永和區永利路157號","121.524761666667","25.003435","6500400","永和區"
"234013","149-BY","2017/11/10 19:49:24","新北市永和區永平路296號","121.507423333333","25.0121783333333","6500400","永和區"
"234007","207-UY","2017/11/10 19:49:33","新北市中和區南工路8號","121.505495","25.00038","6500400","永和區"
"234081","298-R6","2017/11/10 19:49:27","新北市永和區永亨路119號","121.523761666667","25.00449","6500400","永和區"
"234038","336-UY","2017/11/10 19:49:34","新北市永和區民樂街57巷19號","121.528218333333","24.9987533333333","6500400","永和區"
"234064","337-UY","2017/11/10 19:49:28","新北市永和區中正路368巷6號","121.518041666667","25.0008483333333","6500400","永和區"
"234070","552-UM","2017/11/10 19:49:30","新北市永和區竹林路77號","121.519511666667","25.0126683333333","6500400","永和區"
"234054","553-UM","2017/11/10 19:49:18","新北市永和區竹林路75巷25弄8號","121.520155","25.0144433333333","6500400","永和區"
"234017","745-BX","2017/11/10 19:49:30","新北市永和區永和路二段299號","121.516045","25.0161116666667","6500400","永和區"
"234030","746-BX","2017/11/10 19:49:28","新北市永和區民生路67巷50號","121.525316666667","24.9975066666667","6500400","永和區"
"234061","AAD-866","2017/11/10 19:49:35","新北市永和區中正路98號","121.514261666667","24.9956533333333","6500400","永和區"
"234086","847-RS","2017/11/10 19:49:23","新北市永和區永亨路62號","121.520631666667","25.0061333333333","6500400","永和區"
"234042","862-TW","2017/11/10 19:49:19","新北市永和區中和路389巷41號","121.508158333333","25.0016383333333","6500400","永和區"
"234050","863-TW","2017/11/10 19:49:24","新北市永和區保安路73號","121.50871","25.0149566666667","6500400","永和區"
"234026","9381-KE","2017/11/10 19:49:30","新北市永和區水源街33巷3號","121.510831666667","25.0042833333333","6500400","永和區"
"234011","9373-KE","2017/11/10 19:49:21","新北市永和區仁愛路352巷92弄2號","121.50121","25.0079533333333","6500400","永和區"
"249001","173-UM","2017/11/10 19:49:23","新北市八里區中華路二段252號","121.405351666667","25.149625","6502300","八里區"
"249004","303-UY","2017/11/10 19:49:13","新北市八里區忠孝路462號","121.414813333333","25.16132","6502300","八里區"
"249002","305-UY","2017/11/10 19:49:26","新北市八里區頂寮五街20號","121.4513","25.1262016666667","6502300","八里區"
"249003","593-UM","2017/11/10 19:49:14","新北市八里區華峰三街70號","121.398648333333","25.145605","6502300","八里區"
"248014","025-BX","2017/11/10 19:49:33","新北市五股區五福路42巷27號","121.434923333333","25.0900716666667","6501500","五股區"
"248016","026-BX","2017/11/10 19:49:24","新北市五股區成泰路四段24-5號","121.453571666667","25.10693","6501500","五股區"
"248018","225-UY","2017/11/10 19:37:40","新北市五股區外寮路1-1號","121.425726666667","25.0767533333333","6501500","五股區"
"248012","247-BX","2017/11/10 19:49:31","新北市五股區蓬萊路24號","121.433891666667","25.0799316666667","6501500","五股區"
"248010","272-BY","2017/11/10 19:49:30","新北市五股區自強路162號","121.43221","25.0701116666667","6501500","五股區"
"248004","677-BX","2017/11/10 19:49:29","新北市五股區成泰路一段148號","121.435093333333","25.0762066666667","6501500","五股區"
"248002","678-BX","2017/11/10 19:49:24","新北市五股區成泰路四段14號","121.453411666667","25.106665","6501500","五股區"
"234023","9380-KE","2017/11/10 19:49:33","新北市永和區豫溪街57巷6號","121.517518333333","25.0104166666667","6500400","永和區"
"234077","969-R7","2017/11/10 19:49:26","新北市永和區智光街48號","121.516938333333","24.9979716666667","6500400","永和區"
"234074","AAC-211","2017/11/10 19:49:23","新北市永和區豫溪街136巷5號","121.521286666667","25.0099583333333","6500400","永和區"
"234067","AAC-212","2017/11/10 19:49:27","新北市永和區保平路236巷24弄2號","121.508401666667","25.007035","6500400","永和區"
"234003","AAC-295","2017/11/10 19:49:15","新北市永和區福和路318號","121.515793333333","25.007345","6500400","永和區"
"243012","AAD-798","2017/11/10 19:49:31","新北市泰山區全興路13號","121.432278333333","25.0589516666667","6501600","泰山區"
"243009","297-R6","2017/11/10 19:49:25","新北市泰山區美寧街76號","121.43158","25.0646216666667","6501600","泰山區"
"243015","380-SR","2017/11/10 19:49:23","新北市泰山區明志路二段235號","121.427228333333","25.048225","6501600","泰山區"
"243014","421-VK","2017/11/10 19:49:24","新北市泰山區泰林路二段33-8號","121.435246666667","25.05658","6501600","泰山區"
"243010","KEA-2215","2017/11/10 19:49:16","新北市泰山區民生路33號","121.430728333333","25.0521566666667","6501600","泰山區"
"243011","KEA-2216","2017/11/10 19:49:19","新北市泰山區明志路三段182巷35號","121.423096666667","25.0393233333333","6501600","泰山區"
"243013","646-TV","2017/11/10 19:49:24","新北市泰山區應化街13號","121.423845","25.0437033333333","6501600","泰山區"
"243016","680-BX","2017/11/10 19:49:18","新北市泰山區中山路三段79號","121.41812","25.0321116666667","6501600","泰山區"
"222003","436-BY","2017/11/10 19:35:30","新北市深坑區深南路51-1號","121.62114","25.010025","6501800","深坑區"
"222002","659-BX","2017/11/10 19:49:24","新北市深坑區北深路二段16號","121.621131666667","25.004495","6501800","深坑區"
"231041","002-UM","2017/11/10 19:49:27","新北市新店區中央路155號","121.529683333333","24.9726066666667","6500600","新店區"
"231059","046-UY","2017/11/10 19:49:26","新北市新店區安康路二段194號","121.511076666667","24.95994","6500600","新店區"
"231061","047-UY","2017/11/10 19:49:15","新北市新店區安民街321號","121.517406666667","24.974485","6500600","新店區"
"231060","106-UY","2017/11/10 19:49:29","新北市新店區安康路二段199號","121.509113333333","24.95895","6500600","新店區"
"231048","108-UY","2017/11/10 19:49:26","新北市新店區寶興路61巷1號","121.55078","24.9720083333333","6500600","新店區"
"231053","187-VK","2017/11/10 19:49:19","新北市新店區新烏路二段489號","121.552258333333","24.90868","6500600","新店區"
"231050","KEA-2219","2017/11/10 19:48:52","新北市新店區北宜路二段503號","121.563465","24.953605","6500600","新店區"
"231057","256-BX","2017/11/10 19:49:15","新北市新店區花園二路三段21-3號","121.556856666667","24.9317066666667","6500600","新店區"
"231046","278-BY","2017/11/10 19:49:18","新北市新店區三民路159巷19弄48號","121.532203333333","24.9731866666667","6500600","新店區"
"231056","3713-VJ","2017/11/10 19:49:11","新北市新店區中正路504號","121.533806666667","24.9825316666667","6500600","新店區"
"231055","4716-K9","2017/11/10 19:49:28","新北市新店區新生街1號","121.5405","24.96568","6500600","新店區"
"231067","4772-VM","2017/11/10 19:49:19","新北市新店區精忠路10-1號","121.53265","24.9590666666667","6500600","新店區"
"231065","512-UM","2017/11/10 19:49:31","新北市新店區安祥路109巷151弄12號","121.478088333333","24.9589116666667","6500600","新店區"
"231054","513-UM","2017/11/10 19:49:24","新北市新店區光明街114號","121.539083333333","24.9608233333333","6500600","新店區"
"231064","515-UM","2017/11/10 19:49:21","新北市新店區光華街8巷2號","121.517873333333","24.9691533333333","6500600","新店區"
"231045","617-UM","2017/11/10 19:49:28","新北市新店區北宜路二段384號","121.56457","24.9527766666667","6500600","新店區"
"231040","619-UM","2017/11/10 19:49:27","新北市新店區北新路一段96巷23號","121.54302","24.9688283333333","6500600","新店區"
"231042","641-BX","2017/11/10 19:49:18","新北市新店區中興路一段268-3號","121.545215","24.9679316666667","6500600","新店區"
"231063","645-TV","2017/11/10 19:49:12","新北市新店區黎明路3號","121.503641666667","24.9524683333333","6500600","新店區"
"231068","718-UY","2017/11/10 19:49:27","新北市新店區安華路28-1號","121.519256666667","24.9611433333333","6500600","新店區"
"231049","719-UM","2017/11/10 19:49:29","新北市新店區民權路127巷23號","121.535195","24.9818916666667","6500600","新店區"
"231051","719-UY","2017/11/10 19:49:14","新北市新店區中央二街66號","121.526571666667","24.9746516666667","6500600","新店區"
"231062","720-UM","2017/11/10 19:49:33","新北市新店區永業路91號","121.529083333333","24.9489316666667","6500600","新店區"
"231044","897-TW","2017/11/10 19:49:24","新北市新店區復興路66號","121.53788","24.9868816666667","6500600","新店區"
"231043","899-TW","2017/11/10 19:49:17","新北市新店區中正路263-2號","121.538411666667","24.9737516666667","6500600","新店區"
"241011","013-R5","2017/11/10 19:49:34","新北市三重區三和路二段173巷45號","121.499283333333","25.0702066666667","6500200","三重區"
"241028","022-UY","2017/11/10 19:49:28","新北市三重區中正南路157號","121.49387","25.0560816666667","6500200","三重區"
"241008","059-VK","2017/11/10 19:49:27","新北市三重區永福街96號","121.47878","25.07603","6500200","三重區"
"241009","060-VK","2017/11/10 19:49:30","新北市三重區三和路四段396巷2-1號","121.481443333333","25.0791783333333","6500200","三重區"
"241015","062-VK","2017/11/10 19:49:18","新北市三重區三和路一段3號","121.504045","25.0643833333333","6500200","三重區"
"241017","063-VK","2017/11/10 19:49:18","新北市三重區重陽路三段5巷8弄9號","121.489681666667","25.0662516666667","6500200","三重區"
"241026","066-VK","2017/11/10 19:49:23","新北市三重區文化南路42號","121.500378333333","25.0602033333333","6500200","三重區"
"241025","156-TC","2017/11/10 19:49:28","新北市三重區大有街1-1號","121.477651666667","25.0653","6500200","三重區"
"241005","262-UM","2017/11/10 19:49:17","新北市三重區仁華街146-1號","121.487443333333","25.083015","6500200","三重區"
"241030","265-UM","2017/11/10 19:49:22","新北市三重區環河南路254巷86號","121.488811666667","25.0516433333333","6500200","三重區"
"241016","266-UM","2017/11/10 19:49:30","新北市三重區正德街43號","121.495778333333","25.06272","6500200","三重區"
"241022","267-UM","2017/11/10 19:49:13","新北市三重區新北大道一段7號","121.489755","25.06125","6500200","三重區"
"241018","268-UM","2017/11/10 19:49:30","新北市三重區雙園街134號","121.493983333333","25.0673183333333","6500200","三重區"
"241032","269-UM","2017/11/10 19:49:32","新北市三重區重陽路一段68號","121.486306666667","25.0587516666667","6500200","三重區"
"241013","270-UM","2017/11/10 19:49:14","新北市三重區仁愛街112巷16號","121.4947","25.073925","6500200","三重區"
"241007","398-BY","2017/11/10 19:49:25","新北市三重區慈愛街1號","121.484613333333","25.078385","6500200","三重區"
"241020","413-TH","2017/11/10 19:49:23","新北市三重區三和路三段192號","121.49182","25.073685","6500200","三重區"
"241004","475-VK","2017/11/10 19:49:15","新北市三重區五華街74號","121.493365","25.0820066666667","6500200","三重區"
"241019","478-VK","2017/11/10 19:49:28","新北市三重區力行路一段89巷4-1號","121.486586666667","25.068335","6500200","三重區"
"241031","480-VK","2017/11/10 19:49:27","新北市三重區重新路四段248號","121.486085","25.0533633333333","6500200","三重區"
"241014","543-UM","2017/11/10 19:49:14","新北市三重區長安街82號","121.501461666667","25.0675416666667","6500200","三重區"
"241023","545-UM","2017/11/10 19:49:28","新北市三重區頂崁街172號","121.477616666667","25.0659383333333","6500200","三重區"
"241001","547-UM","2017/11/10 19:49:23","新北市三重區仁愛街327巷103號","121.494366666667","25.08072","6500200","三重區"
"241006","AAD-863","2017/11/10 19:49:23","新北市三重區力行路二段76巷1弄2號","121.481561666667","25.0735883333333","6500200","三重區"
"241035","743-BX","2017/11/10 19:49:15","新北市三重區文化北路37號","121.498766666667","25.06499","6500200","三重區"
"241003","887-TS","2017/11/10 19:49:27","新北市三重區五華街93巷57號","121.493166666667","25.0844133333333","6500200","三重區"
"241012","941-UM","2017/11/10 19:49:14","新北市三重區仁興街56巷54號","121.497898333333","25.075405","6500200","三重區"
"241029","942-UM","2017/11/10 19:49:29","新北市三重區光明路11號","121.490981666667","25.0587166666667","6500200","三重區"
"241033","AAC-255","2017/11/10 19:49:15","新北市三重區中興南街64號","121.470598333333","25.0440466666667","6500200","三重區"
"235066","003-UY","2017/11/10 19:49:17","新北市中和區南工路56號","121.506095","25.0015533333333","6500300","中和區"
"235064","005-UY","2017/11/10 19:49:29","新北市中和區南華路41號","121.503663333333","24.99667","6500300","中和區"
"235063","006-UY","2017/11/10 19:49:28","新北市中和區連城路263巷27弄2號","121.492743333333","24.994575","6500300","中和區"
"235056","096-UM","2017/11/10 19:49:31","新北市中和區中山路三段112號","121.476193333333","25.0059766666667","6500300","中和區"
"235039","097-UM","2017/11/10 19:49:21","新北市中和區大勇街25巷1號","121.517221666667","24.9931616666667","6500300","中和區"
"235065","098-UM","2017/11/10 19:49:22","新北市中和區莊敬路20號","121.499983333333","25.0044733333333","6500300","中和區"
"235040","150-BY","2017/11/10 19:49:24","新北市中和區安平路38號","121.509735","24.9949466666667","6500300","中和區"
"235058","151-BY","2017/11/10 19:49:29","新北市中和區員山路146巷15號","121.48223","24.9968583333333","6500300","中和區"
"235055","183-VK","2017/11/10 19:49:34","新北市中和區中山路三段181巷18弄11號","121.472683333333","25.0047933333333","6500300","中和區"
"235038","185-VK","2017/11/10 19:49:16","新北市中和區大智街55巷30弄32號","121.52163","24.993215","6500300","中和區"
"235049","186-VK","2017/11/10 19:49:23","新北市中和區中興街47號","121.50069","24.9940516666667","6500300","中和區"
"235067","255-BX","2017/11/10 19:49:30","新北市中和區新生街186巷1弄26號","121.483393333333","24.9987066666667","6500300","中和區"
"235044","293-VK","2017/11/10 19:49:34","新北市中和區南山路128號","121.50358","24.9929333333333","6500300","中和區"
"235072","301-VK","2017/11/10 19:49:21","新北市中和區圓通路369巷39-14號","121.491375","24.98577","6500300","中和區"
"235043","352-BY","2017/11/10 19:49:29","新北市中和區華新街232巷35號","121.505593333333","24.9824","6500300","中和區"
"235068","377-QA","2017/11/10 19:49:25","新北市中和區莊敬路16巷8號","121.499978333333","25.0039566666667","6500300","中和區"
"235061","378-QA","2017/11/10 19:49:26","新北市中和區新生街148巷17號","121.482621666667","25.0005283333333","6500300","中和區"
"235069","4980-A6","2017/11/10 19:49:21","新北市中和區景新街132巷8-4號","121.504698333333","24.9981266666667","6500300","中和區"
"235042","551-UM","2017/11/10 19:49:33","新北市中和區保健路2巷15號","121.507371666667","24.9977016666667","6500300","中和區"
"235070","558-UM","2017/11/10 19:47:43","新北市中和區景平路545巷1弄1號","121.498506666667","24.999235","6500300","中和區"
"235045","565-BX","2017/11/10 19:49:20","新北市中和區安樂路11號","121.511721666667","24.992145","6500300","中和區"
"235054","640-BX","2017/11/10 19:49:32","新北市中和區莒光路63號","121.47235","25.0037016666667","6500300","中和區"
"235047","732-UM","2017/11/10 19:49:14","新北市中和區和平街27-1號","121.507761666667","24.9910066666667","6500300","中和區"
"235046","733-UM","2017/11/10 19:49:23","新北市中和區仁愛街20號","121.51071","24.9888066666667","6500300","中和區"
"235062","800-TS","2017/11/10 19:48:33","新北市中和區興南路二段342-10號","121.498863333333","24.9803083333333","6500300","中和區"
"235057","801-TS","2017/11/10 19:49:29","新北市中和區員山路167號","121.481191666667","24.99678","6500300","中和區"
"235041","802-TS","2017/11/10 19:49:29","新北市中和區永貞路239巷15號","121.512625","25.0031733333333","6500300","中和區"
"235052","805-TS","2017/11/10 19:49:29","新北市中和區興南路二段79-2號","121.506651666667","24.9847383333333","6500300","中和區"
"235048","896-TW","2017/11/10 19:49:22","新北市中和區興南路一段147號","121.508671666667","24.9872633333333","6500300","中和區"
"235053","900-TW","2017/11/10 19:49:17","新北市中和區國光街189巷29號","121.467668333333","25.0005516666667","6500300","中和區"
"235060","911-UM","2017/11/10 19:49:12","新北市中和區新生街16巷9號","121.482735","25.0042133333333","6500300","中和區"
"235037","157-BY","2017/11/10 19:49:22","新北市中和區中興街200號","121.49948","24.9907716666667","6500300","中和區"
"235037","AAC-213","2017/11/10 19:49:31","新北市中和區秀朗路三段173-2號","121.524426666667","24.9913316666667","6500300","中和區"
"235059","AAC-215","2017/11/10 19:49:25","新北市中和區圓通路305巷25弄3號","121.494803333333","24.9894883333333","6500300","中和區"
"220068","013-TV","2017/11/10 19:49:33","新北市板橋區中山路二段412巷29弄8號","121.484195","25.0199266666667","6500100","板橋區"
"220065","072-UY","2017/11/10 19:49:29","新北市板橋區民族路69巷18弄20號","121.46634","25.009925","6500100","板橋區"
"220086","073-UY","2017/11/10 19:49:14","新北市板橋區南雅西路二段7巷25號","121.451896666667","25.0094766666667","6500100","板橋區"
"220106","075-UY","2017/11/10 19:49:29","新北市板橋區文化路二段608巷1-1號","121.477521666667","25.03529","6500100","板橋區"
"220069","AAD-861","2017/11/10 19:49:16","新北市板橋區貴興路106巷16弄2號","121.454821666667","25.0034883333333","6500100","板橋區"
"247002","337-TH","2017/11/10 19:49:17","新北市蘆洲區永樂街38巷40號","121.458476666667","25.0901166666667","6501400","蘆洲區"
"247004","336-TH","2017/11/10 19:49:31","新北市蘆洲區永安南路二段294號","121.457261666667","25.0818","6501400","蘆洲區"
"247008","053-VK","2017/11/10 19:49:28","新北市蘆洲區中山一路25號","121.479323333333","25.0808083333333","6501400","蘆洲區"
"247014","007-UY","2017/11/10 19:49:18","新北市蘆洲區復興路30-3號","121.472511666667","25.0847966666667","6501400","蘆洲區"
"226004","205-ST","2017/11/10 19:49:23","新北市平溪區十分里十分街67號","121.776061666667","25.0418916666667","6502400","平溪區"
"228001","212-TW","2017/11/10 19:49:16","新北市貢寮區真理里新港街74號","121.927138333333","25.056045","6502600","貢寮區"
"228003","828-UM","2017/11/10 19:49:32","新北市貢寮區真理里延平街72-5號","121.925088333333","25.0583433333333","6502600","貢寮區"
"224010","AGQ-8101","2017/11/10 19:48:58","新北市瑞芳區基山街154號","121.843228333333","25.1079033333333","6501200","瑞芳區"
"224002","639-TC","2017/11/10 19:49:18","新北市瑞芳區國中新村19號","121.817638333333","25.1068166666667","6501200","瑞芳區"
"227011","642-TC","2017/11/10 19:49:18","新北市雙溪區新基里自強路7號","121.86619","25.0390533333333","6502500","雙溪區"
"227003","400-TW","2017/11/10 19:49:13","新北市雙溪區雙溪里內挖路43號","121.86334","25.0365733333333","6502500","雙溪區"
"222001","KEA-2212","2017/11/10 19:49:12","新北市深坑區北深路三段16號","121.609546666667","25.0010733333333","6501800","深坑區"
"208002","742-BX","2017/11/10 19:49:15","新北市金山區中華路360號","121.632911666667","25.2238066666667","6502700","金山區"
"208003","665-BX","2017/11/10 19:49:31","新北市金山區清泉里清水路32-1號","121.629906666667","25.2307816666667","6502700","金山區"
"208001","761-BX","2017/11/10 19:49:15","新北市金山區重和里林口15號","121.597818333333","25.2108316666667","6502700","金山區"
"251004","009-UM","2017/11/10 19:41:18","新北市淡水區民族路33巷2-7號","121.464026666667","25.1371316666667","6501000","淡水區"
"251013","180-VK","2017/11/10 19:49:24","新北市淡水區頂田寮路168號","121.45935","25.2157816666667","6501000","淡水區"
"251008","181-VK","2017/11/10 19:49:30","新北市淡水區中正路二段24巷2-1號","121.426795","25.1769516666667","6501000","淡水區"
"251015","182-VK","2017/11/10 19:49:18","新北市淡水區商工路398號","121.473473333333","25.1852766666667","6501000","淡水區"
"251012","441-VK","2017/11/10 19:49:29","新北市淡水區中山北路三段164號","121.445913333333","25.1964166666667","6501000","淡水區"
"251005","443-VK","2017/11/10 19:49:23","新北市淡水區中山路126號","121.44199","25.1709783333333","6501000","淡水區"
"251001","559-UM","2017/11/10 19:49:24","新北市淡水區中正東路二段37號","121.459275","25.1561983333333","6501000","淡水區"
"251006","561-UM","2017/11/10 19:49:32","新北市淡水區大忠街5巷3號","121.443433333333","25.1769083333333","6501000","淡水區"
"251009","575-R6","2017/11/10 19:49:17","新北市淡水區中正路36號","121.44381","25.1692433333333","6501000","淡水區"
"251007","577-R6","2017/11/10 19:49:30","新北市淡水區竿蓁一街102巷1號","121.453788333333","25.1661283333333","6501000","淡水區"
"251011","650-BX","2017/11/10 19:49:30","新北市淡水區淡金路二段62號","121.451043333333","25.1820466666667","6501000","淡水區"
"207003","550-UM","2017/11/10 19:49:26","新北市萬里區磺潭里公館崙4-1號","121.642156666667","25.2145216666667","6502800","萬里區"
"207004","225-TW","2017/11/10 19:49:32","新北市萬里區萬里里瑪鋉路261號","121.689801666667","25.179825","6502800","萬里區"
"252002","178-VK","2017/11/10 19:49:23","新北市三芝區三民街33號","121.50469","25.2585016666667","6502100","三芝區"
"252001","292-VK","2017/11/10 19:49:12","新北市三芝區公正街66號","121.499806666667","25.25746","6502100","三芝區"
"237004","078-UY","2017/11/10 19:49:27","新北市三峽區大埔路14-11號","121.374261666667","24.9008716666667","6500900","三峽區"
"237007","153-BY","2017/11/10 19:49:13","新北市三峽區二鬮路136巷125號","121.356075","24.9105666666667","6500900","三峽區"
"237009","210-TH","2017/11/10 19:49:16","新北市三峽區民族街78巷2弄8號","121.368383333333","24.9299616666667","6500900","三峽區"
"237013","252-BX","2017/11/10 19:49:15","新北市三峽區介壽路二段140號","121.394125","24.9359466666667","6500900","三峽區"
"237012","275-BY","2017/11/10 19:49:28","新北市三峽區光明路1-9號","121.372763333333","24.932155","6500900","三峽區"
"237008","302-VK","2017/11/10 19:49:23","新北市三峽區中正路一段174巷4弄6號","121.37245","24.9288516666667","6500900","三峽區"
"237006","5529-G3","2017/11/10 19:49:28","新北市三峽區中正路一段330號","121.370713333333","24.9248133333333","6500900","三峽區"
"237015","649-BX","2017/11/10 19:49:27","新北市三峽區橫溪路120巷6號","121.398213333333","24.9354166666667","6500900","三峽區"
"237005","AKY-6261","2017/11/10 19:49:17","新北市三峽區長泰街79-2號","121.375811666667","24.9331266666667","6500900","三峽區"
"236072","105-UM","2017/11/10 19:49:26","新北市土城區中央路二段202號","121.44199","24.9758283333333","6501300","土城區"
"236043","107-UM","2017/11/10 19:49:27","新北市土城區裕民路270號","121.454936666667","24.9824666666667","6501300","土城區"
"236079","166-UM","2017/11/10 19:49:31","新北市土城區中央路四段464號","121.409813333333","24.9504","6501300","土城區"
"236031","253-BX","2017/11/10 19:49:31","新北市土城區中央路一段294號","121.4433","24.98238","6501300","土城區"
"236027","269-VK","2017/11/10 19:49:24","新北市土城區中央路二段61巷36號","121.443728333333","24.97866","6501300","土城區"
"236039","271-VK","2017/11/10 19:49:29","新北市土城區國際路158巷54號","121.467938333333","24.9748183333333","6501300","土城區"
"236022","401-BY","2017/11/10 19:49:31","新北市土城區峰廷街3號","121.469066666667","24.98732","6501300","土城區"
"236050","752-BX","2017/11/10 19:49:25","新北市土城區青雲路309號","121.459073333333","24.97916","6501300","土城區"
"236059","912-UM","2017/11/10 19:49:25","新北市土城區中央路二段7號","121.44301","24.980775","6501300","土城區"
"236063","915-UM","2017/11/10 19:49:16","新北市土城區延平街16號","121.468276666667","24.9910883333333","6501300","土城區"
"236055","AAC-216","2017/11/10 19:49:31","新北市土城區延和路92號","121.46654","24.9895733333333","6501300","土城區"
"242032","AAC-296","2017/11/10 19:49:25","新北市新莊區忠孝街110號","121.443923333333","25.037545","6500500","新莊區"
"242029","986-R7","2017/11/10 19:49:24","新北市泰山區泰林路一段2號","121.442455","25.0477016666667","6500500","新莊區"
"242027","612-BX","2017/11/10 19:49:28","新北市新莊區中平路357號","121.444736666667","25.0516183333333","6500500","新莊區"
"242044","497-BY","2017/11/10 19:49:17","新北市新莊區新北大道七段712號","121.412346666667","25.0265416666667","6500500","新莊區"
"242056","442-UM","2017/11/10 19:49:26","新北市新莊區新泰路89號","121.448826666667","25.03449","6500500","新莊區"
"242048","441-UM","2017/11/10 19:49:27","新北市新莊區建安街76巷5弄15號","121.425625","25.02502","6500500","新莊區"
"242034","415-TV","2017/11/10 19:49:30","新北市新莊區仁愛街73號","121.444116666667","25.03778","6500500","新莊區"
"242005","413-TV","2017/11/10 19:49:24","新北市新莊區化成路63巷24弄20號","121.462015","25.04608","6500500","新莊區"
"242060","362-BY","2017/11/10 19:49:27","新北市新莊區中正路384號","121.441923333333","25.0346983333333","6500500","新莊區"
"242058","353-BY","2017/11/10 19:49:31","新北市新莊區八德街17號","121.425306666667","25.022635","6500500","新莊區"
"242037","133-UY","2017/11/10 19:49:19","新北市新莊區建安街64號","121.427051666667","25.0246333333333","6500500","新莊區"
"242021","135-UY","2017/11/10 19:49:26","新北市新莊區建中街52號","121.44843","25.03725","6500500","新莊區"
"242002","176-VK","2017/11/10 19:49:28","新北市新莊區新泰路2-11號","121.450133333333","25.0324833333333","6500500","新莊區"
"242001","233-RS","2017/11/10 08:39:12","新北市新莊區環河路48-7號","121.436923333333","25.0098133333333","6500500","新莊區"
"242013","346-TH","2017/11/10 19:49:25","新北市新莊區中誠街69巷2號","121.450653333333","25.0476483333333","6500500","新莊區"
"242017","350-TH","2017/11/10 19:49:17","新北市新莊區中華路一段226號","121.452651666667","25.0429783333333","6500500","新莊區"
"242011","351-TH","2017/11/10 19:49:28","新北市新莊區中信街36號","121.450041666667","25.05085","6500500","新莊區"
"238015","755-BX","2017/11/10 19:49:27","新北市樹林區中山路一段135-4號","121.42235","24.989775","6500700","樹林區"
"238023","601-UM","2017/11/10 19:49:30","新北市樹林區忠義街15號","121.409921666667","25.0150916666667","6500700","樹林區"
"238024","5061-A6","2017/11/10 19:49:24","新北市樹林區中山路三段210-2號","121.381475","24.9654966666667","6500700","樹林區"
"238021","KEA-2217","2017/11/10 19:49:31","新北市樹林區佳園路三段181巷55號","121.388495","24.9474433333333","6500700","樹林區"
"238016","308-TH","2017/11/10 13:02:47","新北市樹林區育德街121巷5號","121.388811666667","24.9682766666667","6500700","樹林區"
"238025","303-VK","2017/11/10 19:49:21","新北市樹林區中山路三段127號","121.396613333333","24.9732783333333","6500700","樹林區"
"238017","283-BY","2017/11/10 19:49:23","新北市樹林區中華路190-6號","121.410145","24.9806233333333","6500700","樹林區"
"238020","268-VK","2017/11/10 19:49:18","新北市樹林區八德街247巷24-3號","121.419885","24.9732666666667","6500700","樹林區"
"221008","489-VK","2017/11/10 19:49:24","新北市汐止區康寧街39號","121.618566666667","25.0668483333333","6501100","汐止區"
"221036","130-UY","2017/11/10 19:49:15","新北市汐止區汐萬路一段312號","121.65041","25.0750483333333","6501100","汐止區"
"221015","131-UY","2017/11/10 19:49:24","新北市汐止區茄苳路43號","121.665888333333","25.0708966666667","6501100","汐止區"
"221010","269-BY","2017/11/10 19:49:22","新北市汐止區八連路一段7號","121.648648333333","25.0802233333333","6501100","汐止區"
"221012","276-VK","2017/11/10 13:25:12","新北市汐止區汐萬路一段256巷3號","121.653465","25.0745983333333","6501100","汐止區"
"221012","278-VK","2017/11/10 19:49:23","新北市汐止區大同路三段529號","121.680936666667","25.0713816666667","6501100","汐止區"
"221023","279-VK","2017/11/10 19:49:15","新北市汐止區民族三街44號","121.629606666667","25.0700566666667","6501100","汐止區"
"221032","280-BY","2017/11/10 19:49:16","新北市汐止區橫科路119號","121.620116666667","25.050325","6501100","汐止區"
"221027","281-BY","2017/11/10 19:49:16","新北市汐止區忠孝東路9號","121.658338333333","25.065925","6501100","汐止區"
"221029","298-VK","2017/11/10 19:49:30","新北市汐止區康寧街901號","121.651471666667","25.074925","6501100","汐止區"
"221021","299-VK","2017/11/10 19:49:15","新北市汐止區莊敬街29巷13號","121.656933333333","25.0608516666667","6501100","汐止區"
"221031","353-TW","2017/11/10 19:49:30","新北市汐止區福德三路127號","121.633591666667","25.0677","6501100","汐止區"
"221035","622-UM","2017/11/10 19:49:28","新北市汐止區長江街11號","121.654761666667","25.0713166666667","6501100","汐止區"
"221025","623-UM","2017/11/10 19:49:30","新北市汐止區秀峰路81巷48號","121.661743333333","25.064825","6501100","汐止區"
"221038","646-BX","2017/11/10 19:49:26","新北市汐止區忠孝東路329號","121.665133333333","25.0697116666667","6501100","汐止區"
"221033","647-BX","2017/11/10 19:49:15","新北市汐止區東勢街76巷100-1號","121.63643","25.0389983333333","6501100","汐止區"
"221018","753-BX","2017/11/10 19:49:22","新北市汐止區大同路二段544號","121.661698333333","25.068835","6501100","汐止區"
"220079","145-BY","2017/11/10 19:49:13","新北市板橋區中正路135巷12弄19號","121.455356666667","25.0160983333333","6500100","板橋區"
"220080","200-UY","2017/11/10 19:49:29","新北市板橋區大觀路二段37巷12號","121.447268333333","25.00267","6500100","板橋區"
"220082","610-BX","2017/11/10 19:49:32","新北市板橋區存德街3號","121.429916666667","24.9919783333333","6500100","板橋區"
"220101","245-BX","2017/11/10 19:49:19","新北市板橋區莒光路237-9號","121.474301666667","25.02185","6500100","板橋區"
"220056","276-BY","2017/11/10 19:49:24","新北市板橋區南雅南路二段15號","121.454268333333","24.99977","6500100","板橋區"
"220072","277-BY","2017/11/10 19:49:16","新北市板橋區金門街151巷13號","121.433585","24.99034","6500100","板橋區"
"220071","283-VK","2017/11/10 19:49:33","新北市板橋區五權街32巷19號","121.464246666667","24.9928316666667","6500100","板橋區"
"220094","285-UM","2017/11/10 19:49:21","新北市板橋區長江路一段114號","121.45983","25.0297283333333","6500100","板橋區"
"220053","285-VK","2017/11/10 19:49:34","新北市板橋區中山路二段60巷1弄22號","121.475075","25.0156383333333","6500100","板橋區"
"220081","287-VK","2017/11/10 19:49:21","新北市板橋區大觀路一段28巷88號","121.449883333333","25.01106","6500100","板橋區"
"220090","288-VK","2017/11/10 19:49:35","新北市板橋區綠堤街25號","121.456036666667","25.0263816666667","6500100","板橋區"
"220061","295-UM","2017/11/10 19:49:26","新北市板橋區中山路一段265巷16號","121.468583333333","25.0145466666667","6500100","板橋區"
"220084","296-UM","2017/11/10 19:49:29","新北市板橋區溪崑二街118巷5號","121.425548333333","24.9885716666667","6500100","板橋區"
"220075","297-UM","2017/11/10 19:49:28","新北市板橋區金華街10巷7號","121.456085","25.0201116666667","6500100","板橋區"
"220096","299-UM","2017/11/10 19:49:14","新北市板橋區莊敬路167號","121.470985","25.0239266666667","6500100","板橋區"
"220062","303-R5","2017/11/10 19:49:19","新北市板橋區光復街33巷30號","121.482511666667","25.0189183333333","6500100","板橋區"
"220092","307-R5","2017/11/10 19:49:32","新北市板橋區四維路259巷15號","121.462596666667","25.027775","6500100","板橋區"
"220098","317-R6","2017/11/10 19:49:23","新北市板橋區新海路402號","121.458621666667","25.02682","6500100","板橋區"
"220064","486-VK","2017/11/10 19:49:18","新北市板橋區實踐路32巷2號","121.463321666667","25.0071633333333","6500100","板橋區"
"220089","487-VK","2017/11/10 19:49:34","新北市板橋區新海路328號","121.460441666667","25.02416","6500100","板橋區"
"242019","280-VK","2017/11/10 19:49:30","新北市新莊區中華路一段136巷24號","121.453308333333","25.0411683333333","6500500","新莊區"
"220088","491-VK","2017/11/10 19:49:19","新北市板橋區仁化街76號","121.476128333333","25.03189","6500100","板橋區"
"220035","560-BX","2017/11/10 19:49:15","新北市板橋區新生街32號","121.456356666667","25.0211066666667","6500100","板橋區"
"220103","561-BX","2017/11/10 19:49:35","新北市板橋區陽明街29巷3號","121.465181666667","25.021675","6500100","板橋區"
"220083","568-UM","2017/11/10 19:49:13","新北市板橋區大觀路二段20巷2號","121.444848333333","25.0040383333333","6500100","板橋區"
"220063","609-BX","2017/11/10 19:49:35","新北市板橋區三民路一段3巷2號","121.478956666667","25.0235","6500100","板橋區"
"220091","637-BX","2017/11/10 19:49:19","新北市板橋區懷德街139巷20弄4號","121.480021666667","25.0307483333333","6500100","板橋區"
"220057","686-BX","2017/11/10 19:49:20","新北市板橋區廣權路1號","121.460576666667","24.9913233333333","6500100","板橋區"
"220077","687-BX","2017/11/10 19:49:16","新北市板橋區僑中一街124巷9弄2號","121.44597","25.0128066666667","6500100","板橋區"
"220093","689-BX","2017/11/10 19:49:30","新北市板橋區長江路二段230號","121.468488333333","25.0325233333333","6500100","板橋區"
"220054","741-BX","2017/11/10 19:49:25","新北市板橋區忠孝路忠義巷15弄92-2號","121.46537","25.005625","6500100","板橋區"
"220082","806-UM","2017/11/10 19:49:20","新北市板橋區南門街10號","121.457476666667","25.0090866666667","6500100","板橋區"
"220055","827-TW","2017/11/10 19:49:20","新北市板橋區國慶路149巷4弄18-3號","121.461925","24.9970433333333","6500100","板橋區"
"220067","829-TW","2017/11/10 19:49:19","新北市板橋區漢生東路193巷77號","121.472546666667","25.0117516666667","6500100","板橋區"
"220102","830-TW","2017/11/10 19:49:26","新北市板橋區仁化街50號","121.475345","25.03173","6500100","板橋區"
"220074","895-R6","2017/11/10 19:49:13","新北市板橋區府中路63號","121.458053333333","25.0090783333333","6500100","板橋區"
"220073","985-R7","2017/11/10 19:49:29","新北市板橋區大仁街116號","121.452683333333","25.015785","6500100","板橋區"
"220097","AAC-210","2017/11/10 19:49:22","新北市板橋區文化路一段285巷1弄2號","121.46427","25.01866","6500100","板橋區"
"220070","AAC-253","2017/11/10 19:49:25","新北市板橋區館前東路130號","121.463963333333","25.007845","6500100","板橋區"
