"lineid","car","time","location","longitude","latitude","cityid","cityname"
"224011","AGQ-8101","2017/09/13 18:19:07","新北市瑞芳區濱二路31號","121.83324","25.111715","6501200","瑞芳區"
"251013","180-VK","2017/09/13 18:19:03","新北市淡水區行忠路788號","121.473423333333","25.1996016666667","6501000","淡水區"
"251015","182-VK","2017/09/13 18:18:58","新北市淡水區興福寮88巷1號","121.48565","25.1650716666667","6501000","淡水區"
"237001","159-BY","2017/09/13 11:12:00","新北市三峽區中山路459巷163-3號","121.349005","24.9331866666667","6500900","三峽區"
"221012","276-VK","2017/09/13 13:11:51","新北市汐止區汐萬路一段256巷3號","121.653465","25.0746033333333","6501100","汐止區"
