"lineid","car","time","location","longitude","latitude","cityid","cityname"
"224011","AGQ-8101","2017/09/13 19:19:07","新北市瑞芳區豎崎路18號","121.843586666667","25.10871","6501200","瑞芳區"
"251013","180-VK","2017/09/13 19:19:02","新北市淡水區安子內12號","121.48156","25.2190883333333","6501000","淡水區"
"251015","182-VK","2017/09/13 19:18:58","新北市淡水區南勢埔47號","121.484463333333","25.180615","6501000","淡水區"
"237001","159-BY","2017/09/13 11:12:00","新北市三峽區中山路459巷163-3號","121.349005","24.9331866666667","6500900","三峽區"
"221012","276-VK","2017/09/13 13:11:51","新北市汐止區汐萬路一段256巷3號","121.653465","25.0746033333333","6501100","汐止區"
