"lineid","car","time","location","longitude","latitude"
"222004","289-BY","2017/05/30 10:08:50","新北市深坑區深坑街75號","121.61473","25.0012433333333"
"231009","192-VK","2017/05/30 09:51:25","新北市新店區平廣路一段256號","121.50782","24.888345"
"247001","402-BY","2017/05/30 10:08:45","新北市蘆洲區三民路615號","121.460038333333","25.0948816666667"
"227006","282-VK","2017/05/30 10:08:55","新北市雙溪區長源里柑腳18號","121.804628333333","25.01433"
"227012","030-BX","2017/05/30 10:08:49","新北市雙溪區泰平里料角坑42號","121.793541666667","24.9550433333333"
"252004","249-BX","2017/05/30 10:08:45","新北市三芝區忠孝街177號","121.505386666667","25.2615816666667"
"252007","AAC-283","2017/05/30 00:42:40","新北市三芝區埔坪里埔頭坑41號","121.504451666667","25.2644783333333"
"237001","760-BX","2017/05/30 10:08:46","新北市三峽區成福路243號","121.426598333333","24.925175"
