"lineid","car","time","location","longitude","latitude"
"231009","192-VK","2017/05/30 09:51:25","新北市新店區平廣路一段256號","121.50782","24.888345"
"247001","402-BY","2017/05/30 10:18:12","新北市五股區中興路三段3-6號","121.449605","25.078825"
"227006","282-VK","2017/05/30 10:18:55","新北市雙溪區長源里柑腳18號","121.804635","25.0143266666667"
"227012","030-BX","2017/05/30 10:18:49","新北市雙溪區泰平里料角坑40號","121.793001666667","24.9595883333333"
"252007","AAC-283","2017/05/30 00:42:40","新北市三芝區埔坪里埔頭坑41號","121.504451666667","25.2644783333333"
"237001","760-BX","2017/05/30 10:18:46","新北市三峽區成福路223號","121.426848333333","24.9261666666667"
