"lineid","car","time","location","longitude","latitude"
"231009","192-VK","2017/05/30 11:32:45","新北市新店區成功路99-1號","121.53719","24.89486"
"247001","402-BY","2017/05/30 11:07:38","新北市五股區中興路三段3-6號","121.449801666667","25.078805"
"227006","282-VK","2017/05/30 11:38:55","新北市雙溪區魚行里坤溪11-2號","121.87135","25.0224016666667"
"252007","AAC-283","2017/05/30 00:42:40","新北市三芝區埔坪里埔頭坑41號","121.504451666667","25.2644783333333"
"237001","760-BX","2017/05/30 10:54:33","新北市三峽區中山路459巷163-3號","121.34892","24.9330866666667"
