"lineid","car","time","location","longitude","latitude"
"231069","189-VK","2017/05/30 11:55:34","新北市新店區安華路28-1號","121.51978","24.9610316666667"
"231009","192-VK","2017/05/30 11:50:45","新北市新店區成功路135-2號","121.533373333333","24.8930283333333"
"247001","402-BY","2017/05/30 11:07:38","新北市五股區中興路三段3-6號","121.449801666667","25.078805"
"228004","212-TW","2017/05/30 11:58:58","新北市貢寮區貢寮里朝陽街1-2號","121.912176666667","25.0213133333333"
"228005","670-TC","2017/05/30 11:58:58","新北市貢寮區貢寮里朝陽街1-2號","121.912298333333","25.0212616666667"
"227006","282-VK","2017/05/30 11:58:55","新北市雙溪區魚行里內厝11-1號","121.890075","25.025975"
"252007","AAC-283","2017/05/30 00:42:40","新北市三芝區埔坪里埔頭坑41號","121.504451666667","25.2644783333333"
"237001","760-BX","2017/05/30 10:54:33","新北市三峽區中山路459巷163-3號","121.34892","24.9330866666667"
