"lineid","car","time","location","longitude","latitude"
"234040","862-TW","2017/05/30 12:09:00","新北市永和區福和路1號","121.526511666667","25.0096483333333"
"231069","189-VK","2017/05/30 11:55:34","新北市新店區安華路28-1號","121.51978","24.9610316666667"
"231009","192-VK","2017/05/30 11:50:45","新北市新店區成功路135-2號","121.533373333333","24.8930283333333"
"247001","402-BY","2017/05/30 11:07:38","新北市五股區中興路三段3-6號","121.449801666667","25.078805"
"228004","212-TW","2017/05/30 12:08:58","新北市貢寮區貢寮里貢寮街4號","121.907873333333","25.01897"
"228005","670-TC","2017/05/30 12:08:58","新北市貢寮區福隆里東興街11號","121.95052","25.01844"
"227006","282-VK","2017/05/30 12:08:55","新北市雙溪區魚行里魚杭1號","121.883856666667","25.0266816666667"
"252007","AAC-283","2017/05/30 00:42:40","新北市三芝區埔坪里埔頭坑41號","121.504451666667","25.2644783333333"
"237001","760-BX","2017/05/30 10:54:33","新北市三峽區中山路459巷163-3號","121.34892","24.9330866666667"
