"lineid","car","time","location","longitude","latitude"
"234044","148-BY","2017/05/30 12:58:50","新北市永和區得和路373巷29號","121.525028333333","25.0003266666667"
"234012","149-BY","2017/05/30 12:58:41","新北市永和區信義路14-1號","121.514413333333","25.0121716666667"
"234005","207-UY","2017/05/30 12:58:41","新北市永和區中正路746號","121.514845","25.0104333333333"
"234078","298-R6","2017/05/30 12:58:59","新北市永和區永貞路52號","121.520745","25.006185"
"234036","336-UY","2017/05/30 12:58:43","新北市永和區民樂街77巷1號","121.527393333333","24.996765"
"234062","337-UY","2017/05/30 12:58:45","新北市永和區秀朗路一段146號","121.518283333333","25.00337"
"234084","338-UY","2017/05/30 12:58:49","新北市永和區永利路18號","121.51799","25.0057633333333"
"234068","552-UM","2017/05/30 12:58:54","新北市永和區中興街52巷1弄4號","121.516975","25.01122"
"234052","553-UM","2017/05/30 12:58:53","新北市永和區竹林路66巷5號","121.518248333333","25.0132516666667"
"234015","745-BX","2017/05/30 12:58:56","新北市永和區永和路二段299號","121.516033333333","25.0161483333333"
"234028","746-BX","2017/05/30 12:58:46","新北市永和區四維街34號","121.5256","24.99805"
"234060","AAD-866","2017/05/30 12:58:45","新北市永和區福和路301號","121.516406666667","25.0072216666667"
"234040","862-TW","2017/05/30 12:59:00","新北市永和區永貞路271號","121.511716666667","25.0049033333333"
"234048","863-TW","2017/05/30 12:59:03","新北市永和區文化路204號","121.510463333333","25.0163983333333"
"234025","9371-KE","2017/05/30 12:58:48","新北市永和區永和路一段41號","121.512805","25.00622"
"234010","9373-KE","2017/05/30 12:58:52","新北市永和區文化路9巷22弄62號","121.513791666667","25.0144683333333"
"248017","225-UY","2017/05/30 12:58:50","新北市五股區中興路二段83巷26-6號","121.46003","25.0752533333333"
"234022","9380-KE","2017/05/30 12:58:42","新北市永和區環河東路一段122號","121.520691666667","25.015575"
"234076","969-R7","2017/05/30 12:58:48","新北市永和區民享街9號","121.515228333333","24.9954333333333"
"234072","AAC-211","2017/05/30 12:58:50","新北市永和區環河東路二段100號","121.524158333333","25.01034"
"234066","AAC-212","2017/05/30 12:58:44","新北市永和區中和路625號","121.512976666667","25.004895"
"234001","AAC-295","2017/05/30 12:57:05","新北市永和區永和路一段176號","121.514393333333","25.0088166666667"
"231002","002-UM","2017/05/30 12:58:58","新北市新店區安華路28-1號","121.519641666667","24.9608533333333"
"231028","046-UY","2017/05/30 12:58:58","新北市新店區安華路28-1號","121.519585","24.96068"
"231030","047-UY","2017/05/30 12:58:53","新北市新店區安華路28-1號","121.51933","24.96089"
"231029","106-UY","2017/05/30 12:58:53","新北市新店區安華路28-1號","121.519586666667","24.9613166666667"
"231018","107-UY","2017/05/30 12:58:53","新北市新店區安華路28-1號","121.519373333333","24.9612816666667"
"231012","108-UY","2017/05/30 12:58:42","新北市新店區安華路28-1號","121.519513333333","24.9614933333333"
"231013","187-VK","2017/05/30 12:58:47","新北市新店區安華路28-1號","121.519446666667","24.96144"
"231020","188-VK","2017/05/30 12:58:43","新北市新店區安華路28-1號","121.519421666667","24.9613116666667"
"231069","189-VK","2017/05/30 11:55:34","新北市新店區安華路28-1號","121.51978","24.9610316666667"
"231009","192-VK","2017/05/30 12:58:57","新北市新店區松林路16巷41號","121.54587","24.90684"
"231026","256-BX","2017/05/30 12:58:48","新北市新店區安華路28-1號","121.519623333333","24.9612633333333"
"231034","268-BY","2017/05/30 12:58:47","新北市新店區安華路28-1號","121.519306666667","24.9606033333333"
"231010","278-BY","2017/05/30 12:58:58","新北市新店區安華路28-1號","121.519441666667","24.96123"
"231015","AAD-862","2017/05/30 12:58:53","新北市新店區安華路28-1號","121.520031666667","24.96117"
"231005","355-BY","2017/05/30 12:58:56","新北市新店區安華路28-1號","121.51912","24.9609133333333"
"231027","3712-VJ","2017/05/30 12:59:02","新北市新店區安華路1-1號","121.519133333333","24.9605066666667"
"231024","3713-VJ","2017/05/30 12:58:43","新北市新店區安華路28-1號","121.519326666667","24.9606866666667"
"231037","4715-K9","2017/05/30 12:58:58","新北市新店區安華路28-1號","121.519291666667","24.9606666666667"
"231036","512-UM","2017/05/30 12:58:54","新北市新店區安康路一段355-3號","121.519173333333","24.96147"
"231023","513-UM","2017/05/30 12:58:40","新北市新店區安華路28-1號","121.519596666667","24.9614966666667"
"231035","515-UM","2017/05/30 01:00:31","新北市新店區安華路28-1號","121.519673333333","24.960945"
"231006","617-UM","2017/05/30 12:58:44","新北市新店區安華路28-1號","121.519365","24.9609066666667"
"231004","618-UM","2017/05/30 03:52:31","新北市新店區安華路28-1號","121.519398333333","24.9606733333333"
"231001","619-UM","2017/05/30 12:58:56","新北市新店區安華路28-1號","121.519461666667","24.961035"
"231003","641-BX","2017/05/30 12:58:56","新北市新店區安華路28-1號","121.519726666667","24.9605183333333"
"231032","720-UM","2017/05/30 12:58:51","新北市新店區安華路28-1號","121.519333333333","24.9612366666667"
"231038","AKT-0513","2017/05/30 12:58:55","新北市新店區安華路28-1號","121.519338333333","24.960705"
"235028","005-UY","2017/05/30 12:58:50","新北市中和區員山路36巷16-3號","121.485076666667","24.99129"
"235029","098-UM","2017/05/30 12:58:52","新北市中和區中正路589巷3號","121.485875","24.9942616666667"
"235022","151-BY","2017/05/30 12:58:51","新北市中和區和城路一段271巷1號","121.485448333333","24.9919816666667"
"235002","185-VK","2017/05/30 12:58:46","新北市中和區成功路70號","121.525975","24.991915"
"235031","255-BX","2017/05/30 12:58:47","新北市中和區中山路二段449巷1弄1號","121.483836666667","25.0042483333333"
"235006","551-UM","2017/05/30 12:58:46","新北市中和區和城路一段271巷1號","121.485696666667","24.9915233333333"
"235011","732-UM","2017/05/30 12:58:57","新北市中和區員山路36巷11號","121.483818333333","24.9908233333333"
"235035","783-BX","2017/05/30 12:58:57","新北市中和區連城路469-1號","121.483505","24.9958466666667"
"235021","801-TS","2017/05/30 12:58:57","新北市中和區員山路36巷16-2號","121.485343333333","24.9913916666667"
"235005","802-TS","2017/05/30 12:58:39","新北市中和區和城路一段271巷1號","121.485395","24.99184"
"235016","805-TS","2017/05/30 12:59:00","新北市中和區員山路36巷16-3號","121.484678333333","24.9915666666667"
"235001","AAC-213","2017/05/30 12:58:50","新北市中和區員山路36巷13號","121.484361666667","24.99124"
"247001","402-BY","2017/05/30 11:07:38","新北市五股區中興路三段3-6號","121.449801666667","25.078805"
"228004","212-TW","2017/05/30 12:58:57","新北市貢寮區吉林里內寮街10號","121.888851666667","24.9922066666667"
"228005","670-TC","2017/05/30 12:58:58","新北市貢寮區福隆里桂安街17號","121.965945","25.0222766666667"
"207002","291-VK","2017/05/30 12:58:48","新北市萬里區雙興里大坪路39號","121.625223333333","25.1714566666667"
"252007","AAC-283","2017/05/30 00:42:40","新北市三芝區埔坪里埔頭坑41號","121.504451666667","25.2644783333333"
"237001","760-BX","2017/05/30 12:58:46","新北市三峽區學府路126號","121.375285","24.9493166666667"
"236006","498-BY","2017/05/30 12:59:02","新北市土城區亞洲路30號","121.435965","24.9743083333333"
"238020","308-TH","2017/05/30 12:58:46","新北市樹林區八德街674號","121.39583","24.9688583333333"
"221032","280-BY","2017/05/30 12:58:59","新北市汐止區大同路二段535號","121.661906666667","25.0690916666667"
"221021","299-VK","2017/05/30 12:58:46","新北市汐止區中興路130-1號","121.632898333333","25.0641883333333"
"221002","753-BX","2017/05/30 12:58:48","新北市汐止區福德一路342巷1弄14號","121.62897","25.063395"
