"lineid","car","time","location","longitude","latitude","cityid","cityname"
"234044","148-BY","2017/12/15 13:19:39","新北市永和區永元路95巷1號","121.522425","25.0018016666667","6500400","永和區"
"234012","149-BY","2017/12/15 13:19:52","新北市永和區信義路34號","121.513681666667","25.0123216666667","6500400","永和區"
"234005","207-UY","2017/12/15 13:19:48","新北市中和區中山路二段23號","121.504943333333","25.0053216666667","6500400","永和區"
"234078","298-R6","2017/12/15 13:19:38","新北市永和區林森路10巷18弄2號","121.525868333333","25.0064033333333","6500400","永和區"
"234036","336-UY","2017/12/15 13:19:56","新北市永和區民樂街47巷1號","121.527481666667","24.9992166666667","6500400","永和區"
"234062","337-UY","2017/12/15 13:19:40","新北市永和區永元路17巷6弄1號","121.521401666667","25.000775","6500400","永和區"
"234084","338-UY","2017/12/15 13:19:53","新北市永和區永利路82號","121.520573333333","25.00408","6500400","永和區"
"234068","552-UM","2017/12/15 13:19:36","新北市永和區中正路605號","121.51635","25.0097583333333","6500400","永和區"
"234052","553-UM","2017/12/15 13:19:37","新北市永和區中興街30號","121.516253333333","25.01176","6500400","永和區"
"234015","745-BX","2017/12/15 13:19:46","新北市永和區環河西路一段95巷19弄3號","121.511728333333","25.0170933333333","6500400","永和區"
"234028","746-BX","2017/12/15 13:19:42","新北市永和區厚德街67號","121.525016666667","24.99863","6500400","永和區"
"234060","AAD-866","2017/12/15 13:19:54","新北市永和區秀朗路一段114號","121.516951666667","25.00371","6500400","永和區"
"234040","862-TW","2017/12/15 13:19:48","新北市永和區保平路151巷6弄12號","121.509768333333","25.00505","6500400","永和區"
"234048","863-TW","2017/12/15 13:19:54","新北市永和區信義路91巷2號","121.512148333333","25.0138066666667","6500400","永和區"
"234025","9371-KE","2017/12/15 13:19:39","新北市永和區豫溪街42巷16號","121.515373333333","25.0091666666667","6500400","永和區"
"234010","9373-KE","2017/12/15 13:19:42","新北市永和區忠孝街34巷11號","121.51462","25.0164916666667","6500400","永和區"
"248019","225-UY","2017/12/15 13:19:53","新北市五股區孝義路47巷11號","121.453213333333","25.1099833333333","6501500","五股區"
"234022","9380-KE","2017/12/15 13:19:45","新北市永和區竹林路98號","121.519538333333","25.0121783333333","6500400","永和區"
"234076","969-R7","2017/12/15 13:19:57","新北市永和區民有街69號","121.517855","24.9957066666667","6500400","永和區"
"234072","AAC-211","2017/12/15 13:19:42","新北市永和區竹林路30-1號","121.517131666667","25.0146866666667","6500400","永和區"
"234066","AAC-212","2017/12/15 13:19:41","新北市永和區保平路44號","121.51135","25.0071466666667","6500400","永和區"
"234001","AAC-295","2017/12/15 13:19:40","新北市永和區保福路一段98號","121.511913333333","25.010545","6500400","永和區"
"244004","248-BX","2017/12/15 13:19:35","新北市林口區頂福20-18號","121.355031666667","25.0930733333333","6501700","林口區"
"231024","0291-UT","2017/12/15 13:19:40","新北市新店區安康路一段79巷1號","121.529858333333","24.9612233333333","6500600","新店區"
"231025","0293-UT","2017/12/15 13:19:41","新北市新店區中央五街28號","121.529038333333","24.9746","6500600","新店區"
"231028","046-UY","2017/12/15 13:19:52","新北市新店區安華路28-1號","121.519536666667","24.960885","6500600","新店區"
"231030","047-UY","2017/12/15 13:19:50","新北市新店區安華路28-1號","121.519106666667","24.9610216666667","6500600","新店區"
"231029","106-UY","2017/12/15 13:19:45","新北市新店區安華路28-1號","121.519555","24.9608666666667","6500600","新店區"
"231018","107-UY","2017/12/15 13:19:41","新北市新店區安康路一段52巷2號","121.530078333333","24.961175","6500600","新店區"
"231012","108-UY","2017/12/15 13:19:39","新北市新店區安康路一段35號","121.531758333333","24.9607333333333","6500600","新店區"
"231022","187-VK","2017/12/15 13:19:44","新北市新店區秀山路20號","121.532455","24.9604066666667","6500600","新店區"
"231016","KEA-2219","2017/12/15 13:19:52","新北市新店區安康路一段100號","121.527473333333","24.9624","6500600","新店區"
"231026","256-BX","2017/12/15 13:19:49","新北市新店區安華路28-1號","121.519606666667","24.9611116666667","6500600","新店區"
"231010","278-BY","2017/12/15 13:19:42","新北市新店區安康路一段33-1號","121.532321666667","24.9605316666667","6500600","新店區"
"231023","AAD-862","2017/12/15 13:19:51","新北市新店區安康路一段24巷4號","121.53252","24.9604633333333","6500600","新店區"
"231027","3712-VJ","2017/12/15 13:19:41","新北市新店區安康路一段33-1號","121.532345","24.9604916666667","6500600","新店區"
"231038","4715-K9","2017/12/15 13:19:39","新北市新店區安華路28-1號","121.51935","24.9605683333333","6500600","新店區"
"231036","512-UM","2017/12/15 13:17:51","新北市新店區安康路二段362號","121.501716666667","24.9574483333333","6500600","新店區"
"231035","515-UM","2017/12/15 13:19:53","新北市新店區安華路28-1號","121.519566666667","24.96128","6500600","新店區"
"231003","616-UM","2017/12/15 13:19:43","新北市新店區安華路28-1號","121.519558333333","24.96058","6500600","新店區"
"231006","617-UM","2017/12/15 13:19:44","新北市新店區安華路28-1號","121.519431666667","24.9608466666667","6500600","新店區"
"231002","618-UM","2017/12/15 03:42:11","新北市新店區安華路28-1號","121.519198333333","24.961","6500600","新店區"
"231001","619-UM","2017/12/15 04:09:01","新北市新店區安華路28-1號","121.519435","24.9609033333333","6500600","新店區"
"231034","645-TV","2017/12/15 13:19:44","新北市新店區安華路28-1號","121.519683333333","24.9608083333333","6500600","新店區"
"231013","719-UM","2017/12/15 13:19:48","新北市新店區安康路一段164-1號","121.525971666667","24.9630583333333","6500600","新店區"
"231032","720-UM","2017/12/15 13:19:51","新北市新店區安華路3號","121.519211666667","24.959565","6500600","新店區"
"231005","897-TW","2017/12/15 13:19:44","新北市新店區安華路28-1號","121.519505","24.9606266666667","6500600","新店區"
"231004","899-TW","2017/12/15 13:19:50","新北市新店區安華路28-1號","121.519176666667","24.96073","6500600","新店區"
"231037","AKT-0513","2017/12/15 13:19:53","新北市新店區安華路28-1號","121.519503333333","24.9606333333333","6500600","新店區"
"235066","003-UY","2017/12/15 13:19:51","新北市中和區中山路二段108號","121.503018333333","25.0040083333333","6500300","中和區"
"235028","005-UY","2017/12/15 13:19:49","新北市中和區中興街122號","121.499571666667","24.9932633333333","6500300","中和區"
"235027","006-UY","2017/12/15 13:19:48","新北市中和區中正路589巷11號","121.485858333333","24.9939466666667","6500300","中和區"
"235020","096-UM","2017/12/15 13:19:49","新北市中和區員山路36巷13號","121.484311666667","24.9914466666667","6500300","中和區"
"235003","097-UM","2017/12/15 13:19:50","新北市中和區景新街168-2號","121.505871666667","24.9967466666667","6500300","中和區"
"235004","150-BY","2017/12/15 13:19:41","新北市中和區安平路31號","121.509335","24.994785","6500300","中和區"
"235022","151-BY","2017/12/15 13:19:50","新北市中和區圓通路403號","121.489281666667","24.9892466666667","6500300","中和區"
"235019","183-VK","2017/12/15 13:19:51","新北市中和區中正路637巷52弄3號","121.485331666667","24.9937133333333","6500300","中和區"
"235002","185-VK","2017/12/15 13:19:50","新北市中和區秀朗路三段128巷13號","121.52446","24.99337","6500300","中和區"
"235031","255-BX","2017/12/15 13:19:53","新北市中和區民樂路75號","121.484305","25.0012833333333","6500300","中和區"
"235036","301-VK","2017/12/15 13:19:49","新北市中和區和城路一段271巷1號","121.485518333333","24.99162","6500300","中和區"
"235007","352-BY","2017/12/15 13:19:43","新北市中和區中正路271-1號","121.495736666667","24.9936916666667","6500300","中和區"
"235032","377-QA","2017/12/15 13:19:57","新北市中和區員山路36巷16-3號","121.485018333333","24.9912983333333","6500300","中和區"
"235025","378-QA","2017/12/15 13:19:52","新北市中和區民德路197-1號","121.468401666667","24.99902","6500300","中和區"
"235035","269-TV","2017/12/15 13:19:42","新北市中和區永和路458巷1弄2號","121.483941666667","25.01228","6500300","中和區"
"235014","4979-A6","2017/12/15 13:19:43","新北市中和區捷運路61巷9號","121.509013333333","24.9894033333333","6500300","中和區"
"235033","4980-A6","2017/12/15 13:19:46","新北市中和區圓通路176-1號","121.497108333333","24.9945333333333","6500300","中和區"
"235006","551-UM","2017/12/15 13:19:55","新北市中和區大智街55巷3號","121.520828333333","24.9923283333333","6500300","中和區"
"235034","558-UM","2017/12/15 13:19:53","新北市中和區圓通路207號","121.49722","24.9944766666667","6500300","中和區"
"235009","565-BX","2017/12/15 13:19:44","新北市中和區中興街130號","121.499868333333","24.9924533333333","6500300","中和區"
"235018","640-BX","2017/12/15 13:19:35","新北市中和區國光街107巷4弄4-3號","121.470225","24.9996566666667","6500300","中和區"
"235024","647-TV","2017/12/15 13:19:43","新北市中和區員山路36巷16-3號","121.485008333333","24.99167","6500300","中和區"
"235011","732-UM","2017/12/15 13:19:37","新北市中和區中正路291號","121.49351","24.9939233333333","6500300","中和區"
"235026","800-TS","2017/12/15 13:19:43","新北市中和區中山路二段450號","121.48886","25.0044783333333","6500300","中和區"
"235021","801-TS","2017/12/15 13:19:38","新北市中和區員山路127-3號","121.481046666667","24.995765","6500300","中和區"
"235005","802-TS","2017/12/15 13:19:45","新北市中和區景安路24號","121.507418333333","24.998595","6500300","中和區"
"235016","805-TS","2017/12/15 13:19:45","新北市中和區南山路389號","121.506473333333","24.990275","6500300","中和區"
"235012","896-TW","2017/12/15 13:19:46","新北市中和區錦和路350-1號","121.490533333333","24.99361","6500300","中和區"
"235017","900-TW","2017/12/15 13:19:42","新北市中和區員山路36巷16-2號","121.485061666667","24.9917016666667","6500300","中和區"
"235029","911-UM","2017/12/15 13:19:47","新北市中和區莊敬路49巷20弄22號","121.502696666667","25.00579","6500300","中和區"
"235015","157-BY","2017/12/15 13:19:47","新北市中和區信義街115號","121.512031666667","24.9868316666667","6500300","中和區"
"235001","AAC-213","2017/12/15 13:19:47","新北市中和區景平路73-1號","121.51883","24.9916133333333","6500300","中和區"
"235023","AAC-215","2017/12/15 13:19:46","新北市中和區員山路36巷16-3號","121.484963333333","24.9911783333333","6500300","中和區"
"208004","AAC-292","2017/12/15 13:19:20","新北市金山區南勢湖17號","121.619975","25.2186166666667","6502700","金山區"
"207002","749-BX","2017/12/15 13:19:43","新北市萬里區崁腳里崁腳路166號","121.645033333333","25.1558783333333","6502800","萬里區"
"207001","662-BX","2017/12/15 13:19:41","新北市萬里區龜吼里玉田路74號","121.680171666667","25.1927866666667","6502800","萬里區"
"236006","498-BY","2017/12/15 13:19:50","新北市土城區大安路138巷40號","121.434703333333","24.9719616666667","6501300","土城區"
"238026","308-TH","2017/12/15 13:19:50","新北市樹林區環河路10-1號","121.424445","24.9776716666667","6500700","樹林區"
"221012","276-VK","2017/12/15 13:15:14","新北市汐止區汐萬路一段256巷3號","121.653408333333","25.0746516666667","6501100","汐止區"
"221032","280-BY","2017/12/15 13:19:50","新北市汐止區龍安路38號","121.654708333333","25.0641516666667","6501100","汐止區"
