"lineid","car","time","location","longitude","latitude","cityid","cityname"
"234044","148-BY","2017/12/15 13:49:39","新北市永和區永元路138號","121.522871666667","25.0031616666667","6500400","永和區"
"234012","149-BY","2017/12/15 13:49:46","新北市永和區永平路306號","121.507218333333","25.012465","6500400","永和區"
"234005","207-UY","2017/12/15 13:49:48","新北市永和區中和路517號","121.510966666667","25.0025383333333","6500400","永和區"
"234078","298-R6","2017/12/15 13:49:48","新北市永和區林森路80號","121.52346","25.003785","6500400","永和區"
"234036","336-UY","2017/12/15 13:49:46","新北市永和區秀朗路二段289號","121.526245","24.9981433333333","6500400","永和區"
"234062","337-UY","2017/12/15 13:49:40","新北市永和區中正路368巷44號","121.519288333333","25.000645","6500400","永和區"
"234084","338-UY","2017/12/15 13:49:45","新北市永和區中正路560號","121.517123333333","25.005925","6500400","永和區"
"234068","552-UM","2017/12/15 13:49:56","新北市永和區竹林路88號","121.519435","25.0125516666667","6500400","永和區"
"234052","553-UM","2017/12/15 13:49:37","新北市永和區竹林路75巷25弄5號","121.52009","25.01431","6500400","永和區"
"234015","745-BX","2017/12/15 13:49:46","新北市永和區文化路53號","121.514248333333","25.01505","6500400","永和區"
"234028","746-BX","2017/12/15 13:49:42","新北市永和區民生路67巷10號","121.523148333333","24.9972033333333","6500400","永和區"
"234060","AAD-866","2017/12/15 13:49:54","新北市永和區中正路382號","121.517613333333","25.001305","6500400","永和區"
"234040","862-TW","2017/12/15 13:49:48","新北市永和區中和路421巷3弄21號","121.508573333333","25.0002566666667","6500400","永和區"
"234048","863-TW","2017/12/15 13:49:50","新北市永和區保安路140號","121.508436666667","25.0151283333333","6500400","永和區"
"234025","9371-KE","2017/12/15 13:49:39","新北市永和區自由街56號","121.513706666667","25.0059733333333","6500400","永和區"
"234010","9373-KE","2017/12/15 13:49:42","新北市永和區保生路55號","121.504708333333","25.01063","6500400","永和區"
"248019","225-UY","2017/12/15 13:49:53","新北市五股區凌雲路三段41-2號","121.430075","25.1178","6501500","五股區"
"234022","9380-KE","2017/12/15 13:49:45","新北市永和區永和路二段127號","121.514996666667","25.0121133333333","6500400","永和區"
"234076","969-R7","2017/12/15 13:49:57","新北市永和區民治街60號","121.518303333333","24.9980066666667","6500400","永和區"
"234072","AAC-211","2017/12/15 13:49:42","新北市永和區豫溪街162巷2號","121.523673333333","25.009605","6500400","永和區"
"234066","AAC-212","2017/12/15 13:49:42","新北市永和區保平路236巷24弄1號","121.508075","25.0068933333333","6500400","永和區"
"234001","AAC-295","2017/12/15 13:49:40","新北市永和區永和路一段118號","121.513943333333","25.0078616666667","6500400","永和區"
"244004","248-BX","2017/12/15 13:49:55","新北市林口區南勢四街218號","121.356501666667","25.0735683333333","6501700","林口區"
"231024","0291-UT","2017/12/15 13:49:40","新北市新店區新生街55號","121.538793333333","24.967035","6500600","新店區"
"231025","0293-UT","2017/12/15 13:49:41","新北市新店區中央五街55號","121.52771","24.975485","6500600","新店區"
"231028","046-UY","2017/12/15 13:49:52","新北市新店區安和路三段37號","121.517741666667","24.9817216666667","6500600","新店區"
"231030","047-UY","2017/12/15 13:49:50","新北市新店區安康路一段323-1號","121.521578333333","24.96384","6500600","新店區"
"231029","106-UY","2017/12/15 13:49:45","新北市新店區安康路二段105號","121.512771666667","24.962515","6500600","新店區"
"231018","107-UY","2017/12/15 13:49:41","新北市新店區中正路382巷25號","121.535635","24.978435","6500600","新店區"
"231012","108-UY","2017/12/15 13:49:39","新北市新店區中興路二段59號","121.546421666667","24.9704833333333","6500600","新店區"
"231022","187-VK","2017/12/15 13:49:44","新北市新店區湖子內路1號","121.542528333333","24.9302783333333","6500600","新店區"
"231016","KEA-2219","2017/12/15 13:49:52","新北市新店區竹林路94號","121.553891666667","24.9502533333333","6500600","新店區"
"231026","256-BX","2017/12/15 13:49:49","新北市新店區三民路82號","121.534595","24.97266","6500600","新店區"
"231010","278-BY","2017/12/15 13:49:42","新北市新店區平等街48巷10號","121.535755","24.97318","6500600","新店區"
"231023","AAD-862","2017/12/15 13:49:51","新北市新店區文中路51-5號","121.540315","24.9566166666667","6500600","新店區"
"231027","3712-VJ","2017/12/15 13:49:41","新北市新店區中興路一段24-2號","121.538591666667","24.9582316666667","6500600","新店區"
"231038","4715-K9","2017/12/15 13:49:39","新北市新店區安康路一段321巷3號","121.521686666667","24.962805","6500600","新店區"
"231036","512-UM","2017/12/15 13:49:35","新北市新店區安祥路110巷30弄15號","121.474285","24.9571133333333","6500600","新店區"
"231035","515-UM","2017/12/15 13:49:53","新北市新店區安忠路57巷26弄1號","121.513161666667","24.9586466666667","6500600","新店區"
"231003","616-UM","2017/12/15 13:49:43","新北市新店區中興路一段81號","121.540603333333","24.961475","6500600","新店區"
"231006","617-UM","2017/12/15 13:49:44","新北市新店區北宜路一段260號","121.545741666667","24.9528416666667","6500600","新店區"
"231002","618-UM","2017/12/15 13:49:53","新北市新店區溪園路259號","121.523181666667","24.9810583333333","6500600","新店區"
"231001","619-UM","2017/12/15 13:49:57","新北市新店區三民路40號","121.536223333333","24.9715366666667","6500600","新店區"
"231034","645-TV","2017/12/15 13:49:44","新北市新店區達觀路14巷3號","121.5032","24.941905","6500600","新店區"
"231013","719-UM","2017/12/15 13:49:48","新北市新店區二十張路33巷15號","121.539328333333","24.98096","6500600","新店區"
"231032","720-UM","2017/12/15 13:49:51","新北市新店區莒光路44巷21弄11號","121.519255","24.9527233333333","6500600","新店區"
"231005","897-TW","2017/12/15 13:49:44","新北市新店區寶中路121-1號","121.549676666667","24.9794266666667","6500600","新店區"
"231004","899-TW","2017/12/15 13:49:50","新北市新店區寶橋路97號","121.547018333333","24.9762266666667","6500600","新店區"
"231037","AKT-0513","2017/12/15 13:49:53","新北市新店區安康路三段355巷45號","121.484975","24.9494016666667","6500600","新店區"
"235066","003-UY","2017/12/15 13:49:51","新北市中和區廣福路56巷6號","121.503548333333","25.0024866666667","6500300","中和區"
"235028","005-UY","2017/12/15 13:49:49","新北市中和區連城路75巷2-2號","121.497696666667","24.9997433333333","6500300","中和區"
"235027","006-UY","2017/12/15 13:49:48","新北市中和區連城路319巷8號","121.489133333333","24.9953483333333","6500300","中和區"
"235010","031-BX","2017/12/15 13:49:46","新北市中和區仁愛街36巷22號","121.510911666667","24.9872433333333","6500300","中和區"
"235020","096-UM","2017/12/15 13:49:49","新北市中和區立德街329號","121.48151","25.0104866666667","6500300","中和區"
"235003","097-UM","2017/12/15 13:49:50","新北市中和區大勇街25巷13弄1號","121.516158333333","24.993455","6500300","中和區"
"235004","150-BY","2017/12/15 13:49:41","新北市中和區保健路67巷3弄4號","121.50979","24.9974566666667","6500300","中和區"
"235022","151-BY","2017/12/15 13:49:50","新北市土城區金城路三段287巷39號","121.474865","24.9924166666667","6500300","中和區"
"235019","183-VK","2017/12/15 13:49:51","新北市中和區民生街85巷6弄1號","121.469236666667","25.00398","6500300","中和區"
"235002","185-VK","2017/12/15 13:49:48","新北市中和區立人街12-1號","121.519451666667","24.9942333333333","6500300","中和區"
"235013","186-VK","2017/12/15 13:49:57","新北市中和區景安路177巷27號","121.506596666667","24.9945266666667","6500300","中和區"
"235031","255-BX","2017/12/15 13:49:53","新北市中和區新生街220巷1弄11號","121.48333","24.9980766666667","6500300","中和區"
"235008","293-VK","2017/12/15 13:49:51","新北市中和區中興街141號","121.500031666667","24.9912833333333","6500300","中和區"
"235036","301-VK","2017/12/15 13:49:49","新北市中和區連城路2號","121.499286666667","25.0024483333333","6500300","中和區"
"235007","352-BY","2017/12/15 13:49:43","新北市中和區成功路139號","121.525865","24.98996","6500300","中和區"
"235032","377-QA","2017/12/15 13:49:37","新北市中和區中正路211巷32弄12號","121.496855","24.9926416666667","6500300","中和區"
"235025","378-QA","2017/12/15 13:49:52","新北市中和區民治街132巷9號","121.47485","25.0022433333333","6500300","中和區"
"235035","269-TV","2017/12/15 13:49:42","新北市中和區立德街26巷1號","121.48983","25.0069783333333","6500300","中和區"
"235014","4979-A6","2017/12/15 13:49:43","新北市中和區忠孝街58巷16弄13號","121.512146666667","24.98268","6500300","中和區"
"235033","4980-A6","2017/12/15 13:49:46","新北市中和區南山路52巷5號","121.501651666667","24.9973233333333","6500300","中和區"
"235006","551-UM","2017/12/15 13:49:55","新北市中和區秀朗路三段70巷34號","121.52562","24.9944466666667","6500300","中和區"
"235034","558-UM","2017/12/15 13:49:53","新北市中和區圓通路30號","121.50105","24.99792","6500300","中和區"
"235009","565-BX","2017/12/15 13:49:44","新北市中和區復興路73-1號","121.50381","24.9901666666667","6500300","中和區"
"235018","640-BX","2017/12/15 13:49:55","新北市中和區民享街66號","121.474175","25.0019983333333","6500300","中和區"
"235024","647-TV","2017/12/15 13:49:43","新北市中和區中山路三段36號","121.478846666667","25.00592","6500300","中和區"
"235011","732-UM","2017/12/15 13:49:57","新北市中和區興南路二段34巷26弄1號","121.505235","24.98645","6500300","中和區"
"235026","800-TS","2017/12/15 13:49:43","新北市中和區中山路二段312巷12號","121.495355","25.0036583333333","6500300","中和區"
"235021","801-TS","2017/12/15 13:49:38","新北市中和區民利街14巷5弄20號","121.479781666667","24.9993766666667","6500300","中和區"
"235005","802-TS","2017/12/15 13:49:45","新北市中和區永貞路266號","121.513635","25.0037083333333","6500300","中和區"
"235016","805-TS","2017/12/15 13:49:45","新北市中和區興南路二段399巷86號","121.50002","24.9784083333333","6500300","中和區"
"235012","896-TW","2017/12/15 13:49:46","新北市中和區南山路417號","121.507193333333","24.9895816666667","6500300","中和區"
"235017","900-TW","2017/12/15 13:49:43","新北市中和區華福街42巷2弄2號","121.466381666667","24.9963833333333","6500300","中和區"
"235029","911-UM","2017/12/15 13:49:47","新北市中和區莊敬路33巷38弄6號","121.501035","25.0069983333333","6500300","中和區"
"235015","157-BY","2017/12/15 13:49:47","新北市中和區忠孝街106巷52-1號","121.513713333333","24.9842033333333","6500300","中和區"
"235001","AAC-213","2017/12/15 13:49:47","新北市中和區秀朗路三段175巷2號","121.524478333333","24.991185","6500300","中和區"
"235023","AAC-215","2017/12/15 13:49:46","新北市中和區圓通路395號","121.489626666667","24.9890233333333","6500300","中和區"
"220016","013-TV","2017/12/15 13:49:42","新北市板橋區富山街62巷18號","121.47724","25.0225466666667","6500100","板橋區"
"220013","072-UY","2017/12/15 13:49:43","新北市板橋區漢生東路281號","121.4713","25.00902","6500100","板橋區"
"220034","073-UY","2017/12/15 13:49:42","新北市板橋區大智街29號","121.454885","25.0151633333333","6500100","板橋區"
"220105","075-UY","2017/12/15 13:49:43","新北市板橋區民生路二段161巷3號","121.47018","25.0197716666667","6500100","板橋區"
"220017","AAD-861","2017/12/15 13:49:54","新北市板橋區館前西路44號","121.458583333333","25.0069683333333","6500100","板橋區"
"247007","341-TH","2017/12/15 13:49:42","新北市蘆洲區集賢路269巷17號","121.482121666667","25.0833566666667","6501400","蘆洲區"
"247003","336-TH","2017/12/15 13:49:44","新北市蘆洲區長榮路52號","121.46279","25.08309","6501400","蘆洲區"
"247015","057-VK","2017/12/15 13:49:46","新北市蘆洲區中正路155號","121.469166666667","25.0849716666667","6501400","蘆洲區"
"247005","053-VK","2017/12/15 13:49:54","新北市蘆洲區和平路77號","121.469326666667","25.079015","6501400","蘆洲區"
"247017","001-UY","2017/12/15 13:49:38","新北市蘆洲區民族路327巷13弄2號","121.474865","25.0905183333333","6501400","蘆洲區"
"208004","AAC-292","2017/12/15 13:49:49","新北市金山區山城路90巷17號","121.598921666667","25.2003116666667","6502700","金山區"
"207002","749-BX","2017/12/15 13:49:43","新北市萬里區崁腳里崁腳路166號","121.645023333333","25.15588","6502800","萬里區"
"207001","662-BX","2017/12/15 13:49:40","新北市萬里區磺潭里磺溪12-1號","121.631968333333","25.20239","6502800","萬里區"
"236067","105-UM","2017/12/15 13:49:56","新北市土城區城林路6巷80號","121.438333333333","24.9797716666667","6501300","土城區"
"236041","107-UM","2017/12/15 13:49:48","新北市土城區城林路6巷80號","121.438495","24.9797116666667","6501300","土城區"
"236077","166-UM","2017/12/14 19:24:05","新北市土城區中央路四段295號","121.411261666667","24.9522833333333","6501300","土城區"
"236013","270-VK","2017/12/15 13:49:35","新北市土城區城林路6巷80號","121.438373333333","24.9797833333333","6501300","土城區"
"236035","271-VK","2017/12/15 13:49:45","新北市土城區城林路6巷80號","121.438345","24.9798316666667","6501300","土城區"
"236019","401-BY","2017/12/15 13:49:44","新北市土城區城林路6巷80號","121.438593333333","24.9797566666667","6501300","土城區"
"236006","498-BY","2017/12/15 13:49:50","新北市土城區員福街2號","121.441961666667","24.9784033333333","6501300","土城區"
"236057","912-UM","2017/12/15 13:49:42","新北市土城區城林路6巷80號","121.438615","24.9797","6501300","土城區"
"236046","913-UM","2017/12/15 13:49:52","新北市土城區城林路6巷80號","121.438348333333","24.97984","6501300","土城區"
"236061","915-UM","2017/12/15 13:49:37","新北市土城區城林路6巷80號","121.43842","24.9798983333333","6501300","土城區"
"236054","AAC-216","2017/12/15 13:49:31","新北市土城區城林路6巷80號","121.43834","24.97978","6501300","土城區"
"221012","276-VK","2017/12/15 13:15:14","新北市汐止區汐萬路一段256巷3號","121.653408333333","25.0746516666667","6501100","汐止區"
"221032","280-BY","2017/12/15 13:49:50","新北市汐止區新台五路一段91-2號","121.65028","25.06146","6501100","汐止區"
"220027","145-BY","2017/12/15 13:49:36","新北市板橋區中正路48號","121.456405","25.014085","6500100","板橋區"
"220028","200-UY","2017/12/15 13:49:40","新北市板橋區大觀路二段265巷60弄32號","121.441278333333","24.9978066666667","6500100","板橋區"
"220030","610-BX","2017/12/15 13:49:52","新北市板橋區篤行路三段玉平巷45號","121.42853","24.9868166666667","6500100","板橋區"
"220050","245-BX","2017/12/15 02:39:06","新北市板橋區民生路二段161巷9號","121.470198333333","25.0196116666667","6500100","板橋區"
"220004","276-BY","2017/12/15 13:49:41","新北市板橋區四川路二段23-3號","121.454618333333","24.995575","6500100","板橋區"
"220043","283-UM","2017/12/15 13:49:48","新北市板橋區民生路二段161巷7號","121.470151666667","25.0196583333333","6500100","板橋區"
"220019","283-VK","2017/12/15 13:49:41","新北市板橋區忠孝路79號","121.461866666667","25.002205","6500100","板橋區"
"220001","285-VK","2017/12/15 13:49:56","新北市板橋區民生路二段121號","121.470836666667","25.01835","6500100","板橋區"
"220031","286-VK","2017/12/15 13:49:58","新北市板橋區大觀路二段22巷36號","121.444871666667","25.0036716666667","6500100","板橋區"
"220029","287-VK","2017/12/15 13:49:45","新北市板橋區南雅西路二段145巷10號","121.451613333333","25.011895","6500100","板橋區"
"220039","288-VK","2017/12/15 13:49:41","新北市板橋區民生路二段161巷9號","121.470295","25.0196266666667","6500100","板橋區"
"220009","293-UM","2017/12/15 13:49:41","新北市板橋區太和街4巷3號","121.474005","25.0198333333333","6500100","板橋區"
"220032","296-UM","2017/12/15 13:49:53","新北市板橋區大觀路二段148巷1-1號","121.441673333333","24.9991166666667","6500100","板橋區"
"220023","297-UM","2017/12/15 13:49:47","新北市板橋區大觀路一段28巷106號","121.45024","25.011065","6500100","板橋區"
"220041","299-UM","2017/12/14 21:29:34","新北市板橋區民生路二段161巷9號","121.470318333333","25.0194666666667","6500100","板橋區"
"220010","305-R5","2017/12/15 13:49:45","新北市板橋區中山路二段40巷17號","121.47333","25.01487","6500100","板橋區"
"220047","317-R6","2017/12/15 13:49:41","新北市板橋區民生路二段161巷1號","121.469981666667","25.0197933333333","6500100","板橋區"
"220012","486-VK","2017/12/15 13:49:51","新北市板橋區中山路二段37號","121.472968333333","25.015715","6500100","板橋區"
"220038","487-VK","2017/12/15 13:49:38","新北市板橋區民生路二段120號","121.470296666667","25.0200316666667","6500100","板橋區"
"220037","491-VK","2017/12/15 13:49:58","新北市板橋區民生路二段161巷1號","121.470023333333","25.01997","6500100","板橋區"
"220104","560-BX","2017/12/15 13:49:53","新北市板橋區中正路325巷47號","121.453026666667","25.018735","6500100","板橋區"
"220052","561-BX","2017/12/15 12:09:10","新北市板橋區民生路二段226巷10弄13號","121.471116666667","25.0212983333333","6500100","板橋區"
"220011","609-BX","2017/12/15 13:49:46","新北市板橋區民生路二段121號","121.470708333333","25.0184516666667","6500100","板橋區"
"220040","637-BX","2017/12/15 13:49:42","新北市板橋區太和街5巷4號","121.473553333333","25.020085","6500100","板橋區"
"220005","686-BX","2017/12/15 13:49:55","新北市板橋區華東街1-9號","121.448201666667","24.9949033333333","6500100","板橋區"
"220025","687-BX","2017/12/15 13:49:48","新北市板橋區存德街80號","121.431916666667","24.9910983333333","6500100","板橋區"
"220042","689-BX","2017/12/15 13:49:36","新北市板橋區民生路二段161巷1號","121.470051666667","25.020125","6500100","板橋區"
"220002","741-BX","2017/12/15 13:49:44","新北市板橋區南雅南路二段116號","121.45248","25.0005166666667","6500100","板橋區"
"220003","827-TW","2017/12/15 13:49:57","新北市板橋區南雅南路二段116號","121.452426666667","25.0003433333333","6500100","板橋區"
"220014","829-TW","2017/12/15 13:49:52","新北市中和區環河西路三段123號","121.491011666667","25.0116983333333","6500100","板橋區"
"220045","831-TW","2017/12/14 21:17:52","新北市板橋區民生路二段161巷9號","121.470298333333","25.01964","6500100","板橋區"
"220022","895-R6","2017/12/15 13:49:47","新北市板橋區南門街73號","121.457011666667","25.0079916666667","6500100","板橋區"
"220021","985-R7","2017/12/15 13:49:47","新北市板橋區府中路67號","121.458161666667","25.0094066666667","6500100","板橋區"
"220046","AAC-210","2017/12/15 13:49:36","新北市板橋區民生路二段161巷7號","121.470178333333","25.0196366666667","6500100","板橋區"
"220018","AAC-253","2017/12/15 13:49:56","新北市板橋區南雅南路一段1巷1弄5號","121.457331666667","25.00612","6500100","板橋區"
