"lineid","car","time","location","longitude","latitude","cityid","cityname"
"249005","172-UM","2017/12/15 17:09:39","新北市八里區華富山5-5號","121.417695","25.1445666666667","6502300","八里區"
"249001","173-UM","2017/12/15 17:09:48","新北市八里區訊塘路35號","121.397688333333","25.145735","6502300","八里區"
"249004","303-UY","2017/12/15 17:09:37","新北市八里區忠孝路181號","121.42297","25.1608166666667","6502300","八里區"
"249002","305-UY","2017/12/15 17:09:48","新北市八里區龍米路二段153巷1號","121.440876666667","25.1518983333333","6502300","八里區"
"249003","593-UM","2017/12/15 17:09:47","新北市八里區中山路二段435號","121.39685","25.1459733333333","6502300","八里區"
"244013","069-UM","2017/12/15 17:09:38","新北市林口區粉寮69號","121.40504","25.0908433333333","6501700","林口區"
"244007","080-UY","2017/12/15 17:09:46","新北市林口區菁埔37-4號","121.377206666667","25.0970716666667","6501700","林口區"
"244019","403-UM","2017/12/15 17:09:42","新北市林口區仁愛路二段192巷6號","121.380195","25.0742766666667","6501700","林口區"
"244023","483-VK","2017/12/15 17:09:56","新北市林口區中山路2號","121.396746666667","25.0784316666667","6501700","林口區"
"244009","657-BX","2017/12/15 17:09:55","新北市林口區東林街14號","121.396246666667","25.0789783333333","6501700","林口區"
"244021","838-TS","2017/12/15 17:09:54","新北市林口區粉寮32號","121.403251666667","25.0865316666667","6501700","林口區"
"231046","278-BY","2017/12/15 17:09:54","新北市新店區直潭路92號","121.530936666667","24.9376583333333","6500600","新店區"
"241011","013-R5","2017/12/15 17:09:40","新北市三重區河邊北街168號","121.50287","25.0731433333333","6500200","三重區"
"241028","022-UY","2017/12/15 17:09:54","新北市三重區重新路三段110號","121.492285","25.0603016666667","6500200","三重區"
"241008","059-VK","2017/12/15 17:09:48","新北市三重區力行路二段138-1號","121.482375","25.07571","6500200","三重區"
"241009","060-VK","2017/12/15 17:09:49","新北市三重區三和路四段229號","121.481386666667","25.079975","6500200","三重區"
"241015","062-VK","2017/12/15 17:09:43","新北市三重區長生街37號","121.49977","25.0664166666667","6500200","三重區"
"241017","063-VK","2017/12/15 17:09:48","新北市三重區中正北路25巷25弄2號","121.493201666667","25.062645","6500200","三重區"
"241024","065-VK","2017/12/15 17:09:40","新北市三重區中正北路346號","121.477791666667","25.0693833333333","6500200","三重區"
"241026","066-VK","2017/12/15 17:09:52","新北市三重區重新路一段102號","121.501001666667","25.0633383333333","6500200","三重區"
"241003","091-VK","2017/12/15 17:09:47","新北市三重區富福街103號","121.493313333333","25.085465","6500200","三重區"
"241005","262-UM","2017/12/15 17:09:35","新北市三重區永安北路二段25巷31號","121.482876666667","25.0817316666667","6500200","三重區"
"241002","265-UM","2017/12/15 17:09:46","新北市三重區仁義街225巷10號","121.496953333333","25.0823966666667","6500200","三重區"
"241016","266-UM","2017/12/15 17:09:43","新北市三重區中正北路25巷25弄7號","121.493475","25.0627816666667","6500200","三重區"
"241022","267-UM","2017/12/15 17:09:53","新北市三重區三民街114號","121.484946666667","25.06356","6500200","三重區"
"241018","268-UM","2017/12/15 17:09:46","新北市三重區正義北路330號","121.494493333333","25.0704666666667","6500200","三重區"
"241032","269-UM","2017/12/15 17:09:42","新北市三重區興華街73號","121.484878333333","25.0598066666667","6500200","三重區"
"241013","270-UM","2017/12/15 17:09:50","新北市三重區仁愛街104號","121.495375","25.074165","6500200","三重區"
"241025","271-UM","2017/12/15 17:09:47","新北市三重區中正北路560巷98號","121.471713333333","25.0682066666667","6500200","三重區"
"241007","398-BY","2017/12/15 17:09:43","新北市三重區三和路四段163巷8號","121.483583333333","25.0787866666667","6500200","三重區"
"241020","413-TH","2017/12/15 17:09:38","新北市三重區自強路三段45號","121.486925","25.0726633333333","6500200","三重區"
"241004","475-VK","2017/12/15 17:09:47","新北市三重區五華街98巷6號","121.492165","25.081985","6500200","三重區"
"241019","478-VK","2017/12/15 17:09:52","新北市三重區三張街186號","121.485286666667","25.06917","6500200","三重區"
"241030","480-VK","2017/12/15 17:09:47","新北市三重區集美街115號","121.489748333333","25.05296","6500200","三重區"
"241014","543-UM","2017/12/15 17:09:50","新北市三重區龍濱路118號","121.502113333333","25.0703333333333","6500200","三重區"
"241023","545-UM","2017/12/15 17:09:40","新北市三重區忠孝路三段84巷1號","121.480256666667","25.0644883333333","6500200","三重區"
"241001","547-UM","2017/12/15 17:09:43","新北市三重區仁愛街255巷75號","121.494896666667","25.0792683333333","6500200","三重區"
"241006","AAD-863","2017/12/15 17:09:48","新北市三重區三和路四段274巷16號","121.48485","25.0768633333333","6500200","三重區"
"241029","887-TS","2017/12/15 17:09:51","新北市三重區中正南路260-1號","121.493135","25.0530266666667","6500200","三重區"
"241012","941-UM","2017/12/15 17:09:52","新北市三重區河邊北街256巷10號","121.501473333333","25.07613","6500200","三重區"
"241033","AAC-255","2017/12/15 17:09:43","新北市三重區中興北街271號","121.469216666667","25.0606333333333","6500200","三重區"
"235064","005-UY","2017/12/15 15:35:13","新北市中和區員山路36巷16-3號","121.485093333333","24.991265","6500300","中和區"
"235046","031-BX","2017/12/15 15:48:59","新北市中和區員山路36巷16-2號","121.485235","24.9916116666667","6500300","中和區"
"235061","378-QA","2017/12/15 14:47:52","新北市中和區員山路36巷13號","121.484118333333","24.991295","6500300","中和區"
"235065","911-UM","2017/12/15 17:09:47","新北市中和區員山路36巷16-3號","121.485083333333","24.9911433333333","6500300","中和區"
"247022","893-R6","2017/12/15 17:09:35","新北市蘆洲區三民路222號","121.468826666667","25.0891633333333","6501400","蘆洲區"
"247012","546-UM","2017/12/15 17:09:38","新北市蘆洲區信義路294號","121.477838333333","25.0875583333333","6501400","蘆洲區"
"247020","500-BY","2017/12/15 17:09:40","新北市蘆洲區仁愛街70巷1號","121.47125","25.0942283333333","6501400","蘆洲區"
"247008","341-TH","2017/12/15 17:09:37","新北市蘆洲區信義路30巷147號","121.475413333333","25.0764116666667","6501400","蘆洲區"
"247010","339-TH","2017/12/15 17:09:41","新北市蘆洲區民族路16號","121.475988333333","25.0840566666667","6501400","蘆洲區"
"247002","337-TH","2017/12/15 17:09:42","新北市蘆洲區永樂街83號","121.455918333333","25.0887316666667","6501400","蘆洲區"
"247004","336-TH","2017/12/15 17:09:47","新北市蘆洲區長安街225號","121.459338333333","25.0824366666667","6501400","蘆洲區"
"247016","057-VK","2017/12/15 17:09:48","新北市蘆洲區光華路71號","121.468041666667","25.0826866666667","6501400","蘆洲區"
"247006","053-VK","2017/12/15 17:09:36","新北市蘆洲區長安街108巷37號","121.462113333333","25.0824683333333","6501400","蘆洲區"
"247014","007-UY","2017/12/15 17:09:46","新北市蘆洲區得勝街115號","121.472535","25.083445","6501400","蘆洲區"
"247024","002-UY","2017/12/15 17:09:39","新北市蘆洲區長興路25號","121.463716666667","25.08336","6501400","蘆洲區"
"247018","001-UY","2017/12/15 17:09:42","新北市蘆洲區復興路132號","121.476676666667","25.0875033333333","6501400","蘆洲區"
"228002","663-BX","2017/12/15 17:09:52","新北市貢寮區龍崗里嵩陽街55號","121.907606666667","25.0166466666667","6502600","貢寮區"
"228001","670-TC","2017/12/15 17:09:35","新北市貢寮區仁理村尖山腳街20號","121.924465","25.04741","6502600","貢寮區"
"228003","828-UM","2017/12/15 17:09:39","新北市貢寮區福隆里東興街31-1號","121.952336666667","25.0206583333333","6502600","貢寮區"
"224006","676-BX","2017/12/15 17:09:49","新北市瑞芳區大寮路101-2號","121.778495","25.099335","6501200","瑞芳區"
"224009","285-BY","2017/12/15 17:09:51","新北市瑞芳區坑尾巷37-1號","121.84418","25.1116266666667","6501200","瑞芳區"
"224008","275-VK","2017/12/15 17:09:51","新北市瑞芳區侯硐路83號","121.830343333333","25.0892083333333","6501200","瑞芳區"
"224007","273-VK","2017/12/15 17:09:50","新北市瑞芳區粗坑口路41-1號","121.76005","25.0992716666667","6501200","瑞芳區"
"224005","271-BY","2017/12/15 17:09:56","新北市瑞芳區鼻頭路193號","121.915431666667","25.1234316666667","6501200","瑞芳區"
"227003","642-TC","2017/12/15 17:09:35","新北市雙溪區外柑里外柑腳74號","121.807215","25.017605","6502500","雙溪區"
"227011","400-TW","2017/12/15 17:09:51","新北市雙溪區三貂里子崙坑1-5號","121.8498","25.0575866666667","6502500","雙溪區"
"251004","009-UM","2017/12/15 17:09:48","新北市淡水區中正東路3號","121.445263333333","25.16861","6501000","淡水區"
"251013","180-VK","2017/12/15 17:09:55","新北市淡水區大埤頭5-2號","121.484556666667","25.1956683333333","6501000","淡水區"
"251008","181-VK","2017/12/15 17:09:41","新北市淡水區樹梅坑17號","121.470961666667","25.143965","6501000","淡水區"
"251015","182-VK","2017/12/15 17:09:48","新北市淡水區樹林口41號","121.472648333333","25.1680516666667","6501000","淡水區"
"251010","413-VK","2017/12/15 17:09:40","新北市淡水區新市五路二段75號","121.431248333333","25.1982783333333","6501000","淡水區"
"251012","441-VK","2017/12/15 17:09:51","新北市淡水區中山北路一段158號","121.444268333333","25.1778833333333","6501000","淡水區"
"251005","443-VK","2017/12/15 17:09:49","新北市淡水區清水街250號","121.440431666667","25.1722333333333","6501000","淡水區"
"251006","561-UM","2017/12/15 17:09:52","新北市淡水區中正路一段87巷1號","121.42176","25.17931","6501000","淡水區"
"251009","575-R6","2017/12/15 17:09:37","新北市淡水區三民街20號","121.439016666667","25.1717683333333","6501000","淡水區"
"251007","577-R6","2017/12/15 17:09:37","新北市淡水區民權路39號","121.459653333333","25.14082","6501000","淡水區"
"251011","650-BX","2017/12/15 17:09:51","新北市淡水區坪頂路42號","121.457611666667","25.1623766666667","6501000","淡水區"
"251003","673-BX","2017/12/15 17:09:45","新北市淡水區中正路二段31號","121.41947","25.1815","6501000","淡水區"
"252002","178-VK","2017/12/15 17:09:39","新北市三芝區忠孝街1-6號","121.505603333333","25.2544083333333","6502100","三芝區"
"252001","292-VK","2017/12/15 17:09:55","新北市三芝區埔頭里埔頭37號","121.498446666667","25.260235","6502100","三芝區"
"242050","751-BX","2017/12/15 17:09:38","新北市新莊區三和路12-10號","121.441908333333","25.0367716666667","6500500","新莊區"
"242025","615-BX","2017/12/15 17:09:52","新北市新莊區新泰路255巷83號","121.442291666667","25.0387","6500500","新莊區"
"242023","613-BX","2017/12/15 04:30:14","新北市新莊區新泰路255巷83號","121.442126666667","25.03909","6500500","新莊區"
"242027","612-BX","2017/12/15 17:09:38","新北市新莊區新泰路255巷83號","121.4422","25.0390983333333","6500500","新莊區"
"242044","497-BY","2017/12/15 17:09:42","新北市新莊區中正路535號","121.438885","25.033335","6500500","新莊區"
"242031","442-UM","2017/12/15 03:50:29","新北市新莊區三和路12-21號","121.44186","25.03889","6500500","新莊區"
"242048","441-UM","2017/12/15 17:09:46","新北市新莊區中正路745號","121.422411666667","25.0288283333333","6500500","新莊區"
"242054","440-UM","2017/12/15 17:09:39","新北市新莊區三和路12-20號","121.441976666667","25.0378316666667","6500500","新莊區"
"242034","415-TV","2017/12/15 17:09:55","新北市新莊區新泰路357巷3弄57號","121.441823333333","25.039315","6500500","新莊區"
"242041","400-BY","2017/12/15 17:09:38","新北市新莊區三和路12-14號","121.441953333333","25.0372266666667","6500500","新莊區"
"242060","362-BY","2017/12/15 17:09:39","新北市新莊區三和路12-21號","121.442275","25.0386433333333","6500500","新莊區"
"242058","353-BY","2017/12/15 17:09:50","新北市新莊區三和路12-21號","121.442183333333","25.0386933333333","6500500","新莊區"
"242007","132-UY","2017/12/15 17:09:54","新北市新莊區新泰路255巷83號","121.442148333333","25.038795","6500500","新莊區"
"242037","133-UY","2017/12/15 17:09:51","新北市新莊區新樹路181-2號","121.43607","25.0243316666667","6500500","新莊區"
"242021","135-UY","2017/12/15 03:17:07","新北市新莊區新泰路255巷83號","121.442091666667","25.0387966666667","6500500","新莊區"
"242046","172-VK","2017/12/15 04:44:16","新北市新莊區三和路12-21號","121.44203","25.038745","6500500","新莊區"
"242009","173-VK","2017/12/15 00:36:38","新北市新莊區三和路12-21號","121.441993333333","25.03868","6500500","新莊區"
"242015","175-VK","2017/12/15 17:09:53","新北市新莊區三和路12-21號","121.441721666667","25.0386416666667","6500500","新莊區"
"242002","176-VK","2017/12/15 17:09:37","新北市泰山區磚雅厝3號","121.442198333333","25.04159","6500500","新莊區"
"242013","346-TH","2017/12/15 14:38:38","新北市新莊區三和路12-13號","121.441863333333","25.03717","6500500","新莊區"
"242039","347-TH","2017/12/15 15:06:02","新北市新莊區三和路12-15號","121.441903333333","25.0373616666667","6500500","新莊區"
"242019","348-TH","2017/12/15 17:09:27","新北市新莊區三和路12-21號","121.441563333333","25.0385816666667","6500500","新莊區"
"242017","350-TH","2017/12/15 03:29:06","新北市新莊區三和路12-21號","121.441933333333","25.038865","6500500","新莊區"
"242011","351-TH","2017/12/15 17:09:52","新北市新莊區新泰路357巷3弄57號","121.442038333333","25.039525","6500500","新莊區"
"238015","755-BX","2017/12/15 17:09:48","新北市樹林區育德街78-1號","121.387945","24.968095","6500700","樹林區"
"238023","601-UM","2017/12/15 17:09:46","新北市樹林區中山路三段125-7號","121.398026666667","24.9738216666667","6500700","樹林區"
"238019","599-UM","2017/12/15 17:09:48","新北市樹林區八德街426號","121.402798333333","24.9704316666667","6500700","樹林區"
"238018","571-TV","2017/12/15 17:09:45","新北市樹林區八德街236號","121.41262","24.9704733333333","6500700","樹林區"
"238024","5061-A6","2017/12/15 17:09:46","新北市樹林區鎮前街164號","121.424456666667","24.9899833333333","6500700","樹林區"
"238021","KEA-2217","2017/12/15 17:09:47","新北市樹林區佳園路二段29-1號","121.39168","24.9630316666667","6500700","樹林區"
"238022","KEA-2213","2017/12/15 17:09:58","新北市樹林區八德街502號","121.399666666667","24.9702333333333","6500700","樹林區"
"238025","303-VK","2017/12/15 17:09:46","新北市樹林區中山路三段125-9號","121.397728333333","24.9737266666667","6500700","樹林區"
"238017","283-BY","2017/12/15 17:09:53","新北市樹林區中洲街3號","121.397306666667","24.9728266666667","6500700","樹林區"
"238014","282-BY","2017/12/15 17:09:41","新北市樹林區八德街648號","121.396513333333","24.9691166666667","6500700","樹林區"
"238020","268-VK","2017/12/15 17:09:49","新北市樹林區中山路三段125-10號","121.397453333333","24.9735883333333","6500700","樹林區"
"238026","172-UY","2017/12/15 17:09:54","新北市樹林區新興街47號","121.399898333333","24.9715466666667","6500700","樹林區"
"238016","169-UY","2017/12/15 17:09:43","新北市樹林區中山路三段125-10號","121.397351666667","24.97352","6500700","樹林區"
"239007","AAC-297","2017/12/15 17:09:53","新北市鶯歌區信義街117號","121.353443333333","24.9546866666667","6500800","鶯歌區"
"239006","891-R6","2017/12/15 17:09:58","新北市鶯歌區八德路2巷39號","121.336793333333","24.9465516666667","6500800","鶯歌區"
"239008","527-UM","2017/12/15 17:09:39","新北市鶯歌區尖山路103號","121.3482","24.9491683333333","6500800","鶯歌區"
"239005","526-UM","2017/12/15 17:09:43","新北市鶯歌區德昌二街3巷1-1號","121.33323","24.9593066666667","6500800","鶯歌區"
"239001","417-VK","2017/12/15 17:09:52","新北市鶯歌區尖山路103-3號","121.347941666667","24.9491666666667","6500800","鶯歌區"
"239003","360-BY","2017/12/15 17:09:48","新北市鶯歌區八德路16號","121.330598333333","24.9554683333333","6500800","鶯歌區"
"239002","359-BY","2017/12/15 17:09:42","新北市鶯歌區建國路159號","121.350335","24.95347","6500800","鶯歌區"
"239004","193-VK","2017/12/15 17:09:49","新北市鶯歌區文化路300號","121.352388333333","24.9468066666667","6500800","鶯歌區"
"221012","276-VK","2017/12/15 13:15:14","新北市汐止區汐萬路一段256巷3號","121.653408333333","25.0746516666667","6501100","汐止區"
"221032","280-BY","2017/12/15 17:09:50","新北市汐止區汐萬路一段256巷1號","121.651996666667","25.07489","6501100","汐止區"
