"lineid","car","time","location","longitude","latitude","cityid","cityname"
"249005","172-UM","2017/12/15 17:29:58","新北市八里區荖阡坑路67號","121.405915","25.1279966666667","6502300","八里區"
"249001","173-UM","2017/12/15 17:29:48","新北市八里區大崁腳47-3號","121.42444","25.1589816666667","6502300","八里區"
"249004","303-UY","2017/12/15 17:29:57","新北市八里區賢三街145號","121.414885","25.1569133333333","6502300","八里區"
"249002","305-UY","2017/12/15 17:29:48","新北市八里區頂寮二街133-8號","121.44907","25.1287366666667","6502300","八里區"
"249003","593-UM","2017/12/15 17:29:47","新北市八里區中山路二段378號","121.400656666667","25.14787","6502300","八里區"
"244013","069-UM","2017/12/15 17:29:38","新北市林口區粉寮路一段77-2號","121.397246666667","25.0796666666667","6501700","林口區"
"244007","080-UY","2017/12/15 17:29:46","新北市林口區湖子35號","121.38558","25.0939266666667","6501700","林口區"
"244019","403-UM","2017/12/15 17:29:42","新北市林口區公園路172號","121.372395","25.07249","6501700","林口區"
"244023","483-VK","2017/12/15 17:29:56","新北市林口區興林一街86巷2號","121.391105","25.072965","6501700","林口區"
"244009","657-BX","2017/12/15 17:29:55","新北市林口區中華路265號","121.384516666667","25.09037","6501700","林口區"
"244025","837-TS","2017/12/15 17:29:55","新北市林口區民族路86-99號","121.365915","25.0754266666667","6501700","林口區"
"244021","838-TS","2017/12/15 17:29:54","新北市林口區粉寮路一段183號","121.4002","25.0825116666667","6501700","林口區"
"231046","278-BY","2017/12/15 17:29:54","新北市新店區直潭路92號","121.530943333333","24.93764","6500600","新店區"
"241011","013-R5","2017/12/15 17:29:40","新北市三重區河邊北街122-1號","121.503548333333","25.0714633333333","6500200","三重區"
"241008","059-VK","2017/12/15 17:29:48","新北市三重區永福街303號","121.483976666667","25.074615","6500200","三重區"
"241015","062-VK","2017/12/15 17:29:43","新北市三重區長元街65巷20弄18號","121.503545","25.0661033333333","6500200","三重區"
"241017","063-VK","2017/12/15 17:29:48","新北市三重區重新路三段45-6號","121.49345","25.0617833333333","6500200","三重區"
"241024","065-VK","2017/12/15 17:29:40","新北市三重區大勇街82巷15弄23號","121.480825","25.0719233333333","6500200","三重區"
"241003","091-VK","2017/12/15 17:29:47","新北市三重區集賢路43號","121.495135","25.0858933333333","6500200","三重區"
"241005","262-UM","2017/12/15 17:29:55","新北市三重區碧華街105號","121.485666666667","25.0816633333333","6500200","三重區"
"241002","265-UM","2017/12/15 17:29:46","新北市三重區集賢路87-1號","121.493668333333","25.0868633333333","6500200","三重區"
"241016","266-UM","2017/12/15 17:29:42","新北市三重區信義西街148號","121.495363333333","25.0639466666667","6500200","三重區"
"241018","268-UM","2017/12/15 17:29:46","新北市三重區新北大道一段7號","121.489545","25.0613516666667","6500200","三重區"
"241032","269-UM","2017/12/15 17:29:42","新北市三重區名源街59號","121.482341666667","25.0594116666667","6500200","三重區"
"241025","271-UM","2017/12/15 17:29:47","新北市三重區中正北路380號","121.476598333333","25.0698233333333","6500200","三重區"
"241007","398-BY","2017/12/15 17:29:54","新北市三重區溪尾街138號","121.489148333333","25.079625","6500200","三重區"
"241020","413-TH","2017/12/15 17:29:58","新北市三重區忠孝路二段95號","121.484231666667","25.0700216666667","6500200","三重區"
"241019","478-VK","2017/12/15 17:29:52","新北市三重區自強路二段27號","121.489613333333","25.0693083333333","6500200","三重區"
"241030","480-VK","2017/12/15 17:29:47","新北市三重區環河南路220-8號","121.493376666667","25.0527266666667","6500200","三重區"
"241014","543-UM","2017/12/15 17:29:50","新北市三重區長壽街65號","121.501863333333","25.0685283333333","6500200","三重區"
"241023","545-UM","2017/12/15 17:29:40","新北市三重區忠孝路三段84巷30號","121.481526666667","25.0641566666667","6500200","三重區"
"241001","547-UM","2017/12/15 17:29:43","新北市三重區福隆路14號","121.491393333333","25.0778416666667","6500200","三重區"
"241012","941-UM","2017/12/15 17:29:52","新北市三重區河邊北街379-1號","121.501718333333","25.076505","6500200","三重區"
"241033","AAC-255","2017/12/15 17:29:43","新北市三重區興德路145-2號","121.469063333333","25.05271","6500200","三重區"
"235064","005-UY","2017/12/15 15:35:13","新北市中和區員山路36巷16-3號","121.485093333333","24.991265","6500300","中和區"
"235046","031-BX","2017/12/15 15:48:59","新北市中和區員山路36巷16-2號","121.485235","24.9916116666667","6500300","中和區"
"235061","378-QA","2017/12/15 14:47:52","新北市中和區員山路36巷13號","121.484118333333","24.991295","6500300","中和區"
"235065","911-UM","2017/12/15 17:29:47","新北市中和區員山路36巷16-3號","121.485138333333","24.9910683333333","6500300","中和區"
"247022","893-R6","2017/12/15 17:29:35","新北市蘆洲區三民路456號","121.467071666667","25.09037","6501400","蘆洲區"
"247012","546-UM","2017/12/15 17:29:50","新北市蘆洲區三民路70號","121.475496666667","25.0838316666667","6501400","蘆洲區"
"247020","500-BY","2017/12/15 17:29:40","新北市蘆洲區水湳街399-8號","121.469901666667","25.0945833333333","6501400","蘆洲區"
"247008","341-TH","2017/12/15 17:29:37","新北市蘆洲區民生街109號","121.473358333333","25.07862","6501400","蘆洲區"
"247010","339-TH","2017/12/15 17:29:41","新北市蘆洲區鷺江街39號","121.478511666667","25.0822566666667","6501400","蘆洲區"
"247002","337-TH","2017/12/15 17:29:42","新北市蘆洲區永樂街38巷57弄2號","121.458458333333","25.0901933333333","6501400","蘆洲區"
"247004","336-TH","2017/12/15 17:29:47","新北市蘆洲區中原路12巷22號","121.46084","25.0838716666667","6501400","蘆洲區"
"247016","057-VK","2017/12/15 17:29:48","新北市蘆洲區光華路46巷39號","121.467718333333","25.0843166666667","6501400","蘆洲區"
"247006","053-VK","2017/12/15 17:29:36","新北市蘆洲區光華路185號","121.464806666667","25.0813716666667","6501400","蘆洲區"
"247014","007-UY","2017/12/15 17:29:47","新北市蘆洲區三民路25號","121.475606666667","25.082555","6501400","蘆洲區"
"247024","002-UY","2017/12/15 17:29:39","新北市蘆洲區長興路349號","121.460813333333","25.0908883333333","6501400","蘆洲區"
"247018","001-UY","2017/12/15 17:29:42","新北市蘆洲區民義街26號","121.47158","25.0886116666667","6501400","蘆洲區"
"228002","663-BX","2017/12/15 17:29:52","新北市貢寮區福隆里興隆街23號","121.943255","25.01649","6502600","貢寮區"
"228001","670-TC","2017/12/15 17:29:35","新北市貢寮區仁理村仁愛路62巷1號","121.925621666667","25.0534","6502600","貢寮區"
"228003","828-UM","2017/12/15 17:29:39","新北市貢寮區仁理村尖山腳街2號","121.925083333333","25.0466166666667","6502600","貢寮區"
"224010","AGQ-8101","2017/12/15 17:29:59","新北市瑞芳區逢甲路37-3號","121.80873","25.1089983333333","6501200","瑞芳區"
"224006","676-BX","2017/12/15 17:29:49","新北市瑞芳區傑魚坑路151號","121.790123333333","25.1095933333333","6501200","瑞芳區"
"224009","285-BY","2017/12/15 17:29:51","新北市瑞芳區汽車路21-4號","121.845221666667","25.1106633333333","6501200","瑞芳區"
"224008","275-VK","2017/12/15 17:29:58","新北市瑞芳區九芎橋路13號","121.832688333333","25.09249","6501200","瑞芳區"
"224005","271-BY","2017/12/15 17:29:39","新北市瑞芳區海濱路8-6號","121.83163","25.1261033333333","6501200","瑞芳區"
"227003","642-TC","2017/12/15 17:29:54","新北市雙溪區上林里新寮子6號","121.838663333333","25.0309233333333","6502500","雙溪區"
"251004","009-UM","2017/12/15 17:29:48","新北市淡水區中正東路二段88巷15號","121.459003333333","25.1505566666667","6501000","淡水區"
"251013","180-VK","2017/12/15 17:29:55","新北市淡水區水尾子3號","121.464901666667","25.195085","6501000","淡水區"
"251008","181-VK","2017/12/15 17:29:41","新北市淡水區大同路100巷11號","121.462971666667","25.1396533333333","6501000","淡水區"
"251015","182-VK","2017/12/15 17:29:53","新北市淡水區三空泉15號","121.472838333333","25.1636066666667","6501000","淡水區"
"251010","413-VK","2017/12/15 17:29:40","新北市淡水區中正路二段211號","121.426205","25.1891166666667","6501000","淡水區"
"251012","441-VK","2017/12/15 17:29:51","新北市淡水區北新路180號","121.449078333333","25.1786133333333","6501000","淡水區"
"251005","443-VK","2017/12/15 17:29:49","新北市淡水區鄧公路31巷7號","121.451608333333","25.1707816666667","6501000","淡水區"
"251006","561-UM","2017/12/15 17:29:52","新北市淡水區大仁街45號","121.442651666667","25.1758033333333","6501000","淡水區"
"251009","575-R6","2017/12/15 17:29:57","新北市淡水區中正路232號","121.438988333333","25.1708483333333","6501000","淡水區"
"251007","577-R6","2017/12/15 17:29:57","新北市淡水區民生路70號","121.46247","25.1381066666667","6501000","淡水區"
"251011","650-BX","2017/12/15 17:29:51","新北市淡水區坪頂路718號","121.482595","25.15851","6501000","淡水區"
"251002","672-BX","2017/12/15 17:29:51","新北市淡水區中正路32巷2號","121.430773333333","25.1752033333333","6501000","淡水區"
"251003","673-BX","2017/12/15 17:29:45","新北市淡水區中山路159-1號","121.440775","25.1729916666667","6501000","淡水區"
"207003","550-UM","2017/12/15 17:29:45","新北市萬里區龜吼里翡翠路17號","121.683385","25.18721","6502800","萬里區"
"207004","225-TW","2017/12/15 17:29:40","新北市萬里區萬里里景美路11號","121.685006666667","25.1731416666667","6502800","萬里區"
"252002","178-VK","2017/12/15 17:29:39","新北市三芝區忠孝街1-14號","121.505435","25.2539066666667","6502100","三芝區"
"252001","292-VK","2017/12/15 17:29:35","新北市三芝區長安街119號","121.498078333333","25.25965","6502100","三芝區"
"237011","572-TV","2017/12/15 13:12:55","新北市三峽區中山路459巷163-3號","121.348773333333","24.93293","6500900","三峽區"
"237015","649-BX","2017/12/15 17:27:42","新北市三峽區中山路459巷137號","121.349986666667","24.93362","6500900","三峽區"
"242029","986-R7","2017/12/15 17:29:08","新北市新莊區化成路45號","121.464995","25.044695","6500500","新莊區"
"242050","751-BX","2017/12/15 17:29:38","新北市新莊區瓊林南路75-2號","121.434818333333","25.014265","6500500","新莊區"
"242025","615-BX","2017/12/15 17:29:52","新北市新莊區中港路270號","121.453296666667","25.0440133333333","6500500","新莊區"
"242023","613-BX","2017/12/15 17:29:55","新北市新莊區公園路41號","121.453196666667","25.0402133333333","6500500","新莊區"
"242027","612-BX","2017/12/15 17:29:48","新北市新莊區思源路289號","121.4599","25.0483466666667","6500500","新莊區"
"242044","497-BY","2017/12/15 17:29:42","新北市新莊區富國路80號","121.42014","25.0259333333333","6500500","新莊區"
"242032","442-UM","2017/12/15 17:29:54","新北市新莊區新泰路413巷20號","121.442581666667","25.0444633333333","6500500","新莊區"
"242048","441-UM","2017/12/15 17:29:46","新北市新莊區四維路210號","121.421488333333","25.0200933333333","6500500","新莊區"
"242054","440-UM","2017/12/15 17:29:39","新北市新莊區瓊林南路305巷25號","121.435513333333","25.0050483333333","6500500","新莊區"
"242034","415-TV","2017/12/15 17:29:55","新北市新莊區新莊路382號","121.449115","25.033475","6500500","新莊區"
"242005","413-TV","2017/12/15 17:29:54","新北市新莊區中港路282號","121.45299","25.0441183333333","6500500","新莊區"
"242041","400-BY","2017/12/15 17:29:38","新北市新莊區建國一路78號","121.434296666667","25.0303833333333","6500500","新莊區"
"242060","362-BY","2017/12/15 17:29:39","新北市新莊區瓊林南路23號","121.437055","25.019725","6500500","新莊區"
"242058","353-BY","2017/12/15 17:29:50","新北市新莊區中正路530號","121.430975","25.0315983333333","6500500","新莊區"
"242007","132-UY","2017/12/15 17:29:54","新北市新莊區自強街24號","121.454795","25.04609","6500500","新莊區"
"242037","133-UY","2017/12/15 17:29:51","新北市新莊區建國一路165號","121.435038333333","25.0248566666667","6500500","新莊區"
"242021","135-UY","2017/12/15 17:29:48","新北市新莊區中華路一段10號","121.452023333333","25.0370266666667","6500500","新莊區"
"242046","172-VK","2017/12/15 17:29:40","新北市新莊區新樹路65-5號","121.43945","25.0307883333333","6500500","新莊區"
"242009","173-VK","2017/12/15 17:29:40","新北市新莊區中原路187號","121.452853333333","25.0544066666667","6500500","新莊區"
"242015","175-VK","2017/12/15 17:29:53","新北市新莊區新泰路195號","121.44719","25.03789","6500500","新莊區"
"242002","176-VK","2017/12/15 17:29:37","新北市新莊區新莊路154號","121.455251666667","25.0355083333333","6500500","新莊區"
"242013","346-TH","2017/12/15 17:29:39","新北市新莊區中誠街16巷3號","121.4519","25.04842","6500500","新莊區"
"242039","347-TH","2017/12/15 17:29:55","新北市新莊區民安東路10號","121.428055","25.02091","6500500","新莊區"
"242019","348-TH","2017/12/15 17:29:48","新北市新莊區中港路77號","121.455406666667","25.0389133333333","6500500","新莊區"
"242056","349-TH","2017/12/15 17:29:54","新北市新莊區新泰路14號","121.449685","25.0330016666667","6500500","新莊區"
"242017","350-TH","2017/12/15 17:29:50","新北市新莊區復興路一段189號","121.451735","25.043535","6500500","新莊區"
"242011","351-TH","2017/12/15 17:29:52","新北市新莊區中港路400號","121.452281666667","25.04986","6500500","新莊區"
"238015","755-BX","2017/12/15 17:29:48","新北市樹林區大安路267號","121.41904","24.99371","6500700","樹林區"
"238023","601-UM","2017/12/15 17:29:46","新北市樹林區中正路439-1號","121.415176666667","25.0088333333333","6500700","樹林區"
"238019","599-UM","2017/12/15 17:29:48","新北市樹林區太平路45號","121.419155","24.9829116666667","6500700","樹林區"
"238018","571-TV","2017/12/15 17:29:48","新北市樹林區太平路1-5號","121.418713333333","24.9847616666667","6500700","樹林區"
"238024","5061-A6","2017/12/15 17:29:46","新北市樹林區鎮前街132號","121.424733333333","24.9905683333333","6500700","樹林區"
"238021","KEA-2217","2017/12/15 17:29:47","新北市樹林區西圳街一段26號","121.40238","24.9613033333333","6500700","樹林區"
"238022","KEA-2213","2017/12/15 17:29:41","新北市樹林區信義街12號","121.42262","24.9818666666667","6500700","樹林區"
"238025","303-VK","2017/12/15 17:29:46","新北市樹林區保安街一段223號","121.420391666667","24.9963883333333","6500700","樹林區"
"238017","283-BY","2017/12/15 17:29:53","新北市樹林區光武街32巷2號","121.41617","25.0057233333333","6500700","樹林區"
"238014","282-BY","2017/12/15 17:29:41","新北市樹林區長壽街23-7號","121.420905","24.9948183333333","6500700","樹林區"
"238020","268-VK","2017/12/15 17:29:49","新北市樹林區俊英街102號","121.427585","25.0052166666667","6500700","樹林區"
"238026","172-UY","2017/12/15 17:29:54","新北市樹林區中山路三段41巷6-1號","121.40142","24.97492","6500700","樹林區"
"238016","169-UY","2017/12/15 17:29:55","新北市樹林區長壽街13號","121.423715","24.9932633333333","6500700","樹林區"
"239007","AAC-297","2017/12/15 17:29:53","新北市鶯歌區中山路1號","121.353166666667","24.9570883333333","6500800","鶯歌區"
"239006","891-R6","2017/12/15 17:29:37","新北市鶯歌區鳳鳴路45號","121.333436666667","24.96543","6500800","鶯歌區"
"239008","527-UM","2017/12/15 17:29:39","新北市鶯歌區大湖路580號","121.33623","24.9734983333333","6500800","鶯歌區"
"239005","526-UM","2017/12/15 17:29:43","新北市鶯歌區福隆一街3號","121.325643333333","24.9718183333333","6500800","鶯歌區"
"239001","417-VK","2017/12/15 17:29:52","新北市鶯歌區中正三路101號","121.338223333333","24.9409733333333","6500800","鶯歌區"
"239003","360-BY","2017/12/15 17:29:48","新北市鶯歌區鶯桃路297-1號","121.334658333333","24.96036","6500800","鶯歌區"
"239002","359-BY","2017/12/15 17:29:42","新北市鶯歌區國慶街58號","121.34972","24.955035","6500800","鶯歌區"
"239004","193-VK","2017/12/15 17:29:49","新北市鶯歌區三鶯路29巷34號","121.35356","24.9391833333333","6500800","鶯歌區"
"221010","269-BY","2017/12/15 17:29:45","新北市汐止區汐萬路一段256巷3號","121.652143333333","25.0748483333333","6501100","汐止區"
"221012","276-VK","2017/12/15 13:15:14","新北市汐止區汐萬路一段256巷3號","121.653408333333","25.0746516666667","6501100","汐止區"
"221032","280-BY","2017/12/15 17:29:50","新北市汐止區汐萬路一段256巷1號","121.651953333333","25.0748633333333","6501100","汐止區"
