"lineid","car","time","location","longitude","latitude","cityid","cityname"
"234026","9371-KE","2017/12/15 17:59:55","新北市永和區永和路一段40號","121.513046666667","25.005355","6500400","永和區"
"249005","172-UM","2017/12/15 17:59:37","新北市八里區荖阡坑路22-7號","121.399233333333","25.13607","6502300","八里區"
"249001","173-UM","2017/12/15 17:59:48","新北市八里區龍米路二段36號","121.448486666667","25.1400866666667","6502300","八里區"
"249004","303-UY","2017/12/15 17:59:57","新北市八里區龍米路三段13-1號","121.428426666667","25.15911","6502300","八里區"
"249002","305-UY","2017/12/15 17:59:48","新北市八里區龍米路一段440巷10號","121.451323333333","25.1338383333333","6502300","八里區"
"249003","593-UM","2017/12/15 17:59:47","新北市八里區中華路二段258巷1號","121.404795","25.1500683333333","6502300","八里區"
"248006","077-UY","2017/12/15 17:59:48","新北市五股區中興路二段83巷26-6號","121.45997","25.074995","6501500","五股區"
"248008","095-VK","2017/12/15 17:59:58","新北市五股區更洲路10號","121.458288333333","25.07884","6501500","五股區"
"248018","225-UY","2017/12/15 17:59:45","新北市五股區中興路二段83巷26-6號","121.459923333333","25.0751783333333","6501500","五股區"
"248004","677-BX","2017/12/15 17:59:41","新北市五股區中興路二段83巷26-6號","121.459041666667","25.0752483333333","6501500","五股區"
"232011","375-UM","2017/12/15 17:59:56","新北市坪林區北宜路八段301號","121.710885","24.9342883333333","6502000","坪林區"
"244013","069-UM","2017/12/15 17:59:38","新北市林口區中山路79號","121.390296666667","25.078725","6501700","林口區"
"244007","080-UY","2017/12/15 17:59:46","新北市林口區林口路92-1號","121.388903333333","25.081005","6501700","林口區"
"244019","403-UM","2017/12/15 17:59:42","新北市林口區忠孝路512巷39號","121.371293333333","25.0681183333333","6501700","林口區"
"244023","483-VK","2017/12/15 17:59:56","新北市林口區東湖路93巷102號","121.385491666667","25.07037","6501700","林口區"
"244017","485-VK","2017/12/15 17:59:48","新北市林口區文化二路一段250號","121.370541666667","25.0732833333333","6501700","林口區"
"244009","657-BX","2017/12/15 17:59:55","新北市林口區寶林路37號","121.385906666667","25.08405","6501700","林口區"
"244011","701-TV","2017/12/15 17:59:40","新北市林口區中正路265號","121.390205","25.0776466666667","6501700","林口區"
"244025","837-TS","2017/12/15 17:59:54","新北市林口區忠孝三路71號","121.359746666667","25.0690133333333","6501700","林口區"
"244021","838-TS","2017/12/15 17:59:54","新北市林口區仁愛路一段2-1號","121.397473333333","25.0677933333333","6501700","林口區"
"222003","436-BY","2017/12/15 17:59:48","新北市深坑區炮子崙23號","121.607183333333","24.9908816666667","6501800","深坑區"
"222002","659-BX","2017/12/15 17:59:46","新北市深坑區文化街96號","121.617185","25.00198","6501800","深坑區"
"231046","278-BY","2017/12/15 17:59:54","新北市新店區康雅崙路14號","121.537503333333","24.9264383333333","6500600","新店區"
"241024","065-VK","2017/12/15 17:59:40","新北市三重區大勇街82巷4號","121.479221666667","25.0714583333333","6500200","三重區"
"241016","266-UM","2017/12/15 17:59:42","新北市三重區中正北路23號","121.492448333333","25.0618","6500200","三重區"
"241020","413-TH","2017/12/15 17:59:58","新北市三重區忠孝路二段79號","121.484536666667","25.0702966666667","6500200","三重區"
"241033","AAC-255","2017/12/15 17:59:42","新北市三重區重新路五段623號","121.467895","25.04419","6500200","三重區"
"235064","005-UY","2017/12/15 17:59:36","新北市中和區員山路36巷16-3號","121.485093333333","24.9912866666667","6500300","中和區"
"235046","031-BX","2017/12/15 15:48:59","新北市中和區員山路36巷16-2號","121.485235","24.9916116666667","6500300","中和區"
"235058","151-BY","2017/12/15 17:59:42","新北市中和區錦和路350-1號","121.490221666667","24.99346","6500300","中和區"
"235038","185-VK","2017/12/15 17:59:52","新北市中和區景平路490號","121.504725","24.9936233333333","6500300","中和區"
"235067","255-BX","2017/12/15 17:43:11","新北市中和區和城路一段271巷1號","121.48553","24.99189","6500300","中和區"
"235061","378-QA","2017/12/15 14:47:52","新北市中和區員山路36巷13號","121.484118333333","24.991295","6500300","中和區"
"235050","4979-A6","2017/12/15 17:59:43","新北市中和區員山路36巷13號","121.484368333333","24.9910233333333","6500300","中和區"
"235069","4980-A6","2017/12/15 17:59:45","新北市中和區中正路466號","121.490028333333","24.9941666666667","6500300","中和區"
"235042","551-UM","2017/12/15 17:59:39","新北市中和區錦和路350-1號","121.49027","24.9935516666667","6500300","中和區"
"235062","800-TS","2017/12/15 17:59:43","新北市中和區中正路637巷52弄1號","121.485456666667","24.9934333333333","6500300","中和區"
"235057","801-TS","2017/12/15 17:59:42","新北市中和區員山路36巷16-3號","121.485091666667","24.9913866666667","6500300","中和區"
"235065","911-UM","2017/12/15 17:59:47","新北市中和區連城路469巷66號","121.483446666667","24.9941083333333","6500300","中和區"
"235051","157-BY","2017/12/15 17:59:53","新北市中和區員山路36巷12號","121.483888333333","24.9908583333333","6500300","中和區"
"235037","AAC-213","2017/12/15 17:59:54","新北市中和區中正路637巷52弄1號","121.485511666667","24.993555","6500300","中和區"
"247022","893-R6","2017/12/15 17:56:35","新北市蘆洲區中正路516巷12號","121.462711666667","25.0981533333333","6501400","蘆洲區"
"247012","546-UM","2017/12/15 17:59:38","新北市蘆洲區民族路242號","121.479248333333","25.0883983333333","6501400","蘆洲區"
"247020","500-BY","2017/12/15 17:59:40","新北市蘆洲區民權路121巷16弄1號","121.471205","25.08919","6501400","蘆洲區"
"247002","337-TH","2017/12/15 17:59:42","新北市蘆洲區永平街32巷57弄13號","121.459388333333","25.0929866666667","6501400","蘆洲區"
"247016","057-VK","2017/12/15 17:59:48","新北市蘆洲區中正路185巷57號","121.465415","25.0836616666667","6501400","蘆洲區"
"247024","002-UY","2017/12/15 17:59:48","新北市蘆洲區長興路50巷5號","121.463931666667","25.084125","6501400","蘆洲區"
"247018","001-UY","2017/12/15 17:59:42","新北市蘆洲區復興路266號","121.480296666667","25.089685","6501400","蘆洲區"
"226004","205-ST","2017/12/15 17:59:54","新北市平溪區石底里石筍尖16號","121.732048333333","25.02612","6502400","平溪區"
"228002","663-BX","2017/12/15 17:59:52","新北市貢寮區福隆里桂安街17號","121.964506666667","25.021305","6502600","貢寮區"
"228001","670-TC","2017/12/15 17:59:55","新北市貢寮區真理里新港街26巷49號","121.927763333333","25.0532283333333","6502600","貢寮區"
"228003","828-UM","2017/12/15 17:59:39","新北市貢寮區真理里美艷山街6-2號","121.928806666667","25.06074","6502600","貢寮區"
"224006","676-BX","2017/12/15 17:59:49","新北市瑞芳區傑魚坑路195-1號","121.787925","25.107345","6501200","瑞芳區"
"224002","639-TC","2017/12/15 17:59:50","新北市瑞芳區三爪子坑路32巷2號","121.810363333333","25.10616","6501200","瑞芳區"
"224009","285-BY","2017/12/15 17:59:50","新北市瑞芳區山尖路111號","121.853538333333","25.1134466666667","6501200","瑞芳區"
"224008","275-VK","2017/12/15 17:59:48","新北市瑞芳區明燈路一段45巷93號","121.82202","25.1043566666667","6501200","瑞芳區"
"224007","273-VK","2017/12/15 17:59:52","新北市瑞芳區大寮路84號","121.781513333333","25.0998116666667","6501200","瑞芳區"
"224005","271-BY","2017/12/15 17:59:39","新北市瑞芳區深澳路145號","121.820301666667","25.1333483333333","6501200","瑞芳區"
"253005","032-BX","2017/12/15 17:59:40","新北市石門區中山路62-11號","121.56752","25.2896833333333","6502200","石門區"
"253006","295-VK","2017/12/15 17:59:40","新北市石門區大丘田45-2號","121.549825","25.274825","6502200","石門區"
"222001","KEA-2212","2017/12/15 17:59:44","新北市深坑區北深路二段191號","121.612125","25.0010233333333","6501800","深坑區"
"208002","742-BX","2017/12/15 17:59:58","新北市金山區三界壇路55號","121.627191666667","25.22805","6502700","金山區"
"208003","665-BX","2017/12/15 17:59:44","新北市金山區磺港里磺港路314號","121.64463","25.2277483333333","6502700","金山區"
"208001","761-BX","2017/12/15 17:59:53","新北市金山區磺港里磺港路247號","121.64367","25.2249616666667","6502700","金山區"
"251004","009-UM","2017/12/15 17:51:28","新北市淡水區民權一街4號","121.459306666667","25.1373016666667","6501000","淡水區"
"251001","011-UM","2017/12/15 17:59:53","新北市淡水區民權路16號","121.463288333333","25.1243816666667","6501000","淡水區"
"251013","180-VK","2017/12/15 17:59:35","新北市淡水區泉洲厝31號","121.479581666667","25.1910516666667","6501000","淡水區"
"251008","181-VK","2017/12/15 17:59:42","新北市淡水區八勢一街32巷1號","121.461911666667","25.1555966666667","6501000","淡水區"
"251015","182-VK","2017/12/15 17:59:47","新北市淡水區興福寮88巷1號","121.485621666667","25.1651016666667","6501000","淡水區"
"251010","413-VK","2017/12/15 17:59:40","新北市淡水區淡海路53號","121.423215","25.1803516666667","6501000","淡水區"
"251012","441-VK","2017/12/15 17:59:51","新北市淡水區北新路三段38巷7號","121.484531666667","25.1870066666667","6501000","淡水區"
"251005","443-VK","2017/12/15 17:59:49","新北市淡水區英專路111號","121.445785","25.1722733333333","6501000","淡水區"
"251006","561-UM","2017/12/15 17:59:52","新北市淡水區真理街2號","121.438866666667","25.173095","6501000","淡水區"
"251009","575-R6","2017/12/15 17:59:44","新北市淡水區大仁街1號","121.441935","25.1747333333333","6501000","淡水區"
"251007","577-R6","2017/12/15 17:59:37","新北市淡水區中正東路二段145號","121.459583333333","25.1475616666667","6501000","淡水區"
"251011","650-BX","2017/12/15 17:59:51","新北市淡水區三空泉7-1號","121.476543333333","25.1624583333333","6501000","淡水區"
"251002","672-BX","2017/12/15 17:59:51","新北市淡水區中正東路79號","121.447643333333","25.167305","6501000","淡水區"
"251003","673-BX","2017/12/15 17:59:45","新北市淡水區大忠街113巷29號","121.447465","25.17749","6501000","淡水區"
"207003","550-UM","2017/12/15 17:59:45","新北市萬里區港東路野柳風景區攤販68號","121.691233333333","25.2057916666667","6502800","萬里區"
"207004","225-TW","2017/12/15 17:59:40","新北市萬里區中幅里中福路48號","121.683328333333","25.1740516666667","6502800","萬里區"
"252002","178-VK","2017/12/15 17:59:39","新北市三芝區中山路二段35號","121.502806666667","25.2551533333333","6502100","三芝區"
"252001","292-VK","2017/12/15 17:59:55","新北市三芝區中興街一段32號","121.49781","25.2576883333333","6502100","三芝區"
"237004","078-UY","2017/12/15 17:59:51","新北市三峽區中正路二段154號","121.366153333333","24.91627","6500900","三峽區"
"237007","153-BY","2017/12/15 17:59:54","新北市三峽區中正路二段66號","121.366565","24.9182966666667","6500900","三峽區"
"237009","210-TH","2017/12/15 17:59:37","新北市三峽區中山路106巷45號","121.365973333333","24.936875","6500900","三峽區"
"237013","252-BX","2017/12/15 17:59:47","新北市三峽區介壽路一段71-1號","121.37578","24.9324083333333","6500900","三峽區"
"237012","275-BY","2017/12/15 17:59:51","新北市三峽區民生街27巷1號","121.37601","24.9362283333333","6500900","三峽區"
"237008","302-VK","2017/12/15 17:59:41","新北市三峽區正義街191號","121.368088333333","24.9145183333333","6500900","三峽區"
"237014","433-BY","2017/12/15 17:59:50","新北市三峽區和平街36巷7弄4號","121.370926666667","24.9372966666667","6500900","三峽區"
"237006","5529-G3","2017/12/15 17:59:53","新北市三峽區介壽路二段136巷120弄2-1號","121.392346666667","24.9322666666667","6500900","三峽區"
"237011","572-TV","2017/12/15 17:59:18","新北市三峽區大同路2-1號","121.378395","24.930075","6500900","三峽區"
"237015","649-BX","2017/12/15 17:55:42","新北市三峽區白雞149-2號","121.400476666667","24.9058483333333","6500900","三峽區"
"237010","706-TV","2017/12/15 17:33:38","新北市三峽區中山路321-2號","121.360785","24.9380733333333","6500900","三峽區"
"237005","AKY-6261","2017/12/15 17:59:52","新北市三峽區復興路179-3號","121.369231666667","24.93873","6500900","三峽區"
"236072","105-UM","2017/12/15 17:59:53","新北市土城區城林路6巷80號","121.438411666667","24.9796916666667","6501300","土城區"
"236043","107-UM","2017/12/15 17:59:57","新北市土城區城林路6巷80號","121.438528333333","24.979745","6501300","土城區"
"236079","166-UM","2017/12/14 19:24:05","新北市土城區中央路四段295號","121.411261666667","24.9522833333333","6501300","土城區"
"236031","253-BX","2017/12/15 17:59:56","新北市土城區城林路6巷80號","121.438641666667","24.9797633333333","6501300","土城區"
"236027","269-VK","2017/12/15 17:59:44","新北市土城區承天路1號","121.435888333333","24.9665866666667","6501300","土城區"
"236015","270-VK","2017/12/15 17:59:51","新北市土城區城林路6巷80號","121.438548333333","24.9795883333333","6501300","土城區"
"236039","271-VK","2017/12/15 17:59:52","新北市土城區城林路6巷80號","121.438443333333","24.97957","6501300","土城區"
"236022","401-BY","2017/12/15 17:59:51","新北市土城區城林路6巷80號","121.438531666667","24.97964","6501300","土城區"
"236059","912-UM","2017/12/15 17:59:49","新北市土城區中華路二段198號","121.437566666667","24.9699583333333","6501300","土城區"
"236050","913-UM","2017/12/15 17:59:44","新北市土城區城林路6巷80號","121.438181666667","24.9797433333333","6501300","土城區"
"236063","915-UM","2017/12/15 17:59:55","新北市土城區員福街30號","121.441231666667","24.9787416666667","6501300","土城區"
"236055","AAC-216","2017/12/15 17:59:37","新北市土城區中央路二段278巷11-2號","121.439763333333","24.9749816666667","6501300","土城區"
"242029","986-R7","2017/12/15 17:59:46","新北市新莊區復興路一段101號","121.449045","25.0428366666667","6500500","新莊區"
"242050","751-BX","2017/12/15 17:59:38","新北市新莊區龍安路500號","121.426663333333","25.0171133333333","6500500","新莊區"
"242025","615-BX","2017/12/15 17:59:52","新北市新莊區五工路58號","121.458813333333","25.06287","6500500","新莊區"
"242023","613-BX","2017/12/15 17:59:55","新北市新莊區福壽街63號","121.458175","25.049235","6500500","新莊區"
"242027","612-BX","2017/12/15 17:59:53","新北市新莊區思源路373號","121.459681666667","25.0510283333333","6500500","新莊區"
"242044","497-BY","2017/12/15 17:59:42","新北市新莊區雙鳳路119號","121.413463333333","25.027995","6500500","新莊區"
"242032","442-UM","2017/12/15 17:59:57","新北市新莊區新泰路305巷1號","121.445143333333","25.040975","6500500","新莊區"
"242048","441-UM","2017/12/15 17:59:46","新北市新莊區萬安街55號","121.421456666667","25.024445","6500500","新莊區"
"242054","440-UM","2017/12/15 17:59:39","新北市新莊區民安西路327巷4弄19號","121.428708333333","25.0112016666667","6500500","新莊區"
"242034","415-TV","2017/12/15 17:59:55","新北市新莊區福海街22號","121.445241666667","25.0339383333333","6500500","新莊區"
"242005","413-TV","2017/12/15 17:59:53","新北市新莊區福樂街72巷14號","121.458661666667","25.0465466666667","6500500","新莊區"
"242041","400-BY","2017/12/15 17:59:58","新北市新莊區壽山路5號","121.420721666667","25.0289416666667","6500500","新莊區"
"242060","362-BY","2017/12/15 17:59:48","新北市新莊區新樹路295-5號","121.433661666667","25.0198083333333","6500500","新莊區"
"242058","353-BY","2017/12/15 17:59:50","新北市新莊區新北大道七段239號","121.41301","25.0296783333333","6500500","新莊區"
"242007","132-UY","2017/12/15 17:59:54","新北市新莊區自信街59號","121.455143333333","25.0482466666667","6500500","新莊區"
"242037","133-UY","2017/12/15 17:59:51","新北市新莊區建福路61號","121.426805","25.027195","6500500","新莊區"
"242021","135-UY","2017/12/15 17:59:56","新北市新莊區建興街12號","121.450146666667","25.036695","6500500","新莊區"
"242046","172-VK","2017/12/15 17:59:40","新北市新莊區福營路165巷2-1號","121.431965","25.030975","6500500","新莊區"
"242009","173-VK","2017/12/15 17:59:40","新北市新莊區中華路二段294號","121.452468333333","25.0538816666667","6500500","新莊區"
"242015","175-VK","2017/12/15 17:59:53","新北市新莊區中平路87巷3號","121.444356666667","25.0457566666667","6500500","新莊區"
"242002","176-VK","2017/12/15 17:59:58","新北市新莊區中正路149號","121.456435","25.0367533333333","6500500","新莊區"
"242013","346-TH","2017/12/15 17:59:38","新北市新莊區中和街125巷3號","121.447131666667","25.0485733333333","6500500","新莊區"
"242039","347-TH","2017/12/15 17:59:55","新北市新莊區民安西路88巷12弄19號","121.425948333333","25.0204866666667","6500500","新莊區"
"242019","348-TH","2017/12/15 17:59:49","新北市新莊區明中街43巷12號","121.457166666667","25.0386733333333","6500500","新莊區"
"242056","349-TH","2017/12/15 17:59:54","新北市新莊區豐年街55-15號","121.446491666667","25.0304783333333","6500500","新莊區"
"242017","350-TH","2017/12/15 17:59:50","新北市新莊區中港路341號","121.452055","25.045345","6500500","新莊區"
"242011","351-TH","2017/12/15 17:59:52","新北市新莊區中榮街56巷8弄2號","121.449273333333","25.0533866666667","6500500","新莊區"
"238015","755-BX","2017/12/15 17:59:48","新北市樹林區啟智街80巷8號","121.419016666667","24.9923683333333","6500700","樹林區"
"238023","601-UM","2017/12/15 17:59:49","新北市樹林區龍興街32巷3號","121.402736666667","25.0156783333333","6500700","樹林區"
"238019","599-UM","2017/12/15 17:59:48","新北市樹林區中華路63號","121.42325","24.983245","6500700","樹林區"
"238018","571-TV","2017/12/15 17:59:45","新北市樹林區博愛街145號","121.425666666667","24.9903866666667","6500700","樹林區"
"238021","KEA-2217","2017/12/15 17:59:47","新北市樹林區柑園街一段23-7號","121.404343333333","24.9603033333333","6500700","樹林區"
"238022","KEA-2213","2017/12/15 17:59:37","新北市樹林區太順街86巷25號","121.416405","24.9781466666667","6500700","樹林區"
"238025","303-VK","2017/12/15 17:59:46","新北市樹林區俊興街174號","121.417313333333","25.0133466666667","6500700","樹林區"
"238017","283-BY","2017/12/15 17:59:53","新北市樹林區三俊街81巷2號","121.415758333333","25.01542","6500700","樹林區"
"238014","282-BY","2017/12/15 17:59:51","新北市樹林區大安路37-1號","121.424223333333","24.99965","6500700","樹林區"
"238020","268-VK","2017/12/15 17:59:28","新北市樹林區三俊街193號","121.419925","25.0155616666667","6500700","樹林區"
"238026","172-UY","2017/12/15 17:59:54","新北市樹林區中山路三段147-5號","121.396151666667","24.973125","6500700","樹林區"
"238016","169-UY","2017/12/15 17:59:43","新北市樹林區啟智街172號","121.4148","24.9869033333333","6500700","樹林區"
"239007","AAC-297","2017/12/15 17:59:53","新北市鶯歌區鶯桃路94巷59弄35號","121.341923333333","24.95502","6500800","鶯歌區"
"239006","891-R6","2017/12/15 17:59:26","新北市鶯歌區鶯桃路413巷34弄6號","121.33106","24.9636466666667","6500800","鶯歌區"
"239008","527-UM","2017/12/15 17:59:55","新北市鶯歌區國際一路108巷2號","121.335098333333","24.9772866666667","6500800","鶯歌區"
"239005","526-UM","2017/12/15 17:59:43","新北市鶯歌區大湖路361巷81-1號","121.333063333333","24.9739166666667","6500800","鶯歌區"
"239001","417-VK","2017/12/15 17:59:52","新北市鶯歌區中正三路171號","121.336165","24.939815","6500800","鶯歌區"
"239003","360-BY","2017/12/15 17:59:48","新北市鶯歌區鶯桃路284號","121.33517","24.9601883333333","6500800","鶯歌區"
"239002","359-BY","2017/12/15 17:59:42","新北市鶯歌區中山路249巷8弄10號","121.346803333333","24.9563366666667","6500800","鶯歌區"
"239004","193-VK","2017/12/15 17:59:49","新北市鶯歌區尖山路103-7號","121.348078333333","24.9487533333333","6500800","鶯歌區"
"221008","489-VK","2017/12/15 17:59:41","新北市汐止區明峰街15-1號","121.634756666667","25.07146","6501100","汐止區"
"221036","130-UY","2017/12/15 17:59:52","新北市汐止區大同路三段40號","121.667136666667","25.076645","6501100","汐止區"
"221010","269-BY","2017/12/15 17:59:45","新北市汐止區汐萬路二段245巷40號","121.644366666667","25.0879183333333","6501100","汐止區"
"221012","276-VK","2017/12/15 13:15:14","新北市汐止區汐萬路一段256巷3號","121.653408333333","25.0746516666667","6501100","汐止區"
"221012","278-VK","2017/12/15 17:59:46","新北市汐止區長興街二段32號","121.673338333333","25.0814733333333","6501100","汐止區"
"221023","279-VK","2017/12/15 17:59:56","新北市汐止區民族五街46-1號","121.628923333333","25.0709766666667","6501100","汐止區"
"221032","280-BY","2017/12/15 17:59:50","新北市汐止區橫科路73巷2-1號","121.61943","25.0508083333333","6501100","汐止區"
"221027","281-BY","2017/12/15 17:59:55","新北市汐止區大同路二段380號","121.658015","25.067125","6501100","汐止區"
"221029","298-VK","2017/12/15 17:59:52","新北市汐止區樟樹二路332號","121.64153","25.070335","6501100","汐止區"
"221021","299-VK","2017/12/15 17:59:41","新北市汐止區復興路24號","121.65585","25.06377","6501100","汐止區"
"221031","353-TW","2017/12/15 17:59:52","新北市汐止區中興路152-3號","121.63231","25.06486","6501100","汐止區"
"221015","567-BX","2017/12/15 17:59:55","新北市汐止區長江街286號","121.665136666667","25.0808683333333","6501100","汐止區"
"221035","622-UM","2017/12/15 17:59:41","新北市汐止區汐萬路一段115巷32號","121.653575","25.07035","6501100","汐止區"
"221025","623-UM","2017/12/15 17:59:53","新北市汐止區仁愛路47號","121.659683333333","25.0632366666667","6501100","汐止區"
"221038","646-BX","2017/12/15 17:59:54","新北市汐止區連興街128巷3號","121.653645","25.0616866666667","6501100","汐止區"
"221033","647-BX","2017/12/15 17:59:47","新北市汐止區合順街39巷1號","121.62059","25.0432816666667","6501100","汐止區"
"221002","707-TV","2017/12/15 17:59:43","新北市汐止區工建路159號","121.63762","25.0632316666667","6501100","汐止區"
"221018","753-BX","2017/12/15 17:59:42","新北市汐止區招商街11巷2號","121.666626666667","25.068615","6501100","汐止區"
