"lineid","car","time","location","longitude","latitude","cityid","cityname"
"234046","148-BY","2017/12/15 18:49:47","新北市永和區秀朗路二段149號","121.52483","25.001595","6500400","永和區"
"234013","149-BY","2017/12/15 18:49:52","新北市永和區保福路二段133巷34號","121.508813333333","25.0133733333333","6500400","永和區"
"234007","207-UY","2017/12/15 18:49:49","新北市永和區文化路9號","121.51524","25.01498","6500400","永和區"
"234081","298-R6","2017/12/15 18:49:45","新北市永和區永亨路98號","121.52304","25.0046866666667","6500400","永和區"
"234038","336-UY","2017/12/15 18:49:56","新北市永和區成功路一段133號","121.526858333333","25.0016933333333","6500400","永和區"
"234064","337-UY","2017/12/15 18:49:43","新北市永和區環河東路二段92號","121.524416666667","25.0106083333333","6500400","永和區"
"234086","338-UY","2017/12/15 18:49:41","新北市永和區中正路71號","121.514998333333","24.9967383333333","6500400","永和區"
"234070","552-UM","2017/12/15 18:49:43","新北市永和區豫溪街169巷2-1號","121.521978333333","25.0103883333333","6500400","永和區"
"234054","553-UM","2017/12/15 18:49:58","新北市永和區福和路1號","121.52628","25.009445","6500400","永和區"
"234017","745-BX","2017/12/15 18:49:39","新北市永和區永和路二段297號","121.516015","25.0160433333333","6500400","永和區"
"234030","746-BX","2017/12/15 18:49:50","新北市永和區得和路354號","121.523868333333","24.9994316666667","6500400","永和區"
"234061","AAD-866","2017/12/15 18:49:54","新北市永和區福和路311號","121.516131666667","25.0070833333333","6500400","永和區"
"234042","862-TW","2017/12/15 18:49:57","新北市永和區永貞路308號","121.511875","25.00488","6500400","永和區"
"234050","863-TW","2017/12/15 18:49:48","新北市永和區保安路2號","121.510873333333","25.0174583333333","6500400","永和區"
"234026","9371-KE","2017/12/15 18:49:55","新北市永和區自由街47號","121.513963333333","25.0060116666667","6500400","永和區"
"234011","9373-KE","2017/12/15 18:49:47","新北市永和區文化路113巷9號","121.512971666667","25.0146933333333","6500400","永和區"
"249005","172-UM","2017/12/15 18:49:58","新北市八里區長道坑16-2號","121.395135","25.1170633333333","6502300","八里區"
"249001","173-UM","2017/12/15 18:49:48","新北市八里區龍米路二段71號","121.44799","25.1413716666667","6502300","八里區"
"249003","593-UM","2017/12/15 18:31:27","新北市八里區博物館路10-1號","121.414983333333","25.1640033333333","6502300","八里區"
"248014","025-BX","2017/12/15 18:49:46","新北市五股區民義路一段101-3號","121.434138333333","25.086295","6501500","五股區"
"248016","026-BX","2017/12/15 18:49:40","新北市五股區凌雲路一段83巷44號","121.449066666667","25.1013166666667","6501500","五股區"
"248006","077-UY","2017/12/15 18:49:47","新北市五股區中興路一段171巷63號","121.465595","25.07055","6501500","五股區"
"248008","095-VK","2017/12/15 18:49:38","新北市五股區中興路一段151巷1弄2號","121.465016666667","25.0729116666667","6501500","五股區"
"248018","225-UY","2017/12/15 18:49:45","新北市五股區民義路二段48巷1-6號","121.413991666667","25.102485","6501500","五股區"
"248012","247-BX","2017/12/15 18:49:40","新北市五股區成泰路二段147巷5-17號","121.437088333333","25.0883983333333","6501500","五股區"
"248004","677-BX","2017/12/15 18:49:41","新北市五股區民義路二段41號","121.413911666667","25.10142","6501500","五股區"
"248002","678-BX","2017/12/15 18:49:52","新北市五股區成泰路三段456-1號","121.45148","25.1004083333333","6501500","五股區"
"248010","682-TV","2017/12/15 18:49:48","新北市五股區水碓五路128號","121.430953333333","25.0727033333333","6501500","五股區"
"234023","9380-KE","2017/12/15 18:49:43","新北市永和區竹林路119巷27號","121.521125","25.011785","6500400","永和區"
"234077","969-R7","2017/12/15 18:49:51","新北市永和區中正路42巷6弄1號","121.51326","24.9941066666667","6500400","永和區"
"234074","AAC-211","2017/12/15 18:49:46","新北市永和區福和路1號","121.526231666667","25.0097933333333","6500400","永和區"
"234067","AAC-212","2017/12/15 18:49:40","新北市永和區永和路一段22號","121.512985","25.0048466666667","6500400","永和區"
"234003","AAC-295","2017/12/15 18:49:51","新北市永和區中正路657號","121.514875","25.0101866666667","6500400","永和區"
"232011","375-UM","2017/12/15 18:23:05","新北市坪林區坪雙路一段43號","121.711758333333","24.9424566666667","6502000","坪林區"
"244013","069-UM","2017/12/15 18:49:38","新北市林口區文化一路一段133號","121.373693333333","25.0717966666667","6501700","林口區"
"244007","080-UY","2017/12/15 18:49:46","新北市林口區太平里25-5號","121.376873333333","25.117145","6501700","林口區"
"244019","403-UM","2017/12/15 18:49:42","新北市林口區忠孝路606號","121.376498333333","25.0683566666667","6501700","林口區"
"244023","483-VK","2017/12/15 18:49:36","新北市林口區文化三路二段211巷85號","121.375055","25.0841033333333","6501700","林口區"
"244017","485-VK","2017/12/15 18:49:44","新北市林口區文化二路一段160號","121.368491666667","25.07161","6501700","林口區"
"244009","657-BX","2017/12/15 18:49:55","新北市林口區竹林路326巷1號","121.391091666667","25.082715","6501700","林口區"
"244011","701-TV","2017/12/15 18:49:40","新北市林口區粉寮路一段52號","121.396558333333","25.0770483333333","6501700","林口區"
"244025","837-TS","2017/12/15 18:49:54","新北市林口區忠孝一路162號","121.359388333333","25.07393","6501700","林口區"
"243012","AAD-798","2017/12/15 18:49:48","新北市泰山區福興三街13號","121.434428333333","25.0577966666667","6501600","泰山區"
"243015","380-SR","2017/12/15 18:49:52","新北市泰山區美寧街58號","121.43047","25.0647533333333","6501600","泰山區"
"243014","421-VK","2017/12/15 18:49:41","新北市泰山區犁頭窠3-1號","121.422225","25.0605916666667","6501600","泰山區"
"243010","KEA-2215","2017/12/15 18:49:44","新北市泰山區泰林路二段318號","121.430375","25.06297","6501600","泰山區"
"243013","646-TV","2017/12/15 18:39:05","新北市泰山區明志路三段206巷3號","121.423258333333","25.037905","6501600","泰山區"
"243016","680-BX","2017/12/15 18:49:46","新北市泰山區明志路一段247號","121.4323","25.0605716666667","6501600","泰山區"
"222003","436-BY","2017/12/15 18:49:50","新北市深坑區深南路49號","121.621246666667","25.0093583333333","6501800","深坑區"
"222002","659-BX","2017/12/15 18:49:46","新北市深坑區文山路一段69號","121.626931666667","25.001885","6501800","深坑區"
"231055","0291-UT","2017/12/15 18:49:45","新北市新店區中華路47巷2弄1號","121.539656666667","24.967505","6500600","新店區"
"231059","046-UY","2017/12/15 18:49:41","新北市新店區安華路28-1號","121.519565","24.96086","6500600","新店區"
"231061","047-UY","2017/12/15 18:49:46","新北市新店區安華路28-1號","121.519095","24.96098","6500600","新店區"
"231060","106-UY","2017/12/15 18:49:36","新北市新店區安華路28-1號","121.519635","24.9607533333333","6500600","新店區"
"231051","107-UY","2017/12/15 18:49:46","新北市新店區中央路75號","121.53234","24.9767016666667","6500600","新店區"
"231048","108-UY","2017/12/15 18:49:45","新北市新店區德正街19巷1號","121.543748333333","24.972565","6500600","新店區"
"231053","187-VK","2017/12/15 18:49:53","新北市新店區新烏路一段140-1號","121.54628","24.9322733333333","6500600","新店區"
"231050","KEA-2219","2017/12/15 18:49:36","新北市新店區安康路一段241號","121.524971666667","24.9632416666667","6500600","新店區"
"231046","278-BY","2017/12/15 18:49:54","新北市新店區直潭路71號","121.532433333333","24.9422","6500600","新店區"
"231054","AAD-862","2017/12/15 18:49:38","新北市新店區北新路一段41號","121.538066666667","24.9592533333333","6500600","新店區"
"231058","3712-VJ","2017/12/15 18:49:56","新北市新店區中興路一段185號","121.543146666667","24.964925","6500600","新店區"
"231056","3713-VJ","2017/12/15 18:49:55","新北市新店區大豐路66號","121.539248333333","24.9795533333333","6500600","新店區"
"231067","4772-VM","2017/12/15 18:49:38","新北市新店區安康路一段104號","121.527276666667","24.9625283333333","6500600","新店區"
"231065","512-UM","2017/12/15 18:49:54","新北市新店區安忠路205巷8號","121.510055","24.955375","6500600","新店區"
"231064","515-UM","2017/12/15 18:49:45","新北市新店區安華路28-1號","121.519715","24.9612066666667","6500600","新店區"
"231042","616-UM","2017/12/15 18:49:47","新北市新店區中正路69號","121.543581666667","24.96995","6500600","新店區"
"231045","617-UM","2017/12/15 18:49:44","新北市新店區安康路一段221號","121.525806666667","24.963055","6500600","新店區"
"231041","618-UM","2017/12/15 18:49:38","新北市新店區安華路28-1號","121.519173333333","24.9609733333333","6500600","新店區"
"231040","619-UM","2017/12/15 18:49:46","新北市新店區中央路183-1號","121.536111666667","24.9688216666667","6500600","新店區"
"231063","645-TV","2017/12/15 18:49:51","新北市新店區安華路30巷1號","121.51932","24.9595633333333","6500600","新店區"
"231049","719-UM","2017/12/15 18:49:53","新北市新店區中正路454-5號","121.534473333333","24.9790283333333","6500600","新店區"
"231062","720-UM","2017/12/15 18:49:38","新北市新店區安忠路205巷8號","121.510136666667","24.955465","6500600","新店區"
"231044","897-TW","2017/12/15 18:49:47","新北市新店區寶中路72號","121.547811666667","24.9805833333333","6500600","新店區"
"231043","899-TW","2017/12/15 18:49:42","新北市新店區安康路一段116號","121.527043333333","24.9626033333333","6500600","新店區"
"231066","AKT-0513","2017/12/15 18:49:54","新北市新店區安豐路22巷3-1號","121.502211666667","24.9556833333333","6500600","新店區"
"235066","003-UY","2017/12/15 18:49:38","新北市中和區廣福路56巷2弄2號","121.503633333333","25.00215","6500300","中和區"
"235064","005-UY","2017/12/15 18:49:56","新北市中和區連城路103號","121.496306666667","24.9995833333333","6500300","中和區"
"235063","006-UY","2017/12/15 18:49:42","新北市中和區連城路305號","121.489616666667","24.996275","6500300","中和區"
"235046","031-BX","2017/12/15 18:49:47","新北市中和區仁愛街36巷28號","121.511038333333","24.9870016666667","6500300","中和區"
"235056","096-UM","2017/12/15 18:49:22","新北市中和區員山路611巷5弄3號","121.478028333333","25.0112366666667","6500300","中和區"
"235039","097-UM","2017/12/15 18:49:54","新北市永和區中正路47號","121.51434","24.9963716666667","6500300","中和區"
"235040","150-BY","2017/12/15 18:49:43","新北市中和區保健路74號","121.511563333333","24.9964233333333","6500300","中和區"
"235058","151-BY","2017/12/15 18:49:42","新北市中和區連城路532巷34弄18號","121.47527","24.99277","6500300","中和區"
"235055","183-VK","2017/12/15 18:49:43","新北市板橋區國泰街75巷53號","121.46871","25.0050266666667","6500300","中和區"
"235038","185-VK","2017/12/15 18:49:52","新北市中和區大勇街45巷1號","121.518041666667","24.9947116666667","6500300","中和區"
"235049","186-VK","2017/12/15 18:49:48","新北市中和區景安路132巷16號","121.504343333333","24.9942683333333","6500300","中和區"
"235067","255-BX","2017/12/15 18:49:40","新北市中和區中山路二段475號","121.48326","25.0049583333333","6500300","中和區"
"235044","293-VK","2017/12/15 18:49:36","新北市中和區中興街169號","121.499955","24.990575","6500300","中和區"
"235072","301-VK","2017/12/15 18:49:56","新北市中和區中山路二段181號","121.50099","25.0026816666667","6500300","中和區"
"235043","352-BY","2017/12/15 18:49:47","新北市中和區成功路139號","121.52587","24.99021","6500300","中和區"
"235068","377-QA","2017/12/15 18:49:55","新北市中和區中正路167巷15號","121.498405","24.9929566666667","6500300","中和區"
"235061","378-QA","2017/12/15 18:49:44","新北市中和區民享街54巷16弄1號","121.473198333333","25.00266","6500300","中和區"
"235071","269-TV","2017/12/15 18:49:55","新北市中和區員山路36巷16-2號","121.485263333333","24.99179","6500300","中和區"
"235050","4979-A6","2017/12/15 18:49:43","新北市中和區忠孝街58巷22號","121.512461666667","24.9828733333333","6500300","中和區"
"235069","4980-A6","2017/12/15 18:49:44","新北市中和區景平路459巷1弄2號","121.500303333333","24.996345","6500300","中和區"
"235042","551-UM","2017/12/15 18:49:39","新北市中和區秀朗路三段100巷3號","121.525413333333","24.9932666666667","6500300","中和區"
"235070","558-UM","2017/12/15 18:49:49","新北市中和區景平路447號","121.500851666667","24.996225","6500300","中和區"
"235045","565-BX","2017/12/15 18:49:53","新北市中和區復興路65號","121.50405","24.9900916666667","6500300","中和區"
"235054","640-BX","2017/12/15 18:49:51","新北市中和區莒光路129巷2弄5號","121.473085","25.0018","6500300","中和區"
"235060","647-TV","2017/12/15 18:49:38","新北市中和區中山路二段598號","121.48192","25.0053016666667","6500300","中和區"
"235047","732-UM","2017/12/15 18:49:47","新北市中和區興南路二段34巷55號","121.504993333333","24.986425","6500300","中和區"
"235062","800-TS","2017/12/15 18:49:43","新北市中和區景平路726-2號","121.496618333333","25.0034866666667","6500300","中和區"
"235057","801-TS","2017/12/15 18:49:42","新北市中和區民安街22巷1號","121.480273333333","25.0008783333333","6500300","中和區"
"235041","802-TS","2017/12/15 18:49:44","新北市中和區宜安路118巷32號","121.51117","24.9990233333333","6500300","中和區"
"235052","805-TS","2017/12/15 18:49:50","新北市中和區興南路二段399巷98弄40號","121.498948333333","24.9767983333333","6500300","中和區"
"235048","896-TW","2017/12/15 18:49:43","新北市中和區華新街47號","121.507805","24.9845516666667","6500300","中和區"
"235053","900-TW","2017/12/15 18:49:51","新北市中和區華福街44號","121.466445","24.996585","6500300","中和區"
"235065","911-UM","2017/12/15 18:49:47","新北市中和區中山路二段2巷59號","121.501761666667","25.0073333333333","6500300","中和區"
"235051","157-BY","2017/12/15 18:49:53","新北市中和區忠孝街106巷36號","121.513163333333","24.9842883333333","6500300","中和區"
"235037","AAC-213","2017/12/15 18:49:54","新北市中和區秀朗路三段128巷10號","121.524598333333","24.9927083333333","6500300","中和區"
"235059","AAC-215","2017/12/15 18:49:44","新北市中和區圓通路391-7號","121.48967","24.988995","6500300","中和區"
"220068","013-TV","2017/12/15 15:15:22","新北市板橋區縣民大道三段205巷1號","121.479768333333","25.0250733333333","6500100","板橋區"
"220065","072-UY","2017/12/15 18:49:39","新北市板橋區民族路247巷5弄38號","121.47019","25.0083683333333","6500100","板橋區"
"220086","073-UY","2017/12/15 18:49:57","新北市板橋區大智街71巷10號","121.453366666667","25.0151833333333","6500100","板橋區"
"220106","075-UY","2017/12/15 18:49:55","新北市板橋區民生路二段161巷9號","121.470215","25.0196333333333","6500100","板橋區"
"220069","AAD-861","2017/12/15 18:49:38","新北市板橋區館前西路21號","121.458653333333","25.0067233333333","6500100","板橋區"
"226004","205-ST","2017/12/15 18:49:54","新北市平溪區平溪里平溪街53號","121.73736","25.0269733333333","6502400","平溪區"
"228002","663-BX","2017/12/15 18:49:52","新北市貢寮區福隆里東興街6-11號","121.950756666667","25.0210716666667","6502600","貢寮區"
"228001","670-TC","2017/12/15 18:49:55","新北市貢寮區仁理村研海街12-1號","121.923761666667","25.051645","6502600","貢寮區"
"228003","828-UM","2017/12/15 18:49:39","新北市瑞芳區鼻頭路99-1號","121.918338333333","25.1197283333333","6502600","貢寮區"
"224006","676-BX","2017/12/15 18:49:49","新北市瑞芳區中正路71號","121.805593333333","25.1075533333333","6501200","瑞芳區"
"224009","285-BY","2017/12/15 18:49:50","新北市瑞芳區祈堂路6號","121.859575","25.1119333333333","6501200","瑞芳區"
"224008","275-VK","2017/12/15 18:49:48","新北市瑞芳區逢甲路321號","121.801295","25.111935","6501200","瑞芳區"
"224007","273-VK","2017/12/15 18:49:47","新北市瑞芳區大埔路273號","121.762035","25.1006416666667","6501200","瑞芳區"
"224005","271-BY","2017/12/15 18:49:48","新北市瑞芳區濱二路68號","121.830128333333","25.1199083333333","6501200","瑞芳區"
"227003","642-TC","2017/12/15 18:49:55","新北市雙溪區平林里梅竹蹊28號","121.861623333333","25.03601","6502500","雙溪區"
"227011","400-TW","2017/12/15 18:49:51","新北市雙溪區牡丹里聖南19號","121.857586666667","25.0526833333333","6502500","雙溪區"
"253005","032-BX","2017/12/15 18:49:40","新北市石門區中山路28-3號","121.565836666667","25.289865","6502200","石門區"
"253006","295-VK","2017/12/15 18:49:40","新北市石門區下員坑15-10號","121.513618333333","25.2836766666667","6502200","石門區"
"222001","KEA-2212","2017/12/15 18:49:53","新北市深坑區北深路一段64號","121.636931666667","25.0106466666667","6501800","深坑區"
"208002","742-BX","2017/12/15 18:49:40","新北市金山區仁愛路35號","121.636445","25.2194633333333","6502700","金山區"
"208003","665-BX","2017/12/15 18:49:44","新北市金山區中山路395號","121.633325","25.225315","6502700","金山區"
"208001","761-BX","2017/12/15 18:49:53","新北市金山區文化三路66巷2弄1號","121.634275","25.2256866666667","6502700","金山區"
"251001","011-UM","2017/12/15 18:49:53","新北市淡水區自強路86號","121.462708333333","25.1282366666667","6501000","淡水區"
"251013","180-VK","2017/12/15 18:49:55","新北市淡水區雲廣坑5-1號","121.474635","25.2123083333333","6501000","淡水區"
"251015","182-VK","2017/12/15 18:49:47","新北市淡水區興福寮66巷2號","121.487345","25.16219","6501000","淡水區"
"251010","413-VK","2017/12/15 18:49:40","新北市淡水區沙崙路20號","121.421131666667","25.1811633333333","6501000","淡水區"
"251012","441-VK","2017/12/15 18:49:51","新北市淡水區新興街60號","121.442198333333","25.1800683333333","6501000","淡水區"
"251009","575-R6","2017/12/15 18:49:37","新北市淡水區重建街187號","121.440908333333","25.174375","6501000","淡水區"
"251011","650-BX","2017/12/15 18:49:51","新北市淡水區學府路30號","121.447858333333","25.1686083333333","6501000","淡水區"
"251002","672-BX","2017/12/15 18:49:52","新北市淡水區學府路69號","121.448343333333","25.1697366666667","6501000","淡水區"
"251003","673-BX","2017/12/15 18:49:44","新北市淡水區中山北路一段143號","121.442876666667","25.1774533333333","6501000","淡水區"
"207003","550-UM","2017/12/15 18:49:47","新北市萬里區大鵬里頂社1-2號","121.657383333333","25.20969","6502800","萬里區"
"207004","225-TW","2017/12/15 18:49:40","新北市萬里區萬里里獅頭路23號","121.693221666667","25.1782866666667","6502800","萬里區"
"252002","178-VK","2017/12/15 18:49:39","新北市三芝區中正路一段101號","121.504746666667","25.2564616666667","6502100","三芝區"
"252003","249-BX","2017/12/15 18:49:45","新北市三芝區後厝里大片頭81-1號","121.459131666667","25.244655","6502100","三芝區"
"252001","292-VK","2017/12/15 18:49:55","新北市三芝區中正路三段9號","121.502983333333","25.25403","6502100","三芝區"
"237004","078-UY","2017/12/15 18:49:50","新北市三峽區有木217號","121.437655","24.8489883333333","6500900","三峽區"
"237007","153-BY","2017/12/15 18:49:47","新北市三峽區大埔路177號","121.366711666667","24.9051633333333","6500900","三峽區"
"237013","252-BX","2017/12/15 18:49:47","新北市三峽區光明路69巷25號","121.376521666667","24.9291366666667","6500900","三峽區"
"237012","275-BY","2017/12/15 18:49:51","新北市三峽區三樹路340號","121.383931666667","24.9433416666667","6500900","三峽區"
"237008","302-VK","2017/12/15 18:49:55","新北市三峽區中正路一段409號","121.370325","24.9207083333333","6500900","三峽區"
"237014","433-BY","2017/12/15 18:49:50","新北市三峽區隆恩街178巷2-1號","121.361866666667","24.942635","6500900","三峽區"
"237006","5529-G3","2017/12/15 18:49:53","新北市三峽區溪東路233巷4弄17號","121.407175","24.9339683333333","6500900","三峽區"
"237011","572-TV","2017/12/15 18:03:30","新北市三峽區介壽路三段20號","121.396008333333","24.9361833333333","6500900","三峽區"
"237015","649-BX","2017/12/15 18:47:02","新北市三峽區建安113號","121.461656666667","24.9194883333333","6500900","三峽區"
"237010","706-TV","2017/12/15 18:49:38","新北市三峽區國光街350巷16號","121.371776666667","24.9401783333333","6500900","三峽區"
"237005","AKY-6261","2017/12/15 18:49:51","新北市三峽區中山路459巷92號","121.354235","24.9359283333333","6500900","三峽區"
"236072","105-UM","2017/12/15 18:49:53","新北市土城區金城路二段354巷4號","121.460808333333","24.9849916666667","6501300","土城區"
"236043","107-UM","2017/12/15 18:49:57","新北市土城區裕民路114巷1-2號","121.450711666667","24.986145","6501300","土城區"
"236079","166-UM","2017/12/14 19:24:05","新北市土城區中央路四段295號","121.411261666667","24.9522833333333","6501300","土城區"
"236031","253-BX","2017/12/15 18:49:35","新北市土城區千歲路3巷9號","121.440973333333","24.97026","6501300","土城區"
"236027","269-VK","2017/12/15 18:49:50","新北市土城區興城路88號","121.440938333333","24.9718283333333","6501300","土城區"
"236015","270-VK","2017/12/15 18:49:51","新北市土城區金城路二段364號","121.462395","24.9852716666667","6501300","土城區"
"236039","271-VK","2017/12/15 18:49:52","新北市土城區明德路一段197號","121.463853333333","24.9788466666667","6501300","土城區"
"236022","401-BY","2017/12/15 18:49:51","新北市土城區延安街29號","121.467876666667","24.9847033333333","6501300","土城區"
"236059","912-UM","2017/12/15 18:49:49","新北市土城區永安街2號","121.434471666667","24.96559","6501300","土城區"
"236050","913-UM","2017/12/15 18:49:44","新北市土城區青雲路51號","121.45943","24.9866833333333","6501300","土城區"
"236063","915-UM","2017/12/15 18:49:35","新北市土城區金城路三段253號","121.471671666667","24.9899783333333","6501300","土城區"
"236055","AAC-216","2017/12/15 18:49:57","新北市土城區裕民路222號","121.453591666667","24.9842566666667","6501300","土城區"
"238023","601-UM","2017/12/15 18:49:46","新北市樹林區三福街114號","121.40654","25.0162716666667","6500700","樹林區"
"238019","599-UM","2017/12/15 18:49:48","新北市樹林區東榮街169號","121.41404","24.9813633333333","6500700","樹林區"
"238018","571-TV","2017/12/15 18:49:45","新北市樹林區鎮前街25號","121.425828333333","24.99248","6500700","樹林區"
"238024","5061-A6","2017/12/15 18:49:46","新北市樹林區八德街212巷2號","121.41727","24.9729","6500700","樹林區"
"238022","KEA-2213","2017/12/15 18:49:57","新北市樹林區東大街1-5號","121.413331666667","24.9764816666667","6500700","樹林區"
"238025","303-VK","2017/12/15 18:49:45","新北市樹林區中山路三段22號","121.39566","24.972915","6500700","樹林區"
"238017","283-BY","2017/12/15 18:49:53","新北市樹林區光興街50號","121.409875","25.00269","6500700","樹林區"
"238014","282-BY","2017/12/15 18:49:41","新北市樹林區大安路111巷25號","121.423183333333","24.9974966666667","6500700","樹林區"
"238020","268-VK","2017/12/15 18:49:48","新北市樹林區俊英街280號","121.423811666667","25.013125","6500700","樹林區"
"238026","172-UY","2017/12/15 18:49:54","新北市樹林區中和街46號","121.389215","24.9739216666667","6500700","樹林區"
"238016","169-UY","2017/12/15 18:49:43","新北市樹林區文化街28-1號","121.419198333333","24.98788","6500700","樹林區"
"239007","AAC-297","2017/12/15 18:49:53","新北市鶯歌區中正一路建德巷26號","121.364656666667","24.9576633333333","6500800","鶯歌區"
"239006","891-R6","2017/12/15 18:49:37","新北市鶯歌區鶯桃路234巷1號","121.336613333333","24.9591966666667","6500800","鶯歌區"
"239008","527-UM","2017/12/15 18:49:39","新北市鶯歌區國際一路179號","121.336268333333","24.9764783333333","6500800","鶯歌區"
"239005","526-UM","2017/12/15 18:49:43","新北市鶯歌區大湖路361巷24弄12號","121.330166666667","24.9779216666667","6500800","鶯歌區"
"239001","417-VK","2017/12/15 18:49:52","新北市鶯歌區鶯桃路68號","121.34048","24.953295","6500800","鶯歌區"
"239003","360-BY","2017/12/15 18:49:47","新北市鶯歌區鶯桃路590號","121.330285","24.9682533333333","6500800","鶯歌區"
"239002","359-BY","2017/12/15 18:49:41","新北市鶯歌區中山路286-1號","121.343995","24.9569783333333","6500800","鶯歌區"
"239004","193-VK","2017/12/15 18:49:49","新北市鶯歌區中正三路282巷10弄12號","121.328821666667","24.936635","6500800","鶯歌區"
"221008","489-VK","2017/12/15 18:49:42","新北市汐止區康寧街901號","121.651435","25.0750666666667","6501100","汐止區"
"221036","130-UY","2017/12/15 18:49:52","新北市汐止區忠孝東路282號","121.66371","25.0682216666667","6501100","汐止區"
"221010","269-BY","2017/12/15 18:49:45","新北市汐止區汐萬路一段312號","121.650155","25.0749383333333","6501100","汐止區"
"221012","276-VK","2017/12/15 13:15:14","新北市汐止區汐萬路一段256巷3號","121.653408333333","25.0746516666667","6501100","汐止區"
"221012","278-VK","2017/12/15 18:49:46","新北市汐止區康寧街901號","121.650803333333","25.0752366666667","6501100","汐止區"
"221023","279-VK","2017/12/15 18:49:35","新北市汐止區康寧街901號","121.651011666667","25.0752366666667","6501100","汐止區"
"221032","280-BY","2017/12/15 18:49:50","新北市汐止區橫科路322巷24弄6-1號","121.62029","25.0502483333333","6501100","汐止區"
"221027","281-BY","2017/12/15 18:49:53","新北市汐止區康寧街901號","121.65144","25.074975","6501100","汐止區"
"221029","298-VK","2017/12/15 18:49:52","新北市汐止區工建路66號","121.640538333333","25.0629716666667","6501100","汐止區"
"221031","353-TW","2017/12/15 18:49:51","新北市汐止區福德一路298號","121.631503333333","25.063215","6501100","汐止區"
"221015","567-BX","2017/12/15 18:49:55","新北市汐止區鄉長路一段295號","121.669196666667","25.0796366666667","6501100","汐止區"
"221035","622-UM","2017/12/15 18:49:52","新北市汐止區禮門街1號","121.656731666667","25.0672433333333","6501100","汐止區"
"221025","623-UM","2017/12/15 18:49:53","新北市汐止區汐萬路一段20號","121.656003333333","25.0675083333333","6501100","汐止區"
"221038","646-BX","2017/12/15 18:49:35","新北市汐止區汐萬路一段312號","121.650643333333","25.0753066666667","6501100","汐止區"
"221033","647-BX","2017/12/15 18:49:47","新北市汐止區南勢街1巷1號","121.627005","25.0374483333333","6501100","汐止區"
"221002","707-TV","2017/12/15 18:49:43","新北市汐止區大同路一段215-1號","121.633928333333","25.0575033333333","6501100","汐止區"
"221018","753-BX","2017/12/15 18:49:42","新北市汐止區大同路二段373號","121.657386666667","25.06729","6501100","汐止區"
"220079","145-BY","2017/12/15 18:48:16","新北市板橋區民權路200號","121.459095","25.0138666666667","6500100","板橋區"
"220080","200-UY","2017/12/15 18:49:50","新北市板橋區大觀路二段365巷12號","121.441133333333","24.9979783333333","6500100","板橋區"
"220082","610-BX","2017/12/15 18:49:51","新北市板橋區篤行路三段玉平巷76弄10號","121.427741666667","24.9858483333333","6500100","板橋區"
"220101","245-BX","2017/12/15 15:39:47","新北市板橋區民生路二段161巷1號","121.470163333333","25.0198916666667","6500100","板橋區"
"220056","276-BY","2017/12/15 18:49:48","新北市板橋區信義路28-6號","121.457108333333","24.9950483333333","6500100","板橋區"
"220072","277-BY","2017/12/15 18:49:40","新北市板橋區大觀路三段57號","121.433686666667","24.9954633333333","6500100","板橋區"
"220094","283-UM","2017/12/15 18:49:44","新北市板橋區民生路二段161巷3號","121.470101666667","25.0197566666667","6500100","板橋區"
"220071","283-VK","2017/12/15 18:49:55","新北市板橋區忠孝路86號","121.4615","25.00209","6500100","板橋區"
"220053","285-VK","2017/12/15 18:49:43","新北市板橋區民生路二段123號","121.470763333333","25.01858","6500100","板橋區"
"220083","286-VK","2017/12/15 18:49:51","新北市板橋區僑中二街152號","121.444801666667","25.0044033333333","6500100","板橋區"
"220081","287-VK","2017/12/15 18:49:41","新北市板橋區南雅西路二段123巷10號","121.451736666667","25.0112416666667","6500100","板橋區"
"220090","288-VK","2017/12/15 18:49:41","新北市板橋區民生路二段120號","121.470406666667","25.0195766666667","6500100","板橋區"
"220061","293-UM","2017/12/15 18:49:51","新北市板橋區太和街4巷12號","121.474275","25.01998","6500100","板橋區"
"220084","296-UM","2017/12/15 18:49:57","新北市板橋區大觀路二段150巷60-1號","121.441586666667","25.0005816666667","6500100","板橋區"
"220075","297-UM","2017/12/15 18:49:54","新北市板橋區館前西路195號","121.455328333333","25.0083316666667","6500100","板橋區"
"220092","299-UM","2017/12/15 18:49:53","新北市板橋區民生路二段123號","121.47067","25.018605","6500100","板橋區"
"220062","305-R5","2017/12/15 18:49:48","新北市板橋區中山路二段23號","121.472411666667","25.0152566666667","6500100","板橋區"
"220098","317-R6","2017/12/15 18:49:42","新北市板橋區民生路二段120號","121.470568333333","25.0194133333333","6500100","板橋區"
"220064","486-VK","2017/12/15 18:49:39","新北市板橋區民生路二段17號","121.472508333333","25.0161183333333","6500100","板橋區"
"220089","487-VK","2017/12/15 18:49:50","新北市板橋區民生路二段161巷3號","121.470116666667","25.01981","6500100","板橋區"
"220088","491-VK","2017/12/15 18:49:39","新北市板橋區民生路二段177號","121.46989","25.0203166666667","6500100","板橋區"
"220035","560-BX","2017/12/15 18:49:55","新北市板橋區中正路325巷3弄23號","121.453941666667","25.0185116666667","6500100","板橋區"
"220103","561-BX","2017/12/15 18:49:46","新北市板橋區民生路二段120號","121.470456666667","25.01967","6500100","板橋區"
"220063","609-BX","2017/12/15 18:49:46","新北市板橋區民生路二段123號","121.47069","25.0186733333333","6500100","板橋區"
"220091","637-BX","2017/12/15 18:49:48","新北市板橋區民生路二段188號","121.47017","25.0203516666667","6500100","板橋區"
"220057","686-BX","2017/12/15 18:49:40","新北市板橋區華東街1-9號","121.44818","24.99491","6500100","板橋區"
"220077","687-BX","2017/12/15 18:49:50","新北市板橋區龍興街101巷1號","121.444405","25.0031166666667","6500100","板橋區"
"220093","689-BX","2017/12/15 18:49:38","新北市板橋區民生路二段120號","121.470295","25.0200133333333","6500100","板橋區"
"220054","741-BX","2017/12/15 18:49:49","新北市板橋區館前西路49號","121.457828333333","25.0066666666667","6500100","板橋區"
"220055","827-TW","2017/12/15 18:49:45","新北市板橋區縣民大道二段68-1號","121.463541666667","25.0128016666667","6500100","板橋區"
"220067","829-TW","2017/12/15 18:49:52","新北市板橋區民生路二段7號","121.472788333333","25.015915","6500100","板橋區"
"220102","830-TW","2017/12/15 15:36:44","新北市板橋區民生路二段161巷5號","121.470293333333","25.0197716666667","6500100","板橋區"
"220096","831-TW","2017/12/15 18:49:42","新北市板橋區民生路二段161巷9號","121.47027","25.0195683333333","6500100","板橋區"
"220074","895-R6","2017/12/15 18:49:46","新北市板橋區南門街39號","121.457375","25.0087","6500100","板橋區"
"220073","985-R7","2017/12/15 18:49:51","新北市板橋區館前西路121號","121.456726666667","25.0075683333333","6500100","板橋區"
"220097","AAC-210","2017/12/15 18:49:43","新北市板橋區民生路二段120號","121.470445","25.0194816666667","6500100","板橋區"
"220070","AAC-253","2017/12/15 18:49:43","新北市板橋區館前西路49號","121.457873333333","25.0066916666667","6500100","板橋區"
