"lineid","car","time","location","longitude","latitude","cityid","cityname"
"234046","148-BY","2017/12/15 19:39:47","新北市永和區永亨路175號","121.526235","25.00341","6500400","永和區"
"234013","149-BY","2017/12/15 19:39:52","新北市永和區永平路230號","121.508871666667","25.0107366666667","6500400","永和區"
"234007","207-UY","2017/12/15 19:39:49","新北市中和區中和路416號","121.511633333333","25.0032483333333","6500400","永和區"
"234081","298-R6","2017/12/15 19:39:54","新北市永和區林森路52號","121.524558333333","25.0044083333333","6500400","永和區"
"234038","336-UY","2017/12/15 19:39:36","新北市永和區民樂街31巷2號","121.527701666667","25.0014733333333","6500400","永和區"
"234064","337-UY","2017/12/15 19:39:43","新北市永和區秀朗路一段192巷6弄14號","121.51911","25.002255","6500400","永和區"
"234086","338-UY","2017/12/15 19:39:49","新北市永和區永亨路128號","121.524588333333","25.00401","6500400","永和區"
"234070","552-UM","2017/12/15 19:39:43","新北市永和區永和路二段217號","121.515521666667","25.0140983333333","6500400","永和區"
"234054","553-UM","2017/12/15 19:39:39","新北市永和區竹林路39巷18號","121.518686666667","25.0146083333333","6500400","永和區"
"234017","745-BX","2017/12/15 19:39:39","新北市永和區文化路90巷32弄7號","121.51341","25.0168933333333","6500400","永和區"
"234030","746-BX","2017/12/15 19:39:57","新北市永和區民生路37巷3號","121.523128333333","24.998135","6500400","永和區"
"234061","AAD-866","2017/12/15 19:39:54","新北市永和區中正路456號","121.517465","25.00292","6500400","永和區"
"234042","862-TW","2017/12/15 19:39:57","新北市永和區中和路373號","121.50837","24.9998633333333","6500400","永和區"
"234050","863-TW","2017/12/15 19:39:48","新北市永和區保安路53號","121.509426666667","25.0158016666667","6500400","永和區"
"234026","9371-KE","2017/12/15 19:39:55","新北市永和區中和路501巷5號","121.510463333333","25.00258","6500400","永和區"
"234011","9373-KE","2017/12/15 19:39:47","新北市永和區保生路55號","121.504736666667","25.010615","6500400","永和區"
"249004","303-UY","2017/12/15 19:39:40","新北市八里區中山路一段268巷5弄13號","121.414133333333","25.160345","6502300","八里區"
"249002","305-UY","2017/12/15 19:39:47","新北市八里區頂寮二街33-1號","121.450308333333","25.1251366666667","6502300","八里區"
"249003","593-UM","2017/12/15 19:39:49","新北市八里區華峰三街38號","121.39924","25.1460283333333","6502300","八里區"
"248014","025-BX","2017/12/15 19:39:54","新北市五股區工商路164號","121.433663333333","25.0879833333333","6501500","五股區"
"248016","026-BX","2017/12/15 19:39:47","新北市五股區成泰路三段541號","121.451923333333","25.1016983333333","6501500","五股區"
"248008","095-VK","2017/12/15 19:39:38","新北市五股區四維路118巷13號","121.469226666667","25.0742316666667","6501500","五股區"
"248018","225-UY","2017/12/15 19:27:05","新北市五股區壟路16號","121.415295","25.085575","6501500","五股區"
"248012","247-BX","2017/12/15 19:39:40","新北市五股區成泰路二段65號","121.438035","25.083675","6501500","五股區"
"248004","677-BX","2017/12/15 19:39:41","新北市五股區成泰路二段64號","121.437388333333","25.08218","6501500","五股區"
"248002","678-BX","2017/12/15 19:39:52","新北市五股區成泰路三段577巷49號","121.450755","25.1031916666667","6501500","五股區"
"248010","682-TV","2017/12/15 19:39:48","新北市五股區自強路90巷72號","121.430673333333","25.07126","6501500","五股區"
"234077","969-R7","2017/12/15 19:39:51","新北市永和區民族街67巷18號","121.51942","24.99709","6500400","永和區"
"234074","AAC-211","2017/12/15 19:39:46","新北市永和區福和路100號","121.522236666667","25.0079433333333","6500400","永和區"
"234067","AAC-212","2017/12/15 19:39:40","新北市永和區中山路一段191巷7弄2號","121.509531666667","25.0082183333333","6500400","永和區"
"234003","AAC-295","2017/12/15 19:39:51","新北市永和區自由街69號","121.51352","25.0052766666667","6500400","永和區"
"244019","403-UM","2017/12/15 19:39:42","新北市林口區仁愛路二段201-1號","121.377361666667","25.074205","6501700","林口區"
"243012","AAD-798","2017/12/15 19:39:48","新北市泰山區仁愛路100巷28號","121.433436666667","25.0549466666667","6501600","泰山區"
"243011","297-R6","2017/12/15 19:39:46","新北市泰山區明志路三段204巷1號","121.421493333333","25.0382483333333","6501600","泰山區"
"243015","380-SR","2017/12/15 19:39:36","新北市泰山區民權街83號","121.428578333333","25.0497333333333","6501600","泰山區"
"243014","421-VK","2017/12/15 19:39:41","新北市泰山區仁愛路41號","121.432378333333","25.055075","6501600","泰山區"
"243010","KEA-2215","2017/12/15 19:39:44","新北市泰山區民生路33號","121.430746666667","25.0521133333333","6501600","泰山區"
"243009","KEA-2216","2017/12/15 19:39:48","新北市泰山區美寧街60號","121.430883333333","25.0646466666667","6501600","泰山區"
"243013","646-TV","2017/12/15 19:39:40","新北市泰山區應化街7號","121.423875","25.0437266666667","6501600","泰山區"
"243016","680-BX","2017/12/15 19:39:46","新北市泰山區中山路三段114號","121.417753333333","25.0322633333333","6501600","泰山區"
"222003","436-BY","2017/12/15 19:30:10","新北市深坑區深南路51-1號","121.621161666667","25.0100366666667","6501800","深坑區"
"222002","659-BX","2017/12/15 19:39:46","新北市深坑區北深路一段177號","121.632565","25.0109133333333","6501800","深坑區"
"231055","0291-UT","2017/12/15 19:39:45","新北市新店區新生街13巷42號","121.538925","24.9666016666667","6500600","新店區"
"231059","046-UY","2017/12/15 19:39:41","新北市新店區安業街1-1號","121.516591666667","24.9786066666667","6500600","新店區"
"231061","047-UY","2017/12/15 19:39:46","新北市新店區安民街193號","121.517085","24.97159","6500600","新店區"
"231060","106-UY","2017/12/15 19:39:56","新北市新店區安康路二段161號","121.510163333333","24.959445","6500600","新店區"
"231051","107-UY","2017/12/15 19:39:46","新北市新店區中央四街28號","121.528726666667","24.9743016666667","6500600","新店區"
"231048","108-UY","2017/12/15 19:39:45","新北市新店區五峰路57-1號","121.547218333333","24.9706133333333","6500600","新店區"
"231053","187-VK","2017/12/15 19:39:53","新北市新店區廣興路101號","121.537276666667","24.9123816666667","6500600","新店區"
"231050","KEA-2219","2017/12/15 19:39:36","新北市新店區北宜路二段337號","121.557635","24.95393","6500600","新店區"
"231057","256-BX","2017/12/15 19:39:40","新北市新店區橘園一路11號","121.547936666667","24.9340083333333","6500600","新店區"
"231046","278-BY","2017/12/15 19:39:55","新北市新店區中正路329巷5弄2號","121.535303333333","24.9743883333333","6500600","新店區"
"231054","AAD-862","2017/12/15 19:39:58","新北市新店區北宜路一段41號","121.538386666667","24.9573366666667","6500600","新店區"
"231058","3712-VJ","2017/12/15 19:39:36","新北市新店區北新路一段96巷21號","121.542493333333","24.9688083333333","6500600","新店區"
"231067","4772-VM","2017/12/15 19:39:38","新北市新店區精忠路10-1號","121.532713333333","24.9590283333333","6500600","新店區"
"231065","512-UM","2017/12/15 19:39:54","新北市新店區安祥路109巷90弄90號","121.475881666667","24.95819","6500600","新店區"
"231064","515-UM","2017/12/15 19:39:45","新北市新店區安和路一段53號","121.517568333333","24.9660366666667","6500600","新店區"
"231042","616-UM","2017/12/15 19:39:47","新北市新店區中興路一段216號","121.543811666667","24.9657016666667","6500600","新店區"
"231045","617-UM","2017/12/15 19:39:44","新北市新店區北宜路二段431號","121.560711666667","24.95433","6500600","新店區"
"231041","618-UM","2017/12/15 19:39:58","新北市新店區中正路487號","121.53398","24.9820866666667","6500600","新店區"
"231040","619-UM","2017/12/15 19:39:46","新北市新店區北新路一段96巷23號","121.543023333333","24.9688533333333","6500600","新店區"
"231063","645-TV","2017/12/15 19:39:51","新北市新店區達觀路43號","121.503133333333","24.9378533333333","6500600","新店區"
"231049","719-UM","2017/12/15 19:39:53","新北市新店區大豐路70號","121.539026666667","24.9794666666667","6500600","新店區"
"231062","720-UM","2017/12/15 19:39:38","新北市新店區碧潭路52號","121.534335","24.9566433333333","6500600","新店區"
"231044","897-TW","2017/12/15 19:39:47","新北市新店區北新路三段137號","121.541368333333","24.9830083333333","6500600","新店區"
"231043","899-TW","2017/12/15 19:39:42","新北市新店區中正路151號","121.54139","24.97172","6500600","新店區"
"231066","AKT-0513","2017/12/15 19:39:54","新北市新店區安康路二段341巷13號","121.496981666667","24.9548","6500600","新店區"
"241011","013-R5","2017/12/15 19:39:55","新北市三重區秀江街239號","121.496836666667","25.0715","6500200","三重區"
"241028","022-UY","2017/12/15 19:39:48","新北市三重區中正南路157-1號","121.49365","25.0561383333333","6500200","三重區"
"241008","059-VK","2017/12/15 19:39:42","新北市三重區永福街137號","121.478763333333","25.0767516666667","6500200","三重區"
"241009","060-VK","2017/12/15 19:39:40","新北市三重區三和路四段400巷27號","121.479968333333","25.07929","6500200","三重區"
"241031","061-VK","2017/12/15 19:39:48","新北市三重區重新路四段250-1號","121.486018333333","25.0534483333333","6500200","三重區"
"241015","062-VK","2017/12/15 19:39:52","新北市三重區福德北路46號","121.501983333333","25.06537","6500200","三重區"
"241017","063-VK","2017/12/15 19:39:47","新北市三重區大同北路182號","121.491585","25.065875","6500200","三重區"
"241026","066-VK","2017/12/15 19:39:56","新北市三重區光興街61號","121.498678333333","25.0603266666667","6500200","三重區"
"241022","267-UM","2017/12/15 19:39:40","新北市三重區中正北路158號","121.484618333333","25.0659816666667","6500200","三重區"
"241032","269-UM","2017/12/15 19:39:44","新北市三重區三陽路115號","121.48359","25.0588283333333","6500200","三重區"
"241013","270-UM","2017/12/15 19:39:54","新北市三重區仁愛街127號","121.495441666667","25.074735","6500200","三重區"
"241025","271-UM","2017/12/15 19:39:51","新北市三重區忠孝路三段84巷1號","121.480238333333","25.06444","6500200","三重區"
"241007","398-BY","2017/12/15 19:39:45","新北市三重區三和路四段125巷36號","121.486083333333","25.0782033333333","6500200","三重區"
"241020","413-TH","2017/12/15 19:39:48","新北市三重區三和路四段20巷87號","121.48869","25.0733216666667","6500200","三重區"
"241019","478-VK","2017/12/15 19:39:52","新北市三重區六張街194巷1弄7號","121.488286666667","25.068235","6500200","三重區"
"241030","480-VK","2017/12/15 19:39:47","新北市三重區中正南路281號","121.492911666667","25.0523716666667","6500200","三重區"
"241014","543-UM","2017/12/15 19:39:56","新北市三重區河邊北街82號","121.504193333333","25.06895","6500200","三重區"
"241023","545-UM","2017/12/15 19:39:40","新北市三重區忠孝路三段99巷4號","121.480023333333","25.0642666666667","6500200","三重區"
"241006","AAD-863","2017/12/15 19:39:48","新北市三重區聯華街78號","121.485983333333","25.07532","6500200","三重區"
"241035","743-BX","2017/12/15 19:39:46","新北市三重區正義北路61-3號","121.497623333333","25.06452","6500200","三重區"
"241029","887-TS","2017/12/15 19:39:51","新北市三重區重安街102號","121.493023333333","25.0558566666667","6500200","三重區"
"241012","941-UM","2017/12/15 19:39:52","新北市三重區仁義街15號","121.500221666667","25.0758566666667","6500200","三重區"
"235066","003-UY","2017/12/15 19:39:38","新北市中和區南華路89號","121.505618333333","24.997425","6500300","中和區"
"235064","005-UY","2017/12/15 19:39:56","新北市中和區南山路131-11號","121.502356666667","24.9964216666667","6500300","中和區"
"235063","006-UY","2017/12/15 19:39:40","新北市中和區連勝街95號","121.495156666667","24.9961616666667","6500300","中和區"
"235046","031-BX","2017/12/15 19:39:47","新北市中和區四維街10號","121.513251666667","24.987305","6500300","中和區"
"235056","096-UM","2017/12/15 19:39:41","新北市中和區員山路581巷31弄22號","121.476583333333","25.0104016666667","6500300","中和區"
"235039","097-UM","2017/12/15 19:39:54","新北市中和區秀峰街103巷7弄2號","121.519993333333","24.9895116666667","6500300","中和區"
"235040","150-BY","2017/12/15 19:39:43","新北市中和區安平路38號","121.509985","24.995095","6500300","中和區"
"235058","151-BY","2017/12/15 19:39:42","新北市中和區員山路132巷10號","121.481811666667","24.9962283333333","6500300","中和區"
"235055","183-VK","2017/12/15 19:39:45","新北市中和區中山路三段179巷23號","121.473536666667","25.0058783333333","6500300","中和區"
"235038","185-VK","2017/12/15 19:39:52","新北市中和區自立路141巷5號","121.522636666667","24.9937566666667","6500300","中和區"
"235049","186-VK","2017/12/15 19:39:48","新北市中和區明禮街20號","121.504743333333","24.9959883333333","6500300","中和區"
"235067","255-BX","2017/12/15 19:39:40","新北市中和區新生街184號","121.483638333333","24.99969","6500300","中和區"
"235044","293-VK","2017/12/15 19:39:36","新北市中和區南山路521號","121.507983333333","24.9873116666667","6500300","中和區"
"235072","301-VK","2017/12/15 19:39:56","新北市中和區連城路265巷6弄7號","121.491173333333","24.9957766666667","6500300","中和區"
"235043","352-BY","2017/12/15 19:39:47","新北市中和區興南路一段115號","121.509146666667","24.9879066666667","6500300","中和區"
"235068","377-QA","2017/12/15 19:39:40","新北市中和區泰和街12號","121.499916666667","25.00108","6500300","中和區"
"235061","378-QA","2017/12/15 19:39:44","新北市中和區員山路226巷5弄4號","121.481781666667","25.000715","6500300","中和區"
"235071","269-TV","2017/12/15 19:39:55","新北市中和區中正路828號","121.484855","25.0036333333333","6500300","中和區"
"235050","4979-A6","2017/12/15 19:39:43","新北市中和區中正路277號","121.495366666667","24.99367","6500300","中和區"
"235069","4980-A6","2017/12/15 19:39:44","新北市中和區南山路37巷3弄9號","121.502566666667","24.9988216666667","6500300","中和區"
"235042","551-UM","2017/12/15 19:39:39","新北市中和區保健路33巷5號","121.508926666667","24.9980533333333","6500300","中和區"
"235070","558-UM","2017/12/15 19:39:49","新北市中和區圓通路54號","121.500656666667","24.997535","6500300","中和區"
"235045","565-BX","2017/12/15 19:39:53","新北市中和區景新街469號","121.51343","24.988015","6500300","中和區"
"235054","640-BX","2017/12/15 19:39:45","新北市中和區國光街102巷8號","121.470373333333","25.0004833333333","6500300","中和區"
"235060","647-TV","2017/12/15 19:39:38","新北市中和區員山路368號","121.480861666667","25.003855","6500300","中和區"
"235047","732-UM","2017/12/15 19:39:46","新北市中和區南山路156號","121.504321666667","24.99201","6500300","中和區"
"235057","801-TS","2017/12/15 19:39:41","新北市中和區員山路188號","121.481345","25.0003883333333","6500300","中和區"
"235041","802-TS","2017/12/15 19:39:43","新北市中和區永貞路274-5號","121.513311666667","25.0037983333333","6500300","中和區"
"235052","805-TS","2017/12/15 19:39:50","新北市中和區華新街192巷24號","121.50636","24.9831816666667","6500300","中和區"
"235048","896-TW","2017/12/15 19:39:48","新北市中和區忠孝街1巷2-1號","121.508945","24.9830633333333","6500300","中和區"
"235053","900-TW","2017/12/15 19:39:51","新北市中和區國光街142巷46號","121.467601666667","25.0021383333333","6500300","中和區"
"235065","911-UM","2017/12/15 19:39:47","新北市中和區永和路9巷1號","121.499141666667","25.0039833333333","6500300","中和區"
"235051","157-BY","2017/12/15 19:39:53","新北市中和區中興街132巷9號","121.498946666667","24.991845","6500300","中和區"
"235037","AAC-213","2017/12/15 19:39:53","新北市中和區秀朗路三段22巷15號","121.525533333333","24.9960883333333","6500300","中和區"
"235059","AAC-215","2017/12/15 19:39:24","新北市中和區圓通路260號","121.493115","24.9909916666667","6500300","中和區"
"220068","013-TV","2017/12/15 15:15:22","新北市板橋區縣民大道三段205巷1號","121.479768333333","25.0250733333333","6500100","板橋區"
"220065","072-UY","2017/12/15 19:39:39","新北市板橋區國泰街28號","121.46862","25.006725","6500100","板橋區"
"220086","073-UY","2017/12/15 19:39:40","新北市板橋區中正路91號","121.456446666667","25.01441","6500100","板橋區"
"220106","075-UY","2017/12/15 19:39:55","新北市板橋區民治街26巷21號","121.477383333333","25.0335916666667","6500100","板橋區"
"220069","AAD-861","2017/12/15 19:39:38","新北市板橋區縣民大道一段64巷22號","121.455495","25.0036633333333","6500100","板橋區"
"247008","341-TH","2017/12/15 19:39:49","新北市蘆洲區中山一路176號","121.474146666667","25.0812283333333","6501400","蘆洲區"
"247004","336-TH","2017/12/15 19:39:42","新北市蘆洲區中華街6巷3號","121.462416666667","25.08241","6501400","蘆洲區"
"226004","205-ST","2017/12/15 19:39:54","新北市平溪區十分里十分街281-1號","121.780098333333","25.0457466666667","6502400","平溪區"
"228001","670-TC","2017/12/15 19:39:55","新北市貢寮區真理里延平街36號","121.92467","25.0565116666667","6502600","貢寮區"
"228003","828-UM","2017/12/15 19:39:39","新北市貢寮區真理里美艷山街15-3號","121.923725","25.0679683333333","6502600","貢寮區"
"224010","AGQ-8101","2017/12/15 19:39:38","新北市瑞芳區基山街155號","121.843696666667","25.10811","6501200","瑞芳區"
"224002","639-TC","2017/12/15 19:39:50","新北市瑞芳區民享新村26號","121.817151666667","25.10584","6501200","瑞芳區"
"227003","642-TC","2017/12/15 19:39:54","新北市雙溪區雙溪里太平路50號","121.864608333333","25.03532","6502500","雙溪區"
"227011","400-TW","2017/12/15 19:39:51","新北市雙溪區新基里新基南街18號","121.867068333333","25.037765","6502500","雙溪區"
"222001","KEA-2212","2017/12/15 19:39:44","新北市深坑區深坑街130號","121.613228333333","25.0015983333333","6501800","深坑區"
"208002","742-BX","2017/12/15 19:39:52","新北市金山區三民街28號","121.634885","25.2233066666667","6502700","金山區"
"208003","665-BX","2017/12/15 19:39:44","新北市金山區仁愛路7號","121.63802","25.2196516666667","6502700","金山區"
"208001","761-BX","2017/12/15 19:39:52","新北市金山區重和里六股林口21-6號","121.603988333333","25.2198616666667","6502700","金山區"
"251004","009-UM","2017/12/15 19:39:56","新北市淡水區中正東路二段153號","121.460191666667","25.146355","6501000","淡水區"
"251001","011-UM","2017/12/15 19:39:53","新北市淡水區民權路41號","121.459736666667","25.1404733333333","6501000","淡水區"
"251013","180-VK","2017/12/15 19:39:55","新北市淡水區店子後10號","121.460153333333","25.21901","6501000","淡水區"
"251015","182-VK","2017/12/15 19:39:47","新北市淡水區泉洲厝25-7號","121.484806666667","25.18912","6501000","淡水區"
"251010","413-VK","2017/12/15 19:39:40","新北市淡水區崁頂92號","121.429345","25.2018466666667","6501000","淡水區"
"251012","441-VK","2017/12/15 19:39:51","新北市淡水區中山北路三段138號","121.445631666667","25.1952433333333","6501000","淡水區"
"251005","443-VK","2017/12/15 19:39:48","新北市淡水區原德路108巷2號","121.443393333333","25.173545","6501000","淡水區"
"251006","561-UM","2017/12/15 19:39:52","新北市淡水區中山北路一段136號","121.44331","25.1774283333333","6501000","淡水區"
"251009","575-R6","2017/12/15 19:39:52","新北市淡水區中山北路一段188-5號","121.444441666667","25.17921","6501000","淡水區"
"251007","577-R6","2017/12/15 19:39:48","新北市淡水區中正東路一段111巷22號","121.45519","25.1608016666667","6501000","淡水區"
"251011","650-BX","2017/12/15 19:39:41","新北市淡水區八勢一街7-15號","121.460603333333","25.156985","6501000","淡水區"
"207003","550-UM","2017/12/15 19:39:45","新北市萬里區大鵬里下社28號","121.649061666667","25.217105","6502800","萬里區"
"207004","225-TW","2017/12/15 19:39:40","新北市萬里區萬里里瑪鋉路21號","121.6875","25.1754166666667","6502800","萬里區"
"252002","178-VK","2017/12/15 19:39:59","新北市三芝區三民街16號","121.504311666667","25.258625","6502100","三芝區"
"252001","292-VK","2017/12/15 19:39:55","新北市三芝區公正街66號","121.499771666667","25.2574633333333","6502100","三芝區"
"237004","078-UY","2017/12/15 19:39:50","新北市三峽區金敏5號","121.386588333333","24.874035","6500900","三峽區"
"237007","153-BY","2017/12/15 19:39:49","新北市三峽區二鬮路136巷20弄101號","121.358466666667","24.90854","6500900","三峽區"
"237009","210-TH","2017/12/15 19:39:57","新北市三峽區中園街20-1號","121.368396666667","24.926895","6500900","三峽區"
"237013","252-BX","2017/12/15 19:39:47","新北市三峽區介壽路二段167號","121.394428333333","24.9359033333333","6500900","三峽區"
"237012","275-BY","2017/12/15 19:39:51","新北市三峽區民生街1號","121.374585","24.9353516666667","6500900","三峽區"
"237008","302-VK","2017/12/15 19:39:41","新北市三峽區中華路138號","121.370686666667","24.9271","6500900","三峽區"
"237014","433-BY","2017/12/15 19:39:50","新北市三峽區添福111號","121.373978333333","24.9015366666667","6500900","三峽區"
"237006","5529-G3","2017/12/15 19:39:53","新北市三峽區中正路一段336巷15弄2號","121.369956666667","24.9249366666667","6500900","三峽區"
"237015","649-BX","2017/12/15 19:38:42","新北市三峽區溪東路222號","121.40778","24.932005","6500900","三峽區"
"237005","AKY-6261","2017/12/15 19:39:51","新北市三峽區中山路110號","121.365753333333","24.9358083333333","6500900","三峽區"
"236072","105-UM","2017/12/15 19:39:53","新北市土城區學士路123號","121.44729","24.975975","6501300","土城區"
"236043","107-UM","2017/12/15 19:39:57","新北市土城區裕民路244號","121.454143333333","24.9833266666667","6501300","土城區"
"236079","166-UM","2017/12/14 19:24:05","新北市土城區中央路四段295號","121.411261666667","24.9522833333333","6501300","土城區"
"236031","253-BX","2017/12/15 19:39:56","新北市土城區福祥街68號","121.441653333333","24.9817666666667","6501300","土城區"
"236027","269-VK","2017/12/15 19:39:43","新北市土城區中央路二段61巷22號","121.443161666667","24.9787666666667","6501300","土城區"
"236039","271-VK","2017/12/15 19:39:56","新北市土城區青雲路255號","121.459151666667","24.9808516666667","6501300","土城區"
"236022","401-BY","2017/12/15 19:39:51","新北市土城區峰廷街3號","121.469163333333","24.9873033333333","6501300","土城區"
"236059","912-UM","2017/12/15 19:39:49","新北市土城區中央路二段63號","121.442571666667","24.9789783333333","6501300","土城區"
"236050","913-UM","2017/12/15 19:39:44","新北市土城區明德路一段84號","121.464901666667","24.9798833333333","6501300","土城區"
"236063","915-UM","2017/12/15 19:39:35","新北市土城區延平街65號","121.467828333333","24.9927133333333","6501300","土城區"
"236055","AAC-216","2017/12/15 19:39:57","新北市土城區學府路一段76號","121.45647","24.988245","6501300","土城區"
"242027","612-BX","2017/12/15 19:39:50","新北市新莊區新泰路357巷3弄57號","121.442125","25.0391166666667","6500500","新莊區"
"242044","497-BY","2017/12/15 19:39:50","新北市泰山區中山路二段550號","121.429823333333","25.040775","6500500","新莊區"
"242032","442-UM","2017/12/15 19:39:54","新北市新莊區新泰路209號","121.445783333333","25.03869","6500500","新莊區"
"242048","441-UM","2017/12/15 19:39:45","新北市新莊區民安路43號","121.423635","25.0264366666667","6500500","新莊區"
"242005","413-TV","2017/12/15 19:39:53","新北市新莊區化成路29巷61號","121.46242","25.0439433333333","6500500","新莊區"
"242037","133-UY","2017/12/15 19:39:51","新北市新莊區民安路207巷10弄1號","121.426788333333","25.0229433333333","6500500","新莊區"
"242013","346-TH","2017/12/15 19:39:44","新北市新莊區中誠街119號","121.449425","25.04748","6500500","新莊區"
"242039","347-TH","2017/12/15 18:24:35","新北市新莊區新泰路357巷3弄57號","121.44235","25.03948","6500500","新莊區"
"242019","348-TH","2017/12/15 19:39:49","新北市新莊區新泰路488號","121.4424","25.045855","6500500","新莊區"
"242017","350-TH","2017/12/15 19:39:56","新北市新莊區三和路12-9號","121.442046666667","25.03665","6500500","新莊區"
"238015","755-BX","2017/12/15 19:39:55","新北市樹林區日新街89號","121.421766666667","24.9902216666667","6500700","樹林區"
"238023","601-UM","2017/12/15 19:39:46","新北市樹林區三福街166號","121.404758333333","25.0160066666667","6500700","樹林區"
"238024","5061-A6","2017/12/15 19:39:26","新北市樹林區中山路三段48號","121.394276666667","24.972445","6500700","樹林區"
"238022","KEA-2213","2017/12/15 19:39:57","新北市樹林區國凱街32-1號","121.419726666667","24.9784733333333","6500700","樹林區"
"238025","303-VK","2017/12/15 19:39:45","新北市樹林區中山路一段115號","121.422915","24.9905316666667","6500700","樹林區"
"238017","283-BY","2017/12/15 19:39:53","新北市樹林區保安街二段45巷13弄6號","121.415235","24.9996366666667","6500700","樹林區"
"238014","282-BY","2017/12/15 19:39:42","新北市樹林區千歲街30巷30弄2號","121.425813333333","24.99639","6500700","樹林區"
"238020","268-VK","2017/12/15 19:39:48","新北市樹林區樹新路122號","121.430105","24.9984333333333","6500700","樹林區"
"239007","AAC-297","2017/12/15 19:39:53","新北市鶯歌區大湖路354號","121.346341666667","24.9724766666667","6500800","鶯歌區"
"239006","891-R6","2017/12/15 19:39:58","新北市鶯歌區文化路9號","121.3608","24.9566316666667","6500800","鶯歌區"
"239002","359-BY","2017/12/15 19:39:41","新北市鶯歌區大湖路94號","121.34256","24.96304","6500800","鶯歌區"
"221008","489-VK","2017/12/15 19:39:41","新北市汐止區康寧街145號","121.621788333333","25.0666816666667","6501100","汐止區"
"221010","269-BY","2017/12/15 19:39:45","新北市汐止區汐萬路二段23巷1號","121.649503333333","25.08092","6501100","汐止區"
"221012","276-VK","2017/12/15 13:15:14","新北市汐止區汐萬路一段256巷3號","121.653408333333","25.0746516666667","6501100","汐止區"
"221012","278-VK","2017/12/15 19:39:46","新北市汐止區大同路三段380號","121.681315","25.0714816666667","6501100","汐止區"
"221023","279-VK","2017/12/15 19:39:56","新北市汐止區中興路282號","121.628571666667","25.0693566666667","6501100","汐止區"
"221032","280-BY","2017/12/15 19:39:50","新北市汐止區新台五路一段73號","121.644995","25.060215","6501100","汐止區"
"221027","281-BY","2017/12/15 19:39:52","新北市汐止區忠孝東路9號","121.658308333333","25.0659466666667","6501100","汐止區"
"221029","298-VK","2017/12/15 19:39:52","新北市汐止區康寧街901號","121.65166","25.0749733333333","6501100","汐止區"
"221021","299-VK","2017/12/15 19:39:41","新北市汐止區南興路28號","121.652258333333","25.0613","6501100","汐止區"
"221031","353-TW","2017/12/15 19:39:51","新北市汐止區康寧街901號","121.650828333333","25.0751616666667","6501100","汐止區"
"221015","567-BX","2017/12/15 19:39:55","新北市汐止區康寧街901號","121.651453333333","25.0749783333333","6501100","汐止區"
"221025","623-UM","2017/12/15 19:39:53","新北市汐止區仁愛路119巷24號","121.662111666667","25.0646433333333","6501100","汐止區"
"221038","646-BX","2017/12/15 19:39:55","新北市汐止區忠孝東路239號","121.662681666667","25.067335","6501100","汐止區"
"221033","647-BX","2017/12/15 19:39:47","新北市汐止區南勢街1巷2號","121.626983333333","25.0374833333333","6501100","汐止區"
"221002","707-TV","2017/12/15 19:39:43","新北市汐止區大同路一段219巷26號","121.633243333333","25.05846","6501100","汐止區"
"221018","753-BX","2017/12/15 19:39:22","新北市汐止區康寧街901號","121.651563333333","25.0749533333333","6501100","汐止區"
"220079","145-BY","2017/12/15 19:39:58","新北市板橋區建國街86-3號","121.459515","25.0173183333333","6500100","板橋區"
"220080","200-UY","2017/12/15 19:39:50","新北市板橋區大觀路二段37巷336號","121.450126666667","25.0023716666667","6500100","板橋區"
"220082","610-BX","2017/12/15 19:39:51","新北市板橋區大觀路三段191號","121.431948333333","24.99372","6500100","板橋區"
"220101","245-BX","2017/12/15 19:39:56","新北市板橋區縣民大道三段33巷1弄13號","121.473455","25.0205333333333","6500100","板橋區"
"220056","276-BY","2017/12/15 19:39:48","新北市板橋區四川路二段47巷1弄2號","121.45414","24.9948966666667","6500100","板橋區"
"220072","277-BY","2017/12/15 19:39:57","新北市板橋區金門街253巷8號","121.43267","24.988465","6500100","板橋區"
"220094","283-UM","2017/12/15 19:39:44","新北市板橋區宏國路93號","121.46979","25.0322666666667","6500100","板橋區"
"220071","283-VK","2017/12/15 19:39:55","新北市板橋區信義路279巷9號","121.461868333333","24.9894166666667","6500100","板橋區"
"220053","285-VK","2017/12/15 19:39:43","新北市板橋區中山路二段148巷30號","121.477103333333","25.0160483333333","6500100","板橋區"
"220083","286-VK","2017/12/15 19:39:51","新北市板橋區龍興街63巷53號","121.441516666667","25.001995","6500100","板橋區"
"220081","287-VK","2017/12/15 19:39:56","新北市板橋區大觀路一段29巷131弄21號","121.45064","25.004865","6500100","板橋區"
"220090","288-VK","2017/12/15 19:39:41","新北市板橋區裕民街115號","121.459533333333","25.0275966666667","6500100","板橋區"
"220061","293-UM","2017/12/15 19:39:51","新北市板橋區漢生東路113巷8號","121.467708333333","25.0153383333333","6500100","板橋區"
"220084","296-UM","2017/12/15 19:39:57","新北市板橋區滿平二街2巷1弄38號","121.424786666667","24.98753","6500100","板橋區"
"220075","297-UM","2017/12/15 19:39:54","新北市板橋區中正路212號","121.455911666667","25.0182316666667","6500100","板橋區"
"220092","299-UM","2017/12/15 19:39:53","新北市板橋區陽明街18號","121.466483333333","25.021725","6500100","板橋區"
"220062","305-R5","2017/12/15 19:39:48","新北市板橋區三民路二段83號","121.479413333333","25.0166866666667","6500100","板橋區"
"220098","317-R6","2017/12/15 19:39:45","新北市板橋區裕民街75巷2弄15-2號","121.460485","25.0276633333333","6500100","板橋區"
"220064","486-VK","2017/12/15 19:39:39","新北市板橋區中山路一段89號","121.461586666667","25.0100583333333","6500100","板橋區"
"220089","487-VK","2017/12/15 19:39:50","新北市板橋區陽明街251號","121.46261","25.0250833333333","6500100","板橋區"
"220088","491-VK","2017/12/15 19:39:40","新北市板橋區民治街9號","121.477435","25.0344683333333","6500100","板橋區"
"220035","560-BX","2017/12/15 19:39:55","新北市板橋區金華街74號","121.457638333333","25.020655","6500100","板橋區"
"220103","561-BX","2017/12/15 19:39:46","新北市板橋區文化路一段288號","121.467451666667","25.02144","6500100","板橋區"
"220063","609-BX","2017/12/15 19:39:46","新北市板橋區中山路二段491號","121.482498333333","25.0207983333333","6500100","板橋區"
"220091","637-BX","2017/12/15 19:39:53","新北市板橋區懷德街139巷8號","121.479458333333","25.0304933333333","6500100","板橋區"
"220057","686-BX","2017/12/15 19:39:40","新北市板橋區和平路61號","121.461105","24.9946433333333","6500100","板橋區"
"220077","687-BX","2017/12/15 19:39:50","新北市板橋區僑中一街150號","121.444833333333","25.0120766666667","6500100","板橋區"
"220093","689-BX","2017/12/15 19:39:42","新北市板橋區長江路一段38號","121.458411666667","25.0290083333333","6500100","板橋區"
"220054","741-BX","2017/12/15 19:39:49","新北市板橋區忠孝路237號","121.466166666667","25.0030583333333","6500100","板橋區"
"220055","827-TW","2017/12/15 19:39:45","新北市板橋區國慶路191號","121.462955","24.9964133333333","6500100","板橋區"
"220067","829-TW","2017/12/15 19:39:52","新北市板橋區漢生東路279巷34號","121.472463333333","25.00947","6500100","板橋區"
"220102","830-TW","2017/12/15 19:39:46","新北市板橋區松柏街50巷26號","121.475806666667","25.0292766666667","6500100","板橋區"
"220096","831-TW","2017/12/15 19:39:55","新北市板橋區民生路二段234巷49號","121.469555","25.022655","6500100","板橋區"
"220074","895-R6","2017/12/15 19:39:47","新北市板橋區府中路56號","121.457026666667","25.009555","6500100","板橋區"
"220073","985-R7","2017/12/15 19:39:41","新北市板橋區國光路31巷16號","121.457971666667","25.01801","6500100","板橋區"
"220097","AAC-210","2017/12/15 19:39:43","新北市板橋區漢生西路89巷2弄20號","121.461716666667","25.019805","6500100","板橋區"
"220070","AAC-253","2017/12/15 19:39:43","新北市板橋區民族路290號","121.470316666667","25.0068433333333","6500100","板橋區"
