"lineid","car","time","location","longitude","latitude","cityid","cityname"
"234046","148-BY","2017/12/15 19:59:53","新北市永和區成功路一段62號","121.527008333333","25.0037933333333","6500400","永和區"
"234013","149-BY","2017/12/15 19:59:52","新北市永和區保生路55號","121.504803333333","25.009935","6500400","永和區"
"234007","207-UY","2017/12/15 19:59:49","新北市永和區保生路22巷21號","121.507283333333","25.0082533333333","6500400","永和區"
"234081","298-R6","2017/12/15 19:59:45","新北市永和區國中路12號","121.52439","25.0049166666667","6500400","永和區"
"234038","336-UY","2017/12/15 19:59:36","新北市永和區成功路二段126號","121.526586666667","24.9976966666667","6500400","永和區"
"234064","337-UY","2017/12/15 19:59:43","新北市永和區秀朗路一段192巷8號","121.519433333333","25.002435","6500400","永和區"
"234086","338-UY","2017/12/15 19:59:41","新北市永和區福和路152號","121.521585","25.0078716666667","6500400","永和區"
"234070","552-UM","2017/12/15 19:59:46","新北市永和區國光路8號","121.519371666667","25.0084333333333","6500400","永和區"
"234054","553-UM","2017/12/15 19:59:58","新北市永和區環河東路一段122號","121.520628333333","25.0154466666667","6500400","永和區"
"234017","745-BX","2017/12/15 19:59:39","新北市永和區文化路75號","121.51378","25.0150833333333","6500400","永和區"
"234030","746-BX","2017/12/15 19:59:54","新北市永和區民權路49巷6號","121.520565","24.99699","6500400","永和區"
"234061","AAD-866","2017/12/15 19:59:54","新北市永和區得和路76號","121.516423333333","24.9999566666667","6500400","永和區"
"234042","862-TW","2017/12/15 19:59:37","新北市永和區中和路421巷16弄7號","121.508731666667","25.0011866666667","6500400","永和區"
"234050","863-TW","2017/12/15 19:59:48","新北市永和區保安路260號","121.505913333333","25.0124233333333","6500400","永和區"
"234026","9371-KE","2017/12/15 19:59:55","新北市永和區永貞路265號","121.511766666667","25.004715","6500400","永和區"
"234011","9373-KE","2017/12/15 19:59:47","新北市永和區仁愛路352巷110號","121.500611666667","25.0083333333333","6500400","永和區"
"249005","172-UM","2017/12/15 19:59:37","新北市八里區楓林路3-3號","121.382341666667","25.1303083333333","6502300","八里區"
"249001","173-UM","2017/12/15 19:59:47","新北市八里區中華路二段310號","121.403843333333","25.1483433333333","6502300","八里區"
"249004","303-UY","2017/12/15 19:59:40","新北市八里區中華路一段333-1號","121.412646666667","25.1546433333333","6502300","八里區"
"249002","305-UY","2017/12/15 19:59:47","新北市八里區龍米路一段63號","121.455645","25.12085","6502300","八里區"
"249003","593-UM","2017/12/15 19:59:49","新北市八里區訊塘路2號","121.398418333333","25.1445533333333","6502300","八里區"
"248014","025-BX","2017/12/15 19:59:42","新北市五股區五福路11-6號","121.434211666667","25.08871","6501500","五股區"
"248016","026-BX","2017/12/15 19:59:47","新北市五股區成泰路三段577巷80弄50號","121.449658333333","25.1048683333333","6501500","五股區"
"248008","095-VK","2017/12/15 19:59:38","新北市五股區四維路147號","121.467678333333","25.0742333333333","6501500","五股區"
"248018","225-UY","2017/12/15 19:59:45","新北市五股區登林路118號","121.418465","25.0737866666667","6501500","五股區"
"248012","247-BX","2017/12/15 19:59:40","新北市五股區民義路一段112-10號","121.435356666667","25.0852266666667","6501500","五股區"
"248004","677-BX","2017/12/15 19:59:40","新北市五股區成泰路一段32巷62號","121.435056666667","25.0669083333333","6501500","五股區"
"248002","678-BX","2017/12/15 19:59:52","新北市五股區成泰路三段487號","121.450741666667","25.0992766666667","6501500","五股區"
"248010","682-TV","2017/12/15 19:59:48","新北市五股區登林路108號","121.427108333333","25.0705566666667","6501500","五股區"
"234023","9380-KE","2017/12/15 19:59:43","新北市永和區中正路702巷18號","121.516426666667","25.010545","6500400","永和區"
"234077","969-R7","2017/12/15 19:59:51","新北市永和區民有街18號","121.51651","24.9966183333333","6500400","永和區"
"234074","AAC-211","2017/12/15 19:59:46","新北市永和區豫溪街158號","121.523158333333","25.00982","6500400","永和區"
"234067","AAC-212","2017/12/15 19:59:40","新北市永和區永貞路375號","121.50832","25.00819","6500400","永和區"
"234003","AAC-295","2017/12/15 19:59:51","新北市永和區中正路613號","121.516215","25.0098216666667","6500400","永和區"
"244019","403-UM","2017/12/15 19:59:42","新北市林口區粉寮路一段135號","121.399046666667","25.0810333333333","6501700","林口區"
"243012","AAD-798","2017/12/15 19:59:48","新北市泰山區全興路109號","121.433875","25.0567033333333","6501600","泰山區"
"243011","297-R6","2017/12/15 19:59:46","新北市泰山區明志路三段452號","121.420913333333","25.0324733333333","6501600","泰山區"
"243015","380-SR","2017/12/15 19:59:56","新北市泰山區明志路二段194號","121.427246666667","25.0496066666667","6501600","泰山區"
"243014","421-VK","2017/12/15 19:59:41","新北市泰山區泰林路二段150號","121.434166666667","25.0600183333333","6501600","泰山區"
"243010","KEA-2215","2017/12/15 19:59:44","新北市泰山區中華街7號","121.427911666667","25.05246","6501600","泰山區"
"243009","KEA-2216","2017/12/15 19:59:48","新北市泰山區泰林路二段142巷13弄7號","121.434683333333","25.0606766666667","6501600","泰山區"
"243016","680-BX","2017/12/15 19:59:46","新北市泰山區明志路三段472號","121.42097","25.03184","6501600","泰山區"
"222003","436-BY","2017/12/15 19:59:51","新北市深坑區埔新街14號","121.620765","25.0039333333333","6501800","深坑區"
"222002","659-BX","2017/12/15 19:59:46","新北市深坑區埔新街104-1號","121.618555","25.0021883333333","6501800","深坑區"
"231055","0291-UT","2017/12/15 19:59:45","新北市新店區中華路83巷67號","121.538345","24.967235","6500600","新店區"
"231059","046-UY","2017/12/15 19:59:41","新北市新店區安康路二段147號","121.511201666667","24.9598916666667","6500600","新店區"
"231061","047-UY","2017/12/15 19:59:46","新北市新店區安興路33-1號","121.515803333333","24.97039","6500600","新店區"
"231060","106-UY","2017/12/15 19:59:36","新北市新店區安康路二段345號","121.496088333333","24.9550266666667","6500600","新店區"
"231051","107-UY","2017/12/15 19:59:46","新北市新店區中央一街22號","121.52793","24.9733633333333","6500600","新店區"
"231048","108-UY","2017/12/15 19:59:45","新北市新店區寶宏路3號","121.549146666667","24.9768116666667","6500600","新店區"
"231053","187-VK","2017/12/15 19:59:53","新北市新店區新烏路三段185號","121.550381666667","24.9010566666667","6500600","新店區"
"231050","KEA-2219","2017/12/15 19:59:36","新北市新店區北新路一段90號","121.542033333333","24.9687766666667","6500600","新店區"
"231057","256-BX","2017/12/15 19:59:40","新北市新店區花園二路一段11號","121.555465","24.9324983333333","6500600","新店區"
"231046","278-BY","2017/12/15 19:59:54","新北市新店區安興路131巷2號","121.515603333333","24.97916","6500600","新店區"
"231054","AAD-862","2017/12/15 19:59:38","新北市新店區光明街170號","121.53958","24.96191","6500600","新店區"
"231058","3712-VJ","2017/12/15 19:59:56","新北市新店區薏仁坑路自強巷1號","121.497711666667","24.9577066666667","6500600","新店區"
"231056","3713-VJ","2017/12/15 19:59:55","新北市新店區民權路42巷22號","121.539598333333","24.9837516666667","6500600","新店區"
"231067","4772-VM","2017/12/15 19:59:38","新北市新店區秀山路11巷14號","121.531795","24.9592866666667","6500600","新店區"
"231065","512-UM","2017/12/15 19:59:54","新北市新店區安祥路106巷345號","121.47287","24.95937","6500600","新店區"
"231064","515-UM","2017/12/15 19:59:45","新北市新店區安和路二段66號","121.518141666667","24.9678583333333","6500600","新店區"
"231042","616-UM","2017/12/15 19:59:47","新北市新店區中興路一段292號","121.545893333333","24.9691733333333","6500600","新店區"
"231045","617-UM","2017/12/15 19:59:44","新北市新店區北宜路二段263號","121.554643333333","24.9535616666667","6500600","新店區"
"231041","618-UM","2017/12/15 19:59:38","新北市新店區中正路358號","121.53561","24.97569","6500600","新店區"
"231040","619-UM","2017/12/15 19:59:46","新北市新店區中正路75巷63號","121.543246666667","24.9692483333333","6500600","新店區"
"231063","645-TV","2017/12/15 19:59:51","新北市新店區黎明路3號","121.503521666667","24.9523866666667","6500600","新店區"
"231049","719-UM","2017/12/15 19:59:53","新北市新店區明德路42號","121.541433333333","24.978185","6500600","新店區"
"231062","720-UM","2017/12/15 19:59:43","新北市新店區華城路12-1號","121.528953333333","24.9580483333333","6500600","新店區"
"231044","897-TW","2017/12/15 19:59:47","新北市新店區寶慶街58巷6號","121.542066666667","24.987","6500600","新店區"
"231043","899-TW","2017/12/15 19:59:42","新北市新店區中正路263-2號","121.538445","24.9738466666667","6500600","新店區"
"231066","AKT-0513","2017/12/15 19:59:14","新北市新店區安德街60巷35號","121.510971666667","24.9638966666667","6500600","新店區"
"241011","013-R5","2017/12/15 19:59:55","新北市三重區秀江街244號","121.496298333333","25.07127","6500200","三重區"
"241028","022-UY","2017/12/15 19:59:48","新北市三重區中正南路40號","121.493801666667","25.0601766666667","6500200","三重區"
"241008","059-VK","2017/12/15 19:59:42","新北市三重區永福街197巷8號","121.478138333333","25.0745683333333","6500200","三重區"
"241009","060-VK","2017/12/15 19:59:40","新北市三重區三和路四段390巷11號","121.481266666667","25.07892","6500200","三重區"
"241031","061-VK","2017/12/15 19:59:48","新北市三重區重新路四段144巷18號","121.487065","25.055435","6500200","三重區"
"241015","062-VK","2017/12/15 19:59:52","新北市三重區三和路二段19號","121.501183333333","25.0669833333333","6500200","三重區"
"241017","063-VK","2017/12/15 19:59:47","新北市三重區自強路一段298號","121.491445","25.0683733333333","6500200","三重區"
"241024","065-VK","2017/12/15 19:59:40","新北市三重區力行路一段178巷3號","121.481711666667","25.07144","6500200","三重區"
"241026","066-VK","2017/12/15 19:59:56","新北市三重區仁慈街32號","121.502321666667","25.0632183333333","6500200","三重區"
"241003","091-VK","2017/12/15 19:59:38","新北市三重區仁愛街445巷10號","121.4904","25.0826316666667","6500200","三重區"
"241005","262-UM","2017/12/15 19:59:39","新北市三重區五華街251號","121.489046666667","25.0863433333333","6500200","三重區"
"241002","265-UM","2017/12/15 19:59:56","新北市三重區仁愛街351號","121.49213","25.0798716666667","6500200","三重區"
"241016","266-UM","2017/12/15 19:59:44","新北市三重區正德街58號","121.495525","25.063365","6500200","三重區"
"241022","267-UM","2017/12/15 19:59:40","新北市三重區過圳街31巷2號","121.489093333333","25.0606383333333","6500200","三重區"
"241018","268-UM","2017/12/15 19:59:47","新北市三重區大智街49-1號","121.492895","25.0676633333333","6500200","三重區"
"241032","269-UM","2017/12/15 19:59:44","新北市三重區朝陽街55號","121.48339","25.057375","6500200","三重區"
"241013","270-UM","2017/12/15 19:59:54","新北市三重區三和路三段125巷20號","121.493466666667","25.0736016666667","6500200","三重區"
"241025","271-UM","2017/12/15 19:59:51","新北市三重區頂崁街210巷20號","121.476238333333","25.0678283333333","6500200","三重區"
"241007","398-BY","2017/12/15 19:59:55","新北市三重區溪尾街124-1號","121.489511666667","25.07944","6500200","三重區"
"241020","413-TH","2017/12/15 19:59:48","新北市三重區大智街183號","121.48952","25.07301","6500200","三重區"
"241004","475-VK","2017/12/15 19:59:55","新北市三重區五華街108-2號","121.492493333333","25.08276","6500200","三重區"
"241019","478-VK","2017/12/15 19:59:52","新北市三重區重陽路三段115號","121.49071","25.0687283333333","6500200","三重區"
"241030","480-VK","2017/12/15 19:59:47","新北市三重區重新路四段248-1號","121.486255","25.053385","6500200","三重區"
"241014","543-UM","2017/12/15 19:59:56","新北市三重區介壽路1號","121.499021666667","25.068855","6500200","三重區"
"241023","545-UM","2017/12/15 19:59:40","新北市三重區頂崁街172號","121.477656666667","25.0659233333333","6500200","三重區"
"241001","547-UM","2017/12/15 19:59:42","新北市三重區仁愛街283巷40號","121.494535","25.0800516666667","6500200","三重區"
"241006","AAD-863","2017/12/15 19:59:48","新北市三重區力行路二段91巷21弄2號","121.483681666667","25.0760283333333","6500200","三重區"
"241035","743-BX","2017/12/15 19:59:46","新北市三重區大榮街7號","121.498181666667","25.06306","6500200","三重區"
"241029","887-TS","2017/12/15 19:59:51","新北市三重區重安街14號","121.490248333333","25.0582066666667","6500200","三重區"
"241012","941-UM","2017/12/15 19:59:52","新北市三重區仁義街18號","121.499626666667","25.0762933333333","6500200","三重區"
"241033","AAC-255","2017/12/15 19:59:41","新北市三重區中興北街34號","121.469653333333","25.0489466666667","6500200","三重區"
"235066","003-UY","2017/12/15 19:59:38","新北市永和區中山路一段343號","121.505778333333","25.00575","6500300","中和區"
"235046","031-BX","2017/12/15 19:59:49","新北市中和區興南路一段93巷58弄6-3號","121.510488333333","24.9859233333333","6500300","中和區"
"235056","096-UM","2017/12/15 19:59:22","新北市中和區中山路三段170巷8弄24號","121.473126666667","25.0076983333333","6500300","中和區"
"235039","097-UM","2017/12/15 19:59:54","新北市中和區大勇街25巷29弄3號","121.515153333333","24.99367","6500300","中和區"
"235040","150-BY","2017/12/15 19:59:43","新北市中和區保健路19巷4弄2號","121.50849","24.99847","6500300","中和區"
"235058","151-BY","2017/12/15 19:59:42","新北市中和區連城路525-8號","121.480971666667","24.9950416666667","6500300","中和區"
"235055","183-VK","2017/12/15 19:59:43","新北市中和區民生街14號","121.47043","25.0055083333333","6500300","中和區"
"235049","186-VK","2017/12/15 19:59:48","新北市中和區景平路530號","121.502743333333","24.9944283333333","6500300","中和區"
"235067","255-BX","2017/12/15 19:59:54","新北市中和區員山路148巷23弄15號","121.482158333333","24.997885","6500300","中和區"
"235044","293-VK","2017/12/15 19:59:56","新北市中和區中正路65巷6號","121.501236666667","24.992955","6500300","中和區"
"235043","352-BY","2017/12/15 19:59:47","新北市中和區興南路二段159巷12號","121.505163333333","24.9831383333333","6500300","中和區"
"235068","377-QA","2017/12/15 19:59:40","新北市中和區景平路736巷5弄5號","121.497468333333","25.0034183333333","6500300","中和區"
"235050","4979-A6","2017/12/15 19:59:43","新北市中和區安樂路62號","121.512216666667","24.99317","6500300","中和區"
"235069","4980-A6","2017/12/15 19:59:44","新北市中和區南山路127巷27弄1號","121.503346666667","24.997635","6500300","中和區"
"235070","558-UM","2017/12/15 19:59:49","新北市中和區景平路624號","121.500493333333","24.9974133333333","6500300","中和區"
"235054","640-BX","2017/12/15 19:59:25","新北市中和區國光街1號","121.472535","25.0002016666667","6500300","中和區"
"235060","647-TV","2017/12/15 19:59:38","新北市中和區中山路二段521號","121.481708333333","25.0050333333333","6500300","中和區"
"235041","802-TS","2017/12/15 19:59:43","新北市中和區安平路17號","121.50918","24.99414","6500300","中和區"
"235052","805-TS","2017/12/15 19:59:50","新北市中和區忠孝街79號","121.512156666667","24.985145","6500300","中和區"
"235048","896-TW","2017/12/15 19:59:43","新北市中和區景新街426號","121.513016666667","24.98882","6500300","中和區"
"235053","900-TW","2017/12/15 19:59:51","新北市中和區華安街99號","121.468156666667","24.996325","6500300","中和區"
"235065","911-UM","2017/12/15 19:59:47","新北市中和區福美路240號","121.498768333333","25.0052283333333","6500300","中和區"
"235051","157-BY","2017/12/15 19:59:53","新北市中和區景安路247巷7號","121.504316666667","24.99063","6500300","中和區"
"235037","AAC-213","2017/12/15 19:59:53","新北市中和區自立路127號","121.52198","24.99409","6500300","中和區"
"235059","AAC-215","2017/12/15 19:59:44","新北市中和區圓通路335巷5弄1號","121.492765","24.9899783333333","6500300","中和區"
"220068","013-TV","2017/12/15 15:15:22","新北市板橋區縣民大道三段205巷1號","121.479768333333","25.0250733333333","6500100","板橋區"
"220065","072-UY","2017/12/15 19:59:37","新北市板橋區民族路73號","121.465465","25.0088116666667","6500100","板橋區"
"220106","075-UY","2017/12/15 19:59:55","新北市板橋區懷德街9號","121.476736666667","25.0330283333333","6500100","板橋區"
"220069","AAD-861","2017/12/15 19:59:47","新北市板橋區大明街20巷19弄16號","121.458023333333","25.0033066666667","6500100","板橋區"
"247020","500-BY","2017/12/15 19:59:55","新北市蘆洲區民義街77號","121.47335","25.0902766666667","6501400","蘆洲區"
"247008","341-TH","2017/12/15 19:59:49","新北市蘆洲區信義路73巷17號","121.475891666667","25.08085","6501400","蘆洲區"
"247010","339-TH","2017/12/15 19:59:54","新北市蘆洲區集賢路217-1號","121.482978333333","25.086725","6501400","蘆洲區"
"247002","337-TH","2017/12/15 19:59:41","新北市蘆洲區長安街272號","121.45727","25.0870166666667","6501400","蘆洲區"
"247004","336-TH","2017/12/15 19:59:42","新北市蘆洲區永康街39號","121.457181666667","25.0852916666667","6501400","蘆洲區"
"247016","057-VK","2017/12/15 19:59:45","新北市蘆洲區光華路23號","121.469496666667","25.0832683333333","6501400","蘆洲區"
"247006","056-VK","2017/12/15 19:59:55","新北市蘆洲區九芎街89號","121.466261666667","25.0793866666667","6501400","蘆洲區"
"247014","007-UY","2017/12/15 19:59:36","新北市蘆洲區中山二路220號","121.469883333333","25.0798133333333","6501400","蘆洲區"
"247024","002-UY","2017/12/15 19:59:45","新北市蘆洲區光榮路120巷12號","121.465603333333","25.0883416666667","6501400","蘆洲區"
"226004","205-ST","2017/12/15 19:59:34","新北市平溪區靜安路三段355號","121.779776666667","25.0448766666667","6502400","平溪區"
"228003","828-UM","2017/12/15 19:59:39","新北市貢寮區仁理村仁和路76號","121.92269","25.0501566666667","6502600","貢寮區"
"227003","642-TC","2017/12/15 19:59:34","新北市雙溪區雙溪里長安街16號","121.865008333333","25.03467","6502500","雙溪區"
"227011","400-TW","2017/12/15 19:59:51","新北市雙溪區新基里新基南街25號","121.866276666667","25.0381266666667","6502500","雙溪區"
"222001","KEA-2212","2017/12/15 19:59:44","新北市深坑區北深路三段170號","121.60223","25.0034483333333","6501800","深坑區"
"208002","742-BX","2017/12/15 19:59:40","新北市金山區中山路16號","121.641718333333","25.2173616666667","6502700","金山區"
"208003","665-BX","2017/12/15 19:59:44","新北市金山區香園6號","121.63454","25.2484983333333","6502700","金山區"
"208001","761-BX","2017/12/15 19:59:52","新北市金山區南勢41號","121.629085","25.219825","6502700","金山區"
"251004","009-UM","2017/12/15 19:59:56","新北市淡水區民族路50巷30號","121.460911666667","25.13567","6501000","淡水區"
"251001","011-UM","2017/12/15 19:59:53","新北市淡水區淡金路二段147號","121.449578333333","25.18295","6501000","淡水區"
"251013","180-VK","2017/12/15 19:59:55","新北市淡水區頂田寮路3號","121.453538333333","25.2167366666667","6501000","淡水區"
"251015","182-VK","2017/12/15 19:59:47","新北市淡水區埤島76-2號","121.451913333333","25.1931416666667","6501000","淡水區"
"251010","413-VK","2017/12/15 19:59:40","新北市淡水區崁頂115號","121.432205","25.20432","6501000","淡水區"
"251012","441-VK","2017/12/15 19:59:56","新北市淡水區下圭柔山70巷1號","121.446425","25.207645","6501000","淡水區"
"251005","443-VK","2017/12/15 19:59:48","新北市淡水區學府路136巷46號","121.452183333333","25.1726266666667","6501000","淡水區"
"251006","561-UM","2017/12/15 19:59:52","新北市淡水區北新路29號","121.445168333333","25.17773","6501000","淡水區"
"251009","575-R6","2017/12/15 19:59:57","新北市淡水區英專路28巷2弄1號","121.445998333333","25.16968","6501000","淡水區"
"251011","650-BX","2017/12/15 19:59:41","新北市淡水區崁頂55-3號","121.442298333333","25.196685","6501000","淡水區"
"207003","550-UM","2017/12/15 19:59:45","新北市萬里區磺潭里公館崙5號","121.641901666667","25.2142333333333","6502800","萬里區"
"207004","225-TW","2017/12/15 19:59:40","新北市萬里區北基里忠二街35號","121.685678333333","25.1757833333333","6502800","萬里區"
"252002","178-VK","2017/12/15 19:59:59","新北市三芝區三民街39巷5號","121.50543","25.2576883333333","6502100","三芝區"
"252001","292-VK","2017/12/15 19:59:55","新北市三芝區公正街66號","121.49979","25.2574616666667","6502100","三芝區"
"237007","153-BY","2017/12/15 19:59:46","新北市三峽區二鬮路136巷20弄101號","121.358381666667","24.9086483333333","6500900","三峽區"
"237012","275-BY","2017/12/15 19:59:51","新北市三峽區中華路3巷8-1號","121.374933333333","24.9311216666667","6500900","三峽區"
"237006","5529-G3","2017/12/15 19:59:53","新北市三峽區正義街27巷7號","121.370155","24.9188666666667","6500900","三峽區"
"237015","649-BX","2017/12/15 19:59:42","新北市三峽區介壽路二段138巷1弄148-2號","121.399576666667","24.9304316666667","6500900","三峽區"
"237005","AKY-6261","2017/12/15 19:59:51","新北市三峽區民生街1巷29-3號","121.380533333333","24.933345","6500900","三峽區"
"236072","105-UM","2017/12/15 19:59:53","新北市土城區忠義路95號","121.443638333333","24.964195","6501300","土城區"
"236043","107-UM","2017/12/15 19:59:37","新北市土城區學府路一段121號","121.455233333333","24.98726","6501300","土城區"
"236079","166-UM","2017/12/14 19:24:05","新北市土城區中央路四段295號","121.411261666667","24.9522833333333","6501300","土城區"
"236031","253-BX","2017/12/15 19:59:55","新北市土城區中央路一段248號","121.444488333333","24.9848016666667","6501300","土城區"
"236027","269-VK","2017/12/15 19:59:44","新北市土城區中央路二段94號","121.442228333333","24.9786216666667","6501300","土城區"
"236015","270-VK","2017/12/15 19:59:50","新北市土城區廣福街128號","121.456321666667","24.9928283333333","6501300","土城區"
"236039","271-VK","2017/12/15 19:59:52","新北市土城區國際路70號","121.46656","24.9781766666667","6501300","土城區"
"236022","401-BY","2017/12/15 19:59:51","新北市土城區延吉街120號","121.469816666667","24.9859516666667","6501300","土城區"
"236059","912-UM","2017/12/15 19:59:49","新北市土城區中央路一段223號","121.44568","24.9864916666667","6501300","土城區"
"236050","913-UM","2017/12/15 19:59:44","新北市土城區金城路三段313-2號","121.474808333333","24.991095","6501300","土城區"
"236063","915-UM","2017/12/15 19:59:58","新北市土城區金城路三段33巷24號","121.46504","24.9875033333333","6501300","土城區"
"236055","AAC-216","2017/12/15 19:59:37","新北市土城區青雲路33號","121.46063","24.9883583333333","6501300","土城區"
"242029","986-R7","2017/12/15 19:59:56","新北市新莊區中榮街103號","121.444735","25.0527216666667","6500500","新莊區"
"242050","751-BX","2017/12/15 19:59:58","新北市新莊區龍安路537號","121.428086666667","25.0175583333333","6500500","新莊區"
"242025","615-BX","2017/12/15 19:59:45","新北市新莊區五工一路86號","121.461438333333","25.067675","6500500","新莊區"
"242023","613-BX","2017/12/15 19:59:47","新北市新莊區化成路394號","121.465961666667","25.050465","6500500","新莊區"
"242027","612-BX","2017/12/15 19:59:50","新北市新莊區幸福路902號","121.443116666667","25.04933","6500500","新莊區"
"242044","497-BY","2017/12/15 19:59:50","新北市新莊區中正路746巷43-3號","121.411878333333","25.0243416666667","6500500","新莊區"
"242032","442-UM","2017/12/15 19:59:53","新北市新莊區公園一路42號","121.443333333333","25.0356866666667","6500500","新莊區"
"242048","441-UM","2017/12/15 19:59:45","新北市新莊區四維路10號","121.42385","25.0251316666667","6500500","新莊區"
"242054","440-UM","2017/12/15 19:59:47","新北市新莊區西盛街421號","121.427346666667","25.0121916666667","6500500","新莊區"
"242034","415-TV","2017/12/15 19:59:53","新北市新莊區新泰路157號","121.447613333333","25.0368933333333","6500500","新莊區"
"242005","413-TV","2017/12/15 19:59:33","新北市新莊區化成路352巷29號","121.46711","25.049155","6500500","新莊區"
"242041","400-BY","2017/12/15 19:59:42","新北市新莊區壽山路164號","121.413246666667","25.03121","6500500","新莊區"
"242060","362-BY","2017/12/15 19:59:53","新北市新莊區瓊泰路23號","121.44423","25.02859","6500500","新莊區"
"242058","353-BY","2017/12/15 19:59:55","新北市新莊區八德街135號","121.423826666667","25.0202066666667","6500500","新莊區"
"242007","132-UY","2017/12/15 19:59:41","新北市新莊區思源路585號","121.459831666667","25.0592033333333","6500500","新莊區"
"242037","133-UY","2017/12/15 19:59:51","新北市新莊區建安街27號","121.428931666667","25.0259666666667","6500500","新莊區"
"242021","135-UY","2017/12/15 19:59:54","新北市新莊區建中街32巷14號","121.448845","25.0381216666667","6500500","新莊區"
"242009","173-VK","2017/12/15 19:59:40","新北市新莊區幸福路720號","121.449348333333","25.04927","6500500","新莊區"
"242015","175-VK","2017/12/15 19:59:50","新北市新莊區復興路一段47巷12號","121.446823333333","25.0426816666667","6500500","新莊區"
"242002","176-VK","2017/12/15 19:59:52","新北市新莊區中正路285號","121.448918333333","25.03527","6500500","新莊區"
"242013","346-TH","2017/12/15 19:59:44","新北市新莊區中港路398號","121.452193333333","25.0497666666667","6500500","新莊區"
"242039","347-TH","2017/12/15 19:59:54","新北市新莊區民安路287-1號","121.42896","25.0228366666667","6500500","新莊區"
"242019","348-TH","2017/12/15 19:59:49","新北市新莊區長青街37巷9號","121.456498333333","25.0417633333333","6500500","新莊區"
"242056","349-TH","2017/12/15 19:59:54","新北市新莊區中正路347巷21號","121.447296666667","25.034195","6500500","新莊區"
"242017","350-TH","2017/12/15 19:59:56","新北市新莊區中港路320號","121.452638333333","25.0458266666667","6500500","新莊區"
"242011","351-TH","2017/12/15 19:59:45","新北市新莊區中港路531巷116號","121.449933333333","25.0517533333333","6500500","新莊區"
"238015","755-BX","2017/12/15 19:59:39","新北市樹林區民和街1號","121.38517","24.9679216666667","6500700","樹林區"
"239002","359-BY","2017/12/15 19:59:42","新北市鶯歌區二甲路13號","121.343988333333","24.9353466666667","6500800","鶯歌區"
"221008","489-VK","2017/12/15 19:59:41","新北市汐止區康寧街39號","121.618495","25.0668266666667","6501100","汐止區"
"221036","130-UY","2017/12/15 19:59:51","新北市汐止區忠孝東路258巷11弄7號","121.664013333333","25.0675233333333","6501100","汐止區"
"221010","269-BY","2017/12/15 19:59:45","新北市汐止區連峰街268號","121.644551666667","25.0813","6501100","汐止區"
"221012","276-VK","2017/12/15 13:15:14","新北市汐止區汐萬路一段256巷3號","121.653408333333","25.0746516666667","6501100","汐止區"
"221012","278-VK","2017/12/15 19:59:45","新北市汐止區汐平路一段51號","121.682365","25.07057","6501100","汐止區"
"221023","279-VK","2017/12/15 19:59:56","新北市汐止區明峰街194號","121.628015","25.069565","6501100","汐止區"
"221032","280-BY","2017/12/15 19:59:50","新北市汐止區橫科路18巷32弄10號","121.617398333333","25.0497916666667","6501100","汐止區"
"221027","281-BY","2017/12/15 19:59:52","新北市汐止區中正路74號","121.661601666667","25.069775","6501100","汐止區"
"221029","298-VK","2017/12/15 19:59:52","新北市汐止區樟樹一路137巷24號","121.641068333333","25.065925","6501100","汐止區"
"221021","299-VK","2017/12/15 19:59:41","新北市汐止區水源路一段171號","121.655243333333","25.0618983333333","6501100","汐止區"
"221031","353-TW","2017/12/15 19:59:51","新北市汐止區福德一路176巷1弄1號","121.635601666667","25.066265","6501100","汐止區"
"221015","567-BX","2017/12/15 19:59:35","新北市汐止區忠孝東路487-13號","121.665243333333","25.074135","6501100","汐止區"
"221035","622-UM","2017/12/15 19:59:41","新北市汐止區長江街57巷6號","121.656226666667","25.0718","6501100","汐止區"
"221025","623-UM","2017/12/15 19:59:53","新北市汐止區秀峰路104號","121.65996","25.0636983333333","6501100","汐止區"
"221038","646-BX","2017/12/15 19:59:55","新北市汐止區忠孝東路493號","121.666285","25.074395","6501100","汐止區"
"221033","647-BX","2017/12/15 19:59:47","新北市汐止區東勢街201巷104號","121.63346","25.0429066666667","6501100","汐止區"
"221018","753-BX","2017/12/15 19:59:42","新北市汐止區茄苳路289號","121.67253","25.06774","6501100","汐止區"
"220079","145-BY","2017/12/15 19:59:56","新北市板橋區南雅西路二段213號","121.451231666667","25.0135666666667","6500100","板橋區"
"220080","200-UY","2017/12/15 19:59:50","新北市板橋區大觀路二段179巷33號","121.446293333333","24.99954","6500100","板橋區"
"220082","610-BX","2017/12/15 19:59:51","新北市板橋區大觀路三段121號","121.432631666667","24.9944466666667","6500100","板橋區"
"220101","245-BX","2017/12/15 19:59:39","新北市板橋區八德路三段33巷17-1號","121.473821666667","25.0213816666667","6500100","板橋區"
"220072","277-BY","2017/12/15 19:59:40","新北市板橋區金門街121巷15號","121.433748333333","24.9915216666667","6500100","板橋區"
"220094","283-UM","2017/12/15 19:59:45","新北市板橋區文德路3號","121.462901666667","25.0244283333333","6500100","板橋區"
"220071","283-VK","2017/12/15 19:59:55","新北市板橋區和平路174巷47號","121.46561","24.9937583333333","6500100","板橋區"
"220053","285-VK","2017/12/15 19:59:53","新北市板橋區永豐街121號","121.474471666667","25.01964","6500100","板橋區"
"220083","286-VK","2017/12/15 19:59:51","新北市板橋區僑中二街48巷5號","121.446368333333","25.01051","6500100","板橋區"
"220081","287-VK","2017/12/15 19:59:41","新北市板橋區僑中一街80巷10弄1號","121.447993333333","25.01283","6500100","板橋區"
"220090","288-VK","2017/12/15 19:59:41","新北市板橋區幸福路32巷4弄7號","121.461155","25.0214383333333","6500100","板橋區"
"220061","293-UM","2017/12/15 19:59:51","新北市板橋區縣民大道二段200巷3號","121.46978","25.0172","6500100","板橋區"
"220084","296-UM","2017/12/15 19:59:53","新北市板橋區板林路158號","121.424455","24.987855","6500100","板橋區"
"220092","299-UM","2017/12/15 19:59:53","新北市板橋區公館街134號","121.461333333333","25.0184966666667","6500100","板橋區"
"220062","305-R5","2017/12/15 19:59:48","新北市板橋區萬安街85巷1弄11號","121.484411666667","25.02495","6500100","板橋區"
"220098","317-R6","2017/12/15 19:59:51","新北市板橋區新海路72巷17號","121.462435","25.0223316666667","6500100","板橋區"
"220064","486-VK","2017/12/15 19:59:47","新北市板橋區館前東路152號","121.464383333333","25.007645","6500100","板橋區"
"220089","487-VK","2017/12/15 19:59:50","新北市板橋區新海路385巷34弄12號","121.457121666667","25.0259383333333","6500100","板橋區"
"220088","491-VK","2017/12/15 19:59:56","新北市板橋區懷德街185號","121.479641666667","25.0297333333333","6500100","板橋區"
"220103","561-BX","2017/12/15 19:59:46","新北市板橋區自由路18-3號","121.465476666667","25.0225933333333","6500100","板橋區"
"220091","637-BX","2017/12/15 19:59:48","新北市板橋區文聖街101號","121.477691666667","25.0295483333333","6500100","板橋區"
"220057","686-BX","2017/12/15 19:59:39","新北市板橋區四川路二段2號","121.456621666667","24.9965816666667","6500100","板橋區"
"220093","689-BX","2017/12/15 19:59:38","新北市板橋區文化路二段652號","121.478651666667","25.0357183333333","6500100","板橋區"
"220054","741-BX","2017/12/15 19:59:49","新北市板橋區忠孝路忠義巷14弄1號","121.46556","25.0036483333333","6500100","板橋區"
"220055","827-TW","2017/12/15 19:59:45","新北市板橋區國慶路149巷37弄2號","121.460746666667","24.998025","6500100","板橋區"
"220067","829-TW","2017/12/15 19:59:52","新北市板橋區漢生東路193巷5號","121.470178333333","25.0117383333333","6500100","板橋區"
"220102","830-TW","2017/12/15 19:59:42","新北市板橋區仁化街42巷26號","121.475628333333","25.0307933333333","6500100","板橋區"
"220096","831-TW","2017/12/15 19:59:42","新北市板橋區莒光路40巷16號","121.470213333333","25.02368","6500100","板橋區"
"220074","895-R6","2017/12/15 19:59:54","新北市板橋區民權路87號","121.460848333333","25.01192","6500100","板橋區"
"220073","985-R7","2017/12/15 19:59:41","新北市板橋區南雅西路二段2-1號","121.453225","25.008845","6500100","板橋區"
"220097","AAC-210","2017/12/15 19:59:43","新北市板橋區光正街18巷15號","121.46272","25.017855","6500100","板橋區"
"220070","AAC-253","2017/12/15 19:59:43","新北市板橋區成都街10號","121.460315","25.0047583333333","6500100","板橋區"
