"lineid","car","time","location","longitude","latitude","cityid","cityname"
"234086","338-UY","2017/12/15 20:49:01","新北市五股區中直路15號","121.423763333333","25.1108766666667","6500400","永和區"
"234074","AAC-211","2017/12/15 20:49:54","新北市永和區環河東路二段30號","121.522523333333","25.0127116666667","6500400","永和區"
"244019","403-UM","2017/12/15 20:11:45","新北市林口區粉寮69號","121.404998333333","25.0908583333333","6501700","林口區"
"243014","421-VK","2017/12/15 20:49:41","新北市泰山區泰林路二段2-9號","121.419831666667","25.06495","6501600","泰山區"
"222003","436-BY","2017/12/15 20:49:51","新北市深坑區文山路三段48-1號","121.609898333333","24.9985133333333","6501800","深坑區"
"222002","659-BX","2017/12/15 20:49:46","新北市深坑區北深路三段93巷11號","121.605371666667","25.001","6501800","深坑區"
"231059","046-UY","2017/12/15 20:49:41","新北市新店區僑信路114巷42號","121.499115","24.9462533333333","6500600","新店區"
"231061","047-UY","2017/12/15 20:49:52","新北市新店區永安街93-6號","121.520738333333","24.986655","6500600","新店區"
"231060","106-UY","2017/12/15 20:49:56","新北市新店區安康路三段740號","121.473848333333","24.9419483333333","6500600","新店區"
"231051","107-UY","2017/12/15 20:49:46","新北市新店區民生路181號","121.528535","24.97862","6500600","新店區"
"231048","108-UY","2017/12/15 20:49:45","新北市新店區寶元路一段109號","121.545776666667","24.9831816666667","6500600","新店區"
"231053","187-VK","2017/12/15 20:49:53","新北市新店區新烏路一段245-3號","121.547818333333","24.93041","6500600","新店區"
"231050","KEA-2219","2017/12/15 20:49:36","新北市新店區中正路247巷8弄1號","121.538343333333","24.97229","6500600","新店區"
"231057","256-BX","2017/12/15 20:49:57","新北市新店區新烏路一段201號","121.548036666667","24.93147","6500600","新店區"
"231054","AAD-862","2017/12/15 20:49:58","新北市新店區北新路一段126巷27號","121.54319","24.9694916666667","6500600","新店區"
"231058","3712-VJ","2017/12/15 20:49:36","新北市新店區溪園路395號","121.523535","24.97753","6500600","新店區"
"231056","3713-VJ","2017/12/15 20:49:55","新北市新店區溪園路389-12號","121.523265","24.9788733333333","6500600","新店區"
"231065","512-UM","2017/12/15 20:49:34","新北市新店區安祥路69巷17號","121.481918333333","24.9613366666667","6500600","新店區"
"231064","515-UM","2017/12/15 20:49:45","新北市新店區安民街378號","121.516375","24.9764083333333","6500600","新店區"
"231042","616-UM","2017/12/15 20:49:47","新北市新店區寶高路120巷1-1號","121.554596666667","24.975975","6500600","新店區"
"231041","618-UM","2017/12/15 20:49:38","新北市新店區中正路700巷3號","121.533476666667","24.9917016666667","6500600","新店區"
"231040","619-UM","2017/12/15 20:49:46","新北市新店區中正路276號","121.538843333333","24.97366","6500600","新店區"
"231063","645-TV","2017/12/15 20:49:51","新北市新店區如意街7-4號","121.495136666667","24.94855","6500600","新店區"
"231068","718-UY","2017/12/15 20:49:47","新北市新店區中興路三段228巷28號","121.544751666667","24.9835333333333","6500600","新店區"
"231049","719-UM","2017/12/15 20:49:53","新北市新店區安康路一段258號","121.520505","24.96396","6500600","新店區"
"231062","720-UM","2017/12/15 20:49:38","新北市新店區裕合街289號","121.489163333333","24.94841","6500600","新店區"
"231044","897-TW","2017/12/15 20:49:47","新北市新店區建國路139號","121.539171666667","24.9785583333333","6500600","新店區"
"231043","899-TW","2017/12/15 20:49:42","新北市新店區建國路31號","121.54028","24.9741383333333","6500600","新店區"
"231066","AKT-0513","2017/12/15 20:49:54","新北市新店區安興路112號","121.514596666667","24.97767","6500600","新店區"
"241011","013-R5","2017/12/15 20:49:55","新北市三重區秀江街119號","121.499706666667","25.0721583333333","6500200","三重區"
"241028","022-UY","2017/12/15 20:49:48","新北市三重區中正南路43號","121.493778333333","25.05967","6500200","三重區"
"241008","059-VK","2017/12/15 20:49:42","新北市三重區永福街72巷11號","121.479403333333","25.0767966666667","6500200","三重區"
"241009","060-VK","2017/12/15 20:49:40","新北市三重區三和路四段388-2號","121.482061666667","25.079115","6500200","三重區"
"241031","061-VK","2017/12/15 20:49:48","新北市三重區重陽路一段113巷3號","121.487525","25.0598083333333","6500200","三重區"
"241015","062-VK","2017/12/15 20:49:52","新北市三重區三和路二段156號","121.499371666667","25.0685633333333","6500200","三重區"
"241017","063-VK","2017/12/15 20:49:47","新北市三重區自強路一段272號","121.492115","25.0676633333333","6500200","三重區"
"241024","065-VK","2017/12/15 20:49:39","新北市三重區國道路一段58巷15號","121.481326666667","25.0720683333333","6500200","三重區"
"241026","066-VK","2017/12/15 20:49:56","新北市三重區文化南路7號","121.499966666667","25.0623","6500200","三重區"
"241005","262-UM","2017/12/15 20:49:54","新北市三重區五華街141巷2號","121.491065","25.0847733333333","6500200","三重區"
"241002","265-UM","2017/12/15 20:49:56","新北市三重區仁義街167巷38弄2號","121.498743333333","25.0826783333333","6500200","三重區"
"241016","266-UM","2017/12/15 20:49:44","新北市三重區自強路一段153號","121.493665","25.0668933333333","6500200","三重區"
"241022","267-UM","2017/12/15 20:49:40","新北市三重區中正北路20巷12號","121.487978333333","25.0624683333333","6500200","三重區"
"241018","268-UM","2017/12/15 20:49:47","新北市三重區正義北路333號","121.493786666667","25.071515","6500200","三重區"
"241032","269-UM","2017/12/15 20:49:44","新北市三重區重陽路一段120巷35號","121.48509","25.0601716666667","6500200","三重區"
"241013","270-UM","2017/12/15 20:49:54","新北市三重區仁賢街12-1號","121.495696666667","25.0748483333333","6500200","三重區"
"241025","271-UM","2017/12/15 20:49:51","新北市三重區新北大道一段148號","121.484271666667","25.06187","6500200","三重區"
"241007","398-BY","2017/12/15 20:49:52","新北市三重區慈愛街1號","121.484625","25.0783483333333","6500200","三重區"
"241020","413-TH","2017/12/15 20:49:48","新北市三重區忠孝路一段101號","121.489391666667","25.0721416666667","6500200","三重區"
"241004","475-VK","2017/12/15 20:49:51","新北市三重區分子尾街19號","121.489538333333","25.0810083333333","6500200","三重區"
"241019","478-VK","2017/12/15 20:49:52","新北市三重區三張街104號","121.487871666667","25.069925","6500200","三重區"
"241030","480-VK","2017/12/15 20:49:46","新北市三重區昌隆街26號","121.492023333333","25.052345","6500200","三重區"
"241014","543-UM","2017/12/15 20:49:36","新北市三重區龍濱路118號","121.502136666667","25.0704366666667","6500200","三重區"
"241023","545-UM","2017/12/15 20:49:40","新北市三重區忠孝路三段84巷1號","121.48024","25.064415","6500200","三重區"
"241001","547-UM","2017/12/15 20:49:42","新北市三重區三和路四段156號","121.488075","25.0756583333333","6500200","三重區"
"241006","AAD-863","2017/12/15 20:49:48","新北市三重區車路頭街139巷14號","121.484273333333","25.0762166666667","6500200","三重區"
"241029","887-TS","2017/12/15 20:49:51","新北市三重區重安街83號","121.492521666667","25.055885","6500200","三重區"
"241012","941-UM","2017/12/15 20:49:52","新北市三重區仁信街27號","121.501255","25.0755333333333","6500200","三重區"
"241033","AAC-255","2017/12/15 20:49:41","新北市三重區光復路二段1號","121.47233","25.0533","6500200","三重區"
"235069","4980-A6","2017/12/15 20:49:56","新北市中和區連城路469巷79弄2號","121.483448333333","24.9937633333333","6500300","中和區"
"247022","893-R6","2017/12/15 20:49:57","新北市蘆洲區水湳街73-1號","121.470611666667","25.089455","6501400","蘆洲區"
"247012","546-UM","2017/12/15 20:49:55","新北市蘆洲區集賢路224巷23號","121.481563333333","25.0870716666667","6501400","蘆洲區"
"247020","500-BY","2017/12/15 20:49:55","新北市蘆洲區仁愛街64號","121.471485","25.0939633333333","6501400","蘆洲區"
"247008","341-TH","2017/12/15 20:49:48","新北市蘆洲區永安北路二段22號","121.481506666667","25.0809683333333","6501400","蘆洲區"
"247010","339-TH","2017/12/15 20:49:54","新北市蘆洲區鷺江街76號","121.476935","25.0837866666667","6501400","蘆洲區"
"247002","337-TH","2017/12/15 20:49:41","新北市蘆洲區長安街242號","121.457635","25.0859883333333","6501400","蘆洲區"
"247004","336-TH","2017/12/15 20:49:42","新北市蘆洲區長安街100號","121.461626666667","25.080905","6501400","蘆洲區"
"247016","057-VK","2017/12/15 20:49:45","新北市蘆洲區中山二路144號","121.471405","25.08137","6501400","蘆洲區"
"247006","056-VK","2017/12/15 20:49:55","新北市蘆洲區永安南路二段18號","121.467733333333","25.0771816666667","6501400","蘆洲區"
"247014","007-UY","2017/12/15 20:49:56","新北市蘆洲區三民路33號","121.475423333333","25.0830033333333","6501400","蘆洲區"
"247024","002-UY","2017/12/15 20:49:45","新北市蘆洲區長樂路136號","121.462198333333","25.0901766666667","6501400","蘆洲區"
"247018","001-UY","2017/12/15 20:49:43","新北市蘆洲區民權路74號","121.474901666667","25.0873933333333","6501400","蘆洲區"
"222001","KEA-2212","2017/12/15 20:49:44","新北市深坑區北深路三段133號","121.603968333333","25.0024666666667","6501800","深坑區"
"251001","011-UM","2017/12/15 20:49:53","新北市淡水區淡金路218號","121.460491666667","25.1671616666667","6501000","淡水區"
"251013","180-VK","2017/12/15 20:49:55","新北市淡水區下圭柔山27-2號","121.45887","25.2027333333333","6501000","淡水區"
"251008","181-VK","2017/12/15 20:49:41","新北市淡水區淡金路一段571號","121.452555","25.1804383333333","6501000","淡水區"
"251015","182-VK","2017/12/15 20:49:47","新北市淡水區淡金路四段542巷17號","121.452693333333","25.2270916666667","6501000","淡水區"
"251010","413-VK","2017/12/15 20:49:40","新北市淡水區沙崙路145號","121.42342","25.183025","6501000","淡水區"
"251012","441-VK","2017/12/15 20:49:51","新北市淡水區淡金路四段195號","121.451746666667","25.2217866666667","6501000","淡水區"
"251005","443-VK","2017/12/15 20:49:48","新北市淡水區水源街二段152巷1號","121.454468333333","25.175135","6501000","淡水區"
"251007","577-R6","2017/12/15 20:49:38","新北市淡水區鄧公路29巷4號","121.451858333333","25.170135","6501000","淡水區"
"251011","650-BX","2017/12/15 20:49:41","新北市淡水區新民街一段13-1號","121.433015","25.1845283333333","6501000","淡水區"
"251002","672-BX","2017/12/15 20:49:56","新北市淡水區英專路38號","121.445631666667","25.1701866666667","6501000","淡水區"
"251003","673-BX","2017/12/15 20:49:44","新北市淡水區中山北路一段247巷60號","121.443118333333","25.1795216666667","6501000","淡水區"
"252002","178-VK","2017/12/15 20:49:39","新北市三芝區淡金路二段76-2號","121.503896666667","25.2610866666667","6502100","三芝區"
"236050","913-UM","2017/12/15 20:49:44","新北市土城區民安街76號","121.421113333333","24.96644","6501300","土城區"
"242029","986-R7","2017/12/15 20:49:51","新北市新莊區中華路二段41號","121.453335","25.046635","6500500","新莊區"
"242025","615-BX","2017/12/15 20:49:45","新北市新莊區瓊林南路305巷35號","121.436075","25.0048883333333","6500500","新莊區"
"242023","613-BX","2017/12/15 20:49:47","新北市新莊區碧江街27號","121.453728333333","25.03374","6500500","新莊區"
"242027","612-BX","2017/12/15 20:49:50","新北市新莊區瓊林南路301巷13號","121.436051666667","25.005875","6500500","新莊區"
"242048","441-UM","2017/12/15 20:49:45","新北市新莊區新樹路300-5號","121.43287","25.0062866666667","6500500","新莊區"
"242041","400-BY","2017/12/15 20:49:42","新北市樹林區俊興街290號","121.418371666667","25.0173","6500500","新莊區"
"242060","362-BY","2017/12/15 20:49:53","新北市新莊區新樹路745號","121.432346666667","24.9997416666667","6500500","新莊區"
"242007","132-UY","2017/12/15 20:49:41","新北市新莊區環河路116-1號","121.460476666667","25.0376666666667","6500500","新莊區"
"242037","133-UY","2017/12/15 20:49:51","新北市新莊區瓊泰路176號","121.443111666667","25.0332066666667","6500500","新莊區"
"242002","176-VK","2017/12/15 20:49:52","新北市新莊區中港路五守新村1巷5號","121.45532","25.0382033333333","6500500","新莊區"
"242056","349-TH","2017/12/15 20:49:54","新北市新莊區瓊林路108號","121.4422","25.0269633333333","6500500","新莊區"
"242011","351-TH","2017/12/15 20:49:45","新北市新莊區瓊林路118號","121.442213333333","25.0255033333333","6500500","新莊區"
"221012","276-VK","2017/12/15 13:15:14","新北市汐止區汐萬路一段256巷3號","121.653408333333","25.0746516666667","6501100","汐止區"
"221027","281-BY","2017/12/15 20:49:52","新北市汐止區大同路二段364號","121.657425","25.06714","6501100","汐止區"
"221029","298-VK","2017/12/15 20:49:51","新北市汐止區樟樹一路272-3號","121.642718333333","25.0686533333333","6501100","汐止區"
"221021","299-VK","2017/12/15 20:49:41","新北市汐止區新台五路一段172號","121.654495","25.0625666666667","6501100","汐止區"
"221035","622-UM","2017/12/15 20:49:40","新北市汐止區汐萬路一段310號","121.650286666667","25.074735","6501100","汐止區"
"221038","646-BX","2017/12/15 20:49:55","新北市汐止區汐萬路一段256巷3號","121.652048333333","25.0748166666667","6501100","汐止區"
"221033","647-BX","2017/12/15 20:49:47","新北市汐止區合順街18巷8弄5號","121.620311666667","25.0419133333333","6501100","汐止區"
"221002","707-TV","2017/12/15 20:49:43","新北市汐止區福德二路132巷2號","121.63114","25.0652883333333","6501100","汐止區"
"221018","753-BX","2017/12/15 20:49:42","新北市汐止區汐萬路一段157號","121.653116666667","25.07105","6501100","汐止區"
"220062","305-R5","2017/12/15 20:49:48","新北市板橋區文化路二段652號","121.479433333333","25.0420916666667","6500100","板橋區"
"220070","AAC-253","2017/12/15 20:49:43","新北市八里區商港路88-1號","121.393105","25.1496633333333","6500100","板橋區"
