"lineid","car","time","location","longitude","latitude","cityid","cityname"
"247002","402-BY","2017/07/02 15:55:01","新北市五股區中興路三段3-6號","121.449651666667","25.0787516666667","6501400","蘆洲區"
"251013","179-VK","2017/07/02 16:39:14","新北市淡水區楓樹湖12-1號","121.498858333333","25.1876","6501000","淡水區"
"251014","180-VK","2017/07/02 16:38:51","新北市淡水區新市二路三段172巷27弄5號","121.438368333333","25.192165","6501000","淡水區"
"251015","182-VK","2017/07/02 16:39:03","新北市淡水區學府路88號","121.449105","25.1710066666667","6501000","淡水區"
"251016","442-VK","2017/07/02 16:38:59","新北市淡水區新民街一段117號","121.428686666667","25.1873233333333","6501000","淡水區"
