"lineid","car","time","location","longitude","latitude","cityid","cityname"
"247002","402-BY","2017/07/02 15:55:01","新北市五股區中興路三段3-6號","121.449651666667","25.0787516666667","6501400","蘆洲區"
"251013","179-VK","2017/07/02 17:38:59","新北市淡水區演戲埔腳6號","121.471666666667","25.1938866666667","6501000","淡水區"
"251014","180-VK","2017/07/02 17:38:31","新北市淡水區公埔子10號","121.47571","25.2268866666667","6501000","淡水區"
"251015","182-VK","2017/07/02 17:39:03","新北市淡水區糞箕湖1-2號","121.482","25.1701033333333","6501000","淡水區"
"251016","442-VK","2017/07/02 17:38:59","新北市淡水區埤島38號","121.450573333333","25.1963016666667","6501000","淡水區"
