"lineid","car","time","location","longitude","latitude","cityid","cityname"
"247002","402-BY","2017/07/02 15:55:01","新北市五股區中興路三段3-6號","121.449651666667","25.0787516666667","6501400","蘆洲區"
"251013","179-VK","2017/07/02 17:48:54","新北市淡水區泉洲厝31號","121.479595","25.1910033333333","6501000","淡水區"
"251014","180-VK","2017/07/02 17:49:11","新北市淡水區公埔子16-6號","121.481016666667","25.2244933333333","6501000","淡水區"
"251015","182-VK","2017/07/02 17:49:03","新北市淡水區興福寮3-1號","121.491773333333","25.165705","6501000","淡水區"
"251016","442-VK","2017/07/02 17:48:59","新北市淡水區埤島38號","121.450583333333","25.196265","6501000","淡水區"
