"lineid","car","time","location","longitude","latitude","cityid","cityname"
"247002","402-BY","2017/07/02 15:55:01","新北市五股區中興路三段3-6號","121.449651666667","25.0787516666667","6501400","蘆洲區"
"251013","179-VK","2017/07/02 19:08:53","新北市淡水區安子內12號","121.481483333333","25.2190683333333","6501000","淡水區"
"251014","180-VK","2017/07/02 19:08:51","新北市淡水區小中寮15-2號","121.484966666667","25.2299883333333","6501000","淡水區"
"251015","182-VK","2017/07/02 19:09:03","新北市淡水區埔子頂13號","121.483881666667","25.172585","6501000","淡水區"
"251016","442-VK","2017/07/02 19:09:07","新北市淡水區埤島26-2號","121.446253333333","25.1997533333333","6501000","淡水區"
