"lineid","car","time","location","longitude","latitude","cityid","cityname"
"247002","402-BY","2017/07/02 15:55:01","新北市五股區中興路三段3-6號","121.449651666667","25.0787516666667","6501400","蘆洲區"
"224011","AGQ-8101","2017/07/02 20:28:58","新北市瑞芳區明燈路二段15號","121.812043333333","25.10794","6501200","瑞芳區"
"251013","179-VK","2017/07/02 20:28:53","新北市淡水區後坑子7號","121.46397","25.205795","6501000","淡水區"
"251014","180-VK","2017/07/02 20:28:51","新北市淡水區石頭厝8-4號","121.460363333333","25.2377383333333","6501000","淡水區"
"251015","182-VK","2017/07/02 20:29:02","新北市淡水區淡金路三段212號","121.44889","25.2045683333333","6501000","淡水區"
"251016","442-VK","2017/07/02 20:29:03","新北市淡水區淡金路四段469號","121.451763333333","25.2238466666667","6501000","淡水區"
