"lineid","car","time","location","longitude","latitude","cityid","cityname"
"247002","402-BY","2017/07/02 15:55:01","新北市五股區中興路三段3-6號","121.449651666667","25.0787516666667","6501400","蘆洲區"
"251013","179-VK","2017/07/02 20:38:53","新北市淡水區下圭柔山28巷15號","121.457801666667","25.2038966666667","6501000","淡水區"
"251014","180-VK","2017/07/02 20:38:50","新北市淡水區桂竹圍10-1號","121.470701666667","25.2314666666667","6501000","淡水區"
"251015","182-VK","2017/07/02 20:39:02","新北市淡水區興仁路103巷21號","121.449956666667","25.2175066666667","6501000","淡水區"
"251016","442-VK","2017/07/02 20:39:03","新北市淡水區後洲子19號","121.450883333333","25.2237766666667","6501000","淡水區"
