"lineid","car","time","location","longitude","latitude","cityid","cityname"
"248005","653-BX","2017/09/02 10:24:19","新北市五股區中興路二段83巷26-6號","121.459853333333","25.0752066666667","6501500","五股區"
"244020","657-BX","2017/09/02 10:39:11","新北市林口區公園路192號","121.37464","25.074605","6501700","林口區"
"231007","189-VK","2017/09/02 10:39:22","新北市新店區新潭路三段22號","121.508406666667","24.914255","6500600","新店區"
"231008","192-VK","2017/09/02 10:37:33","新北市新店區小坑一路41號","121.527248333333","24.9101566666667","6500600","新店區"
"223007","661-BX","2017/09/02 10:39:12","新北市石碇區石碇西街67-2號","121.656465","24.9914966666667","6501900","石碇區"
"227006","282-VK","2017/09/02 10:39:14","新北市雙溪區新基里新基東街15-2號","121.872501666667","25.042","6502500","雙溪區"
"253003","6232-TK","2017/09/02 10:39:16","新北市石門區小坑9號","121.594316666667","25.2884283333333","6502200","石門區"
