"lineid","car","time","location","longitude","latitude","cityid","cityname"
"248005","653-BX","2017/09/02 10:24:19","新北市五股區中興路二段83巷26-6號","121.459853333333","25.0752066666667","6501500","五股區"
"231008","192-VK","2017/09/02 11:57:33","新北市新店區松林路85號","121.548573333333","24.9086283333333","6500600","新店區"
"235031","255-BX","2017/09/02 11:17:44","新北市中和區和城路一段271巷1號","121.485525","24.9920633333333","6500300","中和區"
"228005","097-TW","2017/09/02 11:59:04","新北市貢寮區貢寮里朝陽街1-2號","121.912366666667","25.0211983333333","6502600","貢寮區"
"228004","212-TW","2017/09/02 11:59:07","新北市貢寮區貢寮里朝陽街1-2號","121.912175","25.0212333333333","6502600","貢寮區"
"227006","282-VK","2017/09/02 11:59:14","新北市雙溪區魚行里坤溪21-1號","121.870615","25.0277733333333","6502500","雙溪區"
"221012","276-VK","2017/09/02 11:59:15","新北市汐止區康寧街901號","121.65107","25.07516","6501100","汐止區"
