"lineid","car","time","location","longitude","latitude","cityid","cityname"
"234044","148-BY","2017/09/02 13:49:22","新北市永和區成功路一段78號","121.526305","25.0033016666667","6500400","永和區"
"234012","149-BY","2017/09/02 13:49:27","新北市永和區保生路55號","121.50472","25.010605","6500400","永和區"
"234005","207-UY","2017/09/02 13:49:24","新北市永和區永和路一段78號","121.512998333333","25.0063683333333","6500400","永和區"
"234078","298-R6","2017/09/02 13:49:24","新北市永和區永亨路114號","121.523666666667","25.0042766666667","6500400","永和區"
"234036","336-UY","2017/09/02 13:49:14","新北市永和區成功路二段76號","121.526663333333","24.999085","6500400","永和區"
"234062","337-UY","2017/09/02 13:49:15","新北市永和區中正路368巷50號","121.519396666667","25.0006","6500400","永和區"
"234084","338-UY","2017/09/02 13:49:27","新北市永和區林森路62號","121.52394","25.0043333333333","6500400","永和區"
"234068","552-UM","2017/09/02 13:49:22","新北市永和區福和路224號","121.519196666667","25.0078483333333","6500400","永和區"
"234052","553-UM","2017/09/02 13:49:27","新北市永和區竹林路75巷25弄6號","121.52022","25.0143533333333","6500400","永和區"
"234015","745-BX","2017/09/02 13:49:28","新北市永和區文化路11號","121.515223333333","25.0150133333333","6500400","永和區"
"234028","746-BX","2017/09/02 13:49:21","新北市永和區民生路67巷57號","121.525703333333","24.997615","6500400","永和區"
"234060","AAD-866","2017/09/02 13:49:17","新北市永和區中正路332號","121.517543333333","24.999855","6500400","永和區"
"234040","862-TW","2017/09/02 13:49:13","新北市永和區中和路421巷3弄21號","121.508501666667","25.0002716666667","6500400","永和區"
"234048","863-TW","2017/09/02 13:49:18","新北市永和區保安路73號","121.508691666667","25.0150283333333","6500400","永和區"
"234010","9373-KE","2017/09/02 13:49:12","新北市永和區仁愛路352巷94號","121.501166666667","25.0079766666667","6500400","永和區"
"248017","225-UY","2017/09/02 13:49:10","新北市五股區民義路二段22巷30-1號","121.423983333333","25.0994733333333","6501500","五股區"
"248005","653-BX","2017/09/02 10:24:19","新北市五股區中興路二段83巷26-6號","121.459853333333","25.0752066666667","6501500","五股區"
"234022","9380-KE","2017/09/02 13:49:14","新北市永和區中正路664號","121.516878333333","25.0088033333333","6500400","永和區"
"234076","969-R7","2017/09/02 13:49:12","新北市永和區民權路58巷2弄14號","121.519736666667","24.9988183333333","6500400","永和區"
"234072","AAC-211","2017/09/02 13:49:19","新北市永和區豫溪街189巷1號","121.522591666667","25.0102666666667","6500400","永和區"
"234066","AAC-212","2017/09/02 13:49:28","新北市永和區永貞路355巷22號","121.508575","25.0072983333333","6500400","永和區"
"234001","AAC-295","2017/09/02 13:49:14","新北市永和區永和路一段107號","121.513905","25.0079183333333","6500400","永和區"
"244005","248-BX","2017/09/02 13:49:20","新北市林口區粉寮路二段160巷28號","121.405191666667","25.0908316666667","6501700","林口區"
"231028","001-UM","2017/09/02 13:49:22","新北市新店區安和路三段7號","121.518008333333","24.9806033333333","6500600","新店區"
"231002","002-UM","2017/09/02 13:49:26","新北市新店區溪園路393號","121.524306666667","24.979005","6500600","新店區"
"231030","047-UY","2017/09/02 13:49:22","新北市新店區安康路一段222號","121.523736666667","24.9635383333333","6500600","新店區"
"231029","106-UY","2017/09/02 13:49:29","新北市新店區安康路二段125-1號","121.512386666667","24.960885","6500600","新店區"
"231018","107-UY","2017/09/02 13:49:16","新北市新店區中正路382巷9號","121.535191666667","24.9776766666667","6500600","新店區"
"231012","108-UY","2017/09/02 13:49:19","新北市新店區德正街27巷29弄14號","121.545795","24.9719166666667","6500600","新店區"
"231036","110-UY","2017/09/02 13:49:16","新北市新店區安祥路109巷6弄55號","121.475698333333","24.9570283333333","6500600","新店區"
"231020","187-VK","2017/09/02 13:49:20","新北市新店區新烏路二段2號","121.54323","24.929905","6500600","新店區"
"231026","256-BX","2017/09/02 13:49:26","新北市新店區三民路84巷2號","121.534625","24.97274","6500600","新店區"
"231034","268-BY","2017/09/02 13:49:12","新北市新店區達觀路12號","121.505063333333","24.9404883333333","6500600","新店區"
"231010","278-BY","2017/09/02 13:49:25","新北市新店區平等街48巷2號","121.53612","24.97292","6500600","新店區"
"231017","AAD-862","2017/09/02 13:49:25","新北市新店區竹林路80號","121.554306666667","24.950575","6500600","新店區"
"231027","3712-VJ","2017/09/02 13:49:29","新北市新店區北宜路一段105巷44號","121.540671666667","24.9558366666667","6500600","新店區"
"231024","3713-VJ","2017/09/02 13:49:22","新北市新店區北新路一段271巷38號","121.539755","24.96728","6500600","新店區"
"231025","4716-K9","2017/09/02 13:49:22","新北市新店區中央五街53號","121.527976666667","24.97558","6500600","新店區"
"231038","4715-K9","2017/09/02 13:49:15","新北市新店區安康路一段323-1號","121.52183","24.963735","6500600","新店區"
"231023","513-UM","2017/09/02 13:49:24","新北市新店區國校路43號","121.537976666667","24.9553133333333","6500600","新店區"
"231035","515-UM","2017/09/02 13:49:17","新北市新店區安忠路57巷26弄3號","121.513118333333","24.9586483333333","6500600","新店區"
"231003","616-UM","2017/09/02 13:49:15","新北市新店區中興路一段162號","121.542688333333","24.9640866666667","6500600","新店區"
"231006","617-UM","2017/09/02 13:49:23","新北市新店區北宜路一段260號","121.545685","24.9527516666667","6500600","新店區"
"231001","619-UM","2017/09/02 13:49:29","新北市新店區三民路64號","121.535068333333","24.97218","6500600","新店區"
"231013","719-UM","2017/09/02 13:49:24","新北市新店區二十張路25巷18弄19號","121.539301666667","24.9813916666667","6500600","新店區"
"231033","720-UM","2017/09/02 13:49:14","新北市新店區莒光路87巷15號","121.525838333333","24.9534133333333","6500600","新店區"
"231005","897-TW","2017/09/02 13:49:28","新北市新店區寶中路119號","121.549358333333","24.9796966666667","6500600","新店區"
"231004","899-TW","2017/09/02 13:49:27","新北市新店區中興路二段252號","121.547421666667","24.9758833333333","6500600","新店區"
"231037","AKT-0513","2017/09/02 13:49:29","新北市新店區安康路三段355巷21號","121.484953333333","24.950245","6500600","新店區"
"235030","003-UY","2017/09/02 13:49:18","新北市中和區水源路18巷1弄1號","121.504145","25.0034266666667","6500300","中和區"
"235027","006-UY","2017/09/02 13:49:21","新北市中和區錦和路196巷5號","121.489803333333","24.9949233333333","6500300","中和區"
"235028","031-BX","2017/09/02 13:49:21","新北市中和區景平路591-1號","121.497153333333","25.0003","6500300","中和區"
"235020","096-UM","2017/09/02 13:49:21","新北市中和區立德街329號","121.4816","25.010515","6500300","中和區"
"235003","097-UM","2017/09/02 13:49:18","新北市中和區大勇街29巷14號","121.515833333333","24.9946166666667","6500300","中和區"
"235004","150-BY","2017/09/02 13:49:25","新北市中和區保健路48巷2號","121.509933333333","24.9969866666667","6500300","中和區"
"235022","151-BY","2017/09/02 13:49:24","新北市中和區連城路571-2號","121.479238333333","24.994345","6500300","中和區"
"235019","183-VK","2017/09/02 13:12:32","新北市中和區員山路36巷16-3號","121.48502","24.9914816666667","6500300","中和區"
"235002","185-VK","2017/09/02 13:49:25","新北市中和區自強路60號","121.520145","24.99445","6500300","中和區"
"235013","186-VK","2017/09/02 13:49:15","新北市中和區明義街11巷16號","121.503543333333","24.994475","6500300","中和區"
"235031","255-BX","2017/09/02 13:49:12","新北市中和區新生街220巷1弄5號","121.483398333333","24.99829","6500300","中和區"
"235008","293-VK","2017/09/02 13:49:09","新北市中和區復興路280巷44號","121.501163333333","24.991955","6500300","中和區"
"235036","301-VK","2017/09/02 13:49:33","新北市永和區中山路一段343號","121.505596666667","25.005965","6500300","中和區"
"235007","352-BY","2017/09/02 13:49:27","新北市中和區成功路133號","121.526191666667","24.99052","6500300","中和區"
"235015","376-QA","2017/09/02 13:49:14","新北市中和區華新街143巷106弄7號","121.506096666667","24.9788933333333","6500300","中和區"
"235032","377-QA","2017/09/02 13:49:26","新北市中和區中正路167巷22號","121.49814","24.9923816666667","6500300","中和區"
"235025","378-QA","2017/09/02 13:49:26","新北市中和區民享街47號","121.474108333333","25.0028366666667","6500300","中和區"
"235014","4979-A6","2017/09/02 13:49:17","新北市中和區忠孝街58巷28號","121.512536666667","24.98271","6500300","中和區"
"235033","4980-A6","2017/09/02 13:49:27","新北市中和區景平路618巷4號","121.500875","24.997115","6500300","中和區"
"235006","551-UM","2017/09/02 13:49:19","新北市中和區秀朗路三段135巷1號","121.52536","24.9924383333333","6500300","中和區"
"235034","558-UM","2017/09/02 13:49:32","新北市中和區南華路48號","121.504021666667","24.9966716666667","6500300","中和區"
"235009","565-BX","2017/09/02 13:49:29","新北市中和區南山路208巷1弄11號","121.506601666667","24.989875","6500300","中和區"
"235018","640-BX","2017/09/02 13:49:20","新北市中和區民享街57號","121.474213333333","25.002525","6500300","中和區"
"235024","647-TV","2017/09/02 13:49:21","新北市中和區中山路三段29號","121.479183333333","25.00585","6500300","中和區"
"235011","732-UM","2017/09/02 13:49:25","新北市中和區興南路二段34巷57弄6號","121.505091666667","24.9856016666667","6500300","中和區"
"235010","733-UM","2017/09/02 13:49:33","新北市中和區仁愛街36巷55號","121.511418333333","24.9862866666667","6500300","中和區"
"235026","800-TS","2017/09/02 13:49:27","新北市中和區中山路二段340巷14號","121.493815","25.0029966666667","6500300","中和區"
"235021","801-TS","2017/09/02 13:49:10","新北市中和區員山路325-5號","121.480981666667","25.0010183333333","6500300","中和區"
"235005","802-TS","2017/09/02 13:49:26","新北市中和區永貞路239巷2號","121.512918333333","25.0037583333333","6500300","中和區"
"235016","805-TS","2017/09/02 13:49:19","新北市中和區興南路二段399巷132-1號","121.501078333333","24.974685","6500300","中和區"
"235012","896-TW","2017/09/02 13:49:12","新北市中和區南山路226號","121.506406666667","24.9901666666667","6500300","中和區"
"235017","900-TW","2017/09/02 13:49:15","新北市中和區華福街18號","121.465803333333","24.99672","6500300","中和區"
"235001","AAC-213","2017/09/02 13:49:28","新北市中和區秀朗路三段175巷7號","121.525066666667","24.9915266666667","6500300","中和區"
"235023","AAC-215","2017/09/02 13:49:28","新北市中和區圓通路373-1號","121.490713333333","24.989295","6500300","中和區"
"220016","013-TV","2017/09/02 13:49:12","新北市板橋區民生路二段56-6號","121.470711666667","25.0187533333333","6500100","板橋區"
"220013","072-UY","2017/09/02 13:49:16","新北市板橋區縣民大道二段102號","121.466553333333","25.0151616666667","6500100","板橋區"
"220105","075-UY","2017/09/02 13:49:20","新北市板橋區民生路二段161巷3號","121.470198333333","25.0197733333333","6500100","板橋區"
"220017","AAD-861","2017/09/02 13:49:12","新北市板橋區華東街1-10號","121.448225","24.995055","6500100","板橋區"
"220051","120-SR","2017/09/02 13:49:32","新北市板橋區民生路二段120號","121.470575","25.019955","6500100","板橋區"
"247007","339-TH","2017/09/02 13:49:13","新北市蘆洲區永安北路二段76巷15號","121.482526666667","25.08532","6501400","蘆洲區"
"247013","057-VK","2017/09/02 13:49:24","新北市蘆洲區中正路100號","121.469973333333","25.084345","6501400","蘆洲區"
"247003","056-VK","2017/09/02 13:49:22","新北市蘆洲區長安街108巷20號","121.461783333333","25.0822283333333","6501400","蘆洲區"
"247015","001-UY","2017/09/02 13:49:30","新北市蘆洲區光華路15-1號","121.469716666667","25.0831916666667","6501400","蘆洲區"
"228005","097-TW","2017/09/02 13:49:24","新北市雙溪區三港里雙澳路100號","121.88904","25.0558733333333","6502600","貢寮區"
"228004","212-TW","2017/09/02 13:41:27","新北市貢寮區龍崗里嵩陽街46號","121.904603333333","25.0131483333333","6502600","貢寮區"
"208004","AAC-292","2017/09/02 13:46:33","新北市金山區重和里三重橋11號","121.592613333333","25.19318","6502700","金山區"
"207002","749-BX","2017/09/02 13:49:23","新北市萬里區崁腳里崁腳路173-1號","121.646101666667","25.1545983333333","6502800","萬里區"
"252005","073-UM","2017/09/02 13:49:28","新北市三芝區圓山里內柑宅25-2號","121.536885","25.22829","6502100","三芝區"
"207001","662-BX","2017/09/02 13:49:19","新北市萬里區磺潭里磺溪10號","121.630306666667","25.2029166666667","6502800","萬里區"
"236075","105-UM","2017/09/02 13:49:25","新北市土城區城林路6巷80號","121.438398333333","24.9797866666667","6501300","土城區"
"236041","107-UM","2017/09/02 13:49:32","新北市土城區中央路二段280號","121.44065","24.9740416666667","6501300","土城區"
"236029","253-BX","2017/09/02 13:49:27","新北市土城區城林路6巷80號","121.438541666667","24.9796166666667","6501300","土城區"
"236025","269-VK","2017/09/02 13:49:15","新北市土城區承天路1號","121.43591","24.9666016666667","6501300","土城區"
"236013","270-VK","2017/09/02 13:49:29","新北市土城區城林路6巷80號","121.43856","24.9797066666667","6501300","土城區"
"236035","271-VK","2017/09/02 13:49:20","新北市土城區城林路6巷80號","121.438508333333","24.97964","6501300","土城區"
"236017","401-BY","2017/09/02 13:49:20","新北市土城區城林路6巷80號","121.438618333333","24.9798166666667","6501300","土城區"
"236006","498-BY","2017/09/02 13:49:28","新北市土城區中央路一段48號","121.44778","24.9899883333333","6501300","土城區"
"236057","912-UM","2017/09/02 13:49:19","新北市土城區城林路6巷80號","121.438483333333","24.979735","6501300","土城區"
"236045","913-UM","2017/09/02 13:49:25","新北市土城區城林路6巷80號","121.438341666667","24.9798233333333","6501300","土城區"
"236061","915-UM","2017/09/02 13:49:32","新北市土城區城林路6巷80號","121.438411666667","24.9798033333333","6501300","土城區"
"236054","AAC-216","2017/09/02 13:49:14","新北市土城區城林路6巷80號","121.438453333333","24.9798533333333","6501300","土城區"
"221012","276-VK","2017/09/02 13:21:42","新北市汐止區汐萬路一段256巷3號","121.65349","25.0746483333333","6501100","汐止區"
"220027","145-BY","2017/09/02 13:49:16","新北市板橋區民權路202巷1弄2-3號","121.459488333333","25.01418","6500100","板橋區"
"220028","200-UY","2017/09/02 13:49:28","新北市板橋區大觀路二段265巷72弄7號","121.442093333333","24.9967866666667","6500100","板橋區"
"220030","610-BX","2017/09/02 13:49:16","新北市板橋區篤行路三段玉平巷16號","121.428961666667","24.9872883333333","6500100","板橋區"
"220050","245-BX","2017/09/02 13:49:23","新北市板橋區民生路二段161巷1號","121.470135","25.019935","6500100","板橋區"
"220023","256-TC","2017/09/02 13:49:21","新北市板橋區大觀路一段17號","121.450306666667","25.0084316666667","6500100","板橋區"
"220004","276-BY","2017/09/02 13:49:23","新北市板橋區四川路二段14號","121.456138333333","24.996185","6500100","板橋區"
"220020","277-BY","2017/09/02 13:49:18","新北市板橋區金門街31巷21號","121.434266666667","24.993845","6500100","板橋區"
"220043","283-UM","2017/09/02 13:49:22","新北市板橋區民生路二段188號","121.47039","25.0205916666667","6500100","板橋區"
"220001","285-VK","2017/09/02 13:49:15","新北市板橋區民生路二段56-6號","121.47085","25.0189666666667","6500100","板橋區"
"220031","286-VK","2017/09/02 13:49:25","新北市板橋區大觀路二段11號","121.446881666667","25.0034966666667","6500100","板橋區"
"220029","287-VK","2017/09/02 13:49:19","新北市板橋區大觀路一段28巷98號","121.450581666667","25.01096","6500100","板橋區"
"220039","288-VK","2017/09/02 13:49:17","新北市板橋區民生路二段161巷7號","121.470263333333","25.0197083333333","6500100","板橋區"
"220009","295-UM","2017/09/02 13:49:27","新北市板橋區民生路二段89-6號","121.47066","25.01877","6500100","板橋區"
"220032","296-UM","2017/09/02 13:49:14","新北市板橋區大觀路二段148巷80號","121.441848333333","25.001065","6500100","板橋區"
"220010","305-R5","2017/09/02 13:49:30","新北市板橋區民生路二段56-6號","121.470801666667","25.0189583333333","6500100","板橋區"
"220041","307-R5","2017/09/02 13:49:24","新北市板橋區莊敬路208巷8弄9號","121.470656666667","25.0202916666667","6500100","板橋區"
"220047","317-R6","2017/09/02 13:49:27","新北市板橋區民生路二段161巷1號","121.470203333333","25.0200716666667","6500100","板橋區"
"220034","461-BY","2017/09/02 13:49:29","新北市板橋區大智街71巷5弄1號","121.453288333333","25.01501","6500100","板橋區"
"220012","486-VK","2017/09/02 13:49:28","新北市板橋區民生路二段36-1號","121.472161666667","25.0167483333333","6500100","板橋區"
"220038","487-VK","2017/09/02 13:49:12","新北市板橋區民生路二段171號","121.46954","25.0200583333333","6500100","板橋區"
"220037","491-VK","2017/09/02 13:49:23","新北市板橋區民生路二段161巷1號","121.469986666667","25.020195","6500100","板橋區"
"220104","560-BX","2017/09/02 13:49:17","新北市板橋區中正路325巷41號","121.453415","25.0193316666667","6500100","板橋區"
"220052","561-BX","2017/09/02 13:49:28","新北市板橋區民生路二段120號","121.470373333333","25.0196683333333","6500100","板橋區"
"220019","568-UM","2017/09/02 13:49:26","新北市板橋區忠孝路37號","121.460955","25.00204","6500100","板橋區"
"220011","609-BX","2017/09/02 13:49:04","新北市板橋區民生路二段120號","121.470655","25.0194316666667","6500100","板橋區"
"220040","637-BX","2017/09/02 13:49:31","新北市板橋區民生路二段188號","121.470186666667","25.0202033333333","6500100","板橋區"
"220005","686-BX","2017/09/02 13:49:28","新北市板橋區華東街1-9號","121.448171666667","24.9948683333333","6500100","板橋區"
"220025","687-BX","2017/09/02 13:49:24","新北市板橋區金門街86-2號","121.433105","24.99285","6500100","板橋區"
"220042","689-BX","2017/09/02 13:48:02","新北市板橋區民生路二段177號","121.469668333333","25.0202116666667","6500100","板橋區"
"220002","741-BX","2017/09/02 13:49:29","新北市板橋區華東街1-10號","121.448333333333","24.9948983333333","6500100","板橋區"
"220003","827-TW","2017/09/02 13:49:29","新北市板橋區南雅南路二段144巷60號","121.450255","24.9973816666667","6500100","板橋區"
"220014","829-TW","2017/09/02 13:49:26","新北市板橋區民生路二段56-6號","121.47076","25.0188866666667","6500100","板橋區"
"220045","831-TW","2017/09/02 01:30:09","新北市板橋區民生路二段120號","121.470346666667","25.01964","6500100","板橋區"
"220022","895-R6","2017/09/02 13:49:18","新北市板橋區府中路65號","121.45822","25.009435","6500100","板橋區"
"220021","985-R7","2017/09/02 13:49:25","新北市板橋區館前西路66號","121.457786666667","25.007085","6500100","板橋區"
"220046","AAC-210","2017/09/02 13:49:30","新北市板橋區民生路二段120號","121.470313333333","25.019905","6500100","板橋區"
"220018","AAC-253","2017/09/02 13:49:19","新北市板橋區館前西路27號","121.458463333333","25.0068766666667","6500100","板橋區"
