"lineid","car","time","location","longitude","latitude","cityid","cityname"
"234044","148-BY","2017/09/02 13:59:22","新北市永和區永利路212號","121.52323","25.0025183333333","6500400","永和區"
"234012","149-BY","2017/09/02 13:59:20","新北市永和區仁愛路295號","121.505203333333","25.0091933333333","6500400","永和區"
"234005","207-UY","2017/09/02 13:59:24","新北市永和區中和路449號","121.509833333333","25.0012783333333","6500400","永和區"
"234078","298-R6","2017/09/02 13:59:15","新北市永和區永亨路110號","121.523581666667","25.0044333333333","6500400","永和區"
"234036","336-UY","2017/09/02 13:59:14","新北市永和區成功路二段119號","121.526635","24.9985533333333","6500400","永和區"
"234062","337-UY","2017/09/02 13:59:15","新北市永和區秀朗路一段192巷5號","121.519585","25.002495","6500400","永和區"
"234084","338-UY","2017/09/02 13:59:07","新北市永和區中正路487號","121.516975","25.0066016666667","6500400","永和區"
"234068","552-UM","2017/09/02 13:59:22","新北市永和區永貞路10巷1弄1號","121.52047","25.007185","6500400","永和區"
"234052","553-UM","2017/09/02 13:59:26","新北市永和區竹林路39巷42弄1號","121.520206666667","25.0152266666667","6500400","永和區"
"234015","745-BX","2017/09/02 13:59:28","新北市永和區文化路123號","121.51231","25.0153216666667","6500400","永和區"
"234028","746-BX","2017/09/02 13:59:26","新北市永和區民權路51號","121.5201","24.9969733333333","6500400","永和區"
"234060","AAD-866","2017/09/02 13:59:17","新北市永和區中正路151巷5弄2-1號","121.515665","24.9987116666667","6500400","永和區"
"234040","862-TW","2017/09/02 13:59:13","新北市永和區中和路335巷18弄32號","121.508228333333","25.0004866666667","6500400","永和區"
"234048","863-TW","2017/09/02 13:59:18","新北市永和區保安路252巷2號","121.506286666667","25.012785","6500400","永和區"
"234025","9371-KE","2017/09/02 13:59:22","新北市永和區自由街58號","121.51379","25.0059133333333","6500400","永和區"
"234010","9373-KE","2017/09/02 13:59:12","新北市永和區仁愛路352巷124號","121.500231666667","25.0085366666667","6500400","永和區"
"248017","225-UY","2017/09/02 13:59:30","新北市五股區民義路一段287巷2號","121.423425","25.090165","6501500","五股區"
"248005","653-BX","2017/09/02 10:24:19","新北市五股區中興路二段83巷26-6號","121.459853333333","25.0752066666667","6501500","五股區"
"234022","9380-KE","2017/09/02 13:59:25","新北市永和區復興街2巷2號","121.515628333333","25.01269","6500400","永和區"
"234076","969-R7","2017/09/02 13:59:12","新北市永和區民權路17號","121.52003","24.9980466666667","6500400","永和區"
"234072","AAC-211","2017/09/02 13:59:25","新北市永和區豫溪街159-1號","121.521476666667","25.0103833333333","6500400","永和區"
"234066","AAC-212","2017/09/02 13:59:16","新北市永和區永貞路335號","121.509593333333","25.0070866666667","6500400","永和區"
"234001","AAC-295","2017/09/02 13:59:14","新北市永和區福和路306號","121.51645","25.00742","6500400","永和區"
"231028","001-UM","2017/09/02 13:59:22","新北市新店區安和路三段119號","121.517465","24.98508","6500600","新店區"
"231002","002-UM","2017/09/02 13:59:26","新北市新店區復興路108-11號","121.532971666667","24.9910666666667","6500600","新店區"
"231030","047-UY","2017/09/02 13:59:22","新北市新店區安民街121巷19號","121.51509","24.968535","6500600","新店區"
"231029","106-UY","2017/09/02 13:59:29","新北市新店區安康路二段1-1號","121.516511666667","24.96367","6500600","新店區"
"231018","107-UY","2017/09/02 13:59:16","新北市新店區中央路99號","121.531091666667","24.9750666666667","6500600","新店區"
"231012","108-UY","2017/09/02 13:59:19","新北市新店區德正街27巷26號","121.54534","24.970985","6500600","新店區"
"231036","110-UY","2017/09/02 13:59:16","新北市新店區安祥路110巷25號","121.473633333333","24.9563","6500600","新店區"
"231020","187-VK","2017/09/02 13:59:13","新北市新店區屈尺路83-2號","121.544565","24.922075","6500600","新店區"
"231026","256-BX","2017/09/02 13:59:18","新北市新店區環河路29巷1號","121.53678","24.961405","6500600","新店區"
"231034","268-BY","2017/09/02 13:59:12","新北市新店區達觀路27-1號","121.503983333333","24.938645","6500600","新店區"
"231017","AAD-862","2017/09/02 13:59:25","新北市新店區北宜路二段150號","121.557743333333","24.9532683333333","6500600","新店區"
"231027","3712-VJ","2017/09/02 13:59:29","新北市新店區中興路一段24-2號","121.538588333333","24.95829","6500600","新店區"
"231024","3713-VJ","2017/09/02 13:59:21","新北市新店區新生街13巷13號","121.53951","24.9658966666667","6500600","新店區"
"231025","4716-K9","2017/09/02 13:59:22","新北市新店區中正路412號","121.53439","24.977645","6500600","新店區"
"231038","4715-K9","2017/09/02 13:59:15","新北市新店區溪洲路121號","121.531155","24.9627983333333","6500600","新店區"
"231023","513-UM","2017/09/02 13:59:24","新北市新店區文中路40號","121.539793333333","24.9565366666667","6500600","新店區"
"231035","515-UM","2017/09/02 13:59:17","新北市新店區安和路一段52巷2號","121.51762","24.9662366666667","6500600","新店區"
"231003","616-UM","2017/09/02 13:59:15","新北市新店區中興路一段34號","121.538658333333","24.9585816666667","6500600","新店區"
"231006","617-UM","2017/09/02 13:59:23","新北市新店區北宜路二段213號","121.553248333333","24.9533383333333","6500600","新店區"
"231001","619-UM","2017/09/02 13:59:29","新北市新店區三民路45號","121.537131666667","24.970925","6500600","新店區"
"231013","719-UM","2017/09/02 13:59:24","新北市新店區明德路64號","121.54161","24.9794833333333","6500600","新店區"
"231033","720-UM","2017/09/02 13:59:14","新北市新店區太平路27號","121.533776666667","24.95825","6500600","新店區"
"231005","897-TW","2017/09/02 13:59:28","新北市新店區中興路三段248號","121.542943333333","24.9839016666667","6500600","新店區"
"231004","899-TW","2017/09/02 13:59:27","新北市新店區北新路二段160號","121.54294","24.97559","6500600","新店區"
"231037","AKT-0513","2017/09/02 13:59:10","新北市新店區安康路三段165巷2弄2號","121.489648333333","24.9514533333333","6500600","新店區"
"235030","003-UY","2017/09/02 13:59:17","新北市中和區中山路二段131巷5弄4號","121.50293","25.002895","6500300","中和區"
"235027","006-UY","2017/09/02 13:59:21","新北市中和區中正路532號","121.487696666667","24.9944283333333","6500300","中和區"
"235028","031-BX","2017/09/02 13:59:21","新北市中和區泰和街46巷2號","121.49869","25.0001183333333","6500300","中和區"
"235020","096-UM","2017/09/02 13:59:21","新北市中和區中正路1230號","121.47927","25.0108366666667","6500300","中和區"
"235003","097-UM","2017/09/02 13:59:18","新北市中和區大仁街20巷25弄1號","121.518493333333","24.9935933333333","6500300","中和區"
"235004","150-BY","2017/09/02 13:59:26","新北市中和區保健路61巷3號","121.509631666667","24.997405","6500300","中和區"
"235022","151-BY","2017/09/02 13:59:24","新北市中和區連城路585號","121.478663333333","24.9939366666667","6500300","中和區"
"235019","183-VK","2017/09/02 13:12:32","新北市中和區員山路36巷16-3號","121.48502","24.9914816666667","6500300","中和區"
"235002","185-VK","2017/09/02 13:59:25","新北市中和區大勇街31巷6弄2號","121.517313333333","24.994345","6500300","中和區"
"235013","186-VK","2017/09/02 13:59:16","新北市中和區景新街210巷3號","121.50713","24.9949666666667","6500300","中和區"
"235031","255-BX","2017/09/02 13:59:12","新北市中和區新生街264號","121.483533333333","24.997205","6500300","中和區"
"235008","293-VK","2017/09/02 13:59:27","新北市中和區中興街161巷5弄21號","121.500776666667","24.9914133333333","6500300","中和區"
"235036","301-VK","2017/09/02 13:59:13","新北市中和區中山路二段189號","121.500198333333","25.002705","6500300","中和區"
"235007","352-BY","2017/09/02 13:59:27","新北市中和區秀朗路三段107號","121.526496666667","24.994645","6500300","中和區"
"235015","376-QA","2017/09/02 13:59:14","新北市中和區忠孝街106巷22號","121.51281","24.9843616666667","6500300","中和區"
"235032","377-QA","2017/09/02 13:59:26","新北市中和區圓通路291巷2號","121.49524","24.9925183333333","6500300","中和區"
"235025","378-QA","2017/09/02 13:59:26","新北市中和區民享街43號","121.474085","25.0028866666667","6500300","中和區"
"235014","4979-A6","2017/09/02 13:59:17","新北市中和區華新街14號","121.50748","24.9850583333333","6500300","中和區"
"235033","4980-A6","2017/09/02 13:59:27","新北市中和區中和路143號","121.502161666667","24.9997816666667","6500300","中和區"
"235006","551-UM","2017/09/02 13:59:19","新北市永和區成功路二段195號","121.526643333333","24.9963583333333","6500300","中和區"
"235034","558-UM","2017/09/02 13:59:12","新北市中和區南山路75號","121.502045","24.9981833333333","6500300","中和區"
"235009","565-BX","2017/09/02 13:59:19","新北市中和區景新街459號","121.513235","24.98832","6500300","中和區"
"235018","640-BX","2017/09/02 13:59:20","新北市中和區民享街16號","121.474028333333","25.00388","6500300","中和區"
"235024","647-TV","2017/09/02 13:59:15","新北市中和區中山路三段153號","121.47358","25.0062066666667","6500300","中和區"
"235011","732-UM","2017/09/02 13:59:25","新北市中和區興南路二段54巷9弄2號","121.505978333333","24.9855366666667","6500300","中和區"
"235010","733-UM","2017/09/02 13:59:13","新北市中和區興南路一段135巷22弄18號","121.50886","24.98657","6500300","中和區"
"235026","800-TS","2017/09/02 13:59:27","新北市中和區中山路二段366巷34號","121.49182","25.0049716666667","6500300","中和區"
"235021","801-TS","2017/09/02 13:59:08","新北市中和區民安街65巷3號","121.478733333333","24.9993933333333","6500300","中和區"
"235005","802-TS","2017/09/02 13:59:26","新北市中和區永貞路239巷15號","121.512708333333","25.0031033333333","6500300","中和區"
"235016","805-TS","2017/09/02 13:59:19","新北市中和區興南路二段261巷7-1號","121.503141666667","24.9798333333333","6500300","中和區"
"235012","896-TW","2017/09/02 13:59:12","新北市中和區華新街63號","121.508053333333","24.9841766666667","6500300","中和區"
"235017","900-TW","2017/09/02 13:59:15","新北市中和區壽德街27-1號","121.466463333333","24.9953533333333","6500300","中和區"
"235001","AAC-213","2017/09/02 13:59:08","新北市中和區自立路99巷24號","121.523461666667","24.99458","6500300","中和區"
"235023","AAC-215","2017/09/02 13:59:28","新北市中和區圓通路367巷18-4號","121.491788333333","24.9886016666667","6500300","中和區"
"220016","013-TV","2017/09/02 13:59:20","新北市板橋區中山路二段465巷46號","121.481178333333","25.0215116666667","6500100","板橋區"
"220013","072-UY","2017/09/02 13:59:16","新北市板橋區漢生東路324號","121.471703333333","25.0078966666667","6500100","板橋區"
"220105","075-UY","2017/09/02 13:59:20","新北市板橋區文化路二段124巷28-2號","121.471255","25.0256266666667","6500100","板橋區"
"220017","AAD-861","2017/09/02 13:59:12","新北市板橋區大華街17號","121.459038333333","25.0060583333333","6500100","板橋區"
"220051","120-SR","2017/09/02 13:59:11","新北市板橋區縣民大道三段133巷35號","121.476823333333","25.0244966666667","6500100","板橋區"
"247019","893-R6","2017/09/02 13:59:19","新北市蘆洲區民族路422巷88-1號","121.473475","25.0939366666667","6501400","蘆洲區"
"247009","546-UM","2017/09/02 13:59:20","新北市蘆洲區集賢路224巷27號","121.481705","25.0871116666667","6501400","蘆洲區"
"247017","500-BY","2017/09/02 13:59:18","新北市蘆洲區民族路255巷22號","121.475915","25.0893733333333","6501400","蘆洲區"
"247007","339-TH","2017/09/02 13:59:13","新北市三重區三和路四段237號","121.480963333333","25.0802666666667","6501400","蘆洲區"
"247023","337-TH","2017/09/02 13:59:17","新北市蘆洲區光榮路120巷9號","121.465183333333","25.0887533333333","6501400","蘆洲區"
"247001","336-TH","2017/09/02 13:59:17","新北市蘆洲區三民路607號","121.460621666667","25.0938","6501400","蘆洲區"
"247013","057-VK","2017/09/02 13:59:24","新北市蘆洲區中正路156-1號","121.468881666667","25.0855783333333","6501400","蘆洲區"
"247003","056-VK","2017/09/02 13:59:22","新北市蘆洲區中華街8號","121.463323333333","25.0816633333333","6501400","蘆洲區"
"247005","053-VK","2017/09/02 13:59:09","新北市蘆洲區九芎街71巷33號","121.46616","25.077655","6501400","蘆洲區"
"247011","007-UY","2017/09/02 13:59:24","新北市蘆洲區民族路158號","121.47958","25.0862033333333","6501400","蘆洲區"
"247015","001-UY","2017/09/02 13:59:30","新北市蘆洲區光華路43號","121.468846666667","25.0829716666667","6501400","蘆洲區"
"228005","097-TW","2017/09/02 13:59:24","新北市貢寮區美豐里雞母嶺街52-1號","121.888495","25.0684366666667","6502600","貢寮區"
"228004","212-TW","2017/09/02 13:59:27","新北市貢寮區龍崗里嵩陽街35-1號","121.906691666667","25.0174816666667","6502600","貢寮區"
"208004","AAC-292","2017/09/02 13:58:49","新北市金山區山城路93號","121.599028333333","25.1999366666667","6502700","金山區"
"207002","749-BX","2017/09/02 13:56:44","新北市萬里區溪底里烏塗炭9號","121.637593333333","25.15163","6502800","萬里區"
"252005","073-UM","2017/09/02 13:59:08","新北市三芝區圓山里二坪頂79號","121.540178333333","25.244885","6502100","三芝區"
"207001","662-BX","2017/09/02 13:59:19","新北市萬里區磺潭里清水9號","121.640225","25.19966","6502800","萬里區"
"236075","105-UM","2017/09/02 13:59:25","新北市土城區城林路6巷80號","121.438431666667","24.979765","6501300","土城區"
"236041","107-UM","2017/09/02 13:59:30","新北市土城區裕生路65-1號","121.447606666667","24.9859466666667","6501300","土城區"
"236075","166-UM","2017/09/02 13:58:57","新北市土城區中央路二段282號","121.440485","24.9739266666667","6501300","土城區"
"236029","253-BX","2017/09/02 13:59:07","新北市土城區城林路6巷80號","121.438366666667","24.97974","6501300","土城區"
"236025","269-VK","2017/09/02 13:59:14","新北市土城區承天路65號","121.439373333333","24.9638016666667","6501300","土城區"
"236013","270-VK","2017/09/02 13:59:29","新北市土城區城林路6巷80號","121.438568333333","24.9797166666667","6501300","土城區"
"236035","271-VK","2017/09/02 13:59:20","新北市土城區城林路6巷80號","121.43852","24.9796316666667","6501300","土城區"
"236017","401-BY","2017/09/02 13:59:20","新北市土城區城林路6巷80號","121.438605","24.979785","6501300","土城區"
"236006","498-BY","2017/09/02 13:59:28","新北市土城區中華路一段36號","121.44642","24.989285","6501300","土城區"
"236057","912-UM","2017/09/02 13:59:19","新北市土城區中央路三段196號","121.430378333333","24.9648","6501300","土城區"
"236045","913-UM","2017/09/02 13:59:25","新北市土城區城林路6巷80號","121.438428333333","24.9798533333333","6501300","土城區"
"236061","915-UM","2017/09/02 13:59:12","新北市土城區城林路6巷80號","121.438448333333","24.9797866666667","6501300","土城區"
"236054","AAC-216","2017/09/02 13:59:14","新北市土城區城林路6巷80號","121.438495","24.9797983333333","6501300","土城區"
"221012","276-VK","2017/09/02 13:21:42","新北市汐止區汐萬路一段256巷3號","121.65349","25.0746483333333","6501100","汐止區"
"220027","145-BY","2017/09/02 13:59:14","新北市板橋區民權路202巷9弄29號","121.459423333333","25.015585","6500100","板橋區"
"220028","200-UY","2017/09/02 13:59:08","新北市板橋區大觀路二段265巷60弄41號","121.441621666667","24.9978066666667","6500100","板橋區"
"220030","610-BX","2017/09/02 13:59:16","新北市板橋區篤行路二段136號","121.429811666667","24.988445","6500100","板橋區"
"220050","245-BX","2017/09/02 13:59:23","新北市板橋區文化路二段182巷5弄1號","121.471606666667","25.0268683333333","6500100","板橋區"
"220023","256-TC","2017/09/02 13:59:29","新北市板橋區南雅東路88號","121.45392","25.007685","6500100","板橋區"
"220004","276-BY","2017/09/02 13:59:23","新北市板橋區信義路152號","121.45897","24.99174","6500100","板橋區"
"220020","277-BY","2017/09/02 13:59:15","新北市板橋區大觀路三段36巷4號","121.433825","24.9958633333333","6500100","板橋區"
"220043","283-UM","2017/09/02 13:59:22","新北市板橋區文化路二段76號","121.469423333333","25.0250416666667","6500100","板橋區"
"220001","285-VK","2017/09/02 13:59:15","新北市板橋區中山路二段149號","121.475501666667","25.0168666666667","6500100","板橋區"
"220031","286-VK","2017/09/02 13:59:25","新北市板橋區大觀路一段38巷156弄105號","121.44327","25.0076166666667","6500100","板橋區"
"220029","287-VK","2017/09/02 13:59:19","新北市板橋區光華街13巷3號","121.453816666667","25.0114216666667","6500100","板橋區"
"220039","288-VK","2017/09/02 13:59:17","新北市板橋區四維路175-2號","121.464543333333","25.0263166666667","6500100","板橋區"
"220009","295-UM","2017/09/02 13:59:29","新北市板橋區富山街109巷8號","121.47605","25.0217416666667","6500100","板橋區"
"220032","296-UM","2017/09/02 13:59:15","新北市板橋區大觀路二段174巷116弄49號","121.442488333333","25.0012766666667","6500100","板橋區"
"220010","305-R5","2017/09/02 13:59:09","新北市板橋區民生路一段10號","121.478321666667","25.011245","6500100","板橋區"
"220041","307-R5","2017/09/02 13:59:26","新北市板橋區文化路一段104巷1號","121.464971666667","25.017955","6500100","板橋區"
"220047","317-R6","2017/09/02 13:59:29","新北市板橋區民有街32號","121.46602","25.0254016666667","6500100","板橋區"
"220034","461-BY","2017/09/02 13:59:29","新北市板橋區中正路191號","121.456393333333","25.01708","6500100","板橋區"
"220012","486-VK","2017/09/02 13:59:28","新北市板橋區縣民大道二段118號","121.467403333333","25.01568","6500100","板橋區"
"220038","487-VK","2017/09/02 13:59:12","新北市板橋區文化路二段1號","121.468666666667","25.0241633333333","6500100","板橋區"
"220037","491-VK","2017/09/02 13:59:30","新北市板橋區文化路二段15號","121.468765","25.0244283333333","6500100","板橋區"
"220104","560-BX","2017/09/02 13:59:17","新北市板橋區中正路375巷27號","121.453851666667","25.020215","6500100","板橋區"
"220052","561-BX","2017/09/02 13:59:28","新北市板橋區介壽街107號","121.470105","25.0186183333333","6500100","板橋區"
"220019","568-UM","2017/09/02 13:59:26","新北市板橋區重慶路245巷26號","121.464418333333","25.0008166666667","6500100","板橋區"
"220011","609-BX","2017/09/02 13:59:24","新北市板橋區中山路二段125號","121.475035","25.01641","6500100","板橋區"
"220040","637-BX","2017/09/02 13:59:11","新北市板橋區莒光路167-4號","121.47413","25.02368","6500100","板橋區"
"220005","686-BX","2017/09/02 13:59:19","新北市板橋區館前西路4-1號","121.459121666667","25.0071216666667","6500100","板橋區"
"220025","687-BX","2017/09/02 13:59:24","新北市板橋區大觀路二段174巷163弄1號","121.441638333333","25.002965","6500100","板橋區"
"220042","689-BX","2017/09/02 13:59:22","新北市板橋區民生路三段12號","121.467743333333","25.0242","6500100","板橋區"
"220002","741-BX","2017/09/02 13:59:29","新北市板橋區館前東路18號","121.460026666667","25.0071483333333","6500100","板橋區"
"220003","827-TW","2017/09/02 13:59:29","新北市板橋區中山路一段143號","121.464658333333","25.0116866666667","6500100","板橋區"
"220014","829-TW","2017/09/02 13:59:26","新北市板橋區三民路二段正隆巷24號","121.4776","25.0130966666667","6500100","板橋區"
"220045","831-TW","2017/09/02 13:59:11","新北市板橋區莒光路64號","121.471198333333","25.0242183333333","6500100","板橋區"
"220022","895-R6","2017/09/02 13:59:18","新北市板橋區南雅南路一段115號","121.455345","25.00486","6500100","板橋區"
"220021","985-R7","2017/09/02 13:59:11","新北市板橋區館前西路195號","121.455226666667","25.00837","6500100","板橋區"
"220046","AAC-210","2017/09/02 13:59:10","新北市板橋區陽明街166號","121.463653333333","25.02456","6500100","板橋區"
"220018","AAC-253","2017/09/02 13:59:19","新北市板橋區四川路一段265號","121.45962","25.002165","6500100","板橋區"
