"lineid","car","time","location","longitude","latitude","cityid","cityname"
"234084","338-UY","2017/09/02 14:49:27","新北市永和區保生路55-6號","121.50385","25.01254","6500400","永和區"
"234028","746-BX","2017/09/02 14:49:21","新北市八里區中山路三段390號","121.368418333333","25.13575","6500400","永和區"
"234025","9371-KE","2017/09/02 14:49:17","新北市永和區雙和街23號","121.509181666667","25.0021533333333","6500400","永和區"
"248017","225-UY","2017/09/02 14:22:50","新北市五股區壟路16號","121.415383333333","25.08571","6501500","五股區"
"248005","653-BX","2017/09/02 10:24:19","新北市五股區中興路二段83巷26-6號","121.459853333333","25.0752066666667","6501500","五股區"
"231028","001-UM","2017/09/02 14:49:24","新北市新店區安德街155號","121.508341666667","24.9596933333333","6500600","新店區"
"231002","002-UM","2017/09/02 14:49:26","新北市新店區民權路48-2號","121.539393333333","24.9829883333333","6500600","新店區"
"231030","047-UY","2017/09/02 14:49:22","新北市新店區安民街380號","121.51649","24.9766016666667","6500600","新店區"
"231029","106-UY","2017/09/02 14:49:29","新北市新店區錦秀路11巷64號","121.480808333333","24.9436966666667","6500600","新店區"
"231018","107-UY","2017/09/02 14:49:16","新北市新店區中央路236號","121.52912","24.9726983333333","6500600","新店區"
"231012","108-UY","2017/09/02 14:49:19","新北市新店區寶橋路160號","121.549018333333","24.9771216666667","6500600","新店區"
"231036","110-UY","2017/09/02 14:49:16","新北市新店區安祥路106巷128號","121.47335","24.9585216666667","6500600","新店區"
"231020","187-VK","2017/09/02 14:49:13","新北市新店區永福路30-2號","121.549975","24.9290733333333","6500600","新店區"
"231026","256-BX","2017/09/02 14:49:26","新北市新店區安康路一段355-3號","121.519731666667","24.9616083333333","6500600","新店區"
"231034","268-BY","2017/09/02 14:49:12","新北市新店區安康路二段400號","121.497093333333","24.9554166666667","6500600","新店區"
"231017","AAD-862","2017/09/02 14:49:25","新北市新店區北宜路三段187號","121.587478333333","24.9525066666667","6500600","新店區"
"231027","3712-VJ","2017/09/02 14:49:29","新北市新店區中正路328巷1號","121.53693","24.975285","6500600","新店區"
"231024","3713-VJ","2017/09/02 14:49:21","新北市新店區新生街1號","121.540328333333","24.9656183333333","6500600","新店區"
"231025","4716-K9","2017/09/02 14:49:22","新北市新店區民族路71-1號","121.539296666667","24.9780883333333","6500600","新店區"
"231023","513-UM","2017/09/02 14:49:24","新北市新店區檳榔路109號","121.544438333333","24.9616216666667","6500600","新店區"
"231035","515-UM","2017/09/02 14:49:17","新北市新店區安利街26號","121.519205","24.9745533333333","6500600","新店區"
"231003","616-UM","2017/09/02 14:49:15","新北市新店區中興路二段200-1號","121.548303333333","24.9740433333333","6500600","新店區"
"231006","617-UM","2017/09/02 14:49:23","新北市新店區北宜路一段127巷4號","121.541576666667","24.9529416666667","6500600","新店區"
"231001","619-UM","2017/09/02 14:49:29","新北市新店區三民路69號","121.53622","24.9713566666667","6500600","新店區"
"231039","718-UY","2017/09/02 14:49:28","新北市新店區安康路一段355號","121.51993","24.9638216666667","6500600","新店區"
"231013","719-UM","2017/09/02 14:49:24","新北市新店區北新路二段59巷11號","121.542485","24.9734616666667","6500600","新店區"
"231033","720-UM","2017/09/02 14:49:26","新北市新店區安泰路7巷16號","121.485701666667","24.9510316666667","6500600","新店區"
"231005","897-TW","2017/09/02 14:49:28","新北市新店區復興路2號","121.532318333333","24.988315","6500600","新店區"
"231004","899-TW","2017/09/02 14:49:27","新北市新店區建國路133號","121.539368333333","24.97825","6500600","新店區"
"231037","AKT-0513","2017/09/02 14:49:29","新北市新店區安民街365巷7弄2號","121.515956666667","24.9752316666667","6500600","新店區"
"235030","003-UY","2017/09/02 14:49:17","新北市中和區南工路36號","121.505826666667","25.0011233333333","6500300","中和區"
"235020","096-UM","2017/09/02 14:49:21","新北市中和區民富街6號","121.477041666667","25.0060216666667","6500300","中和區"
"235003","097-UM","2017/09/02 14:49:18","新北市中和區安平路210號","121.513625","24.9998033333333","6500300","中和區"
"235004","150-BY","2017/09/02 14:49:25","新北市中和區安和路91號","121.507565","24.995525","6500300","中和區"
"235022","151-BY","2017/09/02 14:49:24","新北市中和區員山路146-1號","121.48135","24.9968016666667","6500300","中和區"
"235019","183-VK","2017/09/02 13:12:32","新北市中和區員山路36巷16-3號","121.48502","24.9914816666667","6500300","中和區"
"235002","185-VK","2017/09/02 14:49:25","新北市中和區大智街55巷30弄32號","121.521571666667","24.9932383333333","6500300","中和區"
"235013","186-VK","2017/09/02 14:49:15","新北市中和區中正路60號","121.501466666667","24.9937566666667","6500300","中和區"
"235031","255-BX","2017/09/02 14:49:18","新北市中和區員山路148巷23弄28號","121.482265","24.9977516666667","6500300","中和區"
"235008","293-VK","2017/09/02 14:49:09","新北市中和區南山路407號","121.506841666667","24.9898216666667","6500300","中和區"
"235036","301-VK","2017/09/02 14:49:13","新北市中和區永和路1號","121.4998","25.0028566666667","6500300","中和區"
"235007","352-BY","2017/09/02 14:49:27","新北市中和區安和路63號","121.50862","24.995025","6500300","中和區"
"235015","376-QA","2017/09/02 14:49:14","新北市中和區中興街202巷6號","121.499083333333","24.990545","6500300","中和區"
"235032","377-QA","2017/09/02 14:49:26","新北市中和區永和路8巷21號","121.501133333333","25.0035516666667","6500300","中和區"
"235014","4979-A6","2017/09/02 14:49:17","新北市中和區景平路241巷64弄16號","121.507353333333","24.9924016666667","6500300","中和區"
"235034","558-UM","2017/09/02 14:49:12","新北市中和區景平路541號","121.498645","24.9992833333333","6500300","中和區"
"235018","640-BX","2017/09/02 14:49:20","新北市中和區莒光路127號","121.472666666667","25.0019816666667","6500300","中和區"
"235024","647-TV","2017/09/02 14:49:15","新北市中和區新生街16巷15號","121.482545","25.0042866666667","6500300","中和區"
"235011","732-UM","2017/09/02 14:49:25","新北市中和區興南路一段61-1號","121.51049","24.9895816666667","6500300","中和區"
"235010","733-UM","2017/09/02 14:49:28","新北市中和區仁愛街96號","121.5115","24.987255","6500300","中和區"
"235026","800-TS","2017/09/02 14:49:27","新北市中和區橋和路117號","121.491395","25.0057583333333","6500300","中和區"
"235021","801-TS","2017/09/02 14:49:25","新北市中和區員山路146-4號","121.481246666667","24.9970133333333","6500300","中和區"
"235016","805-TS","2017/09/02 14:49:19","新北市中和區興南路二段113巷8號","121.505726666667","24.984135","6500300","中和區"
"235012","896-TW","2017/09/02 14:49:12","新北市中和區忠孝街114號","121.512226666667","24.9854716666667","6500300","中和區"
"235017","900-TW","2017/09/02 14:49:26","新北市中和區國光街146號","121.468211666667","25.00145","6500300","中和區"
"235001","AAC-213","2017/09/02 14:49:28","新北市中和區秀朗路三段135巷2號","121.525043333333","24.9925166666667","6500300","中和區"
"235023","AAC-215","2017/09/02 14:49:28","新北市中和區圓通路305巷5弄40號","121.494665","24.9901816666667","6500300","中和區"
"220016","013-TV","2017/09/02 14:49:12","新北市板橋區中山路二段412巷29弄8號","121.484105","25.0199716666667","6500100","板橋區"
"220013","072-UY","2017/09/02 14:49:16","新北市板橋區民族路270巷37號","121.469201666667","25.006055","6500100","板橋區"
"220105","075-UY","2017/09/02 14:49:20","新北市板橋區民治街57巷32-1號","121.480166666667","25.0340783333333","6500100","板橋區"
"220017","AAD-861","2017/09/02 14:49:12","新北市板橋區南雅南路二段3號","121.454428333333","25.00307","6500100","板橋區"
"220051","120-SR","2017/09/02 14:49:11","新北市板橋區松柏街35號","121.475236666667","25.0303283333333","6500100","板橋區"
"247019","893-R6","2017/09/02 14:49:19","新北市五股區中興路三段163號","121.449563333333","25.0805683333333","6501400","蘆洲區"
"247023","337-TH","2017/09/02 14:49:17","新北市五股區中興路二段180-1號","121.457623333333","25.07788","6501400","蘆洲區"
"247001","336-TH","2017/09/02 14:49:17","新北市蘆洲區永康街6號","121.459333333333","25.0858833333333","6501400","蘆洲區"
"247013","057-VK","2017/09/02 14:49:24","新北市蘆洲區中央路37巷36號","121.472475","25.0827116666667","6501400","蘆洲區"
"247005","053-VK","2017/09/02 14:49:29","新北市五股區天乙路101-6號","121.445301666667","25.10702","6501400","蘆洲區"
"247015","001-UY","2017/09/02 14:49:10","新北市蘆洲區和平路205號","121.466001666667","25.0816583333333","6501400","蘆洲區"
"228005","097-TW","2017/09/02 14:49:24","新北市貢寮區美豐里丹裡街69號","121.906108333333","25.0566816666667","6502600","貢寮區"
"228004","212-TW","2017/09/02 14:49:26","新北市貢寮區福隆里裕隆街3-1號","121.94618","25.01593","6502600","貢寮區"
"208004","AAC-292","2017/09/02 14:49:28","新北市金山區兩湖里倒照湖25號","121.594163333333","25.2390066666667","6502700","金山區"
"207002","749-BX","2017/09/02 14:49:23","新北市萬里區崁腳里崁腳路73號","121.647593333333","25.1595783333333","6502800","萬里區"
"252005","073-UM","2017/09/02 14:49:28","新北市三芝區埔坪里埔頭坑94號","121.509813333333","25.2502483333333","6502100","三芝區"
"207001","662-BX","2017/09/02 14:49:19","新北市萬里區雙興里二坪路9號","121.646181666667","25.1748783333333","6502800","萬里區"
"236075","105-UM","2017/09/02 14:49:25","新北市土城區明德路一段137-4號","121.465346666667","24.980675","6501300","土城區"
"236041","107-UM","2017/09/02 14:49:29","新北市土城區裕民路136巷2弄1號","121.451213333333","24.98591","6501300","土城區"
"236075","166-UM","2017/09/02 14:49:29","新北市土城區中央路四段185巷28號","121.415508333333","24.9557633333333","6501300","土城區"
"236029","253-BX","2017/09/02 14:49:27","新北市土城區忠義路36巷10號","121.440053333333","24.969945","6501300","土城區"
"236025","269-VK","2017/09/02 14:49:22","新北市土城區慶安街38號","121.441343333333","24.9733183333333","6501300","土城區"
"236013","270-VK","2017/09/02 14:49:28","新北市土城區清水路235巷20號","121.460886666667","24.983845","6501300","土城區"
"236035","271-VK","2017/09/02 14:49:20","新北市土城區明德路一段195巷3弄2號","121.464291666667","24.9785383333333","6501300","土城區"
"236017","401-BY","2017/09/02 14:49:29","新北市土城區延安街35巷2號","121.468041666667","24.984305","6501300","土城區"
"236054","752-BX","2017/09/02 14:49:11","新北市土城區中華路二段167號","121.438768333333","24.975435","6501300","土城區"
"236057","912-UM","2017/09/02 14:49:21","新北市土城區中央路三段141-7號","121.433135","24.9653233333333","6501300","土城區"
"236045","913-UM","2017/09/02 14:49:27","新北市土城區青雲路35號","121.460213333333","24.98882","6501300","土城區"
"236061","915-UM","2017/09/02 14:49:12","新北市土城區延壽路13巷5號","121.470773333333","24.99035","6501300","土城區"
"221012","276-VK","2017/09/02 13:21:42","新北市汐止區汐萬路一段256巷3號","121.65349","25.0746483333333","6501100","汐止區"
"220027","145-BY","2017/09/02 14:49:16","新北市板橋區中正路135巷13號","121.455511666667","25.0154283333333","6500100","板橋區"
"220028","200-UY","2017/09/02 14:49:27","新北市板橋區大觀路二段153巷46弄10號","121.449053333333","24.99954","6500100","板橋區"
"220030","610-BX","2017/09/02 14:49:29","新北市板橋區大觀路三段229號","121.430731666667","24.9922283333333","6500100","板橋區"
"220050","245-BX","2017/09/02 14:49:23","新北市板橋區莊敬路232號","121.473206666667","25.0214133333333","6500100","板橋區"
"220023","256-TC","2017/09/02 14:49:21","新北市板橋區金華街12號","121.45597","25.020295","6500100","板橋區"
"220020","277-BY","2017/09/02 14:49:15","新北市板橋區金門街215巷79號","121.434113333333","24.989305","6500100","板橋區"
"220043","283-UM","2017/09/02 14:49:21","新北市板橋區長江路一段107號","121.459595","25.0296733333333","6500100","板橋區"
"220001","285-VK","2017/09/02 14:49:15","新北市板橋區中山路二段60巷1弄1號","121.47434","25.015375","6500100","板橋區"
"220031","286-VK","2017/09/02 14:49:25","新北市板橋區龍興街71巷1號","121.443763333333","25.0016783333333","6500100","板橋區"
"220029","287-VK","2017/09/02 14:49:19","新北市板橋區大觀路一段28巷107-1號","121.449893333333","25.0121983333333","6500100","板橋區"
"220039","288-VK","2017/09/02 14:49:17","新北市板橋區龍泉街90巷18號","121.456095","25.02494","6500100","板橋區"
"220009","295-UM","2017/09/02 14:49:27","新北市板橋區觀光街5號","121.471803333333","25.01584","6500100","板橋區"
"220032","296-UM","2017/09/02 14:49:15","新北市板橋區溪崑二街126號","121.42606","24.9880416666667","6500100","板橋區"
"220010","305-R5","2017/09/02 14:49:29","新北市板橋區光復街23號","121.481395","25.0192416666667","6500100","板橋區"
"220041","307-R5","2017/09/02 14:49:26","新北市板橋區四維路259巷42號","121.461365","25.027285","6500100","板橋區"
"220047","317-R6","2017/09/02 14:49:27","新北市板橋區新海路405號","121.458586666667","25.0268116666667","6500100","板橋區"
"220034","461-BY","2017/09/02 14:49:29","新北市板橋區中正路100號","121.456605","25.01527","6500100","板橋區"
"220012","486-VK","2017/09/02 14:49:28","新北市板橋區館前東路98號","121.462505","25.0075383333333","6500100","板橋區"
"220038","487-VK","2017/09/02 14:49:22","新北市板橋區龍泉街93號","121.457006666667","25.024675","6500100","板橋區"
"220037","491-VK","2017/09/02 14:49:25","新北市板橋區文聖街132號","121.478368333333","25.0282333333333","6500100","板橋區"
"220104","560-BX","2017/09/02 14:49:17","新北市板橋區新生街53巷20號","121.457598333333","25.0216116666667","6500100","板橋區"
"220052","561-BX","2017/09/02 14:49:28","新北市板橋區自由路49號","121.46565","25.023475","6500100","板橋區"
"220019","568-UM","2017/09/02 14:49:26","新北市板橋區五權街30巷24弄17號","121.46374","24.993425","6500100","板橋區"
"220011","609-BX","2017/09/02 14:49:24","新北市板橋區三民路一段31巷89弄7-2號","121.481955","25.0234633333333","6500100","板橋區"
"220040","637-BX","2017/09/02 14:49:07","新北市板橋區懷德街127巷16號","121.47947","25.03115","6500100","板橋區"
"220005","686-BX","2017/09/02 14:49:28","新北市板橋區廣權路16號","121.461268333333","24.991495","6500100","板橋區"
"220025","687-BX","2017/09/02 14:49:24","新北市板橋區僑中一街132號","121.445526666667","25.0117783333333","6500100","板橋區"
"220042","689-BX","2017/09/02 14:49:22","新北市板橋區長江路二段59號","121.464671666667","25.0314333333333","6500100","板橋區"
"220002","741-BX","2017/09/02 14:49:29","新北市板橋區實踐路63號","121.463833333333","25.00646","6500100","板橋區"
"220003","827-TW","2017/09/02 14:49:28","新北市板橋區仁愛路62巷15弄1號","121.459986666667","24.9985216666667","6500100","板橋區"
"220014","829-TW","2017/09/02 14:49:26","新北市板橋區長安街138巷1弄342號","121.474945","25.011345","6500100","板橋區"
"220045","831-TW","2017/09/02 14:49:11","新北市板橋區文化路一段370號","121.469891666667","25.0236266666667","6500100","板橋區"
"220022","895-R6","2017/09/02 14:49:18","新北市板橋區府中路27號","121.459046666667","25.0086466666667","6500100","板橋區"
"220021","985-R7","2017/09/02 14:49:13","新北市板橋區南雅西路二段275號","121.451933333333","25.015155","6500100","板橋區"
"220046","AAC-210","2017/09/02 14:49:30","新北市板橋區漢生西路58巷1弄1號","121.463355","25.0189816666667","6500100","板橋區"
"220018","AAC-253","2017/09/02 14:49:20","新北市板橋區民族路168號","121.466883333333","25.0079883333333","6500100","板橋區"
