"lineid","car","time","location","longitude","latitude","cityid","cityname"
"249005","172-UM","2017/09/02 16:59:11","新北市八里區渡船頭3-18號","121.434176666667","25.1523866666667","6502300","八里區"
"249001","173-UM","2017/09/02 16:59:23","新北市八里區商港路50號","121.395518333333","25.1456866666667","6502300","八里區"
"249004","303-UY","2017/09/02 16:59:17","新北市八里區挖子尾街46號","121.4157","25.1660716666667","6502300","八里區"
"249002","305-UY","2017/09/02 16:59:12","新北市八里區牛寮埔10號","121.433135","25.1423816666667","6502300","八里區"
"249003","593-UM","2017/09/02 16:59:18","新北市八里區中山路二段277號","121.401796666667","25.14871","6502300","八里區"
"248005","653-BX","2017/09/02 10:24:19","新北市五股區中興路二段83巷26-6號","121.459853333333","25.0752066666667","6501500","五股區"
"234067","AAC-212","2017/09/02 16:26:22","新北市永和區福和路1號","121.52645","25.0096783333333","6500400","永和區"
"244007","080-UY","2017/09/02 16:59:21","新北市林口區文化一路二段305號","121.385868333333","25.0858133333333","6501700","林口區"
"244019","403-UM","2017/09/02 16:59:24","新北市林口區粉寮路一段181號","121.39963","25.0819116666667","6501700","林口區"
"244009","410-SL","2017/09/02 16:59:11","新北市林口區粉寮69號","121.40505","25.0908283333333","6501700","林口區"
"244023","483-VK","2017/09/02 16:59:03","新北市林口區粉寮69號","121.40502","25.090915","6501700","林口區"
"231046","278-BY","2017/09/02 16:59:21","新北市新店區永業路81巷48號","121.529881666667","24.9480233333333","6500600","新店區"
"241011","013-R5","2017/09/02 16:59:17","新北市三重區仁愛街55巷67號","121.499675","25.072855","6500200","三重區"
"241028","022-UY","2017/09/02 16:59:22","新北市三重區中正南路54號","121.494033333333","25.0598466666667","6500200","三重區"
"241008","059-VK","2017/09/02 16:59:10","新北市三重區永福街179巷42號","121.477431666667","25.0746766666667","6500200","三重區"
"241009","060-VK","2017/09/02 16:59:12","新北市三重區仁美街108巷16號","121.484995","25.0805883333333","6500200","三重區"
"241031","061-VK","2017/09/02 16:59:07","新北市三重區三寧街22號","121.489523333333","25.059935","6500200","三重區"
"241015","062-VK","2017/09/02 16:59:25","新北市三重區福德北路82號","121.501681666667","25.0664216666667","6500200","三重區"
"241017","063-VK","2017/09/02 16:59:21","新北市三重區國隆路12巷6號","121.493003333333","25.063745","6500200","三重區"
"241024","065-VK","2017/09/02 16:59:13","新北市三重區大勇街82巷24號","121.479346666667","25.0722033333333","6500200","三重區"
"241026","066-VK","2017/09/02 16:59:08","新北市三重區文化南路42號","121.500325","25.060275","6500200","三重區"
"241002","090-VK","2017/09/02 16:59:19","新北市三重區仁義街101巷8號","121.498326666667","25.0799966666667","6500200","三重區"
"241003","091-VK","2017/09/02 16:59:21","新北市三重區碧華街400號","121.491765","25.084835","6500200","三重區"
"241005","262-UM","2017/09/02 16:59:14","新北市三重區碧華街114號","121.484683333333","25.0818633333333","6500200","三重區"
"241007","265-UM","2017/09/02 16:59:19","新北市三重區溪尾街136號","121.489443333333","25.0796883333333","6500200","三重區"
"241016","266-UM","2017/09/02 16:59:14","新北市三重區大同北路99-1號","121.49432","25.063985","6500200","三重區"
"241022","267-UM","2017/09/02 16:59:14","新北市三重區中華路128號","121.483566666667","25.0638966666667","6500200","三重區"
"241018","268-UM","2017/09/02 16:59:11","新北市三重區六張街126巷2弄28號","121.492676666667","25.0695033333333","6500200","三重區"
"241032","269-UM","2017/09/02 16:59:10","新北市三重區重陽路一段130巷26號","121.485718333333","25.0604433333333","6500200","三重區"
"241013","270-UM","2017/09/02 16:59:12","新北市三重區仁愛街83號","121.49577","25.073275","6500200","三重區"
"241025","271-UM","2017/09/02 16:59:19","新北市三重區中正北路510號","121.472636666667","25.0717233333333","6500200","三重區"
"241020","413-TH","2017/09/02 16:59:12","新北市三重區自強路三段72號","121.486685","25.0735583333333","6500200","三重區"
"241004","475-VK","2017/09/02 16:59:12","新北市三重區五華街92巷26號","121.491771666667","25.0815616666667","6500200","三重區"
"241019","478-VK","2017/09/02 16:59:07","新北市三重區三張街104號","121.487918333333","25.06994","6500200","三重區"
"241030","480-VK","2017/09/02 16:59:08","新北市三重區昌隆街50號","121.491461666667","25.0515816666667","6500200","三重區"
"241014","543-UM","2017/09/02 16:59:06","新北市三重區三和路二段173巷143號","121.500995","25.0706833333333","6500200","三重區"
"241023","545-UM","2017/09/02 16:59:24","新北市三重區新北大道一段21號","121.486358333333","25.0613016666667","6500200","三重區"
"241001","547-UM","2017/09/02 16:59:25","新北市三重區仁愛街162號","121.494188333333","25.0762966666667","6500200","三重區"
"241006","AAD-863","2017/09/02 16:59:06","新北市三重區車路頭街128號","121.484248333333","25.0752966666667","6500200","三重區"
"241012","887-TS","2017/09/02 16:59:16","新北市三重區正義北路222號","121.496151666667","25.0677916666667","6500200","三重區"
"241029","942-UM","2017/09/02 16:59:23","新北市三重區重安街83號","121.492721666667","25.0557616666667","6500200","三重區"
"241033","AAC-255","2017/09/02 16:59:12","新北市三重區中興北街275號","121.469261666667","25.060845","6500200","三重區"
"235062","800-TS","2017/09/02 15:47:32","新北市中和區員山路36巷16-3號","121.485105","24.99153","6500300","中和區"
"247020","893-R6","2017/09/02 16:59:22","新北市蘆洲區民族路422巷84號","121.473803333333","25.0939116666667","6501400","蘆洲區"
"247008","339-TH","2017/09/02 16:59:24","新北市蘆洲區民生街2巷7號","121.475663333333","25.079675","6501400","蘆洲區"
"247024","337-TH","2017/09/02 16:59:19","新北市蘆洲區長興路255號","121.460558333333","25.0875516666667","6501400","蘆洲區"
"247002","336-TH","2017/09/02 16:59:17","新北市蘆洲區永平街20號","121.459163333333","25.0906816666667","6501400","蘆洲區"
"247014","057-VK","2017/09/02 16:59:22","新北市蘆洲區中山二路36巷42號","121.474141666667","25.0836166666667","6501400","蘆洲區"
"247004","056-VK","2017/09/02 16:59:22","新北市蘆洲區長安街131巷27號","121.459928333333","25.0805183333333","6501400","蘆洲區"
"247006","053-VK","2017/09/02 16:59:08","新北市蘆洲區永安南路二段242號","121.460153333333","25.0798333333333","6501400","蘆洲區"
"247012","007-UY","2017/09/02 16:59:08","新北市蘆洲區信義路298號","121.477615","25.0875883333333","6501400","蘆洲區"
"247016","001-UY","2017/09/02 16:59:08","新北市蘆洲區正和街13號","121.470385","25.0823633333333","6501400","蘆洲區"
"228003","097-TW","2017/09/02 16:59:20","新北市貢寮區福隆里興隆街13-5號","121.944173333333","25.0165466666667","6502600","貢寮區"
"228001","212-TW","2017/09/02 16:59:15","新北市貢寮區貢寮里朝陽街1-2號","121.912186666667","25.0212433333333","6502600","貢寮區"
"228002","585-TW","2017/09/02 16:59:04","新北市貢寮區貢寮里朝陽街1號","121.910016666667","25.0212","6502600","貢寮區"
"224010","AGQ-8101","2017/09/02 08:51:52","新北市瑞芳區明燈路二段48-1號","121.809526666667","25.1080516666667","6501200","瑞芳區"
"224006","676-BX","2017/09/02 16:59:08","新北市瑞芳區大寮路356-1號","121.78448","25.1034716666667","6501200","瑞芳區"
"224009","285-BY","2017/09/02 16:59:21","新北市瑞芳區明燈路一段1號","121.831711666667","25.1117","6501200","瑞芳區"
"224008","275-VK","2017/09/02 16:59:14","新北市瑞芳區明燈路一段175號","121.81919","25.1075883333333","6501200","瑞芳區"
"224007","273-VK","2017/09/02 16:59:18","新北市瑞芳區瑞竹路87號","121.764168333333","25.1033833333333","6501200","瑞芳區"
"224005","271-BY","2017/09/02 16:59:03","新北市瑞芳區明里路18號","121.871051666667","25.1231716666667","6501200","瑞芳區"
"227010","642-TC","2017/09/02 16:59:12","新北市雙溪區牡丹里中正路103號","121.861628333333","25.0481166666667","6502500","雙溪區"
"227002","400-TW","2017/09/02 16:59:11","新北市雙溪區長源里柑腳41-1號","121.803213333333","25.0131116666667","6502500","雙溪區"
"251009","008-UM","2017/09/02 16:59:19","新北市淡水區中正路一段156巷1號","121.420806666667","25.1800333333333","6501000","淡水區"
"251004","009-UM","2017/09/02 16:59:23","新北市淡水區中正路一段104號","121.423921666667","25.1778516666667","6501000","淡水區"
"251005","010-UM","2017/09/02 16:59:22","新北市淡水區重建街82號","121.440053333333","25.1723316666667","6501000","淡水區"
"251014","180-VK","2017/09/02 16:59:10","新北市淡水區興仁路162號","121.451578333333","25.2206983333333","6501000","淡水區"
"251008","181-VK","2017/09/02 16:59:13","新北市淡水區樹梅坑9號","121.472743333333","25.1426983333333","6501000","淡水區"
"251010","413-VK","2017/09/02 16:59:25","新北市淡水區濱海路三段148巷50弄76號","121.430766666667","25.1903066666667","6501000","淡水區"
"251012","441-VK","2017/09/02 16:59:07","新北市淡水區中正路二段31號","121.419698333333","25.181525","6501000","淡水區"
"251016","442-VK","2017/09/02 16:59:14","新北市淡水區瓦坑6號","121.477683333333","25.1812966666667","6501000","淡水區"
"251006","561-UM","2017/09/02 16:59:21","新北市淡水區中正路二段31號","121.419546666667","25.181575","6501000","淡水區"
"251011","650-BX","2017/09/02 16:59:13","新北市淡水區中山路129巷1號","121.44131","25.1712733333333","6501000","淡水區"
"252002","178-VK","2017/09/02 16:59:13","新北市三芝區忠孝街173號","121.5054","25.2613983333333","6502100","三芝區"
"252001","292-VK","2017/09/02 16:59:05","新北市三芝區淡金路二段76-1號","121.503825","25.260815","6502100","三芝區"
"242048","751-BX","2017/09/02 16:59:04","新北市新莊區新泰路255巷83號","121.442115","25.0390733333333","6500500","新莊區"
"242023","613-BX","2017/09/02 16:59:09","新北市新莊區新泰路357巷3弄57號","121.442213333333","25.0391883333333","6500500","新莊區"
"242036","566-BX","2017/09/02 16:59:17","新北市新莊區新泰路357巷3弄57號","121.442008333333","25.0391833333333","6500500","新莊區"
"242042","497-BY","2017/09/02 16:59:26","新北市新莊區新泰路357巷3弄57號","121.442455","25.0395716666667","6500500","新莊區"
"242031","415-TV","2017/09/02 16:59:22","新北市新莊區新泰路357巷3弄57號","121.441995","25.0391233333333","6500500","新莊區"
"242039","400-BY","2017/09/02 16:59:06","新北市新莊區新泰路357巷3弄57號","121.442011666667","25.0395133333333","6500500","新莊區"
"242061","362-BY","2017/09/02 16:59:08","新北市新莊區新泰路255巷83號","121.442423333333","25.0387516666667","6500500","新莊區"
"242044","172-VK","2017/09/02 04:48:38","新北市新莊區三和路12-21號","121.441905","25.0385316666667","6500500","新莊區"
"242007","173-VK","2017/09/02 00:32:09","新北市新莊區三和路12-21號","121.441985","25.0385433333333","6500500","新莊區"
"242013","175-VK","2017/09/02 16:59:20","新北市新莊區三和路12-21號","121.441991666667","25.038715","6500500","新莊區"
"242056","176-VK","2017/09/02 16:59:11","新北市新莊區三和路12-21號","121.441963333333","25.0388533333333","6500500","新莊區"
"242017","348-TH","2017/09/02 16:59:22","新北市新莊區新泰路357巷3弄57號","121.441856666667","25.03952","6500500","新莊區"
"242053","349-TH","2017/09/02 16:54:11","新北市新莊區公園一路112號","121.444956666667","25.0377116666667","6500500","新莊區"
"242009","351-TH","2017/09/02 16:59:09","新北市新莊區新泰路357巷3弄57號","121.442028333333","25.0394716666667","6500500","新莊區"
"238021","311-TH","2017/09/02 16:59:15","新北市樹林區育德街78號","121.387836666667","24.96831","6500700","樹林區"
"239007","AAC-297","2017/09/02 16:58:59","新北市鶯歌區環河路155-1號","121.346503333333","24.9386933333333","6500800","鶯歌區"
"239006","891-R6","2017/09/02 16:59:13","新北市鶯歌區二甲路37-15號","121.34216","24.9364933333333","6500800","鶯歌區"
"239008","527-UM","2017/09/02 16:59:09","新北市鶯歌區尖山路101巷16-2號","121.347563333333","24.9412883333333","6500800","鶯歌區"
"239005","526-UM","2017/09/02 16:59:25","新北市鶯歌區環河路60-1號","121.351271666667","24.9443866666667","6500800","鶯歌區"
"239001","417-VK","2017/09/02 11:58:31","新北市鶯歌區二甲路13號","121.343916666667","24.935505","6500800","鶯歌區"
"239003","360-BY","2017/09/02 16:59:13","新北市鶯歌區環河路78-1號","121.350425","24.94335","6500800","鶯歌區"
"239002","359-BY","2017/09/02 16:59:21","新北市鶯歌區文化路324巷42號","121.350685","24.9437483333333","6500800","鶯歌區"
"239004","193-VK","2017/09/02 16:59:05","新北市鶯歌區二甲路173號","121.344501666667","24.93662","6500800","鶯歌區"
"221012","276-VK","2017/09/02 13:21:42","新北市汐止區汐萬路一段256巷3號","121.65349","25.0746483333333","6501100","汐止區"
