"lineid","car","time","location","longitude","latitude","cityid","cityname"
"249005","172-UM","2017/09/02 17:19:10","新北市五股區凌雲路三段130號","121.41766","25.128515","6502300","八里區"
"249001","173-UM","2017/09/02 17:14:23","新北市八里區中華路二段165巷6號","121.407683333333","25.150765","6502300","八里區"
"249004","303-UY","2017/09/02 17:19:17","新北市八里區忠七街20號","121.421113333333","25.160055","6502300","八里區"
"249002","305-UY","2017/09/02 17:19:11","新北市八里區龍米路二段117巷12號","121.446465","25.1428383333333","6502300","八里區"
"249003","593-UM","2017/09/02 17:19:18","新北市八里區商港路82號","121.395383333333","25.1463983333333","6502300","八里區"
"248005","653-BX","2017/09/02 10:24:19","新北市五股區中興路二段83巷26-6號","121.459853333333","25.0752066666667","6501500","五股區"
"234067","AAC-212","2017/09/02 16:26:22","新北市永和區福和路1號","121.52645","25.0096783333333","6500400","永和區"
"244013","069-UM","2017/09/02 17:19:15","新北市林口區粉寮69號","121.405061666667","25.09081","6501700","林口區"
"244007","080-UY","2017/09/02 17:19:21","新北市林口區菁埔17鄰18號","121.377993333333","25.0963416666667","6501700","林口區"
"244019","403-UM","2017/09/02 17:19:24","新北市林口區公園路233-4號","121.37643","25.07544","6501700","林口區"
"244009","410-SL","2017/09/02 17:19:11","新北市林口區文化北路二段550巷20弄10號","121.378351666667","25.091835","6501700","林口區"
"244023","483-VK","2017/09/02 17:19:03","新北市林口區仁愛路一段669號","121.387725","25.0766133333333","6501700","林口區"
"244021","838-TS","2017/09/02 17:19:09","新北市林口區粉寮路60-17號","121.404266666667","25.0903183333333","6501700","林口區"
"231046","278-BY","2017/09/02 17:19:21","新北市新店區直潭路92號","121.530906666667","24.9376066666667","6500600","新店區"
"241011","013-R5","2017/09/02 17:19:17","新北市三重區河邊北街100巷31號","121.502615","25.070145","6500200","三重區"
"241028","022-UY","2017/09/02 17:19:22","新北市三重區仁化商場10號","121.493641666667","25.0593983333333","6500200","三重區"
"241008","059-VK","2017/09/02 17:19:11","新北市三重區下竹圍街17號","121.481013333333","25.0757766666667","6500200","三重區"
"241009","060-VK","2017/09/02 17:19:12","新北市三重區仁愛街598號","121.484065","25.08095","6500200","三重區"
"241015","062-VK","2017/09/02 17:19:25","新北市三重區長元街82-1號","121.501851666667","25.0662766666667","6500200","三重區"
"241017","063-VK","2017/09/02 17:19:21","新北市三重區大同北路52號","121.495148333333","25.0631116666667","6500200","三重區"
"241024","065-VK","2017/09/02 17:19:13","新北市三重區中正北路201號","121.47705","25.069845","6500200","三重區"
"241026","066-VK","2017/09/02 17:19:08","新北市三重區文化南路8號","121.50022","25.062435","6500200","三重區"
"241002","090-VK","2017/09/02 17:19:08","新北市三重區仁愛街357巷21號","121.492631666667","25.080345","6500200","三重區"
"241003","091-VK","2017/09/02 17:19:21","新北市三重區富福街37號","121.490983333333","25.083765","6500200","三重區"
"241005","262-UM","2017/09/02 17:19:19","新北市三重區永安北路二段13號","121.482106666667","25.0813883333333","6500200","三重區"
"241007","265-UM","2017/09/02 17:19:19","新北市三重區三和路四段143-1號","121.484485","25.07832","6500200","三重區"
"241016","266-UM","2017/09/02 17:19:14","新北市三重區重新路三段45-1號","121.493118333333","25.06117","6500200","三重區"
"241022","267-UM","2017/09/02 17:19:14","新北市三重區重陽路二段36號","121.486863333333","25.0630733333333","6500200","三重區"
"241018","268-UM","2017/09/02 17:19:11","新北市三重區安慶街132號","121.49477","25.0688866666667","6500200","三重區"
"241032","269-UM","2017/09/02 17:19:10","新北市三重區中華路20巷24號","121.482495","25.0607833333333","6500200","三重區"
"241013","270-UM","2017/09/02 17:19:12","新北市三重區仁福街19號","121.49621","25.0743116666667","6500200","三重區"
"241025","271-UM","2017/09/02 17:19:19","新北市三重區中正北路416號","121.475158333333","25.0708233333333","6500200","三重區"
"241020","413-TH","2017/09/02 17:19:12","新北市三重區忠孝路一段151號","121.488005","25.0721716666667","6500200","三重區"
"241004","475-VK","2017/09/02 17:19:12","新北市三重區仁愛街425巷50號","121.491456666667","25.082375","6500200","三重區"
"241019","478-VK","2017/09/02 17:19:07","新北市三重區三張街178號","121.48561","25.069205","6500200","三重區"
"241030","480-VK","2017/09/02 17:19:08","新北市三重區成功路73巷6號","121.4891","25.0516266666667","6500200","三重區"
"241014","543-UM","2017/09/02 17:19:06","新北市三重區長榮路3號","121.500171666667","25.0683483333333","6500200","三重區"
"241023","545-UM","2017/09/02 17:19:24","新北市三重區三民街166號","121.482188333333","25.0655133333333","6500200","三重區"
"241001","547-UM","2017/09/02 17:19:25","新北市三重區仁愛街269巷9號","121.493383333333","25.078865","6500200","三重區"
"241006","AAD-863","2017/09/02 17:19:16","新北市三重區車路頭街139巷14號","121.484355","25.0762383333333","6500200","三重區"
"241012","887-TS","2017/09/02 17:19:16","新北市三重區仁興街3巷7號","121.500185","25.0738533333333","6500200","三重區"
"241029","942-UM","2017/09/02 17:19:08","新北市三重區重新路四段63號","121.487455","25.0571566666667","6500200","三重區"
"241033","AAC-255","2017/09/02 17:19:24","新北市三重區中興北街136巷12號","121.468231666667","25.0558966666667","6500200","三重區"
"235062","800-TS","2017/09/02 15:47:32","新北市中和區員山路36巷16-3號","121.485105","24.99153","6500300","中和區"
"247020","893-R6","2017/09/02 17:19:22","新北市蘆洲區民族路446號","121.47302","25.09198","6501400","蘆洲區"
"247010","546-UM","2017/09/02 17:19:09","新北市蘆洲區中山一路120巷7弄26號","121.477328333333","25.0819516666667","6501400","蘆洲區"
"247018","500-BY","2017/09/02 17:19:20","新北市蘆洲區民權路68巷11號","121.475456666667","25.087805","6501400","蘆洲區"
"247008","339-TH","2017/09/02 17:19:24","新北市三重區永福街135巷32弄21號","121.47677","25.0767166666667","6501400","蘆洲區"
"247024","337-TH","2017/09/02 17:19:19","新北市蘆洲區長榮路152號","121.46117","25.084745","6501400","蘆洲區"
"247002","336-TH","2017/09/02 17:19:17","新北市蘆洲區永樂街38巷41號","121.458333333333","25.0895916666667","6501400","蘆洲區"
"247014","057-VK","2017/09/02 17:19:22","新北市蘆洲區中正路90號","121.470198333333","25.083605","6501400","蘆洲區"
"247004","056-VK","2017/09/02 17:19:22","新北市蘆洲區中原路61號","121.458923333333","25.0821316666667","6501400","蘆洲區"
"247006","053-VK","2017/09/02 17:19:08","新北市蘆洲區永安南路二段150號","121.462131666667","25.0786633333333","6501400","蘆洲區"
"247012","007-UY","2017/09/02 17:19:11","新北市蘆洲區信義路329號","121.478221666667","25.086675","6501400","蘆洲區"
"247016","001-UY","2017/09/02 17:19:17","新北市蘆洲區正和街96巷6號","121.467991666667","25.0809216666667","6501400","蘆洲區"
"228003","097-TW","2017/09/02 17:19:20","新北市貢寮區福隆里興隆街15號","121.943766666667","25.01656","6502600","貢寮區"
"228001","212-TW","2017/09/02 17:19:15","新北市貢寮區仁理村尖山腳街18-3號","121.925456666667","25.0482916666667","6502600","貢寮區"
"228002","585-TW","2017/09/02 17:19:24","新北市貢寮區雙玉里下雙溪街26號","121.924526666667","25.0109666666667","6502600","貢寮區"
"224010","AGQ-8101","2017/09/02 08:51:52","新北市瑞芳區明燈路二段48-1號","121.809526666667","25.1080516666667","6501200","瑞芳區"
"224006","676-BX","2017/09/02 17:19:08","新北市瑞芳區大寮路62號","121.78186","25.0981883333333","6501200","瑞芳區"
"224009","285-BY","2017/09/02 17:19:22","新北市瑞芳區汽車路139號","121.83872","25.1098566666667","6501200","瑞芳區"
"224008","275-VK","2017/09/02 17:19:13","新北市瑞芳區侯硐路59號","121.829388333333","25.0886266666667","6501200","瑞芳區"
"224005","271-BY","2017/09/02 17:18:43","新北市瑞芳區鼻頭路247號","121.91241","25.1236366666667","6501200","瑞芳區"
"227010","642-TC","2017/09/02 17:18:12","新北市雙溪區三貂里定福路4號","121.851768333333","25.0660066666667","6502500","雙溪區"
"227002","400-TW","2017/09/02 17:19:11","新北市雙溪區上林里內平林59號","121.83253","25.0296433333333","6502500","雙溪區"
"251009","008-UM","2017/09/02 17:19:19","新北市淡水區三民街20號","121.439006666667","25.171705","6501000","淡水區"
"251004","009-UM","2017/09/02 17:19:03","新北市淡水區中正東路二段88巷15號","121.459096666667","25.15046","6501000","淡水區"
"251005","010-UM","2017/09/02 17:19:22","新北市淡水區鄧公路23巷1-5號","121.450248333333","25.1699616666667","6501000","淡水區"
"251014","180-VK","2017/09/02 17:19:10","新北市淡水區公埔子43號","121.463801666667","25.2295966666667","6501000","淡水區"
"251008","181-VK","2017/09/02 17:19:13","新北市淡水區大同路293號","121.467848333333","25.1424516666667","6501000","淡水區"
"251010","413-VK","2017/09/02 17:19:25","新北市淡水區中正路二段211號","121.426196666667","25.18914","6501000","淡水區"
"251012","441-VK","2017/09/02 17:19:07","新北市淡水區中山北路一段158號","121.444228333333","25.1779216666667","6501000","淡水區"
"251016","442-VK","2017/09/02 17:19:14","新北市淡水區大竹圍63號","121.46334","25.1909666666667","6501000","淡水區"
"251006","561-UM","2017/09/02 17:19:21","新北市淡水區中山路190號","121.44155","25.174545","6501000","淡水區"
"251011","650-BX","2017/09/02 17:19:13","新北市淡水區坪頂路128號","121.464766666667","25.161445","6501000","淡水區"
"251002","672-BX","2017/09/02 17:19:12","新北市淡水區中正路二段31號","121.419371666667","25.18171","6501000","淡水區"
"207003","550-UM","2017/09/02 17:19:12","新北市萬里區萬里里瑪鋉路314號","121.68827","25.1819833333333","6502800","萬里區"
"252002","178-VK","2017/09/02 17:19:13","新北市三芝區忠孝街1-14號","121.505466666667","25.2539933333333","6502100","三芝區"
"252001","292-VK","2017/09/02 17:19:05","新北市三芝區長安街119號","121.49805","25.2596466666667","6502100","三芝區"
"242021","AAC-296","2017/09/02 17:19:05","新北市新莊區中平路82巷36-2號","121.446401666667","25.0449183333333","6500500","新莊區"
"242029","986-R7","2017/09/02 17:19:07","新北市新莊區新泰路488號","121.442631666667","25.04588","6500500","新莊區"
"242048","751-BX","2017/09/02 17:19:24","新北市新莊區龍安路253號","121.419633333333","25.0200816666667","6500500","新莊區"
"242025","615-BX","2017/09/02 17:19:22","新北市新莊區中平路82巷29號","121.445916666667","25.0448983333333","6500500","新莊區"
"242023","613-BX","2017/09/02 17:19:09","新北市新莊區中平路82巷22號","121.445751666667","25.0449","6500500","新莊區"
"242027","612-BX","2017/09/02 17:19:15","新北市新莊區中和街12號","121.448426666667","25.0431366666667","6500500","新莊區"
"242036","566-BX","2017/09/02 17:19:17","新北市新莊區新樹路132號","121.43578","25.02383","6500500","新莊區"
"242042","497-BY","2017/09/02 17:19:13","新北市新莊區新樹路113巷32號","121.438753333333","25.026695","6500500","新莊區"
"242046","441-UM","2017/09/02 17:19:24","新北市新莊區新樹路67巷32號","121.440458333333","25.0302083333333","6500500","新莊區"
"242051","440-UM","2017/09/02 17:19:07","新北市新莊區瓊林南路59-8號","121.435513333333","25.0165316666667","6500500","新莊區"
"242031","415-TV","2017/09/02 17:19:22","新北市新莊區新泰路417-2號","121.443233333333","25.0445933333333","6500500","新莊區"
"242002","413-TV","2017/09/02 17:19:04","新北市新莊區中環路一段299號","121.442006666667","25.03228","6500500","新莊區"
"242039","400-BY","2017/09/02 17:19:06","新北市新莊區新樹路207-7號","121.435805","25.0239016666667","6500500","新莊區"
"242061","362-BY","2017/09/02 17:19:08","新北市新莊區新泰路357巷3弄51號","121.44184","25.03996","6500500","新莊區"
"242058","353-BY","2017/09/02 17:19:03","新北市新莊區新泰路357巷1弄43號","121.442716666667","25.0399183333333","6500500","新莊區"
"242004","132-UY","2017/09/02 17:19:20","新北市新莊區新泰路277巷2號","121.445518333333","25.0404466666667","6500500","新莊區"
"242034","133-UY","2017/09/02 17:19:22","新北市新莊區瓊林路50-11號","121.445926666667","25.0287583333333","6500500","新莊區"
"242019","135-UY","2017/09/02 17:19:15","新北市新莊區中港路307號","121.452771666667","25.044645","6500500","新莊區"
"242044","172-VK","2017/09/02 17:19:07","新北市新莊區富國路101-1號","121.421393333333","25.02554","6500500","新莊區"
"242007","173-VK","2017/09/02 00:32:09","新北市新莊區三和路12-21號","121.441985","25.0385433333333","6500500","新莊區"
"242013","175-VK","2017/09/02 17:19:20","新北市新莊區新泰路361巷23號","121.442481666667","25.0427","6500500","新莊區"
"242056","176-VK","2017/09/02 17:19:11","新北市新莊區新莊路771巷10號","121.442046666667","25.0318216666667","6500500","新莊區"
"242017","348-TH","2017/09/02 17:19:22","新北市新莊區中港路307號","121.452793333333","25.0447133333333","6500500","新莊區"
"242053","349-TH","2017/09/02 17:19:11","新北市新莊區新樹路67巷5號","121.442163333333","25.0302866666667","6500500","新莊區"
"242015","350-TH","2017/09/02 17:19:06","新北市新莊區新泰路488號","121.442621666667","25.04588","6500500","新莊區"
"242009","351-TH","2017/09/02 17:19:09","新北市新莊區立信一街35號","121.442545","25.0491483333333","6500500","新莊區"
"238015","755-BX","2017/09/02 17:19:13","新北市樹林區中山路二段222-1號","121.411213333333","24.9822766666667","6500700","樹林區"
"238023","601-UM","2017/09/02 17:19:12","新北市樹林區太平路273巷23號","121.421335","24.9767483333333","6500700","樹林區"
"238019","599-UM","2017/09/02 17:19:17","新北市樹林區八德街251巷2號","121.421835","24.97864","6500700","樹林區"
"238018","571-TV","2017/09/02 17:19:08","新北市板橋區篤行路三段98號","121.425863333333","24.9847833333333","6500700","樹林區"
"238024","5061-A6","2017/09/02 17:19:20","新北市樹林區鎮前街72號","121.425533333333","24.99217","6500700","樹林區"
"238022","312-TH","2017/09/02 17:19:19","新北市樹林區忠孝街31號","121.423718333333","24.98218","6500700","樹林區"
"238021","311-TH","2017/09/02 17:19:15","新北市樹林區西圳街165巷20弄26號","121.395461666667","24.9600616666667","6500700","樹林區"
"238025","303-VK","2017/09/02 17:19:08","新北市樹林區中山路一段296號","121.42038","24.9864433333333","6500700","樹林區"
"238017","283-BY","2017/09/02 17:19:14","新北市樹林區大安路339巷2號","121.416703333333","24.99102","6500700","樹林區"
"238020","268-VK","2017/09/02 17:19:15","新北市樹林區大安路271號","121.418931666667","24.9936483333333","6500700","樹林區"
"238026","172-UY","2017/09/02 17:19:18","新北市樹林區東順街87號","121.409235","24.9763016666667","6500700","樹林區"
"238016","169-UY","2017/09/02 17:19:06","新北市樹林區中山路二段142號","121.413255","24.9828833333333","6500700","樹林區"
"239007","AAC-297","2017/09/02 17:19:19","新北市鶯歌區國慶街115巷21號","121.351163333333","24.9544483333333","6500800","鶯歌區"
"239006","891-R6","2017/09/02 17:19:13","新北市鶯歌區福昌街13號","121.333061666667","24.960825","6500800","鶯歌區"
"239008","527-UM","2017/09/02 17:19:09","新北市鶯歌區西湖街289巷5-1號","121.34032","24.96911","6500800","鶯歌區"
"239005","526-UM","2017/09/02 17:19:25","新北市鶯歌區福德二街7號","121.330125","24.9673816666667","6500800","鶯歌區"
"239001","417-VK","2017/09/02 17:19:25","新北市鶯歌區黃厝街41號","121.342548333333","24.9453966666667","6500800","鶯歌區"
"239003","360-BY","2017/09/02 17:19:12","新北市鶯歌區德昌街152號","121.331601666667","24.9605933333333","6500800","鶯歌區"
"239002","359-BY","2017/09/02 17:19:21","新北市鶯歌區南昌街24號","121.349831666667","24.9542766666667","6500800","鶯歌區"
"239004","193-VK","2017/09/02 17:19:26","新北市鶯歌區文化路417-17號","121.353671666667","24.9493083333333","6500800","鶯歌區"
"221012","276-VK","2017/09/02 13:21:42","新北市汐止區汐萬路一段256巷3號","121.65349","25.0746483333333","6501100","汐止區"
