"lineid","car","time","location","longitude","latitude","cityid","cityname"
"234026","9371-KE","2017/09/02 17:29:18","新北市永和區福和路1號","121.5264","25.0096683333333","6500400","永和區"
"249005","172-UM","2017/09/02 17:29:11","新北市八里區荖阡坑路71號","121.407141666667","25.1262316666667","6502300","八里區"
"249001","173-UM","2017/09/02 17:29:23","新北市八里區大崁腳41-3號","121.425991666667","25.1593583333333","6502300","八里區"
"249004","303-UY","2017/09/02 17:29:17","新北市八里區賢一街218號","121.415451666667","25.1557666666667","6502300","八里區"
"249002","305-UY","2017/09/02 17:29:11","新北市八里區石壁腳9-5號","121.444983333333","25.134585","6502300","八里區"
"249003","593-UM","2017/09/02 17:29:18","新北市八里區中山路二段398號","121.400558333333","25.147745","6502300","八里區"
"248005","653-BX","2017/09/02 10:24:19","新北市五股區中興路二段83巷26-6號","121.459853333333","25.0752066666667","6501500","五股區"
"234067","AAC-212","2017/09/02 16:26:22","新北市永和區福和路1號","121.52645","25.0096783333333","6500400","永和區"
"244013","069-UM","2017/09/02 17:29:14","新北市林口區文化一路二段200號","121.383045","25.08083","6501700","林口區"
"244007","080-UY","2017/09/02 17:29:21","新北市林口區湖子18-3號","121.385451666667","25.0919483333333","6501700","林口區"
"244019","403-UM","2017/09/02 17:29:03","新北市林口區公園路233-4號","121.375928333333","25.075715","6501700","林口區"
"244009","410-SL","2017/09/02 17:29:11","新北市林口區中華路283號","121.383848333333","25.0908616666667","6501700","林口區"
"244023","483-VK","2017/09/02 17:29:03","新北市林口區隆林街94號","121.385925","25.0751316666667","6501700","林口區"
"244017","485-VK","2017/09/02 17:29:24","新北市林口區文化一路二段2號","121.3801","25.0767933333333","6501700","林口區"
"244011","701-TV","2017/09/02 17:29:11","新北市林口區仁愛路一段410號","121.386496666667","25.0767516666667","6501700","林口區"
"244021","838-TS","2017/09/02 17:29:09","新北市林口區粉寮路67-3號","121.403408333333","25.0908383333333","6501700","林口區"
"231046","278-BY","2017/09/02 17:29:21","新北市新店區直潭路92號","121.530903333333","24.937595","6500600","新店區"
"241011","013-R5","2017/09/02 17:29:17","新北市三重區河邊北街110巷59號","121.502605","25.0705666666667","6500200","三重區"
"241015","062-VK","2017/09/02 17:29:05","新北市三重區長元街65巷16弄15號","121.503536666667","25.066245","6500200","三重區"
"241017","063-VK","2017/09/02 17:29:21","新北市三重區重新路三段45-3號","121.493275","25.0616583333333","6500200","三重區"
"241024","065-VK","2017/09/02 17:29:13","新北市三重區國道路一段58巷20號","121.48123","25.07201","6500200","三重區"
"241026","066-VK","2017/09/02 17:29:08","新北市三重區文化南路42號","121.50037","25.060285","6500200","三重區"
"241003","091-VK","2017/09/02 17:29:21","新北市三重區仁義街288號","121.493636666667","25.08622","6500200","三重區"
"241005","262-UM","2017/09/02 17:29:19","新北市三重區永安北路二段37號","121.482396666667","25.0823216666667","6500200","三重區"
"241007","265-UM","2017/09/02 17:29:19","新北市三重區慈愛街88號","121.488515","25.0799","6500200","三重區"
"241016","266-UM","2017/09/02 17:29:14","新北市三重區信義西街41號","121.495303333333","25.0639733333333","6500200","三重區"
"241018","268-UM","2017/09/02 17:29:11","新北市三重區中正北路25巷9號","121.492623333333","25.062155","6500200","三重區"
"241032","269-UM","2017/09/02 17:29:10","新北市三重區名源街61巷3號","121.481941666667","25.0593633333333","6500200","三重區"
"241013","270-UM","2017/09/02 17:29:12","新北市三重區三和路三段107巷3號","121.494486666667","25.0728866666667","6500200","三重區"
"241025","271-UM","2017/09/02 17:29:19","新北市三重區中正北路380號","121.476605","25.0698183333333","6500200","三重區"
"241020","413-TH","2017/09/02 17:29:12","新北市三重區忠孝路一段183號","121.487436666667","25.0714366666667","6500200","三重區"
"241019","478-VK","2017/09/02 17:29:07","新北市三重區自強路二段48-1號","121.488915","25.0696766666667","6500200","三重區"
"241030","480-VK","2017/09/02 17:29:08","新北市三重區新興路51號","121.49146","25.0537333333333","6500200","三重區"
"241014","543-UM","2017/09/02 17:29:06","新北市三重區長壽街52號","121.500628333333","25.0682283333333","6500200","三重區"
"241023","545-UM","2017/09/02 17:29:04","新北市三重區忠孝路三段84巷26號","121.481376666667","25.0642533333333","6500200","三重區"
"241012","887-TS","2017/09/02 17:29:16","新北市三重區仁興街11巷49號","121.501001666667","25.07443","6500200","三重區"
"241033","AAC-255","2017/09/02 17:29:12","新北市三重區興德路133號","121.470166666667","25.0529766666667","6500200","三重區"
"235062","800-TS","2017/09/02 15:47:32","新北市中和區員山路36巷16-3號","121.485105","24.99153","6500300","中和區"
"247020","893-R6","2017/09/02 17:29:22","新北市蘆洲區仁愛街93巷8號","121.470796666667","25.0940983333333","6501400","蘆洲區"
"247010","546-UM","2017/09/02 17:29:09","新北市蘆洲區中山一路120巷40號","121.478385","25.08209","6501400","蘆洲區"
"247018","500-BY","2017/09/02 17:29:21","新北市蘆洲區民權路69號","121.473536666667","25.0884033333333","6501400","蘆洲區"
"247008","339-TH","2017/09/02 17:29:24","新北市蘆洲區民生街93號","121.473681666667","25.0782","6501400","蘆洲區"
"247024","337-TH","2017/09/02 17:29:19","新北市蘆洲區長興路296-7號","121.460425","25.08999","6501400","蘆洲區"
"247002","336-TH","2017/09/02 17:29:17","新北市蘆洲區永樂街38巷67弄22號","121.457645","25.09102","6501400","蘆洲區"
"247014","057-VK","2017/09/02 17:29:22","新北市蘆洲區三民路33號","121.475413333333","25.0829683333333","6501400","蘆洲區"
"247004","056-VK","2017/09/02 17:29:22","新北市蘆洲區長安街233巷21號","121.45856","25.0824816666667","6501400","蘆洲區"
"247006","053-VK","2017/09/02 17:29:08","新北市蘆洲區長安街68巷47號","121.464151666667","25.0811283333333","6501400","蘆洲區"
"247012","007-UY","2017/09/02 17:29:08","新北市蘆洲區民族路94號","121.478028333333","25.0850983333333","6501400","蘆洲區"
"247022","002-UY","2017/09/02 17:29:26","新北市蘆洲區三民路226號","121.468548333333","25.0893866666667","6501400","蘆洲區"
"247016","001-UY","2017/09/02 17:29:08","新北市蘆洲區光華路22巷40號","121.468375","25.084785","6501400","蘆洲區"
"228003","097-TW","2017/09/02 17:29:20","新北市貢寮區仁理村仁和路2-1號","121.92308","25.04873","6502600","貢寮區"
"228001","212-TW","2017/09/02 17:29:15","新北市貢寮區仁理村仁愛路56號","121.925441666667","25.053325","6502600","貢寮區"
"228002","585-TW","2017/09/02 17:29:24","新北市貢寮區福隆里福隆街4-1號","121.944801666667","25.0160916666667","6502600","貢寮區"
"224010","AGQ-8101","2017/09/02 08:51:52","新北市瑞芳區明燈路二段48-1號","121.809526666667","25.1080516666667","6501200","瑞芳區"
"224006","676-BX","2017/09/02 17:29:08","新北市瑞芳區傑魚坑路183號","121.788468333333","25.1080533333333","6501200","瑞芳區"
"224009","285-BY","2017/09/02 17:29:21","新北市瑞芳區汽車路18號","121.845333333333","25.1100866666667","6501200","瑞芳區"
"224008","275-VK","2017/09/02 17:29:13","新北市瑞芳區九芎橋路17號","121.832801666667","25.09275","6501200","瑞芳區"
"224005","271-BY","2017/09/02 17:29:23","新北市瑞芳區海濱路2巷1號","121.834218333333","25.1267833333333","6501200","瑞芳區"
"227010","642-TC","2017/09/02 17:29:12","新北市雙溪區三貂里定福路27號","121.851465","25.0734883333333","6502500","雙溪區"
"227002","400-TW","2017/09/02 17:29:11","新北市雙溪區平林里外平林17號","121.857386666667","25.0375366666667","6502500","雙溪區"
"251009","008-UM","2017/09/02 17:29:19","新北市淡水區新生街90巷4號","121.439623333333","25.1743483333333","6501000","淡水區"
"251004","009-UM","2017/09/02 17:29:03","新北市淡水區中正東路二段88巷15號","121.458976666667","25.15035","6501000","淡水區"
"251005","010-UM","2017/09/02 17:29:22","新北市淡水區鄧公路31巷3號","121.45139","25.1708383333333","6501000","淡水區"
"251014","180-VK","2017/09/02 17:29:16","新北市淡水區公埔子20-2號","121.46959","25.228895","6501000","淡水區"
"251008","181-VK","2017/09/02 17:29:13","新北市淡水區大同路122巷18號","121.463405","25.1397716666667","6501000","淡水區"
"251010","413-VK","2017/09/02 17:29:05","新北市淡水區中正路二段208號","121.426265","25.1891833333333","6501000","淡水區"
"251012","441-VK","2017/09/02 17:29:07","新北市淡水區北新路111號","121.448","25.1784183333333","6501000","淡水區"
"251016","442-VK","2017/09/02 17:29:14","新北市淡水區大竹圍10號","121.464775","25.19231","6501000","淡水區"
"251006","561-UM","2017/09/02 17:29:21","新北市淡水區大仁街19號","121.442448333333","25.1751766666667","6501000","淡水區"
"251007","577-R6","2017/09/02 17:29:07","新北市淡水區民生路60號","121.462183333333","25.13791","6501000","淡水區"
"251011","650-BX","2017/09/02 17:29:13","新北市淡水區坪頂路712號","121.4825","25.1584966666667","6501000","淡水區"
"251002","672-BX","2017/09/02 17:29:12","新北市淡水區中正路一段49號","121.424401666667","25.177525","6501000","淡水區"
"251003","673-BX","2017/09/02 17:29:10","新北市淡水區中山路159-1號","121.440763333333","25.172895","6501000","淡水區"
"207003","550-UM","2017/09/02 17:29:12","新北市萬里區龜吼里翡翠路17號","121.683331666667","25.1876466666667","6502800","萬里區"
"207004","225-TW","2017/09/02 17:29:14","新北市萬里區萬里里景美路11號","121.684973333333","25.17311","6502800","萬里區"
"252002","178-VK","2017/09/02 17:29:13","新北市三芝區忠孝街1-13號","121.505463333333","25.2540416666667","6502100","三芝區"
"252001","292-VK","2017/09/02 17:29:25","新北市三芝區長安街119號","121.49806","25.259665","6502100","三芝區"
"237016","649-BX","2017/09/02 17:29:22","新北市三峽區中山路459巷52-1號","121.356243333333","24.9365533333333","6500900","三峽區"
"242021","AAC-296","2017/09/02 17:29:05","新北市新莊區中正路211號","121.452213333333","25.03605","6500500","新莊區"
"242029","986-R7","2017/09/02 17:29:07","新北市新莊區幸福路85號","121.45627","25.049315","6500500","新莊區"
"242048","751-BX","2017/09/02 17:29:24","新北市新莊區四維路210號","121.421341666667","25.0201883333333","6500500","新莊區"
"242025","615-BX","2017/09/02 17:29:22","新北市新莊區中港路266號","121.453205","25.04386","6500500","新莊區"
"242023","613-BX","2017/09/02 17:29:15","新北市新莊區公園路138號","121.452826666667","25.0400583333333","6500500","新莊區"
"242027","612-BX","2017/09/02 17:29:15","新北市新莊區思源路96號","121.460115","25.0458566666667","6500500","新莊區"
"242036","566-BX","2017/09/02 17:29:18","新北市新莊區建國二路1號","121.434875","25.0236833333333","6500500","新莊區"
"242042","497-BY","2017/09/02 17:29:25","新北市新莊區新樹路52-33號","121.435126666667","25.0266033333333","6500500","新莊區"
"242046","441-UM","2017/09/02 17:29:24","新北市新莊區新樹路65-7號","121.43939","25.0307683333333","6500500","新莊區"
"242051","440-UM","2017/09/02 17:29:07","新北市新莊區瓊林南路73-30號","121.434988333333","25.0150416666667","6500500","新莊區"
"242031","415-TV","2017/09/02 17:29:22","新北市新莊區新泰路401巷7號","121.443186666667","25.0440233333333","6500500","新莊區"
"242002","413-TV","2017/09/02 17:29:04","新北市新莊區新莊路213號","121.45526","25.0354133333333","6500500","新莊區"
"242039","400-BY","2017/09/02 17:29:08","新北市新莊區民安東路32號","121.428746666667","25.02089","6500500","新莊區"
"242061","362-BY","2017/09/02 17:29:08","新北市新莊區瓊林南路12-2號","121.436218333333","25.018945","6500500","新莊區"
"242058","353-BY","2017/09/02 17:29:03","新北市新莊區中正路589號","121.433918333333","25.0325816666667","6500500","新莊區"
"242004","132-UY","2017/09/02 17:29:21","新北市新莊區中港路278號","121.453096666667","25.04412","6500500","新莊區"
"242034","133-UY","2017/09/02 17:29:03","新北市新莊區新莊路479號","121.449001666667","25.0333433333333","6500500","新莊區"
"242019","135-UY","2017/09/02 17:29:20","新北市新莊區中港路67號","121.455395","25.03863","6500500","新莊區"
"242044","172-VK","2017/09/02 17:29:26","新北市新莊區富國路87號","121.420463333333","25.0257916666667","6500500","新莊區"
"242007","173-VK","2017/09/02 17:29:20","新北市新莊區自立街83號","121.454738333333","25.0454283333333","6500500","新莊區"
"242013","175-VK","2017/09/02 17:29:20","新北市新莊區中誠街16巷28號","121.451861666667","25.0488066666667","6500500","新莊區"
"242056","176-VK","2017/09/02 17:29:17","新北市新莊區新泰路6號","121.449808333333","25.0328116666667","6500500","新莊區"
"242011","346-TH","2017/09/02 17:29:20","新北市新莊區中港路471號","121.452303333333","25.0491183333333","6500500","新莊區"
"242017","348-TH","2017/09/02 17:29:22","新北市新莊區中港路276號","121.452971666667","25.0439616666667","6500500","新莊區"
"242053","349-TH","2017/09/02 17:29:11","新北市新莊區瓊林南路305巷25號","121.435611666667","25.0050716666667","6500500","新莊區"
"242015","350-TH","2017/09/02 17:29:07","新北市新莊區新泰路203號","121.447118333333","25.0382","6500500","新莊區"
"242009","351-TH","2017/09/02 17:29:09","新北市新莊區中原路107號","121.455908333333","25.0543233333333","6500500","新莊區"
"238015","755-BX","2017/09/02 17:29:13","新北市樹林區大安路265號","121.419158333333","24.9937","6500700","樹林區"
"238023","601-UM","2017/09/02 17:29:12","新北市樹林區保安街二段27號","121.41645","24.999765","6500700","樹林區"
"238019","599-UM","2017/09/02 17:29:23","新北市樹林區太平路1-4號","121.41851","24.9846633333333","6500700","樹林區"
"238018","571-TV","2017/09/02 17:29:08","新北市樹林區鎮前街283號","121.41837","24.9847483333333","6500700","樹林區"
"238024","5061-A6","2017/09/02 17:29:11","新北市樹林區保安街一段48巷19號","121.426335","24.9948633333333","6500700","樹林區"
"238022","312-TH","2017/09/02 17:29:25","新北市樹林區和平街43號","121.423225","24.98189","6500700","樹林區"
"238021","311-TH","2017/09/02 17:29:15","新北市樹林區西圳街一段26號","121.402191666667","24.9613733333333","6500700","樹林區"
"238025","303-VK","2017/09/02 17:29:08","新北市樹林區保安街一段195號","121.421013333333","24.9958883333333","6500700","樹林區"
"238017","283-BY","2017/09/02 17:29:14","新北市樹林區光武街28號","121.415833333333","25.0053816666667","6500700","樹林區"
"238014","282-BY","2017/09/02 17:29:24","新北市樹林區長壽街70巷31弄1號","121.421316666667","24.9946633333333","6500700","樹林區"
"238020","268-VK","2017/09/02 17:29:14","新北市樹林區千歲街111-1號","121.429245","25.00163","6500700","樹林區"
"238026","172-UY","2017/09/02 17:29:17","新北市樹林區中山路二段219號","121.402841666667","24.976325","6500700","樹林區"
"238016","169-UY","2017/09/02 17:29:06","新北市樹林區中山路一段53號","121.423861666667","24.9922033333333","6500700","樹林區"
"239007","AAC-297","2017/09/02 17:29:19","新北市鶯歌區國華路2號","121.34283","24.9567816666667","6500800","鶯歌區"
"239006","891-R6","2017/09/02 17:29:13","新北市鶯歌區鶯桃路466號","121.332638333333","24.9656533333333","6500800","鶯歌區"
"239008","527-UM","2017/09/02 17:29:09","新北市鶯歌區宏德司法新村95號","121.334453333333","24.9796983333333","6500800","鶯歌區"
"239005","526-UM","2017/09/02 17:29:25","桃園市八德區和平路頂僑巷5弄15號","121.324013333333","24.9710266666667","6500800","鶯歌區"
"239001","417-VK","2017/09/02 17:29:25","新北市鶯歌區高職西街81號","121.335948333333","24.9415183333333","6500800","鶯歌區"
"239003","360-BY","2017/09/02 17:29:12","新北市鶯歌區鶯桃路185號","121.337755","24.9586733333333","6500800","鶯歌區"
"239002","359-BY","2017/09/02 17:29:21","新北市鶯歌區南雅路31號","121.349148333333","24.9541266666667","6500800","鶯歌區"
"239004","193-VK","2017/09/02 17:29:06","新北市鶯歌區三鶯路29巷34號","121.353503333333","24.9391366666667","6500800","鶯歌區"
"221012","276-VK","2017/09/02 13:21:42","新北市汐止區汐萬路一段256巷3號","121.65349","25.0746483333333","6501100","汐止區"
"221033","647-BX","2017/09/02 17:29:14","新北市汐止區汐萬路一段333巷23號","121.64897","25.0760383333333","6501100","汐止區"
