"lineid","car","time","location","longitude","latitude","cityid","cityname"
"234046","148-BY","2017/09/02 18:39:09","新北市永和區林森路74號","121.52362","25.0039366666667","6500400","永和區"
"234013","149-BY","2017/09/02 18:39:25","新北市永和區保福路二段109巷28號","121.509395","25.0132233333333","6500400","永和區"
"234007","207-UY","2017/09/02 18:39:09","新北市永和區環河西路二段185號","121.502298333333","25.011215","6500400","永和區"
"234081","298-R6","2017/09/02 18:39:14","新北市永和區林森路87號","121.523741666667","25.0038066666667","6500400","永和區"
"234064","337-UY","2017/09/02 18:39:18","新北市永和區福和路1號","121.52665","25.01012","6500400","永和區"
"234086","338-UY","2017/09/02 18:39:18","新北市永和區永貞路173號","121.515323333333","25.003905","6500400","永和區"
"234070","552-UM","2017/09/02 18:39:08","新北市永和區福和路1號","121.525571666667","25.0093266666667","6500400","永和區"
"234054","553-UM","2017/09/02 18:39:14","新北市永和區福和路1號","121.525836666667","25.00972","6500400","永和區"
"234030","746-BX","2017/09/02 18:39:21","新北市永和區得和路330號","121.523341666667","24.9994083333333","6500400","永和區"
"234061","AAD-866","2017/09/02 18:39:10","新北市永和區環河東路二段90號","121.52437","25.0106683333333","6500400","永和區"
"234042","862-TW","2017/09/02 18:39:08","新北市永和區永貞路306號","121.51191","25.0048833333333","6500400","永和區"
"234050","863-TW","2017/09/02 18:39:07","新北市永和區環河西路一段83號","121.51272","25.0184583333333","6500400","永和區"
"234026","9371-KE","2017/09/02 18:39:18","新北市永和區永和路一段49巷4-1號","121.512435","25.0067483333333","6500400","永和區"
"234011","9373-KE","2017/09/02 18:39:24","新北市永和區文化路9巷22弄17號","121.5149","25.01456","6500400","永和區"
"249005","172-UM","2017/09/02 18:39:20","新北市八里區中華路三段200號","121.388705","25.1257166666667","6502300","八里區"
"249001","173-UM","2017/09/02 18:39:23","新北市八里區龍米路一段372號","121.451568333333","25.1316566666667","6502300","八里區"
"249004","303-UY","2017/09/02 18:39:17","新北市八里區龍米路三段58-6號","121.424275","25.1590283333333","6502300","八里區"
"249002","305-UY","2017/09/02 18:39:11","新北市八里區龍形一街33巷1-6號","121.449381666667","25.12951","6502300","八里區"
"248016","026-BX","2017/09/02 18:39:20","新北市五股區凌雲路一段149巷7號","121.448896666667","25.10167","6501500","五股區"
"248006","077-UY","2017/09/02 18:39:11","新北市五股區中興路二段83巷26-6號","121.459931666667","25.0752866666667","6501500","五股區"
"248008","095-VK","2017/09/02 18:39:26","新北市五股區中興路一段148號","121.464688333333","25.073935","6501500","五股區"
"248020","225-UY","2017/09/02 18:36:19","新北市五股區孝義路102號","121.445365","25.1196","6501500","五股區"
"248012","247-BX","2017/09/02 18:39:09","新北市五股區御成路158號","121.441131666667","25.09468","6501500","五股區"
"248014","261-SL","2017/09/02 18:39:12","新北市五股區中興路四段38巷11號","121.438733333333","25.0834883333333","6501500","五股區"
"248005","653-BX","2017/09/02 10:24:19","新北市五股區中興路二段83巷26-6號","121.459853333333","25.0752066666667","6501500","五股區"
"248004","677-BX","2017/09/02 18:39:10","新北市五股區民義路一段216-1號","121.430101666667","25.0893583333333","6501500","五股區"
"248002","678-BX","2017/09/02 18:39:27","新北市五股區西雲路170號","121.446908333333","25.0947666666667","6501500","五股區"
"248010","682-TV","2017/09/02 18:39:22","新北市五股區水碓一路56號","121.431931666667","25.07348","6501500","五股區"
"234023","9380-KE","2017/09/02 18:39:11","新北市永和區福和路1號","121.525058333333","25.0089333333333","6500400","永和區"
"234077","969-R7","2017/09/02 18:39:19","新北市永和區福和路285號","121.517391666667","25.0074283333333","6500400","永和區"
"234074","AAC-211","2017/09/02 18:39:14","新北市永和區福和路1號","121.52667","25.0099533333333","6500400","永和區"
"234067","AAC-212","2017/09/02 18:39:25","新北市永和區永貞路182號","121.516328333333","25.0042083333333","6500400","永和區"
"234003","AAC-295","2017/09/02 18:39:19","新北市永和區福和路1號","121.526361666667","25.0100083333333","6500400","永和區"
"232011","375-UM","2017/09/02 18:16:59","新北市坪林區坪雙路一段43號","121.711748333333","24.9424783333333","6502000","坪林區"
"244013","069-UM","2017/09/02 18:39:15","新北市林口區文化一路二段196號","121.382893333333","25.080425","6501700","林口區"
"244007","080-UY","2017/09/02 18:39:21","新北市林口區後湖13號","121.387818333333","25.09796","6501700","林口區"
"244019","403-UM","2017/09/02 18:39:24","新北市林口區忠孝路584號","121.375141666667","25.0681733333333","6501700","林口區"
"244009","410-SL","2017/09/02 18:39:11","新北市林口區文林一街27號","121.377103333333","25.0861583333333","6501700","林口區"
"244023","483-VK","2017/09/02 18:39:23","新北市林口區文化一路二段68號","121.381165","25.0778616666667","6501700","林口區"
"244017","485-VK","2017/09/02 18:39:23","新北市林口區八德路78號","121.365528333333","25.06576","6501700","林口區"
"244011","701-TV","2017/09/02 18:39:10","新北市林口區新寮1-63號","121.392948333333","25.076695","6501700","林口區"
"244025","837-TS","2017/09/02 18:39:17","新北市林口區南勢六街242號","121.355841666667","25.07466","6501700","林口區"
"244021","838-TS","2017/09/02 18:39:08","新北市林口區自強二街48號","121.399131666667","25.0771116666667","6501700","林口區"
"243013","AAD-798","2017/09/02 18:39:11","新北市泰山區明志路三段206巷3號","121.423298333333","25.037905","6501600","泰山區"
"243012","646-TV","2017/09/02 18:39:16","新北市泰山區福興三街13號","121.434456666667","25.0577333333333","6501600","泰山區"
"222003","436-BY","2017/09/02 18:39:07","新北市深坑區翠谷街53號","121.627526666667","25.0091816666667","6501800","深坑區"
"222002","659-BX","2017/09/02 18:39:14","新北市深坑區雲鄉路2號","121.620946666667","24.9996666666667","6501800","深坑區"
"222001","696-SL","2017/09/02 18:39:28","新北市深坑區北深路一段82號","121.636323333333","25.0107566666667","6501800","深坑區"
"231059","001-UM","2017/09/02 18:39:08","新北市新店區安華路28-1號","121.51942","24.9609566666667","6500600","新店區"
"231041","002-UM","2017/09/02 18:39:21","新北市新店區安華路28-1號","121.519676666667","24.960835","6500600","新店區"
"231061","047-UY","2017/09/02 18:39:26","新北市新店區安華路28-1號","121.519048333333","24.96098","6500600","新店區"
"231060","106-UY","2017/09/02 18:39:07","新北市新店區安華路28-1號","121.519608333333","24.9608216666667","6500600","新店區"
"231051","107-UY","2017/09/02 18:39:23","新北市新店區安華路28-1號","121.519558333333","24.96143","6500600","新店區"
"231048","108-UY","2017/09/02 18:39:19","新北市新店區北新路一段91號","121.53869","24.9618533333333","6500600","新店區"
"231065","110-UY","2017/09/02 18:39:15","新北市新店區安華路28-1號","121.519371666667","24.96121","6500600","新店區"
"231052","187-VK","2017/09/02 18:39:11","新北市新店區永興路2號","121.545873333333","24.940715","6500600","新店區"
"231057","256-BX","2017/09/02 18:39:25","新北市新店區新烏路一段215號","121.548968333333","24.9317583333333","6500600","新店區"
"231063","268-BY","2017/09/02 18:39:09","新北市新店區安華路28-1號","121.519351666667","24.960585","6500600","新店區"
"231046","278-BY","2017/09/02 18:39:21","新北市新店區直潭一街14號","121.536081666667","24.9425933333333","6500600","新店區"
"231050","AAD-862","2017/09/02 18:39:24","新北市新店區安華路28-1號","121.519921666667","24.96119","6500600","新店區"
"231058","3712-VJ","2017/09/02 18:39:17","新北市新店區國校路74-1號","121.538376666667","24.95312","6500600","新店區"
"231055","3713-VJ","2017/09/02 18:39:19","新北市新店區華興街38巷3號","121.537155","24.9692016666667","6500600","新店區"
"231056","4716-K9","2017/09/02 18:39:12","新北市新店區自立街72號","121.537531666667","24.9795833333333","6500600","新店區"
"231067","4772-VM","2017/09/02 18:39:12","新北市新店區安華路1-1號","121.51914","24.9605466666667","6500600","新店區"
"231054","513-UM","2017/09/02 18:39:14","新北市新店區安華路28-1號","121.519693333333","24.961085","6500600","新店區"
"231064","515-UM","2017/09/02 18:39:19","新北市新店區安華路28-1號","121.519468333333","24.9610033333333","6500600","新店區"
"231042","616-UM","2017/09/02 18:39:21","新北市新店區秀山路72號","121.531421666667","24.960905","6500600","新店區"
"231045","617-UM","2017/09/02 18:39:22","新北市新店區安華路28-1號","121.519546666667","24.96107","6500600","新店區"
"231040","619-UM","2017/09/02 18:39:17","新北市新店區安華路28-1號","121.519631666667","24.960965","6500600","新店區"
"231049","719-UM","2017/09/02 18:39:16","新北市新店區安康路一段44號","121.530691666667","24.961025","6500600","新店區"
"231062","720-UM","2017/09/02 18:39:23","新北市新店區安華路28-1號","121.519088333333","24.9612516666667","6500600","新店區"
"231044","897-TW","2017/09/02 18:39:24","新北市新店區安康路一段35-1號","121.532146666667","24.9605683333333","6500600","新店區"
"231043","899-TW","2017/09/02 18:39:21","新北市新店區安華路28-1號","121.519538333333","24.9608016666667","6500600","新店區"
"231066","AKT-0513","2017/09/02 18:39:15","新北市新店區安華路1-1號","121.519528333333","24.9604166666667","6500600","新店區"
"235066","003-UY","2017/09/02 18:39:28","新北市中和區水源路37號","121.504408333333","25.00356","6500300","中和區"
"235063","006-UY","2017/09/02 18:39:17","新北市中和區連城路347巷4弄15號","121.487646666667","24.995585","6500300","中和區"
"235064","031-BX","2017/09/02 18:39:16","新北市中和區連城路139巷20號","121.496191666667","24.9981816666667","6500300","中和區"
"235056","096-UM","2017/09/02 18:39:13","新北市中和區員山路611巷1號","121.477968333333","25.01133","6500300","中和區"
"235039","097-UM","2017/09/02 18:39:21","新北市中和區安樂路185號","121.514988333333","24.9980383333333","6500300","中和區"
"235040","150-BY","2017/09/02 18:39:14","新北市中和區宜安路65號","121.511175","24.9969633333333","6500300","中和區"
"235022","151-BY","2017/09/02 18:39:24","新北市中和區圓通路320號","121.486923333333","24.9880433333333","6500300","中和區"
"235055","183-VK","2017/09/02 18:36:31","新北市板橋區國泰街75巷41號","121.468333333333","25.0050983333333","6500300","中和區"
"235038","185-VK","2017/09/02 18:39:11","新北市中和區立人街14巷43號","121.519156666667","24.99551","6500300","中和區"
"235067","255-BX","2017/09/02 18:39:13","新北市中和區新生街40號","121.483225","25.00349","6500300","中和區"
"235044","293-VK","2017/09/02 18:39:24","新北市中和區復興路261號","121.502843333333","24.9901566666667","6500300","中和區"
"235072","301-VK","2017/09/02 18:39:21","新北市中和區連城路103號","121.496395","24.9996266666667","6500300","中和區"
"235043","352-BY","2017/09/02 18:39:17","新北市中和區景平路182號","121.516228333333","24.9923883333333","6500300","中和區"
"235051","376-QA","2017/09/02 18:39:19","新北市中和區興南路二段142巷19弄4號","121.50297","24.9834633333333","6500300","中和區"
"235068","377-QA","2017/09/02 18:39:28","新北市中和區板南路202號","121.499425","24.993015","6500300","中和區"
"235025","378-QA","2017/09/02 18:39:14","新北市中和區民享街92巷19號","121.473908333333","24.9996233333333","6500300","中和區"
"235050","4979-A6","2017/09/02 18:39:15","新北市中和區忠孝街124巷2號","121.512411666667","24.9860083333333","6500300","中和區"
"235069","4980-A6","2017/09/02 18:39:09","新北市中和區連城路89巷38號","121.49751","24.9985783333333","6500300","中和區"
"235042","551-UM","2017/09/02 18:39:25","新北市中和區成功路129號","121.525905","24.990885","6500300","中和區"
"235070","558-UM","2017/09/02 18:39:27","新北市中和區景平路572號","121.501566666667","24.9954133333333","6500300","中和區"
"235045","565-BX","2017/09/02 18:39:23","新北市中和區復興路14號","121.505653333333","24.9898816666667","6500300","中和區"
"235054","640-BX","2017/09/02 18:39:16","新北市中和區民享街93巷14號","121.475268333333","25.0010033333333","6500300","中和區"
"235060","647-TV","2017/09/02 18:39:25","新北市中和區中山路二段562號","121.483135","25.0051433333333","6500300","中和區"
"235047","732-UM","2017/09/02 18:39:11","新北市中和區興南路一段164號","121.508083333333","24.9865933333333","6500300","中和區"
"235046","733-UM","2017/09/02 18:39:19","新北市中和區仁愛街59-3號","121.511405","24.987785","6500300","中和區"
"235062","800-TS","2017/09/02 18:39:30","新北市中和區中山路二段312巷12號","121.495398333333","25.0036516666667","6500300","中和區"
"235057","801-TS","2017/09/02 18:39:22","新北市中和區員山路327巷39-1號","121.479588333333","25.0021583333333","6500300","中和區"
"235041","802-TS","2017/09/02 18:39:22","新北市中和區景新街170號","121.505875","24.9965866666667","6500300","中和區"
"235052","805-TS","2017/09/02 18:39:17","新北市中和區興南路三段20巷4號","121.497171666667","24.9795633333333","6500300","中和區"
"235048","896-TW","2017/09/02 18:39:17","新北市中和區南山路307號","121.504798333333","24.991565","6500300","中和區"
"235053","900-TW","2017/09/02 18:39:11","新北市土城區延壽路118-2號","121.46914","24.9940883333333","6500300","中和區"
"235049","157-BY","2017/09/02 18:39:26","新北市中和區景安路147號","121.505653333333","24.99534","6500300","中和區"
"235037","AAC-213","2017/09/02 18:39:12","新北市中和區景平路111巷53號","121.515423333333","24.99039","6500300","中和區"
"220068","013-TV","2017/09/02 18:39:14","新北市板橋區民生路二段120號","121.470475","25.0197166666667","6500100","板橋區"
"220065","072-UY","2017/09/02 18:39:20","新北市板橋區華東街1-9號","121.448128333333","24.9949433333333","6500100","板橋區"
"226004","312-R5","2017/09/02 18:39:25","新北市平溪區平溪里三坑路39號","121.732533333333","25.0335716666667","6502400","平溪區"
"228003","097-TW","2017/09/02 18:39:20","新北市貢寮區和美里龍洞街35號","121.91611","25.1116283333333","6502600","貢寮區"
"228001","212-TW","2017/09/02 18:39:15","新北市貢寮區仁理村研海街12-1號","121.923778333333","25.051655","6502600","貢寮區"
"228002","585-TW","2017/09/02 18:39:23","新北市貢寮區福隆里東興街6-11號","121.95071","25.02103","6502600","貢寮區"
"224010","AGQ-8101","2017/09/02 18:39:19","新北市瑞芳區烏勢巷100號","121.846006666667","25.1083366666667","6501200","瑞芳區"
"224006","676-BX","2017/09/02 18:39:28","新北市瑞芳區明燈路三段55號","121.80616","25.1081616666667","6501200","瑞芳區"
"224002","639-TC","2017/09/02 18:39:07","新北市瑞芳區中山路266號","121.79954","25.1075033333333","6501200","瑞芳區"
"224009","285-BY","2017/09/02 18:39:21","新北市瑞芳區五號路215號","121.856076666667","25.1103283333333","6501200","瑞芳區"
"224008","275-VK","2017/09/02 18:39:13","新北市瑞芳區瑞芳街139號","121.805045","25.109825","6501200","瑞芳區"
"224007","273-VK","2017/09/02 18:39:07","新北市瑞芳區大埔路93號","121.76375","25.1012816666667","6501200","瑞芳區"
"224005","271-BY","2017/09/02 18:39:23","新北市瑞芳區瑞濱路161號","121.817873333333","25.1184716666667","6501200","瑞芳區"
"227010","642-TC","2017/09/02 18:39:18","新北市雙溪區牡丹里牡丹217號","121.851048333333","25.0574983333333","6502500","雙溪區"
"227002","400-TW","2017/09/02 18:39:14","新北市雙溪區魚行里坤溪3-4號","121.876221666667","25.02069","6502500","雙溪區"
"253005","032-BX","2017/09/02 18:39:10","新北市石門區中山路54號","121.566643333333","25.2903433333333","6502200","石門區"
"253006","295-VK","2017/09/02 18:39:10","新北市石門區崁子腳28-1號","121.539305","25.2897866666667","6502200","石門區"
"208002","742-BX","2017/09/02 18:39:14","新北市金山區忠孝一路19巷5號","121.638081666667","25.2180616666667","6502700","金山區"
"208001","761-BX","2017/09/02 18:39:12","新北市金山區文化三路7號","121.635108333333","25.2249416666667","6502700","金山區"
"251004","009-UM","2017/09/02 18:39:23","新北市淡水區中正東路二段143巷2弄1號","121.460685","25.1473366666667","6501000","淡水區"
"251001","011-UM","2017/09/02 18:39:06","新北市淡水區自強路415巷2號","121.465503333333","25.1342266666667","6501000","淡水區"
"251014","180-VK","2017/09/02 18:39:30","新北市淡水區崙頂12-8號","121.495573333333","25.2172333333333","6501000","淡水區"
"251008","181-VK","2017/09/02 18:39:13","新北市淡水區北投子22巷8號","121.455171666667","25.1804966666667","6501000","淡水區"
"251010","413-VK","2017/09/02 18:39:25","新北市淡水區沙崙路137號","121.423048333333","25.1829083333333","6501000","淡水區"
"251012","441-VK","2017/09/02 18:39:27","新北市淡水區北新路121號","121.448875","25.1787133333333","6501000","淡水區"
"251016","442-VK","2017/09/02 18:39:13","新北市淡水區下圭柔山70-14號","121.4451","25.2066783333333","6501000","淡水區"
"251006","561-UM","2017/09/02 18:39:20","新北市淡水區崁頂64號","121.43883","25.2007783333333","6501000","淡水區"
"251011","650-BX","2017/09/02 18:39:12","新北市淡水區鄧公路36巷13號","121.456095","25.1691966666667","6501000","淡水區"
"251002","672-BX","2017/09/02 18:39:11","新北市淡水區中正東路一段3巷14弄1號","121.450865","25.1641933333333","6501000","淡水區"
"251003","673-BX","2017/09/02 18:39:16","新北市淡水區北新路69巷26號","121.446531666667","25.1799816666667","6501000","淡水區"
"207003","550-UM","2017/09/02 18:39:12","新北市萬里區大鵬里頂社2-1號","121.660365","25.2072266666667","6502800","萬里區"
"207004","225-TW","2017/09/02 18:39:13","新北市萬里區萬里里獅頭路7號","121.691991666667","25.178245","6502800","萬里區"
"252002","178-VK","2017/09/02 18:39:13","新北市三芝區中正路二段31號","121.50415","25.2550416666667","6502100","三芝區"
"252003","249-BX","2017/09/02 18:39:10","新北市三芝區後厝里土地公坑73號","121.461071666667","25.24771","6502100","三芝區"
"252001","292-VK","2017/09/02 18:39:25","新北市三芝區中興街二段121號","121.49955","25.2549233333333","6502100","三芝區"
"237004","078-UY","2017/09/02 18:39:22","新北市三峽區插角81-1號","121.406141666667","24.87097","6500900","三峽區"
"237007","153-BY","2017/09/02 18:39:15","新北市三峽區中正路三段37號","121.347993333333","24.9035833333333","6500900","三峽區"
"237009","210-TH","2017/09/02 18:39:26","新北市三峽區大同路238號","121.366125","24.9257283333333","6500900","三峽區"
"237013","252-BX","2017/09/02 18:39:26","新北市三峽區光明路69巷25號","121.376686666667","24.9292016666667","6500900","三峽區"
"237012","275-BY","2017/09/02 18:39:27","新北市三峽區三樹路250號","121.37925","24.9431766666667","6500900","三峽區"
"237008","302-VK","2017/09/02 18:39:24","新北市三峽區白雞129-1號","121.396673333333","24.9078383333333","6500900","三峽區"
"237014","433-BY","2017/09/02 18:39:14","新北市三峽區復興路480巷52-1號","121.362393333333","24.94036","6500900","三峽區"
"237006","5529-G3","2017/09/02 18:39:11","新北市三峽區溪東路315巷6號","121.41057","24.930635","6500900","三峽區"
"237011","572-TV","2017/09/02 18:39:25","新北市三峽區介壽路三段20號","121.395995","24.9361866666667","6500900","三峽區"
"237016","649-BX","2017/09/02 18:39:21","新北市三峽區竹崙路62號","121.432071666667","24.9193666666667","6500900","三峽區"
"237010","706-TV","2017/09/02 18:39:14","新北市三峽區復興路317號","121.364958333333","24.9388233333333","6500900","三峽區"
"237005","AKY-6261","2017/09/02 18:39:17","新北市三峽區文化路28號","121.373395","24.9361116666667","6500900","三峽區"
"236073","105-UM","2017/09/02 18:39:23","新北市土城區永豐路157巷29弄1號","121.468731666667","24.981525","6501300","土城區"
"236043","107-UM","2017/09/02 18:39:08","新北市土城區學成路108巷11號","121.450121666667","24.9896966666667","6501300","土城區"
"236079","166-UM","2017/09/02 18:39:24","新北市土城區中央路四段52巷10號","121.420001666667","24.9608016666667","6501300","土城區"
"236031","253-BX","2017/09/02 18:39:17","新北市土城區中央路二段278巷7-3號","121.44006","24.9748283333333","6501300","土城區"
"236027","269-VK","2017/09/02 18:39:10","新北市土城區忠義路55巷11號","121.44104","24.9686466666667","6501300","土城區"
"236015","270-VK","2017/09/02 18:39:25","新北市土城區清水路207巷25號","121.45959","24.982635","6501300","土城區"
"236038","271-VK","2017/09/02 18:39:13","新北市土城區青山路18號","121.463245","24.975335","6501300","土城區"
"236023","401-BY","2017/09/02 18:39:28","新北市土城區延吉街329號","121.465561666667","24.9841416666667","6501300","土城區"
"236055","752-BX","2017/09/02 18:39:18","新北市土城區中華路一段23號","121.446781666667","24.9891616666667","6501300","土城區"
"236059","912-UM","2017/09/02 18:39:26","新北市土城區中央路四段88號","121.418751666667","24.9592666666667","6501300","土城區"
"236049","913-UM","2017/09/02 18:39:26","新北市土城區明德路一段71號","121.465598333333","24.9833016666667","6501300","土城區"
"236063","915-UM","2017/09/02 18:39:27","新北市土城區延和路125巷77號","121.469125","24.99111","6501300","土城區"
"242046","441-UM","2017/09/02 18:39:24","新北市板橋區大觀路三段50巷79號","121.431576666667","24.99631","6500500","新莊區"
"242061","362-BY","2017/09/02 18:39:08","新北市新莊區中正路457巷21號","121.442381666667","25.033235","6500500","新莊區"
"242058","353-BY","2017/09/02 18:39:23","新北市新莊區中正路887-6號","121.416671666667","25.0244333333333","6500500","新莊區"
"242044","172-VK","2017/09/02 18:39:06","新北市泰山區德安街4號","121.419016666667","25.0321116666667","6500500","新莊區"
"238015","755-BX","2017/09/02 18:39:13","新北市樹林區啟智街189巷3號","121.41508","24.9870933333333","6500700","樹林區"
"238023","601-UM","2017/09/02 18:39:12","新北市樹林區三福街114號","121.406468333333","25.01632","6500700","樹林區"
"238018","571-TV","2017/09/02 18:39:08","新北市樹林區樹新路50巷28號","121.429566666667","24.9969483333333","6500700","樹林區"
"238024","5061-A6","2017/09/02 18:39:17","新北市樹林區後站街2號","121.424016666667","24.9912416666667","6500700","樹林區"
"238025","303-VK","2017/09/02 18:39:08","新北市樹林區中山路三段22號","121.395613333333","24.972935","6500700","樹林區"
"238017","283-BY","2017/09/02 18:39:14","新北市樹林區光榮街79號","121.41209","25.0029433333333","6500700","樹林區"
"238014","282-BY","2017/09/02 18:39:24","新北市樹林區大安路111巷11號","121.423133333333","24.99765","6500700","樹林區"
"238020","268-VK","2017/09/02 18:39:15","新北市樹林區三俊街289號","121.423358333333","25.0139783333333","6500700","樹林區"
"238026","172-UY","2017/09/02 18:39:17","新北市樹林區八德街828-13號","121.392695","24.9689166666667","6500700","樹林區"
"238016","169-UY","2017/09/02 18:39:26","新北市樹林區文化街23號","121.419281666667","24.9876133333333","6500700","樹林區"
"239007","AAC-297","2017/09/02 18:39:19","新北市鶯歌區中正一路460號","121.36432","24.956545","6500800","鶯歌區"
"239006","891-R6","2017/09/02 18:39:13","新北市鶯歌區鶯桃路296巷53號","121.335848333333","24.9613133333333","6500800","鶯歌區"
"239008","527-UM","2017/09/02 18:39:09","新北市鶯歌區國際一路14號","121.336138333333","24.9765216666667","6500800","鶯歌區"
"239005","526-UM","2017/09/02 18:39:24","新北市鶯歌區鳳吉一街1號","121.325143333333","24.9731666666667","6500800","鶯歌區"
"239001","417-VK","2017/09/02 18:39:25","新北市鶯歌區中正三路193巷47號","121.336498333333","24.9382983333333","6500800","鶯歌區"
"239003","360-BY","2017/09/02 18:39:11","新北市鶯歌區永和街69號","121.332986666667","24.96772","6500800","鶯歌區"
"239002","359-BY","2017/09/02 18:39:21","新北市鶯歌區中山路286-1號","121.34404","24.9569966666667","6500800","鶯歌區"
"239004","193-VK","2017/09/02 18:39:26","新北市鶯歌區中正三路247巷76號","121.333596666667","24.936555","6500800","鶯歌區"
"221036","130-UY","2017/09/02 18:39:20","新北市汐止區南昌街13號","121.66355","25.069495","6501100","汐止區"
"221015","131-UY","2017/09/02 18:39:25","新北市汐止區鄉長路一段55巷22號","121.664705","25.07634","6501100","汐止區"
"221010","269-BY","2017/09/02 18:39:07","新北市汐止區汐萬路三段247-1號","121.642396666667","25.107465","6501100","汐止區"
"221012","276-VK","2017/09/02 13:21:42","新北市汐止區汐萬路一段256巷3號","121.65349","25.0746483333333","6501100","汐止區"
"221031","277-VK","2017/09/02 18:39:11","新北市汐止區大同路一段279號","121.636563333333","25.0584583333333","6501100","汐止區"
"221012","278-VK","2017/09/02 18:39:08","新北市汐止區鄉友街29號","121.668631666667","25.0812366666667","6501100","汐止區"
"221023","279-VK","2017/09/02 18:39:11","新北市汐止區連峰街1巷2號","121.647165","25.0761083333333","6501100","汐止區"
"221032","280-BY","2017/09/02 18:39:16","新北市汐止區民權街二段79號","121.619193333333","25.048065","6501100","汐止區"
"221027","281-BY","2017/09/02 18:39:22","新北市汐止區康寧街901號","121.650758333333","25.07531","6501100","汐止區"
"221038","297-VK","2017/09/02 18:39:15","新北市汐止區汐萬路一段256巷3號","121.652683333333","25.0744916666667","6501100","汐止區"
"221029","298-VK","2017/09/02 18:39:21","新北市汐止區樟樹一路146號","121.642336666667","25.06509","6501100","汐止區"
"221021","299-VK","2017/09/02 18:39:16","新北市汐止區新興路46號","121.657085","25.06315","6501100","汐止區"
"221008","358-BY","2017/09/02 18:34:18","新北市汐止區康寧街901號","121.651411666667","25.0750783333333","6501100","汐止區"
"221035","622-UM","2017/09/02 18:39:13","新北市汐止區大同路二段341-1號","121.65612","25.067285","6501100","汐止區"
"221025","623-UM","2017/09/02 18:39:14","新北市汐止區仁愛路119巷17號","121.662211666667","25.064195","6501100","汐止區"
"221033","647-BX","2017/09/02 18:39:14","新北市汐止區宜興街1號","121.620785","25.0411716666667","6501100","汐止區"
"221002","707-TV","2017/09/02 18:39:25","新北市汐止區中興路31-1號","121.63667","25.0598616666667","6501100","汐止區"
"221018","753-BX","2017/09/02 18:39:10","新北市汐止區茄苳路250巷28號","121.671768333333","25.067575","6501100","汐止區"
"220079","145-BY","2017/09/02 18:39:12","新北市板橋區華東街1-10號","121.448276666667","24.995165","6500100","板橋區"
"220080","200-UY","2017/09/02 18:39:17","新北市板橋區華東街1-10號","121.448371666667","24.99518","6500100","板橋區"
"220082","610-BX","2017/09/02 18:39:26","新北市板橋區華東街1-9號","121.448108333333","24.9949683333333","6500100","板橋區"
"220056","276-BY","2017/09/02 18:39:22","新北市板橋區四川路二段橋頭6號","121.448265","24.9939816666667","6500100","板橋區"
"220072","277-BY","2017/09/02 18:39:16","新北市板橋區華東街1-10號","121.448291666667","24.9950616666667","6500100","板橋區"
"220094","283-UM","2017/09/02 18:39:13","新北市板橋區民生路二段161巷3號","121.470176666667","25.01983","6500100","板橋區"
"220053","285-VK","2017/09/02 18:39:22","新北市板橋區民生路二段120號","121.47039","25.01986","6500100","板橋區"
"220081","287-VK","2017/09/02 18:39:18","新北市板橋區華東街1-10號","121.448203333333","24.9950566666667","6500100","板橋區"
"220090","288-VK","2017/09/02 18:39:15","新北市板橋區民生路二段161巷5號","121.470153333333","25.01973","6500100","板橋區"
"220061","295-UM","2017/09/02 18:39:25","新北市板橋區民生路二段120號","121.470461666667","25.0195883333333","6500100","板橋區"
"220084","296-UM","2017/09/02 18:39:10","新北市板橋區華東街1-9號","121.448138333333","24.9949566666667","6500100","板橋區"
"220075","297-UM","2017/09/02 18:39:18","新北市板橋區華東街1-9號","121.448145","24.99494","6500100","板橋區"
"220086","461-BY","2017/09/02 18:39:28","新北市板橋區南雅西路一段53巷10號","121.452711666667","25.0049216666667","6500100","板橋區"
"220035","560-BX","2017/09/02 18:39:25","新北市板橋區南雅西路二段145巷6號","121.451595","25.0118333333333","6500100","板橋區"
"220071","568-UM","2017/09/02 18:39:20","新北市板橋區華東街1-9號","121.448075","24.9948666666667","6500100","板橋區"
"220063","609-BX","2017/09/02 18:39:16","新北市板橋區民生路二段161巷1號","121.469993333333","25.02009","6500100","板橋區"
"220057","686-BX","2017/09/02 18:39:13","新北市板橋區華東街1-9號","121.448225","24.9948733333333","6500100","板橋區"
"220077","687-BX","2017/09/02 18:39:13","新北市板橋區華東街1-10號","121.448266666667","24.9949683333333","6500100","板橋區"
"220002","741-BX","2017/09/02 18:39:22","新北市板橋區華東街1-9號","121.448088333333","24.9949","6500100","板橋區"
"220055","827-TW","2017/09/02 18:39:17","新北市板橋區華東街1-9號","121.448156666667","24.994905","6500100","板橋區"
"220067","829-TW","2017/09/02 18:39:19","新北市板橋區民生路二段161巷1號","121.470228333333","25.0199466666667","6500100","板橋區"
"220074","895-R6","2017/09/02 18:39:22","新北市板橋區華東街1-10號","121.448235","24.9949733333333","6500100","板橋區"
"220073","985-R7","2017/09/02 18:39:11","新北市板橋區華東街1-10號","121.448296666667","24.9949683333333","6500100","板橋區"
