"lineid","car","time","location","longitude","latitude","cityid","cityname"
"234046","148-BY","2017/09/02 20:04:49","新北市永和區成功路一段36號","121.527058333333","25.0045016666667","6500400","永和區"
"234013","149-BY","2017/09/02 20:05:05","新北市永和區仁愛路273號","121.506066666667","25.0098366666667","6500400","永和區"
"234007","207-UY","2017/09/02 20:04:49","新北市永和區保生路22巷8號","121.507358333333","25.0078916666667","6500400","永和區"
"234081","298-R6","2017/09/02 20:04:54","新北市永和區永利路77號","121.521386666667","25.0037066666667","6500400","永和區"
"234038","336-UY","2017/09/02 20:05:03","新北市永和區成功路一段110號","121.526858333333","25.0026283333333","6500400","永和區"
"234064","337-UY","2017/09/02 20:04:58","新北市永和區永利路94巷6號","121.520493333333","25.003395","6500400","永和區"
"234086","338-UY","2017/09/02 20:05:02","新北市永和區福和路165號","121.520216666667","25.0076366666667","6500400","永和區"
"234070","552-UM","2017/09/02 20:05:09","新北市永和區永利路25號","121.51813","25.0060983333333","6500400","永和區"
"234054","553-UM","2017/09/02 20:05:00","新北市永和區博愛街47巷2號","121.519578333333","25.015925","6500400","永和區"
"234017","745-BX","2017/09/02 20:05:06","新北市永和區文化路75號","121.513768333333","25.01512","6500400","永和區"
"234030","746-BX","2017/09/02 20:05:02","新北市永和區民權路49巷7號","121.520565","24.9972583333333","6500400","永和區"
"234061","AAD-866","2017/09/02 20:04:50","新北市永和區中正路283巷18號","121.51706","25.0008233333333","6500400","永和區"
"234042","862-TW","2017/09/02 20:04:55","新北市永和區中和路421巷16弄7號","121.508733333333","25.0011683333333","6500400","永和區"
"234050","863-TW","2017/09/02 20:04:50","新北市永和區新生路220號","121.505266666667","25.0129166666667","6500400","永和區"
"234026","9371-KE","2017/09/02 20:04:58","新北市永和區保生路24號","121.506543333333","25.0075216666667","6500400","永和區"
"234011","9373-KE","2017/09/02 20:05:04","新北市永和區仁愛路310號","121.503001666667","25.0075133333333","6500400","永和區"
"249005","172-UM","2017/09/02 20:04:50","新北市八里區楓林路2-9號","121.386056666667","25.1323333333333","6502300","八里區"
"249001","173-UM","2017/09/02 20:04:52","新北市八里區中華路二段310號","121.403911666667","25.1484083333333","6502300","八里區"
"249004","303-UY","2017/09/02 20:05:01","新北市八里區中山路一段189巷3號","121.411866666667","25.158205","6502300","八里區"
"249002","305-UY","2017/09/02 20:05:04","新北市八里區龍米路一段53-1號","121.456201666667","25.119595","6502300","八里區"
"249003","593-UM","2017/09/02 20:05:08","新北市八里區訊塘路35號","121.39767","25.145795","6502300","八里區"
"248016","026-BX","2017/09/02 20:04:55","新北市五股區成泰路三段577巷80弄54號","121.449811666667","25.1050866666667","6501500","五股區"
"248008","095-VK","2017/09/02 20:05:06","新北市三重區中正北路598巷5號","121.469681666667","25.0715233333333","6501500","五股區"
"248012","247-BX","2017/09/02 20:05:09","新北市五股區民義路一段109-1號","121.43394","25.0865733333333","6501500","五股區"
"248014","261-SL","2017/09/02 20:05:04","新北市五股區五福路6巷23號","121.435496666667","25.0884866666667","6501500","五股區"
"248005","653-BX","2017/09/02 10:24:19","新北市五股區中興路二段83巷26-6號","121.459853333333","25.0752066666667","6501500","五股區"
"248004","677-BX","2017/09/02 20:04:52","新北市五股區成泰路一段32巷62號","121.435091666667","25.0670583333333","6501500","五股區"
"248002","678-BX","2017/09/02 20:04:48","新北市五股區成泰路三段318-1號","121.449563333333","25.0969","6501500","五股區"
"248010","682-TV","2017/09/02 20:05:01","新北市五股區成泰路一段13號","121.433653333333","25.066665","6501500","五股區"
"234023","9380-KE","2017/09/02 20:04:51","新北市永和區中正路666巷26號","121.517668333333","25.0090583333333","6500400","永和區"
"234077","969-R7","2017/09/02 20:05:00","新北市永和區智光街115號","121.515576666667","24.99613","6500400","永和區"
"234074","AAC-211","2017/09/02 20:04:53","新北市永和區豫溪街134號","121.521058333333","25.0103233333333","6500400","永和區"
"234067","AAC-212","2017/09/02 20:05:04","新北市永和區中山路一段283號","121.507068333333","25.0068666666667","6500400","永和區"
"234003","AAC-295","2017/09/02 20:04:59","新北市永和區中正路617號","121.51607","25.0098066666667","6500400","永和區"
"244011","701-TV","2017/09/02 20:04:50","新北市林口區粉寮路二段160巷28號","121.405193333333","25.0907516666667","6501700","林口區"
"243013","AAD-798","2017/09/02 20:04:51","新北市泰山區應化街13號","121.423475","25.04331","6501600","泰山區"
"243009","297-R6","2017/09/02 20:04:58","新北市泰山區泰林路二段164巷13號","121.434578333333","25.0607783333333","6501600","泰山區"
"243015","380-SR","2017/09/02 20:04:54","新北市泰山區明志路二段194號","121.427388333333","25.0496216666667","6501600","泰山區"
"243014","421-VK","2017/09/02 20:05:03","新北市泰山區明志路一段134號","121.433371666667","25.0632983333333","6501600","泰山區"
"243010","548-UM","2017/09/02 20:05:00","新北市泰山區中華街35號","121.427201666667","25.0514583333333","6501600","泰山區"
"243011","549-UM","2017/09/02 20:04:53","新北市泰山區明志路三段182巷22號","121.423518333333","25.039285","6501600","泰山區"
"243012","646-TV","2017/09/02 20:04:57","新北市泰山區楓江路5號","121.43348","25.0626433333333","6501600","泰山區"
"243016","680-BX","2017/09/02 20:04:49","新北市泰山區明志路三段317號","121.422468333333","25.0358716666667","6501600","泰山區"
"222003","436-BY","2017/09/02 20:04:59","新北市深坑區埔新街34號","121.620875","25.00288","6501800","深坑區"
"222002","659-BX","2017/09/02 20:04:54","新北市深坑區北深路二段118號","121.61664","25.00315","6501800","深坑區"
"222001","696-SL","2017/09/02 20:04:48","新北市深坑區北深路三段159號","121.601878333333","25.00303","6501800","深坑區"
"231059","001-UM","2017/09/02 20:05:08","新北市新店區安德街78號","121.510146666667","24.96158","6500600","新店區"
"231041","002-UM","2017/09/02 20:05:00","新北市新店區中正路468號","121.534015","24.9794116666667","6500600","新店區"
"231061","047-UY","2017/09/02 20:04:46","新北市新店區安興路33-2號","121.516096666667","24.970725","6500600","新店區"
"231060","106-UY","2017/09/02 20:05:05","新北市新店區安康路三段29號","121.493188333333","24.9531233333333","6500600","新店區"
"231051","107-UY","2017/09/02 20:05:02","新北市新店區中央路226號","121.529476666667","24.97295","6500600","新店區"
"231048","108-UY","2017/09/02 20:04:59","新北市新店區寶橋路103號","121.548135","24.976755","6500600","新店區"
"231065","110-UY","2017/09/02 20:04:54","新北市新店區安祥路106巷46號","121.476873333333","24.9616566666667","6500600","新店區"
"231052","187-VK","2017/09/02 20:04:51","新北市新店區新烏路三段寶島巷2弄3號","121.551998333333","24.89863","6500600","新店區"
"231057","256-BX","2017/09/02 20:05:06","新北市新店區花園一路一段2號","121.553135","24.9325083333333","6500600","新店區"
"231063","268-BY","2017/09/02 20:04:49","新北市新店區黎明路62巷2號","121.5024","24.9466","6500600","新店區"
"231050","AAD-862","2017/09/02 20:05:04","新北市新店區光明街117號","121.539005","24.9615616666667","6500600","新店區"
"231055","3713-VJ","2017/09/02 20:05:06","新北市新店區中華路48巷29號","121.541246666667","24.9695166666667","6500600","新店區"
"231056","4716-K9","2017/09/02 20:04:51","新北市新店區明德路26巷6號","121.542058333333","24.9778083333333","6500600","新店區"
"231067","4772-VM","2017/09/02 20:04:52","新北市新店區秀山路45巷6號","121.531133333333","24.9604766666667","6500600","新店區"
"231054","513-UM","2017/09/02 20:04:54","新北市新店區光明街207號","121.540168333333","24.963655","6500600","新店區"
"231064","515-UM","2017/09/02 20:04:59","新北市新店區安民街1號","121.515146666667","24.9641733333333","6500600","新店區"
"231042","616-UM","2017/09/02 20:05:01","新北市新店區中興路二段27號","121.546078333333","24.9694866666667","6500600","新店區"
"231045","617-UM","2017/09/02 20:05:03","新北市新店區北宜路二段16號","121.547943333333","24.95169","6500600","新店區"
"231040","619-UM","2017/09/02 20:04:57","新北市新店區中正路2號","121.545773333333","24.9693216666667","6500600","新店區"
"231068","718-UY","2017/09/02 20:04:56","新北市新店區安康路一段3-1號","121.534225","24.960625","6500600","新店區"
"231049","719-UM","2017/09/02 20:04:55","新北市新店區明德路22號","121.542166666667","24.9770633333333","6500600","新店區"
"231062","720-UM","2017/09/02 20:05:02","新北市新店區華城路12-1號","121.528863333333","24.95787","6500600","新店區"
"231044","897-TW","2017/09/02 20:05:04","新北市新店區寶慶街58巷10號","121.542145","24.9871733333333","6500600","新店區"
"231043","899-TW","2017/09/02 20:05:01","新北市新店區中正路269號","121.537756666667","24.9741966666667","6500600","新店區"
"231066","AKT-0513","2017/09/02 20:04:55","新北市新店區柴埕路60巷2號","121.50989","24.9640566666667","6500600","新店區"
"241011","013-R5","2017/09/02 20:04:57","新北市三重區仁愛街20號","121.496686666667","25.07133","6500200","三重區"
"241028","022-UY","2017/09/02 20:05:05","新北市三重區中正南路112號","121.494388333333","25.0583383333333","6500200","三重區"
"241008","059-VK","2017/09/02 20:04:56","新北市三重區永福街197巷28號","121.477063333333","25.0743483333333","6500200","三重區"
"241009","060-VK","2017/09/02 20:04:52","新北市三重區三和路四段165-7號","121.483048333333","25.0786483333333","6500200","三重區"
"241031","061-VK","2017/09/02 20:05:07","新北市三重區重新路四段16號","121.488578333333","25.0577983333333","6500200","三重區"
"241015","062-VK","2017/09/02 20:04:54","新北市三重區長元街96-5號","121.502753333333","25.0666633333333","6500200","三重區"
"241017","063-VK","2017/09/02 20:05:01","新北市三重區自強路一段282號","121.491886666667","25.068035","6500200","三重區"
"241024","065-VK","2017/09/02 20:04:52","新北市三重區力行路一段178巷16號","121.481445","25.0713633333333","6500200","三重區"
"241026","066-VK","2017/09/02 20:05:08","新北市三重區環河南路35號","121.502816666667","25.0612633333333","6500200","三重區"
"241002","090-VK","2017/09/02 20:04:47","新北市三重區仁忠街64號","121.493835","25.0808183333333","6500200","三重區"
"241003","091-VK","2017/09/02 20:05:01","新北市三重區仁愛街447號","121.489915","25.0823883333333","6500200","三重區"
"241005","262-UM","2017/09/02 20:04:54","新北市三重區五華街180巷14號","121.488446666667","25.0857883333333","6500200","三重區"
"241007","265-UM","2017/09/02 20:04:59","新北市三重區仁美街45號","121.487675","25.07791","6500200","三重區"
"241016","266-UM","2017/09/02 20:04:54","新北市三重區大同北路79號","121.495051666667","25.0637216666667","6500200","三重區"
"241022","267-UM","2017/09/02 20:04:53","新北市三重區新北大道一段9號","121.489006666667","25.0607266666667","6500200","三重區"
"241018","268-UM","2017/09/02 20:04:51","新北市三重區正義北路256巷72號","121.494351666667","25.0680766666667","6500200","三重區"
"241013","270-UM","2017/09/02 20:04:51","新北市三重區三和路三段125巷42號","121.494018333333","25.0737616666667","6500200","三重區"
"241025","271-UM","2017/09/02 20:04:51","新北市三重區頂崁街210巷55號","121.474565","25.0681866666667","6500200","三重區"
"241020","413-TH","2017/09/02 20:05:00","新北市三重區大智街165巷12號","121.490328333333","25.0726666666667","6500200","三重區"
"241004","475-VK","2017/09/02 20:04:52","新北市三重區仁愛街425巷29號","121.491185","25.0820433333333","6500200","三重區"
"241019","478-VK","2017/09/02 20:05:07","新北市三重區重陽路四段20號","121.49086","25.0693233333333","6500200","三重區"
"241030","480-VK","2017/09/02 20:05:08","新北市三重區重新路四段244巷7弄35號","121.486828333333","25.0527716666667","6500200","三重區"
"241014","543-UM","2017/09/02 20:05:06","新北市三重區長樂街15號","121.499928333333","25.0691066666667","6500200","三重區"
"241023","545-UM","2017/09/02 20:05:03","新北市三重區頂崁街203巷13號","121.477733333333","25.0671666666667","6500200","三重區"
"241001","547-UM","2017/09/02 20:05:02","新北市三重區福隆路2號","121.489493333333","25.077185","6500200","三重區"
"241006","AAD-863","2017/09/02 20:05:00","新北市三重區車路頭街167號","121.483635","25.0774566666667","6500200","三重區"
"241035","743-BX","2017/09/02 20:05:02","新北市三重區大榮街9號","121.498218333333","25.06319","6500200","三重區"
"241012","887-TS","2017/09/02 20:04:56","新北市三重區仁興街54號","121.49892","25.07594","6500200","三重區"
"241029","942-UM","2017/09/02 20:04:51","新北市三重區重安街1號","121.489885","25.0583583333333","6500200","三重區"
"241033","AAC-255","2017/09/02 20:04:56","新北市三重區光復路一段68巷29號","121.470071666667","25.049305","6500200","三重區"
"235066","003-UY","2017/09/02 20:05:01","新北市中和區中山路二段11號","121.50521","25.0056166666667","6500300","中和區"
"235056","096-UM","2017/09/02 20:04:53","新北市中和區中山路三段170巷35號","121.472485","25.0074716666667","6500300","中和區"
"235039","097-UM","2017/09/02 20:05:00","新北市中和區大勇街25巷29弄4號","121.515208333333","24.9938683333333","6500300","中和區"
"235040","150-BY","2017/09/02 20:04:54","新北市中和區宜安路173號","121.508303333333","24.9993983333333","6500300","中和區"
"235022","151-BY","2017/09/02 20:05:04","新北市中和區員山路114號","121.481075","24.9957633333333","6500300","中和區"
"235055","183-VK","2017/09/02 20:04:51","新北市中和區民生街35巷3弄12號","121.4708","25.0048133333333","6500300","中和區"
"235038","185-VK","2017/09/02 20:04:51","新北市中和區自立路5號","121.522491666667","24.9966","6500300","中和區"
"235044","293-VK","2017/09/02 20:05:04","新北市中和區板南路190-1號","121.50009","24.99302","6500300","中和區"
"235072","301-VK","2017/09/02 20:05:01","新北市五股區凌雲路三段24巷21-26號","121.43297","25.107815","6500300","中和區"
"235043","352-BY","2017/09/02 20:04:37","新北市中和區興南路二段159巷25號","121.505371666667","24.9829116666667","6500300","中和區"
"235051","376-QA","2017/09/02 20:04:59","新北市中和區中興街233巷8弄8號","121.501163333333","24.98937","6500300","中和區"
"235068","377-QA","2017/09/02 20:04:48","新北市中和區莊敬路10號","121.499656666667","25.0042516666667","6500300","中和區"
"235050","4979-A6","2017/09/02 20:04:54","新北市中和區景平路157號","121.513166666667","24.9923066666667","6500300","中和區"
"235069","4980-A6","2017/09/02 20:04:49","新北市中和區景新街64巷11弄9號","121.504566666667","24.9982616666667","6500300","中和區"
"235042","551-UM","2017/09/02 20:05:05","新北市中和區大仁街20巷28號","121.518978333333","24.99317","6500300","中和區"
"235070","558-UM","2017/09/02 20:04:47","新北市中和區圓通路72號","121.500193333333","24.997205","6500300","中和區"
"235054","640-BX","2017/09/02 20:04:56","新北市中和區莒光路145號","121.472571666667","25.0012916666667","6500300","中和區"
"235060","647-TV","2017/09/02 20:05:05","新北市中和區民樂路65號","121.483656666667","25.001305","6500300","中和區"
"235047","732-UM","2017/09/02 20:04:51","新北市中和區和平街33號","121.506985","24.9913466666667","6500300","中和區"
"235046","733-UM","2017/09/02 20:04:59","新北市中和區興南路一段105巷20弄6號","121.51034","24.9855183333333","6500300","中和區"
"235041","802-TS","2017/09/02 20:05:02","新北市中和區永貞路239巷4號","121.512968333333","25.00367","6500300","中和區"
"235052","805-TS","2017/09/02 20:04:57","新北市中和區興南路二段117巷29號","121.506036666667","24.9837833333333","6500300","中和區"
"235048","896-TW","2017/09/02 20:04:57","新北市中和區景新街475號","121.513445","24.98769","6500300","中和區"
"235037","AAC-213","2017/09/02 20:04:52","新北市中和區大智街55巷30弄58-1號","121.52229","24.9933266666667","6500300","中和區"
"235059","AAC-215","2017/09/02 20:05:04","新北市中和區圓通路353號","121.491453333333","24.990205","6500300","中和區"
"220068","013-TV","2017/09/02 20:04:54","新北市板橋區光復街119號","121.484738333333","25.0195166666667","6500100","板橋區"
"220065","072-UY","2017/09/02 20:05:04","新北市板橋區區運路30號","121.465616666667","25.0096466666667","6500100","板橋區"
"220106","075-UY","2017/09/02 20:05:03","新北市板橋區民治街96巷27號","121.478365","25.0323533333333","6500100","板橋區"
"220069","AAD-861","2017/09/02 20:05:04","新北市板橋區大明街18-8號","121.458871666667","25.0026","6500100","板橋區"
"220102","120-SR","2017/09/02 20:04:54","新北市板橋區懷德街76巷6號","121.477661666667","25.0317783333333","6500100","板橋區"
"247020","893-R6","2017/09/02 20:05:01","新北市蘆洲區民義街68巷42號","121.473931666667","25.0896016666667","6501400","蘆洲區"
"247010","546-UM","2017/09/02 20:04:59","新北市蘆洲區集賢路342號","121.481083333333","25.084235","6501400","蘆洲區"
"247018","500-BY","2017/09/02 20:05:00","新北市蘆洲區民族路296號","121.477778333333","25.0899","6501400","蘆洲區"
"247008","339-TH","2017/09/02 20:05:03","新北市蘆洲區中山一路19號","121.479521666667","25.0807183333333","6501400","蘆洲區"
"247024","337-TH","2017/09/02 20:04:55","新北市蘆洲區光復路77巷23號","121.463731666667","25.0862533333333","6501400","蘆洲區"
"247002","336-TH","2017/09/02 20:04:57","新北市蘆洲區長安街246巷35號","121.458531666667","25.086445","6501400","蘆洲區"
"247014","057-VK","2017/09/02 20:05:02","新北市蘆洲區中山一路270號","121.471711666667","25.0793983333333","6501400","蘆洲區"
"247004","056-VK","2017/09/02 20:05:00","新北市蘆洲區永安南路二段328巷2號","121.45717","25.0831433333333","6501400","蘆洲區"
"247006","053-VK","2017/09/02 20:04:58","新北市蘆洲區中山二路268號","121.468531666667","25.0786016666667","6501400","蘆洲區"
"247012","007-UY","2017/09/02 20:04:52","新北市蘆洲區復興路290巷6弄13號","121.480263333333","25.0891183333333","6501400","蘆洲區"
"247022","002-UY","2017/09/02 20:04:52","新北市蘆洲區中正路174巷36號","121.469073333333","25.0881066666667","6501400","蘆洲區"
"247016","001-UY","2017/09/02 20:04:46","新北市蘆洲區光華路54巷1號","121.468425","25.082975","6501400","蘆洲區"
"224010","AGQ-8101","2017/09/02 20:04:59","新北市瑞芳區輕便路256號","121.844825","25.1088016666667","6501200","瑞芳區"
"227010","642-TC","2017/09/02 20:04:58","新北市雙溪區新基里新基西街17號","121.865445","25.03737","6502500","雙溪區"
"227002","400-TW","2017/09/02 20:04:54","新北市雙溪區魚行里新店58號","121.870388333333","25.0321","6502500","雙溪區"
"208002","742-BX","2017/09/02 20:04:54","新北市金山區中山路16號","121.64177","25.2173083333333","6502700","金山區"
"251009","008-UM","2017/09/02 20:04:59","新北市淡水區英專路2巷5-2號","121.445911666667","25.16884","6501000","淡水區"
"251004","009-UM","2017/09/02 20:05:03","新北市淡水區民族路29巷36號","121.46158","25.137015","6501000","淡水區"
"251005","010-UM","2017/09/02 20:05:02","新北市淡水區學府路136巷49號","121.452228333333","25.1726766666667","6501000","淡水區"
"251001","011-UM","2017/09/02 20:05:06","新北市淡水區淡金路二段600號","121.446775","25.1921533333333","6501000","淡水區"
"251014","180-VK","2017/09/02 20:04:49","新北市淡水區石頭厝1號","121.458763333333","25.2355383333333","6501000","淡水區"
"251008","181-VK","2017/09/02 20:04:55","新北市淡水區淡海路72巷37號","121.425005","25.1828466666667","6501000","淡水區"
"251010","413-VK","2017/09/02 20:05:05","新北市淡水區新市五路二段83號","121.431991666667","25.1997816666667","6501000","淡水區"
"251016","442-VK","2017/09/02 20:04:53","新北市淡水區番子田16-13號","121.453781666667","25.2316283333333","6501000","淡水區"
"251011","650-BX","2017/09/02 20:04:52","新北市淡水區崁頂70-2號","121.437665","25.202805","6501000","淡水區"
"251002","672-BX","2017/09/02 20:04:53","新北市淡水區中正路二段16號","121.42029","25.1807783333333","6501000","淡水區"
"207003","550-UM","2017/09/02 20:04:52","新北市萬里區磺潭里公館崙5號","121.641901666667","25.2142366666667","6502800","萬里區"
"207004","225-TW","2017/09/02 20:04:54","新北市萬里區萬里里瑪鋉路17-1號","121.684795","25.1773866666667","6502800","萬里區"
"252002","178-VK","2017/09/02 20:04:53","新北市三芝區三民街39巷36號","121.5054","25.2575666666667","6502100","三芝區"
"252001","292-VK","2017/09/02 20:05:05","新北市三芝區長安街89號","121.49967","25.2575333333333","6502100","三芝區"
"237007","153-BY","2017/09/02 20:04:55","新北市三峽區二鬮路136巷41號","121.358251666667","24.908775","6500900","三峽區"
"237009","210-TH","2017/09/02 20:04:45","新北市三峽區民族街28巷9弄2號","121.368823333333","24.93066","6500900","三峽區"
"237012","275-BY","2017/09/02 20:04:46","新北市三峽區中華路74號","121.371548333333","24.9295033333333","6500900","三峽區"
"237008","302-VK","2017/09/02 20:05:04","新北市三峽區安溪路344號","121.37002","24.92645","6500900","三峽區"
"237014","433-BY","2017/09/02 20:04:54","新北市三峽區添福15-33號","121.372595","24.9046583333333","6500900","三峽區"
"237006","5529-G3","2017/09/02 20:04:51","新北市三峽區中正路二段176巷79號","121.364415","24.912735","6500900","三峽區"
"237011","572-TV","2017/09/02 20:05:05","新北市三峽區隆恩街245號","121.3577","24.9409983333333","6500900","三峽區"
"237005","AKY-6261","2017/09/02 20:04:57","新北市三峽區三樹路98巷121號","121.382805","24.9386833333333","6500900","三峽區"
"236073","105-UM","2017/09/02 20:05:03","新北市土城區中央路三段147巷2弄2-1號","121.432311666667","24.9649966666667","6501300","土城區"
"236043","107-UM","2017/09/02 20:05:08","新北市土城區學府路一段98巷17號","121.45557","24.98862","6501300","土城區"
"236079","166-UM","2017/09/02 20:05:04","新北市土城區福安街55巷1號","121.418618333333","24.9642533333333","6501300","土城區"
"236031","253-BX","2017/09/02 20:04:57","新北市土城區中央路一段269號","121.444961666667","24.9853083333333","6501300","土城區"
"236027","269-VK","2017/09/02 20:04:50","新北市土城區明德路二段102巷10號","121.44555","24.984465","6501300","土城區"
"236015","270-VK","2017/09/02 20:05:06","新北市土城區廣明街19號","121.455643333333","24.9923883333333","6501300","土城區"
"236038","271-VK","2017/09/02 20:04:53","新北市土城區明德路一段143號","121.465123333333","24.9801066666667","6501300","土城區"
"236023","401-BY","2017/09/02 20:04:48","新北市土城區延吉街62號","121.471423333333","24.9867716666667","6501300","土城區"
"236055","752-BX","2017/09/02 20:04:58","新北市土城區學府路一段64號","121.457098333333","24.9883183333333","6501300","土城區"
"236059","912-UM","2017/09/02 20:05:06","新北市土城區中央路一段239號","121.445438333333","24.9861266666667","6501300","土城區"
"236049","913-UM","2017/09/02 20:05:05","新北市土城區金城路三段203號","121.470486666667","24.9889683333333","6501300","土城區"
"236063","915-UM","2017/09/02 20:04:47","新北市土城區金城路三段73巷9弄23號","121.465866666667","24.98756","6501300","土城區"
"242021","AAC-296","2017/09/02 20:05:02","新北市新莊區建中街28號","121.448991666667","25.0375966666667","6500500","新莊區"
"242029","986-R7","2017/09/02 20:04:52","新北市新莊區中平路348號","121.445205","25.052965","6500500","新莊區"
"242048","751-BX","2017/09/02 20:05:04","新北市新莊區四維路10號","121.423788333333","25.025225","6500500","新莊區"
"242025","615-BX","2017/09/02 20:04:46","新北市新莊區五工二路81號","121.459881666667","25.06608","6500500","新莊區"
"242023","613-BX","2017/09/02 20:04:55","新北市新莊區化成路500號","121.46616","25.0521566666667","6500500","新莊區"
"242027","612-BX","2017/09/02 20:04:51","新北市新莊區幸福路882號","121.444146666667","25.049405","6500500","新莊區"
"242036","566-BX","2017/09/02 20:04:57","新北市新莊區建安街27號","121.429083333333","25.02599","6500500","新莊區"
"242042","497-BY","2017/09/02 20:05:05","新北市新莊區青山路一段200-4號","121.397761666667","25.0317883333333","6500500","新莊區"
"242051","440-UM","2017/09/02 20:04:46","新北市新莊區民安西路150巷19號","121.425333333333","25.01654","6500500","新莊區"
"242031","415-TV","2017/09/02 20:05:02","新北市新莊區中正路376巷31-1號","121.443093333333","25.0355016666667","6500500","新莊區"
"242002","413-TV","2017/09/02 20:04:52","新北市新莊區中正路143號","121.459718333333","25.038505","6500500","新莊區"
"242039","400-BY","2017/09/02 20:04:53","新北市新莊區民安西路73號","121.427215","25.0196483333333","6500500","新莊區"
"242061","362-BY","2017/09/02 20:04:52","新北市新莊區瓊泰路58號","121.443523333333","25.0286333333333","6500500","新莊區"
"242058","353-BY","2017/09/02 20:04:56","新北市新莊區八德街140號","121.423801666667","25.0203383333333","6500500","新莊區"
"242004","132-UY","2017/09/02 20:04:53","新北市新莊區化成路205-2號","121.465631666667","25.05108","6500500","新莊區"
"242034","133-UY","2017/09/02 20:05:02","新北市新莊區建中街81巷8號","121.447298333333","25.03619","6500500","新莊區"
"242019","135-UY","2017/09/02 20:05:04","新北市新莊區民樂街62號","121.457983333333","25.0419433333333","6500500","新莊區"
"242044","172-VK","2017/09/02 20:04:46","新北市新莊區萬壽路一段21巷17弄1號","121.410901666667","25.02048","6500500","新莊區"
"242007","173-VK","2017/09/02 20:05:00","新北市新莊區福壽街202巷23號","121.459191666667","25.0537366666667","6500500","新莊區"
"242013","175-VK","2017/09/02 20:05:05","新北市新莊區幸福路670巷2弄1號","121.450986666667","25.04961","6500500","新莊區"
"242056","176-VK","2017/09/02 20:04:51","新北市新莊區新豐街68巷1號","121.4464","25.033795","6500500","新莊區"
"242011","346-TH","2017/09/02 20:05:00","新北市新莊區中港路531巷140號","121.449403333333","25.0514583333333","6500500","新莊區"
"242017","348-TH","2017/09/02 20:05:01","新北市新莊區中安街5巷1號","121.452633333333","25.0454683333333","6500500","新莊區"
"242053","349-TH","2017/09/02 20:04:51","新北市新莊區西盛街395巷37弄1號","121.429105","25.0119516666667","6500500","新莊區"
"242015","350-TH","2017/09/02 20:04:46","新北市新莊區中平路6巷17號","121.445421666667","25.0426766666667","6500500","新莊區"
"242009","351-TH","2017/09/02 20:04:53","新北市新莊區昌隆街21號","121.4544","25.050975","6500500","新莊區"
"238015","755-BX","2017/09/02 20:04:41","新北市樹林區中山路三段214號","121.380061666667","24.9678916666667","6500700","樹林區"
"238023","601-UM","2017/09/02 20:04:52","新北市樹林區大安路273號","121.418836666667","24.9936516666667","6500700","樹林區"
"238018","571-TV","2017/09/02 20:04:48","新北市樹林區中山路三段204號","121.387078333333","24.9682466666667","6500700","樹林區"
"238024","5061-A6","2017/09/02 20:04:51","新北市樹林區育德街40號","121.390136666667","24.96899","6500700","樹林區"
"238021","311-TH","2017/09/02 20:05:00","新北市樹林區佳園路三段181巷83號","121.390793333333","24.9485","6500700","樹林區"
"238025","303-VK","2017/09/02 20:04:48","新北市樹林區中山路三段204號","121.38728","24.9683066666667","6500700","樹林區"
"239007","AAC-297","2017/09/02 19:58:19","新北市鶯歌區二甲路12-2號","121.345636666667","24.9351416666667","6500800","鶯歌區"
"221036","130-UY","2017/09/02 20:05:00","新北市汐止區忠孝東路244號","121.662873333333","25.067165","6501100","汐止區"
"221015","131-UY","2017/09/02 20:05:05","新北市汐止區建成路23巷1號","121.66427","25.0723466666667","6501100","汐止區"
"221010","269-BY","2017/09/02 20:05:07","新北市汐止區連峰街225巷13號","121.644403333333","25.0809166666667","6501100","汐止區"
"221012","276-VK","2017/09/02 13:21:42","新北市汐止區汐萬路一段256巷3號","121.65349","25.0746483333333","6501100","汐止區"
"221031","277-VK","2017/09/02 20:04:51","新北市汐止區中興路132-1號","121.633203333333","25.06435","6501100","汐止區"
"221012","278-VK","2017/09/02 20:04:47","新北市汐止區汐平路一段134號","121.686075","25.068545","6501100","汐止區"
"221023","279-VK","2017/09/02 20:04:51","新北市汐止區明峰街302巷2號","121.625066666667","25.0680966666667","6501100","汐止區"
"221032","280-BY","2017/09/02 20:04:56","新北市汐止區弘道街9巷4弄1號","121.616958333333","25.04927","6501100","汐止區"
"221027","281-BY","2017/09/02 20:05:01","新北市汐止區和平街99號","121.660976666667","25.0701433333333","6501100","汐止區"
"221038","297-VK","2017/09/02 20:04:55","新北市汐止區忠孝東路512號","121.666838333333","25.075465","6501100","汐止區"
"221029","298-VK","2017/09/02 20:05:01","新北市汐止區樟樹一路135巷17號","121.64147","25.0655083333333","6501100","汐止區"
"221021","299-VK","2017/09/02 20:04:56","新北市汐止區水源路一段158號","121.655531666667","25.0622266666667","6501100","汐止區"
"221008","358-BY","2017/09/02 20:04:56","新北市汐止區忠三街9巷16-2號","121.624946666667","25.079895","6501100","汐止區"
"221035","622-UM","2017/09/02 20:05:00","新北市汐止區長江街57巷5號","121.656126666667","25.0718133333333","6501100","汐止區"
"221025","623-UM","2017/09/02 20:04:54","新北市汐止區秀峰路60號","121.659518333333","25.0649233333333","6501100","汐止區"
"221033","647-BX","2017/09/02 20:04:54","新北市汐止區東勢街201巷104號","121.633543333333","25.0428916666667","6501100","汐止區"
"221018","753-BX","2017/09/02 20:04:10","新北市汐止區新台五路二段242號","121.672208333333","25.0655033333333","6501100","汐止區"
"220079","145-BY","2017/09/02 20:04:52","新北市板橋區僑中一街124巷70-5號","121.449975","25.0164583333333","6500100","板橋區"
"220080","200-UY","2017/09/02 20:04:57","新北市板橋區大觀路二段37巷58號","121.449325","25.0024816666667","6500100","板橋區"
"220082","610-BX","2017/09/02 20:05:05","新北市板橋區篤行路二段129號","121.431215","24.99047","6500100","板橋區"
"220101","245-BX","2017/09/02 20:05:01","新北市板橋區雙十路一段44巷36號","121.477223333333","25.0247483333333","6500100","板橋區"
"220072","277-BY","2017/09/02 20:04:56","新北市板橋區篤行路二段3-3號","121.431975","24.9934533333333","6500100","板橋區"
"220094","283-UM","2017/09/02 20:04:52","新北市板橋區陽明街17號","121.46642","25.0215433333333","6500100","板橋區"
"220053","285-VK","2017/09/02 20:05:02","新北市板橋區永豐街169號","121.475766666667","25.0204766666667","6500100","板橋區"
"220081","287-VK","2017/09/02 20:04:57","新北市板橋區僑中一街80巷6弄1號","121.447686666667","25.0121383333333","6500100","板橋區"
"220090","288-VK","2017/09/02 20:04:57","新北市板橋區幸福路32巷46號","121.460531666667","25.0219033333333","6500100","板橋區"
"220061","295-UM","2017/09/02 20:05:06","新北市板橋區觀光街79巷2號","121.4693","25.0169283333333","6500100","板橋區"
"220084","296-UM","2017/09/02 20:05:07","新北市板橋區溪崑二街92號","121.426726666667","24.9892983333333","6500100","板橋區"
"220075","297-UM","2017/09/02 20:04:58","新北市板橋區幸福路70巷15號","121.460213333333","25.0204483333333","6500100","板橋區"
"220062","305-R5","2017/09/02 20:05:04","新北市板橋區光復街33巷14號","121.482058333333","25.0189266666667","6500100","板橋區"
"220092","307-R5","2017/09/02 20:05:02","新北市板橋區文化路一段141號","121.461976666667","25.0158316666667","6500100","板橋區"
"220098","317-R6","2017/09/02 20:05:03","新北市板橋區新海路72巷5弄3號","121.462046666667","25.0222366666667","6500100","板橋區"
"220064","486-VK","2017/09/02 20:05:08","新北市板橋區長安街331巷1號","121.474321666667","25.01212","6500100","板橋區"
"220089","487-VK","2017/09/02 20:05:01","新北市板橋區新海路385巷22弄12號","121.457703333333","25.0263283333333","6500100","板橋區"
"220088","491-VK","2017/09/02 20:05:05","新北市板橋區懷德街78巷1號","121.478286666667","25.0315233333333","6500100","板橋區"
"220035","560-BX","2017/09/02 20:05:05","新北市板橋區新生街53巷3弄12號","121.457048333333","25.02183","6500100","板橋區"
"220103","561-BX","2017/09/02 20:05:06","新北市板橋區自由路26巷13號","121.466168333333","25.0225883333333","6500100","板橋區"
"220071","568-UM","2017/09/02 20:05:00","新北市板橋區廣權路75號","121.463875","24.992225","6500100","板橋區"
"220083","630-UY","2017/09/02 20:04:51","新北市板橋區僑中二街10巷7-4號","121.446598333333","25.0109766666667","6500100","板橋區"
"220091","637-BX","2017/09/02 20:04:57","新北市板橋區文聖街89巷30號","121.478295","25.0303483333333","6500100","板橋區"
"220093","689-BX","2017/09/02 20:04:42","新北市板橋區長江路二段295號","121.47055","25.0331316666667","6500100","板橋區"
"220054","741-BX","2017/09/02 20:05:02","新北市板橋區忠孝路201巷76號","121.464801666667","25.0044","6500100","板橋區"
"220055","827-TW","2017/09/02 20:05:03","新北市板橋區仁愛路76巷1弄2號","121.460561666667","24.9992966666667","6500100","板橋區"
"220067","829-TW","2017/09/02 20:04:58","新北市板橋區漢生東路181號","121.469738333333","25.011685","6500100","板橋區"
"220096","831-TW","2017/09/02 20:05:04","新北市板橋區莒光路15巷15號","121.470171666667","25.025415","6500100","板橋區"
"220074","895-R6","2017/09/02 20:05:02","新北市板橋區府中路23號","121.459201666667","25.0089983333333","6500100","板橋區"
"220073","985-R7","2017/09/02 20:04:49","新北市板橋區南雅西路二段78-2號","121.452608333333","25.0106466666667","6500100","板橋區"
"220097","AAC-210","2017/09/02 20:04:49","新北市板橋區光正街40號","121.461825","25.017325","6500100","板橋區"
