"lineid","car","time","location","longitude","latitude","cityid","cityname"
"232005","290-BY","2017/07/10 09:30:15","新北市坪林區北宜路八段558號","121.716788333333","24.90866","6502000","坪林區"
"232017","758-BX","2017/07/10 09:30:09","新北市坪林區下坑子口6-15號","121.711565","24.943475","6502000","坪林區"
"244012","069-UM","2017/07/10 09:30:03","新北市林口區麗園路2巷31號","121.375115","25.0708083333333","6501700","林口區"
"244006","080-UY","2017/07/10 09:30:14","新北市林口區後湖2-16號","121.389115","25.096715","6501700","林口區"
"244012","742-UY","2017/07/10 09:30:20","新北市林口區忠孝路586巷6號","121.375133333333","25.0677916666667","6501700","林口區"
"244008","410-SL","2017/07/10 09:30:18","新北市林口區竹林路362巷1號","121.391706666667","25.0846383333333","6501700","林口區"
"244022","483-VK","2017/07/10 09:30:18","新北市林口區文化二路二段111號","121.378473333333","25.0810983333333","6501700","林口區"
"244010","701-TV","2017/07/10 09:30:12","新北市林口區竹林路56號","121.387541666667","25.0780233333333","6501700","林口區"
"244024","837-TS","2017/07/10 09:29:34","新北市林口區粉寮路二段160巷40號","121.405498333333","25.0911066666667","6501700","林口區"
"222005","289-BY","2017/07/10 09:30:22","新北市深坑區北深路一段185號","121.632045","25.01058","6501800","深坑區"
"231008","188-VK","2017/07/10 09:30:14","新北市新店區廣興路60巷1-1號","121.539336666667","24.9141433333333","6500600","新店區"
"231007","189-VK","2017/07/10 09:30:18","新北市新店區新潭路三段215巷25號","121.508155","24.9040033333333","6500600","新店區"
"235010","733-UM","2017/07/10 09:30:19","新北市中和區興南路二段342-10號","121.498701666667","24.9804216666667","6500300","中和區"
"247002","402-BY","2017/07/10 09:30:05","新北市蘆洲區民族路167巷2弄2號","121.478906666667","25.0882716666667","6501400","蘆洲區"
"226001","7418-A5","2017/07/10 09:30:04","新北市平溪區石底里公園街18-3號","121.733535","25.0256116666667","6502400","平溪區"
"223002","198-BX","2017/07/10 09:30:04","新北市石碇區石碇東街147號","121.658946666667","24.98903","6501900","石碇區"
"223003","205-TH","2017/07/10 09:30:14","新北市石碇區北宜路五段66號","121.638295","24.9537133333333","6501900","石碇區"
"223008","406-TH","2017/07/10 09:30:12","新北市石碇區光明路13號","121.680041666667","25.0336283333333","6501900","石碇區"
"223001","592-UM","2017/07/10 09:30:14","新北市石碇區北宜路五段坑內巷7號","121.635943333333","24.95369","6501900","石碇區"
"223004","660-BX","2017/07/10 09:30:21","新北市石碇區碇坪路二段22號","121.68703","24.97409","6501900","石碇區"
"223007","661-BX","2017/07/10 09:30:20","新北市石碇區碇南路二段鹿窟巷2號","121.67347","25.0299333333333","6501900","石碇區"
"223005","677-TV","2017/07/10 09:30:13","新北市石碇區碇坪路二段43號","121.686635","24.9751266666667","6501900","石碇區"
"227005","282-VK","2017/07/10 09:29:16","新北市雙溪區泰平里溪尾寮2-2號","121.819463333333","24.9636466666667","6502500","雙溪區"
"253003","6232-TK","2017/07/10 09:30:15","新北市石門區尖子鹿32號","121.582758333333","25.2641783333333","6502200","石門區"
"253001","6251-TK","2017/07/10 09:30:12","新北市石門區八甲70-3號","121.53121","25.269775","6502200","石門區"
"253002","637-UY","2017/07/10 09:30:05","新北市石門區七股28-1號","121.551831666667","25.2660433333333","6502200","石門區"
"253004","8270-PC","2017/07/10 09:23:05","新北市石門區內阿里磅2-1號","121.589796666667","25.2560666666667","6502200","石門區"
"252004","249-BX","2017/07/10 09:30:22","新北市三芝區興華里田心子8-21號","121.497223333333","25.203795","6502100","三芝區"
"252006","AAC-283","2017/07/10 00:08:17","新北市三芝區埔坪里埔頭坑41號","121.504475","25.26437","6502100","三芝區"
"236007","165-UM","2017/07/10 09:30:03","新北市土城區中央路四段293巷21號","121.411628333333","24.95148","6501300","土城區"
"236005","498-BY","2017/07/10 09:30:23","新北市土城區承天路71巷6號","121.4408","24.9639316666667","6501300","土城區"
"242020","AAC-296","2017/07/10 09:30:09","新北市新莊區中華路一段90號","121.452346666667","25.03949","6500500","新莊區"
"242047","751-BX","2017/07/10 09:30:11","新北市新莊區裕民街19巷8號","121.41985","25.0248633333333","6500500","新莊區"
"242022","613-BX","2017/07/10 09:30:05","新北市新莊區中正路145號","121.459336666667","25.038295","6500500","新莊區"
"242035","566-BX","2017/07/10 09:30:10","新北市新莊區後港一路56巷12號","121.426553333333","25.0257516666667","6500500","新莊區"
"242040","497-BY","2017/07/10 09:30:18","新北市新莊區雙鳳路11號","121.417096666667","25.02684","6500500","新莊區"
"242003","442-UM","2017/07/10 09:30:17","新北市新莊區頭前路15巷9號","121.467903333333","25.0516133333333","6500500","新莊區"
"242045","441-UM","2017/07/10 09:30:13","新北市新莊區富國路22巷8號","121.41829","25.02589","6500500","新莊區"
"242030","415-TV","2017/07/10 09:30:02","新北市新莊區中正路449號","121.443135","25.0341283333333","6500500","新莊區"
"242001","413-TV","2017/07/10 09:30:18","新北市新莊區中港路46號","121.455221666667","25.0376783333333","6500500","新莊區"
"242038","400-BY","2017/07/10 09:30:05","新北市新莊區民安路455號","121.434536666667","25.0225116666667","6500500","新莊區"
"242059","362-BY","2017/07/10 09:30:06","新北市新莊區民安東路139巷20號","121.431131666667","25.0217466666667","6500500","新莊區"
"242057","353-BY","2017/07/10 09:30:11","新北市新莊區四維路163號","121.422525","25.02177","6500500","新莊區"
"242010","132-UY","2017/07/10 09:30:12","新北市新莊區中和街195號","121.448255","25.05171","6500500","新莊區"
"242033","133-UY","2017/07/10 09:30:06","新北市新莊區中正路318巷16號","121.44648","25.0359833333333","6500500","新莊區"
"242043","172-VK","2017/07/10 09:30:02","新北市新莊區中正路新建巷30號","121.414298333333","25.0216966666667","6500500","新莊區"
"242055","176-VK","2017/07/10 09:30:12","新北市新莊區新莊路751巷83號","121.44277","25.0308133333333","6500500","新莊區"
"242052","349-TH","2017/07/10 09:30:14","新北市新莊區西盛街324巷41號","121.426548333333","25.0147433333333","6500500","新莊區"
"239001","661-UM","2017/07/10 09:30:05","新北市鶯歌區中山路300號","121.342663333333","24.9569466666667","6500800","鶯歌區"
"220001","295-UM","2017/07/10 09:28:15","新北市鶯歌區鶯桃路38號","121.341995","24.9528416666667","6500100","板橋區"
