"lineid","car","time","location","longitude","latitude","cityid","cityname"
"244012","742-UY","2017/07/10 11:00:21","新北市林口區粉寮路二段160巷31號","121.405725","25.091045","6501700","林口區"
"244024","837-TS","2017/07/10 09:29:34","新北市林口區粉寮路二段160巷40號","121.405498333333","25.0911066666667","6501700","林口區"
"231008","188-VK","2017/07/10 11:17:54","新北市新店區松林路16巷41號","121.547075","24.9077933333333","6500600","新店區"
"231007","189-VK","2017/07/10 11:17:58","新北市新店區新潭路一段140巷6號","121.528555","24.934845","6500600","新店區"
"247002","402-BY","2017/07/10 10:37:37","新北市五股區中興路三段5號","121.449506666667","25.078925","6501400","蘆洲區"
"227005","282-VK","2017/07/10 11:15:56","新北市雙溪區泰平里泰平43號","121.832583333333","24.9792533333333","6502500","雙溪區"
"252006","AAC-283","2017/07/10 00:08:17","新北市三芝區埔坪里埔頭坑41號","121.504475","25.26437","6502100","三芝區"
