"lineid","car","time","location","longitude","latitude","cityid","cityname"
"234044","148-BY","2017/07/10 14:07:52","新北市永和區成功路二段93號","121.526718333333","24.9992066666667","6500400","永和區"
"234012","149-BY","2017/07/10 14:08:01","新北市永和區永貞路387號","121.508066666667","25.0086283333333","6500400","永和區"
"234005","207-UY","2017/07/10 14:08:08","新北市中和區中和路262號","121.50857","24.9995","6500400","永和區"
"234078","298-R6","2017/07/10 14:07:55","新北市永和區國中路86巷1號","121.52455","25.006155","6500400","永和區"
"234036","336-UY","2017/07/10 14:07:59","新北市永和區成功路一段93巷23弄13號","121.528473333333","25.0033566666667","6500400","永和區"
"234062","337-UY","2017/07/10 14:07:49","新北市永和區秀朗路一段218-2號","121.520065","25.0029233333333","6500400","永和區"
"234084","338-UY","2017/07/10 14:08:01","新北市永和區福和路81號","121.522438333333","25.0078616666667","6500400","永和區"
"234068","552-UM","2017/07/10 14:08:03","新北市永和區福和路263巷20號","121.517975","25.0065216666667","6500400","永和區"
"234052","553-UM","2017/07/10 14:08:10","新北市永和區博愛街57巷1號","121.519903333333","25.0160266666667","6500400","永和區"
"234015","745-BX","2017/07/10 14:08:03","新北市永和區仁愛路15號","121.514678333333","25.01338","6500400","永和區"
"234028","746-BX","2017/07/10 14:08:07","新北市永和區民權路49巷5弄30號","121.521975","24.9978716666667","6500400","永和區"
"234060","AAD-866","2017/07/10 14:07:59","新北市永和區安樂路100巷28號","121.51552","24.9986516666667","6500400","永和區"
"234040","862-TW","2017/07/10 14:08:01","新北市永和區雙和街16巷10號","121.509936666667","25.0023833333333","6500400","永和區"
"234048","863-TW","2017/07/10 14:08:06","新北市永和區環河西路二段63號","121.507083333333","25.0152266666667","6500400","永和區"
"234025","9371-KE","2017/07/10 14:07:57","新北市永和區安樂路272巷11號","121.51494","25.0044166666667","6500400","永和區"
"234010","9373-KE","2017/07/10 14:07:52","新北市永和區仁愛路352巷92弄18號","121.501406666667","25.00823","6500400","永和區"
"248015","026-BX","2017/07/10 14:08:06","新北市五股區成泰路三段577巷45號","121.450848333333","25.1031683333333","6501500","五股區"
"248019","225-UY","2017/07/10 14:07:55","新北市五股區凌雲路三段59-2號","121.425181666667","25.12505","6501500","五股區"
"248011","247-BX","2017/07/10 14:07:52","新北市五股區工商路18巷5號","121.439908333333","25.0836333333333","6501500","五股區"
"248009","272-BY","2017/07/10 14:08:02","新北市五股區自強路90巷72號","121.430748333333","25.0713283333333","6501500","五股區"
"248003","677-BX","2017/07/10 14:07:54","新北市五股區六合街3號","121.431901666667","25.0885916666667","6501500","五股區"
"248001","678-BX","2017/07/10 14:07:54","新北市五股區成泰路三段577巷73號","121.449948333333","25.10359","6501500","五股區"
"234022","9380-KE","2017/07/10 14:08:06","新北市永和區竹林路30號","121.517126666667","25.0147166666667","6500400","永和區"
"234076","969-R7","2017/07/10 14:08:07","新北市永和區民治街59巷11號","121.518608333333","24.9972783333333","6500400","永和區"
"234072","AAC-211","2017/07/10 14:08:00","新北市永和區豫溪街156-1號","121.522875","25.0097366666667","6500400","永和區"
"234066","AAC-212","2017/07/10 14:07:51","新北市永和區永貞路364-1號","121.510108333333","25.0067083333333","6500400","永和區"
"234001","AAC-295","2017/07/10 14:05:35","新北市永和區永和路一段208號","121.514321666667","25.0094333333333","6500400","永和區"
"244001","248-BX","2017/07/10 14:08:04","新北市林口區太平里180號","121.366546666667","25.1346233333333","6501700","林口區"
"244012","742-UY","2017/07/10 11:00:21","新北市林口區粉寮路二段160巷31號","121.405725","25.091045","6501700","林口區"
"244024","837-TS","2017/07/10 09:29:34","新北市林口區粉寮路二段160巷40號","121.405498333333","25.0911066666667","6501700","林口區"
"243013","AAD-798","2017/07/10 13:21:44","新北市泰山區南林路109號","121.415721666667","25.0471083333333","6501600","泰山區"
"243001","297-R6","2017/07/10 14:08:03","新北市泰山區楓樹街15巷12號","121.434985","25.063095","6501600","泰山區"
"243007","380-SR","2017/07/10 14:07:54","新北市泰山區明志路一段431號","121.43078","25.0566566666667","6501600","泰山區"
"243006","421-VK","2017/07/10 14:08:08","新北市泰山區泰林路二段478-1號","121.42515","25.0641183333333","6501600","泰山區"
"243002","548-UM","2017/07/10 14:07:50","新北市泰山區仁愛路39巷23號","121.431096666667","25.05531","6501600","泰山區"
"243003","549-UM","2017/07/10 14:08:05","新北市泰山區明志路二段358號","121.425483333333","25.0451916666667","6501600","泰山區"
"243004","646-TV","2017/07/10 14:07:59","新北市泰山區辭修路36巷8弄5號","121.427911666667","25.05857","6501600","泰山區"
"243008","680-BX","2017/07/10 14:08:08","新北市泰山區明志路三段8號","121.424708333333","25.0434183333333","6501600","泰山區"
"231030","001-UM","2017/07/10 14:07:54","新北市新店區安德街60巷5號","121.509761666667","24.96269","6500600","新店區"
"231002","002-UM","2017/07/10 14:08:09","新北市新店區中正路542-6號","121.533705","24.9860066666667","6500600","新店區"
"231025","0291-UT","2017/07/10 14:08:09","新北市新店區中正路328巷6號","121.537201666667","24.9752716666667","6500600","新店區"
"231028","046-UY","2017/07/10 14:07:55","新北市新店區安業街1號","121.515825","24.9788283333333","6500600","新店區"
"231029","106-UY","2017/07/10 14:08:00","新北市新店區安康路二段66號","121.514798333333","24.9636133333333","6500600","新店區"
"231018","107-UY","2017/07/10 14:07:56","新北市新店區中央五街22號","121.529286666667","24.9745516666667","6500600","新店區"
"231011","108-UY","2017/07/10 14:07:54","新北市新店區五峰路149號","121.544978333333","24.965705","6500600","新店區"
"231019","110-UY","2017/07/10 14:08:02","新北市新店區屈尺路58號","121.547363333333","24.9226816666667","6500600","新店區"
"231014","AAD-862","2017/07/10 14:08:06","新北市新店區郵政路4巷23號","121.556478333333","24.9516866666667","6500600","新店區"
"231027","3712-VJ","2017/07/10 14:08:04","新北市新店區北宜路一段39巷20號","121.538798333333","24.9584183333333","6500600","新店區"
"231038","4715-K9","2017/07/10 14:07:56","新北市新店區溪洲路121號","121.531341666667","24.9626883333333","6500600","新店區"
"231036","512-UM","2017/07/10 14:08:01","新北市新店區安祥路109巷3弄58號","121.477255","24.9609016666667","6500600","新店區"
"231023","513-UM","2017/07/10 14:07:59","新北市新店區文中路51號","121.539858333333","24.9565933333333","6500600","新店區"
"231035","515-UM","2017/07/10 14:08:05","新北市新店區安和路一段52巷2-1號","121.517638333333","24.9662916666667","6500600","新店區"
"231003","616-UM","2017/07/10 14:07:51","新北市新店區中興路一段136號","121.542076666667","24.9634233333333","6500600","新店區"
"231006","617-UM","2017/07/10 14:08:09","新北市新店區北宜路二段112-1號","121.556383333333","24.9537933333333","6500600","新店區"
"231001","619-UM","2017/07/10 14:08:01","新北市新店區三民路20巷2號","121.537663333333","24.9706766666667","6500600","新店區"
"231034","645-TV","2017/07/10 14:08:04","新北市新店區黎明路3號","121.503528333333","24.9524366666667","6500600","新店區"
"231013","719-UM","2017/07/10 14:07:54","新北市新店區北新路三段65巷12弄24號","121.54077","24.98171","6500600","新店區"
"231031","720-UM","2017/07/10 14:07:58","新北市新店區永業路46號","121.53166","24.9535183333333","6500600","新店區"
"231005","897-TW","2017/07/10 14:08:10","新北市新店區寶元路一段61號","121.542175","24.98586","6500600","新店區"
"231004","899-TW","2017/07/10 14:08:03","新北市新店區北新路二段173-3號","121.54276","24.9768583333333","6500600","新店區"
"231037","AKT-0513","2017/07/10 14:08:07","新北市新店區安康路三段165巷2弄14號","121.488973333333","24.9513766666667","6500600","新店區"
"235030","003-UY","2017/07/10 14:07:56","新北市中和區廣福路66號","121.503455","25.00171","6500300","中和區"
"235028","005-UY","2017/07/10 14:07:53","新北市中和區泰和街44巷40號","121.498158333333","25.0012216666667","6500300","中和區"
"235020","096-UM","2017/07/10 14:08:04","新北市中和區員山路570號","121.478891666667","25.0111983333333","6500300","中和區"
"235003","097-UM","2017/07/10 14:07:52","新北市中和區秀朗路三段179號","121.524436666667","24.9906833333333","6500300","中和區"
"235029","098-UM","2017/07/10 14:08:07","新北市中和區中山路二段2巷45弄44號","121.501841666667","25.0064516666667","6500300","中和區"
"235004","150-BY","2017/07/10 14:08:10","新北市中和區保健路46巷20弄12號","121.50853","24.9964183333333","6500300","中和區"
"235022","151-BY","2017/07/10 14:07:55","新北市中和區員山路143巷24號","121.479921666667","24.9958333333333","6500300","中和區"
"235019","183-VK","2017/07/10 14:08:03","新北市中和區德光路65號","121.46971","25.0038016666667","6500300","中和區"
"235002","185-VK","2017/07/10 14:07:57","新北市中和區立人街24-5號","121.518883333333","24.9941733333333","6500300","中和區"
"235013","186-VK","2017/07/10 14:08:09","新北市中和區明仁街8號","121.505963333333","24.9955216666667","6500300","中和區"
"235031","255-BX","2017/07/10 14:07:56","新北市中和區新生街180號","121.483703333333","24.9998766666667","6500300","中和區"
"235008","293-VK","2017/07/10 14:07:59","新北市中和區復興路280巷33弄6號","121.501206666667","24.9914416666667","6500300","中和區"
"235036","301-VK","2017/07/10 14:08:01","新北市中和區景平路669號","121.496453333333","25.0026466666667","6500300","中和區"
"235007","352-BY","2017/07/10 14:07:56","新北市中和區成功路117號","121.526008333333","24.9909133333333","6500300","中和區"
"235015","376-QA","2017/07/10 14:08:05","新北市中和區忠孝街19巷33號","121.509618333333","24.9845916666667","6500300","中和區"
"235032","377-QA","2017/07/10 14:08:11","新北市中和區圓通路162巷1號","121.497216666667","24.9952716666667","6500300","中和區"
"235025","378-QA","2017/07/10 14:08:04","新北市中和區民有街1號","121.475575","25.005765","6500300","中和區"
"235014","4979-A6","2017/07/10 14:07:54","新北市中和區復興路81號","121.503633333333","24.98982","6500300","中和區"
"235033","4980-A6","2017/07/10 14:08:04","新北市中和區中山路二段181巷4號","121.50066","25.002475","6500300","中和區"
"235006","551-UM","2017/07/10 14:08:09","新北市中和區立人街1號","121.52192","24.9939266666667","6500300","中和區"
"235070","558-UM","2017/07/10 14:08:04","新北市中和區中和路273號","121.50561","24.9997833333333","6500300","中和區"
"235009","565-BX","2017/07/10 14:07:57","新北市中和區景新街467巷20弄84號","121.514465","24.9875583333333","6500300","中和區"
"235018","640-BX","2017/07/10 14:08:01","新北市中和區國光街6巷1號","121.471861666667","25.0002166666667","6500300","中和區"
"235024","647-TV","2017/07/10 14:08:07","新北市中和區民享街89巷4弄16號","121.475165","25.0009633333333","6500300","中和區"
"235011","732-UM","2017/07/10 14:08:05","新北市中和區興南路二段74巷14號","121.505355","24.9850316666667","6500300","中和區"
"235010","733-UM","2017/07/10 14:08:04","新北市中和區興南路二段31巷13號","121.508046666667","24.985285","6500300","中和區"
"235035","783-BX","2017/07/10 14:08:05","新北市中和區橋和路2-1號","121.488323333333","25.0050466666667","6500300","中和區"
"235026","800-TS","2017/07/10 14:08:07","新北市中和區中山路二段380巷2號","121.490953333333","25.0043633333333","6500300","中和區"
"235005","802-TS","2017/07/10 14:07:53","新北市中和區中安街128號","121.511013333333","25.0004416666667","6500300","中和區"
"235016","805-TS","2017/07/10 14:08:02","新北市中和區興南路二段114巷2號","121.504283333333","24.9842683333333","6500300","中和區"
"235012","896-TW","2017/07/10 14:08:09","新北市中和區華新街137號","121.50665","24.981625","6500300","中和區"
"235017","900-TW","2017/07/10 14:07:58","新北市板橋區和平路174巷1弄7號","121.464336666667","24.99535","6500300","中和區"
"235027","911-UM","2017/07/10 14:07:55","新北市中和區中正路606號","121.485503333333","24.9953466666667","6500300","中和區"
"235001","AAC-213","2017/07/10 14:08:06","新北市中和區自立路141巷36號","121.524063333333","24.993755","6500300","中和區"
"235023","AAC-215","2017/07/10 14:07:54","新北市中和區圓通路294巷17-5號","121.488691666667","24.9904216666667","6500300","中和區"
"220016","013-TV","2017/07/10 14:08:06","新北市板橋區翠華街6巷16號","121.48104","25.0242433333333","6500100","板橋區"
"220013","072-UY","2017/07/10 14:07:52","新北市板橋區民族路247巷3弄2號","121.470436666667","25.0076666666667","6500100","板橋區"
"220034","073-UY","2017/07/10 14:08:03","新北市板橋區中正路236巷39號","121.457585","25.0193416666667","6500100","板橋區"
"220017","AAD-861","2017/07/10 14:08:00","新北市板橋區華興街76號","121.457108333333","25.005115","6500100","板橋區"
"220105","120-SR","2017/07/10 14:08:08","新北市板橋區文化路二段263巷7號","121.47092","25.0293683333333","6500100","板橋區"
"247019","893-R6","2017/07/10 14:07:57","新北市蘆洲區民族路426巷64號","121.472628333333","25.0939916666667","6501400","蘆洲區"
"247009","546-UM","2017/07/10 14:08:05","新北市蘆洲區中山一路100號","121.477811666667","25.081365","6501400","蘆洲區"
"247017","500-BY","2017/07/10 14:07:58","新北市蘆洲區復興路111-5號","121.476678333333","25.0884583333333","6501400","蘆洲區"
"247002","402-BY","2017/07/10 14:07:52","新北市蘆洲區復興路58號","121.473793333333","25.0861316666667","6501400","蘆洲區"
"247005","341-TH","2017/07/10 14:07:56","新北市蘆洲區九芎街41號","121.467873333333","25.0785916666667","6501400","蘆洲區"
"247007","339-TH","2017/07/10 14:08:09","新北市蘆洲區中山一路285號","121.471943333333","25.0794666666667","6501400","蘆洲區"
"247023","337-TH","2017/07/10 14:08:03","新北市蘆洲區光榮路70號","121.46324","25.08875","6501400","蘆洲區"
"247001","336-TH","2017/07/10 14:08:03","新北市蘆洲區永平街32巷1號","121.458773333333","25.091015","6501400","蘆洲區"
"247013","057-VK","2017/07/10 14:08:09","新北市蘆洲區忠孝路78號","121.471503333333","25.0856633333333","6501400","蘆洲區"
"247003","056-VK","2017/07/10 14:08:01","新北市蘆洲區長安街102巷63-1號","121.46263","25.0821333333333","6501400","蘆洲區"
"247011","007-UY","2017/07/10 14:08:08","新北市蘆洲區信義路321號","121.478278333333","25.0865483333333","6501400","蘆洲區"
"247021","002-UY","2017/07/10 14:08:02","新北市蘆洲區三民路181號","121.470795","25.087405","6501400","蘆洲區"
"247015","001-UY","2017/07/10 14:07:55","新北市蘆洲區光華路46巷43號","121.467575","25.0844166666667","6501400","蘆洲區"
"208004","AAC-292","2017/07/10 14:08:01","新北市金山區重和里三重橋1-1號","121.595633333333","25.1978583333333","6502700","金山區"
"207002","749-BX","2017/07/10 14:07:48","新北市萬里區溪底里瑞泉路1號","121.611503333333","25.1462183333333","6502800","萬里區"
"207001","463-BY","2017/07/10 14:08:04","新北市萬里區磺潭里清水18號","121.637811666667","25.1977033333333","6502800","萬里區"
"252005","AAC-283","2017/07/10 00:08:17","新北市三芝區埔坪里埔頭坑41號","121.504475","25.26437","6502100","三芝區"
"236064","105-UM","2017/07/10 14:07:54","新北市土城區明德路一段369號","121.45573","24.9778816666667","6501300","土城區"
"236040","107-UM","2017/07/10 14:07:57","新北市土城區裕生路61號","121.447653333333","24.986155","6501300","土城區"
"236074","166-UM","2017/07/10 14:08:01","新北市土城區永寧路32巷5號","121.429025","24.96063","6501300","土城區"
"236028","253-BX","2017/07/10 14:08:01","新北市土城區城林路6巷80號","121.43841","24.9798316666667","6501300","土城區"
"236024","269-VK","2017/07/10 14:08:01","新北市土城區承天路65號","121.439405","24.9637366666667","6501300","土城區"
"236012","270-VK","2017/07/10 14:08:00","新北市土城區學府路一段202號","121.45265","24.98554","6501300","土城區"
"236032","271-VK","2017/07/10 14:08:09","新北市土城區明德路一段325號","121.458621666667","24.977105","6501300","土城區"
"236016","401-BY","2017/07/10 14:07:56","新北市土城區金城路二段20號","121.449558333333","24.97753","6501300","土城區"
"236005","498-BY","2017/07/10 14:08:00","新北市土城區中央路一段17號","121.448525","24.99107","6501300","土城區"
"236056","912-UM","2017/07/10 14:07:52","新北市土城區中央路三段280號","121.426715","24.9636666666667","6501300","土城區"
"236044","913-UM","2017/07/10 14:08:03","新北市土城區金城路二段26號","121.450325","24.9780783333333","6501300","土城區"
"236060","915-UM","2017/07/10 14:07:52","新北市土城區金城路二段39巷2-1號","121.450108333333","24.9779866666667","6501300","土城區"
"236052","AAC-216","2017/07/10 14:08:10","新北市土城區城林路6巷80號","121.438358333333","24.9795766666667","6501300","土城區"
"242043","172-VK","2017/07/10 14:08:07","新北市樹林區中山路三段214號","121.379936666667","24.9675783333333","6500500","新莊區"
"221035","622-UM","2017/07/10 14:08:11","新北市汐止區橫科路322巷24弄6-1號","121.620646666667","25.0499333333333","6501100","汐止區"
"220027","145-BY","2017/07/10 14:08:03","新北市板橋區民權路202巷9弄8號","121.460135","25.0154383333333","6500100","板橋區"
"220030","610-BX","2017/07/10 14:07:59","新北市板橋區滿平街77號","121.427885","24.989045","6500100","板橋區"
"220050","245-BX","2017/07/10 14:08:01","新北市板橋區莊敬路139號","121.471755","25.025105","6500100","板橋區"
"220052","257-TC","2017/07/10 14:07:56","新北市板橋區文化路一段188巷7弄45號","121.468371666667","25.0195266666667","6500100","板橋區"
"220040","267-BY","2017/07/10 14:08:01","新北市板橋區萬板路378號","121.478463333333","25.0252783333333","6500100","板橋區"
"220004","276-BY","2017/07/10 14:08:01","新北市板橋區信義路74巷1弄1號","121.457288333333","24.9931866666667","6500100","板橋區"
"220020","277-BY","2017/07/10 14:07:56","新北市板橋區篤行路二段92-3號","121.431511666667","24.9915616666667","6500100","板橋區"
"220019","283-VK","2017/07/10 14:08:00","新北市板橋區重慶路223巷11號","121.4632","25.0015683333333","6500100","板橋區"
"220043","285-UM","2017/07/10 14:07:59","新北市板橋區光武街50巷1號","121.466833333333","25.0270066666667","6500100","板橋區"
"220001","285-VK","2017/07/10 14:08:03","新北市板橋區懷仁街14巷27號","121.47547","25.0194316666667","6500100","板橋區"
"220031","286-VK","2017/07/10 14:08:02","新北市板橋區龍興街101巷12號","121.443975","25.0034416666667","6500100","板橋區"
"220029","287-VK","2017/07/10 14:08:07","新北市板橋區南雅西路二段156巷6號","121.452248333333","25.013335","6500100","板橋區"
"220039","288-VK","2017/07/10 14:07:55","新北市板橋區互助街25巷7號","121.463093333333","25.02721","6500100","板橋區"
"220009","293-UM","2017/07/10 14:07:54","新北市板橋區懷仁街85巷2弄1號","121.477708333333","25.01849","6500100","板橋區"
"220010","295-UM","2017/07/10 14:08:00","新北市板橋區三民路二段245巷4弄10號","121.480933333333","25.011735","6500100","板橋區"
"220032","296-UM","2017/07/10 14:08:09","新北市板橋區篤行路一段16號","121.431356666667","24.995485","6500100","板橋區"
"220023","297-UM","2017/07/10 14:08:08","新北市板橋區大智街25巷7-3號","121.4549","25.0147066666667","6500100","板橋區"
"220041","299-UM","2017/07/10 14:07:59","新北市板橋區文化路二段227號","121.47063","25.0285233333333","6500100","板橋區"
"220047","317-R6","2017/07/10 14:08:02","新北市板橋區民有街89巷9號","121.464396666667","25.0273966666667","6500100","板橋區"
"220028","461-BY","2017/07/10 14:07:55","新北市板橋區大觀路二段7巷97號","121.450138333333","25.0030016666667","6500100","板橋區"
"220012","486-VK","2017/07/10 14:08:07","新北市板橋區板新路36號","121.473895","25.0136366666667","6500100","板橋區"
"220038","487-VK","2017/07/10 14:08:06","新北市板橋區文化路二段499號","121.47594","25.0340733333333","6500100","板橋區"
"220037","491-VK","2017/07/10 14:07:22","新北市板橋區莊敬路40號","121.472896666667","25.0270233333333","6500100","板橋區"
"220104","560-BX","2017/07/10 14:08:11","新北市板橋區中正路375巷42號","121.45364","25.020405","6500100","板橋區"
"220014","568-UM","2017/07/10 14:08:06","新北市板橋區三民路二段正隆巷59號","121.476653333333","25.0133366666667","6500100","板橋區"
"220011","609-BX","2017/07/10 14:08:03","新北市板橋區三民路二段119號","121.479271666667","25.0157383333333","6500100","板橋區"
"220005","686-BX","2017/07/10 14:08:08","新北市板橋區重慶路106號","121.462021666667","25.0055616666667","6500100","板橋區"
"220025","687-BX","2017/07/10 14:07:57","新北市板橋區大觀路二段174巷194號","121.442236666667","25.0039383333333","6500100","板橋區"
"220042","689-BX","2017/07/10 14:07:56","新北市板橋區民生路三段250號","121.46429","25.03097","6500100","板橋區"
"220002","741-BX","2017/07/10 14:08:06","新北市板橋區重慶路139巷7號","121.463148333333","25.004635","6500100","板橋區"
"220003","827-TW","2017/07/10 14:07:55","新北市板橋區區運路8號","121.465101666667","25.0091466666667","6500100","板橋區"
"220051","830-TW","2017/07/10 14:08:11","新北市板橋區萬板路818巷9號","121.483065","25.0266783333333","6500100","板橋區"
"220045","831-TW","2017/07/10 14:07:59","新北市板橋區雙十路二段47巷25號","121.47534","25.0255966666667","6500100","板橋區"
"220022","895-R6","2017/07/10 14:08:11","新北市板橋區林園街4-1號","121.454053333333","25.00938","6500100","板橋區"
"220021","985-R7","2017/07/10 14:07:55","新北市板橋區府中路126-8號","121.454521666667","25.0094316666667","6500100","板橋區"
"220046","AAC-210","2017/07/10 14:07:50","新北市板橋區英士路76號","121.460135","25.0242033333333","6500100","板橋區"
"220018","AAC-253","2017/07/10 14:08:04","新北市板橋區四川路一段290號","121.458758333333","25.0006733333333","6500100","板橋區"
