"lineid","car","time","location","longitude","latitude","cityid","cityname"
"234005","207-UY","2017/07/10 14:40:08","新北市永和區安樂路218號","121.515","25.0021183333333","6500400","永和區"
"234028","746-BX","2017/07/10 14:40:02","新北市新店區安康路二段269號","121.504203333333","24.9577883333333","6500400","永和區"
"234060","AAD-866","2017/07/10 14:39:59","新北市永和區安樂路194巷11號","121.515651666667","25.0010266666667","6500400","永和區"
"234040","862-TW","2017/07/10 14:40:01","新北市永和區永和路一段115-1號","121.513946666667","25.008115","6500400","永和區"
"234025","9371-KE","2017/07/10 14:39:57","新北市永和區中和路499號","121.510606666667","25.0022866666667","6500400","永和區"
"248013","025-BX","2017/07/10 14:39:58","新北市五股區五福路52巷3弄6號","121.433478333333","25.09006","6501500","五股區"
"248015","026-BX","2017/07/10 14:40:06","新北市五股區成泰路三段601巷21號","121.451733333333","25.10333","6501500","五股區"
"248007","095-VK","2017/07/10 14:39:59","新北市五股區四維路118巷13號","121.46922","25.07428","6501500","五股區"
"248019","225-UY","2017/07/10 14:40:05","新北市五股區凌雲路三段94號","121.427606666667","25.1215066666667","6501500","五股區"
"248011","247-BX","2017/07/10 14:39:52","新北市五股區成泰路二段86號","121.43748","25.082585","6501500","五股區"
"248009","272-BY","2017/07/10 14:40:03","新北市五股區登林路貿商巷1弄8號","121.429393333333","25.0699933333333","6501500","五股區"
"248003","677-BX","2017/07/10 14:39:57","新北市五股區工商路76號","121.43834","25.0850216666667","6501500","五股區"
"248001","678-BX","2017/07/10 14:40:10","新北市五股區成泰路三段309號","121.447718333333","25.09473","6501500","五股區"
"234066","AAC-212","2017/07/10 14:39:51","新北市中和區保平路231號","121.507958333333","25.0043516666667","6500400","永和區"
"234001","AAC-295","2017/07/10 14:37:35","新北市永和區大新街61巷2號","121.516138333333","25.0083516666667","6500400","永和區"
"244012","742-UY","2017/07/10 11:00:21","新北市林口區粉寮路二段160巷31號","121.405725","25.091045","6501700","林口區"
"244024","837-TS","2017/07/10 09:29:34","新北市林口區粉寮路二段160巷40號","121.405498333333","25.0911066666667","6501700","林口區"
"243013","AAD-798","2017/07/10 13:21:44","新北市泰山區南林路109號","121.415721666667","25.0471083333333","6501600","泰山區"
"243001","297-R6","2017/07/10 14:40:03","新北市泰山區明志路一段122巷6號","121.432453333333","25.0639466666667","6501600","泰山區"
"243007","380-SR","2017/07/10 14:39:54","新北市泰山區明志路二段246巷18弄17號","121.426586666667","25.0484266666667","6501600","泰山區"
"243006","421-VK","2017/07/10 14:40:08","新北市泰山區泰林路二段163號","121.43374","25.060485","6501600","泰山區"
"243002","548-UM","2017/07/10 14:39:50","新北市泰山區明志路二段136巷11號","121.426615","25.0515","6501600","泰山區"
"243003","549-UM","2017/07/10 14:40:09","新北市泰山區明志路三段182巷9號","121.423588333333","25.039","6501600","泰山區"
"243004","646-TV","2017/07/10 14:39:59","新北市泰山區明志路一段272號","121.431951666667","25.0602283333333","6501600","泰山區"
"243008","680-BX","2017/07/10 14:40:08","新北市泰山區新北大道六段369號","121.422431666667","25.0328233333333","6501600","泰山區"
"231030","001-UM","2017/07/10 14:39:53","新北市新店區碧安街9巷22號","121.516336666667","24.9684733333333","6500600","新店區"
"231002","002-UM","2017/07/10 14:40:09","新北市新店區中正路468號","121.533961666667","24.9794683333333","6500600","新店區"
"231025","0291-UT","2017/07/10 14:40:09","新北市新店區民族路161號","121.53779","24.9766916666667","6500600","新店區"
"231028","046-UY","2017/07/10 14:39:55","新北市新店區安德街60巷35號","121.51118","24.963545","6500600","新店區"
"231029","106-UY","2017/07/10 14:40:08","新北市新店區安康路三段261-1號","121.486793333333","24.9517916666667","6500600","新店區"
"231018","107-UY","2017/07/10 14:39:56","新北市新店區中央路230號","121.529311666667","24.9728066666667","6500600","新店區"
"231011","108-UY","2017/07/10 14:39:54","新北市新店區寶宏路3-6號","121.549295","24.9762666666667","6500600","新店區"
"231019","110-UY","2017/07/10 14:40:02","新北市新店區新烏路二段7號","121.543795","24.9298016666667","6500600","新店區"
"231014","AAD-862","2017/07/10 14:40:06","新北市新店區北宜路三段320號","121.605735","24.9557666666667","6500600","新店區"
"231027","3712-VJ","2017/07/10 14:40:04","新北市新店區中正路76巷11弄22號","121.543678333333","24.9717866666667","6500600","新店區"
"231038","4715-K9","2017/07/10 14:39:56","新北市新店區溪洲路187-2號","121.52927","24.9645883333333","6500600","新店區"
"231036","512-UM","2017/07/10 14:40:01","新北市新店區安祥路106巷258號","121.473211666667","24.958985","6500600","新店區"
"231023","513-UM","2017/07/10 14:39:59","新北市新店區檳榔路21號","121.54155","24.9637933333333","6500600","新店區"
"231035","515-UM","2017/07/10 14:40:05","新北市新店區安光路13-1號","121.513395","24.963705","6500600","新店區"
"231003","616-UM","2017/07/10 14:40:11","新北市新店區中正路2號","121.54588","24.9692283333333","6500600","新店區"
"231006","617-UM","2017/07/10 14:40:09","新北市新店區北宜路二段68號","121.551595","24.9531216666667","6500600","新店區"
"231001","619-UM","2017/07/10 14:40:01","新北市新店區中正路96號","121.543441666667","24.9704133333333","6500600","新店區"
"231034","645-TV","2017/07/10 14:40:04","新北市新店區黎明路53巷1號","121.502313333333","24.9487833333333","6500600","新店區"
"231013","719-UM","2017/07/10 14:39:54","新北市新店區北新路二段171巷10號","121.542108333333","24.976485","6500600","新店區"
"231005","897-TW","2017/07/10 14:39:50","新北市新店區順安街21號","121.54082","24.985605","6500600","新店區"
"231004","899-TW","2017/07/10 14:40:03","新北市新店區中正路282-11號","121.538418333333","24.9739433333333","6500600","新店區"
"231037","AKT-0513","2017/07/10 14:40:07","新北市新店區柴埕路37號","121.513818333333","24.965685","6500600","新店區"
"235030","003-UY","2017/07/10 14:39:56","新北市中和區景新街137號","121.506035","24.9970466666667","6500300","中和區"
"235028","005-UY","2017/07/10 14:39:53","新北市中和區南山路131號","121.502193333333","24.9966983333333","6500300","中和區"
"235020","096-UM","2017/07/10 14:40:04","新北市中和區員山路514巷2號","121.479346666667","25.0095916666667","6500300","中和區"
"235003","097-UM","2017/07/10 14:39:52","新北市中和區景平路276-1號","121.51406","24.9924783333333","6500300","中和區"
"235029","098-UM","2017/07/10 14:40:07","新北市中和區永和路8巷19號","121.500698333333","25.003565","6500300","中和區"
"235004","150-BY","2017/07/10 14:40:10","新北市中和區安樂路83號","121.512696666667","24.99449","6500300","中和區"
"235022","151-BY","2017/07/10 14:39:55","新北市中和區員山路124巷17號","121.482095","24.99599","6500300","中和區"
"235019","183-VK","2017/07/10 14:40:03","新北市中和區德光路15巷14號","121.471301666667","25.0036683333333","6500300","中和區"
"235002","185-VK","2017/07/10 14:39:57","新北市中和區自立路127號","121.521965","24.9941183333333","6500300","中和區"
"235013","186-VK","2017/07/10 14:40:09","新北市中和區安平路17號","121.5092","24.9941966666667","6500300","中和區"
"235031","255-BX","2017/07/10 14:39:52","新北市中和區新生街186巷5弄1號","121.482891666667","24.9996266666667","6500300","中和區"
"235008","293-VK","2017/07/10 14:39:59","新北市中和區景安路196號","121.504241666667","24.991505","6500300","中和區"
"235036","301-VK","2017/07/10 14:40:01","新北市中和區連城路160-1號","121.494136666667","24.998125","6500300","中和區"
"235007","352-BY","2017/07/10 14:39:56","新北市中和區景平路480號","121.505181666667","24.9935816666667","6500300","中和區"
"235015","376-QA","2017/07/10 14:40:05","新北市中和區板南路162號","121.501656666667","24.9927866666667","6500300","中和區"
"235032","377-QA","2017/07/10 14:39:51","新北市中和區枋寮街27號","121.501955","25.0004433333333","6500300","中和區"
"235025","378-QA","2017/07/10 14:40:04","新北市中和區員山路174巷4號","121.481865","24.9998366666667","6500300","中和區"
"235014","4979-A6","2017/07/10 14:39:54","新北市中和區景平路357號","121.504665","24.993455","6500300","中和區"
"235006","551-UM","2017/07/10 14:40:09","新北市中和區景安路29號","121.507681666667","24.9986483333333","6500300","中和區"
"235070","558-UM","2017/07/10 14:40:04","新北市中和區中山路二段226號","121.499256666667","25.00264","6500300","中和區"
"235009","565-BX","2017/07/10 14:39:57","新北市中和區景新街372號","121.51225","24.9902333333333","6500300","中和區"
"235018","640-BX","2017/07/10 14:40:01","新北市中和區國光街112巷24弄2號","121.470695","25.002385","6500300","中和區"
"235024","647-TV","2017/07/10 14:40:07","新北市中和區新生街30巷34號","121.482005","25.0037983333333","6500300","中和區"
"235011","732-UM","2017/07/10 14:40:05","新北市中和區景平路329巷1弄4號","121.506038333333","24.992865","6500300","中和區"
"235010","733-UM","2017/07/10 14:40:04","新北市中和區忠孝街39-15號","121.511861666667","24.9846233333333","6500300","中和區"
"235035","783-BX","2017/07/10 14:40:05","新北市中和區連城路453號","121.484666666667","24.9962266666667","6500300","中和區"
"235026","800-TS","2017/07/10 14:40:07","新北市中和區中山路二段411號","121.485855","25.0043233333333","6500300","中和區"
"235021","801-TS","2017/07/10 14:40:08","新北市中和區員山路376號","121.480671666667","25.0041866666667","6500300","中和區"
"235005","802-TS","2017/07/10 14:39:53","新北市中和區中和路260-1號","121.508145","24.999335","6500300","中和區"
"235016","805-TS","2017/07/10 14:40:02","新北市中和區華新街143巷62號","121.506211666667","24.9793733333333","6500300","中和區"
"235012","896-TW","2017/07/10 14:40:08","新北市中和區四維街17號","121.513105","24.98716","6500300","中和區"
"235017","900-TW","2017/07/10 14:39:58","新北市中和區民德路188號","121.468283333333","24.9992766666667","6500300","中和區"
"235027","911-UM","2017/07/10 14:40:04","新北市中和區連城路167號","121.495556666667","24.99853","6500300","中和區"
"235001","AAC-213","2017/07/10 14:40:06","新北市中和區秀朗路三段10巷37弄13號","121.524086666667","24.9956966666667","6500300","中和區"
"235023","AAC-215","2017/07/10 14:39:54","新北市中和區圓通路335巷3弄20號","121.493506666667","24.9902216666667","6500300","中和區"
"220016","013-TV","2017/07/10 14:40:02","新北市板橋區中山路二段416巷36-1號","121.483126666667","25.0198716666667","6500100","板橋區"
"220013","072-UY","2017/07/10 14:39:52","新北市板橋區實踐路93巷101號","121.467326666667","25.0058816666667","6500100","板橋區"
"220034","073-UY","2017/07/10 14:40:10","新北市板橋區國光路33號","121.457188333333","25.0176683333333","6500100","板橋區"
"220017","AAD-861","2017/07/10 14:40:00","新北市板橋區大明街20巷29弄5號","121.458408333333","25.0034533333333","6500100","板橋區"
"220105","120-SR","2017/07/10 14:40:08","新北市板橋區文化路二段319號","121.472076666667","25.030115","6500100","板橋區"
"247019","893-R6","2017/07/10 14:39:57","新北市蘆洲區民義街9巷10號","121.47118","25.0888666666667","6501400","蘆洲區"
"247009","546-UM","2017/07/10 14:39:55","新北市蘆洲區信義路222巷4號","121.479373333333","25.0853083333333","6501400","蘆洲區"
"247017","500-BY","2017/07/10 14:39:58","新北市蘆洲區民族路293號","121.475323333333","25.09113","6501400","蘆洲區"
"247002","402-BY","2017/07/10 14:39:52","新北市五股區芳洲九路32號","121.447816666667","25.0872766666667","6501400","蘆洲區"
"247005","341-TH","2017/07/10 14:39:51","新北市蘆洲區長安街68巷10號","121.463148333333","25.080415","6501400","蘆洲區"
"247007","339-TH","2017/07/10 14:39:49","新北市蘆洲區民生街76號","121.472698333333","25.0791333333333","6501400","蘆洲區"
"247023","337-TH","2017/07/10 14:40:03","新北市蘆洲區正和街65號","121.468875","25.0810366666667","6501400","蘆洲區"
"247001","336-TH","2017/07/10 14:40:03","新北市蘆洲區永樂街38巷45弄41號","121.457005","25.0902383333333","6501400","蘆洲區"
"247013","057-VK","2017/07/10 14:40:09","新北市蘆洲區成功路172號","121.471356666667","25.0837266666667","6501400","蘆洲區"
"247003","056-VK","2017/07/10 14:39:55","新北市蘆洲區永康街1巷10號","121.459576666667","25.0856016666667","6501400","蘆洲區"
"247011","007-UY","2017/07/10 14:39:48","新北市蘆洲區集賢路224巷64弄1號","121.480815","25.0883233333333","6501400","蘆洲區"
"247021","002-UY","2017/07/10 14:40:01","新北市蘆洲區三民路277號","121.467856666667","25.0899083333333","6501400","蘆洲區"
"247015","001-UY","2017/07/10 14:39:55","新北市蘆洲區正和街29號","121.469713333333","25.0819233333333","6501400","蘆洲區"
"208004","AAC-292","2017/07/10 14:40:01","新北市金山區重和里六股林口9-3號","121.606666666667","25.22032","6502700","金山區"
"207002","749-BX","2017/07/10 14:36:02","新北市萬里區溪底里福德坑路2號","121.625396666667","25.15623","6502800","萬里區"
"207001","463-BY","2017/07/10 14:40:04","新北市萬里區磺潭里員潭路59號","121.643173333333","25.1902733333333","6502800","萬里區"
"252005","AAC-283","2017/07/10 00:08:17","新北市三芝區埔坪里埔頭坑41號","121.504475","25.26437","6502100","三芝區"
"236064","105-UM","2017/07/10 14:39:54","新北市土城區永豐路211-2號","121.474696666667","24.9758566666667","6501300","土城區"
"236040","107-UM","2017/07/10 14:39:57","新北市土城區學成路108巷8-2號","121.450203333333","24.9896166666667","6501300","土城區"
"236074","166-UM","2017/07/10 14:39:54","新北市土城區中央路四段76-9號","121.418625","24.96019","6501300","土城區"
"236028","253-BX","2017/07/10 14:40:01","新北市土城區慶樂街33號","121.438325","24.9732166666667","6501300","土城區"
"236024","269-VK","2017/07/10 14:40:01","新北市土城區千歲路13號","121.440925","24.9695883333333","6501300","土城區"
"236012","270-VK","2017/07/10 14:40:00","新北市土城區清水路234巷15弄1號","121.461833333333","24.9820966666667","6501300","土城區"
"236032","271-VK","2017/07/10 14:40:09","新北市土城區青雲路411巷11號","121.459628333333","24.97587","6501300","土城區"
"236016","401-BY","2017/07/10 14:40:10","新北市土城區延吉街327-1號","121.465528333333","24.984135","6501300","土城區"
"236056","912-UM","2017/07/10 14:40:12","新北市土城區中央路四段25-9號","121.424566666667","24.9623983333333","6501300","土城區"
"236044","913-UM","2017/07/10 14:40:06","新北市土城區明德路一段53號","121.465253333333","24.9846883333333","6501300","土城區"
"236060","915-UM","2017/07/10 14:39:52","新北市土城區延壽路13巷17號","121.469988333333","24.9913383333333","6501300","土城區"
"236052","AAC-216","2017/07/10 14:39:49","新北市土城區中華路一段55號","121.445601666667","24.9881616666667","6501300","土城區"
"242043","172-VK","2017/07/10 14:35:30","新北市新莊區三和路12-21號","121.44189","25.038645","6500500","新莊區"
"238018","571-TV","2017/07/10 14:40:03","新北市樹林區育德街78-1號","121.387323333333","24.96816","6500700","樹林區"
"221035","622-UM","2017/07/10 14:40:11","新北市新店區安康路二段327號","121.499663333333","24.9547116666667","6501100","汐止區"
"221002","707-TV","2017/07/10 14:40:09","新北市汐止區新興路128號","121.657916666667","25.0606566666667","6501100","汐止區"
"220027","145-BY","2017/07/10 14:40:03","新北市板橋區復興街92號","121.45962","25.01761","6500100","板橋區"
"220030","610-BX","2017/07/10 14:39:59","新北市板橋區金門街252號","121.430358333333","24.9869683333333","6500100","板橋區"
"220050","245-BX","2017/07/10 14:40:01","新北市板橋區莊敬路220巷66號","121.47177","25.0210233333333","6500100","板橋區"
"220052","257-TC","2017/07/10 14:39:56","新北市板橋區文化路一段280-3號","121.467323333333","25.0214466666667","6500100","板橋區"
"220040","267-BY","2017/07/10 14:40:01","新北市板橋區懷德街201巷4號","121.480793333333","25.0292416666667","6500100","板橋區"
"220004","276-BY","2017/07/10 14:40:01","新北市板橋區四川路二段47巷1弄1號","121.454085","24.9949916666667","6500100","板橋區"
"220020","277-BY","2017/07/10 14:39:56","新北市板橋區金門街287巷37號","121.432335","24.9875316666667","6500100","板橋區"
"220019","283-VK","2017/07/10 14:39:56","新北市板橋區四川路一段283巷23號","121.459465","25.0005733333333","6500100","板橋區"
"220043","285-UM","2017/07/10 14:40:02","新北市板橋區銘傳街100號","121.469788333333","25.03172","6500100","板橋區"
"220001","285-VK","2017/07/10 14:40:05","新北市板橋區富山街53巷1弄94號","121.477798333333","25.0200483333333","6500100","板橋區"
"220031","286-VK","2017/07/10 14:40:07","新北市板橋區龍興街71巷11號","121.44334","25.00203","6500100","板橋區"
"220029","287-VK","2017/07/10 14:40:07","新北市板橋區大觀路一段29巷51號","121.450363333333","25.007165","6500100","板橋區"
"220039","288-VK","2017/07/10 14:39:55","新北市板橋區長江路一段106巷18弄7號","121.46004","25.0284266666667","6500100","板橋區"
"220009","293-UM","2017/07/10 14:39:53","新北市板橋區板新路208號","121.46867","25.016075","6500100","板橋區"
"220010","295-UM","2017/07/10 14:40:02","新北市板橋區三民路二段123巷1號","121.47949","25.01566","6500100","板橋區"
"220032","296-UM","2017/07/10 14:40:09","新北市板橋區滿平街84巷100弄5號","121.426313333333","24.9864233333333","6500100","板橋區"
"220023","297-UM","2017/07/10 14:40:08","新北市板橋區中正路253巷27號","121.454171666667","25.0176966666667","6500100","板橋區"
"220041","299-UM","2017/07/10 14:39:59","新北市板橋區文化路一段387巷19號","121.466083333333","25.0221666666667","6500100","板橋區"
"220047","317-R6","2017/07/10 14:40:02","新北市板橋區民生路三段299巷20號","121.46264","25.030235","6500100","板橋區"
"220028","461-BY","2017/07/10 14:40:08","新北市板橋區大觀路二段37巷300號","121.450138333333","25.0020983333333","6500100","板橋區"
"220012","486-VK","2017/07/10 14:39:56","新北市板橋區民族路19號","121.461903333333","25.0096533333333","6500100","板橋區"
"220038","487-VK","2017/07/10 14:40:06","新北市板橋區中正路216巷150弄11號","121.460936666667","25.0190216666667","6500100","板橋區"
"220037","491-VK","2017/07/10 14:39:43","新北市板橋區雙十路二段223號","121.473096666667","25.0292666666667","6500100","板橋區"
"220104","560-BX","2017/07/10 14:39:58","新北市板橋區中正路346號","121.454293333333","25.0235566666667","6500100","板橋區"
"220014","568-UM","2017/07/10 14:40:06","新北市板橋區長安街168巷10弄21號","121.473646666667","25.0103633333333","6500100","板橋區"
"220011","609-BX","2017/07/10 14:40:03","新北市板橋區三民路二段1號","121.479288333333","25.01858","6500100","板橋區"
"220005","686-BX","2017/07/10 14:40:08","新北市板橋區和平路70號","121.461393333333","24.9944983333333","6500100","板橋區"
"220025","687-BX","2017/07/10 14:39:57","新北市板橋區僑中二街90巷1號","121.446525","25.0090516666667","6500100","板橋區"
"220042","689-BX","2017/07/10 14:39:56","新北市板橋區雨農路50號","121.461073333333","25.0243666666667","6500100","板橋區"
"220002","741-BX","2017/07/10 14:40:04","新北市板橋區忠孝路166號","121.464335","25.002515","6500100","板橋區"
"220003","827-TW","2017/07/10 14:39:55","新北市板橋區重慶路290巷3號","121.46153","24.9986183333333","6500100","板橋區"
"220051","830-TW","2017/07/10 14:39:51","新北市板橋區雙十路二段70巷20號","121.475885","25.0284433333333","6500100","板橋區"
"220045","831-TW","2017/07/10 14:39:59","新北市板橋區民生路二段226巷6弄6號","121.469495","25.02155","6500100","板橋區"
"220022","895-R6","2017/07/10 14:39:51","新北市板橋區府中路44號","121.457301666667","25.0095216666667","6500100","板橋區"
"220021","985-R7","2017/07/10 14:39:55","新北市板橋區新生街50號","121.456783333333","25.021045","6500100","板橋區"
"220046","AAC-210","2017/07/10 14:39:50","新北市板橋區幸福路32巷8號","121.461563333333","25.0206833333333","6500100","板橋區"
"220018","AAC-253","2017/07/10 14:40:04","新北市板橋區四川路一段78號","121.459713333333","25.0052783333333","6500100","板橋區"
