"lineid","car","time","location","longitude","latitude","cityid","cityname"
"249005","172-UM","2017/07/10 17:08:08","新北市八里區渡船頭5-6號","121.43144","25.1549583333333","6502300","八里區"
"249001","173-UM","2017/07/10 17:08:06","新北市八里區中華路二段305-2號","121.402453333333","25.147055","6502300","八里區"
"249004","303-UY","2017/07/10 17:08:07","新北市八里區忠孝路351-1號","121.416903333333","25.1612633333333","6502300","八里區"
"249002","305-UY","2017/07/10 17:07:55","新北市八里區米倉13-2號","121.438545","25.149685","6502300","八里區"
"249003","593-UM","2017/07/10 17:07:55","新北市八里區中山路二段363號","121.398883333333","25.1469633333333","6502300","八里區"
"244007","080-UY","2017/07/10 17:07:53","新北市林口區中湖60-5號","121.376073333333","25.09306","6501700","林口區"
"244019","742-UY","2017/07/10 17:08:09","新北市林口區仁愛路二段190號","121.38049","25.073865","6501700","林口區"
"244009","410-SL","2017/07/10 17:08:02","新北市林口區粉寮路二段14號","121.401963333333","25.08563","6501700","林口區"
"244023","483-VK","2017/07/10 17:08:05","新北市林口區粉寮路二段167-1號","121.404476666667","25.0885416666667","6501700","林口區"
"243013","AAD-798","2017/07/10 13:21:44","新北市泰山區南林路109號","121.415721666667","25.0471083333333","6501600","泰山區"
"243012","646-TV","2017/07/10 15:42:11","新北市泰山區黎明路25號","121.42239","25.0607833333333","6501600","泰山區"
"231046","278-BY","2017/07/10 17:08:07","新北市新店區直潭六街64號","121.53224","24.9400316666667","6500600","新店區"
"241011","013-R5","2017/07/10 17:08:00","新北市三重區仁愛街53巷38號","121.497235","25.072225","6500200","三重區"
"241028","022-UY","2017/07/10 17:08:08","新北市三重區重新路三段49號","121.492881666667","25.0611433333333","6500200","三重區"
"241008","059-VK","2017/07/10 17:08:11","新北市三重區下竹圍街73號","121.4811","25.0754216666667","6500200","三重區"
"241009","060-VK","2017/07/10 17:07:58","新北市三重區三和路四段215巷30號","121.482846666667","25.0800716666667","6500200","三重區"
"241031","061-VK","2017/07/10 17:07:54","新北市三重區重陽路一段113巷1弄26號","121.48796","25.0591133333333","6500200","三重區"
"241015","062-VK","2017/07/10 17:08:09","新北市三重區長生街6號","121.499051666667","25.066315","6500200","三重區"
"241017","063-VK","2017/07/10 17:08:07","新北市三重區國隆路26號","121.492381666667","25.06421","6500200","三重區"
"241024","065-VK","2017/07/10 17:08:07","新北市三重區大勇街82巷8號","121.479396666667","25.0716516666667","6500200","三重區"
"241026","066-VK","2017/07/10 17:08:06","新北市三重區重新路二段9號","121.498835","25.0626083333333","6500200","三重區"
"241002","090-VK","2017/07/10 17:08:11","新北市三重區仁義街225巷19號","121.497275","25.082465","6500200","三重區"
"241003","091-VK","2017/07/10 17:07:58","新北市三重區五華街141巷58號","121.493508333333","25.0867566666667","6500200","三重區"
"241020","156-TC","2017/07/10 17:08:05","新北市三重區自強路三段36號","121.486713333333","25.07252","6500200","三重區"
"241005","262-UM","2017/07/10 17:08:00","新北市三重區碧華街104-1號","121.484463333333","25.0816116666667","6500200","三重區"
"241013","265-UM","2017/07/10 17:08:05","新北市三重區仁福街48號","121.497418333333","25.07464","6500200","三重區"
"241016","266-UM","2017/07/10 17:07:52","新北市三重區大同北路97-3號","121.49444","25.0635733333333","6500200","三重區"
"241022","267-UM","2017/07/10 17:07:54","新北市三重區重陽路二段18巷3號","121.486578333333","25.0623916666667","6500200","三重區"
"241018","268-UM","2017/07/10 17:08:05","新北市三重區重陽路四段39號","121.491775","25.0697733333333","6500200","三重區"
"241032","269-UM","2017/07/10 17:08:09","新北市三重區三陽路13巷7號","121.486091666667","25.0597766666667","6500200","三重區"
"241025","271-UM","2017/07/10 17:08:13","新北市三重區中正北路560巷6號","121.470958333333","25.0715566666667","6500200","三重區"
"241007","398-BY","2017/07/10 17:07:51","新北市三重區三和路四段145巷109號","121.487148333333","25.0790083333333","6500200","三重區"
"241004","475-VK","2017/07/10 17:07:57","新北市三重區五華街98巷25-1號","121.491403333333","25.08187","6500200","三重區"
"241019","478-VK","2017/07/10 17:07:57","新北市三重區力行路一段153巷32號","121.486041666667","25.06914","6500200","三重區"
"241030","480-VK","2017/07/10 17:07:53","新北市三重區成功路53號","121.489376666667","25.0507216666667","6500200","三重區"
"241014","543-UM","2017/07/10 17:08:09","新北市三重區龍濱路217號","121.501875","25.0719916666667","6500200","三重區"
"241023","545-UM","2017/07/10 17:08:12","新北市三重區忠孝路三段84巷1號","121.480268333333","25.0645166666667","6500200","三重區"
"241001","547-UM","2017/07/10 17:07:55","新北市三重區仁愛街245巷19號","121.494143333333","25.0783233333333","6500200","三重區"
"241006","AAD-863","2017/07/10 17:08:06","新北市三重區車路頭街139巷2號","121.483971666667","25.0762966666667","6500200","三重區"
"241012","941-UM","2017/07/10 17:07:55","新北市三重區公園街30號","121.498693333333","25.0742116666667","6500200","三重區"
"241029","942-UM","2017/07/10 17:07:53","新北市三重區重安街98號","121.49249","25.0562183333333","6500200","三重區"
"241033","AAC-255","2017/07/10 17:08:03","新北市三重區中興北街275號","121.469126666667","25.060795","6500200","三重區"
"235004","150-BY","2017/07/10 16:11:49","新北市中和區員山路36巷16-2號","121.485326666667","24.99169","6500300","中和區"
"235061","378-QA","2017/07/10 15:34:14","新北市中和區員山路36巷13號","121.484306666667","24.9910533333333","6500300","中和區"
"247020","893-R6","2017/07/10 17:07:52","新北市蘆洲區民族路422巷148弄6號","121.471896666667","25.0947983333333","6501400","蘆洲區"
"247010","546-UM","2017/07/10 17:08:03","新北市蘆洲區三民路38-1號","121.475605","25.08314","6501400","蘆洲區"
"247018","500-BY","2017/07/10 17:07:51","新北市蘆洲區復興路85號","121.476481666667","25.0874716666667","6501400","蘆洲區"
"247006","341-TH","2017/07/10 17:08:01","新北市蘆洲區中華街6巷3號","121.462453333333","25.0824266666667","6501400","蘆洲區"
"247008","339-TH","2017/07/10 17:07:55","新北市蘆洲區信義路59巷5弄1號","121.475315","25.0802683333333","6501400","蘆洲區"
"247024","337-TH","2017/07/10 17:08:02","新北市蘆洲區長興路52號","121.463555","25.083545","6501400","蘆洲區"
"247002","336-TH","2017/07/10 17:07:54","新北市蘆洲區永樂街83號","121.455915","25.08874","6501400","蘆洲區"
"247014","057-VK","2017/07/10 17:08:04","新北市蘆洲區中央路20巷3號","121.473768333333","25.0828383333333","6501400","蘆洲區"
"247004","056-VK","2017/07/10 17:08:09","新北市蘆洲區永安南路二段274號","121.458288333333","25.0809816666667","6501400","蘆洲區"
"247012","007-UY","2017/07/10 17:07:53","新北市蘆洲區信義路292巷8號","121.478108333333","25.0876533333333","6501400","蘆洲區"
"247022","002-UY","2017/07/10 17:08:10","新北市蘆洲區水湳街70號","121.4705","25.089855","6501400","蘆洲區"
"247016","001-UY","2017/07/10 17:08:10","新北市蘆洲區正和街97號","121.46786","25.0804966666667","6501400","蘆洲區"
"228003","097-TW","2017/07/10 17:08:00","新北市貢寮區福隆里東興街29-5號","121.949886666667","25.01809","6502600","貢寮區"
"228002","585-TW","2017/07/10 17:08:08","新北市貢寮區龍崗里泮宮路51號","121.908021666667","25.0170533333333","6502600","貢寮區"
"228001","670-TC","2017/07/10 17:07:57","新北市貢寮區仁理村研海街20號","121.928393333333","25.036315","6502600","貢寮區"
"224010","AGQ-8101","2017/07/10 09:07:59","新北市瑞芳區民權街3-1號","121.809425","25.1082683333333","6501200","瑞芳區"
"224006","676-BX","2017/07/10 17:08:00","新北市瑞芳區大寮路24號","121.781545","25.0993816666667","6501200","瑞芳區"
"224009","285-BY","2017/07/10 17:08:03","新北市瑞芳區濱二路30號","121.841288333333","25.1159766666667","6501200","瑞芳區"
"224008","275-VK","2017/07/10 17:08:07","新北市瑞芳區柴寮路40號","121.827478333333","25.0869083333333","6501200","瑞芳區"
"224007","273-VK","2017/07/10 17:08:11","新北市瑞芳區粗坑口路82號","121.760968333333","25.09912","6501200","瑞芳區"
"224005","271-BY","2017/07/10 17:08:11","新北市瑞芳區南雅路1號","121.895551666667","25.1199216666667","6501200","瑞芳區"
"227008","642-TC","2017/07/10 17:07:53","新北市雙溪區牡丹里下坑11號","121.850986666667","25.0562716666667","6502500","雙溪區"
"227001","400-TW","2017/07/10 17:08:05","新北市雙溪區外柑里田寮7-1號","121.80581","25.0145016666667","6502500","雙溪區"
"251009","008-UM","2017/07/10 17:03:54","新北市淡水區中正路322-1號","121.436468333333","25.172825","6501000","淡水區"
"251004","009-UM","2017/07/10 17:08:06","新北市淡水區中正東路36-1號","121.448826666667","25.1657366666667","6501000","淡水區"
"251007","179-VK","2017/07/10 17:07:55","新北市淡水區中正東路一段17號","121.451545","25.1635166666667","6501000","淡水區"
"251013","180-VK","2017/07/10 17:08:07","新北市淡水區大埤頭3號","121.486095","25.19597","6501000","淡水區"
"251008","181-VK","2017/07/10 17:08:07","新北市淡水區樹梅坑7-6號","121.472228333333","25.1443466666667","6501000","淡水區"
"251010","413-VK","2017/07/10 17:07:51","新北市淡水區中正路二段31號","121.419516666667","25.181605","6501000","淡水區"
"251012","441-VK","2017/07/10 17:07:54","新北市淡水區中山北路三段16巷30號","121.44406","25.1891033333333","6501000","淡水區"
"251015","442-VK","2017/07/10 17:07:54","新北市淡水區鄧公路278巷21號","121.464275","25.16796","6501000","淡水區"
"251005","443-VK","2017/07/10 17:07:55","新北市淡水區鄧公路19-1號","121.45027","25.1699266666667","6501000","淡水區"
"251006","561-UM","2017/07/10 17:08:02","新北市淡水區中正路二段31號","121.419546666667","25.1815766666667","6501000","淡水區"
"251011","650-BX","2017/07/10 17:07:53","新北市淡水區坪頂路52巷18號","121.457696666667","25.16242","6501000","淡水區"
"252002","178-VK","2017/07/10 17:08:06","新北市三芝區忠孝街132號","121.506063333333","25.2579683333333","6502100","三芝區"
"252001","292-VK","2017/07/10 17:08:05","新北市三芝區埔坪里埔頭坑7號","121.501906666667","25.2601666666667","6502100","三芝區"
"242021","AAC-296","2017/07/10 16:32:00","新北市新莊區新泰路357巷3弄53號","121.442165","25.03989","6500500","新莊區"
"242048","751-BX","2017/07/10 17:08:03","新北市新莊區中正路524號","121.431166666667","25.0315866666667","6500500","新莊區"
"242025","615-BX","2017/07/10 17:07:55","新北市新莊區新泰路255巷83號","121.442286666667","25.038925","6500500","新莊區"
"242023","613-BX","2017/07/10 17:08:10","新北市新莊區新泰路357巷3弄57號","121.442293333333","25.0392466666667","6500500","新莊區"
"242027","612-BX","2017/07/10 17:08:09","新北市新莊區新泰路357巷3弄57號","121.442285","25.039365","6500500","新莊區"
"242036","566-BX","2017/07/10 17:08:12","新北市新莊區新泰路357巷3弄57號","121.44207","25.0390916666667","6500500","新莊區"
"242042","497-BY","2017/07/10 17:08:05","新北市新莊區新泰路357巷3弄57號","121.441831666667","25.0393633333333","6500500","新莊區"
"242046","441-UM","2017/07/10 11:07:16","新北市新莊區三和路12-21號","121.442025","25.0383766666667","6500500","新莊區"
"242031","415-TV","2017/07/10 17:08:05","新北市新莊區新泰路357巷3弄57號","121.441953333333","25.0392466666667","6500500","新莊區"
"242002","413-TV","2017/07/10 17:08:00","新北市新莊區新泰路357巷3弄57號","121.441973333333","25.039565","6500500","新莊區"
"242039","400-BY","2017/07/10 17:07:58","新北市新莊區新泰路357巷3弄57號","121.442181666667","25.0396266666667","6500500","新莊區"
"242060","362-BY","2017/07/10 17:07:57","新北市新莊區新泰路255巷83號","121.442306666667","25.038845","6500500","新莊區"
"242058","353-BY","2017/07/10 17:08:10","新北市新莊區新泰路255巷83號","121.44231","25.038775","6500500","新莊區"
"242011","132-UY","2017/07/10 17:08:04","新北市新莊區三和路12-21號","121.441931666667","25.03888","6500500","新莊區"
"242019","135-UY","2017/07/10 17:08:13","新北市新莊區新泰路255巷83號","121.442053333333","25.0389366666667","6500500","新莊區"
"242044","172-VK","2017/07/10 17:07:56","新北市新莊區中正路384號","121.441968333333","25.03473","6500500","新莊區"
"242007","173-VK","2017/07/10 10:54:46","新北市新莊區新興街31巷8號","121.450423333333","25.0375866666667","6500500","新莊區"
"242056","176-VK","2017/07/10 17:07:59","新北市新莊區三和路12-21號","121.442111666667","25.0385683333333","6500500","新莊區"
"242013","346-TH","2017/07/10 11:04:13","新北市新莊區三和路12-17號","121.44194","25.0375583333333","6500500","新莊區"
"242050","347-TH","2017/07/10 14:38:19","新北市新莊區三和路12-16號","121.442086666667","25.03747","6500500","新莊區"
"242017","348-TH","2017/07/10 17:07:58","新北市新莊區新泰路357巷3弄57號","121.44215","25.0395666666667","6500500","新莊區"
"242053","349-TH","2017/07/10 17:08:01","新北市新莊區三和路12-17號","121.441991666667","25.0374916666667","6500500","新莊區"
"242015","350-TH","2017/07/10 17:08:08","新北市新莊區新泰路255巷83號","121.442021666667","25.038955","6500500","新莊區"
"242009","351-TH","2017/07/10 10:29:07","新北市新莊區新泰路357巷3弄57號","121.442113333333","25.0394116666667","6500500","新莊區"
"238015","755-BX","2017/07/10 17:07:59","新北市樹林區育德街78-1號","121.387856666667","24.9681733333333","6500700","樹林區"
"238023","601-UM","2017/07/10 17:08:08","新北市樹林區大安路313號","121.417653333333","24.9920983333333","6500700","樹林區"
"238019","599-UM","2017/07/10 17:07:53","新北市樹林區八德街630號","121.396965","24.96951","6500700","樹林區"
"238018","571-TV","2017/07/10 17:08:03","新北市樹林區水源街54號","121.425746666667","24.9811466666667","6500700","樹林區"
"238022","312-TH","2017/07/10 17:07:53","新北市樹林區八德街263-1號","121.419315","24.9737733333333","6500700","樹林區"
"238025","303-VK","2017/07/10 17:08:00","新北市樹林區中正路22-1號","121.427838333333","24.9993383333333","6500700","樹林區"
"238004","283-BY","2017/07/10 17:07:54","新北市樹林區光武街7-3號","121.415733333333","25.005315","6500700","樹林區"
"238001","282-BY","2017/07/10 17:08:08","新北市樹林區中正路22-1號","121.427681666667","24.9995283333333","6500700","樹林區"
"238020","268-VK","2017/07/10 17:07:57","新北市樹林區啟智街172號","121.414663333333","24.987325","6500700","樹林區"
"238016","169-UY","2017/07/10 17:08:11","新北市樹林區中山路二段34號","121.417451666667","24.9849783333333","6500700","樹林區"
"239007","AAC-297","2017/07/10 17:07:52","新北市鶯歌區文化路309號","121.352448333333","24.952435","6500800","鶯歌區"
"239006","891-R6","2017/07/10 17:08:04","新北市樹林區八德街1-1號","121.341261666667","24.9479066666667","6500800","鶯歌區"
"239008","527-UM","2017/07/10 17:08:12","新北市鶯歌區尖山路56號","121.349725","24.9496566666667","6500800","鶯歌區"
"239005","526-UM","2017/07/10 17:07:57","新北市鶯歌區八德路10號","121.33306","24.9545766666667","6500800","鶯歌區"
"239001","417-VK","2017/07/10 17:08:11","新北市鶯歌區尖山路57-3號","121.35035","24.9498233333333","6500800","鶯歌區"
"239003","360-BY","2017/07/10 17:08:03","新北市鶯歌區八德路29號","121.33556","24.9518583333333","6500800","鶯歌區"
"239002","359-BY","2017/07/10 17:07:50","新北市鶯歌區建國路151號","121.350611666667","24.9535616666667","6500800","鶯歌區"
"239004","193-VK","2017/07/10 17:07:52","新北市鶯歌區文化路324巷8弄2衖1號","121.349915","24.9450683333333","6500800","鶯歌區"
"221035","622-UM","2017/07/10 17:07:58","新北市汐止區汐萬路一段256巷1號","121.651965","25.0747416666667","6501100","汐止區"
"221010","646-BX","2017/07/10 17:07:56","新北市汐止區汐萬路一段256巷3號","121.652191666667","25.0748183333333","6501100","汐止區"
"220010","295-UM","2017/07/10 17:03:21","新北市板橋區民生路二段36-1號","121.472578333333","25.0167833333333","6500100","板橋區"
