"lineid","car","time","location","longitude","latitude","cityid","cityname"
"234026","9371-KE","2017/07/10 17:48:08","新北市永和區永平路173號","121.510621666667","25.009015","6500400","永和區"
"234011","9373-KE","2017/07/10 17:48:04","新北市永和區福和路1號","121.526258333333","25.0096133333333","6500400","永和區"
"249005","172-UM","2017/07/10 17:48:08","新北市八里區荖阡坑路34號","121.402528333333","25.1297866666667","6502300","八里區"
"249001","173-UM","2017/07/10 17:48:06","新北市八里區龍米路二段108-1號","121.443771666667","25.1495466666667","6502300","八里區"
"249004","303-UY","2017/07/10 17:48:06","新北市八里區中華路一段81巷15號","121.420318333333","25.1568483333333","6502300","八里區"
"249002","305-UY","2017/07/10 17:47:55","新北市八里區頂寮二街113-1號","121.448913333333","25.1269616666667","6502300","八里區"
"249003","593-UM","2017/07/10 17:47:55","新北市八里區中山路二段270號","121.405083333333","25.1512066666667","6502300","八里區"
"248014","025-BX","2017/07/10 17:47:54","新北市五股區中興路二段63巷17號","121.460246666667","25.0753616666667","6501500","五股區"
"248006","077-UY","2017/07/10 17:47:57","新北市五股區中興路二段83巷26-6號","121.459785","25.075125","6501500","五股區"
"248008","095-VK","2017/07/10 17:48:12","新北市五股區中興路二段37巷28號","121.46019","25.0749633333333","6501500","五股區"
"232011","375-UM","2017/07/10 17:48:10","新北市坪林區北宜路八段52號","121.704558333333","24.93562","6502000","坪林區"
"244013","069-UM","2017/07/10 17:48:07","新北市林口區中正路523號","121.382563333333","25.077375","6501700","林口區"
"244007","080-UY","2017/07/10 17:47:53","新北市林口區佳林路18號","121.386908333333","25.0823183333333","6501700","林口區"
"244019","742-UY","2017/07/10 17:48:09","新北市林口區忠孝路535號","121.371953333333","25.0689816666667","6501700","林口區"
"244009","410-SL","2017/07/10 17:48:02","新北市林口區民享路160號","121.382003333333","25.083245","6501700","林口區"
"244023","483-VK","2017/07/10 17:48:05","新北市林口區東明一街140號","121.389988333333","25.070735","6501700","林口區"
"244017","485-VK","2017/07/10 17:48:09","新北市林口區忠孝路403號","121.370211666667","25.07074","6501700","林口區"
"244011","701-TV","2017/07/10 17:48:04","新北市林口區竹林路2號","121.386586666667","25.0770583333333","6501700","林口區"
"244025","837-TS","2017/07/10 17:48:04","新北市林口區文化三路一段225巷24號","121.362335","25.0717316666667","6501700","林口區"
"244021","838-TS","2017/07/10 17:48:04","新北市林口區仁愛路一段167巷73號","121.396903333333","25.0729083333333","6501700","林口區"
"243013","AAD-798","2017/07/10 13:21:44","新北市泰山區南林路109號","121.415721666667","25.0471083333333","6501600","泰山區"
"243012","646-TV","2017/07/10 15:42:11","新北市泰山區黎明路25號","121.42239","25.0607833333333","6501600","泰山區"
"222002","659-BX","2017/07/10 17:48:02","新北市深坑區平埔街22巷17弄1號","121.614818333333","25.0008633333333","6501800","深坑區"
"231046","278-BY","2017/07/10 17:48:07","新北市新店區下石厝路29號","121.534265","24.9285433333333","6500600","新店區"
"241005","262-UM","2017/07/10 17:47:59","新北市三重區仁愛街592號","121.484303333333","25.0811133333333","6500200","三重區"
"241013","265-UM","2017/07/10 17:48:05","新北市三重區龍濱路190號","121.501063333333","25.0732766666667","6500200","三重區"
"241016","266-UM","2017/07/10 17:48:12","新北市三重區重新路二段94號","121.497068333333","25.0616766666667","6500200","三重區"
"241024","462-BY","2017/07/10 17:48:04","新北市三重區力行路二段9巷2號","121.482386666667","25.0722283333333","6500200","三重區"
"241023","545-UM","2017/07/10 17:48:11","新北市三重區新北大道一段7號","121.489655","25.0612766666667","6500200","三重區"
"241012","941-UM","2017/07/10 17:48:06","新北市三重區河邊北街242號","121.501911666667","25.07577","6500200","三重區"
"241033","AAC-255","2017/07/10 17:48:03","新北市三重區重新路五段527號","121.4711","25.0463316666667","6500200","三重區"
"235064","005-UY","2017/07/10 17:48:06","新北市中和區員山路36巷16-3號","121.485055","24.9912766666667","6500300","中和區"
"235004","150-BY","2017/07/10 17:47:59","新北市中和區和城路一段271巷1號","121.485443333333","24.9917266666667","6500300","中和區"
"235061","378-QA","2017/07/10 15:34:14","新北市中和區員山路36巷13號","121.484306666667","24.9910533333333","6500300","中和區"
"235062","800-TS","2017/07/10 17:40:00","新北市中和區員山路36巷16-3號","121.48507","24.99132","6500300","中和區"
"235052","805-TS","2017/07/10 17:48:09","新北市中和區員山路36巷16-3號","121.484648333333","24.99106","6500300","中和區"
"247020","893-R6","2017/07/10 17:47:52","新北市蘆洲區民義街75號","121.473238333333","25.0901433333333","6501400","蘆洲區"
"247010","546-UM","2017/07/10 17:48:03","新北市蘆洲區三民路50號","121.475508333333","25.08322","6501400","蘆洲區"
"247018","500-BY","2017/07/10 17:48:11","新北市蘆洲區復興路227巷2弄2號","121.48004","25.0900316666667","6501400","蘆洲區"
"247006","341-TH","2017/07/10 17:48:01","新北市蘆洲區九芎街88號","121.465823333333","25.079895","6501400","蘆洲區"
"247008","339-TH","2017/07/10 17:47:56","新北市蘆洲區民生街131巷10號","121.472411666667","25.0790483333333","6501400","蘆洲區"
"247024","337-TH","2017/07/10 17:47:59","新北市蘆洲區光榮路61巷22號","121.461385","25.0891516666667","6501400","蘆洲區"
"247002","336-TH","2017/07/10 17:47:54","新北市蘆洲區永平街32巷21弄17號","121.458458333333","25.091945","6501400","蘆洲區"
"247014","057-VK","2017/07/10 17:48:04","新北市蘆洲區長安街152號","121.459886666667","25.08254","6501400","蘆洲區"
"247004","056-VK","2017/07/10 17:48:09","新北市蘆洲區環堤大道92號","121.455321666667","25.0850683333333","6501400","蘆洲區"
"247012","007-UY","2017/07/10 17:48:05","新北市蘆洲區復興路150號","121.477166666667","25.0878033333333","6501400","蘆洲區"
"247022","002-UY","2017/07/10 17:48:10","新北市蘆洲區中正路506號","121.461833333333","25.0967566666667","6501400","蘆洲區"
"247016","001-UY","2017/07/10 17:48:10","新北市蘆洲區光華路110巷38號","121.465823333333","25.0840366666667","6501400","蘆洲區"
"228003","097-TW","2017/07/10 17:48:00","新北市貢寮區真理里延平街56號","121.92485","25.0572916666667","6502600","貢寮區"
"228002","585-TW","2017/07/10 17:48:08","新北市貢寮區福隆里外隆林街14-1號","121.959168333333","25.0037266666667","6502600","貢寮區"
"228001","670-TC","2017/07/10 17:47:57","新北市貢寮區仁理村仁愛路95-1號","121.927725","25.0554933333333","6502600","貢寮區"
"224006","676-BX","2017/07/10 17:48:00","新北市瑞芳區傑魚坑路38號","121.793998333333","25.1105766666667","6501200","瑞芳區"
"224002","639-TC","2017/07/10 17:39:32","新北市瑞芳區明燈路二段89號","121.809731666667","25.1082166666667","6501200","瑞芳區"
"224009","285-BY","2017/07/10 17:48:03","新北市瑞芳區金光路259號","121.849426666667","25.10853","6501200","瑞芳區"
"224008","275-VK","2017/07/10 17:48:07","新北市瑞芳區明燈路一段75號","121.820135","25.1070083333333","6501200","瑞芳區"
"224005","271-BY","2017/07/10 17:48:11","新北市瑞芳區海濱路29-9號","121.830751666667","25.1243766666667","6501200","瑞芳區"
"253006","032-BX","2017/07/10 17:47:54","新北市石門區中山路37號","121.566921666667","25.2911416666667","6502200","石門區"
"208003","665-BX","2017/07/10 17:45:34","新北市金山區磺清路135號","121.639435","25.22773","6502700","金山區"
"208001","761-BX","2017/07/10 17:47:58","新北市金山區磺清路135號","121.639298333333","25.2277016666667","6502700","金山區"
"251009","008-UM","2017/07/10 17:32:14","新北市淡水區重建街1巷7號","121.439723333333","25.1736583333333","6501000","淡水區"
"251004","009-UM","2017/07/10 17:48:06","新北市淡水區民權路6-4號","121.459263333333","25.1392216666667","6501000","淡水區"
"251001","011-UM","2017/07/10 17:48:04","新北市淡水區民權路92巷35-1號","121.462198333333","25.1266883333333","6501000","淡水區"
"251007","179-VK","2017/07/10 17:47:55","新北市淡水區民生路52巷25號","121.462841666667","25.13768","6501000","淡水區"
"251013","180-VK","2017/07/10 17:48:01","新北市淡水區泉洲厝31號","121.479556666667","25.1910016666667","6501000","淡水區"
"251008","181-VK","2017/07/10 17:48:07","新北市淡水區八勢路一段133號","121.467068333333","25.1577366666667","6501000","淡水區"
"251010","413-VK","2017/07/10 17:48:11","新北市淡水區淡海路280巷33弄34-2號","121.418721666667","25.1886266666667","6501000","淡水區"
"251012","441-VK","2017/07/10 17:47:54","新北市淡水區北新路一段169-1號","121.459211666667","25.1821933333333","6501000","淡水區"
"251015","442-VK","2017/07/10 17:47:54","新北市淡水區興福寮32-2號","121.490248333333","25.162915","6501000","淡水區"
"251005","443-VK","2017/07/10 17:47:55","新北市淡水區學府路104號","121.449955","25.1719083333333","6501000","淡水區"
"251006","561-UM","2017/07/10 17:48:02","新北市淡水區大信街1巷25號","121.440288333333","25.1767233333333","6501000","淡水區"
"251011","650-BX","2017/07/10 17:44:13","新北市淡水區吳(仔)厝10-3號","121.48214","25.149655","6501000","淡水區"
"251002","672-BX","2017/07/10 17:48:08","新北市淡水區中山路94號","121.442601666667","25.1706533333333","6501000","淡水區"
"251003","766-UM","2017/07/10 17:48:04","新北市淡水區大忠街22號","121.443281666667","25.1760466666667","6501000","淡水區"
"207003","550-UM","2017/07/10 17:47:59","新北市萬里區野柳里東澳路66號","121.692665","25.2008966666667","6502800","萬里區"
"207004","225-TW","2017/07/10 17:48:02","新北市萬里區萬里里瑪鋉路79號","121.688386666667","25.1765233333333","6502800","萬里區"
"252002","178-VK","2017/07/10 17:48:06","新北市三芝區中正路二段8號","121.504696666667","25.25552","6502100","三芝區"
"252001","292-VK","2017/07/10 17:48:05","新北市三芝區中山路一段30號","121.501246666667","25.2581383333333","6502100","三芝區"
"208002","170-UY","2017/07/10 15:47:07","新北市金山區磺清路135號","121.639303333333","25.22773","6502700","金山區"
"237004","078-UY","2017/07/10 17:47:54","新北市三峽區中山路175號","121.363641666667","24.93682","6500900","三峽區"
"237007","153-BY","2017/07/10 17:47:57","新北市三峽區中正路一段392號","121.37093","24.9233266666667","6500900","三峽區"
"237009","210-TH","2017/07/10 17:48:07","新北市三峽區大勇路70號","121.367171666667","24.936385","6500900","三峽區"
"237013","252-BX","2017/07/10 17:47:56","新北市三峽區愛國路33-8號","121.374461666667","24.93329","6500900","三峽區"
"237012","275-BY","2017/07/10 17:48:03","新北市三峽區中山路108號","121.365956666667","24.9356116666667","6500900","三峽區"
"237008","302-VK","2017/07/10 17:47:58","新北市三峽區民權街134號","121.368658333333","24.9318633333333","6500900","三峽區"
"237014","433-BY","2017/07/10 17:47:56","新北市三峽區文化路158號","121.370085","24.936115","6500900","三峽區"
"237006","5529-G3","2017/07/10 17:47:50","新北市三峽區介壽路二段38巷104號","121.392171666667","24.9334416666667","6500900","三峽區"
"237011","572-TV","2017/07/10 17:48:02","新北市三峽區光明路69巷12號","121.37631","24.9285383333333","6500900","三峽區"
"237015","649-BX","2017/07/10 17:48:05","新北市三峽區白雞68-317號","121.391898333333","24.91012","6500900","三峽區"
"237010","706-TV","2017/07/10 17:47:52","新北市三峽區和平街26號","121.37022","24.9367533333333","6500900","三峽區"
"237005","AKY-6261","2017/07/10 17:48:03","新北市三峽區中山路459巷92號","121.354528333333","24.9361033333333","6500900","三峽區"
"236069","105-UM","2017/07/10 17:48:09","新北市土城區城林路6巷80號","121.438558333333","24.97979","6501300","土城區"
"236042","107-UM","2017/07/10 17:48:08","新北市土城區城林路6巷80號","121.4386","24.979735","6501300","土城區"
"236078","166-UM","2017/07/10 17:47:54","新北市土城區中央路三段92-1號","121.435968333333","24.9667166666667","6501300","土城區"
"236026","269-VK","2017/07/10 17:48:01","新北市土城區城林路6巷80號","121.438526666667","24.9795633333333","6501300","土城區"
"236014","270-VK","2017/07/10 17:47:53","新北市土城區城林路6巷80號","121.438623333333","24.9796766666667","6501300","土城區"
"236036","271-VK","2017/07/10 17:48:05","新北市土城區城林路6巷80號","121.438496666667","24.9797683333333","6501300","土城區"
"236020","401-BY","2017/07/10 17:47:52","新北市土城區城林路6巷80號","121.438436666667","24.9795966666667","6501300","土城區"
"236048","913-UM","2017/07/10 17:47:51","新北市土城區城林路6巷80號","121.438591666667","24.979705","6501300","土城區"
"236062","915-UM","2017/07/10 17:47:52","新北市土城區城林路6巷80號","121.43866","24.9796883333333","6501300","土城區"
"242021","AAC-296","2017/07/10 17:47:51","新北市新莊區中華路一段228號","121.452626666667","25.04318","6500500","新莊區"
"242048","751-BX","2017/07/10 17:48:03","新北市新莊區萬安街144號","121.42014","25.02122","6500500","新莊區"
"242029","705-TV","2017/07/10 17:48:08","新北市新莊區復興路一段45號","121.44696","25.042135","6500500","新莊區"
"242025","615-BX","2017/07/10 17:48:01","新北市新莊區新北大道二段167號","121.465103333333","25.0610316666667","6500500","新莊區"
"242023","613-BX","2017/07/10 17:48:10","新北市新莊區福樂街28號","121.457885","25.0453133333333","6500500","新莊區"
"242027","612-BX","2017/07/10 17:48:09","新北市新莊區福壽街140號","121.457655","25.0518683333333","6500500","新莊區"
"242036","566-BX","2017/07/10 17:48:12","新北市新莊區後港一路65巷6號","121.426621666667","25.0268316666667","6500500","新莊區"
"242042","497-BY","2017/07/10 17:48:05","新北市新莊區中正路614巷6弄2號","121.425566666667","25.0306816666667","6500500","新莊區"
"242004","442-UM","2017/07/10 17:48:03","新北市新莊區思源路177巷18號","121.459328333333","25.0457366666667","6500500","新莊區"
"242046","441-UM","2017/07/10 17:48:10","新北市新莊區建國一路59號","121.434606666667","25.0301366666667","6500500","新莊區"
"242031","415-TV","2017/07/10 17:48:09","新北市新莊區新泰路357巷1弄17號","121.442943333333","25.0406516666667","6500500","新莊區"
"242002","413-TV","2017/07/10 17:48:00","新北市新莊區景德路192號","121.449961666667","25.0341316666667","6500500","新莊區"
"242039","400-BY","2017/07/10 17:47:58","新北市新莊區富國路204號","121.424926666667","25.02423","6500500","新莊區"
"242060","362-BY","2017/07/10 17:47:36","新北市新莊區新樹路601號","121.4331","25.0058966666667","6500500","新莊區"
"242058","353-BY","2017/07/10 17:48:08","新北市新莊區中正路726-15號","121.415131666667","25.02377","6500500","新莊區"
"242011","132-UY","2017/07/10 17:48:12","新北市新莊區中港路699號","121.450686666667","25.057075","6500500","新莊區"
"242034","133-UY","2017/07/10 17:48:06","新北市新莊區新樹路13號","121.440833333333","25.0328633333333","6500500","新莊區"
"242019","135-UY","2017/07/10 17:47:53","新北市新莊區復興路二段61號","121.455206666667","25.044215","6500500","新莊區"
"242044","172-VK","2017/07/10 17:47:56","新北市新莊區中正路855巷21號","121.420241666667","25.026935","6500500","新莊區"
"242007","173-VK","2017/07/10 17:48:09","新北市新莊區福壽街49巷4號","121.457951666667","25.0489433333333","6500500","新莊區"
"242056","176-VK","2017/07/10 17:48:02","新北市新莊區瓊林路38-11號","121.447895","25.0299516666667","6500500","新莊區"
"242013","346-TH","2017/07/10 17:47:56","新北市新莊區中誠街142巷15弄2號","121.44871","25.04837","6500500","新莊區"
"242050","347-TH","2017/07/10 17:48:10","新北市新莊區西盛街311巷21號","121.42897","25.01518","6500500","新莊區"
"242017","348-TH","2017/07/10 17:48:07","新北市新莊區永安街162號","121.448995","25.044415","6500500","新莊區"
"242053","349-TH","2017/07/10 17:48:01","新北市新莊區新樹路607號","121.433288333333","25.0054166666667","6500500","新莊區"
"242015","350-TH","2017/07/10 17:48:08","新北市新莊區新泰路464號","121.443246666667","25.0449366666667","6500500","新莊區"
"242009","351-TH","2017/07/10 17:48:02","新北市新莊區昌平街57號","121.454691666667","25.053065","6500500","新莊區"
"238015","755-BX","2017/07/10 17:47:58","新北市樹林區復興路72號","121.421951666667","24.9935766666667","6500700","樹林區"
"238023","601-UM","2017/07/10 17:48:08","新北市樹林區三福街60號","121.405226666667","25.0162783333333","6500700","樹林區"
"238019","599-UM","2017/07/10 17:48:07","新北市樹林區太元街66號","121.418613333333","24.9791","6500700","樹林區"
"238018","571-TV","2017/07/10 17:48:03","新北市樹林區鎮前街10號","121.426231666667","24.9931783333333","6500700","樹林區"
"238022","312-TH","2017/07/10 17:47:57","新北市樹林區太順街64號","121.417748333333","24.9793583333333","6500700","樹林區"
"238021","311-TH","2017/07/10 17:40:31","新北市樹林區佳園路二段65巷1-2號","121.391005","24.9603766666667","6500700","樹林區"
"238025","303-VK","2017/07/10 17:48:00","新北市樹林區三俊街96號","121.414308333333","25.01552","6500700","樹林區"
"238017","283-BY","2017/07/10 17:47:54","新北市樹林區三德街30巷23號","121.414675","25.0124316666667","6500700","樹林區"
"238014","282-BY","2017/07/10 17:48:07","新北市樹林區保安街一段338號","121.418095","24.998095","6500700","樹林區"
"238020","268-VK","2017/07/10 17:48:07","新北市樹林區三俊街300號","121.422986666667","25.0141233333333","6500700","樹林區"
"238026","172-UY","2017/07/10 17:48:06","新北市樹林區新興街19巷36弄5號","121.40245","24.9733","6500700","樹林區"
"238016","169-UY","2017/07/10 17:48:11","新北市樹林區復興路236號","121.418711666667","24.9894666666667","6500700","樹林區"
"239007","AAC-297","2017/07/10 17:48:12","新北市鶯歌區鶯桃路永富巷6號","121.338858333333","24.954645","6500800","鶯歌區"
"239006","891-R6","2017/07/10 17:48:06","新北市鶯歌區永和街115巷18號","121.33346","24.9689683333333","6500800","鶯歌區"
"239008","527-UM","2017/07/10 17:48:10","新北市鶯歌區大湖路718號","121.332931666667","24.9763066666667","6500800","鶯歌區"
"239005","526-UM","2017/07/10 17:47:57","新北市鶯歌區鳳吉四街21號","121.326695","24.972785","6500800","鶯歌區"
"239001","417-VK","2017/07/10 17:47:50","新北市鶯歌區中正三路363號","121.327611666667","24.9348616666667","6500800","鶯歌區"
"239003","360-BY","2017/07/10 17:48:03","新北市鶯歌區鶯桃路234巷1號","121.33645","24.95943","6500800","鶯歌區"
"239002","359-BY","2017/07/10 17:47:50","新北市鶯歌區育智路84-1號","121.345115","24.9547083333333","6500800","鶯歌區"
"239004","193-VK","2017/07/10 17:48:11","新北市鶯歌區文化路369-1號","121.352273333333","24.9508783333333","6500800","鶯歌區"
"221036","130-UY","2017/07/10 17:48:01","新北市汐止區長江街101-5號","121.659005","25.0733683333333","6501100","汐止區"
"221015","131-UY","2017/07/10 17:48:05","新北市汐止區汐萬路一段215號","121.652013333333","25.0723566666667","6501100","汐止區"
"221031","277-VK","2017/07/10 00:47:01","新北市汐止區汐萬路一段256巷3號","121.652483333333","25.0746383333333","6501100","汐止區"
"221012","278-VK","2017/07/10 17:48:04","新北市汐止區汐萬路一段184號","121.652276666667","25.0719133333333","6501100","汐止區"
"221023","279-VK","2017/07/10 13:29:10","台北市南港區研究院路四段299號","121.60482","25.0261983333333","6501100","汐止區"
"221032","280-BY","2017/07/10 17:48:10","新北市汐止區大同路一段122號","121.630721666667","25.0548","6501100","汐止區"
"221038","297-VK","2017/07/10 17:48:07","新北市汐止區康寧街901號","121.6515","25.0750133333333","6501100","汐止區"
"221029","298-VK","2017/07/10 17:48:08","新北市汐止區汐萬路一段256巷1號","121.651801666667","25.0748933333333","6501100","汐止區"
"221021","299-VK","2017/07/10 17:48:09","新北市汐止區水源路一段2號","121.657018333333","25.0671416666667","6501100","汐止區"
"221035","622-UM","2017/07/10 17:47:58","新北市汐止區汐萬路一段220號","121.651751666667","25.07288","6501100","汐止區"
"221025","623-UM","2017/07/10 17:48:09","新北市汐止區大同路二段173號","121.651646666667","25.0645133333333","6501100","汐止區"
"221010","646-BX","2017/07/10 17:47:57","新北市汐止區汐萬路二段62巷1號","121.649378333333","25.082205","6501100","汐止區"
"221033","647-BX","2017/07/10 17:47:57","新北市汐止區橫科路73巷20弄20號","121.61977","25.0516383333333","6501100","汐止區"
"221018","753-BX","2017/07/10 17:47:50","新北市汐止區大同路二段342號","121.656683333333","25.067035","6501100","汐止區"
"220010","295-UM","2017/07/10 17:03:21","新北市板橋區民生路二段36-1號","121.472578333333","25.0167833333333","6500100","板橋區"
