"lineid","car","time","location","longitude","latitude","cityid","cityname"
"234046","148-BY","2017/07/10 19:29:56","新北市永和區秀朗路二段88號","121.523413333333","25.0015816666667","6500400","永和區"
"234013","149-BY","2017/07/10 19:30:09","新北市永和區永和路二段133號","121.515046666667","25.0122683333333","6500400","永和區"
"234007","207-UY","2017/07/10 19:30:00","新北市永和區永和路一段84號","121.512983333333","25.0066","6500400","永和區"
"234081","298-R6","2017/07/10 19:30:04","新北市永和區環河東路三段60號","121.526993333333","25.0060316666667","6500400","永和區"
"234038","336-UY","2017/07/10 19:30:06","新北市永和區成功路一段123號","121.52696","25.0018833333333","6500400","永和區"
"234064","337-UY","2017/07/10 19:30:04","新北市永和區得和路243巷26號","121.520825","25.0010866666667","6500400","永和區"
"234086","338-UY","2017/07/10 19:30:10","新北市永和區林森路77號","121.523963333333","25.00395","6500400","永和區"
"234070","552-UM","2017/07/10 19:30:03","新北市永和區竹林路101號","121.519756666667","25.0119583333333","6500400","永和區"
"234054","553-UM","2017/07/10 19:29:54","新北市永和區復興街32巷2號","121.51614","25.01289","6500400","永和區"
"234017","745-BX","2017/07/10 19:30:09","新北市永和區環河西路一段87號","121.512355","25.0179","6500400","永和區"
"234030","746-BX","2017/07/10 19:30:04","新北市永和區民權路56號","121.520035","24.9982283333333","6500400","永和區"
"234061","AAD-866","2017/07/10 19:29:49","新北市永和區中正路499號","121.517016666667","25.0068933333333","6500400","永和區"
"234042","862-TW","2017/07/10 19:30:06","新北市永和區水源街39巷30號","121.510713333333","25.0031","6500400","永和區"
"234050","863-TW","2017/07/10 19:30:03","新北市永和區文化路121巷1號","121.512581666667","25.01511","6500400","永和區"
"234026","9371-KE","2017/07/10 19:30:08","新北市永和區安樂路104巷2弄4號","121.514493333333","24.9996383333333","6500400","永和區"
"249003","593-UM","2017/07/10 19:30:06","新北市八里區商港六路23號","121.39668","25.1485933333333","6502300","八里區"
"248014","025-BX","2017/07/10 19:30:01","新北市五股區民義路一段183巷8-2號","121.43018","25.08694","6501500","五股區"
"248008","095-VK","2017/07/10 19:29:52","新北市五股區中興路一段95巷22號","121.466533333333","25.072205","6501500","五股區"
"248018","225-UY","2017/07/10 19:28:11","新北市五股區壟路16-1號","121.414825","25.0853933333333","6501500","五股區"
"248012","247-BX","2017/07/10 19:06:12","新北市五股區中興路四段38巷11-1號","121.438793333333","25.08365","6501500","五股區"
"248010","272-BY","2017/07/10 19:30:09","新北市五股區自強路90巷72號","121.430673333333","25.071255","6501500","五股區"
"248002","678-BX","2017/07/10 19:30:11","新北市五股區凌雲路一段158巷6號","121.447768333333","25.1030783333333","6501500","五股區"
"234023","9380-KE","2017/07/10 19:30:06","新北市永和區環河東路二段8-2號","121.521771666667","25.013205","6500400","永和區"
"234077","969-R7","2017/07/10 19:30:10","新北市永和區民權路58巷3號","121.519621666667","24.99831","6500400","永和區"
"234074","AAC-211","2017/07/10 19:30:05","新北市永和區永和路二段334號","121.516261666667","25.01662","6500400","永和區"
"234067","AAC-212","2017/07/10 19:29:51","新北市永和區保平路190號","121.510408333333","25.0064633333333","6500400","永和區"
"234003","AAC-295","2017/07/10 19:27:52","新北市永和區永和路一段188號","121.51433","25.00913","6500400","永和區"
"244019","742-UY","2017/07/10 19:30:09","新北市林口區四維路112號","121.377178333333","25.0782716666667","6501700","林口區"
"243013","AAD-798","2017/07/10 19:29:51","新北市泰山區明志路三段145巷7號","121.42545","25.0399983333333","6501600","泰山區"
"243009","297-R6","2017/07/10 19:30:09","新北市泰山區半山雅4號","121.43165","25.067385","6501600","泰山區"
"243015","380-SR","2017/07/10 19:30:08","新北市泰山區明志路二段136巷1-1號","121.427361666667","25.0511483333333","6501600","泰山區"
"243014","421-VK","2017/07/10 19:29:51","新北市泰山區仁愛路159號","121.435103333333","25.0563866666667","6501600","泰山區"
"243010","548-UM","2017/07/10 19:30:01","新北市泰山區民生路17巷63號","121.429206666667","25.0509383333333","6501600","泰山區"
"243011","549-UM","2017/07/10 19:29:57","新北市泰山區貴子路67巷6號","121.430986666667","25.0406033333333","6501600","泰山區"
"243012","646-TV","2017/07/10 19:29:58","新北市泰山區仁愛路18號","121.431438333333","25.0544516666667","6501600","泰山區"
"243016","680-BX","2017/07/10 19:30:03","新北市泰山區明志路三段352巷10號","121.421313333333","25.0357466666667","6501600","泰山區"
"222003","436-BY","2017/07/10 19:30:01","新北市深坑區深南路88巷1號","121.621015","25.01172","6501800","深坑區"
"222001","628-TS","2017/07/10 19:30:06","新北市深坑區深坑街10號","121.615821666667","25.0027916666667","6501800","深坑區"
"222002","659-BX","2017/07/10 19:30:02","新北市深坑區北深路一段177號","121.632561666667","25.01086","6501800","深坑區"
"231061","001-UM","2017/07/10 19:29:51","新北市新店區安民街40號","121.5159","24.965315","6500600","新店區"
"231041","002-UM","2017/07/10 19:30:02","新北市新店區中正路566號","121.533865","24.9876266666667","6500600","新店區"
"231059","046-UY","2017/07/10 19:30:01","新北市新店區安和路三段116號","121.517025","24.9855533333333","6500600","新店區"
"231060","106-UY","2017/07/10 19:30:10","新北市新店區安康路二段57號","121.514148333333","24.96331","6500600","新店區"
"231051","107-UY","2017/07/10 19:29:59","新北市新店區中央五街28號","121.529003333333","24.9746583333333","6500600","新店區"
"231047","108-UY","2017/07/10 19:30:07","新北市新店區中興路一段216號","121.54415","24.9656383333333","6500600","新店區"
"231052","110-UY","2017/07/10 19:30:11","新北市新店區新烏路二段132號","121.54956","24.9202716666667","6500600","新店區"
"231057","256-BX","2017/07/10 19:29:52","新北市新店區花園一路三段36號","121.550051666667","24.9330433333333","6500600","新店區"
"231063","268-BY","2017/07/10 19:30:07","新北市新店區達觀路16號","121.503025","24.9409216666667","6500600","新店區"
"231046","278-BY","2017/07/10 19:30:07","新北市新店區北新路一段91號","121.538933333333","24.9618133333333","6500600","新店區"
"231050","AAD-862","2017/07/10 19:30:04","新北市新店區秀水路50號","121.555483333333","24.9564433333333","6500600","新店區"
"231058","3712-VJ","2017/07/10 19:29:57","新北市新店區永華街9號","121.543386666667","24.9770816666667","6500600","新店區"
"231065","512-UM","2017/07/10 19:29:56","新北市新店區安祥路109巷1弄33號","121.476816666667","24.9601916666667","6500600","新店區"
"231054","513-UM","2017/07/10 19:30:03","新北市新店區文中路51號","121.53985","24.956625","6500600","新店區"
"231064","515-UM","2017/07/10 19:30:09","新北市新店區安忠路57巷1-5號","121.513371666667","24.95956","6500600","新店區"
"231042","616-UM","2017/07/10 19:30:01","新北市新店區中興路一段136號","121.542078333333","24.9633733333333","6500600","新店區"
"231045","617-UM","2017/07/10 19:29:53","新北市新店區北宜路二段217號","121.5533","24.9534583333333","6500600","新店區"
"231040","619-UM","2017/07/10 19:30:05","新北市新店區北新路一段12號","121.540783333333","24.9654833333333","6500600","新店區"
"231049","719-UM","2017/07/10 19:29:56","新北市新店區北新路三段65巷34弄27號","121.539995","24.9819433333333","6500600","新店區"
"231062","720-UM","2017/07/10 19:29:57","新北市新店區莒光路12號","121.527068333333","24.9607983333333","6500600","新店區"
"231044","897-TW","2017/07/10 19:30:06","新北市新店區中興路三段173號","121.544205","24.9806816666667","6500600","新店區"
"231043","899-TW","2017/07/10 19:30:05","新北市新店區北新路二段256號","121.542906666667","24.977915","6500600","新店區"
"231066","AKT-0513","2017/07/10 19:30:01","新北市新店區安康路三段165巷2弄12號","121.489095","24.951375","6500600","新店區"
"241011","013-R5","2017/07/10 19:30:03","新北市三重區龍濱路168-1號","121.501321666667","25.072655","6500200","三重區"
"241028","022-UY","2017/07/10 19:30:08","新北市三重區中寮街59號","121.493163333333","25.0580666666667","6500200","三重區"
"241008","059-VK","2017/07/10 19:30:10","新北市三重區永福街111巷35弄14號","121.477395","25.0766883333333","6500200","三重區"
"241009","060-VK","2017/07/10 19:29:58","新北市三重區溪尾街242巷70號","121.486131666667","25.0814166666667","6500200","三重區"
"241031","061-VK","2017/07/10 19:29:54","新北市三重區集美街100號","121.488546666667","25.0541183333333","6500200","三重區"
"241017","063-VK","2017/07/10 19:30:07","新北市三重區民生街61巷1號","121.489213333333","25.0625733333333","6500200","三重區"
"241026","066-VK","2017/07/10 19:30:06","新北市三重區文化南路65巷47號","121.498741666667","25.060655","6500200","三重區"
"241020","156-TC","2017/07/10 19:30:05","新北市三重區三和路四段42號","121.490211666667","25.07452","6500200","三重區"
"241022","267-UM","2017/07/10 19:29:58","新北市三重區三民街157巷2號","121.483791666667","25.0645983333333","6500200","三重區"
"241032","269-UM","2017/07/10 19:30:09","新北市三重區三陽路123號","121.483528333333","25.0588816666667","6500200","三重區"
"241025","271-UM","2017/07/10 19:29:52","新北市三重區頂崁街210巷28弄5號","121.475761666667","25.0675416666667","6500200","三重區"
"241007","398-BY","2017/07/10 19:29:51","新北市三重區溪尾街160號","121.488866666667","25.0800483333333","6500200","三重區"
"241030","480-VK","2017/07/10 19:30:02","新北市三重區成功路41巷7號","121.49028","25.05143","6500200","三重區"
"241023","545-UM","2017/07/10 19:29:51","新北市三重區頂崁街99號","121.477993333333","25.0638166666667","6500200","三重區"
"241006","AAD-863","2017/07/10 19:30:04","新北市三重區自強路三段99號","121.487745","25.07532","6500200","三重區"
"241035","743-BX","2017/07/10 19:30:02","新北市三重區信義西街1巷3號","121.498038333333","25.06499","6500200","三重區"
"241029","942-UM","2017/07/10 19:29:53","新北市三重區中正南路216號","121.493895","25.0550966666667","6500200","三重區"
"235066","003-UY","2017/07/10 19:30:03","新北市中和區景新街48號","121.50387","24.999285","6500300","中和區"
"235064","005-UY","2017/07/10 19:30:06","新北市中和區連城路5號","121.499298333333","25.0022733333333","6500300","中和區"
"235056","096-UM","2017/07/10 19:30:04","新北市中和區民富街34號","121.476823333333","25.00657","6500300","中和區"
"235039","097-UM","2017/07/10 19:29:51","新北市中和區景平路3號","121.524001666667","24.9902816666667","6500300","中和區"
"235065","098-UM","2017/07/10 19:30:07","新北市中和區中山路二段64巷12弄16號","121.504033333333","25.00539","6500300","中和區"
"235040","150-BY","2017/07/10 19:29:59","新北市中和區保健路10巷25弄2號","121.508318333333","24.996475","6500300","中和區"
"235058","151-BY","2017/07/10 19:29:50","新北市中和區和城路一段271巷1號","121.485428333333","24.9918183333333","6500300","中和區"
"235055","183-VK","2017/07/10 19:30:09","新北市中和區莒光路120巷56號","121.47164","25.0009666666667","6500300","中和區"
"235038","185-VK","2017/07/10 19:29:51","新北市中和區大仁街20巷50號","121.520025","24.993405","6500300","中和區"
"235049","186-VK","2017/07/10 19:30:08","新北市中和區安和路9-1號","121.511351666667","24.9934783333333","6500300","中和區"
"235044","293-VK","2017/07/10 19:30:05","新北市中和區中興街250號","121.499411666667","24.9880166666667","6500300","中和區"
"235072","301-VK","2017/07/10 19:29:54","新北市中和區連城路265巷10弄1號","121.491683333333","24.995245","6500300","中和區"
"235043","352-BY","2017/07/10 19:30:05","新北市中和區南華路14號","121.502501666667","24.9953883333333","6500300","中和區"
"235051","376-QA","2017/07/10 19:30:04","新北市中和區景平路239巷11號","121.509563333333","24.9922716666667","6500300","中和區"
"235068","377-QA","2017/07/10 19:26:11","新北市中和區景平路545巷1弄1號","121.498425","24.99916","6500300","中和區"
"235061","378-QA","2017/07/10 19:21:45","新北市中和區員山路314巷8號","121.481898333333","25.0027616666667","6500300","中和區"
"235050","4979-A6","2017/07/10 19:29:57","新北市中和區中正路440號","121.491035","24.994415","6500300","中和區"
"235069","4980-A6","2017/07/10 19:30:05","新北市中和區建一路1-1號","121.48807","25.004145","6500300","中和區"
"235042","551-UM","2017/07/10 19:30:04","新北市中和區中和路378巷23號","121.511586666667","25.0015783333333","6500300","中和區"
"235070","558-UM","2017/07/10 19:29:53","新北市中和區中和路6號","121.499498333333","25.0022283333333","6500300","中和區"
"235045","565-BX","2017/07/10 19:30:04","新北市中和區景新街423巷33弄1號","121.513886666667","24.9897483333333","6500300","中和區"
"235054","640-BX","2017/07/10 19:29:56","新北市中和區國光街109巷24號","121.46953","24.9997566666667","6500300","中和區"
"235060","647-TV","2017/07/10 19:30:09","新北市中和區員山路473號","121.480375","25.0048016666667","6500300","中和區"
"235047","732-UM","2017/07/10 19:29:56","新北市中和區景平路239巷36號","121.508368333333","24.99214","6500300","中和區"
"235046","733-UM","2017/07/10 19:30:10","新北市中和區忠孝街37巷30號","121.510825","24.9842483333333","6500300","中和區"
"235071","783-BX","2017/07/10 19:29:59","新北市中和區連城路469巷21弄22號","121.484233333333","24.9950783333333","6500300","中和區"
"235057","801-TS","2017/07/10 19:30:02","新北市中和區民利街1號","121.48102","24.9991716666667","6500300","中和區"
"235041","802-TS","2017/07/10 19:29:57","新北市中和區中和路298號","121.508596666667","24.9998816666667","6500300","中和區"
"235052","805-TS","2017/07/10 19:30:09","新北市中和區華新街143巷65弄2號","121.506681666667","24.978925","6500300","中和區"
"235048","896-TW","2017/07/10 19:30:07","新北市中和區四維街21號","121.512951666667","24.9871033333333","6500300","中和區"
"235053","900-TW","2017/07/10 19:30:04","新北市中和區華順街60號","121.465381666667","24.9983033333333","6500300","中和區"
"235063","911-UM","2017/07/10 19:29:53","新北市中和區連勝街137號","121.494701666667","24.9957183333333","6500300","中和區"
"235037","AAC-213","2017/07/10 19:29:51","新北市中和區秀朗路三段60巷29號","121.525358333333","24.9949333333333","6500300","中和區"
"235059","AAC-215","2017/07/10 19:29:56","新北市中和區圓通路252巷7號","121.493255","24.9915466666667","6500300","中和區"
"220068","013-TV","2017/07/10 19:30:03","新北市板橋區翠華街10巷1號","121.48276","25.0248816666667","6500100","板橋區"
"220065","072-UY","2017/07/10 19:29:55","新北市板橋區國泰街39巷6弄30號","121.46786","25.005615","6500100","板橋區"
"220086","073-UY","2017/07/10 19:30:08","新北市板橋區國光路31巷17號","121.456743333333","25.0184566666667","6500100","板橋區"
"220069","AAD-861","2017/07/10 19:30:08","新北市板橋區華興街29號","121.458393333333","25.0044633333333","6500100","板橋區"
"220106","120-SR","2017/07/10 19:30:10","新北市板橋區長江路三段68號","121.473906666667","25.0340083333333","6500100","板橋區"
"247006","341-TH","2017/07/10 19:06:37","新北市五股區中興路三段163號","121.449278333333","25.0808","6501400","蘆洲區"
"247002","336-TH","2017/07/10 19:29:56","新北市五股區芳洲九路36號","121.447816666667","25.0876083333333","6501400","蘆洲區"
"247014","057-VK","2017/07/10 19:30:09","新北市蘆洲區復興路13-1號","121.472121666667","25.0854833333333","6501400","蘆洲區"
"226004","312-R5","2017/07/10 19:30:00","新北市平溪區十分里十分街212號","121.779323333333","25.04436","6502400","平溪區"
"228003","097-TW","2017/07/10 19:30:00","新北市貢寮區和美里和美街19-2號","121.91283","25.0825783333333","6502600","貢寮區"
"228002","585-TW","2017/07/10 19:30:08","新北市貢寮區龍門里龍門街78號","121.931015","25.02658","6502600","貢寮區"
"228001","670-TC","2017/07/10 19:29:57","新北市貢寮區真理里延平街68號","121.925421666667","25.0574183333333","6502600","貢寮區"
"224006","676-BX","2017/07/10 19:29:59","新北市瑞芳區三爪子坑路118-10號","121.806981666667","25.10518","6501200","瑞芳區"
"224002","639-TC","2017/07/10 19:30:08","新北市瑞芳區三爪子坑路13巷5號","121.81403","25.1072966666667","6501200","瑞芳區"
"227008","642-TC","2017/07/10 19:29:53","新北市雙溪區新基里新基北街43號","121.868221666667","25.0397216666667","6502500","雙溪區"
"227001","400-TW","2017/07/10 19:30:06","新北市雙溪區雙溪里光復街14號","121.865066666667","25.0354383333333","6502500","雙溪區"
"253006","032-BX","2017/07/10 19:29:54","新北市石門區楓林23-10號","121.53875","25.291145","6502200","石門區"
"253005","295-VK","2017/07/10 19:29:50","新北市石門區小坑14-3號","121.60109","25.2870033333333","6502200","石門區"
"208003","665-BX","2017/07/10 19:30:07","新北市金山區中山路263巷10號","121.636256666667","25.2217033333333","6502700","金山區"
"208001","761-BX","2017/07/10 19:29:57","新北市金山區金包里街131號","121.6368","25.2224633333333","6502700","金山區"
"251009","008-UM","2017/07/10 19:12:14","新北市淡水區中正路8巷2-1號","121.441745","25.1698383333333","6501000","淡水區"
"251001","011-UM","2017/07/10 19:30:04","新北市淡水區民權路157號","121.459938333333","25.1361","6501000","淡水區"
"251007","179-VK","2017/07/10 19:29:56","新北市淡水區坪頂路13號","121.455471666667","25.160445","6501000","淡水區"
"251013","180-VK","2017/07/10 19:30:01","新北市淡水區安子內18號","121.471926666667","25.2187","6501000","淡水區"
"251008","181-VK","2017/07/10 19:30:07","新北市淡水區中正路一段66號","121.425296666667","25.17693","6501000","淡水區"
"251010","413-VK","2017/07/10 19:30:11","新北市淡水區中正路二段152巷28號","121.424095","25.187935","6501000","淡水區"
"251015","442-VK","2017/07/10 19:29:54","新北市淡水區北新路三段38巷7號","121.484553333333","25.1869733333333","6501000","淡水區"
"251005","443-VK","2017/07/10 19:29:55","新北市淡水區水源街一段47巷16號","121.444021666667","25.1729316666667","6501000","淡水區"
"251006","561-UM","2017/07/10 19:30:02","新北市淡水區大義街29巷8號","121.442048333333","25.1781266666667","6501000","淡水區"
"251011","650-BX","2017/07/10 19:29:53","新北市淡水區中正東路二段143巷2弄1號","121.460726666667","25.1473566666667","6501000","淡水區"
"251003","766-UM","2017/07/10 19:30:03","新北市淡水區崁頂70-2號","121.43776","25.2027816666667","6501000","淡水區"
"207003","550-UM","2017/07/10 19:29:59","新北市萬里區大鵬里萬里加投199號","121.64398","25.21512","6502800","萬里區"
"207004","225-TW","2017/07/10 19:30:02","新北市萬里區萬里里瑪鋉路121號","121.689036666667","25.17807","6502800","萬里區"
"252002","178-VK","2017/07/10 19:30:06","新北市三芝區淡金路二段18-1號","121.502713333333","25.2595416666667","6502100","三芝區"
"252001","292-VK","2017/07/10 19:30:05","新北市三芝區長勤街63-1號","121.50007","25.2561133333333","6502100","三芝區"
"208002","170-UY","2017/07/10 19:05:50","新北市金山區仁愛路37-6號","121.63616","25.2199583333333","6502700","金山區"
"237004","078-UY","2017/07/10 19:29:54","新北市三峽區有木39號","121.432348333333","24.8630283333333","6500900","三峽區"
"237007","153-BY","2017/07/10 19:29:57","新北市三峽區二鬮路178號","121.359093333333","24.9068133333333","6500900","三峽區"
"237009","210-TH","2017/07/10 19:30:07","新北市三峽區民權街29號","121.370076666667","24.9341916666667","6500900","三峽區"
"237013","252-BX","2017/07/10 19:29:56","新北市三峽區介壽路一段276巷88弄3號","121.379561666667","24.928625","6500900","三峽區"
"237012","275-BY","2017/07/10 19:30:03","新北市三峽區三樹路98巷169號","121.384481666667","24.9393683333333","6500900","三峽區"
"237008","302-VK","2017/07/10 19:29:57","新北市三峽區永安街87號","121.374808333333","24.9291033333333","6500900","三峽區"
"237014","433-BY","2017/07/10 19:30:00","新北市三峽區中山路287號","121.361735","24.9376166666667","6500900","三峽區"
"237006","5529-G3","2017/07/10 19:30:10","新北市三峽區中正路一段336巷15弄2號","121.369988333333","24.9249433333333","6500900","三峽區"
"237011","572-TV","2017/07/10 19:30:02","新北市三峽區中正路一段171號","121.372823333333","24.92834","6500900","三峽區"
"237015","649-BX","2017/07/10 19:30:05","新北市三峽區建安25-3號","121.44532","24.9272216666667","6500900","三峽區"
"237010","706-TV","2017/07/10 19:22:32","新北市三峽區民生街79號","121.374738333333","24.9358766666667","6500900","三峽區"
"237005","AKY-6261","2017/07/10 19:30:03","新北市三峽區復興路367巷3號","121.363663333333","24.9381033333333","6500900","三峽區"
"236069","105-UM","2017/07/10 19:30:09","新北市土城區學府路一段143巷20弄2號","121.453933333333","24.9854016666667","6501300","土城區"
"236078","166-UM","2017/07/10 19:29:54","新北市土城區中州路3巷46號","121.413586666667","24.956625","6501300","土城區"
"236030","253-BX","2017/07/10 19:30:08","新北市土城區中央路一段363號","121.443125","24.9809633333333","6501300","土城區"
"236026","269-VK","2017/07/10 19:30:01","新北市土城區中央路二段61巷28號","121.443515","24.9788116666667","6501300","土城區"
"236020","401-BY","2017/07/10 19:30:11","新北市土城區峰廷街3號","121.469123333333","24.9873766666667","6501300","土城區"
"236058","912-UM","2017/07/10 19:30:00","新北市土城區中央路二段97號","121.442195","24.9779583333333","6501300","土城區"
"236048","913-UM","2017/07/10 19:30:11","新北市土城區清水路196號","121.460406666667","24.9817633333333","6501300","土城區"
"236053","AAC-216","2017/07/10 19:29:56","新北市土城區學府路一段276號","121.45006","24.9830666666667","6501300","土城區"
"238015","755-BX","2017/07/10 19:30:11","新北市樹林區復興路315號","121.418593333333","24.9886283333333","6500700","樹林區"
"238023","601-UM","2017/07/10 19:30:08","新北市樹林區三興路51號","121.395326666667","25.0142883333333","6500700","樹林區"
"238019","599-UM","2017/07/10 19:29:53","新北市樹林區東榮街24號","121.417793333333","24.9834633333333","6500700","樹林區"
"238018","571-TV","2017/07/10 19:30:03","新北市樹林區中華路81號","121.422816666667","24.9829833333333","6500700","樹林區"
"238024","5061-A6","2017/07/10 19:30:02","新北市樹林區福德街48號","121.399386666667","24.9747166666667","6500700","樹林區"
"238022","312-TH","2017/07/10 18:46:54","新北市樹林區中山路三段204號","121.387206666667","24.9683483333333","6500700","樹林區"
"238021","311-TH","2017/07/10 17:40:31","新北市樹林區佳園路二段65巷1-2號","121.391005","24.9603766666667","6500700","樹林區"
"238022","308-TH","2017/07/10 19:30:03","新北市樹林區國凱街37號","121.420208333333","24.9788483333333","6500700","樹林區"
"238025","303-VK","2017/07/10 19:30:00","新北市樹林區中山路一段106號","121.423063333333","24.9908966666667","6500700","樹林區"
"238017","283-BY","2017/07/10 19:30:06","新北市樹林區光興街155巷10號","121.407485","25.0034433333333","6500700","樹林區"
"238014","282-BY","2017/07/10 19:19:27","新北市樹林區中正路17號","121.427665","24.9991066666667","6500700","樹林區"
"238020","268-VK","2017/07/10 19:29:53","新北市樹林區俊英街123巷1號","121.424576666667","25.0106583333333","6500700","樹林區"
"238026","172-UY","2017/07/10 19:30:06","新北市樹林區佳園路三段23號","121.38827","24.9547316666667","6500700","樹林區"
"238016","169-UY","2017/07/10 19:30:11","新北市樹林區復興路416號","121.414351666667","24.9845616666667","6500700","樹林區"
"239007","AAC-297","2017/07/10 19:29:51","新北市鶯歌區大湖路230號","121.344036666667","24.9679133333333","6500800","鶯歌區"
"239006","891-R6","2017/07/10 19:30:03","新北市鶯歌區鶯桃路91巷42弄2號","121.336995","24.9520466666667","6500800","鶯歌區"
"239008","527-UM","2017/07/10 19:30:10","新北市鶯歌區大湖路468巷8號","121.339706666667","24.97253","6500800","鶯歌區"
"239005","526-UM","2017/07/10 19:29:57","新北市鶯歌區中湖街63號","121.349173333333","24.9747416666667","6500800","鶯歌區"
"239001","417-VK","2017/07/10 19:29:50","新北市鶯歌區鶯桃路39-2號","121.342653333333","24.9509833333333","6500800","鶯歌區"
"239003","360-BY","2017/07/10 19:30:03","新北市鶯歌區建國路310號","121.344108333333","24.952275","6500800","鶯歌區"
"239004","193-VK","2017/07/10 19:29:52","新北市鶯歌區二甲路33號","121.340301666667","24.937505","6500800","鶯歌區"
"221008","489-VK","2017/07/10 19:30:07","新北市汐止區康寧街241號","121.62463","25.066875","6501100","汐止區"
"221036","130-UY","2017/07/10 19:30:01","新北市汐止區汐萬路一段256巷1號","121.651815","25.0748916666667","6501100","汐止區"
"221015","131-UY","2017/07/10 19:30:05","新北市汐止區汐萬路一段256巷1號","121.65167","25.0748583333333","6501100","汐止區"
"221031","277-VK","2017/07/10 00:47:01","新北市汐止區汐萬路一段256巷3號","121.652483333333","25.0746383333333","6501100","汐止區"
"221012","278-VK","2017/07/10 19:30:08","新北市汐止區大同路三段174號","121.674045","25.0751016666667","6501100","汐止區"
"221023","279-VK","2017/07/10 18:54:43","新北市汐止區康寧街885巷24號","121.65178","25.0766866666667","6501100","汐止區"
"221027","281-BY","2017/07/10 19:29:59","新北市汐止區水源路一段32號","121.65715","25.0663566666667","6501100","汐止區"
"221038","297-VK","2017/07/10 19:29:58","新北市汐止區汐萬路一段312號","121.650366666667","25.0749533333333","6501100","汐止區"
"221029","298-VK","2017/07/10 19:30:08","新北市汐止區康寧街901號","121.651588333333","25.074945","6501100","汐止區"
"221021","299-VK","2017/07/10 19:00:29","新北市汐止區康寧街901號","121.651283333333","25.0752566666667","6501100","汐止區"
"221025","623-UM","2017/07/10 19:30:09","新北市汐止區新台五路二段10號","121.660316666667","25.0650416666667","6501100","汐止區"
"221010","646-BX","2017/07/10 19:29:53","新北市汐止區康寧街901號","121.651533333333","25.0750166666667","6501100","汐止區"
"221033","647-BX","2017/07/10 19:29:56","新北市汐止區南勢街3號","121.627108333333","25.03747","6501100","汐止區"
"221002","707-TV","2017/07/10 19:29:59","新北市汐止區大同路一段335號","121.638443333333","25.0594983333333","6501100","汐止區"
"220079","145-BY","2017/07/10 19:29:55","新北市板橋區民權路202巷13弄17號","121.45993","25.0161466666667","6500100","板橋區"
"220082","610-BX","2017/07/10 19:30:11","新北市板橋區篤行路三段99號","121.426068333333","24.98461","6500100","板橋區"
"220101","245-BX","2017/07/10 19:30:08","新北市板橋區縣民大道三段127巷19號","121.476736666667","25.0236266666667","6500100","板橋區"
"220103","257-TC","2017/07/10 19:30:07","新北市板橋區文化路一段270巷2號","121.467376666667","25.02047","6500100","板橋區"
"220091","267-BY","2017/07/10 19:29:50","新北市板橋區文聖街135巷25號","121.478991666667","25.028945","6500100","板橋區"
"220056","276-BY","2017/07/10 19:29:53","新北市板橋區信義路1巷26弄50號","121.459676666667","24.9966716666667","6500100","板橋區"
"220072","277-BY","2017/07/10 19:29:52","新北市板橋區篤行路二段161巷18號","121.429701666667","24.987425","6500100","板橋區"
"220071","283-VK","2017/07/10 19:29:56","新北市板橋區大豐街31號","121.46198","25.001305","6500100","板橋區"
"220094","285-UM","2017/07/10 19:30:11","新北市板橋區吳鳳路17巷24號","121.467616666667","25.0295983333333","6500100","板橋區"
"220053","285-VK","2017/07/10 19:30:09","新北市板橋區永豐街205號","121.476545","25.021035","6500100","板橋區"
"220083","286-VK","2017/07/10 19:30:02","新北市板橋區龍興街95巷1號","121.444076666667","25.0023466666667","6500100","板橋區"
"220081","287-VK","2017/07/10 19:30:05","新北市板橋區南雅南路一段131號","121.454986666667","25.0044816666667","6500100","板橋區"
"220090","288-VK","2017/07/10 19:29:53","新北市板橋區長江路一段106巷12弄2號","121.459955","25.0290566666667","6500100","板橋區"
"220061","293-UM","2017/07/10 19:29:59","新北市板橋區中山路二段311號","121.47884","25.0185533333333","6500100","板橋區"
"220062","295-UM","2017/07/10 19:29:53","新北市板橋區三民路二段205-2號","121.479345","25.0132233333333","6500100","板橋區"
"220084","296-UM","2017/07/10 19:30:10","新北市板橋區溪北路73巷4號","121.42841","24.98985","6500100","板橋區"
"220075","297-UM","2017/07/10 19:29:57","新北市板橋區中正路253巷11號","121.455115","25.01805","6500100","板橋區"
"220092","299-UM","2017/07/10 19:30:00","新北市板橋區光武街2巷35號","121.468791666667","25.025895","6500100","板橋區"
"220098","317-R6","2017/07/10 19:30:03","新北市板橋區四維路266巷2弄27號","121.464178333333","25.028185","6500100","板橋區"
"220080","461-BY","2017/07/10 19:29:54","新北市板橋區大觀路二段3巷28號","121.448111666667","25.00365","6500100","板橋區"
"220064","486-VK","2017/07/10 19:29:56","新北市板橋區館前東路48號","121.460796666667","25.0072433333333","6500100","板橋區"
"220089","487-VK","2017/07/10 19:30:06","新北市板橋區文化路一段135號","121.462133333333","25.0151433333333","6500100","板橋區"
"220088","491-VK","2017/07/10 19:28:53","新北市板橋區雙十路二段76巷2號","121.475118333333","25.0279733333333","6500100","板橋區"
"220035","560-BX","2017/07/10 19:30:07","新北市板橋區中正路433巷11號","121.453801666667","25.0234283333333","6500100","板橋區"
"220063","609-BX","2017/07/10 19:30:08","新北市板橋區翠華街7巷1號","121.480206666667","25.02401","6500100","板橋區"
"220057","686-BX","2017/07/10 19:29:53","新北市板橋區和平路174巷1弄4號","121.464241666667","24.9951266666667","6500100","板橋區"
"220077","687-BX","2017/07/10 19:30:03","新北市板橋區僑中二街108巷2號","121.445938333333","25.007375","6500100","板橋區"
"220093","689-BX","2017/07/10 19:30:02","新北市板橋區英士路49-1號","121.461105","25.0245366666667","6500100","板橋區"
"220054","741-BX","2017/07/10 19:30:08","新北市板橋區重慶路155巷49號","121.463858333333","25.0042183333333","6500100","板橋區"
"220055","827-TW","2017/07/10 19:29:53","新北市板橋區重慶路278巷2-3號","121.462766666667","24.9996983333333","6500100","板橋區"
"220067","829-TW","2017/07/10 19:30:03","新北市板橋區漢生東路299巷30號","121.472628333333","25.008795","6500100","板橋區"
"220102","830-TW","2017/07/10 19:29:57","新北市板橋區松柏街22巷29號","121.475153333333","25.02932","6500100","板橋區"
"220096","831-TW","2017/07/10 19:29:57","新北市板橋區大同街35巷23號","121.476693333333","25.027675","6500100","板橋區"
"220074","895-R6","2017/07/10 19:29:59","新北市板橋區中正路自強新村91-1號","121.45487","25.0131533333333","6500100","板橋區"
"220073","985-R7","2017/07/10 19:30:09","新北市板橋區瑞安街59號","121.455478333333","25.0219333333333","6500100","板橋區"
"220097","AAC-210","2017/07/10 19:30:09","新北市板橋區陽明街131號","121.463348333333","25.023655","6500100","板橋區"
"220070","AAC-253","2017/07/10 19:29:56","新北市板橋區忠孝路136號","121.463586666667","25.0023633333333","6500100","板橋區"
