"lineid","car","time","location","longitude","latitude","cityid","cityname"
"234046","148-BY","2017/07/10 20:17:56","新北市永和區得和路397號","121.525546666667","24.9992266666667","6500400","永和區"
"234013","149-BY","2017/07/10 20:18:09","新北市永和區保生路3號","121.506368333333","25.0073466666667","6500400","永和區"
"234007","207-UY","2017/07/10 20:18:00","新北市永和區保順路37巷9號","121.50305","25.0103","6500400","永和區"
"234081","298-R6","2017/07/10 20:18:04","新北市永和區永亨路100號","121.523101666667","25.00482","6500400","永和區"
"234038","336-UY","2017/07/10 20:18:06","新北市永和區成功路一段93巷11-1號","121.527655","25.0027616666667","6500400","永和區"
"234064","337-UY","2017/07/10 20:18:07","新北市永和區得和路259號","121.521343333333","24.99984","6500400","永和區"
"234086","338-UY","2017/07/10 20:18:10","新北市永和區中正路613號","121.516265","25.0097716666667","6500400","永和區"
"234070","552-UM","2017/07/10 20:18:03","新北市永和區永利路27號","121.518321666667","25.0060716666667","6500400","永和區"
"234054","553-UM","2017/07/10 20:18:06","新北市永和區光復街2巷14號","121.517041666667","25.01642","6500400","永和區"
"234017","745-BX","2017/07/10 20:18:06","新北市永和區文化路2號","121.515606666667","25.0150533333333","6500400","永和區"
"234030","746-BX","2017/07/10 20:18:04","新北市永和區民有街67巷8弄3號","121.518228333333","24.9962416666667","6500400","永和區"
"234061","AAD-866","2017/07/10 20:17:49","新北市永和區中正路151巷5弄1號","121.515961666667","24.9985966666667","6500400","永和區"
"234042","862-TW","2017/07/10 20:18:06","新北市永和區雙和街4號","121.509813333333","25.0018","6500400","永和區"
"234050","863-TW","2017/07/10 20:18:03","新北市永和區新生路40巷18號","121.507825","25.0158516666667","6500400","永和區"
"249005","172-UM","2017/07/10 20:18:08","新北市八里區下罟子50-1號","121.383795","25.13822","6502300","八里區"
"249001","173-UM","2017/07/10 20:17:54","新北市八里區中華路二段466號","121.40091","25.1461866666667","6502300","八里區"
"249004","303-UY","2017/07/10 20:17:53","新北市八里區中山路一段370號","121.412276666667","25.1587183333333","6502300","八里區"
"249002","305-UY","2017/07/10 20:17:56","新北市八里區龍米路一段100巷17號","121.453815","25.125165","6502300","八里區"
"249003","593-UM","2017/07/10 20:17:55","新北市八里區中山路二段447巷7號","121.396946666667","25.1454566666667","6502300","八里區"
"248014","025-BX","2017/07/10 20:17:59","新北市五股區凌雲路三段32-1號","121.432026666667","25.1080033333333","6501500","五股區"
"248016","026-BX","2017/07/10 20:17:58","新北市五股區凌雲路一段158巷57弄1號","121.447111666667","25.1044516666667","6501500","五股區"
"248002","678-BX","2017/07/10 20:17:51","新北市五股區成泰路三段189號","121.445643333333","25.0922016666667","6501500","五股區"
"234023","9380-KE","2017/07/10 20:18:06","新北市永和區永和路二段276巷1-1號","121.516491666667","25.0153366666667","6500400","永和區"
"234077","969-R7","2017/07/10 20:17:50","新北市永和區民享街2巷2號","121.51471","24.9958316666667","6500400","永和區"
"234074","AAC-211","2017/07/10 20:18:05","新北市永和區竹林路191巷22號","121.521703333333","25.0096516666667","6500400","永和區"
"234067","AAC-212","2017/07/10 20:18:08","新北市永和區保平路214巷12弄2號","121.509046666667","25.0067183333333","6500400","永和區"
"234003","AAC-295","2017/07/10 20:15:52","新北市永和區自強街20號","121.51518","25.008025","6500400","永和區"
"243013","AAD-798","2017/07/10 20:17:51","新北市泰山區新民路14巷6號","121.426108333333","25.04422","6501600","泰山區"
"243009","297-R6","2017/07/10 20:18:09","新北市泰山區全興路47巷48號","121.434225","25.0590733333333","6501600","泰山區"
"243015","380-SR","2017/07/10 20:18:08","新北市泰山區仁愛路92號","121.433113333333","25.05526","6501600","泰山區"
"243014","421-VK","2017/07/10 20:17:51","新北市泰山區泰林路二段418號","121.427116666667","25.064315","6501600","泰山區"
"243010","548-UM","2017/07/10 20:18:01","新北市泰山區明志路二段254巷7號","121.426143333333","25.0477583333333","6501600","泰山區"
"243011","549-UM","2017/07/10 20:17:57","新北市泰山區新北大道七段21號","121.420461666667","25.0320433333333","6501600","泰山區"
"243012","646-TV","2017/07/10 20:17:58","新北市泰山區楓江路169號","121.440308333333","25.066425","6501600","泰山區"
"243016","680-BX","2017/07/10 20:18:03","新北市泰山區新生路27號","121.427336666667","25.0454466666667","6501600","泰山區"
"222003","436-BY","2017/07/10 20:18:01","新北市深坑區文化街74號","121.618136666667","25.001915","6501800","深坑區"
"222001","628-TS","2017/07/10 20:18:06","新北市深坑區北深路三段213號","121.600356666667","25.004035","6501800","深坑區"
"222002","659-BX","2017/07/10 20:18:02","新北市深坑區北深路三段240-9號","121.601096666667","25.00524","6501800","深坑區"
"231061","001-UM","2017/07/10 20:18:11","新北市新店區安興路32號","121.515758333333","24.9703866666667","6500600","新店區"
"231041","002-UM","2017/07/10 20:18:02","新北市新店區民權路41號","121.540455","24.9827866666667","6500600","新店區"
"231056","0291-UT","2017/07/10 20:17:58","新北市新店區中正路275巷6號","121.53737","24.97408","6500600","新店區"
"231059","046-UY","2017/07/10 20:18:01","新北市新店區安德街116巷24號","121.508701666667","24.96107","6500600","新店區"
"231060","106-UY","2017/07/10 20:17:50","新北市新店區安康路三段455號","121.482876666667","24.94947","6500600","新店區"
"231051","107-UY","2017/07/10 20:17:59","新北市新店區中央六街25號","121.52943","24.975065","6500600","新店區"
"231047","108-UY","2017/07/10 20:18:07","新北市新店區寶中路45-3號","121.545136666667","24.9791216666667","6500600","新店區"
"231052","110-UY","2017/07/10 20:18:11","新北市新店區新烏路二段321號","121.549888333333","24.9109016666667","6500600","新店區"
"231057","256-BX","2017/07/10 20:18:12","新北市新店區花園五路一段26號","121.552403333333","24.9340466666667","6500600","新店區"
"231063","268-BY","2017/07/10 20:18:07","新北市新店區車子路19號","121.504476666667","24.9531216666667","6500600","新店區"
"231050","AAD-862","2017/07/10 20:18:04","新北市新店區北宜路二段382號","121.564291666667","24.9532066666667","6500600","新店區"
"231055","3713-VJ","2017/07/10 20:17:59","新北市新店區北新路一段295號","121.54124","24.9673683333333","6500600","新店區"
"231067","4772-VM","2017/07/10 20:17:59","新北市新店區溪洲路6巷32-2號","121.533736666667","24.9628283333333","6500600","新店區"
"231065","512-UM","2017/07/10 20:17:56","新北市新店區安祥路106巷6弄1號","121.478836666667","24.96255","6500600","新店區"
"231054","513-UM","2017/07/10 20:18:04","新北市新店區檳榔路120號","121.543735","24.9621566666667","6500600","新店區"
"231064","515-UM","2017/07/10 20:18:09","新北市新店區安樂街12號","121.520786666667","24.9733566666667","6500600","新店區"
"231042","616-UM","2017/07/10 20:18:01","新北市新店區中興路二段228號","121.54786","24.975195","6500600","新店區"
"231045","617-UM","2017/07/10 20:17:53","新北市新店區新坡一街109-1號","121.547653333333","24.9636883333333","6500600","新店區"
"231040","619-UM","2017/07/10 20:18:05","新北市新店區中正路110號","121.543","24.97057","6500600","新店區"
"231068","718-UY","2017/07/10 20:17:54","新北市新店區寶安街36號","121.542016666667","24.9824633333333","6500600","新店區"
"231049","719-UM","2017/07/10 20:17:56","新北市新店區北新路二段59巷11號","121.542483333333","24.9734883333333","6500600","新店區"
"231062","720-UM","2017/07/10 20:17:57","新北市新店區安康路三段2號","121.493626666667","24.9536483333333","6500600","新店區"
"231044","897-TW","2017/07/10 20:18:06","新北市新店區北新路三段196號","121.541363333333","24.9834","6500600","新店區"
"231043","899-TW","2017/07/10 20:18:05","新北市新店區自立街1號","121.538901666667","24.9779266666667","6500600","新店區"
"231066","AKT-0513","2017/07/10 20:18:01","新北市新店區安民街332號","121.517355","24.9748366666667","6500600","新店區"
"241011","013-R5","2017/07/10 20:18:00","新北市三重區龍濱路287號","121.501095","25.0737216666667","6500200","三重區"
"241028","022-UY","2017/07/10 20:18:08","新北市三重區大同南路143-2號","121.496616666667","25.057425","6500200","三重區"
"241008","059-VK","2017/07/10 20:18:10","新北市三重區永福街211巷4號","121.479766666667","25.0740833333333","6500200","三重區"
"241009","060-VK","2017/07/10 20:17:58","新北市三重區三和路四段382巷127號","121.479653333333","25.0781233333333","6500200","三重區"
"241031","061-VK","2017/07/10 20:17:54","新北市三重區過圳街19號","121.488683333333","25.060185","6500200","三重區"
"241015","062-VK","2017/07/10 20:18:09","新北市三重區重新路一段90號","121.501533333333","25.0634383333333","6500200","三重區"
"241017","063-VK","2017/07/10 20:18:07","新北市三重區市前街14號","121.489166666667","25.062395","6500200","三重區"
"241024","065-VK","2017/07/10 20:18:07","新北市三重區中正北路238號","121.481836666667","25.06789","6500200","三重區"
"241026","066-VK","2017/07/10 20:18:06","新北市三重區福德南路65巷3號","121.502225","25.0604933333333","6500200","三重區"
"241002","090-VK","2017/07/10 20:17:51","新北市三重區環河北路二段320號","121.498571666667","25.0831533333333","6500200","三重區"
"241003","091-VK","2017/07/10 20:17:58","新北市三重區富華街3號","121.490015","25.08267","6500200","三重區"
"241020","156-TC","2017/07/10 20:18:05","新北市三重區後竹圍街2巷2號","121.49193","25.073495","6500200","三重區"
"241005","262-UM","2017/07/10 20:17:59","新北市三重區分子尾街100號","121.488623333333","25.082725","6500200","三重區"
"241016","266-UM","2017/07/10 20:17:52","新北市三重區重新路三段90號","121.492991666667","25.0609116666667","6500200","三重區"
"241022","267-UM","2017/07/10 20:17:58","新北市三重區中正北路8號","121.488893333333","25.06322","6500200","三重區"
"241018","268-UM","2017/07/10 20:18:05","新北市三重區自強路一段155-1號","121.49368","25.0672","6500200","三重區"
"241032","269-UM","2017/07/10 20:18:09","新北市三重區捷運路19巷15號","121.484971666667","25.0570733333333","6500200","三重區"
"241025","271-UM","2017/07/10 20:17:52","新北市三重區三民街271號","121.479325","25.068085","6500200","三重區"
"241007","398-BY","2017/07/10 20:18:11","新北市三重區三和路四段117巷25號","121.486386666667","25.077895","6500200","三重區"
"241004","475-VK","2017/07/10 20:18:00","新北市三重區仁政街189號","121.491033333333","25.0798216666667","6500200","三重區"
"241019","478-VK","2017/07/10 20:17:57","新北市三重區自強路二段49號","121.489233333333","25.069695","6500200","三重區"
"241030","480-VK","2017/07/10 20:17:53","新北市三重區集美街87號","121.488811666667","25.0532783333333","6500200","三重區"
"241014","543-UM","2017/07/10 20:18:09","新北市三重區河邊北街98-1號","121.503756666667","25.0699716666667","6500200","三重區"
"241023","545-UM","2017/07/10 20:18:06","新北市三重區大有街1-10號","121.477538333333","25.0661066666667","6500200","三重區"
"241001","547-UM","2017/07/10 20:18:12","新北市三重區自強路四段3巷28號","121.48971","25.0764133333333","6500200","三重區"
"241035","743-BX","2017/07/10 20:18:02","新北市三重區重新路一段137號","121.499908333333","25.0631366666667","6500200","三重區"
"241012","941-UM","2017/07/10 20:18:03","新北市三重區河邊北街286號","121.501485","25.07708","6500200","三重區"
"241029","942-UM","2017/07/10 20:17:53","新北市三重區光明路96巷9號","121.49285","25.0565483333333","6500200","三重區"
"241033","AAC-255","2017/07/10 20:17:57","新北市三重區五谷王北街61-1號","121.475816666667","25.049775","6500200","三重區"
"235066","003-UY","2017/07/10 20:18:03","新北市中和區光華街59-1號","121.506341666667","25.0033816666667","6500300","中和區"
"235039","097-UM","2017/07/10 20:18:11","新北市中和區大勇街25巷36號","121.515988333333","24.9937233333333","6500300","中和區"
"235065","098-UM","2017/07/10 20:18:06","新北市中和區福祥路85巷2弄2號","121.498758333333","25.00578","6500300","中和區"
"235055","183-VK","2017/07/10 20:18:09","新北市中和區莒光路4號","121.471898333333","25.0047166666667","6500300","中和區"
"235044","293-VK","2017/07/10 20:18:05","新北市中和區景安路194號","121.504338333333","24.9915216666667","6500300","中和區"
"235072","301-VK","2017/07/10 20:17:54","新北市新店區安業街157號","121.52169","24.9731383333333","6500300","中和區"
"235051","376-QA","2017/07/10 20:18:00","新北市中和區復興路12號","121.505925","24.9897533333333","6500300","中和區"
"235068","377-QA","2017/07/10 20:18:11","新北市中和區福祥路85巷5號","121.498646666667","25.0056983333333","6500300","中和區"
"235050","4979-A6","2017/07/10 20:17:57","新北市中和區景新街274巷13號","121.510383333333","24.992","6500300","中和區"
"235069","4980-A6","2017/07/10 20:18:04","新北市中和區南山路127巷27弄26號","121.503365","24.9980066666667","6500300","中和區"
"235070","558-UM","2017/07/10 20:18:02","新北市中和區圓通路229號","121.496273333333","24.99425","6500300","中和區"
"235054","640-BX","2017/07/10 20:17:56","新北市中和區中山路三段145號","121.473886666667","25.00618","6500300","中和區"
"235041","802-TS","2017/07/10 20:17:57","新北市中和區安平路102號","121.51158","24.99727","6500300","中和區"
"235037","AAC-213","2017/07/10 20:17:51","新北市中和區秀朗路三段112號","121.525395","24.9928233333333","6500300","中和區"
"235059","AAC-215","2017/07/10 20:17:56","新北市中和區錦和路410號","121.490851666667","24.9895566666667","6500300","中和區"
"220065","072-UY","2017/07/10 20:17:55","新北市板橋區南雅南路一段131號","121.455245","25.0043566666667","6500100","板橋區"
"220069","AAD-861","2017/07/10 20:18:08","新北市板橋區大明街34號","121.458196666667","25.0026766666667","6500100","板橋區"
"247020","893-R6","2017/07/10 20:17:52","新北市蘆洲區民族路331-20號","121.473475","25.0918633333333","6501400","蘆洲區"
"247010","546-UM","2017/07/10 20:18:03","新北市蘆洲區信義路188巷7號","121.479536666667","25.08451","6501400","蘆洲區"
"247018","500-BY","2017/07/10 20:18:00","新北市蘆洲區民族路297號","121.475151666667","25.0911466666667","6501400","蘆洲區"
"247006","341-TH","2017/07/10 20:18:03","新北市蘆洲區九芎街153巷8號","121.46544","25.0788183333333","6501400","蘆洲區"
"247008","339-TH","2017/07/10 20:18:04","新北市蘆洲區集賢路245號","121.481618333333","25.0849","6501400","蘆洲區"
"247024","337-TH","2017/07/10 20:17:51","新北市蘆洲區長樂路47號","121.462768333333","25.0859466666667","6501400","蘆洲區"
"247002","336-TH","2017/07/10 20:17:35","新北市蘆洲區環堤大道108號","121.455468333333","25.08664","6501400","蘆洲區"
"247014","057-VK","2017/07/10 20:18:06","新北市蘆洲區中山二路141號","121.471741666667","25.08155","6501400","蘆洲區"
"247004","056-VK","2017/07/10 20:18:08","新北市蘆洲區長安街220巷4號","121.458663333333","25.08462","6501400","蘆洲區"
"247012","007-UY","2017/07/10 20:18:01","新北市蘆洲區中興街36號","121.481163333333","25.0871283333333","6501400","蘆洲區"
"247016","001-UY","2017/07/10 20:17:57","新北市蘆洲區光華路132巷9號","121.465951666667","25.0830316666667","6501400","蘆洲區"
"251009","008-UM","2017/07/10 20:17:53","新北市淡水區中山路88號","121.442776666667","25.170535","6501000","淡水區"
"251001","011-UM","2017/07/10 20:18:04","新北市淡水區新市二路四段265號","121.445698333333","25.1924766666667","6501000","淡水區"
"251013","180-VK","2017/07/10 20:18:01","新北市淡水區奎柔山路752巷1號","121.472998333333","25.2054283333333","6501000","淡水區"
"251008","181-VK","2017/07/10 20:18:06","新北市淡水區淡海路150巷19號","121.422306666667","25.1843033333333","6501000","淡水區"
"251010","413-VK","2017/07/10 20:18:11","新北市淡水區新民街一段132號","121.427881666667","25.1889066666667","6501000","淡水區"
"251012","441-VK","2017/07/10 20:17:53","新北市淡水區淡金路三段361-1號","121.44875","25.2071516666667","6501000","淡水區"
"251015","442-VK","2017/07/10 20:17:54","新北市淡水區淡金路四段476號","121.451938333333","25.2237366666667","6501000","淡水區"
"251006","561-UM","2017/07/10 20:18:02","新北市淡水區北新路169巷39號","121.4492","25.1804666666667","6501000","淡水區"
"251002","672-BX","2017/07/10 20:17:53","新北市淡水區中正路177號","121.438656666667","25.1712616666667","6501000","淡水區"
"251003","766-UM","2017/07/10 20:18:03","新北市淡水區中山北路一段229號","121.444466666667","25.1795066666667","6501000","淡水區"
"207004","225-TW","2017/07/10 20:18:09","新北市萬里區北基里仁七街2號","121.681265","25.174945","6502800","萬里區"
"252002","178-VK","2017/07/10 20:18:06","新北市三芝區三民街2號","121.503976666667","25.2581133333333","6502100","三芝區"
"252001","292-VK","2017/07/10 20:18:05","新北市三芝區中山路一段14號","121.500666666667","25.2580816666667","6502100","三芝區"
"208002","170-UY","2017/07/10 20:18:06","新北市金山區龜子山路33號","121.638925","25.217445","6502700","金山區"
"237007","153-BY","2017/07/10 20:17:57","新北市三峽區二鬮路136巷65號","121.357495","24.9093","6500900","三峽區"
"237009","210-TH","2017/07/10 20:18:07","新北市三峽區中山路321-1號","121.360888333333","24.9378083333333","6500900","三峽區"
"237012","275-BY","2017/07/10 20:18:03","新北市三峽區中華路74-5號","121.371541666667","24.929175","6500900","三峽區"
"237014","433-BY","2017/07/10 20:17:55","新北市三峽區介壽路一段53號","121.375678333333","24.9329333333333","6500900","三峽區"
"237006","5529-G3","2017/07/10 20:17:50","新北市三峽區中正路二段169號","121.365991666667","24.9144116666667","6500900","三峽區"
"237011","572-TV","2017/07/10 20:18:02","新北市三峽區復興路553號","121.356588333333","24.9405366666667","6500900","三峽區"
"237005","AKY-6261","2017/07/10 20:18:03","新北市三峽區三樹路98巷121號","121.382698333333","24.9383","6500900","三峽區"
"236069","105-UM","2017/07/10 20:17:49","新北市土城區大安路18號","121.432843333333","24.9661483333333","6501300","土城區"
"236042","107-UM","2017/07/10 20:18:10","新北市土城區學享街32號","121.451706666667","24.9870566666667","6501300","土城區"
"236078","166-UM","2017/07/10 20:17:54","新北市土城區金安街40號","121.420568333333","24.9651033333333","6501300","土城區"
"236030","253-BX","2017/07/10 20:18:08","新北市土城區中央路一段45巷2弄1號","121.448473333333","24.9902216666667","6501300","土城區"
"236026","269-VK","2017/07/10 20:18:01","新北市土城區裕生路83巷30號","121.447895","24.9839316666667","6501300","土城區"
"236014","270-VK","2017/07/10 20:17:53","新北市土城區廣明街90巷18號","121.45539","24.994485","6501300","土城區"
"236036","271-VK","2017/07/10 20:18:05","新北市土城區明德路一段42號","121.465146666667","24.9843383333333","6501300","土城區"
"236020","401-BY","2017/07/10 20:18:11","新北市土城區延吉街137巷25弄5號","121.471435","24.985195","6501300","土城區"
"236058","912-UM","2017/07/10 20:18:00","新北市土城區中央路二段237號","121.440295","24.9721616666667","6501300","土城區"
"236053","AAC-216","2017/07/10 20:18:04","新北市土城區中華路二段32-1號","121.439201666667","24.97805","6501300","土城區"
"242021","AAC-296","2017/07/10 20:18:01","新北市新莊區中正路210號","121.449163333333","25.035535","6500500","新莊區"
"242048","751-BX","2017/07/10 20:18:03","新北市新莊區龍安路252號","121.421148333333","25.0196583333333","6500500","新莊區"
"242029","705-TV","2017/07/10 20:17:56","新北市新莊區中原路130號","121.449898333333","25.054305","6500500","新莊區"
"242025","615-BX","2017/07/10 20:17:58","新北市新莊區五工三路70巷13號","121.459621666667","25.0652033333333","6500500","新莊區"
"242023","613-BX","2017/07/10 20:17:57","新北市新莊區化成路692號","121.465858333333","25.0562683333333","6500500","新莊區"
"242027","612-BX","2017/07/10 20:18:01","新北市新莊區幸福路617號","121.451853333333","25.0491083333333","6500500","新莊區"
"242036","566-BX","2017/07/10 20:18:11","新北市新莊區建安街91號","121.427075","25.0244716666667","6500500","新莊區"
"242042","497-BY","2017/07/10 20:18:05","新北市新莊區壽山路69號","121.410111666667","25.032675","6500500","新莊區"
"242004","442-UM","2017/07/10 20:18:03","新北市新莊區頭興街7巷1號","121.462775","25.0536233333333","6500500","新莊區"
"242046","441-UM","2017/07/10 20:18:00","新北市新莊區裕民街132號","121.417778333333","25.022135","6500500","新莊區"
"242031","415-TV","2017/07/10 20:17:51","新北市新莊區中正路455-2號","121.442565","25.0340133333333","6500500","新莊區"
"242002","413-TV","2017/07/10 20:18:00","新北市新莊區化成路31號","121.465181666667","25.043975","6500500","新莊區"
"242039","400-BY","2017/07/10 20:17:59","新北市新莊區龍安路437號","121.424123333333","25.0188283333333","6500500","新莊區"
"242060","362-BY","2017/07/10 20:18:05","新北市新莊區新樹路172-13號","121.434546666667","25.0216266666667","6500500","新莊區"
"242011","132-UY","2017/07/10 20:18:03","新北市新莊區中信街39號","121.450306666667","25.05077","6500500","新莊區"
"242034","133-UY","2017/07/10 20:18:02","新北市新莊區中正路318巷18號","121.446531666667","25.036025","6500500","新莊區"
"242019","135-UY","2017/07/10 20:18:04","新北市新莊區銘德街80號","121.45626","25.0435633333333","6500500","新莊區"
"242044","172-VK","2017/07/10 20:17:56","新北市新莊區中正路895-26號","121.412271666667","25.0219466666667","6500500","新莊區"
"242007","173-VK","2017/07/10 20:18:08","新北市新莊區福壽街112巷24號","121.459203333333","25.0506566666667","6500500","新莊區"
"242056","176-VK","2017/07/10 20:18:05","新北市新莊區豐年街39號","121.446488333333","25.0321266666667","6500500","新莊區"
"242013","346-TH","2017/07/10 20:17:55","新北市新莊區幸福路710巷5弄16號","121.449213333333","25.0497733333333","6500500","新莊區"
"242050","347-TH","2017/07/10 20:17:50","新北市新莊區民安西路211號","121.42598","25.014635","6500500","新莊區"
"242017","348-TH","2017/07/10 20:18:04","新北市新莊區中港一街51號","121.450498333333","25.0454466666667","6500500","新莊區"
"242053","349-TH","2017/07/10 20:18:01","新北市新莊區民安西路261巷22號","121.426901666667","25.0130533333333","6500500","新莊區"
"242015","350-TH","2017/07/10 20:17:48","新北市新莊區永樂街196號","121.447561666667","25.044535","6500500","新莊區"
"242009","351-TH","2017/07/10 20:18:02","新北市新莊區昌盛街35巷2弄16號","121.454861666667","25.05024","6500500","新莊區"
"238023","601-UM","2017/07/10 20:18:08","新北市樹林區中山路三段116號","121.39265","24.9721516666667","6500700","樹林區"
"238022","312-TH","2017/07/10 18:46:54","新北市樹林區中山路三段204號","121.387206666667","24.9683483333333","6500700","樹林區"
"238021","311-TH","2017/07/10 20:17:31","新北市樹林區田尾街192巷10號","121.400223333333","24.9495216666667","6500700","樹林區"
"221008","489-VK","2017/07/10 20:18:07","台北市內湖區康樂街210號","121.623883333333","25.0800666666667","6501100","汐止區"
"221036","130-UY","2017/07/10 20:18:01","新北市汐止區福安街59巷14號","121.664506666667","25.0638533333333","6501100","汐止區"
"221015","131-UY","2017/07/10 20:18:05","新北市汐止區建成路142巷19弄11號","121.661965","25.0738883333333","6501100","汐止區"
"221031","277-VK","2017/07/10 00:47:01","新北市汐止區汐萬路一段256巷3號","121.652483333333","25.0746383333333","6501100","汐止區"
"221012","278-VK","2017/07/10 20:18:06","新北市汐止區保新街135號","121.687853333333","25.0702866666667","6501100","汐止區"
"221023","279-VK","2017/07/10 18:54:43","新北市汐止區康寧街885巷24號","121.65178","25.0766866666667","6501100","汐止區"
"221032","280-BY","2017/07/10 20:18:09","新北市汐止區民權街二段28號","121.619416666667","25.04986","6501100","汐止區"
"221027","281-BY","2017/07/10 20:17:59","新北市汐止區光明街5號","121.660778333333","25.06865","6501100","汐止區"
"221038","297-VK","2017/07/10 20:17:58","新北市汐止區大同路三段66-3號","121.668136666667","25.0770266666667","6501100","汐止區"
"221029","298-VK","2017/07/10 20:18:08","新北市汐止區樟樹一路99巷7弄1號","121.641156666667","25.0636416666667","6501100","汐止區"
"221021","299-VK","2017/07/10 20:18:09","新北市汐止區水源路一段143號","121.65599","25.0622116666667","6501100","汐止區"
"221035","622-UM","2017/07/10 20:17:58","新北市汐止區長江街79巷16號","121.657916666667","25.0729966666667","6501100","汐止區"
"221025","623-UM","2017/07/10 20:18:09","新北市汐止區水源路二段34號","121.654816666667","25.05721","6501100","汐止區"
"221010","646-BX","2017/07/10 20:18:03","新北市汐止區八連路一段217號","121.640531666667","25.0819166666667","6501100","汐止區"
"221033","647-BX","2017/07/10 20:17:56","新北市汐止區東勢街201巷104號","121.633543333333","25.042975","6501100","汐止區"
"221002","707-TV","2017/07/10 20:17:59","新北市汐止區福德二路29號","121.6351","25.0679383333333","6501100","汐止區"
"221018","753-BX","2017/07/10 20:18:10","新北市汐止區茄興街20巷1弄1號","121.673575","25.0671666666667","6501100","汐止區"
"220101","245-BX","2017/07/10 20:17:51","新北市板橋區雙十路二段47巷25號","121.475355","25.0255816666667","6500100","板橋區"
"220103","257-TC","2017/07/10 20:18:07","新北市板橋區陽明街279巷4-4號","121.461756666667","25.0260466666667","6500100","板橋區"
"220072","277-BY","2017/07/10 20:17:52","新北市板橋區金門街107號","121.433195","24.9921383333333","6500100","板橋區"
"220071","283-VK","2017/07/10 20:18:01","新北市板橋區廣權路131號","121.465635","24.993315","6500100","板橋區"
"220053","285-VK","2017/07/10 20:18:09","新北市板橋區中山路一段282-1號","121.468848333333","25.0133966666667","6500100","板橋區"
"220083","286-VK","2017/07/10 20:18:08","新北市板橋區僑中二街88巷31-1號","121.44479","25.0095916666667","6500100","板橋區"
"220081","287-VK","2017/07/10 20:18:04","新北市板橋區僑中一街102巷5弄15號","121.446053333333","25.0126583333333","6500100","板橋區"
"220061","293-UM","2017/07/10 20:17:59","新北市板橋區中山路二段13號","121.472125","25.0149533333333","6500100","板橋區"
"220062","295-UM","2017/07/10 20:17:53","新北市板橋區三民路二段29巷31弄1號","121.481356666667","25.017735","6500100","板橋區"
"220084","296-UM","2017/07/10 20:18:10","新北市板橋區溪崑二街112巷32號","121.425666666667","24.989085","6500100","板橋區"
"220092","299-UM","2017/07/10 20:18:00","新北市板橋區文化路一段31號","121.460238333333","25.0129083333333","6500100","板橋區"
"220080","461-BY","2017/07/10 20:17:54","新北市板橋區大觀路二段力行1巷3弄4號","121.445818333333","24.9993783333333","6500100","板橋區"
"220089","487-VK","2017/07/10 20:18:05","新北市板橋區四維路249號","121.463711666667","25.0277316666667","6500100","板橋區"
"220088","491-VK","2017/07/10 20:17:12","新北市板橋區懷德街115號","121.478746666667","25.0313533333333","6500100","板橋區"
"220057","686-BX","2017/07/10 20:17:53","新北市板橋區四川路二段130巷43號","121.449576666667","24.9946533333333","6500100","板橋區"
"220055","827-TW","2017/07/10 20:17:53","新北市板橋區重慶路290巷3號","121.461515","24.9986416666667","6500100","板橋區"
"220102","830-TW","2017/07/10 20:17:57","新北市板橋區縣民大道三段32號","121.471566666667","25.01896","6500100","板橋區"
"220074","895-R6","2017/07/10 20:17:59","新北市板橋區文化路一段52巷29號","121.46151","25.0110533333333","6500100","板橋區"
"220097","AAC-210","2017/07/10 20:18:07","新北市板橋區復興街133號","121.461108333333","25.0181366666667","6500100","板橋區"
"220070","AAC-253","2017/07/10 20:17:56","新北市板橋區四川路二段2號","121.456443333333","24.9964466666667","6500100","板橋區"
