"lineid","car","time","location","longitude","latitude","cityid","cityname"
"234046","148-BY","2017/07/10 20:29:56","新北市永和區永亨路127號","121.524526666667","25.0043266666667","6500400","永和區"
"234007","207-UY","2017/07/10 20:30:00","新北市永和區仁愛路306巷20號","121.502293333333","25.0085783333333","6500400","永和區"
"234081","298-R6","2017/07/10 20:30:04","新北市永和區國中路134號","121.523478333333","25.0069366666667","6500400","永和區"
"234038","336-UY","2017/07/10 20:30:06","新北市永和區環河東路四段38號","121.528868333333","24.9989333333333","6500400","永和區"
"234064","337-UY","2017/07/10 20:30:04","新北市永和區中正路446號","121.517426666667","25.0027916666667","6500400","永和區"
"234086","338-UY","2017/07/10 20:30:10","新北市永和區光復街21號","121.516503333333","25.0174433333333","6500400","永和區"
"234070","552-UM","2017/07/10 20:30:03","新北市永和區永亨路13號","121.519576666667","25.0058233333333","6500400","永和區"
"234054","553-UM","2017/07/10 20:29:54","新北市永和區環河東路一段82號","121.519631666667","25.0164466666667","6500400","永和區"
"234017","745-BX","2017/07/10 20:30:09","新北市永和區仁愛路87號","121.513103333333","25.01318","6500400","永和區"
"234030","746-BX","2017/07/10 20:30:04","新北市永和區得和路415號","121.525785","24.9991966666667","6500400","永和區"
"234061","AAD-866","2017/07/10 20:30:09","新北市永和區得和路25號","121.515691666667","25.000385","6500400","永和區"
"234042","862-TW","2017/07/10 20:30:06","新北市永和區安樂路433號","121.51434","25.0045933333333","6500400","永和區"
"234050","863-TW","2017/07/10 20:30:07","新北市永和區新生路66巷1弄19號","121.507293333333","25.0150783333333","6500400","永和區"
"249005","172-UM","2017/07/10 20:29:48","新北市八里區下罟子8-1號","121.385496666667","25.1398533333333","6502300","八里區"
"249001","173-UM","2017/07/10 20:29:54","新北市八里區中山路三段106號","121.391041666667","25.142235","6502300","八里區"
"249004","303-UY","2017/07/10 20:29:53","新北市八里區中山路一段129巷27號","121.413998333333","25.1585633333333","6502300","八里區"
"249002","305-UY","2017/07/10 20:29:55","新北市八里區龍米路二段91-1號","121.447588333333","25.1423483333333","6502300","八里區"
"249003","593-UM","2017/07/10 20:29:55","新北市八里區華峰一街47號","121.398625","25.1462933333333","6502300","八里區"
"248002","678-BX","2017/07/10 20:29:56","新北市五股區成泰路三段43-1號","121.442275","25.08887","6501500","五股區"
"234023","9380-KE","2017/07/10 20:30:06","新北市永和區竹林路23號","121.517181666667","25.0147783333333","6500400","永和區"
"234074","AAC-211","2017/07/10 20:30:05","新北市永和區豫溪街189巷1號","121.522546666667","25.010295","6500400","永和區"
"234067","AAC-212","2017/07/10 20:30:04","新北市永和區保平路268巷35號","121.507731666667","25.0061783333333","6500400","永和區"
"234003","AAC-295","2017/07/10 20:28:31","新北市永和區中正路626號","121.51696","25.00795","6500400","永和區"
"243013","AAD-798","2017/07/10 20:29:51","新北市泰山區貴子路7號","121.425475","25.042185","6501600","泰山區"
"243009","297-R6","2017/07/10 20:30:09","新北市泰山區泰林路二段304號","121.430755","25.0628033333333","6501600","泰山區"
"243014","421-VK","2017/07/10 20:29:51","新北市泰山區黎明里35號","121.410865","25.0704716666667","6501600","泰山區"
"243010","548-UM","2017/07/10 20:30:06","新北市泰山區明志路二段255巷3弄1號","121.427933333333","25.0475366666667","6501600","泰山區"
"243011","549-UM","2017/07/10 20:29:57","新北市泰山區貴子路82號","121.427276666667","25.0411883333333","6501600","泰山區"
"243012","646-TV","2017/07/10 20:29:58","新北市泰山區泰林路二段364號","121.428773333333","25.06386","6501600","泰山區"
"243016","680-BX","2017/07/10 20:30:03","新北市泰山區文程路13號","121.427961666667","25.049815","6501600","泰山區"
"222003","436-BY","2017/07/10 20:30:01","新北市深坑區深坑街32號","121.615245","25.0017566666667","6501800","深坑區"
"222001","628-TS","2017/07/10 20:30:06","新北市深坑區北深路三段329號","121.597228333333","25.00499","6501800","深坑區"
"222002","659-BX","2017/07/10 20:28:02","新北市深坑區萬福路16巷35號","121.608456666667","25.0087333333333","6501800","深坑區"
"231061","001-UM","2017/07/10 20:29:51","新北市新店區安興路141號","121.516863333333","24.9794533333333","6500600","新店區"
"231041","002-UM","2017/07/10 20:30:02","新北市新店區中正路520號","121.533735","24.9837083333333","6500600","新店區"
"231056","0291-UT","2017/07/10 20:29:58","新北市新店區建安街33巷30號","121.538256666667","24.97537","6500600","新店區"
"231059","046-UY","2017/07/10 20:30:01","新北市新店區安豐路46號","121.500135","24.9549383333333","6500600","新店區"
"231060","106-UY","2017/07/10 20:30:10","新北市新店區錦秀路34號","121.47918","24.9439366666667","6500600","新店區"
"231051","107-UY","2017/07/10 20:29:59","新北市新店區中央七街85號","121.52684","24.9770116666667","6500600","新店區"
"231047","108-UY","2017/07/10 20:30:07","新北市新店區寶元路一段15巷11號","121.541988333333","24.9872216666667","6500600","新店區"
"231052","110-UY","2017/07/10 20:29:51","新北市新店區松林路38號","121.546246666667","24.910275","6500600","新店區"
"231057","256-BX","2017/07/10 20:30:12","新北市新店區花園五路二段3號","121.55357","24.9341783333333","6500600","新店區"
"231063","268-BY","2017/07/10 20:30:07","新北市新店區安康路二段317-1號","121.499066666667","24.95634","6500600","新店區"
"231050","AAD-862","2017/07/10 20:30:04","新北市新店區博愛街6巷1號","121.541061666667","24.973235","6500600","新店區"
"231058","3712-VJ","2017/07/10 20:29:57","新北市新店區安業街2號","121.515226666667","24.9783683333333","6500600","新店區"
"231067","4772-VM","2017/07/10 20:29:59","新北市新店區安康路一段35號","121.531631666667","24.9608433333333","6500600","新店區"
"231065","512-UM","2017/07/10 20:29:56","新北市新店區安祥路102巷42弄69號","121.486306666667","24.9632416666667","6500600","新店區"
"231054","513-UM","2017/07/10 20:30:03","新北市新店區檳榔路110巷2號","121.543496666667","24.9623733333333","6500600","新店區"
"231064","515-UM","2017/07/10 20:30:09","新北市新店區永安街74巷19號","121.519165","24.9858916666667","6500600","新店區"
"231042","616-UM","2017/07/10 20:30:08","新北市新店區寶橋路156-4號","121.54871","24.9770566666667","6500600","新店區"
"231045","617-UM","2017/07/10 20:29:53","新北市新店區新坡一街20號","121.548928333333","24.9619316666667","6500600","新店區"
"231040","619-UM","2017/07/10 20:30:05","新北市新店區三民路114號","121.534296666667","24.9742233333333","6500600","新店區"
"231068","718-UY","2017/07/10 20:29:54","新北市新店區寶元路一段61號","121.542076666667","24.9860566666667","6500600","新店區"
"231049","719-UM","2017/07/10 20:29:56","新北市新店區永業路81巷1弄1-1號","121.529645","24.9493366666667","6500600","新店區"
"231062","720-UM","2017/07/10 20:29:57","新北市新店區安泰路60巷92號","121.48399","24.9454083333333","6500600","新店區"
"231044","897-TW","2017/07/10 20:30:06","新北市新店區建國路155號","121.538733333333","24.9788833333333","6500600","新店區"
"231043","899-TW","2017/07/10 20:30:05","新北市新店區民族路11號","121.54167","24.9788083333333","6500600","新店區"
"231066","AKT-0513","2017/07/10 20:30:01","新北市新店區安興路112號","121.514751666667","24.9774816666667","6500600","新店區"
"241011","013-R5","2017/07/10 20:30:00","新北市三重區三和路三段53號","121.495363333333","25.0717583333333","6500200","三重區"
"241028","022-UY","2017/07/10 20:30:08","新北市三重區正義南路69-1號","121.49831","25.06011","6500200","三重區"
"241008","059-VK","2017/07/10 20:29:50","新北市三重區永福街287-1號","121.483233333333","25.0745483333333","6500200","三重區"
"241009","060-VK","2017/07/10 20:29:58","新北市三重區三和路四段360-2號","121.482968333333","25.0782383333333","6500200","三重區"
"241031","061-VK","2017/07/10 20:29:54","新北市三重區三寧街22號","121.489528333333","25.0598816666667","6500200","三重區"
"241015","062-VK","2017/07/10 20:30:09","新北市三重區長元街2-2號","121.498721666667","25.0659","6500200","三重區"
"241017","063-VK","2017/07/10 20:30:07","新北市三重區自強路一段290號","121.491516666667","25.0682533333333","6500200","三重區"
"241024","065-VK","2017/07/10 20:30:07","新北市三重區三民街270號","121.478928333333","25.0681516666667","6500200","三重區"
"241026","066-VK","2017/07/10 20:30:06","新北市三重區重新路一段36號","121.503221666667","25.063985","6500200","三重區"
"241002","090-VK","2017/07/10 20:30:11","新北市三重區仁義街209號","121.49682","25.0817633333333","6500200","三重區"
"241003","091-VK","2017/07/10 20:29:58","新北市三重區富華街99號","121.492136666667","25.08416","6500200","三重區"
"241020","156-TC","2017/07/10 20:30:05","新北市三重區忠孝路一段21巷5弄1號","121.49177","25.0723766666667","6500200","三重區"
"241005","262-UM","2017/07/10 20:29:59","新北市三重區碧華街301號","121.49063","25.08399","6500200","三重區"
"241016","266-UM","2017/07/10 20:29:52","新北市三重區正義北路190巷3號","121.496106666667","25.0667966666667","6500200","三重區"
"241022","267-UM","2017/07/10 20:30:04","新北市三重區民生街61巷18弄7號","121.487586666667","25.0628683333333","6500200","三重區"
"241018","268-UM","2017/07/10 20:30:05","新北市三重區正義北路216巷7號","121.495818333333","25.06756","6500200","三重區"
"241032","269-UM","2017/07/10 20:29:49","新北市三重區重陽路一段120巷48號","121.485056666667","25.0601433333333","6500200","三重區"
"241025","271-UM","2017/07/10 20:29:52","新北市三重區頂崁街210巷27號","121.475818333333","25.0681783333333","6500200","三重區"
"241007","398-BY","2017/07/10 20:29:51","新北市三重區福隆路2號","121.489333333333","25.07722","6500200","三重區"
"241004","475-VK","2017/07/10 20:30:00","新北市三重區溪尾街182號","121.488405","25.080835","6500200","三重區"
"241019","478-VK","2017/07/10 20:29:57","新北市三重區重陽路四段124號","121.492493333333","25.0710633333333","6500200","三重區"
"241030","480-VK","2017/07/10 20:29:53","新北市三重區成功路70號","121.488416666667","25.0509683333333","6500200","三重區"
"241014","543-UM","2017/07/10 20:30:09","新北市三重區長興街105號","121.501913333333","25.06922","6500200","三重區"
"241023","545-UM","2017/07/10 20:29:51","新北市三重區自由街17巷1號","121.479908333333","25.0665866666667","6500200","三重區"
"241001","547-UM","2017/07/10 20:30:11","新北市三重區自強路四段45號","121.48966","25.0776766666667","6500200","三重區"
"241035","743-BX","2017/07/10 20:30:02","新北市三重區重新路二段54號","121.498231666667","25.0621783333333","6500200","三重區"
"241012","941-UM","2017/07/10 20:29:54","新北市三重區龍濱路269號","121.501376666667","25.0731033333333","6500200","三重區"
"241029","942-UM","2017/07/10 20:29:53","新北市三重區集美街225號","121.49206","25.05509","6500200","三重區"
"241033","AAC-255","2017/07/10 20:29:57","新北市三重區五谷王北街80巷51號","121.474928333333","25.0531966666667","6500200","三重區"
"235066","003-UY","2017/07/10 20:30:03","新北市中和區光華街62號","121.505628333333","25.0037033333333","6500300","中和區"
"235039","097-UM","2017/07/10 20:29:51","新北市中和區自立路125號","121.521938333333","24.99418","6500300","中和區"
"235065","098-UM","2017/07/10 20:30:06","新北市中和區橋和路284號","121.496518333333","25.0067083333333","6500300","中和區"
"235072","301-VK","2017/07/10 20:29:54","新北市中和區員山路36巷13號","121.48435","24.9906816666667","6500300","中和區"
"235050","4979-A6","2017/07/10 20:29:57","新北市中和區景新街160巷14號","121.50504","24.9967516666667","6500300","中和區"
"235069","4980-A6","2017/07/10 20:30:04","新北市中和區中正路446號","121.490993333333","24.9943316666667","6500300","中和區"
"235037","AAC-213","2017/07/10 20:30:11","新北市中和區自立路38-1號","121.522813333333","24.9924033333333","6500300","中和區"
"235059","AAC-215","2017/07/10 20:29:56","新北市中和區員山路36巷2-1號","121.482651666667","24.9904483333333","6500300","中和區"
"220069","AAD-861","2017/07/10 20:30:08","新北市板橋區大明街20巷19弄20號","121.457913333333","25.003215","6500100","板橋區"
"247020","893-R6","2017/07/10 20:29:51","新北市蘆洲區民族路331號","121.473821666667","25.0917033333333","6501400","蘆洲區"
"247010","546-UM","2017/07/10 20:30:03","新北市蘆洲區信義路222巷36號","121.480918333333","25.0854416666667","6501400","蘆洲區"
"247018","500-BY","2017/07/10 20:30:00","新北市蘆洲區民族路325號","121.474156666667","25.0914133333333","6501400","蘆洲區"
"247006","341-TH","2017/07/10 20:30:03","新北市蘆洲區光華路175巷56號","121.465578333333","25.0809083333333","6501400","蘆洲區"
"247008","339-TH","2017/07/10 20:30:04","新北市蘆洲區永安北路二段76巷22號","121.482731666667","25.085295","6501400","蘆洲區"
"247024","337-TH","2017/07/10 20:30:11","新北市蘆洲區中正路185巷78弄19號","121.465583333333","25.0849966666667","6501400","蘆洲區"
"247002","336-TH","2017/07/10 20:29:55","新北市蘆洲區環堤大道122號","121.455441666667","25.0872816666667","6501400","蘆洲區"
"247014","057-VK","2017/07/10 20:30:06","新北市蘆洲區中山二路235號","121.470311666667","25.0800616666667","6501400","蘆洲區"
"247004","056-VK","2017/07/10 20:30:08","新北市蘆洲區永康街63巷16號","121.456473333333","25.0845333333333","6501400","蘆洲區"
"247012","007-UY","2017/07/10 20:30:01","新北市蘆洲區復興路289號","121.481636666667","25.0902183333333","6501400","蘆洲區"
"247016","001-UY","2017/07/10 20:29:57","新北市蘆洲區中正路79-3號","121.470188333333","25.0833733333333","6501400","蘆洲區"
"251001","011-UM","2017/07/10 20:30:04","新北市淡水區中山北路二段3號","121.444385","25.1832416666667","6501000","淡水區"
"251013","180-VK","2017/07/10 20:30:01","新北市淡水區奎柔山路431號","121.464813333333","25.2049333333333","6501000","淡水區"
"251008","181-VK","2017/07/10 20:30:06","新北市淡水區淡海路189巷6號","121.420116666667","25.1845133333333","6501000","淡水區"
"251010","413-VK","2017/07/10 20:30:11","新北市淡水區沙崙路181巷15號","121.423971666667","25.1843466666667","6501000","淡水區"
"251012","441-VK","2017/07/10 20:30:06","新北市淡水區興仁路34巷11號","121.452496666667","25.21555","6501000","淡水區"
"251015","442-VK","2017/07/10 20:30:03","新北市淡水區淡金路四段542巷17號","121.452715","25.227075","6501000","淡水區"
"251006","561-UM","2017/07/10 20:30:02","新北市淡水區商工路300號","121.461026666667","25.1858566666667","6501000","淡水區"
"251011","650-BX","2017/07/10 20:29:53","新北市淡水區崁頂66號","121.438068333333","25.2006416666667","6501000","淡水區"
"251002","672-BX","2017/07/10 20:29:53","新北市淡水區中正路49號","121.441948333333","25.16957","6501000","淡水區"
"251003","766-UM","2017/07/10 20:30:03","新北市淡水區新民街35號","121.438868333333","25.1758683333333","6501000","淡水區"
"252002","178-VK","2017/07/10 20:30:06","新北市三芝區中正路一段54號","121.503545","25.258035","6502100","三芝區"
"252001","292-VK","2017/07/10 20:30:05","新北市三芝區育英街37號","121.501063333333","25.2571533333333","6502100","三芝區"
"236069","105-UM","2017/07/10 20:29:49","新北市土城區福安街102巷5弄4號","121.417266666667","24.9645866666667","6501300","土城區"
"236026","269-VK","2017/07/10 20:30:07","新北市土城區中央路一段211巷4號","121.446228333333","24.98647","6501300","土城區"
"236014","270-VK","2017/07/10 20:29:53","新北市土城區廣明街61號","121.45501","24.993645","6501300","土城區"
"236020","401-BY","2017/07/10 20:29:52","新北市土城區金城路三段206巷1號","121.471488333333","24.9896616666667","6501300","土城區"
"242021","AAC-296","2017/07/10 20:30:01","新北市新莊區和興街5號","121.447546666667","25.0390116666667","6500500","新莊區"
"242048","751-BX","2017/07/10 20:30:03","新北市新莊區中正路871巷1號","121.418116666667","25.0270966666667","6500500","新莊區"
"242029","705-TV","2017/07/10 20:29:56","新北市新莊區昌隆街10號","121.453155","25.050795","6500500","新莊區"
"242025","615-BX","2017/07/10 20:29:58","新北市新莊區五工三路62巷21號","121.460188333333","25.065065","6500500","新莊區"
"242023","613-BX","2017/07/10 20:29:57","新北市新莊區化成路896號","121.464613333333","25.061665","6500500","新莊區"
"242027","612-BX","2017/07/10 20:30:01","新北市新莊區思源路309號","121.459895","25.049005","6500500","新莊區"
"242036","566-BX","2017/07/10 20:29:51","新北市新莊區後港一路76巷3弄1號","121.427313333333","25.0260333333333","6500500","新莊區"
"242042","497-BY","2017/07/10 20:30:05","新北市新莊區天祥街54巷2弄2號","121.416771666667","25.029245","6500500","新莊區"
"242004","442-UM","2017/07/10 20:30:02","新北市新莊區頭前路15巷2號","121.467913333333","25.05223","6500500","新莊區"
"242046","441-UM","2017/07/10 20:30:00","新北市新莊區裕民街72巷16號","121.417866666667","25.0243533333333","6500500","新莊區"
"242031","415-TV","2017/07/10 20:29:59","新北市新莊區三和路48號","121.437838333333","25.038275","6500500","新莊區"
"242002","413-TV","2017/07/10 20:29:59","新北市新莊區中正路147-7號","121.457588333333","25.0372833333333","6500500","新莊區"
"242039","400-BY","2017/07/10 20:29:59","新北市新莊區民安西路21號","121.426983333333","25.0212666666667","6500500","新莊區"
"242060","362-BY","2017/07/10 20:30:05","新北市新莊區新樹路244巷51號","121.431215","25.019215","6500500","新莊區"
"242011","132-UY","2017/07/10 20:30:03","新北市新莊區中義街51號","121.449218333333","25.0511383333333","6500500","新莊區"
"242034","133-UY","2017/07/10 20:30:10","新北市新莊區建中街90巷12號","121.446946666667","25.0375483333333","6500500","新莊區"
"242019","135-UY","2017/07/10 20:30:04","新北市新莊區民樂街79號","121.457963333333","25.0430233333333","6500500","新莊區"
"242044","172-VK","2017/07/10 20:29:56","新北市新莊區中正路新建巷10號","121.413936666667","25.02248","6500500","新莊區"
"242007","173-VK","2017/07/10 20:30:08","新北市新莊區思源路253號","121.45954","25.0472783333333","6500500","新莊區"
"242056","176-VK","2017/07/10 20:30:11","新北市新莊區瓊泰路152號","121.443161666667","25.0324016666667","6500500","新莊區"
"242013","346-TH","2017/07/10 20:29:55","新北市新莊區中平路270巷7弄29號","121.446048333333","25.05102","6500500","新莊區"
"242050","347-TH","2017/07/10 20:29:50","新北市新莊區西盛街280巷3號","121.427696666667","25.01528","6500500","新莊區"
"242017","348-TH","2017/07/10 20:30:04","新北市新莊區中港二街93號","121.449393333333","25.04574","6500500","新莊區"
"242053","349-TH","2017/07/10 20:30:01","新北市新莊區民安西路245巷7號","121.426531666667","25.0136966666667","6500500","新莊區"
"242015","350-TH","2017/07/10 20:29:48","新北市新莊區中平路34號","121.444781666667","25.043555","6500500","新莊區"
"242009","351-TH","2017/07/10 20:30:02","新北市新莊區福壽街99巷15弄7號","121.456916666667","25.0501983333333","6500500","新莊區"
"238023","601-UM","2017/07/10 20:30:08","新北市樹林區育德街78號","121.387563333333","24.96834","6500700","樹林區"
"238022","312-TH","2017/07/10 18:46:54","新北市樹林區中山路三段204號","121.387206666667","24.9683483333333","6500700","樹林區"
"221008","489-VK","2017/07/10 20:30:07","新北市汐止區康寧街349號","121.62808","25.06759","6501100","汐止區"
"221036","130-UY","2017/07/10 20:30:01","新北市汐止區新台五路二段126巷13弄1號","121.663698333333","25.0659966666667","6501100","汐止區"
"221015","131-UY","2017/07/10 20:30:05","新北市汐止區建成路142巷19弄7號","121.66206","25.07387","6501100","汐止區"
"221031","277-VK","2017/07/10 00:47:01","新北市汐止區汐萬路一段256巷3號","121.652483333333","25.0746383333333","6501100","汐止區"
"221012","278-VK","2017/07/10 20:30:03","新北市汐止區大同路三段406號","121.68192","25.0718266666667","6501100","汐止區"
"221023","279-VK","2017/07/10 18:54:43","新北市汐止區康寧街885巷24號","121.65178","25.0766866666667","6501100","汐止區"
"221032","280-BY","2017/07/10 20:30:09","新北市汐止區弘道街53巷18號","121.618773333333","25.0492766666667","6501100","汐止區"
"221027","281-BY","2017/07/10 20:29:59","新北市汐止區中正路260號","121.657175","25.0685483333333","6501100","汐止區"
"221038","297-VK","2017/07/10 20:29:58","新北市汐止區忠孝東路462巷25號","121.666376666667","25.0736166666667","6501100","汐止區"
"221029","298-VK","2017/07/10 20:30:08","新北市汐止區樟樹一路129巷32號","121.64055","25.0652766666667","6501100","汐止區"
"221021","299-VK","2017/07/10 20:30:09","新北市汐止區水源路一段293號","121.654345","25.0582166666667","6501100","汐止區"
"221035","622-UM","2017/07/10 20:29:58","新北市汐止區長江街101-5號","121.658628333333","25.0731566666667","6501100","汐止區"
"221025","623-UM","2017/07/10 20:29:49","新北市汐止區水源路二段88巷1弄8號","121.656433333333","25.05563","6501100","汐止區"
"221010","646-BX","2017/07/10 20:29:48","新北市汐止區八連路二段439號","121.62859","25.1035483333333","6501100","汐止區"
"221033","647-BX","2017/07/10 20:29:56","新北市汐止區林森街73巷5號","121.62353","25.040965","6501100","汐止區"
"221002","707-TV","2017/07/10 20:29:59","新北市汐止區福德二路37-1號","121.634708333333","25.0675683333333","6501100","汐止區"
"221018","753-BX","2017/07/10 20:29:52","新北市汐止區茄苳路225巷2號","121.671076666667","25.06869","6501100","汐止區"
"220103","257-TC","2017/07/10 20:30:07","新北市板橋區漢生東路23巷56弄2號","121.466166666667","25.0182633333333","6500100","板橋區"
"220083","286-VK","2017/07/10 20:30:02","新北市板橋區僑中二街100巷32號","121.444713333333","25.00869","6500100","板橋區"
"220081","287-VK","2017/07/10 20:30:04","新北市板橋區大觀路二段46號","121.445405","25.00078","6500100","板橋區"
"220061","293-UM","2017/07/10 20:29:59","新北市板橋區四川路一段286巷2號","121.458585","25.0008666666667","6500100","板橋區"
"220062","295-UM","2017/07/10 20:29:53","新北市板橋區中山路412巷58弄61號","121.483113333333","25.0186283333333","6500100","板橋區"
"220080","461-BY","2017/07/10 20:29:54","新北市樹林區環河路10-1號","121.424251666667","24.9759966666667","6500100","板橋區"
"220089","487-VK","2017/07/10 20:30:05","新北市板橋區四維路251號","121.46353","25.0277683333333","6500100","板橋區"
"220102","830-TW","2017/07/10 20:29:57","新北市板橋區民生路二段161巷1號","121.469785","25.0199366666667","6500100","板橋區"
"220074","895-R6","2017/07/10 20:29:59","新北市板橋區府中路67號","121.458131666667","25.0094783333333","6500100","板橋區"
"220070","AAC-253","2017/07/10 20:29:56","新北市板橋區四川路二段245巷50號","121.451963333333","24.9924466666667","6500100","板橋區"
