"lineid","car","time","location","longitude","latitude","cityid","cityname"
"235026","800-TS","2017/07/10 21:44:06","新北市中和區員山路36巷16-3號","121.4851","24.9912983333333","6500300","中和區"
"247006","341-TH","2017/07/10 22:08:03","新北市五股區中興路三段2巷10號","121.448171666667","25.08199","6501400","蘆洲區"
"251004","009-UM","2017/07/10 22:08:06","新北市淡水區民族路33號","121.462278333333","25.1357966666667","6501000","淡水區"
"251007","179-VK","2017/07/10 22:08:01","新北市淡水區北新路180號","121.449511666667","25.1787766666667","6501000","淡水區"
"251008","181-VK","2017/07/10 22:08:06","新北市淡水區學府路104號","121.449853333333","25.1717566666667","6501000","淡水區"
"251015","442-VK","2017/07/10 22:08:03","新北市淡水區水碓街7號","121.443168333333","25.1771333333333","6501000","淡水區"
"251005","443-VK","2017/07/10 22:07:54","新北市淡水區鄧公路30巷1弄67號","121.45444","25.1695616666667","6501000","淡水區"
"251011","650-BX","2017/07/10 22:08:13","新北市淡水區沙崙路200號","121.424701666667","25.1839166666667","6501000","淡水區"
"238022","312-TH","2017/07/10 18:46:54","新北市樹林區中山路三段204號","121.387206666667","24.9683483333333","6500700","樹林區"
