"lineid","car","time","location","longitude","latitude","cityid","cityname"
"232006","290-BY","2017/07/11 06:38:00","新北市坪林區北宜路八段558號","121.717991666667","24.90934","6502000","坪林區"
"232002","291-BY","2017/07/11 06:38:07","新北市坪林區國中路3號","121.712888333333","24.9370883333333","6502000","坪林區"
"232013","705-BZ","2017/07/11 02:56:19","新北市坪林區北宜路八段558號","121.717996666667","24.90925","6502000","坪林區"
"244002","248-BX","2017/07/11 06:36:37","新北市林口區粉寮路二段160巷28號","121.405138333333","25.0907533333333","6501700","林口區"
"235043","352-BY","2017/07/11 06:38:11","新北市中和區和平街29-1號","121.507485","24.9910883333333","6500300","中和區"
"223006","022-BY","2017/07/11 06:38:02","新北市石碇區小粗坑(潭邊里)5號","121.672855","24.9832883333333","6501900","石碇區"
"223002","198-BX","2017/07/11 06:37:56","新北市石碇區小粗坑(潭邊里)9-1號","121.67762","24.9844833333333","6501900","石碇區"
"223003","205-TH","2017/07/11 06:37:59","新北市石碇區碇坪路一段198號","121.671275","24.9822716666667","6501900","石碇區"
"223008","406-TH","2017/07/11 06:37:50","新北市石碇區小粗坑(潭邊里)14-7號","121.68026","24.9831383333333","6501900","石碇區"
"223001","437-BY","2017/07/11 06:37:48","新北市石碇區小粗坑(潭邊里)2號","121.66934","24.98284","6501900","石碇區"
"227006","282-VK","2017/07/11 06:37:56","新北市雙溪區牡丹里聖南26號","121.856526666667","25.05317","6502500","雙溪區"
"236008","165-UM","2017/07/11 06:37:56","新北市土城區永平街51號","121.427975","24.959195","6501300","土城區"
