"lineid","car","time","location","longitude","latitude","cityid","cityname"
"234044","148-BY","2017/09/26 12:58:28","新北市永和區秀朗路二段153號","121.524975","25.0016866666667","6500400","永和區"
"234012","149-BY","2017/09/26 12:58:16","新北市永和區信義路17巷22號","121.513161666667","25.0112116666667","6500400","永和區"
"234005","208-UY","2017/09/26 12:58:22","新北市永和區永和路二段70號","121.514931666667","25.01112","6500400","永和區"
"234078","298-R6","2017/09/26 12:58:30","新北市永和區永亨路79號","121.521715","25.005765","6500400","永和區"
"234036","336-UY","2017/09/26 12:58:15","新北市永和區成功路二段199-2號","121.526626666667","24.9960433333333","6500400","永和區"
"234062","337-UY","2017/09/26 12:58:22","新北市永和區秀朗路一段164號","121.518481666667","25.0033683333333","6500400","永和區"
"234084","338-UY","2017/09/26 12:58:25","新北市永和區永寧街121號","121.518085","25.0057283333333","6500400","永和區"
"234068","552-UM","2017/09/26 12:58:27","新北市永和區中興街84巷1號","121.518571666667","25.0119783333333","6500400","永和區"
"234052","553-UM","2017/09/26 12:58:20","新北市永和區竹林路64號","121.518386666667","25.0135433333333","6500400","永和區"
"234015","745-BX","2017/09/26 12:58:19","新北市永和區永和路二段299號","121.516068333333","25.0161916666667","6500400","永和區"
"234028","746-BX","2017/09/26 12:58:25","新北市永和區秀朗路二段274號","121.525998333333","24.9979866666667","6500400","永和區"
"234060","AAD-866","2017/09/26 12:58:22","新北市永和區福和路299號","121.516451666667","25.007325","6500400","永和區"
"234040","862-TW","2017/09/26 12:58:17","新北市永和區永貞路267號","121.511856666667","25.00471","6500400","永和區"
"234048","863-TW","2017/09/26 12:58:30","新北市永和區文化路194號","121.510798333333","25.0162416666667","6500400","永和區"
"234025","9371-KE","2017/09/26 12:58:26","新北市永和區永和路一段42號","121.513075","25.0056033333333","6500400","永和區"
"234010","9373-KE","2017/09/26 12:58:26","新北市永和區文化路113巷21弄26號","121.513728333333","25.0140116666667","6500400","永和區"
"248017","225-UY","2017/09/26 12:58:23","新北市五股區中興路二段83巷26-6號","121.460088333333","25.0753033333333","6501500","五股區"
"234022","9380-KE","2017/09/26 12:58:25","新北市永和區竹林路75巷33弄35號","121.520933333333","25.0145216666667","6500400","永和區"
"234076","969-R7","2017/09/26 12:58:20","新北市永和區民享街3號","121.515145","24.995625","6500400","永和區"
"234072","AAC-211","2017/09/26 12:58:30","新北市永和區豫溪街217巷15號","121.524976666667","25.0101116666667","6500400","永和區"
"234066","AAC-212","2017/09/26 12:58:26","新北市永和區永和路一段22號","121.513068333333","25.004855","6500400","永和區"
"234001","AAC-295","2017/09/26 12:58:30","新北市永和區永平路20號","121.513495","25.0088216666667","6500400","永和區"
"231002","002-UM","2017/09/26 12:58:14","新北市新店區安華路28-1號","121.519596666667","24.96071","6500600","新店區"
"231028","046-UY","2017/09/26 12:58:19","新北市新店區安華路28-1號","121.519505","24.9608533333333","6500600","新店區"
"231030","047-UY","2017/09/26 12:58:34","新北市新店區安華路28-1號","121.519045","24.9611166666667","6500600","新店區"
"231018","107-UY","2017/09/26 12:58:25","新北市新店區安康路一段355-3號","121.51918","24.961455","6500600","新店區"
"231012","108-UY","2017/09/26 12:58:18","新北市新店區安華路28-1號","121.519415","24.961105","6500600","新店區"
"231020","187-VK","2017/09/26 12:58:28","新北市新店區安華路28-1號","121.51953","24.9610516666667","6500600","新店區"
"231069","189-VK","2017/09/26 11:53:48","新北市新店區安華路28-1號","121.519648333333","24.96107","6500600","新店區"
"231015","215-TC","2017/09/26 12:58:16","新北市新店區安華路28-1號","121.519906666667","24.96121","6500600","新店區"
"231034","268-BY","2017/09/26 12:58:19","新北市新店區安華路28-1號","121.519343333333","24.960635","6500600","新店區"
"231010","278-BY","2017/09/26 12:58:15","新北市新店區安華路28-1號","121.519605","24.9612666666667","6500600","新店區"
"231023","AAD-862","2017/09/26 12:58:30","新北市新店區安華路28-1號","121.519771666667","24.96096","6500600","新店區"
"231027","3712-VJ","2017/09/26 12:58:32","新北市新店區安華路3號","121.519043333333","24.96045","6500600","新店區"
"231025","4716-K9","2017/09/26 12:58:14","新北市新店區安華路28-1號","121.519713333333","24.96105","6500600","新店區"
"231038","4715-K9","2017/09/26 12:58:15","新北市新店區安華路1-1號","121.519301666667","24.9603483333333","6500600","新店區"
"231036","512-UM","2017/09/26 12:58:12","新北市新店區安華路1-1號","121.519608333333","24.9600916666667","6500600","新店區"
"231006","617-UM","2017/09/26 12:58:22","新北市新店區安華路28-1號","121.519488333333","24.9607566666667","6500600","新店區"
"231001","619-UM","2017/09/26 12:58:15","新北市新店區安華路28-1號","121.519426666667","24.9606916666667","6500600","新店區"
"231003","641-BX","2017/09/26 12:58:17","新北市新店區安康路一段355-3號","121.519753333333","24.9615983333333","6500600","新店區"
"231013","719-UM","2017/09/26 12:58:27","新北市新店區安華路28-1號","121.519455","24.96139","6500600","新店區"
"231032","720-UM","2017/09/26 12:58:17","新北市新店區安華路28-1號","121.51998","24.9609633333333","6500600","新店區"
"231005","897-TW","2017/09/26 12:58:23","新北市新店區安華路28-1號","121.519525","24.96073","6500600","新店區"
"231004","899-TW","2017/09/26 12:58:27","新北市新店區安興路95巷60號","121.5128","24.97816","6500600","新店區"
"231037","AKT-0513","2017/09/26 12:58:22","新北市新店區安華路1-1號","121.51931","24.9604666666667","6500600","新店區"
"235027","006-UY","2017/09/26 12:58:28","新北市中和區員山路36巷16-3號","121.485088333333","24.9913233333333","6500300","中和區"
"235029","098-UM","2017/09/26 12:58:14","新北市中和區員山路36巷16-8號","121.485453333333","24.9924166666667","6500300","中和區"
"235004","150-BY","2017/09/26 12:58:24","新北市中和區和城路一段271巷1號","121.485535","24.992215","6500300","中和區"
"235022","151-BY","2017/09/26 12:58:18","新北市中和區中正路501號","121.48912","24.9935466666667","6500300","中和區"
"235019","183-VK","2017/09/26 12:58:32","新北市中和區員山路36巷16-3號","121.485041666667","24.9913833333333","6500300","中和區"
"235002","185-VK","2017/09/26 12:58:23","新北市中和區景平路1號","121.525661666667","24.990075","6500300","中和區"
"235015","376-QA","2017/09/26 05:38:14","新北市中和區員山路36巷13號","121.484175","24.9908783333333","6500300","中和區"
"235025","378-QA","2017/09/26 03:54:06","新北市中和區員山路36巷13號","121.484233333333","24.99125","6500300","中和區"
"235005","802-TS","2017/09/26 12:58:17","新北市中和區員山路36巷16-2號","121.485223333333","24.9917883333333","6500300","中和區"
"235016","805-TS","2017/09/26 12:58:32","新北市中和區員山路36巷13號","121.484321666667","24.9915116666667","6500300","中和區"
"235026","911-UM","2017/09/26 12:58:23","新北市中和區連城路184號","121.492923333333","24.99688","6500300","中和區"
"235001","AAC-213","2017/09/26 05:01:44","新北市中和區員山路36巷13號","121.48424","24.9916083333333","6500300","中和區"
"228005","097-TW","2017/09/26 12:58:26","新北市貢寮區福連里香蘭街3-3號","121.972435","25.024665","6502600","貢寮區"
"228004","212-TW","2017/09/26 12:58:28","新北市貢寮區吉林里內寮街10號","121.888416666667","24.9903033333333","6502600","貢寮區"
"208004","AAC-292","2017/09/26 12:58:15","新北市金山區磺港里磺港路309號","121.644043333333","25.2275716666667","6502700","金山區"
"207002","749-BX","2017/09/26 12:58:27","新北市萬里區雙興里大坪路39號","121.62511","25.171405","6502800","萬里區"
"252005","073-UM","2017/09/26 12:58:17","新北市三芝區埔坪里埔頭坑44號","121.504576666667","25.2622633333333","6502100","三芝區"
"207001","662-BX","2017/09/26 12:58:23","新北市萬里區萬里里獅頭路22-1號","121.692966666667","25.178195","6502800","萬里區"
"236006","498-BY","2017/09/26 12:58:27","新北市土城區亞洲路34號","121.436076666667","24.9741116666667","6501300","土城區"
"238020","308-TH","2017/09/26 12:58:31","新北市樹林區育德街121巷7號","121.389256666667","24.96819","6500700","樹林區"
"221012","276-VK","2017/09/26 12:58:21","新北市汐止區信義路7號","121.662061666667","25.069305","6501100","汐止區"
"221032","280-BY","2017/09/26 12:58:20","新北市汐止區大同路二段497號","121.660988333333","25.0686083333333","6501100","汐止區"
