"lineid","car","time","location","longitude","latitude","cityid","cityname"
"234036","336-UY","2017/09/26 14:48:15","新北市永和區福和路7巷11弄16號","121.52592","25.0078433333333","6500400","永和區"
"234028","746-BX","2017/09/26 14:48:22","新北市永和區民權路1巷12號","121.520955","24.9983516666667","6500400","永和區"
"234025","9371-KE","2017/09/26 14:48:26","新北市永和區水源街33巷2號","121.510798333333","25.004195","6500400","永和區"
"248017","225-UY","2017/09/26 14:21:43","新北市五股區壟路16號","121.415391666667","25.0856766666667","6501500","五股區"
"244002","657-BX","2017/09/26 14:48:12","新北市林口區竹林路265號","121.389495","25.0807416666667","6501700","林口區"
"231002","002-UM","2017/09/26 14:48:33","新北市新店區民權路81號","121.538326666667","24.9829116666667","6500600","新店區"
"231024","0293-UT","2017/09/26 14:48:21","新北市新店區新生街3巷2號","121.540361666667","24.965695","6500600","新店區"
"231028","046-UY","2017/09/26 14:48:19","新北市新店區安德街134號","121.508578333333","24.9602533333333","6500600","新店區"
"231030","047-UY","2017/09/26 14:48:14","新北市新店區安民街382號","121.51626","24.9766116666667","6500600","新店區"
"231029","106-UY","2017/09/26 14:48:11","新北市新店區安康路三段622號","121.479351666667","24.9462683333333","6500600","新店區"
"231018","107-UY","2017/09/26 14:48:30","新北市新店區中央二街1號","121.529273333333","24.9728833333333","6500600","新店區"
"231012","108-UY","2017/09/26 14:48:18","新北市新店區永華街51號","121.544433333333","24.9758916666667","6500600","新店區"
"231020","187-VK","2017/09/26 14:48:28","新北市新店區桂山路29巷16號","121.558488333333","24.9056083333333","6500600","新店區"
"231069","189-VK","2017/09/26 11:53:48","新北市新店區安華路28-1號","121.519648333333","24.96107","6500600","新店區"
"231015","215-TC","2017/09/26 14:48:16","新北市新店區北宜路三段221號","121.592406666667","24.9533433333333","6500600","新店區"
"231034","268-BY","2017/09/26 14:48:18","新北市新店區車子路1-1號","121.504796666667","24.9578966666667","6500600","新店區"
"231023","AAD-862","2017/09/26 14:48:30","新北市新店區檳榔路109號","121.54437","24.9617083333333","6500600","新店區"
"231025","4716-K9","2017/09/26 14:48:14","新北市新店區民族路108號","121.538191666667","24.9773516666667","6500600","新店區"
"231038","4715-K9","2017/09/26 14:48:15","新北市新店區安康路二段362號","121.501835","24.9574466666667","6500600","新店區"
"231036","512-UM","2017/09/26 14:48:32","新北市新店區安祥路104巷6弄36號","121.483175","24.9630583333333","6500600","新店區"
"231035","515-UM","2017/09/26 14:48:27","新北市新店區安和路一段52巷2-1號","121.517735","24.9667166666667","6500600","新店區"
"231006","617-UM","2017/09/26 14:48:22","新北市新店區北宜路一段201號","121.547351666667","24.9523066666667","6500600","新店區"
"231001","619-UM","2017/09/26 14:48:15","新北市新店區三民路15號","121.539713333333","24.9723216666667","6500600","新店區"
"231003","641-BX","2017/09/26 14:48:17","新北市新店區中興路二段200-1號","121.548411666667","24.9741633333333","6500600","新店區"
"231013","719-UM","2017/09/26 14:48:27","新北市新店區北新路二段61號","121.54282","24.9732983333333","6500600","新店區"
"231032","720-UM","2017/09/26 14:48:17","新北市新店區安康路二段382-2號","121.500295","24.95741","6500600","新店區"
"231005","897-TW","2017/09/26 14:48:22","新北市新店區復興路94號","121.532368333333","24.988345","6500600","新店區"
"231004","899-TW","2017/09/26 14:48:28","新北市新店區民族路106號","121.538918333333","24.9779333333333","6500600","新店區"
"231037","AKT-0513","2017/09/26 14:48:22","新北市新店區安德街60巷35號","121.511061666667","24.9637883333333","6500600","新店區"
"235030","003-UY","2017/09/26 14:48:20","新北市中和區南工路1號","121.505226666667","24.9998183333333","6500300","中和區"
"235027","006-UY","2017/09/26 14:48:28","新北市中和區連城路261號","121.492625","24.99673","6500300","中和區"
"235020","096-UM","2017/09/26 14:48:15","新北市中和區中山路三段100號","121.477031666667","25.0057916666667","6500300","中和區"
"235003","097-UM","2017/09/26 14:48:20","新北市中和區安平路208號","121.513623333333","24.9997566666667","6500300","中和區"
"235029","098-UM","2017/09/26 14:48:14","新北市中和區永和路55號","121.497088333333","25.005435","6500300","中和區"
"235004","150-BY","2017/09/26 14:48:23","新北市中和區南華路30-14號","121.50364","24.9957933333333","6500300","中和區"
"235022","151-BY","2017/09/26 14:48:31","新北市中和區員山路150巷3號","121.481635","24.9983966666667","6500300","中和區"
"235019","183-VK","2017/09/26 14:48:32","新北市中和區國光街108號","121.47005","25.00059","6500300","中和區"
"235002","185-VK","2017/09/26 14:48:23","新北市中和區自立路141巷3號","121.52241","24.9935733333333","6500300","中和區"
"235013","186-VK","2017/09/26 14:48:30","新北市中和區景平路558號","121.502188333333","24.994985","6500300","中和區"
"235008","293-VK","2017/09/26 14:48:18","新北市中和區南山路272號","121.507896666667","24.9881816666667","6500300","中和區"
"235036","301-VK","2017/09/26 14:48:14","新北市中和區中和路74號","121.500628333333","25.0001766666667","6500300","中和區"
"235032","375-QA","2017/09/26 14:48:31","新北市中和區景平路736巷3弄12號","121.497693333333","25.0037483333333","6500300","中和區"
"235015","376-QA","2017/09/26 14:48:14","新北市中和區中興街233巷8弄8號","121.501228333333","24.9893333333333","6500300","中和區"
"235014","4979-A6","2017/09/26 14:48:21","新北市中和區景平路239巷32號","121.508536666667","24.99221","6500300","中和區"
"235033","4980-A6","2017/09/26 14:48:14","新北市中和區景新街34巷2弄7號","121.502898333333","24.9991016666667","6500300","中和區"
"235034","558-UM","2017/09/26 14:48:08","新北市中和區泰和街46巷17號","121.498278333333","25.0002166666667","6500300","中和區"
"235007","611-BX","2017/09/26 14:48:25","新北市中和區安和路15號","121.511243333333","24.993805","6500300","中和區"
"235018","640-BX","2017/09/26 14:48:29","新北市中和區莒光路133號","121.472588333333","25.001715","6500300","中和區"
"235024","647-TV","2017/09/26 14:48:27","新北市中和區員山路390號","121.480698333333","25.00458","6500300","中和區"
"235011","732-UM","2017/09/26 14:48:32","新北市中和區和平街78號","121.50789","24.9912933333333","6500300","中和區"
"235010","733-UM","2017/09/26 14:48:22","新北市中和區仁愛街71號","121.511531666667","24.9874783333333","6500300","中和區"
"235021","801-TS","2017/09/26 14:48:31","新北市中和區員山路152-3號","121.481375","24.9986116666667","6500300","中和區"
"235005","802-TS","2017/09/26 14:48:17","新北市中和區中和路388號","121.510928333333","25.0024033333333","6500300","中和區"
"235016","805-TS","2017/09/26 14:48:31","新北市中和區興南路二段77號","121.506635","24.9850216666667","6500300","中和區"
"235012","896-TW","2017/09/26 14:48:13","新北市中和區忠孝街122-2號","121.512155","24.9860483333333","6500300","中和區"
"235017","900-TW","2017/09/26 14:48:22","新北市中和區國光街142巷46號","121.467556666667","25.0021383333333","6500300","中和區"
"235026","911-UM","2017/09/26 14:48:23","新北市中和區建二路56號","121.486046666667","25.0037583333333","6500300","中和區"
"235001","AAC-213","2017/09/26 14:48:25","新北市中和區秀朗路三段130-2號","121.524608333333","24.9919783333333","6500300","中和區"
"235023","AAC-215","2017/09/26 14:48:33","新北市中和區圓通路305巷5弄12號","121.493956666667","24.9902883333333","6500300","中和區"
"220016","013-TV","2017/09/26 14:48:31","新北市板橋區中山路二段412巷21弄25號","121.484108333333","25.0202783333333","6500100","板橋區"
"220013","072-UY","2017/09/26 14:48:16","新北市板橋區民族路270巷47號","121.469146666667","25.0057683333333","6500100","板橋區"
"220034","073-UY","2017/09/26 14:48:21","新北市板橋區南雅西路二段14號","121.45322","25.0093","6500100","板橋區"
"220105","075-UY","2017/09/26 14:48:16","新北市板橋區民治街57巷32-1號","121.480285","25.0342316666667","6500100","板橋區"
"220017","AAD-861","2017/09/26 14:48:21","新北市板橋區貴興路117號","121.455616666667","25.00244","6500100","板橋區"
"247009","339-TH","2017/09/26 14:48:19","新北市五股區中興路二段92號","121.460531666667","25.0775366666667","6501400","蘆洲區"
"247001","337-TH","2017/09/26 14:48:26","新北市蘆洲區長安街246巷37號","121.45874","25.086605","6501400","蘆洲區"
"247004","336-TH","2017/09/26 14:44:08","新北市五股區中興路三段163號","121.449271666667","25.080675","6501400","蘆洲區"
"247015","057-VK","2017/09/26 14:48:32","新北市蘆洲區和平路172號","121.466548333333","25.0813883333333","6501400","蘆洲區"
"247007","053-VK","2017/09/26 14:48:18","新北市蘆洲區中山一路97巷24號","121.475995","25.0809733333333","6501400","蘆洲區"
"247013","007-UY","2017/09/26 14:48:28","新北市蘆洲區成功路142號","121.471898333333","25.0829883333333","6501400","蘆洲區"
"247023","002-UY","2017/09/26 14:48:21","新北市蘆洲區和平路102號","121.468196666667","25.0793883333333","6501400","蘆洲區"
"228005","097-TW","2017/09/26 14:48:26","新北市貢寮區美豐里丹裡街69號","121.90602","25.0563083333333","6502600","貢寮區"
"228004","212-TW","2017/09/26 14:48:28","新北市貢寮區福隆里裕隆街3-1號","121.946171666667","25.0159683333333","6502600","貢寮區"
"227003","400-TW","2017/09/26 14:07:11","新北市雙溪區三貂里政光路3-1號","121.850896666667","25.0632016666667","6502500","雙溪區"
"208004","AAC-292","2017/09/26 14:48:15","新北市金山區兩湖里倒照湖39號","121.590188333333","25.2361166666667","6502700","金山區"
"207002","749-BX","2017/09/26 14:48:27","新北市萬里區崁腳里崁腳路92號","121.646861666667","25.15927","6502800","萬里區"
"252005","073-UM","2017/09/26 14:48:17","新北市三芝區埔坪里埔頭坑157號","121.508948333333","25.2491666666667","6502100","三芝區"
"207001","662-BX","2017/09/26 14:48:23","新北市萬里區雙興里二坪路5號","121.648848333333","25.17508","6502800","萬里區"
"236065","105-UM","2017/09/26 14:48:30","新北市土城區明德路一段161號","121.464628333333","24.9796","6501300","土城區"
"236041","107-UM","2017/09/26 14:48:29","新北市土城區裕民路145-1號","121.451681666667","24.9863183333333","6501300","土城區"
"236075","166-UM","2017/09/26 14:48:31","新北市土城區中央路四段67巷24號","121.417683333333","24.9574233333333","6501300","土城區"
"236029","253-BX","2017/09/26 14:48:25","新北市土城區忠義路36巷20號","121.439855","24.969655","6501300","土城區"
"236025","269-VK","2017/09/26 14:48:14","新北市土城區慶安街57號","121.440885","24.9729883333333","6501300","土城區"
"236013","270-VK","2017/09/26 14:48:30","新北市土城區金城路二段354巷16號","121.460963333333","24.98434","6501300","土城區"
"236034","271-VK","2017/09/26 14:48:20","新北市土城區明德路一段195巷3弄5號","121.464258333333","24.9786","6501300","土城區"
"236017","401-BY","2017/09/26 14:48:16","新北市土城區延安街33巷2號","121.467926666667","24.9844816666667","6501300","土城區"
"236057","912-UM","2017/09/26 14:48:17","新北市土城區中央路三段119-1號","121.434173333333","24.96561","6501300","土城區"
"236045","913-UM","2017/09/26 14:48:27","新北市土城區青雲路1-1號","121.46047","24.9902416666667","6501300","土城區"
"236061","915-UM","2017/09/26 14:48:14","新北市土城區金城路三段251號","121.471678333333","24.99015","6501300","土城區"
"236054","AAC-216","2017/09/26 14:48:29","新北市土城區裕民路157號","121.45238","24.9859916666667","6501300","土城區"
"221012","276-VK","2017/09/26 13:18:54","新北市汐止區汐萬路一段256巷3號","121.653433333333","25.0746383333333","6501100","汐止區"
"221032","280-BY","2017/09/26 14:48:25","新北市汐止區橫科路18巷29號","121.617721666667","25.0500033333333","6501100","汐止區"
"220027","145-BY","2017/09/26 14:48:13","新北市板橋區大仁街53巷1-1號","121.454655","25.0162533333333","6500100","板橋區"
"220028","200-UY","2017/09/26 14:48:25","新北市板橋區大觀路二段153巷22號","121.446513333333","25.0002416666667","6500100","板橋區"
"220030","610-BX","2017/09/26 14:48:25","新北市板橋區溪北路45號","121.427618333333","24.9900933333333","6500100","板橋區"
"220050","245-BX","2017/09/26 14:48:26","新北市板橋區莒光路229巷3號","121.47459","25.0224533333333","6500100","板橋區"
"220014","255-TC","2017/09/25 21:13:48","新北市板橋區民生路二段56-6號","121.471106666667","25.01896","6500100","板橋區"
"220020","277-BY","2017/09/26 14:48:15","新北市板橋區金門街215巷35號","121.43314","24.989745","6500100","板橋區"
"220012","280-UM","2017/09/26 14:48:21","新北市板橋區實踐路5-1號","121.463416666667","25.0078216666667","6500100","板橋區"
"220043","283-UM","2017/09/26 14:48:16","新北市板橋區溪頭街82-3號","121.459213333333","25.03012","6500100","板橋區"
"220019","283-VK","2017/09/26 14:48:17","新北市板橋區五權街30巷24弄17-1號","121.463815","24.993435","6500100","板橋區"
"220001","285-VK","2017/09/26 14:48:14","新北市板橋區中山路二段60巷1弄27號","121.475196666667","25.0158033333333","6500100","板橋區"
"220031","286-VK","2017/09/26 14:48:26","新北市板橋區僑中二街10巷30號","121.445831666667","25.0111466666667","6500100","板橋區"
"220029","287-VK","2017/09/26 14:48:27","新北市板橋區僑中一街2號","121.449326666667","25.0112383333333","6500100","板橋區"
"220039","288-VK","2017/09/26 14:48:30","新北市板橋區龍泉街90巷14號","121.456201666667","25.0250183333333","6500100","板橋區"
"220009","293-UM","2017/09/26 14:48:25","新北市板橋區觀光街57巷15弄1號","121.470285","25.0161583333333","6500100","板橋區"
"220032","296-UM","2017/09/26 14:48:26","新北市板橋區溪崑二街106巷28號","121.425681666667","24.9893933333333","6500100","板橋區"
"220023","297-UM","2017/09/26 14:48:14","新北市板橋區金華街8巷2號","121.455518333333","25.0199983333333","6500100","板橋區"
"220010","303-R5","2017/09/26 14:48:18","新北市板橋區萬安街85巷1弄11號","121.484501666667","25.0250183333333","6500100","板橋區"
"220041","307-R5","2017/09/26 14:48:25","新北市板橋區四維路259巷32號","121.461823333333","25.0274116666667","6500100","板橋區"
"220047","317-R6","2017/09/26 14:48:14","新北市板橋區新海路385巷12號","121.458403333333","25.025805","6500100","板橋區"
"220038","487-VK","2017/09/26 14:48:14","新北市板橋區龍泉街133號","121.457618333333","25.023925","6500100","板橋區"
"220037","491-VK","2017/09/26 14:48:28","新北市板橋區仁化街143號","121.4776","25.0329916666667","6500100","板橋區"
"220052","561-BX","2017/09/26 14:48:20","新北市板橋區陽明街29巷24號","121.464175","25.0225333333333","6500100","板橋區"
"220011","609-BX","2017/09/26 14:48:31","新北市板橋區中山路二段539巷18弄1號","121.483055","25.0224416666667","6500100","板橋區"
"220040","637-BX","2017/09/26 14:48:22","新北市板橋區民治街97號","121.47922","25.031655","6500100","板橋區"
"220005","686-BX","2017/09/26 14:48:30","新北市板橋區和平路14巷38號","121.461536666667","24.991625","6500100","板橋區"
"220025","687-BX","2017/09/26 14:48:26","新北市板橋區僑中一街102巷7弄19號","121.446045","25.0128866666667","6500100","板橋區"
"220042","689-BX","2017/09/26 14:48:32","新北市板橋區長江路二段59號","121.464643333333","25.0314433333333","6500100","板橋區"
"220002","741-BX","2017/09/26 14:48:28","新北市板橋區國泰街75巷28弄90號","121.467261666667","25.0041016666667","6500100","板橋區"
"220003","827-TW","2017/09/26 14:48:26","新北市板橋區國慶路149巷21弄4號","121.460768333333","24.9974683333333","6500100","板橋區"
"220051","830-TW","2017/09/26 14:06:37","新北市板橋區田單街2巷24號","121.481486666667","25.0278516666667","6500100","板橋區"
"220045","831-TW","2017/09/26 14:48:25","新北市板橋區民生路二段226巷31弄1號","121.471078333333","25.0221216666667","6500100","板橋區"
"220022","895-R6","2017/09/26 14:48:32","新北市板橋區文化路一段32巷23號","121.459975","25.0111333333333","6500100","板橋區"
"220021","985-R7","2017/09/26 14:48:26","新北市板橋區南雅西路二段164號","121.45173","25.013615","6500100","板橋區"
"220046","AAC-210","2017/09/26 14:48:25","新北市板橋區漢生西路60號","121.463108333333","25.018915","6500100","板橋區"
"220018","AAC-253","2017/09/26 14:48:18","新北市板橋區民族路135號","121.467701666667","25.0079416666667","6500100","板橋區"
