"lineid","car","time","location","longitude","latitude","cityid","cityname"
"234036","336-UY","2017/09/26 15:08:15","新北市五股區凌雲路三段24巷7號","121.438118333333","25.1064516666667","6500400","永和區"
"248017","225-UY","2017/09/26 15:08:28","新北市五股區登林路124號","121.412193333333","25.0773233333333","6501500","五股區"
"244002","657-BX","2017/09/26 15:08:32","新北市林口區竹林路265號","121.389535","25.08077","6501700","林口區"
"231002","002-UM","2017/09/26 15:08:24","新北市新店區中正路543-2號","121.533575","24.9871883333333","6500600","新店區"
"231024","0293-UT","2017/09/26 15:08:21","新北市新店區中華路42巷14號","121.540481666667","24.96862","6500600","新店區"
"231028","046-UY","2017/09/26 15:08:19","新北市新店區僑信路27號","121.499336666667","24.950635","6500600","新店區"
"231030","047-UY","2017/09/26 15:08:14","新北市新店區安民街339號","121.516918333333","24.9748766666667","6500600","新店區"
"231029","106-UY","2017/09/26 15:08:31","新北市新店區安康路三段738號","121.473843333333","24.9420566666667","6500600","新店區"
"231018","107-UY","2017/09/26 15:08:30","新北市新店區中央六街29號","121.529161666667","24.9751883333333","6500600","新店區"
"231012","108-UY","2017/09/26 15:08:18","新北市新店區寶元路一段61號","121.542088333333","24.9858816666667","6500600","新店區"
"231020","187-VK","2017/09/26 15:08:28","新北市新店區永福路54-2號","121.558131666667","24.9287233333333","6500600","新店區"
"231069","189-VK","2017/09/26 11:53:48","新北市新店區安華路28-1號","121.519648333333","24.96107","6500600","新店區"
"231015","215-TC","2017/09/26 15:05:56","新北市新店區明山路5號","121.563291666667","24.9554333333333","6500600","新店區"
"231026","256-BX","2017/09/26 15:08:15","新北市新店區建興街7號","121.539881666667","24.97639","6500600","新店區"
"231034","268-BY","2017/09/26 15:08:18","新北市新店區玫瑰路4-1號","121.493608333333","24.951405","6500600","新店區"
"231023","AAD-862","2017/09/26 15:08:19","新北市新店區檳榔路41巷2號","121.54283","24.9633233333333","6500600","新店區"
"231025","4716-K9","2017/09/26 15:08:14","新北市新店區建國路249號","121.537556666667","24.9826066666667","6500600","新店區"
"231036","512-UM","2017/09/26 15:08:25","新北市新店區安祥路104巷35號","121.482228333333","24.963375","6500600","新店區"
"231035","515-UM","2017/09/26 15:08:27","新北市新店區永安街34巷13號","121.518298333333","24.9862216666667","6500600","新店區"
"231006","617-UM","2017/09/26 15:08:22","新北市新店區新坡一街58-3號","121.550183333333","24.963955","6500600","新店區"
"231001","619-UM","2017/09/26 15:08:15","新北市新店區中正路276號","121.538856666667","24.97373","6500600","新店區"
"231003","641-BX","2017/09/26 15:08:17","新北市新店區寶橋路207號","121.548598333333","24.977045","6500600","新店區"
"231039","718-UY","2017/09/26 15:08:12","新北市新店區民權路19號","121.542","24.982765","6500600","新店區"
"231032","720-UM","2017/09/26 15:07:57","新北市新店區安泰路177號","121.490916666667","24.9321183333333","6500600","新店區"
"231005","897-TW","2017/09/26 15:08:22","新北市新店區順安街8號","121.541058333333","24.9848866666667","6500600","新店區"
"231004","899-TW","2017/09/26 15:08:28","新北市新店區建國路30號","121.54049","24.9745","6500600","新店區"
"231037","AKT-0513","2017/09/26 15:08:22","新北市新店區安民街365巷7弄2號","121.516076666667","24.97528","6500600","新店區"
"235030","003-UY","2017/09/26 15:08:20","新北市中和區中山路二段3巷58號","121.50762","25.00473","6500300","中和區"
"235003","097-UM","2017/09/26 15:08:20","新北市中和區安樂路217巷40弄1號","121.513298333333","24.9978883333333","6500300","中和區"
"235004","150-BY","2017/09/26 15:08:23","新北市中和區中山路二段106號","121.503195","25.0040916666667","6500300","中和區"
"235022","151-BY","2017/09/26 15:08:18","新北市中和區民樂路81號","121.484628333333","25.0014016666667","6500300","中和區"
"235032","375-QA","2017/09/26 15:08:11","新北市中和區永和路100號","121.496755","25.00567","6500300","中和區"
"235014","4979-A6","2017/09/26 15:08:21","新北市中和區景新街264號","121.509911666667","24.99305","6500300","中和區"
"235033","4980-A6","2017/09/26 15:08:24","新北市中和區中正路538號","121.48752","24.9945683333333","6500300","中和區"
"235034","558-UM","2017/09/26 15:08:07","新北市中和區景平路632號","121.500286666667","24.9980283333333","6500300","中和區"
"235007","611-BX","2017/09/26 15:08:25","新北市中和區興南路二段159巷7號","121.505408333333","24.983215","6500300","中和區"
"235018","640-BX","2017/09/26 15:08:29","新北市中和區自治街6號","121.474261666667","25.003135","6500300","中和區"
"235010","733-UM","2017/09/26 15:08:22","新北市中和區忠孝街46-2號","121.511148333333","24.9835033333333","6500300","中和區"
"235012","896-TW","2017/09/26 15:08:33","新北市中和區興南路一段140號","121.50893","24.9879466666667","6500300","中和區"
"235026","911-UM","2017/09/26 15:08:23","新北市中和區華新街143巷106弄34號","121.506003333333","24.9777116666667","6500300","中和區"
"235001","AAC-213","2017/09/26 15:08:24","新北市中和區秀朗路三段128巷1弄22號","121.523715","24.9916366666667","6500300","中和區"
"235023","AAC-215","2017/09/26 15:08:33","新北市中和區圓通路367巷13弄27號","121.493031666667","24.98844","6500300","中和區"
"220016","013-TV","2017/09/26 15:08:11","新北市板橋區民生路二段62號","121.47208","25.0179166666667","6500100","板橋區"
"220013","072-UY","2017/09/26 15:08:16","新北市板橋區實踐路90號","121.464058333333","25.0051083333333","6500100","板橋區"
"220017","AAD-861","2017/09/26 15:08:14","新北市板橋區貴興路111號","121.455866666667","25.002545","6500100","板橋區"
"247004","336-TH","2017/09/26 14:44:08","新北市五股區中興路三段163號","121.449271666667","25.080675","6501400","蘆洲區"
"228004","212-TW","2017/09/26 15:08:28","新北市貢寮區雙玉里田寮洋街7號","121.925853333333","25.022335","6502600","貢寮區"
"227003","400-TW","2017/09/26 14:07:11","新北市雙溪區三貂里政光路3-1號","121.850896666667","25.0632016666667","6502500","雙溪區"
"208004","AAC-292","2017/09/26 15:08:14","新北市金山區法鼓路555號","121.61527","25.2424133333333","6502700","金山區"
"207002","749-BX","2017/09/26 15:08:27","新北市萬里區崁腳里內中福路97號","121.653646666667","25.1637283333333","6502800","萬里區"
"207001","662-BX","2017/09/26 15:08:23","新北市萬里區大鵬里萬里加投9號","121.652281666667","25.2087","6502800","萬里區"
"236065","105-UM","2017/09/26 15:08:30","新北市土城區中華路一段18號","121.447718333333","24.9902983333333","6501300","土城區"
"236041","107-UM","2017/09/26 15:08:29","新北市土城區清水路85巷3弄2號","121.45618","24.9819683333333","6501300","土城區"
"236075","166-UM","2017/09/26 15:08:27","新北市土城區中州路27巷76號","121.41259","24.9564766666667","6501300","土城區"
"236029","253-BX","2017/09/26 15:08:25","新北市土城區福祥街55號","121.44088","24.980135","6501300","土城區"
"236025","269-VK","2017/09/26 15:08:14","新北市土城區員林街76號","121.444423333333","24.9766516666667","6501300","土城區"
"236013","270-VK","2017/09/26 15:08:29","新北市土城區學府路一段91號","121.456335","24.9879566666667","6501300","土城區"
"236034","271-VK","2017/09/26 15:08:20","新北市土城區仁愛路16巷22號","121.460093333333","24.9798216666667","6501300","土城區"
"236017","401-BY","2017/09/26 15:08:16","新北市土城區延吉街146號","121.469108333333","24.985625","6501300","土城區"
"236057","912-UM","2017/09/26 15:08:29","新北市土城區金城路二段214號","121.455773333333","24.9824766666667","6501300","土城區"
"236045","913-UM","2017/09/26 15:07:58","新北市土城區清水路207巷2號","121.460248333333","24.9820933333333","6501300","土城區"
"236061","915-UM","2017/09/26 15:08:15","新北市土城區延平街38號","121.4681","24.9920016666667","6501300","土城區"
"236054","AAC-216","2017/09/26 15:08:29","新北市土城區學府路一段276號","121.450226666667","24.9833233333333","6501300","土城區"
"221012","276-VK","2017/09/26 13:18:54","新北市汐止區汐萬路一段256巷3號","121.653433333333","25.0746383333333","6501100","汐止區"
"220050","245-BX","2017/09/26 15:08:26","新北市板橋區莒光路165巷32-2號","121.474235","25.0247683333333","6500100","板橋區"
"220014","255-TC","2017/09/25 21:13:48","新北市板橋區民生路二段56-6號","121.471106666667","25.01896","6500100","板橋區"
"220012","280-UM","2017/09/26 15:08:32","新北市板橋區長安街331巷18-2號","121.474131666667","25.012525","6500100","板橋區"
"220043","283-UM","2017/09/26 15:08:16","新北市板橋區陽明街18號","121.466413333333","25.02168","6500100","板橋區"
"220019","283-VK","2017/09/26 15:08:17","新北市板橋區四川路二段77號","121.453138333333","24.9950216666667","6500100","板橋區"
"220031","286-VK","2017/09/26 15:08:26","新北市板橋區僑中二街100巷30號","121.444776666667","25.0088016666667","6500100","板橋區"
"220029","287-VK","2017/09/26 15:08:27","新北市板橋區僑中一街80巷1弄18號","121.446731666667","25.0120366666667","6500100","板橋區"
"220009","293-UM","2017/09/26 15:08:25","新北市板橋區四川路一段286巷24號","121.457918333333","25.001245","6500100","板橋區"
"220041","307-R5","2017/09/26 15:08:29","新北市板橋區文化路一段45巷1弄4號","121.460505","25.0137283333333","6500100","板橋區"
"220047","317-R6","2017/09/26 15:08:14","新北市板橋區新海路378號","121.459223333333","25.0258433333333","6500100","板橋區"
"220038","487-VK","2017/09/26 15:08:14","新北市板橋區新海路403巷12號","121.45803","25.0265233333333","6500100","板橋區"
"220037","491-VK","2017/09/26 15:08:19","新北市板橋區民治街78-4號","121.479471666667","25.0321833333333","6500100","板橋區"
"220052","561-BX","2017/09/26 15:08:21","新北市板橋區英士路58巷16號","121.460733333333","25.02553","6500100","板橋區"
"220011","609-BX","2017/09/26 15:08:31","新北市板橋區三民路一段197號","121.47921","25.0190133333333","6500100","板橋區"
"220005","686-BX","2017/09/26 15:08:10","新北市板橋區華東街1-9號","121.448168333333","24.994895","6500100","板橋區"
"220025","687-BX","2017/09/26 15:08:26","新北市板橋區華東街1-10號","121.448716666667","24.995025","6500100","板橋區"
"220042","689-BX","2017/09/26 15:08:32","新北市板橋區長江路二段216號","121.467883333333","25.0323133333333","6500100","板橋區"
"220003","827-TW","2017/09/26 15:08:17","新北市板橋區國慶路167巷37-3號","121.461511666667","24.998165","6500100","板橋區"
"220051","830-TW","2017/09/26 14:06:37","新北市板橋區田單街2巷24號","121.481486666667","25.0278516666667","6500100","板橋區"
"220046","AAC-210","2017/09/26 15:08:33","新北市板橋區公館街94-1號","121.461285","25.0166666666667","6500100","板橋區"
"220018","AAC-253","2017/09/26 15:08:18","新北市土城區四川路22號","121.454528333333","24.9967216666667","6500100","板橋區"
