"lineid","car","time","location","longitude","latitude","cityid","cityname"
"234036","336-UY","2017/09/26 15:28:15","新北市林口區太平里180號","121.366543333333","25.1345966666667","6500400","永和區"
"231002","002-UM","2017/09/26 15:28:13","新北市新店區環河路152號","121.535493333333","24.9661116666667","6500600","新店區"
"231024","0293-UT","2017/09/26 15:28:21","新北市新店區安康路一段258號","121.520661666667","24.9639933333333","6500600","新店區"
"231028","046-UY","2017/09/26 15:28:19","新北市新店區僑信路60號","121.499368333333","24.9495916666667","6500600","新店區"
"231030","047-UY","2017/09/26 15:28:34","新北市新店區新和街46號","121.519346666667","24.9849866666667","6500600","新店區"
"231029","106-UY","2017/09/26 15:28:31","新北市新店區安康路三段552-1號","121.481636666667","24.94876","6500600","新店區"
"231018","107-UY","2017/09/26 15:28:30","新北市新店區中央八街71號","121.527895","24.9768033333333","6500600","新店區"
"231012","108-UY","2017/09/26 15:28:18","新北市新店區寶慶街47號","121.542515","24.9865483333333","6500600","新店區"
"231020","187-VK","2017/09/26 15:28:28","新北市新店區湖興路49號","121.561595","24.9347","6500600","新店區"
"231069","189-VK","2017/09/26 11:53:48","新北市新店區安華路28-1號","121.519648333333","24.96107","6500600","新店區"
"231026","256-BX","2017/09/26 15:28:15","新北市新店區三民路117巷8弄2號","121.534085","24.97108","6500600","新店區"
"231034","268-BY","2017/09/26 15:28:29","新北市新店區富貴街16巷2號","121.494085","24.9487383333333","6500600","新店區"
"231023","AAD-862","2017/09/26 15:28:30","新北市新店區北新路一段96巷23號","121.542905","24.9688283333333","6500600","新店區"
"231025","4716-K9","2017/09/26 15:28:14","新北市新店區溪園路511號","121.523768333333","24.977035","6500600","新店區"
"231038","4715-K9","2017/09/26 15:28:15","新北市新店區安華路28-1號","121.520085","24.9608416666667","6500600","新店區"
"231036","512-UM","2017/09/26 15:28:32","新北市新店區安祥路69巷54弄39號","121.482698333333","24.9588483333333","6500600","新店區"
"231035","515-UM","2017/09/26 15:28:27","新北市新店區安民街365巷7弄2號","121.515911666667","24.9754016666667","6500600","新店區"
"231003","641-BX","2017/09/26 15:28:17","新北市新店區寶高路120巷1號","121.554645","24.9761","6500600","新店區"
"231039","718-UY","2017/09/26 15:28:32","新北市新店區中興路三段228巷28號","121.544758333333","24.983545","6500600","新店區"
"231032","720-UM","2017/09/26 15:28:17","新北市新店區裕合街2號","121.489891666667","24.9499216666667","6500600","新店區"
"231005","897-TW","2017/09/26 15:28:22","新北市新店區民權路90巷36號","121.536885","24.9850783333333","6500600","新店區"
"231004","899-TW","2017/09/26 15:28:28","新北市新店區民族路215號","121.536926666667","24.97592","6500600","新店區"
"231037","AKT-0513","2017/09/26 15:28:22","新北市新店區安興路105-1號","121.514645","24.9777616666667","6500600","新店區"
"235030","003-UY","2017/09/26 15:28:20","新北市中和區中山路二段3巷22弄38號","121.50581","25.004075","6500300","中和區"
"235064","005-UY","2017/09/26 15:28:24","新北市中和區員山路36巷16-3號","121.485103333333","24.9914766666667","6500300","中和區"
"235032","375-QA","2017/09/26 15:28:11","新北市中和區中正路762號","121.485356666667","24.99944","6500300","中和區"
"235014","4979-A6","2017/09/26 15:28:21","新北市中和區景平路385巷9弄27號","121.502091666667","24.9941","6500300","中和區"
"235033","4980-A6","2017/09/26 15:28:14","新北市中和區連城路469巷70弄12號","121.48308","24.9935533333333","6500300","中和區"
"235007","611-BX","2017/09/26 15:28:25","新北市中和區中正路630號","121.485316666667","24.99603","6500300","中和區"
"235012","896-TW","2017/09/26 15:28:33","新北市中和區興南路二段49-6號","121.50743","24.98531","6500300","中和區"
"235026","911-UM","2017/09/26 15:28:23","新北市新店區薏仁坑路5號","121.499046666667","24.9589983333333","6500300","中和區"
"235001","AAC-213","2017/09/26 15:27:45","新北市五股區中直路21號","121.42126","25.1120533333333","6500300","中和區"
"235023","AAC-215","2017/09/26 15:28:13","新北市中和區圓通路459號","121.48418","24.985805","6500300","中和區"
"247004","336-TH","2017/09/26 14:44:08","新北市五股區中興路三段163號","121.449271666667","25.080675","6501400","蘆洲區"
"227003","400-TW","2017/09/26 14:07:11","新北市雙溪區三貂里政光路3-1號","121.850896666667","25.0632016666667","6502500","雙溪區"
"208004","AAC-292","2017/09/26 15:28:15","新北市金山區南勢湖20號","121.620775","25.2159","6502700","金山區"
"236065","105-UM","2017/09/26 15:28:30","新北市土城區中正路75號","121.445276666667","24.9759716666667","6501300","土城區"
"236041","107-UM","2017/09/26 15:28:29","新北市土城區學成路22巷3號","121.453465","24.987395","6501300","土城區"
"236075","166-UM","2017/09/26 15:28:31","新北市土城區龍泉路9號","121.409851666667","24.949245","6501300","土城區"
"236029","253-BX","2017/09/26 15:28:24","新北市土城區中央路一段118巷1弄20號","121.445591666667","24.987595","6501300","土城區"
"236025","269-VK","2017/09/26 15:28:14","新北市土城區中央路一段303號","121.443836666667","24.98345","6501300","土城區"
"236013","270-VK","2017/09/26 15:28:29","新北市土城區廣明街26號","121.455723333333","24.9925983333333","6501300","土城區"
"236034","271-VK","2017/09/26 15:28:20","新北市土城區明德路一段20巷1弄1號","121.464761666667","24.98488","6501300","土城區"
"236017","401-BY","2017/09/26 15:28:16","新北市土城區明峰街83號","121.468943333333","24.9874183333333","6501300","土城區"
"236057","912-UM","2017/09/26 15:28:17","新北市土城區中央路二段320號","121.44039","24.9728166666667","6501300","土城區"
"236045","913-UM","2017/09/26 15:25:21","新北市土城區青雲路185號","121.459453333333","24.98257","6501300","土城區"
"236061","915-UM","2017/09/26 15:28:14","新北市土城區延和路18巷13號","121.464813333333","24.98776","6501300","土城區"
"236054","AAC-216","2017/09/26 15:28:29","新北市土城區延和路102號","121.466828333333","24.9896766666667","6501300","土城區"
"221012","276-VK","2017/09/26 13:18:54","新北市汐止區汐萬路一段256巷3號","121.653433333333","25.0746383333333","6501100","汐止區"
"220050","245-BX","2017/09/26 15:28:26","新北市板橋區漢生東路83巷1號","121.46649","25.0160766666667","6500100","板橋區"
"220031","286-VK","2017/09/26 15:28:26","新北市板橋區僑中二街116巷20號","121.444821666667","25.0065566666667","6500100","板橋區"
"220038","487-VK","2017/09/26 15:28:26","新北市板橋區互助街20號","121.462631666667","25.02753","6500100","板橋區"
"220052","561-BX","2017/09/26 15:28:14","新北市板橋區漢生東路43巷2號","121.46581","25.016915","6500100","板橋區"
"220042","689-BX","2017/09/26 15:28:32","新北市板橋區陽明街22號","121.466311666667","25.02178","6500100","板橋區"
