"lineid","car","time","location","longitude","latitude","cityid","cityname"
"234046","148-BY","2017/09/26 19:08:24","新北市永和區得和路373巷16弄3號","121.525213333333","25.0002016666667","6500400","永和區"
"234013","149-BY","2017/09/26 19:08:11","新北市永和區信義路14-1號","121.514348333333","25.0120516666667","6500400","永和區"
"234007","208-UY","2017/09/26 19:08:34","新北市永和區中山路一段326號","121.506361666667","25.0065333333333","6500400","永和區"
"234081","298-R6","2017/09/26 19:08:21","新北市永和區永亨路61號","121.521041666667","25.0060883333333","6500400","永和區"
"234038","336-UY","2017/09/26 19:08:29","新北市永和區民樂街69巷2號","121.527353333333","24.99763","6500400","永和區"
"234064","337-UY","2017/09/26 19:08:16","新北市永和區秀朗路二段1號","121.520641666667","25.00297","6500400","永和區"
"234086","338-UY","2017/09/26 19:08:13","新北市永和區永貞路150號","121.517866666667","25.0045066666667","6500400","永和區"
"234070","552-UM","2017/09/26 19:08:13","新北市永和區豫溪街95巷8號","121.518143333333","25.0107466666667","6500400","永和區"
"234054","553-UM","2017/09/26 19:08:30","新北市永和區中興街133巷22號","121.518053333333","25.0125466666667","6500400","永和區"
"234017","745-BX","2017/09/26 19:08:25","新北市永和區文化路90巷18號","121.513883333333","25.015935","6500400","永和區"
"234030","746-BX","2017/09/26 19:08:27","新北市永和區四維街121號","121.523241666667","24.998295","6500400","永和區"
"234061","AAD-866","2017/09/26 19:08:26","新北市永和區安樂路304巷10弄21號","121.51551","25.0056483333333","6500400","永和區"
"234042","862-TW","2017/09/26 19:08:30","新北市永和區永貞路344號","121.510925","25.0057966666667","6500400","永和區"
"234050","863-TW","2017/09/26 19:08:25","新北市永和區文化路135巷9號","121.510716666667","25.0143266666667","6500400","永和區"
"234026","9371-KE","2017/09/26 19:08:33","新北市永和區安樂路272巷7弄1號","121.51486","25.0042383333333","6500400","永和區"
"234011","9373-KE","2017/09/26 19:08:30","新北市永和區仁愛路141巷5弄3號","121.51186","25.012185","6500400","永和區"
"249005","172-UM","2017/09/26 19:08:18","新北市八里區中華路三段145巷5號","121.392281666667","25.1334633333333","6502300","八里區"
"249001","173-UM","2017/09/26 19:08:25","新北市八里區龍米路二段228-1號","121.432813333333","25.15848","6502300","八里區"
"248016","026-BX","2017/09/26 19:08:29","新北市五股區凌雲路一段116巷19號","121.450375","25.1022883333333","6501500","五股區"
"248006","077-UY","2017/09/26 19:08:25","新北市五股區四維路128號","121.467956666667","25.07495","6501500","五股區"
"248018","225-UY","2017/09/26 19:08:13","新北市五股區凌雲路三段57號","121.425313333333","25.12504","6501500","五股區"
"248010","272-BY","2017/09/26 19:08:20","新北市五股區水碓一路23號","121.430615","25.07132","6501500","五股區"
"248012","655-BX","2017/09/26 19:08:13","新北市五股區中興路四段48巷16號","121.438713333333","25.083465","6501500","五股區"
"248004","677-BX","2017/09/26 19:08:25","新北市五股區六合街3號","121.43184","25.0884583333333","6501500","五股區"
"248002","678-BX","2017/09/26 19:08:18","新北市五股區凌雲路一段158巷14-1號","121.447863333333","25.1035733333333","6501500","五股區"
"234023","9380-KE","2017/09/26 19:08:14","新北市永和區勵行街72巷21號","121.516368333333","25.0125666666667","6500400","永和區"
"234077","969-R7","2017/09/26 19:08:23","新北市永和區民權路34號","121.520236666667","24.998945","6500400","永和區"
"234074","AAC-211","2017/09/26 19:08:20","新北市永和區福和路137號","121.521145","25.0077433333333","6500400","永和區"
"234067","AAC-212","2017/09/26 19:08:23","新北市永和區自由街69號","121.513515","25.0053566666667","6500400","永和區"
"234003","AAC-295","2017/09/26 19:08:29","新北市永和區中山路一段106號","121.511011666667","25.0104083333333","6500400","永和區"
"244013","069-UM","2017/09/26 19:08:29","新北市林口區麗園一街9巷1號","121.37657","25.0713666666667","6501700","林口區"
"244023","483-VK","2017/09/26 19:08:22","新北市林口區文林六街13巷24號","121.370116666667","25.081165","6501700","林口區"
"244011","656-BX","2017/09/26 19:08:28","新北市林口區竹林路74號","121.387805","25.0785016666667","6501700","林口區"
"244025","837-TS","2017/09/26 19:08:19","新北市林口區文化北路二段8-1號","121.369665","25.0815316666667","6501700","林口區"
"243013","AAD-798","2017/09/26 19:08:30","新北市泰山區漢口街3號","121.423311666667","25.0367083333333","6501600","泰山區"
"243009","297-R6","2017/09/26 19:08:24","新北市泰山區明志路一段122巷9號","121.433118333333","25.0635883333333","6501600","泰山區"
"243015","380-SR","2017/09/26 19:08:29","新北市泰山區明志路一段385號","121.430778333333","25.0576966666667","6501600","泰山區"
"243014","421-VK","2017/09/26 19:08:22","新北市泰山區泰林路二段440號","121.426478333333","25.0642766666667","6501600","泰山區"
"243010","KEA-2215","2017/09/26 19:08:23","新北市泰山區明志路一段481號","121.431096666667","25.0553533333333","6501600","泰山區"
"243011","KEA-2216","2017/09/26 19:08:13","新北市泰山區明志路二段320巷3弄1號","121.425708333333","25.0462333333333","6501600","泰山區"
"243012","646-TV","2017/09/26 19:08:33","新北市泰山區辭修路36巷8弄5號","121.427876666667","25.0586966666667","6501600","泰山區"
"243016","680-BX","2017/09/26 19:08:29","新北市泰山區明志路二段367號","121.425356666667","25.0440533333333","6501600","泰山區"
"222003","436-BY","2017/09/26 19:08:11","新北市深坑區深南路142號","121.622958333333","25.0141033333333","6501800","深坑區"
"222001","628-TS","2017/09/26 19:08:17","新北市深坑區北深路一段300號","121.624191666667","25.0057783333333","6501800","深坑區"
"222002","659-BX","2017/09/26 19:08:31","新北市深坑區紅葉街8巷3號","121.633166666667","25.0116533333333","6501800","深坑區"
"231041","002-UM","2017/09/26 19:08:10","新北市新店區中央三街123號","121.524411666667","24.9764216666667","6500600","新店區"
"231059","046-UY","2017/09/26 19:08:15","新北市新店區安和路二段120-6號","121.519181666667","24.9711666666667","6500600","新店區"
"231061","047-UY","2017/09/26 19:08:28","新北市新店區安康路一段122號","121.526976666667","24.96265","6500600","新店區"
"231060","106-UY","2017/09/26 19:08:31","新北市新店區安康路二段278號","121.508338333333","24.9587516666667","6500600","新店區"
"231051","107-UY","2017/09/26 19:08:23","新北市新店區中正路407號","121.534176666667","24.97758","6500600","新店區"
"231048","108-UY","2017/09/26 19:08:21","新北市新店區德正街29號","121.544656666667","24.9713","6500600","新店區"
"231053","187-VK","2017/09/26 19:08:31","新北市新店區自強路60號","121.546178333333","24.925755","6500600","新店區"
"231069","189-VK","2017/09/26 11:53:48","新北市新店區安華路28-1號","121.519648333333","24.96107","6500600","新店區"
"231050","215-TC","2017/09/26 19:08:21","新北市新店區竹林路2巷5號","121.55058","24.9519733333333","6500600","新店區"
"231063","268-BY","2017/09/26 19:08:29","新北市新店區車子路109號","121.505261666667","24.9521283333333","6500600","新店區"
"231046","278-BY","2017/09/26 19:08:23","新北市新店區華城路77巷6號","121.524875","24.9461033333333","6500600","新店區"
"231054","AAD-862","2017/09/26 19:08:11","新北市新店區新店路89號","121.537295","24.95357","6500600","新店區"
"231058","3712-VJ","2017/09/26 19:08:19","新北市新店區中興路一段191號","121.543245","24.9650233333333","6500600","新店區"
"231056","4716-K9","2017/09/26 19:08:10","新北市新店區民權路107-1號","121.53643","24.9822583333333","6500600","新店區"
"231067","4772-VM","2017/09/26 19:08:18","新北市新店區安康路一段195巷5號","121.52634","24.9624666666667","6500600","新店區"
"231065","512-UM","2017/09/26 19:08:26","新北市新店區安祥路147巷42號","121.476116666667","24.95694","6500600","新店區"
"231064","515-UM","2017/09/26 19:08:14","新北市新店區安忠路56巷6號","121.513013333333","24.95949","6500600","新店區"
"231045","617-UM","2017/09/26 19:08:24","新北市新店區北宜路一段109巷2號","121.539848333333","24.9547166666667","6500600","新店區"
"231040","619-UM","2017/09/26 19:08:24","新北市新店區三民路98-2號","121.533971666667","24.973465","6500600","新店區"
"231042","641-BX","2017/09/26 19:08:28","新北市新店區中興路一段172巷1號","121.542885","24.9644666666667","6500600","新店區"
"231049","719-UM","2017/09/26 19:08:13","新北市新店區二十張路25巷16號","121.539236666667","24.982025","6500600","新店區"
"231062","720-UM","2017/09/26 19:08:21","新北市新店區安平路20號","121.52405","24.96715","6500600","新店區"
"231044","897-TW","2017/09/26 19:08:16","新北市新店區寶中路63號","121.54718","24.980405","6500600","新店區"
"231043","899-TW","2017/09/26 19:08:23","新北市新店區寶橋路98號","121.5472","24.9758383333333","6500600","新店區"
"231066","AKT-0513","2017/09/26 19:08:24","新北市新店區安康路三段359巷16號","121.484611666667","24.9496383333333","6500600","新店區"
"241028","022-UY","2017/09/26 19:08:15","新北市三重區新北大道一段1號","121.491473333333","25.0612966666667","6500200","三重區"
"241026","066-VK","2017/09/26 19:08:22","新北市三重區泉州街59號","121.49463","25.05471","6500200","三重區"
"241035","462-BY","2017/09/26 19:08:31","新北市三重區捷運路36號","121.483215","25.0543716666667","6500200","三重區"
"241029","942-UM","2017/09/26 19:08:13","新北市三重區重安街75巷5號","121.491635","25.055845","6500200","三重區"
"235066","003-UY","2017/09/26 19:08:31","新北市中和區廣福路8號","121.50583","25.0030333333333","6500300","中和區"
"235064","005-UY","2017/09/26 19:08:22","新北市中和區景平路545巷10號","121.498081666667","24.9991233333333","6500300","中和區"
"235063","006-UY","2017/09/26 19:08:31","新北市中和區中正路508號","121.488516666667","24.994375","6500300","中和區"
"235056","096-UM","2017/09/26 19:08:32","新北市板橋區三民路二段224號","121.478793333333","25.01158","6500300","中和區"
"235039","097-UM","2017/09/26 19:08:29","新北市中和區立人街14巷26號","121.519528333333","24.9954","6500300","中和區"
"235065","098-UM","2017/09/26 19:08:25","新北市中和區福祥路135號","121.498343333333","25.0074383333333","6500300","中和區"
"235040","150-BY","2017/09/26 19:08:21","新北市中和區宜安路11巷19號","121.51266","24.9949883333333","6500300","中和區"
"235058","151-BY","2017/09/26 19:08:33","新北市中和區員山路143巷12號","121.48043","24.9961816666667","6500300","中和區"
"235055","183-VK","2017/09/26 19:08:13","新北市中和區德光路77巷2弄2號","121.469488333333","25.00347","6500300","中和區"
"235038","185-VK","2017/09/26 19:08:27","新北市中和區自強路50號","121.520263333333","24.9949","6500300","中和區"
"235049","186-VK","2017/09/26 19:08:22","新北市中和區明禮街5號","121.505158333333","24.9957216666667","6500300","中和區"
"235067","255-BX","2017/09/26 19:08:15","新北市中和區新生街166巷7號","121.483166666667","25.0001616666667","6500300","中和區"
"235044","293-VK","2017/09/26 19:08:30","新北市中和區中興街202巷16號","121.498931666667","24.9899033333333","6500300","中和區"
"235072","301-VK","2017/09/26 19:08:32","新北市中和區永和路74號","121.497801666667","25.0051033333333","6500300","中和區"
"235068","375-QA","2017/09/26 19:08:31","新北市中和區圓通路162巷2弄1號","121.497113333333","24.9953683333333","6500300","中和區"
"235051","376-QA","2017/09/26 19:08:22","新北市中和區忠孝街19巷33號","121.50963","24.9846583333333","6500300","中和區"
"235061","378-QA","2017/09/26 19:08:26","新北市中和區中山路三段111號","121.474838333333","25.0061816666667","6500300","中和區"
"235050","4979-A6","2017/09/26 19:08:32","新北市中和區復興路265號","121.5028","24.9903016666667","6500300","中和區"
"235069","4980-A6","2017/09/26 19:08:25","新北市中和區中和路165巷18號","121.503371666667","25.000505","6500300","中和區"
"235042","551-UM","2017/09/26 19:08:27","新北市中和區自立路115號","121.522091666667","24.9945","6500300","中和區"
"235070","558-UM","2017/09/26 19:08:30","新北市中和區中和路174號","121.504685","24.999695","6500300","中和區"
"235045","565-BX","2017/09/26 19:08:24","新北市中和區景新街467巷20弄126號","121.514925","24.987225","6500300","中和區"
"235043","611-BX","2017/09/26 19:08:28","新北市中和區景平路4號","121.52428","24.9905733333333","6500300","中和區"
"235054","640-BX","2017/09/26 19:08:26","新北市中和區民享街86巷2號","121.47444","25.0009966666667","6500300","中和區"
"235060","647-TV","2017/09/26 19:08:27","新北市中和區民享街91-10號","121.47457","25.00083","6500300","中和區"
"235047","732-UM","2017/09/26 19:08:20","新北市中和區興南路二段32巷5號","121.507076666667","24.9854316666667","6500300","中和區"
"235046","733-UM","2017/09/26 19:08:28","新北市中和區興南路一段146號","121.508466666667","24.986985","6500300","中和區"
"235057","801-TS","2017/09/26 19:08:27","新北市中和區民利街100巷6弄11號","121.477078333333","24.998515","6500300","中和區"
"235041","802-TS","2017/09/26 19:08:27","新北市中和區安平路124號","121.511941666667","24.9977116666667","6500300","中和區"
"235052","805-TS","2017/09/26 19:08:24","新北市中和區興南路二段142巷19弄40號","121.502481666667","24.9833583333333","6500300","中和區"
"235048","896-TW","2017/09/26 19:08:26","新北市中和區工專路139號","121.50836","24.97893","6500300","中和區"
"235053","900-TW","2017/09/26 19:08:12","新北市板橋區和平路174巷1弄8號","121.464405","24.9951883333333","6500300","中和區"
"235062","911-UM","2017/09/26 19:08:31","新北市中和區中山路二段470號","121.488363333333","25.0045666666667","6500300","中和區"
"235037","AAC-213","2017/09/26 19:07:59","新北市中和區自立路99巷36弄16號","121.523931666667","24.994195","6500300","中和區"
"235059","AAC-215","2017/09/26 19:08:16","新北市中和區圓通路294巷15號","121.488718333333","24.990175","6500300","中和區"
"220068","013-TV","2017/09/26 19:08:10","新北市板橋區三民路一段31巷1號","121.479336666667","25.0230683333333","6500100","板橋區"
"220065","072-UY","2017/09/26 19:08:15","新北市板橋區民族路247巷3弄6號","121.470271666667","25.007665","6500100","板橋區"
"220086","073-UY","2017/09/26 19:08:16","新北市板橋區中正路250巷23號","121.456648333333","25.0195","6500100","板橋區"
"220106","075-UY","2017/09/26 19:08:17","新北市板橋區文化路二段263巷16號","121.471068333333","25.0295866666667","6500100","板橋區"
"220069","AAD-861","2017/09/26 19:08:29","新北市板橋區東興街27號","121.458163333333","25.00525","6500100","板橋區"
"247008","053-VK","2017/09/26 18:44:55","新北市五股區中興路三段163號","121.449241666667","25.0807133333333","6501400","蘆洲區"
"226004","205-ST","2017/09/26 19:08:13","新北市平溪區望古里灰3號","121.760995","25.03153","6502400","平溪區"
"228003","097-TW","2017/09/26 19:08:20","新北市貢寮區和美里和美街37號","121.912281666667","25.087055","6502600","貢寮區"
"228001","212-TW","2017/09/26 19:08:24","新北市貢寮區真理里新港街10號","121.925525","25.0543883333333","6502600","貢寮區"
"228002","663-BX","2017/09/26 19:08:11","新北市貢寮區福隆里福隆街36號","121.945161666667","25.0174933333333","6502600","貢寮區"
"224010","AGQ-8101","2017/09/26 19:02:49","新北市雙溪區三貂里十三層43號","121.853108333333","25.088545","6501200","瑞芳區"
"224006","676-BX","2017/09/26 19:08:15","新北市瑞芳區三爪子坑路106巷1-1號","121.808078333333","25.1047366666667","6501200","瑞芳區"
"224009","285-BY","2017/09/26 19:08:17","新北市瑞芳區長仁路40號","121.864461666667","25.1177083333333","6501200","瑞芳區"
"224008","275-VK","2017/09/26 19:08:20","新北市瑞芳區瑞芳街102號","121.801796666667","25.1104866666667","6501200","瑞芳區"
"224005","271-BY","2017/09/26 19:08:31","新北市瑞芳區三爪子坑路39號","121.813183333333","25.1074533333333","6501200","瑞芳區"
"227009","642-TC","2017/09/26 19:08:24","新北市雙溪區牡丹里中正路34號","121.864621666667","25.0382766666667","6502500","雙溪區"
"227003","400-TW","2017/09/26 19:08:30","新北市雙溪區平林里外平林8-1號","121.859473333333","25.038115","6502500","雙溪區"
"253005","032-BX","2017/09/26 19:08:34","新北市石門區阿里荖41-1號","121.605323333333","25.2831633333333","6502200","石門區"
"253006","295-VK","2017/09/26 19:08:17","新北市石門區崁子腳58-3號","121.529846666667","25.2860683333333","6502200","石門區"
"208002","742-BX","2017/09/26 19:08:19","新北市金山區中華路112巷13號","121.633863333333","25.22092","6502700","金山區"
"208003","665-BX","2017/09/26 19:08:20","新北市金山區中正路126號","121.632351666667","25.2216016666667","6502700","金山區"
"208001","761-BX","2017/09/26 19:08:17","新北市金山區金包里街14巷8號","121.640643333333","25.2211316666667","6502700","金山區"
"251005","010-UM","2017/09/26 19:08:21","新北市淡水區中山路108巷3號","121.442015","25.1710083333333","6501000","淡水區"
"251001","011-UM","2017/09/26 19:08:21","新北市淡水區民權路94巷1號","121.46292","25.1255666666667","6501000","淡水區"
"251002","012-UM","2017/09/26 19:08:28","新北市淡水區中山路77號","121.442573333333","25.17034","6501000","淡水區"
"251014","180-VK","2017/09/26 19:08:18","新北市淡水區北勢子9號","121.482733333333","25.2282566666667","6501000","淡水區"
"251010","413-VK","2017/09/26 19:08:28","新北市淡水區中正路一段156巷11號","121.42125","25.1803966666667","6501000","淡水區"
"251012","441-VK","2017/09/26 19:08:13","新北市淡水區下圭柔山91-4號","121.429325","25.20854","6501000","淡水區"
"251016","442-VK","2017/09/26 19:08:27","新北市淡水區淡金路三段329號","121.449061666667","25.2061433333333","6501000","淡水區"
"251009","575-R6","2017/09/26 19:08:11","新北市淡水區中正路8巷25號","121.44172","25.1703066666667","6501000","淡水區"
"251007","577-R6","2017/09/26 19:08:18","新北市淡水區民生路184號","121.465473333333","25.1386783333333","6501000","淡水區"
"251011","650-BX","2017/09/26 19:08:29","新北市淡水區中正東路二段143巷2弄1號","121.460695","25.14733","6501000","淡水區"
"251003","673-BX","2017/09/26 19:08:24","新北市淡水區中山北路一段136號","121.443353333333","25.1774333333333","6501000","淡水區"
"207003","550-UM","2017/09/26 19:08:29","新北市萬里區大鵬里萬里加投29號","121.647598333333","25.2064633333333","6502800","萬里區"
"207004","225-TW","2017/09/26 19:08:31","新北市萬里區萬里里瑪鋉下街50-1號","121.691531666667","25.1793766666667","6502800","萬里區"
"252002","178-VK","2017/09/26 19:08:32","新北市三芝區中正路一段17號","121.502865","25.2587166666667","6502100","三芝區"
"252003","249-BX","2017/09/26 19:08:22","新北市三芝區古庄里四棧橋38-1號","121.483496666667","25.2630033333333","6502100","三芝區"
"252001","292-VK","2017/09/26 19:08:29","新北市三芝區長勤街45巷2號","121.500313333333","25.2551033333333","6502100","三芝區"
"237004","078-UY","2017/09/26 19:08:25","新北市三峽區有木206號","121.439088333333","24.851565","6500900","三峽區"
"237007","153-BY","2017/09/26 19:08:22","新北市三峽區中正路二段227號","121.36604","24.9128616666667","6500900","三峽區"
"237013","252-BX","2017/09/26 19:08:23","新北市三峽區光明路69巷25號","121.376715","24.9291316666667","6500900","三峽區"
"237012","275-BY","2017/09/26 19:08:31","新北市三峽區三樹路222巷236弄2號","121.390955","24.942725","6500900","三峽區"
"237008","302-VK","2017/09/26 19:08:27","新北市三峽區大同路174巷27號","121.372795","24.9277116666667","6500900","三峽區"
"237014","433-BY","2017/09/26 19:08:21","新北市三峽區中山路257巷39號","121.362145","24.9365233333333","6500900","三峽區"
"237006","5529-G3","2017/09/26 19:08:34","新北市三峽區橫溪路95-2號","121.39851","24.935455","6500900","三峽區"
"237011","572-TV","2017/09/26 16:35:25","新北市三峽區中山路459巷163-3號","121.348615","24.9329466666667","6500900","三峽區"
"237016","649-BX","2017/09/26 19:08:20","新北市三峽區安坑38號","121.45455","24.9320683333333","6500900","三峽區"
"237010","706-TV","2017/09/26 19:08:15","新北市三峽區民生街35號","121.375571666667","24.9363416666667","6500900","三峽區"
"237005","AKY-6261","2017/09/26 19:08:12","新北市三峽區中山路459巷163-3號","121.348676666667","24.93293","6500900","三峽區"
"236070","105-UM","2017/09/26 19:08:29","新北市土城區裕生路84巷1號","121.447286666667","24.9852466666667","6501300","土城區"
"236043","107-UM","2017/09/26 19:08:19","新北市土城區學府路一段276號","121.45011","24.9832","6501300","土城區"
"236079","166-UM","2017/09/26 19:08:20","新北市土城區龍泉路10-1號","121.409575","24.94928","6501300","土城區"
"236031","253-BX","2017/09/26 19:08:18","新北市土城區城林路6巷80號","121.438623333333","24.9798","6501300","土城區"
"236027","269-VK","2017/09/26 19:08:26","新北市土城區中正路56巷2號","121.443838333333","24.9754016666667","6501300","土城區"
"236015","270-VK","2017/09/26 19:08:30","新北市土城區學府路一段75巷1弄2號","121.457223333333","24.987725","6501300","土城區"
"236038","271-VK","2017/09/26 19:08:24","新北市土城區清水路171號","121.45932","24.9815066666667","6501300","土城區"
"236023","401-BY","2017/09/26 19:08:25","新北市土城區延峰街27巷2號","121.469375","24.98525","6501300","土城區"
"236059","912-UM","2017/09/26 19:08:29","新北市土城區金城路二段210號","121.455545","24.9822483333333","6501300","土城區"
"236049","913-UM","2017/09/26 19:01:32","新北市土城區明德路一段398-1號","121.453648333333","24.9790116666667","6501300","土城區"
"236055","AAC-216","2017/09/26 19:08:29","新北市土城區學府路一段276號","121.450038333333","24.9830833333333","6501300","土城區"
"242056","349-TH","2017/09/26 19:08:12","新北市新莊區環河路636-7號","121.43749","25.0117716666667","6500500","新莊區"
"238015","755-BX","2017/09/26 19:08:22","新北市樹林區備內街158巷38號","121.408073333333","24.9898566666667","6500700","樹林區"
"238023","601-UM","2017/09/26 19:08:22","新北市樹林區大慶街88號","121.395988333333","25.0138383333333","6500700","樹林區"
"238019","599-UM","2017/09/26 19:08:25","新北市樹林區東榮街86號","121.416063333333","24.9826433333333","6500700","樹林區"
"238018","571-TV","2017/09/26 19:08:18","新北市樹林區太平路48號","121.419038333333","24.982565","6500700","樹林區"
"238021","KEA-2217","2017/09/26 19:05:00","新北市樹林區西圳街二段185號","121.378773333333","24.9555983333333","6500700","樹林區"
"238022","KEA-2213","2017/09/26 19:08:28","新北市樹林區中山路二段151巷12號","121.406791666667","24.97829","6500700","樹林區"
"238025","303-VK","2017/09/26 19:08:31","新北市樹林區中山路三段210-2號","121.381866666667","24.96572","6500700","樹林區"
"238017","283-BY","2017/09/26 19:08:22","新北市樹林區光興街44號","121.40988","25.00277","6500700","樹林區"
"238014","282-BY","2017/09/26 19:08:30","新北市樹林區中正路22-1號","121.427805","24.9995033333333","6500700","樹林區"
"238020","268-VK","2017/09/26 19:08:21","新北市樹林區俊英街240號","121.424695","25.0104733333333","6500700","樹林區"
"238026","172-UY","2017/09/26 19:08:25","新北市樹林區佳園路一段41巷18號","121.39399","24.9711083333333","6500700","樹林區"
"238016","169-UY","2017/09/26 19:08:29","新北市樹林區復興路335巷6弄2號","121.418316666667","24.9874483333333","6500700","樹林區"
"239007","AAC-297","2017/09/26 19:08:23","新北市鶯歌區大湖路326巷30號","121.346188333333","24.9696583333333","6500800","鶯歌區"
"239006","891-R6","2017/09/26 19:08:30","新北市鶯歌區鶯桃路91巷4號","121.339203333333","24.9534016666667","6500800","鶯歌區"
"239008","527-UM","2017/09/26 19:08:28","新北市鶯歌區國際二路6巷17號","121.339056666667","24.9739566666667","6500800","鶯歌區"
"239005","526-UM","2017/09/26 19:08:15","新北市鶯歌區東湖路30號","121.355703333333","24.9720066666667","6500800","鶯歌區"
"239001","417-VK","2017/09/26 19:08:29","新北市鶯歌區永智街77號","121.336943333333","24.9535216666667","6500800","鶯歌區"
"239003","360-BY","2017/09/26 19:08:27","新北市鶯歌區八德路10號","121.33269","24.9548866666667","6500800","鶯歌區"
"239002","359-BY","2017/09/26 19:08:11","新北市鶯歌區國際二路6巷9號","121.338663333333","24.9737566666667","6500800","鶯歌區"
"239004","193-VK","2017/09/26 19:08:28","新北市鶯歌區國中街209號","121.337691666667","24.9389816666667","6500800","鶯歌區"
"221008","489-VK","2017/09/26 19:08:28","新北市汐止區康寧街462號","121.631756666667","25.06825","6501100","汐止區"
"221036","130-UY","2017/09/26 19:08:14","新北市汐止區忠孝東路314巷10號","121.664325","25.068215","6501100","汐止區"
"221015","131-UY","2017/09/26 19:08:20","新北市汐止區康寧街901號","121.651583333333","25.0749116666667","6501100","汐止區"
"221010","269-BY","2017/09/26 19:08:24","新北市汐止區康寧街901號","121.651423333333","25.075035","6501100","汐止區"
"221012","276-VK","2017/09/26 13:18:54","新北市汐止區汐萬路一段256巷3號","121.653433333333","25.0746383333333","6501100","汐止區"
"221012","278-VK","2017/09/26 19:08:26","新北市汐止區康寧街901號","121.650775","25.0752533333333","6501100","汐止區"
"221023","279-VK","2017/09/26 19:08:12","新北市汐止區康寧街901號","121.650991666667","25.0751833333333","6501100","汐止區"
"221032","280-BY","2017/09/26 19:08:25","新北市汐止區橫科路241-5號","121.622495","25.048745","6501100","汐止區"
"221027","281-BY","2017/09/26 18:52:35","新北市汐止區康寧街901號","121.650928333333","25.07525","6501100","汐止區"
"221038","297-VK","2017/09/26 19:08:24","新北市汐止區汐萬路一段312號","121.650646666667","25.0753466666667","6501100","汐止區"
"221029","298-VK","2017/09/26 19:08:26","新北市汐止區汐萬路一段256巷3號","121.652551666667","25.0745866666667","6501100","汐止區"
"221021","299-VK","2017/09/26 19:08:31","新北市汐止區康寧街901號","121.651396666667","25.0749916666667","6501100","汐止區"
"221031","353-TW","2017/09/26 19:08:22","新北市汐止區中興路181巷18號","121.629658333333","25.0662583333333","6501100","汐止區"
"221025","623-UM","2017/09/26 19:08:15","新北市汐止區康寧街901號","121.651548333333","25.0750116666667","6501100","汐止區"
"221033","647-BX","2017/09/26 19:08:23","新北市汐止區南勢街3號","121.627063333333","25.0373933333333","6501100","汐止區"
"221002","707-TV","2017/09/26 19:08:23","台北市南港區南港路一段30巷2號","121.618811666667","25.055195","6501100","汐止區"
"221018","753-BX","2017/09/26 19:08:17","新北市汐止區汐萬路一段172號","121.652446666667","25.0717983333333","6501100","汐止區"
"220079","145-BY","2017/09/26 19:08:16","新北市板橋區民權路260巷22號","121.458625","25.0152983333333","6500100","板橋區"
"220080","200-UY","2017/09/26 19:08:29","新北市板橋區大觀路二段153巷46弄20號","121.449151666667","25.0000416666667","6500100","板橋區"
"220082","610-BX","2017/09/26 19:08:29","新北市板橋區大觀路三段273號","121.428633333333","24.9925216666667","6500100","板橋區"
"220101","245-BX","2017/09/26 19:08:20","新北市板橋區莊敬路142-3號","121.471233333333","25.023215","6500100","板橋區"
"220067","255-TC","2017/09/26 16:31:36","新北市板橋區民生路二段56-6號","121.471063333333","25.0191466666667","6500100","板橋區"
"220056","276-BY","2017/09/26 19:08:28","新北市板橋區信義路74巷4弄2號","121.457053333333","24.9930966666667","6500100","板橋區"
"220072","277-BY","2017/09/26 19:08:19","新北市板橋區金門街369巷57弄7號","121.429416666667","24.9840983333333","6500100","板橋區"
"220064","280-UM","2017/09/26 19:08:31","新北市板橋區民生路一段33號","121.47607","25.01199","6500100","板橋區"
"220094","283-UM","2017/09/26 19:08:31","新北市板橋區光武街121-1號","121.46634","25.0280616666667","6500100","板橋區"
"220071","283-VK","2017/09/26 19:08:31","新北市板橋區忠孝路173號","121.464061666667","25.0025033333333","6500100","板橋區"
"220053","285-VK","2017/09/26 19:08:27","新北市板橋區太和街3巷2號","121.47384","25.0198583333333","6500100","板橋區"
"220083","286-VK","2017/09/26 19:08:23","新北市板橋區龍興街101巷2號","121.444308333333","25.0032833333333","6500100","板橋區"
"220081","287-VK","2017/09/26 19:08:21","新北市板橋區光華街37巷2號","121.453683333333","25.0129966666667","6500100","板橋區"
"220090","288-VK","2017/09/26 19:08:34","新北市板橋區四維路179號","121.464295","25.0264566666667","6500100","板橋區"
"220061","293-UM","2017/09/26 19:08:15","新北市板橋區中山路二段295巷17號","121.47776","25.0187483333333","6500100","板橋區"
"220084","296-UM","2017/09/26 19:08:20","新北市板橋區溪崑一街11-3號","121.43085","24.9923583333333","6500100","板橋區"
"220075","297-UM","2017/09/26 19:08:19","新北市板橋區南雅南路一段1巷21號","121.457168333333","25.006765","6500100","板橋區"
"220062","303-R5","2017/09/26 19:08:19","新北市板橋區三民路二段245巷44號","121.480971666667","25.0124233333333","6500100","板橋區"
"220092","307-R5","2017/09/26 19:08:29","新北市板橋區文化路二段1號","121.468353333333","25.023835","6500100","板橋區"
"220098","317-R6","2017/09/26 19:08:23","新北市板橋區民有街49號","121.465478333333","25.0259983333333","6500100","板橋區"
"220089","487-VK","2017/09/26 19:08:29","新北市板橋區文化路二段443號","121.475076666667","25.0330416666667","6500100","板橋區"
"220088","491-VK","2017/09/26 19:08:26","新北市板橋區文化路二段182巷5弄8號","121.471978333333","25.0274216666667","6500100","板橋區"
"220035","560-BX","2017/09/26 19:08:23","新北市板橋區中正路381號","121.454161666667","25.0215866666667","6500100","板橋區"
"220103","561-BX","2017/09/26 19:08:14","新北市板橋區文化路一段188巷9弄21號","121.468521666667","25.0195416666667","6500100","板橋區"
"220063","609-BX","2017/09/26 19:08:26","新北市板橋區中山路二段311號","121.478878333333","25.0185566666667","6500100","板橋區"
"220091","637-BX","2017/09/26 19:08:21","新北市板橋區萬板路558-1號","121.480906666667","25.026535","6500100","板橋區"
"220057","686-BX","2017/09/26 19:08:21","新北市板橋區重慶路95號","121.462071666667","25.0056466666667","6500100","板橋區"
"220077","687-BX","2017/09/26 19:08:13","新北市板橋區大觀路二段35號","121.446733333333","25.0030366666667","6500100","板橋區"
"220093","689-BX","2017/09/26 19:08:26","新北市板橋區民生路三段170號","121.465783333333","25.0280016666667","6500100","板橋區"
"220054","741-BX","2017/09/26 19:08:23","新北市板橋區重慶路127巷20號","121.463713333333","25.0048266666667","6500100","板橋區"
"220055","827-TW","2017/09/26 19:08:26","新北市板橋區新民街7巷4號","121.463718333333","25.01","6500100","板橋區"
"220102","830-TW","2017/09/26 19:08:31","新北市板橋區田單街2巷30號","121.4821","25.02788","6500100","板橋區"
"220096","831-TW","2017/09/26 19:08:25","新北市板橋區雙十路二段47巷4號","121.476193333333","25.0261366666667","6500100","板橋區"
"220074","895-R6","2017/09/26 19:08:29","新北市板橋區中正路37號","121.456246666667","25.0132383333333","6500100","板橋區"
"220073","985-R7","2017/09/26 19:08:27","新北市板橋區中正路191號","121.456363333333","25.0171016666667","6500100","板橋區"
"220097","AAC-210","2017/09/26 19:08:18","新北市板橋區新海路14-2號","121.462685","25.0210466666667","6500100","板橋區"
"220070","AAC-253","2017/09/26 19:08:23","新北市板橋區四川路一段387號","121.458073333333","24.9992366666667","6500100","板橋區"
