"lineid","car","time","location","longitude","latitude","cityid","cityname"
"234046","148-BY","2017/09/26 19:18:24","新北市永和區永元路18巷17號","121.523381666667","25.0002516666667","6500400","永和區"
"234013","149-BY","2017/09/26 19:18:31","新北市永和區保福路二段85號","121.5107","25.0126316666667","6500400","永和區"
"234007","208-UY","2017/09/26 19:18:31","新北市永和區中山路一段157號","121.509771666667","25.0094","6500400","永和區"
"234081","298-R6","2017/09/26 19:18:21","新北市永和區福和路7巷7號","121.5253","25.007915","6500400","永和區"
"234038","336-UY","2017/09/26 19:18:29","新北市永和區民樂街70號","121.527395","24.9984316666667","6500400","永和區"
"234064","337-UY","2017/09/26 19:18:17","新北市永和區永元路17巷9號","121.521266666667","25.0006533333333","6500400","永和區"
"234086","338-UY","2017/09/26 19:18:33","新北市永和區永利路50號","121.518951666667","25.0053316666667","6500400","永和區"
"234070","552-UM","2017/09/26 19:18:22","新北市永和區豫溪街76號","121.51739","25.0098783333333","6500400","永和區"
"234054","553-UM","2017/09/26 19:18:30","新北市永和區中興街80號","121.517815","25.0119033333333","6500400","永和區"
"234017","745-BX","2017/09/26 19:18:12","新北市永和區文化路144巷31弄8號","121.512445","25.0167733333333","6500400","永和區"
"234030","746-BX","2017/09/26 19:18:28","新北市永和區厚德街77號","121.524586666667","24.9987366666667","6500400","永和區"
"234061","AAD-866","2017/09/26 19:18:26","新北市永和區永貞路176號","121.51654","25.0044433333333","6500400","永和區"
"234042","862-TW","2017/09/26 19:18:27","新北市永和區保平路149號","121.50997","25.0057216666667","6500400","永和區"
"234050","863-TW","2017/09/26 19:18:12","新北市永和區保福路二段88巷14號","121.511468333333","25.0135916666667","6500400","永和區"
"234026","9371-KE","2017/09/26 19:18:33","新北市永和區中正路9號","121.513878333333","24.9957766666667","6500400","永和區"
"234011","9373-KE","2017/09/26 19:18:24","新北市永和區中山路一段66號","121.512695","25.01075","6500400","永和區"
"249005","172-UM","2017/09/26 19:18:18","新北市八里區中華路三段170-1號","121.392171666667","25.130435","6502300","八里區"
"249001","173-UM","2017/09/26 19:18:25","新北市八里區中華路二段31-1號","121.412266666667","25.153515","6502300","八里區"
"249003","593-UM","2017/09/26 19:18:31","新北市八里區中山路二段466巷36弄20號","121.398576666667","25.14886","6502300","八里區"
"248018","225-UY","2017/09/26 19:18:13","新北市五股區凌雲路三段57號","121.425306666667","25.1250266666667","6501500","五股區"
"248010","272-BY","2017/09/26 19:18:20","新北市五股區水碓一路23號","121.430498333333","25.0712733333333","6501500","五股區"
"248012","655-BX","2017/09/26 19:18:13","新北市五股區中興路四段38巷11號","121.438741666667","25.08349","6501500","五股區"
"248004","677-BX","2017/09/26 19:18:25","新北市五股區五福路18號","121.434255","25.0887366666667","6501500","五股區"
"248002","678-BX","2017/09/26 19:18:18","新北市五股區凌雲路一段158巷14-1號","121.447848333333","25.10354","6501500","五股區"
"234023","9380-KE","2017/09/26 19:18:34","新北市永和區竹林路124巷12號","121.519215","25.0112716666667","6500400","永和區"
"234077","969-R7","2017/09/26 19:18:20","新北市永和區民族街42號","121.518361666667","24.9988733333333","6500400","永和區"
"234074","AAC-211","2017/09/26 19:18:33","新北市永和區竹林路87號","121.519558333333","25.0122483333333","6500400","永和區"
"234067","AAC-212","2017/09/26 19:18:23","新北市永和區保平路50巷8弄14號","121.511598333333","25.0077833333333","6500400","永和區"
"234003","AAC-295","2017/09/26 19:18:29","新北市永和區永平路164號","121.510888333333","25.008825","6500400","永和區"
"244013","069-UM","2017/09/26 19:18:29","新北市林口區麗園一街4巷2號","121.376283333333","25.07071","6501700","林口區"
"244023","483-VK","2017/09/26 19:18:22","新北市林口區文化三路一段555巷50號","121.36981","25.0770116666667","6501700","林口區"
"244011","656-BX","2017/09/26 19:18:28","新北市林口區中正路333號","121.388296666667","25.077685","6501700","林口區"
"243013","AAD-798","2017/09/26 19:18:25","新北市泰山區明志路三段145巷2弄15號","121.425108333333","25.0394116666667","6501600","泰山區"
"243009","297-R6","2017/09/26 19:18:18","新北市泰山區明志路一段82號","121.43345","25.0643933333333","6501600","泰山區"
"243015","380-SR","2017/09/26 19:18:29","新北市泰山區公園路71號","121.42632","25.0554116666667","6501600","泰山區"
"243014","421-VK","2017/09/26 19:18:22","新北市泰山區泰林路二段166號","121.433881666667","25.0604066666667","6501600","泰山區"
"243010","KEA-2215","2017/09/26 19:18:23","新北市泰山區明志路一段519號","121.430355","25.05413","6501600","泰山區"
"243011","KEA-2216","2017/09/26 19:18:32","新北市泰山區中央路7巷2號","121.426476666667","25.04334","6501600","泰山區"
"243012","646-TV","2017/09/26 19:18:13","新北市泰山區同義街55號","121.431856666667","25.0559283333333","6501600","泰山區"
"243016","680-BX","2017/09/26 19:18:29","新北市泰山區工專路20號","121.423738333333","25.0396483333333","6501600","泰山區"
"222003","436-BY","2017/09/26 19:18:31","新北市深坑區深南路204號","121.626668333333","25.01593","6501800","深坑區"
"222001","628-TS","2017/09/26 19:18:17","新北市深坑區北深路二段51-1號","121.619181666667","25.0041166666667","6501800","深坑區"
"222002","659-BX","2017/09/26 19:18:16","新北市深坑區北深路一段210號","121.632556666667","25.0109383333333","6501800","深坑區"
"231041","002-UM","2017/09/26 19:18:30","新北市新店區溪園路245-6號","121.525396666667","24.9833283333333","6500600","新店區"
"231059","046-UY","2017/09/26 19:18:15","新北市新店區安和路三段42號","121.518011666667","24.981685","6500600","新店區"
"231061","047-UY","2017/09/26 19:18:28","新北市新店區安康路一段104號","121.527318333333","24.9625","6500600","新店區"
"231060","106-UY","2017/09/26 19:18:31","新北市新店區安康路二段138號","121.512525","24.961865","6500600","新店區"
"231051","107-UY","2017/09/26 19:18:23","新北市新店區百忍街39號","121.533263333333","24.976145","6500600","新店區"
"231048","108-UY","2017/09/26 19:18:21","新北市新店區中興路一段284號","121.545785","24.9689383333333","6500600","新店區"
"231053","187-VK","2017/09/26 19:18:11","新北市新店區自強路199號","121.546688333333","24.92021","6500600","新店區"
"231069","189-VK","2017/09/26 11:53:48","新北市新店區安華路28-1號","121.519648333333","24.96107","6500600","新店區"
"231050","215-TC","2017/09/26 19:18:21","新北市新店區竹林路63-1號","121.55289","24.9512783333333","6500600","新店區"
"231063","268-BY","2017/09/26 19:18:29","新北市新店區達觀路10號","121.503406666667","24.9438466666667","6500600","新店區"
"231046","278-BY","2017/09/26 19:18:23","新北市新店區華城路6號","121.530261666667","24.9604366666667","6500600","新店區"
"231054","AAD-862","2017/09/26 19:18:12","新北市新店區國校路65巷3號","121.538486666667","24.95407","6500600","新店區"
"231058","3712-VJ","2017/09/26 19:18:18","新北市新店區光明街224巷14號","121.540738333333","24.9625816666667","6500600","新店區"
"231067","4772-VM","2017/09/26 19:18:18","新北市新店區薏仁坑路自強巷6號","121.496605","24.9585233333333","6500600","新店區"
"231065","512-UM","2017/09/26 19:18:26","新北市新店區安祥路108巷53號","121.47438","24.957235","6500600","新店區"
"231064","515-UM","2017/09/26 19:18:14","新北市新店區安忠路57巷18號","121.513055","24.9588416666667","6500600","新店區"
"231045","617-UM","2017/09/26 19:18:24","新北市新店區北宜路一段260號","121.545695","24.952805","6500600","新店區"
"231040","619-UM","2017/09/26 19:18:28","新北市新店區三民路24號","121.537168333333","24.970985","6500600","新店區"
"231042","641-BX","2017/09/26 19:18:28","新北市新店區中興路一段41號","121.539285","24.9598566666667","6500600","新店區"
"231049","719-UM","2017/09/26 19:18:13","新北市新店區明德路111號","121.541521666667","24.9794883333333","6500600","新店區"
"231062","720-UM","2017/09/26 19:18:21","新北市新店區莒光路42號","121.523785","24.9576666666667","6500600","新店區"
"231044","897-TW","2017/09/26 19:18:16","新北市新店區中興路三段286號","121.542726666667","24.9844783333333","6500600","新店區"
"231043","899-TW","2017/09/26 19:18:23","新北市新店區北新路二段107號","121.542946666667","24.974525","6500600","新店區"
"231066","AKT-0513","2017/09/26 19:18:24","新北市新店區安康路三段454號","121.484406666667","24.9510666666667","6500600","新店區"
"241028","022-UY","2017/09/26 19:18:15","新北市三重區新北大道一段1號","121.491453333333","25.0613016666667","6500200","三重區"
"241009","060-VK","2017/09/26 19:18:26","新北市三重區仁美街115號","121.485725","25.08105","6500200","三重區"
"241031","061-VK","2017/09/26 19:18:27","新北市三重區重新路四段246號","121.485688333333","25.0534783333333","6500200","三重區"
"241017","063-VK","2017/09/26 19:18:32","新北市三重區大同北路158號","121.492303333333","25.0656066666667","6500200","三重區"
"241026","066-VK","2017/09/26 19:18:22","新北市三重區同安街105號","121.494415","25.0564633333333","6500200","三重區"
"241007","156-TC","2017/09/26 19:18:20","新北市三重區三和路四段163巷79號","121.486","25.0792733333333","6500200","三重區"
"241022","267-UM","2017/09/26 19:18:25","新北市三重區中正北路112號","121.485905","25.0650866666667","6500200","三重區"
"241025","271-UM","2017/09/26 19:18:21","新北市三重區中正北路333號","121.473521666667","25.07155","6500200","三重區"
"241032","KEA-2210","2017/09/26 19:18:21","新北市三重區新生街88號","121.483871666667","25.0593383333333","6500200","三重區"
"241020","413-TH","2017/09/26 19:18:22","新北市三重區後竹圍街115號","121.488851666667","25.0727766666667","6500200","三重區"
"241035","462-BY","2017/09/26 19:18:31","新北市三重區新北大道一段7號","121.489721666667","25.06165","6500200","三重區"
"241030","480-VK","2017/09/26 19:18:18","新北市三重區新興路41號","121.491658333333","25.053635","6500200","三重區"
"241006","AAD-863","2017/09/26 19:18:27","新北市三重區車路頭街153號","121.483723333333","25.0769616666667","6500200","三重區"
"241029","942-UM","2017/09/26 19:18:33","新北市三重區重安街15號","121.490633333333","25.057515","6500200","三重區"
"235066","003-UY","2017/09/26 19:18:11","新北市中和區中和路102號","121.502666666667","24.9996866666667","6500300","中和區"
"235064","005-UY","2017/09/26 19:18:22","新北市中和區泰和街44巷19號","121.498403333333","25.000785","6500300","中和區"
"235063","006-UY","2017/09/26 19:18:31","新北市中和區中正路608號","121.485601666667","24.995515","6500300","中和區"
"235056","096-UM","2017/09/26 19:18:12","新北市中和區中山路二段553號","121.480993333333","25.0055983333333","6500300","中和區"
"235039","097-UM","2017/09/26 19:18:29","新北市中和區自立路58巷10號","121.523186666667","24.9914116666667","6500300","中和區"
"235065","098-UM","2017/09/26 19:18:25","新北市中和區中山路二段136巷8號","121.501995","25.0037816666667","6500300","中和區"
"235040","150-BY","2017/09/26 19:18:21","新北市中和區保健路48巷57號","121.509375","24.9960666666667","6500300","中和區"
"235058","151-BY","2017/09/26 19:18:33","新北市中和區連城路523巷13弄6號","121.481821666667","24.9937283333333","6500300","中和區"
"235055","183-VK","2017/09/26 19:18:13","新北市中和區德光路95號","121.468628333333","25.003395","6500300","中和區"
"235038","185-VK","2017/09/26 19:18:27","新北市中和區大仁街10巷9弄29號","121.5193","24.993025","6500300","中和區"
"235049","186-VK","2017/09/26 19:18:22","新北市中和區景新街235號","121.508101666667","24.9944633333333","6500300","中和區"
"235067","255-BX","2017/09/26 19:18:15","新北市中和區新生街175號","121.48372","25.000715","6500300","中和區"
"235044","293-VK","2017/09/26 19:18:11","新北市中和區中興街263巷2號","121.500375","24.9889383333333","6500300","中和區"
"235072","301-VK","2017/09/26 19:18:12","新北市中和區連城路176號","121.493181666667","24.9970683333333","6500300","中和區"
"235068","375-QA","2017/09/26 19:18:31","新北市中和區連勝街38巷2號","121.497896666667","24.9978783333333","6500300","中和區"
"235051","376-QA","2017/09/26 19:18:22","新北市中和區興南路一段71號","121.510203333333","24.9893383333333","6500300","中和區"
"235061","378-QA","2017/09/26 19:18:32","新北市中和區員山路306號","121.481528333333","25.00275","6500300","中和區"
"235050","4979-A6","2017/09/26 19:18:32","新北市中和區復興路260-1號","121.503485","24.9902733333333","6500300","中和區"
"235069","4980-A6","2017/09/26 19:18:25","新北市中和區福美路269號","121.498213333333","25.0050833333333","6500300","中和區"
"235042","551-UM","2017/09/26 19:18:17","新北市中和區大勇街45巷12號","121.517795","24.9950033333333","6500300","中和區"
"235070","558-UM","2017/09/26 19:18:16","新北市中和區中和路241號","121.504546666667","24.9998633333333","6500300","中和區"
"235045","565-BX","2017/09/26 19:18:24","新北市中和區景新街437巷9號","121.513725","24.9892283333333","6500300","中和區"
"235043","611-BX","2017/09/26 19:18:28","新北市中和區景平路180號","121.516478333333","24.992355","6500300","中和區"
"235054","640-BX","2017/09/26 19:18:26","新北市中和區民德路153號","121.468671666667","25.0001633333333","6500300","中和區"
"235060","647-TV","2017/09/26 19:18:27","新北市中和區中山路三段33號","121.479131666667","25.00585","6500300","中和區"
"235047","732-UM","2017/09/26 19:18:20","新北市中和區和平街54巷1弄1號","121.508641666667","24.990925","6500300","中和區"
"235046","733-UM","2017/09/26 19:18:28","新北市中和區華新街190號","121.50695","24.9821283333333","6500300","中和區"
"235057","801-TS","2017/09/26 19:18:27","新北市中和區民利街50號","121.479288333333","24.9988766666667","6500300","中和區"
"235041","802-TS","2017/09/26 19:18:27","新北市中和區景安路53號","121.507248333333","24.9982333333333","6500300","中和區"
"235052","805-TS","2017/09/26 19:18:24","新北市中和區興南路二段159巷31號","121.505533333333","24.9828166666667","6500300","中和區"
"235048","896-TW","2017/09/26 19:18:26","新北市中和區忠孝街66號","121.511921666667","24.9840116666667","6500300","中和區"
"235053","900-TW","2017/09/26 19:18:12","新北市中和區華福街58號","121.466838333333","24.99656","6500300","中和區"
"235062","911-UM","2017/09/26 19:18:31","新北市中和區中山路二段550號","121.483868333333","25.005315","6500300","中和區"
"235037","AAC-213","2017/09/26 19:18:19","新北市中和區秀朗路三段50巷13號","121.525323333333","24.9952183333333","6500300","中和區"
"235059","AAC-215","2017/09/26 19:18:16","新北市中和區圓通路286巷1號","121.491438333333","24.991035","6500300","中和區"
"220068","013-TV","2017/09/26 19:18:30","新北市板橋區三民路一段1巷49號","121.480781666667","25.024835","6500100","板橋區"
"220065","072-UY","2017/09/26 19:18:15","新北市板橋區民族路129巷14號","121.467673333333","25.0085033333333","6500100","板橋區"
"220086","073-UY","2017/09/26 19:18:16","新北市板橋區國光路184號","121.460911666667","25.0183966666667","6500100","板橋區"
"220106","075-UY","2017/09/26 19:18:13","新北市板橋區雙十路三段70巷1號","121.470266666667","25.032475","6500100","板橋區"
"220069","AAD-861","2017/09/26 19:18:29","新北市板橋區四川路一段164號","121.459766666667","25.0032133333333","6500100","板橋區"
"247008","053-VK","2017/09/26 19:18:15","新北市五股區中興路三段163號","121.449148333333","25.0807916666667","6501400","蘆洲區"
"226004","205-ST","2017/09/26 19:18:13","新北市平溪區十分里十分街106號","121.776808333333","25.0428983333333","6502400","平溪區"
"228003","097-TW","2017/09/26 19:18:20","新北市貢寮區和美里和美街22-1號","121.912856666667","25.0826766666667","6502600","貢寮區"
"228001","212-TW","2017/09/26 19:18:24","新北市貢寮區真理里新港街10號","121.925515","25.0544016666667","6502600","貢寮區"
"228002","663-BX","2017/09/26 19:18:31","新北市貢寮區雙玉里田寮洋街22號","121.929338333333","25.0215266666667","6502600","貢寮區"
"224010","AGQ-8101","2017/09/26 19:18:11","新北市瑞芳區基山街32號","121.844901666667","25.1085233333333","6501200","瑞芳區"
"224006","676-BX","2017/09/26 19:18:15","新北市瑞芳區中山路195號","121.801556666667","25.10656","6501200","瑞芳區"
"224008","275-VK","2017/09/26 19:18:20","新北市瑞芳區一坑路144號","121.802095","25.1088166666667","6501200","瑞芳區"
"224005","271-BY","2017/09/26 19:18:31","新北市瑞芳區蛇子形路6號","121.825468333333","25.104605","6501200","瑞芳區"
"227009","642-TC","2017/09/26 19:18:24","新北市雙溪區新基里新基北街40號","121.868515","25.0380183333333","6502500","雙溪區"
"227003","400-TW","2017/09/26 19:18:30","新北市雙溪區平林里梅竹蹊66-1號","121.860153333333","25.0358333333333","6502500","雙溪區"
"253005","032-BX","2017/09/26 19:18:34","新北市石門區阿里荖13號","121.608355","25.2801833333333","6502200","石門區"
"253006","295-VK","2017/09/26 19:18:17","新北市石門區崁子腳26號","121.53546","25.29079","6502200","石門區"
"208002","742-BX","2017/09/26 19:18:19","新北市金山區環金路376巷1號","121.631883333333","25.2223","6502700","金山區"
"208003","665-BX","2017/09/26 19:18:21","新北市金山區中山路165號","121.638698333333","25.220575","6502700","金山區"
"208001","761-BX","2017/09/26 19:18:17","新北市金山區慈護街33號","121.639491666667","25.219865","6502700","金山區"
"251005","010-UM","2017/09/26 19:18:17","新北市淡水區水源街一段34巷1號","121.443145","25.1722566666667","6501000","淡水區"
"251001","011-UM","2017/09/26 19:18:21","新北市淡水區民權路92巷35-1號","121.462081666667","25.1267983333333","6501000","淡水區"
"251002","012-UM","2017/09/26 19:18:29","新北市淡水區中正路251-1號","121.433538333333","25.1744783333333","6501000","淡水區"
"251014","180-VK","2017/09/26 19:18:18","新北市淡水區小中寮19-7號","121.484791666667","25.229665","6501000","淡水區"
"251010","413-VK","2017/09/26 19:18:28","新北市淡水區沙崙路27號","121.421461666667","25.18157","6501000","淡水區"
"251016","442-VK","2017/09/26 19:18:27","新北市淡水區下圭柔山119-51號","121.450758333333","25.20842","6501000","淡水區"
"251009","575-R6","2017/09/26 19:18:31","新北市淡水區大忠街5巷9號","121.44343","25.1765566666667","6501000","淡水區"
"251007","577-R6","2017/09/26 19:18:33","新北市淡水區八勢路22巷3號","121.46123","25.15386","6501000","淡水區"
"251011","650-BX","2017/09/26 19:18:29","新北市淡水區中正東路二段143巷2弄1號","121.46065","25.1473783333333","6501000","淡水區"
"251003","673-BX","2017/09/26 19:18:24","新北市淡水區中山路158號","121.440743333333","25.1727616666667","6501000","淡水區"
"207003","550-UM","2017/09/26 19:18:29","新北市萬里區大鵬里萬里加投79-3號","121.647391666667","25.2123816666667","6502800","萬里區"
"207004","225-TW","2017/09/26 19:18:31","新北市萬里區萬里里成功新村65號","121.688311666667","25.1745733333333","6502800","萬里區"
"252002","178-VK","2017/09/26 19:18:27","新北市三芝區淡金路二段18-1號","121.502668333333","25.259515","6502100","三芝區"
"252001","292-VK","2017/09/26 19:18:29","新北市三芝區長勤街9巷14號","121.501701666667","25.254975","6502100","三芝區"
"237004","078-UY","2017/09/26 19:18:25","新北市三峽區有木205-1號","121.439061666667","24.8515266666667","6500900","三峽區"
"237007","153-BY","2017/09/26 19:18:22","新北市三峽區麻園24-11號","121.363048333333","24.9185066666667","6500900","三峽區"
"237009","210-TH","2017/09/26 19:18:16","新北市三峽區信義街3號","121.370868333333","24.935985","6500900","三峽區"
"237013","252-BX","2017/09/26 19:18:29","新北市三峽區光明路75巷29號","121.377631666667","24.9283733333333","6500900","三峽區"
"237012","275-BY","2017/09/26 19:18:31","新北市三峽區三樹路222巷236弄8-3號","121.391398333333","24.9429933333333","6500900","三峽區"
"237008","302-VK","2017/09/26 19:18:27","新北市三峽區光明路106巷11號","121.376321666667","24.9273066666667","6500900","三峽區"
"237014","433-BY","2017/09/26 19:18:21","新北市三峽區中山路217-1號","121.363468333333","24.9368533333333","6500900","三峽區"
"237006","5529-G3","2017/09/26 19:18:14","新北市三峽區大同路98號","121.375578333333","24.9275883333333","6500900","三峽區"
"237016","649-BX","2017/09/26 19:18:20","新北市三峽區安坑66號","121.470881666667","24.9284066666667","6500900","三峽區"
"237010","706-TV","2017/09/26 19:17:55","新北市三峽區復興路143號","121.371043333333","24.9382383333333","6500900","三峽區"
"237005","AKY-6261","2017/09/26 19:18:32","新北市三峽區中山路459巷30號","121.35746","24.9381866666667","6500900","三峽區"
"236070","105-UM","2017/09/26 19:18:29","新北市土城區中央路一段54號","121.447363333333","24.9899033333333","6501300","土城區"
"236079","166-UM","2017/09/26 19:18:20","新北市土城區中央路四段321巷38號","121.411841666667","24.9512833333333","6501300","土城區"
"236031","253-BX","2017/09/26 19:18:18","新北市土城區城林路6巷80號","121.438535","24.979655","6501300","土城區"
"236027","269-VK","2017/09/26 19:18:26","新北市土城區中央路二段149巷8-1號","121.44256","24.97647","6501300","土城區"
"236015","270-VK","2017/09/26 19:18:30","新北市土城區學府路一段23巷21-1號","121.45783","24.987145","6501300","土城區"
"236023","401-BY","2017/09/26 19:18:25","新北市土城區金城路三段200-9號","121.469191666667","24.9875033333333","6501300","土城區"
"236059","912-UM","2017/09/26 19:18:29","新北市土城區千歲路3巷6弄30號","121.442248333333","24.9705916666667","6501300","土城區"
"236049","913-UM","2017/09/26 19:17:32","新北市土城區明德路一段398-1號","121.453688333333","24.9790933333333","6501300","土城區"
"236055","AAC-216","2017/09/26 19:18:29","新北市土城區學府路一段276號","121.450021666667","24.9829633333333","6501300","土城區"
"242056","349-TH","2017/09/26 19:18:32","新北市新莊區環河路636-7號","121.43745","25.0117333333333","6500500","新莊區"
"238015","755-BX","2017/09/26 19:18:22","新北市樹林區備內街19號","121.412703333333","24.9870616666667","6500700","樹林區"
"238023","601-UM","2017/09/26 19:18:21","新北市樹林區三興路77號","121.393048333333","25.0145333333333","6500700","樹林區"
"238019","599-UM","2017/09/26 19:18:25","新北市樹林區東榮街90號","121.41595","24.9826866666667","6500700","樹林區"
"238018","571-TV","2017/09/26 19:18:17","新北市樹林區太平路50號","121.419045","24.9824766666667","6500700","樹林區"
"238024","5061-A6","2017/09/26 19:18:30","新北市樹林區福德街17號","121.400981666667","24.9760883333333","6500700","樹林區"
"238021","KEA-2217","2017/09/26 19:18:20","新北市樹林區柑園街二段342巷32號","121.3711","24.9522633333333","6500700","樹林區"
"238022","KEA-2213","2017/09/26 19:18:28","新北市樹林區中山路二段151巷6弄3號","121.406476666667","24.9783166666667","6500700","樹林區"
"238025","303-VK","2017/09/26 19:18:32","新北市樹林區中山路二段235號","121.402351666667","24.975965","6500700","樹林區"
"238017","283-BY","2017/09/26 19:18:22","新北市樹林區光興街376巷1號","121.40626","25.005695","6500700","樹林區"
"238014","282-BY","2017/09/26 19:18:30","新北市樹林區中正路23號","121.427465","24.9992266666667","6500700","樹林區"
"238020","268-VK","2017/09/26 19:18:21","新北市樹林區俊英街133巷1弄2-4號","121.423941666667","25.0113066666667","6500700","樹林區"
"238026","172-UY","2017/09/26 19:18:25","新北市樹林區佳園路二段108號","121.38995","24.9573133333333","6500700","樹林區"
"238016","169-UY","2017/09/26 19:18:29","新北市樹林區備前街56巷10號","121.416575","24.9865533333333","6500700","樹林區"
"239007","AAC-297","2017/09/26 19:18:22","新北市鶯歌區大湖路230號","121.34398","24.967895","6500800","鶯歌區"
"239006","891-R6","2017/09/26 19:18:30","新北市鶯歌區鶯桃路69號","121.341083333333","24.9530133333333","6500800","鶯歌區"
"239008","527-UM","2017/09/26 19:18:28","新北市鶯歌區大湖路468巷6號","121.339671666667","24.97245","6500800","鶯歌區"
"239005","526-UM","2017/09/26 19:18:15","新北市鶯歌區中湖街305巷1號","121.347535","24.97767","6500800","鶯歌區"
"239001","417-VK","2017/09/26 19:18:29","新北市鶯歌區建國路568號","121.338331666667","24.9513816666667","6500800","鶯歌區"
"239003","360-BY","2017/09/26 19:18:27","新北市鶯歌區國華路56號","121.342813333333","24.9550066666667","6500800","鶯歌區"
"239002","359-BY","2017/09/26 19:18:31","新北市鶯歌區湖山路12巷2號","121.341173333333","24.9733966666667","6500800","鶯歌區"
"239004","193-VK","2017/09/26 19:18:27","新北市鶯歌區二甲路佳美巷31號","121.337826666667","24.9338333333333","6500800","鶯歌區"
"221008","489-VK","2017/09/26 19:18:29","新北市汐止區康寧街309號","121.627196666667","25.0674","6501100","汐止區"
"221036","130-UY","2017/09/26 19:18:14","新北市汐止區汐萬路一段172號","121.65243","25.0717466666667","6501100","汐止區"
"221015","131-UY","2017/09/26 19:18:20","新北市汐止區康寧街901號","121.651588333333","25.074945","6501100","汐止區"
"221010","269-BY","2017/09/26 19:18:24","新北市汐止區康寧街901號","121.651341666667","25.0749766666667","6501100","汐止區"
"221012","276-VK","2017/09/26 13:18:54","新北市汐止區汐萬路一段256巷3號","121.653433333333","25.0746383333333","6501100","汐止區"
"221012","278-VK","2017/09/26 19:18:26","新北市汐止區汐萬路一段312號","121.650615","25.075425","6501100","汐止區"
"221023","279-VK","2017/09/26 19:18:33","新北市汐止區康寧街901號","121.650995","25.0751833333333","6501100","汐止區"
"221027","281-BY","2017/09/26 18:52:35","新北市汐止區康寧街901號","121.650928333333","25.07525","6501100","汐止區"
"221038","297-VK","2017/09/26 19:18:24","新北市汐止區汐萬路一段312號","121.650648333333","25.075325","6501100","汐止區"
"221029","298-VK","2017/09/26 19:18:26","新北市汐止區康寧街901號","121.651598333333","25.0749433333333","6501100","汐止區"
"221021","299-VK","2017/09/26 19:18:31","新北市汐止區康寧街901號","121.651415","25.0749716666667","6501100","汐止區"
"221031","353-TW","2017/09/26 19:18:22","新北市汐止區汐萬路一段256巷1號","121.651951666667","25.07484","6501100","汐止區"
"221025","623-UM","2017/09/26 19:18:15","新北市汐止區康寧街901號","121.651505","25.0749916666667","6501100","汐止區"
"221033","647-BX","2017/09/26 19:18:23","新北市汐止區南勢街1巷1號","121.627068333333","25.0374183333333","6501100","汐止區"
"221002","707-TV","2017/09/26 19:18:22","新北市汐止區大同路一段327號","121.638178333333","25.0593166666667","6501100","汐止區"
"221018","753-BX","2017/09/26 19:18:17","新北市汐止區康寧街901號","121.6517","25.0748883333333","6501100","汐止區"
"220079","145-BY","2017/09/26 19:18:25","新北市板橋區民權路302巷18號","121.458005","25.0164183333333","6500100","板橋區"
"220080","200-UY","2017/09/26 19:18:24","新北市板橋區大觀路二段3巷1號","121.447295","25.0038966666667","6500100","板橋區"
"220082","610-BX","2017/09/26 19:18:29","新北市板橋區溪崑二街134號","121.425921666667","24.9877383333333","6500100","板橋區"
"220101","245-BX","2017/09/26 19:18:17","新北市板橋區莊敬路220巷1號","121.472506666667","25.0214266666667","6500100","板橋區"
"220067","255-TC","2017/09/26 16:31:36","新北市板橋區民生路二段56-6號","121.471063333333","25.0191466666667","6500100","板橋區"
"220056","276-BY","2017/09/26 19:18:28","新北市板橋區信義路208號","121.460078333333","24.99091","6500100","板橋區"
"220072","277-BY","2017/09/26 19:18:19","新北市板橋區金門街280巷12號","121.42919","24.98626","6500100","板橋區"
"220064","280-UM","2017/09/26 19:18:31","新北市板橋區漢生東路83巷2號","121.466938333333","25.0157","6500100","板橋區"
"220094","283-UM","2017/09/26 19:18:13","新北市板橋區光武街110巷29號","121.466845","25.0299883333333","6500100","板橋區"
"220071","283-VK","2017/09/26 19:18:31","新北市板橋區重慶路327巷19弄3-2號","121.464753333333","24.998815","6500100","板橋區"
"220053","285-VK","2017/09/26 19:18:27","新北市板橋區永豐街130號","121.477613333333","25.0212666666667","6500100","板橋區"
"220083","286-VK","2017/09/26 19:18:20","新北市板橋區大觀路二段174巷165弄2-1號","121.441618333333","25.003385","6500100","板橋區"
"220081","287-VK","2017/09/26 19:18:21","新北市板橋區南雅西路二段92號","121.452401666667","25.0112333333333","6500100","板橋區"
"220090","288-VK","2017/09/26 19:18:21","新北市板橋區裕民街42號","121.461796666667","25.0289566666667","6500100","板橋區"
"220061","293-UM","2017/09/26 19:18:15","新北市板橋區三民路二段21巷13號","121.479868333333","25.0181983333333","6500100","板橋區"
"220084","296-UM","2017/09/26 19:18:32","新北市板橋區溪崑二街66巷8號","121.427613333333","24.990615","6500100","板橋區"
"220075","297-UM","2017/09/26 19:18:19","新北市板橋區南雅西路一段51號","121.453753333333","25.0048883333333","6500100","板橋區"
"220062","303-R5","2017/09/26 19:18:19","新北市板橋區三民路二段153巷36弄2號","121.48111","25.0141183333333","6500100","板橋區"
"220092","307-R5","2017/09/26 19:18:29","新北市板橋區光武街36巷16號","121.46805","25.0262566666667","6500100","板橋區"
"220098","317-R6","2017/09/26 19:18:28","新北市板橋區四維路105號","121.465486666667","25.024605","6500100","板橋區"
"220089","487-VK","2017/09/26 19:18:29","新北市板橋區文化路一段360號","121.468306666667","25.0235616666667","6500100","板橋區"
"220088","491-VK","2017/09/26 19:18:26","新北市板橋區莊敬路2-1號","121.474105","25.0286166666667","6500100","板橋區"
"220035","560-BX","2017/09/26 19:18:23","新北市板橋區中正路360巷29號","121.455433333333","25.0234416666667","6500100","板橋區"
"220103","561-BX","2017/09/26 19:18:14","新北市板橋區介壽街17號","121.467698333333","25.020115","6500100","板橋區"
"220063","609-BX","2017/09/26 19:18:26","新北市板橋區三民路二段241號","121.479016666667","25.0126766666667","6500100","板橋區"
"220091","637-BX","2017/09/26 19:18:21","新北市板橋區萬板路408號","121.479011666667","25.0254616666667","6500100","板橋區"
"220057","686-BX","2017/09/26 19:18:21","新北市板橋區重慶路325號","121.463985","24.9984433333333","6500100","板橋區"
"220077","687-BX","2017/09/26 19:18:14","新北市板橋區僑中二街52號","121.446746666667","25.0103666666667","6500100","板橋區"
"220093","689-BX","2017/09/26 19:18:22","新北市板橋區民生路三段64號","121.466793333333","25.0254516666667","6500100","板橋區"
"220054","741-BX","2017/09/26 19:18:27","新北市板橋區重慶路69巷18號","121.462711666667","25.00699","6500100","板橋區"
"220055","827-TW","2017/09/26 19:18:18","新北市板橋區民族路61號","121.464816666667","25.00877","6500100","板橋區"
"220102","830-TW","2017/09/26 19:18:30","新北市板橋區田單街23號","121.482236666667","25.0290533333333","6500100","板橋區"
"220096","831-TW","2017/09/26 19:18:25","新北市板橋區大同街8巷40號","121.477663333333","25.0259433333333","6500100","板橋區"
"220074","895-R6","2017/09/26 19:18:29","新北市板橋區中正路自強新村91-1號","121.454863333333","25.0132333333333","6500100","板橋區"
"220073","985-R7","2017/09/26 19:18:27","新北市板橋區新生街92號","121.458216666667","25.0218333333333","6500100","板橋區"
"220097","AAC-210","2017/09/26 19:18:18","新北市板橋區幸福路70巷14號","121.460548333333","25.0204883333333","6500100","板橋區"
"220070","AAC-253","2017/09/26 19:18:24","新北市板橋區忠孝路105號","121.462618333333","25.00228","6500100","板橋區"
