"lineid","car","time","location","longitude","latitude","cityid","cityname"
"234081","298-R6","2017/09/26 20:38:21","新北市永和區永利路86號","121.520681666667","25.003945","6500400","永和區"
"234064","337-UY","2017/09/26 20:38:16","新北市永和區成功路一段2號","121.527323333333","25.0059183333333","6500400","永和區"
"234054","553-UM","2017/09/26 20:38:30","新北市永和區環河東路一段82號","121.519621666667","25.01646","6500400","永和區"
"234030","746-BX","2017/09/26 20:38:27","新北市新店區安興路137-1號","121.516251666667","24.9794766666667","6500400","永和區"
"234061","AAD-866","2017/09/26 20:38:26","新北市永和區秀安街5-2號","121.51538","25.00288","6500400","永和區"
"234042","862-TW","2017/09/26 20:38:27","新北市永和區自由街2號","121.514875","25.0069983333333","6500400","永和區"
"249001","173-UM","2017/09/26 20:38:24","新北市八里區中山路三段361號","121.375693333333","25.1385316666667","6502300","八里區"
"249004","303-UY","2017/09/26 20:38:30","新北市八里區中山路一段157巷9號","121.412953333333","25.158445","6502300","八里區"
"248018","225-UY","2017/09/26 20:37:53","新北市八里區中山路三段363-1號","121.374156666667","25.1381666666667","6501500","五股區"
"234023","9380-KE","2017/09/26 20:38:14","新北市永和區竹林路25巷21號","121.518256666667","25.0150166666667","6500400","永和區"
"234074","AAC-211","2017/09/26 20:38:19","新北市永和區竹林路119巷20號","121.521131666667","25.01145","6500400","永和區"
"244011","656-BX","2017/09/26 20:14:28","新北市林口區粉寮路二段160巷28號","121.405176666667","25.0907916666667","6501700","林口區"
"243010","KEA-2215","2017/09/26 20:38:24","新北市泰山區公園路60號","121.425668333333","25.055805","6501600","泰山區"
"243011","KEA-2216","2017/09/26 20:38:13","新北市泰山區明志路二段304號","121.426465","25.0463016666667","6501600","泰山區"
"222003","436-BY","2017/09/26 20:38:33","新北市深坑區阿柔洋3號","121.612845","25.000225","6501800","深坑區"
"222001","628-TS","2017/09/26 20:38:17","新北市深坑區北深路三段234號","121.600655","25.0041416666667","6501800","深坑區"
"222002","659-BX","2017/09/26 20:38:16","新北市深坑區萬福路43號","121.599328333333","25.0068766666667","6501800","深坑區"
"231041","002-UM","2017/09/26 20:38:30","新北市新店區中正路543-4號","121.53367","24.9874516666667","6500600","新店區"
"231059","046-UY","2017/09/26 20:38:15","新北市新店區僑信路94號","121.499956666667","24.94767","6500600","新店區"
"231061","047-UY","2017/09/26 20:38:28","新北市新店區新和街39號","121.519338333333","24.9850133333333","6500600","新店區"
"231060","106-UY","2017/09/26 20:38:31","新北市新店區錦秀路3號","121.479246666667","24.9452133333333","6500600","新店區"
"231051","107-UY","2017/09/26 20:38:23","新北市新店區中央路196號","121.530775","24.9745416666667","6500600","新店區"
"231048","108-UY","2017/09/26 20:38:21","新北市新店區寶慶街66號","121.541905","24.98673","6500600","新店區"
"231053","187-VK","2017/09/26 20:38:30","新北市新店區廣興路2-1號","121.54646","24.9118466666667","6500600","新店區"
"231069","189-VK","2017/09/26 11:53:48","新北市新店區安華路28-1號","121.519648333333","24.96107","6500600","新店區"
"231050","215-TC","2017/09/26 20:38:21","新北市新店區建興街7號","121.539908333333","24.9763783333333","6500600","新店區"
"231057","256-BX","2017/09/26 20:38:22","新北市新店區花園十路二段2號","121.55557","24.933395","6500600","新店區"
"231063","268-BY","2017/09/26 20:38:28","新北市新店區玫瑰路4-1號","121.493608333333","24.9514","6500600","新店區"
"231054","AAD-862","2017/09/26 20:38:32","新北市新店區北新路一段64巷8號","121.541876666667","24.96583","6500600","新店區"
"231058","3712-VJ","2017/09/26 20:38:19","新北市新店區中正路307巷16號","121.536305","24.974325","6500600","新店區"
"231056","4716-K9","2017/09/26 19:48:50","新北市新店區中央一街45號","121.527036666667","24.9736916666667","6500600","新店區"
"231065","512-UM","2017/09/26 20:38:30","新北市新店區安祥路102巷121弄2號","121.486146666667","24.96458","6500600","新店區"
"231064","515-UM","2017/09/26 20:38:14","新北市新店區永安街34巷13號","121.518256666667","24.98617","6500600","新店區"
"231045","617-UM","2017/09/26 20:38:23","新北市新店區長春路161號","121.558018333333","24.96173","6500600","新店區"
"231040","619-UM","2017/09/26 20:38:24","新北市新店區中正路265巷15號","121.537963333333","24.9731033333333","6500600","新店區"
"231042","641-BX","2017/09/26 20:38:28","新北市新店區寶高路120巷1號","121.554721666667","24.97607","6500600","新店區"
"231068","718-UY","2017/09/26 20:38:25","新北市新店區寶慶街35巷1弄2號","121.543221666667","24.9863766666667","6500600","新店區"
"231049","719-UM","2017/09/26 20:38:33","新北市新店區永業路81巷5弄11號","121.530488333333","24.9492733333333","6500600","新店區"
"231062","720-UM","2017/09/26 20:38:21","新北市新店區安泰路11巷1號","121.485538333333","24.9502316666667","6500600","新店區"
"231044","897-TW","2017/09/26 20:38:16","新北市新店區建國路268號","121.53758","24.983145","6500600","新店區"
"231043","899-TW","2017/09/26 20:38:23","新北市新店區建國路35巷2號","121.540385","24.9745433333333","6500600","新店區"
"231066","AKT-0513","2017/09/26 20:38:24","新北市新店區安興路105-1號","121.514668333333","24.9776883333333","6500600","新店區"
"241011","013-R5","2017/09/26 20:38:17","新北市三重區龍門路158號","121.498676666667","25.073135","6500200","三重區"
"241028","022-UY","2017/09/26 20:38:15","新北市三重區光興街85-1號","121.497513333333","25.0600666666667","6500200","三重區"
"241008","059-VK","2017/09/26 20:38:17","新北市三重區下竹圍街91號","121.481096666667","25.074905","6500200","三重區"
"241009","060-VK","2017/09/26 20:38:26","新北市三重區碧華街57號","121.484775","25.0813216666667","6500200","三重區"
"241031","061-VK","2017/09/26 20:38:27","新北市三重區重陽路一段113巷1弄51號","121.488108333333","25.0584866666667","6500200","三重區"
"241015","062-VK","2017/09/26 20:38:30","新北市三重區文化北路200弄1號","121.497961666667","25.0680716666667","6500200","三重區"
"241017","063-VK","2017/09/26 20:38:12","新北市三重區安慶街235號","121.490915","25.0677766666667","6500200","三重區"
"241024","065-VK","2017/09/26 20:38:29","新北市三重區國道路一段85巷9號","121.47989","25.0724283333333","6500200","三重區"
"241026","066-VK","2017/09/26 20:38:22","新北市三重區和平街3號","121.500218333333","25.0623333333333","6500200","三重區"
"241002","090-VK","2017/09/26 20:38:31","新北市三重區仁義街167巷53號","121.498751666667","25.0823983333333","6500200","三重區"
"241003","091-VK","2017/09/26 20:38:18","新北市三重區集賢路87-1號","121.493615","25.086805","6500200","三重區"
"241007","156-TC","2017/09/26 20:38:20","新北市三重區三和路四段101-1號","121.487313333333","25.07685","6500200","三重區"
"241005","262-UM","2017/09/26 20:38:20","新北市三重區碧華街416號","121.492186666667","25.0852283333333","6500200","三重區"
"241016","266-UM","2017/09/26 20:38:10","新北市三重區長壽西街143-3號","121.494325","25.0667433333333","6500200","三重區"
"241022","267-UM","2017/09/26 20:38:24","新北市三重區新北大道一段46巷18弄1號","121.488011666667","25.0620566666667","6500200","三重區"
"241013","270-UM","2017/09/26 20:38:16","新北市三重區溪尾街17號","121.491568333333","25.0747466666667","6500200","三重區"
"241025","271-UM","2017/09/26 20:38:21","新北市三重區頂崁街210巷26號","121.475813333333","25.0679533333333","6500200","三重區"
"241032","KEA-2210","2017/09/26 20:38:21","新北市三重區重陽路一段120巷35號","121.48513","25.0602666666667","6500200","三重區"
"241020","413-TH","2017/09/26 20:38:21","新北市三重區忠孝路一段101號","121.48955","25.07219","6500200","三重區"
"241035","462-BY","2017/09/26 20:38:31","新北市三重區正義北路279號","121.495126666667","25.0702383333333","6500200","三重區"
"241004","475-VK","2017/09/26 20:38:12","新北市三重區仁愛街467號","121.489365","25.0821533333333","6500200","三重區"
"241019","478-VK","2017/09/26 20:38:17","新北市三重區重陽路四段114巷5號","121.491946666667","25.0706483333333","6500200","三重區"
"241030","480-VK","2017/09/26 20:38:18","新北市三重區成功路73巷18號","121.489435","25.05196","6500200","三重區"
"241014","543-UM","2017/09/26 20:38:14","新北市三重區介壽路11號","121.498888333333","25.0693016666667","6500200","三重區"
"241023","545-UM","2017/09/26 20:38:16","新北市三重區自由街36號","121.479195","25.066795","6500200","三重區"
"241001","547-UM","2017/09/26 20:38:28","新北市三重區自強路三段110巷1號","121.48661","25.0746483333333","6500200","三重區"
"241018","887-TS","2017/09/26 20:38:13","新北市三重區自強路一段310號","121.49124","25.0684433333333","6500200","三重區"
"241012","941-UM","2017/09/26 20:38:21","新北市三重區河邊北街168號","121.502891666667","25.0731683333333","6500200","三重區"
"241029","942-UM","2017/09/26 20:38:33","新北市三重區集美街126巷26號","121.490056666667","25.0538666666667","6500200","三重區"
"241033","AAC-255","2017/09/26 20:38:33","新北市三重區光復路二段87巷28號","121.474565","25.0579716666667","6500200","三重區"
"235069","4980-A6","2017/09/26 20:38:25","新北市中和區新生街207號","121.483938333333","24.9998516666667","6500300","中和區"
"220065","072-UY","2017/09/26 20:38:15","新北市樹林區中山路三段210-2號","121.380725","24.9663633333333","6500100","板橋區"
"247022","893-R6","2017/09/26 20:38:17","新北市蘆洲區中正路243巷7弄11號","121.467603333333","25.0860433333333","6501400","蘆洲區"
"247012","546-UM","2017/09/26 20:38:21","新北市蘆洲區中興街117-2號","121.482166666667","25.0891966666667","6501400","蘆洲區"
"247020","500-BY","2017/09/26 20:38:16","新北市蘆洲區民族路424-1號","121.473895","25.091935","6501400","蘆洲區"
"247010","339-TH","2017/09/26 20:38:21","新北市蘆洲區中山一路124-2號","121.476815","25.0816016666667","6501400","蘆洲區"
"247002","337-TH","2017/09/26 20:38:30","新北市蘆洲區長安街375巷32號","121.456068333333","25.0879183333333","6501400","蘆洲區"
"247004","336-TH","2017/09/26 20:38:15","新北市蘆洲區長安街297號","121.458125","25.0848483333333","6501400","蘆洲區"
"247016","057-VK","2017/09/26 20:38:21","新北市蘆洲區中山二路235號","121.470225","25.0801","6501400","蘆洲區"
"247006","056-VK","2017/09/26 20:38:18","新北市蘆洲區和平路124號","121.467455","25.08013","6501400","蘆洲區"
"247008","053-VK","2017/09/26 20:38:15","新北市蘆洲區重陽一街23號","121.480688333333","25.081655","6501400","蘆洲區"
"247014","007-UY","2017/09/26 20:38:24","新北市蘆洲區成功路74號","121.473211666667","25.0811266666667","6501400","蘆洲區"
"247024","002-UY","2017/09/26 20:38:28","新北市蘆洲區長樂路28號","121.463633333333","25.0853616666667","6501400","蘆洲區"
"251001","011-UM","2017/09/26 20:38:21","新北市淡水區水源街二段189-2號","121.456518333333","25.176125","6501000","淡水區"
"251002","012-UM","2017/09/26 20:38:17","新北市淡水區中正路38-1號","121.443745","25.1693583333333","6501000","淡水區"
"251014","180-VK","2017/09/26 20:38:18","新北市淡水區桂竹圍10-2號","121.471771666667","25.2322366666667","6501000","淡水區"
"251010","413-VK","2017/09/26 20:38:28","新北市淡水區沙崙路181巷15號","121.423975","25.1843933333333","6501000","淡水區"
"251012","441-VK","2017/09/26 20:38:13","新北市淡水區興仁路108號","121.451685","25.2181683333333","6501000","淡水區"
"251016","442-VK","2017/09/26 20:38:16","新北市淡水區後洲子16-1號","121.449496666667","25.22406","6501000","淡水區"
"251006","561-UM","2017/09/26 20:38:29","新北市淡水區商工路186巷21號","121.450885","25.187195","6501000","淡水區"
"251011","650-BX","2017/09/26 20:38:29","新北市淡水區新市一路一段361號","121.436286666667","25.186245","6501000","淡水區"
"251003","673-BX","2017/09/26 20:38:24","新北市淡水區新民街108號","121.438143333333","25.1773116666667","6501000","淡水區"
"252002","178-VK","2017/09/26 20:38:26","新北市三芝區淡金路二段47-2號","121.503716666667","25.2606933333333","6502100","三芝區"
"252001","292-VK","2017/09/26 20:38:29","新北市三芝區中山路一段155號","121.502438333333","25.2559","6502100","三芝區"
"236055","AAC-216","2017/09/26 20:38:29","新北市樹林區中山路三段214號","121.380123333333","24.967885","6501300","土城區"
"242032","AAC-296","2017/09/26 20:38:30","新北市新莊區中正路508巷6號","121.436065","25.033215","6500500","新莊區"
"242029","986-R7","2017/09/26 20:38:22","新北市新莊區昌平街19號","121.454373333333","25.0514433333333","6500500","新莊區"
"242051","751-BX","2017/09/26 20:38:25","新北市新莊區民安西路173巷20號","121.427356666667","25.015885","6500500","新莊區"
"242025","615-BX","2017/09/26 20:38:24","新北市新莊區化成路579巷1號","121.464356666667","25.0661366666667","6500500","新莊區"
"242023","613-BX","2017/09/26 20:38:24","新北市新莊區化成路201號","121.465913333333","25.050725","6500500","新莊區"
"242027","612-BX","2017/09/26 20:38:33","新北市新莊區思源路111號","121.459838333333","25.042015","6500500","新莊區"
"242039","566-BX","2017/09/26 20:38:25","新北市新莊區民安路426-9號","121.432933333333","25.022895","6500500","新莊區"
"242044","497-BY","2017/09/26 20:38:25","新北市新莊區龍安路80號","121.417556666667","25.0208033333333","6500500","新莊區"
"242037","442-UM","2017/09/26 20:38:29","新北市新莊區後港一路87號","121.427608333333","25.0267616666667","6500500","新莊區"
"242048","441-UM","2017/09/26 20:38:32","新北市新莊區中正路871巷1號","121.418095","25.0270133333333","6500500","新莊區"
"242054","440-UM","2017/09/26 20:38:21","新北市新莊區西盛街323巷24號","121.429015","25.014705","6500500","新莊區"
"242005","413-TV","2017/09/26 20:38:17","新北市新莊區化成路349巷74號","121.4634","25.0563833333333","6500500","新莊區"
"242042","400-BY","2017/09/26 20:38:17","新北市新莊區天祥街47巷19號","121.416258333333","25.0281466666667","6500500","新莊區"
"242061","362-BY","2017/09/26 20:38:22","新北市新莊區新樹路258巷3-1號","121.431961666667","25.0157166666667","6500500","新莊區"
"242058","353-BY","2017/09/26 20:38:32","新北市新莊區民安路138號","121.424176666667","25.025395","6500500","新莊區"
"242007","132-UY","2017/09/26 20:38:18","新北市新莊區思源路287巷2弄1號","121.459335","25.0483366666667","6500500","新莊區"
"242021","135-UY","2017/09/26 20:38:20","新北市新莊區中華路一段73號","121.452215","25.0400966666667","6500500","新莊區"
"242046","172-VK","2017/09/26 20:38:29","新北市新莊區裕民街47號","121.41886","25.0248266666667","6500500","新莊區"
"242009","173-VK","2017/09/26 20:38:21","新北市新莊區福壽街99巷15弄2號","121.456735","25.0504333333333","6500500","新莊區"
"242015","175-VK","2017/09/26 20:38:13","新北市新莊區中港一街142號","121.44667","25.0449183333333","6500500","新莊區"
"242002","176-VK","2017/09/26 20:38:27","新北市新莊區中正路147-7號","121.45756","25.03726","6500500","新莊區"
"242013","346-TH","2017/09/26 20:38:27","新北市新莊區中和街191巷15號","121.447445","25.0509966666667","6500500","新莊區"
"242019","348-TH","2017/09/26 20:38:16","新北市新莊區銘德街141號","121.454741666667","25.0428283333333","6500500","新莊區"
"242056","349-TH","2017/09/26 20:38:32","新北市新莊區瓊泰路62號","121.44338","25.0286516666667","6500500","新莊區"
"242017","350-TH","2017/09/26 20:38:26","新北市新莊區中華路一段6號","121.452071666667","25.0366366666667","6500500","新莊區"
"242011","351-TH","2017/09/26 20:38:24","新北市新莊區中榮街104巷25號","121.446706666667","25.0537583333333","6500500","新莊區"
"221008","489-VK","2017/09/26 20:38:28","新北市汐止區康寧街861巷5號","121.645341666667","25.0761366666667","6501100","汐止區"
"221036","130-UY","2017/09/26 20:38:33","新北市汐止區新昌路9號","121.662056666667","25.0672166666667","6501100","汐止區"
"221015","131-UY","2017/09/26 20:38:20","新北市汐止區建成路50號","121.663823333333","25.072865","6501100","汐止區"
"221012","276-VK","2017/09/26 13:18:54","新北市汐止區汐萬路一段256巷3號","121.653433333333","25.0746383333333","6501100","汐止區"
"221012","277-VK","2017/09/26 20:38:22","新北市汐止區汐平路二段36-1號","121.694821666667","25.06533","6501100","汐止區"
"221012","278-VK","2017/09/26 20:15:54","新北市汐止區汐萬路一段256巷1號","121.65187","25.074845","6501100","汐止區"
"221023","279-VK","2017/09/26 20:38:12","新北市汐止區康寧街609號","121.636126666667","25.0708433333333","6501100","汐止區"
"221032","280-BY","2017/09/26 20:38:25","新北市汐止區橫科路52巷9弄7號","121.619133333333","25.0502016666667","6501100","汐止區"
"221027","281-BY","2017/09/26 20:38:18","新北市汐止區大同路二段491號","121.660918333333","25.06842","6501100","汐止區"
"221038","297-VK","2017/09/26 20:38:24","新北市汐止區大同路二段184巷5號","121.653423333333","25.0640533333333","6501100","汐止區"
"221029","298-VK","2017/09/26 20:38:26","新北市汐止區大同路一段515巷2號","121.645533333333","25.062465","6501100","汐止區"
"221021","299-VK","2017/09/26 20:38:11","新北市汐止區水源路一段291巷1號","121.654383333333","25.0584266666667","6501100","汐止區"
"221031","353-TW","2017/09/26 20:38:22","新北市汐止區福德一路256號","121.633658333333","25.0647283333333","6501100","汐止區"
"221035","622-UM","2017/09/26 20:38:29","新北市汐止區長江街101-5號","121.658725","25.07331","6501100","汐止區"
"221025","623-UM","2017/09/26 20:38:15","新北市汐止區水源路二段236號","121.658598333333","25.0514633333333","6501100","汐止區"
"221033","647-BX","2017/09/26 20:38:23","新北市汐止區合順街18巷8弄5號","121.62036","25.0419416666667","6501100","汐止區"
"221002","707-TV","2017/09/26 20:38:22","新北市汐止區中興路135號","121.631685","25.0655533333333","6501100","汐止區"
"221018","753-BX","2017/09/26 20:38:26","新北市汐止區中華街15號","121.666808333333","25.0709833333333","6501100","汐止區"
"220083","286-VK","2017/09/26 20:38:19","新北市板橋區僑中二街104巷12號","121.445511666667","25.0080733333333","6500100","板橋區"
"220081","287-VK","2017/09/26 20:38:34","新北市板橋區大觀路二段42號","121.445486666667","25.00085","6500100","板橋區"
"220062","303-R5","2017/09/26 20:38:19","新北市樹林區中山路三段214號","121.380143333333","24.9679233333333","6500100","板橋區"
"242034","280-VK","2017/09/26 20:38:33","新北市新莊區中正路334巷25弄2號","121.445398333333","25.0359466666667","6500500","新莊區"
"220070","AAC-253","2017/09/26 20:38:16","新北市五股區新五路二段258號","121.441121666667","25.0817666666667","6500100","板橋區"
