"lineid","car","time","location","longitude","latitude","cityid","cityname"
"232005","290-BY","2017/07/24 08:19:07","新北市坪林區鶯子瀨3-7號","121.70602","24.914265","6502000","坪林區"
"232001","291-BY","2017/07/24 08:19:17","新北市坪林區粗石斛2號","121.747175","24.9537683333333","6502000","坪林區"
"232012","705-BZ","2017/07/24 08:18:25","新北市坪林區金瓜寮35號","121.672931666667","24.8993133333333","6502000","坪林區"
"232017","758-BX","2017/07/24 08:13:10","新北市坪林區柑腳坑14號","121.773386666667","24.9476516666667","6502000","坪林區"
"244012","069-UM","2017/07/24 08:19:17","新北市林口區中正路531號","121.382471666667","25.077265","6501700","林口區"
"244006","080-UY","2017/07/24 08:19:12","新北市林口區菁埔26-68號","121.376693333333","25.095485","6501700","林口區"
"244001","248-BX","2017/07/24 08:13:50","新北市林口區嘉寶里11鄰22號","121.338885","25.1081683333333","6501700","林口區"
"244018","403-UM","2017/07/24 08:19:14","新北市林口區公園路233-3號","121.375588333333","25.0752883333333","6501700","林口區"
"244008","410-SL","2017/07/24 08:19:16","新北市林口區中北三街262號","121.382036666667","25.0823116666667","6501700","林口區"
"244022","483-VK","2017/07/24 08:19:16","新北市林口區隆林街48-1號","121.387526666667","25.0754316666667","6501700","林口區"
"244024","656-BX","2017/07/24 08:19:13","新北市林口區文化三路一段377-1號","121.365176666667","25.0736183333333","6501700","林口區"
"244010","701-TV","2017/07/24 08:19:08","新北市林口區仁愛路一段669號","121.38776","25.0766683333333","6501700","林口區"
"244021","838-TS","2017/07/24 08:19:12","新北市林口區東林街25號","121.395771666667","25.0791283333333","6501700","林口區"
"222005","289-BY","2017/07/24 08:19:16","新北市深坑區萬福路199號","121.61934","25.01234","6501800","深坑區"
"231007","189-VK","2017/07/24 08:19:12","新北市新店區新潭路一段52號","121.523888333333","24.9409133333333","6500600","新店區"
"231008","192-VK","2017/07/24 08:19:05","新北市新店區新烏路一段58-2號","121.54601","24.9469416666667","6500600","新店區"
"235010","733-UM","2017/07/24 08:19:22","新北市中和區圓通路369巷2號","121.490908333333","24.989475","6500300","中和區"
"220104","015-TV","2017/07/24 08:19:03","新北市樹林區八德街822號","121.394606666667","24.9687633333333","6500100","板橋區"
"247001","402-BY","2017/07/24 08:19:01","新北市蘆洲區三民路251號","121.468455","25.089325","6501400","蘆洲區"
"226005","5620-A6","2017/07/24 08:19:11","新北市平溪區南山里南山坪118-1號","121.783256666667","25.0441733333333","6502400","平溪區"
"226001","7418-A5","2017/07/24 08:19:18","新北市平溪區東勢里芊蓁林33號","121.750158333333","25.0171083333333","6502400","平溪區"
"226003","AGD-0702","2017/07/24 08:13:13","新北市平溪區嶺腳里嶺腳寮85號","121.749035","25.0353666666667","6502400","平溪區"
"223006","022-BY","2017/07/24 08:19:14","新北市石碇區楓子林36-1號","121.64245","25.009055","6501900","石碇區"
"223002","198-BX","2017/07/24 08:10:07","新北市石碇區北宜路五段80號","121.646548333333","24.9517966666667","6501900","石碇區"
"223003","205-TH","2017/07/24 08:19:07","新北市石碇區北宜路六段塗潭巷9號","121.647256666667","24.932305","6501900","石碇區"
"223008","406-TH","2017/07/24 08:19:17","新北市石碇區靜安路一段304號","121.692266666667","25.006435","6501900","石碇區"
"223001","437-BY","2017/07/24 08:19:14","新北市石碇區北宜路五段80號","121.646348333333","24.9516733333333","6501900","石碇區"
"223004","660-BX","2017/07/24 08:19:01","新北市石碇區外按11-5號","121.651736666667","24.9990966666667","6501900","石碇區"
"223007","661-BX","2017/07/24 08:19:20","新北市石碇區靜安路一段304號","121.692121666667","25.0063883333333","6501900","石碇區"
"227005","282-VK","2017/07/24 08:19:16","新北市雙溪區上林里大瀨10號","121.8223","25.0221666666667","6502500","雙溪區"
"253003","6232-TK","2017/07/24 08:19:13","新北市石門區石崩山20-1號","121.565633333333","25.275515","6502200","石門區"
"253001","6251-TK","2017/07/24 08:19:08","新北市石門區楓林6-1號","121.537715","25.29562","6502200","石門區"
"253002","637-UY","2017/07/24 08:18:43","新北市石門區大溪墘10-3號","121.553018333333","25.274045","6502200","石門區"
"253004","8270-PC","2017/07/24 08:19:03","新北市石門區草埔尾3號","121.598631666667","25.277695","6502200","石門區"
"252004","249-BX","2017/07/24 08:19:05","新北市三芝區興華里車埕16號","121.502531666667","25.1984583333333","6502100","三芝區"
"252006","702-TV","2017/07/24 08:18:45","新北市三芝區後厝里番社后39號","121.468911666667","25.2433666666667","6502100","三芝區"
"237001","159-UY","2017/07/24 08:19:16","新北市三峽區大學路110號","121.374786666667","24.9436866666667","6500900","三峽區"
"236007","165-UM","2017/07/24 08:19:16","新北市土城區石門路85-8號","121.46692","24.9589916666667","6501300","土城區"
"236001","339-SR","2017/07/24 08:19:11","新北市土城區龍泉路52號","121.413193333333","24.9443166666667","6501300","土城區"
"236005","498-BY","2017/07/24 08:19:14","新北市土城區永平街2巷1號","121.42751","24.963415","6501300","土城區"
"242020","AAC-296","2017/07/24 08:19:12","新北市新莊區中港路162號","121.455048333333","25.041465","6500500","新莊區"
"242047","751-BX","2017/07/24 08:19:01","新北市新莊區萬安街85號","121.42114","25.0235933333333","6500500","新莊區"
"242028","705-TV","2017/07/24 08:19:05","新北市新莊區中平路29號","121.444698333333","25.0436966666667","6500500","新莊區"
"242024","615-BX","2017/07/24 08:19:05","新北市三重區新北大道二段65號","121.469101666667","25.06129","6500500","新莊區"
"242022","613-BX","2017/07/24 08:19:18","新北市新莊區福樂街66號","121.457688333333","25.046315","6500500","新莊區"
"242026","612-BX","2017/07/24 08:19:00","新北市新莊區昌明街2號","121.45776","25.0522116666667","6500500","新莊區"
"242035","566-BX","2017/07/24 08:19:14","新北市新莊區後港一路92號","121.427581666667","25.0266516666667","6500500","新莊區"
"242040","497-BY","2017/07/24 08:19:08","新北市新莊區丹鳳街18號","121.42149","25.029155","6500500","新莊區"
"242003","442-UM","2017/07/24 08:19:06","新北市新莊區福樂街30號","121.457926666667","25.04537","6500500","新莊區"
"242045","441-UM","2017/07/24 08:19:06","新北市新莊區建國一路94號","121.43459","25.0299333333333","6500500","新莊區"
"242049","440-UM","2017/07/24 08:19:13","新北市新莊區龍安路500號","121.42666","25.01706","6500500","新莊區"
"242030","415-TV","2017/07/24 08:19:08","新北市新莊區新泰路351號","121.444668333333","25.0423166666667","6500500","新莊區"
"242001","413-TV","2017/07/24 08:19:03","新北市新莊區大觀街42巷23號","121.454298333333","25.0362066666667","6500500","新莊區"
"242038","400-BY","2017/07/24 08:19:20","新北市新莊區民安路141號","121.425216666667","25.0239933333333","6500500","新莊區"
"242059","362-BY","2017/07/24 08:19:15","新北市新莊區新樹路246號","121.432848333333","25.0183166666667","6500500","新莊區"
"242057","353-BY","2017/07/24 08:19:04","新北市新莊區新北大道七段371號","121.412593333333","25.026565","6500500","新莊區"
"242010","132-UY","2017/07/24 08:19:20","新北市新莊區中港路684號","121.450788333333","25.0567683333333","6500500","新莊區"
"242033","133-UY","2017/07/24 08:19:14","新北市新莊區新莊路761號","121.442475","25.03265","6500500","新莊區"
"242018","135-UY","2017/07/24 08:19:09","新北市新莊區長青街2號","121.45797","25.0427883333333","6500500","新莊區"
"242043","172-VK","2017/07/24 08:19:03","新北市新莊區中正路853-7號","121.419706666667","25.027655","6500500","新莊區"
"242006","173-VK","2017/07/24 08:19:06","新北市新莊區自信街75巷4號","121.45591","25.0484933333333","6500500","新莊區"
"242012","175-VK","2017/07/24 08:19:15","新北市新莊區中和街61號","121.447556666667","25.04701","6500500","新莊區"
"242055","176-VK","2017/07/24 08:19:07","新北市新莊區瓊林路38-12號","121.44775","25.0298716666667","6500500","新莊區"
"242016","348-TH","2017/07/24 08:19:21","新北市新莊區永安街32號","121.451778333333","25.0447716666667","6500500","新莊區"
"242052","349-TH","2017/07/24 08:19:12","新北市新莊區新樹路699巷9號","121.432593333333","25.00187","6500500","新莊區"
"242014","350-TH","2017/07/24 08:19:09","新北市新莊區新泰路502巷42弄12號","121.444173333333","25.0461133333333","6500500","新莊區"
"242008","351-TH","2017/07/24 08:19:13","新北市新莊區昌平街59巷40號","121.453651666667","25.0531516666667","6500500","新莊區"
