"lineid","car","time","location","longitude","latitude","cityid","cityname"
"232005","290-BY","2017/07/24 08:39:07","新北市坪林區鶯子瀨3-7號","121.70604","24.9142416666667","6502000","坪林區"
"232001","291-BY","2017/07/24 08:39:12","新北市坪林區坪雙路一段117號","121.732223333333","24.9510966666667","6502000","坪林區"
"232012","705-BZ","2017/07/24 08:39:04","新北市坪林區金瓜寮13-2號","121.681445","24.9152683333333","6502000","坪林區"
"232017","758-BX","2017/07/24 08:39:10","新北市坪林區鷺鶿岫1號","121.787685","24.9569116666667","6502000","坪林區"
"244012","069-UM","2017/07/24 08:38:57","新北市林口區中山路48號","121.395263333333","25.078475","6501700","林口區"
"244006","080-UY","2017/07/24 08:39:12","新北市林口區林口路247號","121.386598333333","25.0840316666667","6501700","林口區"
"244001","248-BX","2017/07/24 08:39:10","新北市林口區下福里137-3號","121.29758","25.11856","6501700","林口區"
"244018","403-UM","2017/07/24 08:39:14","新北市林口區文化一路一段135巷7號","121.373263333333","25.0722133333333","6501700","林口區"
"244008","410-SL","2017/07/24 08:39:16","新北市林口區佳林路40號","121.386516666667","25.08202","6501700","林口區"
"244022","483-VK","2017/07/24 08:39:16","新北市林口區興林路152巷24號","121.387576666667","25.0716216666667","6501700","林口區"
"244024","656-BX","2017/07/24 08:39:13","新北市林口區文化北路一段151號","121.357091666667","25.070145","6501700","林口區"
"244010","701-TV","2017/07/24 08:39:08","新北市林口區中正路48號","121.395315","25.077445","6501700","林口區"
"244021","838-TS","2017/07/24 08:39:12","新北市林口區自強三街25號","121.398065","25.0774783333333","6501700","林口區"
"222005","289-BY","2017/07/24 08:39:16","新北市深坑區風格街31巷37號","121.627756666667","25.01768","6501800","深坑區"
"231007","189-VK","2017/07/24 08:39:12","新北市新店區新潭路二段61號","121.521586666667","24.9262866666667","6500600","新店區"
"231008","192-VK","2017/07/24 08:39:05","新北市新店區新烏路三段165巷22號","121.552895","24.9012016666667","6500600","新店區"
"235010","733-UM","2017/07/24 08:39:01","新北市中和區安樂路46號","121.511933333333","24.9929783333333","6500300","中和區"
"220104","015-TV","2017/07/24 08:39:03","新北市板橋區溪城路90-2號","121.429206666667","24.980115","6500100","板橋區"
"220013","072-UY","2017/07/24 08:39:13","新北市板橋區板城路303號","121.452078333333","25.0019983333333","6500100","板橋區"
"247001","402-BY","2017/07/24 08:39:01","新北市蘆洲區民族路408巷22號","121.474951666667","25.0925466666667","6501400","蘆洲區"
"226005","5620-A6","2017/07/24 08:39:11","新北市平溪區南山里六分10號","121.797196666667","25.04986","6502400","平溪區"
"226001","7418-A5","2017/07/24 08:38:58","新北市平溪區東勢里火燒寮34-8號","121.765791666667","24.9887716666667","6502400","平溪區"
"226003","AGD-0702","2017/07/24 08:39:13","新北市平溪區十分里十分街308號","121.775788333333","25.04384","6502400","平溪區"
"223006","022-BY","2017/07/24 08:39:14","新北市深坑區昇高坑路43號","121.629268333333","24.99705","6501900","石碇區"
"223002","198-BX","2017/07/24 08:39:17","新北市石碇區半路店1-1號","121.648325","24.970085","6501900","石碇區"
"223003","205-TH","2017/07/24 08:39:07","新北市石碇區北宜路六段小金瓜寮巷2-1號","121.655508333333","24.9358433333333","6501900","石碇區"
"223008","406-TH","2017/07/24 08:39:17","新北市石碇區串空湖9號","121.668686666667","25.0031133333333","6501900","石碇區"
"223001","437-BY","2017/07/24 08:39:14","新北市石碇區北宜路六段塗潭巷55號","121.652563333333","24.93513","6501900","石碇區"
"223004","660-BX","2017/07/24 08:39:21","新北市石碇區碇坪路一段152號","121.660388333333","24.9911283333333","6501900","石碇區"
"223007","661-BX","2017/07/24 08:39:00","新北市石碇區靜安路一段164號","121.665286666667","25.0072433333333","6501900","石碇區"
"227005","282-VK","2017/07/24 08:22:17","新北市雙溪區上林里大瀨10號","121.822931666667","25.0214866666667","6502500","雙溪區"
"253003","6232-TK","2017/07/24 08:39:13","新北市石門區石崩山19號","121.56701","25.269205","6502200","石門區"
"253001","6251-TK","2017/07/24 08:39:08","新北市石門區白沙灣別墅31號","121.510795","25.2778516666667","6502200","石門區"
"253002","637-UY","2017/07/24 08:39:03","新北市石門區內石門78-1號","121.568628333333","25.25609","6502200","石門區"
"253004","8270-PC","2017/07/24 08:39:03","新北市石門區竹子湖4號","121.61686","25.26172","6502200","石門區"
"252004","249-BX","2017/07/24 08:39:05","新北市三芝區店子里店子72號","121.500748333333","25.20492","6502100","三芝區"
"252006","702-TV","2017/07/24 08:39:05","新北市三芝區後厝里北勢子3號","121.47978","25.2533416666667","6502100","三芝區"
"237001","159-UY","2017/07/24 08:39:19","新北市三峽區大觀路5號","121.375691666667","24.94373","6500900","三峽區"
"236007","165-UM","2017/07/24 08:39:16","新北市土城區石門路57號","121.459918333333","24.96259","6501300","土城區"
"236001","339-SR","2017/07/24 08:39:11","新北市土城區大暖路110巷3號","121.420406666667","24.9577833333333","6501300","土城區"
"236005","498-BY","2017/07/24 08:39:14","新北市土城區永安街86巷1號","121.431296666667","24.963785","6501300","土城區"
"242020","AAC-296","2017/07/24 08:39:12","新北市新莊區建興街52-1號","121.450035","25.0380366666667","6500500","新莊區"
"242047","751-BX","2017/07/24 08:39:22","新北市新莊區後港一路30號","121.42541","25.0258866666667","6500500","新莊區"
"242028","705-TV","2017/07/24 08:39:08","新北市新莊區中平路286號","121.444863333333","25.0510333333333","6500500","新莊區"
"242024","615-BX","2017/07/24 08:39:06","新北市新莊區五工二路94巷18號","121.460055","25.067295","6500500","新莊區"
"242022","613-BX","2017/07/24 08:38:58","新北市新莊區化成路218號","121.465615","25.0466483333333","6500500","新莊區"
"242026","612-BX","2017/07/24 08:39:12","新北市新莊區幸福路530號","121.455875","25.0494","6500500","新莊區"
"242035","566-BX","2017/07/24 08:39:13","新北市新莊區建福路48巷13號","121.425678333333","25.027285","6500500","新莊區"
"242040","497-BY","2017/07/24 08:39:08","新北市新莊區天祥街71巷16號","121.415311666667","25.0284783333333","6500500","新莊區"
"242003","442-UM","2017/07/24 08:39:06","新北市新莊區復興路二段2號","121.453573333333","25.04383","6500500","新莊區"
"242045","441-UM","2017/07/24 08:39:06","新北市新莊區民安路31號","121.423248333333","25.0274783333333","6500500","新莊區"
"242049","440-UM","2017/07/24 08:39:13","新北市新莊區民本街27巷2號","121.428233333333","25.0191016666667","6500500","新莊區"
"242030","415-TV","2017/07/24 08:39:15","新北市新莊區新泰路255巷30號","121.444918333333","25.0397566666667","6500500","新莊區"
"242001","413-TV","2017/07/24 08:39:03","新北市新莊區碧江街15號","121.454051666667","25.0338583333333","6500500","新莊區"
"242038","400-BY","2017/07/24 08:39:00","新北市新莊區民安路299巷49號","121.4296","25.0234916666667","6500500","新莊區"
"242059","362-BY","2017/07/24 08:39:15","新北市新莊區富國路176巷1號","121.424295","25.0242666666667","6500500","新莊區"
"242057","353-BY","2017/07/24 08:38:44","新北市新莊區中正路818號","121.4099","25.0208183333333","6500500","新莊區"
"242010","132-UY","2017/07/24 08:39:00","新北市新莊區中港路605巷5號","121.450973333333","25.0528933333333","6500500","新莊區"
"242033","133-UY","2017/07/24 08:39:14","新北市新莊區福海街24巷10號","121.445798333333","25.033985","6500500","新莊區"
"242018","135-UY","2017/07/24 08:39:02","新北市新莊區長青街37巷22弄1號","121.456146666667","25.041245","6500500","新莊區"
"242043","172-VK","2017/07/24 08:39:16","新北市新莊區鳳山街52號","121.414278333333","25.025765","6500500","新莊區"
"242006","173-VK","2017/07/24 08:39:03","新北市新莊區思源路593巷6弄15號","121.458305","25.0599616666667","6500500","新莊區"
"242012","175-VK","2017/07/24 08:39:14","新北市新莊區中泰街38巷8號","121.450811666667","25.0472766666667","6500500","新莊區"
"242055","176-VK","2017/07/24 08:39:17","新北市新莊區豐年街豐2巷3號","121.446845","25.0307616666667","6500500","新莊區"
"242016","348-TH","2017/07/24 08:39:13","新北市新莊區中華路二段3巷18號","121.45333","25.046225","6500500","新莊區"
"242052","349-TH","2017/07/24 08:39:12","新北市新莊區光華街52號","121.428558333333","25.01174","6500500","新莊區"
"242014","350-TH","2017/07/24 08:39:09","新北市新莊區中平路152巷11號","121.445448333333","25.04736","6500500","新莊區"
"242008","351-TH","2017/07/24 08:39:20","新北市新莊區昌盛街16號","121.45366","25.04989","6500500","新莊區"
