"lineid","car","time","location","longitude","latitude","cityid","cityname"
"232005","290-BY","2017/07/24 08:49:07","新北市坪林區鶯子瀨4-6號","121.708111666667","24.915135","6502000","坪林區"
"232012","705-BZ","2017/07/24 08:49:04","新北市坪林區北宜路七段316號","121.69571","24.935085","6502000","坪林區"
"232017","758-BX","2017/07/24 08:49:10","新北市坪林區鷺鶿岫4-2號","121.785063333333","24.9557533333333","6502000","坪林區"
"244012","069-UM","2017/07/24 08:49:08","新北市林口區中山路198號","121.388813333333","25.0790233333333","6501700","林口區"
"244006","080-UY","2017/07/24 08:49:12","新北市林口區林口路121號","121.388861666667","25.080985","6501700","林口區"
"244001","248-BX","2017/07/24 08:48:30","新北市林口區嘉寶里42號","121.333273333333","25.12194","6501700","林口區"
"244018","403-UM","2017/07/24 08:49:14","新北市林口區文化一路一段89-5號","121.371956666667","25.0703266666667","6501700","林口區"
"244008","410-SL","2017/07/24 08:49:16","新北市林口區佳林路72號","121.38619","25.081095","6501700","林口區"
"244022","483-VK","2017/07/24 08:49:16","新北市林口區東湖路92號","121.386091666667","25.073855","6501700","林口區"
"244024","656-BX","2017/07/24 08:49:13","新北市林口區南勢街280號","121.357626666667","25.0762866666667","6501700","林口區"
"244010","701-TV","2017/07/24 08:49:08","新北市林口區新生街30號","121.393953333333","25.0762633333333","6501700","林口區"
"244021","838-TS","2017/07/24 08:49:12","新北市林口區粉寮路一段74號","121.397103333333","25.0790416666667","6501700","林口區"
"222005","289-BY","2017/07/24 08:49:16","新北市深坑區大坪街19號","121.63069","25.02089","6501800","深坑區"
"231007","189-VK","2017/07/24 08:49:12","新北市新店區新潭路三段130-1號","121.510186666667","24.9098933333333","6500600","新店區"
"231008","192-VK","2017/07/24 08:49:05","新北市新店區新烏路三段290巷1號","121.549346666667","24.8980233333333","6500600","新店區"
"235010","733-UM","2017/07/24 08:49:01","新北市中和區興南路二段261巷1號","121.502668333333","24.9813133333333","6500300","中和區"
"220013","072-UY","2017/07/24 08:49:13","新北市板橋區大觀路三段59巷15號","121.434243333333","24.995355","6500100","板橋區"
"247001","402-BY","2017/07/24 08:49:21","新北市蘆洲區民族路408巷60號","121.473201666667","25.0947766666667","6501400","蘆洲區"
"226005","5620-A6","2017/07/24 08:49:11","新北市平溪區南山里南山坪125號","121.786136666667","25.0453266666667","6502400","平溪區"
"226001","7418-A5","2017/07/24 08:48:18","新北市平溪區東勢里番仔坑16號","121.754436666667","24.9911583333333","6502400","平溪區"
"226003","AGD-0702","2017/07/24 08:49:13","新北市平溪區十分里十分街54號","121.775216666667","25.04146","6502400","平溪區"
"223006","022-BY","2017/07/24 08:49:14","新北市石碇區靜安路一段97號","121.66164","25.0075483333333","6501900","石碇區"
"223002","198-BX","2017/07/24 08:49:17","新北市石碇區半路店1-1號","121.648303333333","24.97007","6501900","石碇區"
"223003","205-TH","2017/07/24 08:49:07","新北市石碇區北宜路六段直潭巷11號","121.6615","24.934645","6501900","石碇區"
"223008","406-TH","2017/07/24 08:49:17","新北市石碇區十八重溪13號","121.67785","25.0112533333333","6501900","石碇區"
"223001","437-BY","2017/07/24 08:49:14","新北市石碇區北宜路六段直潭巷9號","121.661156666667","24.9361083333333","6501900","石碇區"
"223004","660-BX","2017/07/24 08:49:17","新北市石碇區崩山14號","121.673796666667","24.972995","6501900","石碇區"
"223007","661-BX","2017/07/24 08:49:20","新北市石碇區番子坑56號","121.676345","25.0106233333333","6501900","石碇區"
"223005","677-TV","2017/07/24 08:49:11","新北市石碇區崩山23-4號","121.67728","24.9694816666667","6501900","石碇區"
"227005","282-VK","2017/07/24 08:49:16","新北市雙溪區外柑里四分子4號","121.844878333333","24.998885","6502500","雙溪區"
"253003","6232-TK","2017/07/24 08:49:13","新北市石門區尖子鹿5-1號","121.57188","25.2812033333333","6502200","石門區"
"253001","6251-TK","2017/07/24 08:49:08","新北市石門區下員坑16-6號","121.50821","25.2796183333333","6502200","石門區"
"253002","637-UY","2017/07/24 08:49:03","新北市石門區尖山湖1-1號","121.567013333333","25.2457166666667","6502200","石門區"
"253004","8270-PC","2017/07/24 08:42:43","新北市石門區竹子湖11號","121.617925","25.2558366666667","6502200","石門區"
"252004","249-BX","2017/07/24 08:49:05","新北市三芝區興華里楓子林38號","121.49116","25.20672","6502100","三芝區"
"252006","702-TV","2017/07/24 08:48:45","新北市三芝區古庄里四棧橋24號","121.486818333333","25.260275","6502100","三芝區"
"237001","159-UY","2017/07/24 08:48:59","新北市三峽區大德路141號","121.3759","24.9448316666667","6500900","三峽區"
"236007","165-UM","2017/07/24 08:49:16","新北市土城區清水路32巷14號","121.457096666667","24.9812133333333","6501300","土城區"
"236001","339-SR","2017/07/24 08:49:11","新北市土城區中央路三段281巷11弄3號","121.426563333333","24.9627866666667","6501300","土城區"
"236005","498-BY","2017/07/24 08:49:14","新北市土城區永和街81號","121.435913333333","24.9570183333333","6501300","土城區"
"242020","AAC-296","2017/07/24 08:49:12","新北市新莊區新興街70號","121.450805","25.0379683333333","6500500","新莊區"
"242047","751-BX","2017/07/24 08:49:05","新北市新莊區建安街121巷17號","121.426755","25.023225","6500500","新莊區"
"242028","705-TV","2017/07/24 08:49:20","新北市新莊區中榮街152巷44號","121.44544","25.0537666666667","6500500","新莊區"
"242024","615-BX","2017/07/24 08:49:06","新北市新莊區五工三路86巷20號","121.459288333333","25.0659383333333","6500500","新莊區"
"242022","613-BX","2017/07/24 08:49:18","新北市新莊區化成路500號","121.46616","25.0521416666667","6500500","新莊區"
"242026","612-BX","2017/07/24 08:49:20","新北市新莊區幸福路823號","121.445236666667","25.0490333333333","6500500","新莊區"
"242035","566-BX","2017/07/24 08:49:13","新北市新莊區民安路207巷6號","121.42652","25.022635","6500500","新莊區"
"242040","497-BY","2017/07/24 08:49:11","新北市新莊區天祥街82巷7號","121.41564","25.02983","6500500","新莊區"
"242003","442-UM","2017/07/24 08:49:17","新北市新莊區化成路29巷56號","121.463015","25.0439066666667","6500500","新莊區"
"242045","441-UM","2017/07/24 08:49:06","新北市新莊區中正路829巷22弄43號","121.420696666667","25.02675","6500500","新莊區"
"242049","440-UM","2017/07/24 08:49:13","新北市新莊區民安西路172巷2弄2號","121.425835","25.0160233333333","6500500","新莊區"
"242030","415-TV","2017/07/24 08:49:08","新北市新莊區新泰路283號","121.445626666667","25.0405233333333","6500500","新莊區"
"242001","413-TV","2017/07/24 08:49:03","新北市新莊區中正路287號","121.448748333333","25.03528","6500500","新莊區"
"242038","400-BY","2017/07/24 08:49:00","新北市新莊區民安路272號","121.427636666667","25.021305","6500500","新莊區"
"242059","362-BY","2017/07/24 08:49:15","新北市新莊區民安路318號","121.428781666667","25.0220383333333","6500500","新莊區"
"242057","353-BY","2017/07/24 08:49:20","新北市新莊區中正路887-6號","121.416721666667","25.0245133333333","6500500","新莊區"
"242010","132-UY","2017/07/24 08:49:07","新北市新莊區中港路555號","121.451051666667","25.051655","6500500","新莊區"
"242033","133-UY","2017/07/24 08:49:14","新北市新莊區福海街33巷2號","121.445203333333","25.0341283333333","6500500","新莊區"
"242018","135-UY","2017/07/24 08:49:02","新北市新莊區民生街15巷9號","121.455275","25.042575","6500500","新莊區"
"242043","172-VK","2017/07/24 08:49:03","新北市新莊區龍安路59號","121.415673333333","25.0220566666667","6500500","新莊區"
"242006","173-VK","2017/07/24 08:49:03","新北市新莊區福壽街202巷5號","121.458436666667","25.053825","6500500","新莊區"
"242012","175-VK","2017/07/24 08:49:20","新北市新莊區幸福路678巷2號","121.450705","25.0498533333333","6500500","新莊區"
"242055","176-VK","2017/07/24 08:49:07","新北市新莊區瓊林路48號","121.446488333333","25.028935","6500500","新莊區"
"242016","348-TH","2017/07/24 08:49:01","新北市新莊區中港路379號","121.451708333333","25.0467316666667","6500500","新莊區"
"242052","349-TH","2017/07/24 08:49:12","新北市新莊區民安西路404號","121.428791666667","25.0101316666667","6500500","新莊區"
"242014","350-TH","2017/07/24 08:49:09","新北市新莊區泰順街60號","121.44747","25.042925","6500500","新莊區"
"242008","351-TH","2017/07/24 08:49:13","新北市新莊區昌盛街67號","121.454875","25.0500533333333","6500500","新莊區"
