"lineid","car","time","location","longitude","latitude","cityid","cityname"
"244024","656-BX","2017/07/24 09:25:53","新北市林口區粉寮路二段160巷28號","121.405366666667","25.090905","6501700","林口區"
"231007","189-VK","2017/07/24 10:39:12","新北市新店區新潭路三段80巷1號","121.502715","24.9100483333333","6500600","新店區"
"231008","192-VK","2017/07/24 10:39:05","新北市新店區平廣路一段11-1號","121.537793333333","24.9062116666667","6500600","新店區"
"220013","072-UY","2017/07/24 09:55:47","新北市板橋區民生路二段36-1號","121.472603333333","25.0166633333333","6500100","板橋區"
"247001","402-BY","2017/07/24 10:29:20","新北市五股區中興路三段3-6號","121.449666666667","25.0788466666667","6501400","蘆洲區"
"227005","282-VK","2017/07/24 09:37:56","新北市雙溪區泰平里溪尾寮2-2號","121.819155","24.964405","6502500","雙溪區"
"253001","6251-TK","2017/07/24 10:39:08","新北市石門區小坑9號","121.594388333333","25.288365","6502200","石門區"
"253004","8270-PC","2017/07/24 10:39:07","新北市石門區小坑9號","121.594338333333","25.28863","6502200","石門區"
