"lineid","car","time","location","longitude","latitude","cityid","cityname"
"244024","656-BX","2017/07/24 09:25:53","新北市林口區粉寮路二段160巷28號","121.405366666667","25.090905","6501700","林口區"
"231008","192-VK","2017/07/24 11:49:05","新北市新店區成功路58-1號","121.539038333333","24.9002166666667","6500600","新店區"
"220013","072-UY","2017/07/24 09:55:47","新北市板橋區民生路二段36-1號","121.472603333333","25.0166633333333","6500100","板橋區"
"247001","402-BY","2017/07/24 10:29:20","新北市五股區中興路三段3-6號","121.449666666667","25.0788466666667","6501400","蘆洲區"
"227005","282-VK","2017/07/24 11:45:36","新北市雙溪區魚行里丁子蘭坑17號","121.86379","25.017855","6502500","雙溪區"
