"lineid","car","time","location","longitude","latitude","cityid","cityname"
"234078","298-R6","2017/07/24 12:19:12","新北市永和區福和路1號","121.526535","25.0099283333333","6500400","永和區"
"244024","656-BX","2017/07/24 09:25:53","新北市林口區粉寮路二段160巷28號","121.405366666667","25.090905","6501700","林口區"
"231008","192-VK","2017/07/24 12:19:05","新北市新店區新烏路二段9號","121.545038333333","24.92908","6500600","新店區"
"235031","255-BX","2017/07/24 12:18:58","新北市中和區和城路一段271巷1號","121.485403333333","24.9919483333333","6500300","中和區"
"220013","072-UY","2017/07/24 09:55:47","新北市板橋區民生路二段36-1號","121.472603333333","25.0166633333333","6500100","板橋區"
"247001","402-BY","2017/07/24 10:29:20","新北市五股區中興路三段3-6號","121.449666666667","25.0788466666667","6501400","蘆洲區"
