"lineid","car","time","location","longitude","latitude","cityid","cityname"
"234044","148-BY","2017/07/24 13:19:02","新北市永和區秀朗路二段150號","121.525513333333","25.0014633333333","6500400","永和區"
"234012","149-BY","2017/07/24 13:19:07","新北市永和區信義路46-1號","121.513338333333","25.01242","6500400","永和區"
"234005","207-UY","2017/07/24 13:19:07","新北市永和區保生路2號","121.50676","25.0072616666667","6500400","永和區"
"234078","298-R6","2017/07/24 13:19:12","新北市永和區福和路7巷7號","121.52531","25.0078516666667","6500400","永和區"
"234036","336-UY","2017/07/24 13:19:00","新北市永和區成功路二段67號","121.527428333333","25.0000166666667","6500400","永和區"
"234062","337-UY","2017/07/24 13:19:04","新北市永和區永元路17巷6弄2號","121.521386666667","25.0006666666667","6500400","永和區"
"234084","338-UY","2017/07/24 13:19:13","新北市永和區永利路38號","121.518731666667","25.0055233333333","6500400","永和區"
"234068","552-UM","2017/07/24 13:19:17","新北市永和區中正路680巷24號","121.518068333333","25.00914","6500400","永和區"
"234052","553-UM","2017/07/24 13:19:06","新北市永和區中興街25號","121.51602","25.011945","6500400","永和區"
"234015","745-BX","2017/07/24 13:19:06","新北市永和區環河西路一段95巷19弄3號","121.51171","25.0171383333333","6500400","永和區"
"234028","746-BX","2017/07/24 13:19:08","新北市永和區四維街107號","121.523818333333","24.9982916666667","6500400","永和區"
"234066","841-RS","2017/07/24 13:19:14","新北市永和區保平路30巷3號","121.51175","25.0074983333333","6500400","永和區"
"234060","AAD-866","2017/07/24 13:19:08","新北市永和區秀朗路一段175號","121.517008333333","25.0036633333333","6500400","永和區"
"234040","862-TW","2017/07/24 13:19:15","新北市永和區保平路151巷2弄6-3號","121.50964","25.0052933333333","6500400","永和區"
"234048","863-TW","2017/07/24 13:19:07","新北市永和區保福路二段88巷26號","121.511898333333","25.0136266666667","6500400","永和區"
"234025","9371-KE","2017/07/24 13:18:56","新北市永和區豫溪街42巷3號","121.51554","25.00957","6500400","永和區"
"234010","9373-KE","2017/07/24 13:19:00","新北市永和區文化路90巷32弄10號","121.513673333333","25.0164533333333","6500400","永和區"
"248013","025-BX","2017/07/24 13:19:01","新北市五股區自強路19巷5-1號","121.43464","25.0737966666667","6501500","五股區"
"248015","026-BX","2017/07/24 13:19:11","新北市五股區成泰路三段493號","121.449288333333","25.0993183333333","6501500","五股區"
"248005","077-UY","2017/07/24 13:18:59","新北市五股區中興路一段169號","121.464753333333","25.0737666666667","6501500","五股區"
"248007","095-VK","2017/07/24 13:19:00","新北市五股區更洲路32巷8弄13-1號","121.459293333333","25.079475","6501500","五股區"
"248017","225-UY","2017/07/24 13:19:11","新北市五股區孝義路47巷23號","121.449638333333","25.1097383333333","6501500","五股區"
"248011","247-BX","2017/07/22 21:22:56","新北市五股區中興路二段37巷24號","121.460658333333","25.0750166666667","6501500","五股區"
"248009","272-BY","2017/07/24 13:19:15","新北市五股區成泰路一段139巷2弄2號","121.435105","25.072935","6501500","五股區"
"248003","677-BX","2017/07/24 13:19:02","新北市五股區成泰路二段149號","121.439135","25.08556","6501500","五股區"
"248001","682-TV","2017/07/24 13:19:05","新北市五股區西雲路50號","121.44355","25.0913166666667","6501500","五股區"
"234022","9380-KE","2017/07/24 13:19:12","新北市永和區竹林路124巷25號","121.518516666667","25.0112266666667","6500400","永和區"
"234076","969-R7","2017/07/24 13:19:04","新北市永和區民有街59號","121.517556666667","24.9959083333333","6500400","永和區"
"234072","AAC-211","2017/07/24 13:19:04","新北市永和區竹林路44號","121.517626666667","25.0142966666667","6500400","永和區"
"234001","AAC-295","2017/07/24 13:19:08","新北市永和區中山路一段106號","121.511083333333","25.0104483333333","6500400","永和區"
"244001","248-BX","2017/07/24 13:19:10","新北市林口區湖南里70-9號","121.37605","25.0898083333333","6501700","林口區"
"244024","656-BX","2017/07/24 09:25:53","新北市林口區粉寮路二段160巷28號","121.405366666667","25.090905","6501700","林口區"
"243005","AAD-798","2017/07/24 13:17:41","新北市泰山區南林路103號","121.415051666667","25.0455733333333","6501600","泰山區"
"243008","680-BX","2017/07/24 09:24:51","新北市泰山區犁頭窠3-1號","121.422103333333","25.06061","6501600","泰山區"
"231002","002-UM","2017/07/24 13:19:00","新北市新店區安華路28-1號","121.51963","24.9608516666667","6500600","新店區"
"231025","0293-UT","2017/07/24 13:19:01","新北市新店區安華路28-1號","121.51965","24.960705","6500600","新店區"
"231028","046-UY","2017/07/24 13:19:10","新北市新店區安華路28-1號","121.519555","24.9609583333333","6500600","新店區"
"231030","047-UY","2017/07/24 13:19:05","新北市新店區安忠路205巷8號","121.510041666667","24.9555566666667","6500600","新店區"
"231029","106-UY","2017/07/24 13:19:14","新北市新店區安華路28-1號","121.519601666667","24.960935","6500600","新店區"
"231018","107-UY","2017/07/24 13:19:04","新北市新店區安康路一段85號","121.529461666667","24.96141","6500600","新店區"
"231011","108-UY","2017/07/24 13:19:15","新北市新店區安康路一段35-1號","121.532055","24.9605733333333","6500600","新店區"
"231019","187-VK","2017/07/24 13:19:14","新北市新店區安康路一段52巷2號","121.530183333333","24.96113","6500600","新店區"
"231026","256-BX","2017/07/24 13:19:05","新北市新店區安華路28-1號","121.519773333333","24.961135","6500600","新店區"
"231010","278-BY","2017/07/24 13:19:00","新北市新店區安康路一段148號","121.526398333333","24.96292","6500600","新店區"
"231014","AAD-862","2017/07/24 13:19:14","新北市新店區安康路一段105號","121.529093333333","24.9615866666667","6500600","新店區"
"231027","3712-VJ","2017/07/24 13:19:08","新北市新店區環河路17號","121.53765","24.9614266666667","6500600","新店區"
"231024","3713-VJ","2017/07/24 13:19:09","新北市新店區安康路一段89號","121.529178333333","24.9615583333333","6500600","新店區"
"231038","4715-K9","2017/07/24 13:18:57","新北市新店區安華路1-1號","121.519228333333","24.9605716666667","6500600","新店區"
"231036","512-UM","2017/07/24 13:19:06","新北市新店區車子路10-4號","121.504843333333","24.9545133333333","6500600","新店區"
"231023","513-UM","2017/07/24 13:18:59","新北市新店區安康路一段226號","121.523455","24.9635783333333","6500600","新店區"
"231035","515-UM","2017/07/24 13:19:11","新北市新店區安華路28-1號","121.519521666667","24.961285","6500600","新店區"
"231006","617-UM","2017/07/24 13:19:00","新北市新店區安華路28-1號","121.519391666667","24.96106","6500600","新店區"
"231001","619-UM","2017/07/24 13:19:03","新北市新店區安華路28-1號","121.519596666667","24.9607366666667","6500600","新店區"
"231003","641-BX","2017/07/24 13:19:02","新北市新店區安華路28-1號","121.519525","24.9605783333333","6500600","新店區"
"231034","645-TV","2017/07/24 13:19:13","新北市新店區安華路28-1號","121.519298333333","24.9606416666667","6500600","新店區"
"231013","719-UM","2017/07/24 13:19:03","新北市新店區安康路一段107-2號","121.52885","24.9616233333333","6500600","新店區"
"231031","720-UM","2017/07/24 13:19:02","新北市新店區安忠路101號","121.510968333333","24.9562533333333","6500600","新店區"
"231005","897-TW","2017/07/24 13:19:05","新北市新店區安華路28-1號","121.51955","24.960755","6500600","新店區"
"231004","899-TW","2017/07/24 13:19:07","新北市新店區安華路28-1號","121.519191666667","24.96086","6500600","新店區"
"231037","AKT-0513","2017/07/24 13:18:59","新北市新店區安華路30巷3號","121.518733333333","24.9582266666667","6500600","新店區"
"235030","003-UY","2017/07/24 13:19:06","新北市中和區中山路二段64巷14弄2號","121.503445","25.0054633333333","6500300","中和區"
"235027","006-UY","2017/07/24 13:18:55","新北市中和區員山路36巷16-3號","121.484946666667","24.9913016666667","6500300","中和區"
"235003","097-UM","2017/07/24 13:19:09","新北市中和區景安路112號","121.505386666667","24.9952516666667","6500300","中和區"
"235029","098-UM","2017/07/24 13:19:06","新北市中和區中山路二段64巷16弄2號","121.503251666667","25.00589","6500300","中和區"
"235004","150-BY","2017/07/24 13:19:03","新北市中和區中和路212號","121.505871666667","24.9996866666667","6500300","中和區"
"235022","151-BY","2017/07/24 13:19:13","新北市中和區圓通路369巷2號","121.491241666667","24.9895416666667","6500300","中和區"
"235019","183-VK","2017/07/24 13:19:09","新北市中和區中正路752號","121.485311666667","24.9985483333333","6500300","中和區"
"235002","185-VK","2017/07/24 13:19:06","新北市中和區景平路116號","121.519548333333","24.991785","6500300","中和區"
"235013","186-VK","2017/07/24 13:19:12","新北市中和區員山路36巷16-2號","121.485278333333","24.9916833333333","6500300","中和區"
"235031","255-BX","2017/07/24 13:18:58","新北市中和區中正路853號","121.484626666667","25.003045","6500300","中和區"
"235007","352-BY","2017/07/24 13:19:14","新北市中和區景平路377號","121.504126666667","24.9934066666667","6500300","中和區"
"235015","376-QA","2017/07/24 13:19:11","新北市中和區興南路一段67號","121.510231666667","24.9893983333333","6500300","中和區"
"235032","377-QA","2017/07/24 13:19:07","新北市中和區員山路36巷16-3號","121.48503","24.9912833333333","6500300","中和區"
"235025","378-QA","2017/07/24 13:19:12","新北市中和區國光街215巷24弄2-2號","121.466723333333","25.0002216666667","6500300","中和區"
"235014","4979-A6","2017/07/24 13:19:01","新北市中和區捷運路61巷9號","121.509048333333","24.9894883333333","6500300","中和區"
"235033","4980-A6","2017/07/24 13:19:15","新北市中和區安邦街83號","121.496881666667","24.996635","6500300","中和區"
"235006","551-UM","2017/07/24 13:19:15","新北市中和區大仁街20巷25弄10號","121.518768333333","24.993595","6500300","中和區"
"235034","558-UM","2017/07/24 13:19:10","新北市中和區中正路358號","121.493748333333","24.9939866666667","6500300","中和區"
"235009","565-BX","2017/07/24 13:19:04","新北市中和區中正路271-1號","121.495755","24.99364","6500300","中和區"
"235018","640-BX","2017/07/24 13:19:10","新北市中和區國光街6巷2號","121.472003333333","25.0002","6500300","中和區"
"235024","647-TV","2017/07/24 13:19:01","新北市中和區員山路36巷16-3號","121.484921666667","24.9914566666667","6500300","中和區"
"235011","732-UM","2017/07/24 13:19:10","新北市中和區連城路222巷6弄2號","121.490875","24.9977616666667","6500300","中和區"
"235035","783-BX","2017/07/24 13:19:10","新北市中和區永和路337巷15號","121.484483333333","25.01105","6500300","中和區"
"235026","800-TS","2017/07/24 13:18:59","新北市中和區景平路999巷1號","121.495416666667","25.005975","6500300","中和區"
"235021","801-TS","2017/07/24 13:19:00","新北市中和區員山路36巷16-3號","121.484961666667","24.9913416666667","6500300","中和區"
"235005","802-TS","2017/07/24 13:19:07","新北市中和區景安路52號","121.506931666667","24.998","6500300","中和區"
"235016","805-TS","2017/07/24 13:19:06","新北市中和區南山路543號","121.508018333333","24.986695","6500300","中和區"
"235017","900-TW","2017/07/24 13:19:03","新北市中和區員山路36巷16-2號","121.485278333333","24.9915466666667","6500300","中和區"
"235001","AAC-213","2017/07/24 13:19:07","新北市中和區景平路149號","121.513893333333","24.9920683333333","6500300","中和區"
"235023","AAC-215","2017/07/24 13:18:57","新北市中和區和城路一段271巷1號","121.485538333333","24.991565","6500300","中和區"
"220013","072-UY","2017/07/24 13:19:09","新北市板橋區中山路二段89巷5弄12號","121.472871666667","25.0167733333333","6500100","板橋區"
"220034","073-UY","2017/07/24 13:19:12","新北市板橋區華東街1-10號","121.44868","24.9950316666667","6500100","板橋區"
"247001","402-BY","2017/07/24 13:19:00","新北市蘆洲區水湳街115-1號","121.46973","25.091315","6501400","蘆洲區"
"227001","400-TW","2017/07/24 13:19:12","新北市雙溪區牡丹里聖南31號","121.853841666667","25.0557133333333","6502500","雙溪區"
"208004","AAC-292","2017/07/24 13:19:11","新北市金山區南勢湖59號","121.614185","25.2144516666667","6502700","金山區"
"207002","749-BX","2017/07/24 13:19:14","新北市萬里區崁腳里崁腳路166號","121.64516","25.1560566666667","6502800","萬里區"
"207001","463-BY","2017/07/24 13:19:14","新北市萬里區龜吼里玉田路74號","121.680301666667","25.19283","6502800","萬里區"
"252005","073-UM","2017/07/24 13:18:08","新北市三芝區八賢里八連溪57號","121.516665","25.2324633333333","6502100","三芝區"
"236005","498-BY","2017/07/24 13:19:03","新北市土城區亞洲路108巷3號","121.433663333333","24.9724883333333","6501300","土城區"
"221002","753-BX","2017/07/24 13:19:00","新北市汐止區福德一路394號","121.627565","25.06088","6501100","汐止區"
"220004","276-BY","2017/07/24 13:19:14","新北市板橋區民生路二段36-1號","121.472263333333","25.0168233333333","6500100","板橋區"
"220010","303-R5","2017/07/24 13:19:12","新北市板橋區民生路二段36-1號","121.472526666667","25.0169116666667","6500100","板橋區"
"220011","609-BX","2017/07/24 13:19:16","新北市板橋區民生路二段22號","121.472768333333","25.01666","6500100","板橋區"
"220002","741-BX","2017/07/24 13:19:09","新北市板橋區民生路二段36-1號","121.472626666667","25.016675","6500100","板橋區"
