"lineid","car","time","location","longitude","latitude","cityid","cityname"
"234044","148-BY","2017/07/24 13:29:02","新北市永和區秀朗路二段117號","121.52403","25.0017683333333","6500400","永和區"
"234012","149-BY","2017/07/24 13:29:07","新北市永和區中山路一段102號","121.511263333333","25.0105533333333","6500400","永和區"
"234005","207-UY","2017/07/24 13:29:07","新北市永和區中山路一段240號","121.507518333333","25.00797","6500400","永和區"
"234078","298-R6","2017/07/24 13:29:12","新北市永和區環河東路三段60號","121.526825","25.00585","6500400","永和區"
"234036","336-UY","2017/07/24 13:29:00","新北市永和區民樂街27號","121.527621666667","25.0017166666667","6500400","永和區"
"234062","337-UY","2017/07/24 13:29:04","新北市永和區永元路17巷25弄7號","121.520886666667","25.00168","6500400","永和區"
"234084","338-UY","2017/07/24 13:29:13","新北市永和區永利路87-1號","121.521508333333","25.0033633333333","6500400","永和區"
"234068","552-UM","2017/07/24 13:28:57","新北市永和區中興街10巷1號","121.515546666667","25.0119816666667","6500400","永和區"
"234052","553-UM","2017/07/24 13:29:06","新北市永和區竹林路27號","121.517323333333","25.014575","6500400","永和區"
"234015","745-BX","2017/07/24 13:29:06","新北市永和區永和路二段425巷27號","121.514666666667","25.017615","6500400","永和區"
"234028","746-BX","2017/07/24 13:29:08","新北市永和區民權路29巷19號","121.521091666667","24.998055","6500400","永和區"
"234066","841-RS","2017/07/24 13:29:14","新北市永和區永貞路360巷3號","121.510505","25.0068633333333","6500400","永和區"
"234060","AAD-866","2017/07/24 13:29:08","新北市永和區中正路548-2號","121.517283333333","25.0055133333333","6500400","永和區"
"234040","862-TW","2017/07/24 13:29:15","新北市永和區中和路519巷16號","121.510846666667","25.00326","6500400","永和區"
"234048","863-TW","2017/07/24 13:29:07","新北市永和區保福路二段74號","121.510495","25.0131416666667","6500400","永和區"
"234025","9371-KE","2017/07/24 13:29:16","新北市永和區和平街28號","121.513513333333","25.0100066666667","6500400","永和區"
"234010","9373-KE","2017/07/24 13:29:01","新北市永和區仁愛路141巷3弄6號","121.511968333333","25.0124133333333","6500400","永和區"
"248013","025-BX","2017/07/24 13:29:01","新北市五股區明德路7巷17號","121.43506","25.07087","6501500","五股區"
"248015","026-BX","2017/07/24 13:29:06","新北市五股區凌雲路一段83巷34號","121.449291666667","25.101045","6501500","五股區"
"248005","077-UY","2017/07/24 13:28:59","新北市五股區四維路23號","121.46706","25.0705866666667","6501500","五股區"
"248007","095-VK","2017/07/24 13:29:00","新北市五股區中興路二段78-5號","121.461328333333","25.0785983333333","6501500","五股區"
"248017","225-UY","2017/07/24 13:29:11","新北市五股區孝義路84號","121.44922","25.1156816666667","6501500","五股區"
"248011","247-BX","2017/07/22 21:22:56","新北市五股區中興路二段37巷24號","121.460658333333","25.0750166666667","6501500","五股區"
"248009","272-BY","2017/07/24 13:29:15","新北市五股區明德路10號","121.433423333333","25.0716833333333","6501500","五股區"
"248003","677-BX","2017/07/24 13:29:02","新北市五股區民義路一段186號","121.432761666667","25.0878933333333","6501500","五股區"
"248001","682-TV","2017/07/24 13:29:06","新北市五股區西雲路164號","121.446711666667","25.0945883333333","6501500","五股區"
"234022","9380-KE","2017/07/24 13:29:12","新北市永和區竹林路91巷15弄9號","121.520405","25.0123616666667","6500400","永和區"
"234076","969-R7","2017/07/24 13:29:07","新北市永和區智光街29號","121.518025","24.9989866666667","6500400","永和區"
"234072","AAC-211","2017/07/24 13:29:04","新北市永和區永和路二段279號","121.516023333333","25.0157133333333","6500400","永和區"
"234001","AAC-295","2017/07/24 13:29:07","新北市永和區保平路8號","121.512948333333","25.0076066666667","6500400","永和區"
"244001","248-BX","2017/07/24 13:29:10","新北市林口區寶斗厝坑83號","121.332296666667","25.1199483333333","6501700","林口區"
"244024","656-BX","2017/07/24 09:25:53","新北市林口區粉寮路二段160巷28號","121.405366666667","25.090905","6501700","林口區"
"243005","AAD-798","2017/07/24 13:29:01","新北市泰山區明志路三段206巷3號","121.423291666667","25.037975","6501600","泰山區"
"243004","646-TV","2017/07/24 13:28:59","新北市泰山區犁頭窠3-1號","121.422271666667","25.0605233333333","6501600","泰山區"
"243008","680-BX","2017/07/24 09:24:51","新北市泰山區犁頭窠3-1號","121.422103333333","25.06061","6501600","泰山區"
"231002","002-UM","2017/07/24 13:29:00","新北市新店區環河路29巷1號","121.536988333333","24.9613533333333","6500600","新店區"
"231025","0293-UT","2017/07/24 13:29:01","新北市新店區環河路29巷1號","121.536981666667","24.96136","6500600","新店區"
"231028","046-UY","2017/07/24 13:29:10","新北市新店區安和路一段2-3號","121.517131666667","24.9644216666667","6500600","新店區"
"231030","047-UY","2017/07/24 13:29:05","新北市新店區安康路二段1-5號","121.517165","24.9638716666667","6500600","新店區"
"231029","106-UY","2017/07/24 13:28:54","新北市新店區車子路115-11號","121.507175","24.9546383333333","6500600","新店區"
"231018","107-UY","2017/07/24 13:29:04","新北市新店區中央路175-3號","121.534766666667","24.9696183333333","6500600","新店區"
"231011","108-UY","2017/07/24 13:29:15","新北市新店區德正街21巷1號","121.543886666667","24.9721783333333","6500600","新店區"
"231019","187-VK","2017/07/24 13:29:15","新北市新店區北宜路一段314號","121.547396666667","24.9520916666667","6500600","新店區"
"231026","256-BX","2017/07/24 13:29:05","新北市新店區安康路一段235號","121.525195","24.96325","6500600","新店區"
"231010","278-BY","2017/07/24 13:29:00","新北市新店區中央路17號","121.533246666667","24.9782516666667","6500600","新店區"
"231014","AAD-862","2017/07/24 13:29:14","新北市新店區新烏路一段11巷21號","121.547976666667","24.9508483333333","6500600","新店區"
"231027","3712-VJ","2017/07/24 13:29:08","新北市新店區國校路32-1號","121.537643333333","24.95427","6500600","新店區"
"231024","3713-VJ","2017/07/24 13:29:10","新北市新店區北新路二段59巷5號","121.542216666667","24.9731783333333","6500600","新店區"
"231038","4715-K9","2017/07/24 13:28:57","新北市新店區安華路30巷1號","121.519581666667","24.9592566666667","6500600","新店區"
"231036","512-UM","2017/07/24 13:29:06","新北市新店區安祥路190巷10號","121.47933","24.957175","6500600","新店區"
"231023","513-UM","2017/07/24 13:28:59","新北市新店區新店路13號","121.540276666667","24.9528833333333","6500600","新店區"
"231035","515-UM","2017/07/24 13:29:11","新北市新店區安康路一段355號","121.519871666667","24.9636416666667","6500600","新店區"
"231006","617-UM","2017/07/24 13:29:00","新北市新店區安康路一段323-3號","121.521208333333","24.9638333333333","6500600","新店區"
"231001","619-UM","2017/07/24 13:29:03","新北市新店區力行路15號","121.537003333333","24.9652916666667","6500600","新店區"
"231003","641-BX","2017/07/24 13:29:02","新北市新店區北新路一段126巷25號","121.543186666667","24.96978","6500600","新店區"
"231034","645-TV","2017/07/24 13:29:13","新北市新店區車子路10-4號","121.504651666667","24.9544066666667","6500600","新店區"
"231013","719-UM","2017/07/24 13:29:03","新北市新店區中正路454-5號","121.534453333333","24.9790333333333","6500600","新店區"
"231031","720-UM","2017/07/24 13:29:01","新北市新店區安忠路205巷8號","121.508403333333","24.95455","6500600","新店區"
"231005","897-TW","2017/07/24 13:29:05","新北市新店區北新路一段86號","121.541523333333","24.9674983333333","6500600","新店區"
"231004","899-TW","2017/07/24 13:29:07","新北市新店區安康路一段94號","121.527778333333","24.96216","6500600","新店區"
"231037","AKT-0513","2017/07/24 13:28:59","新北市新店區薏仁坑路28-3號","121.496536666667","24.9625683333333","6500600","新店區"
"235030","003-UY","2017/07/24 13:29:06","新北市中和區水源路2號","121.502796666667","25.00359","6500300","中和區"
"235027","006-UY","2017/07/24 13:29:15","新北市中和區中正路515號","121.488188333333","24.9942066666667","6500300","中和區"
"235020","096-UM","2017/07/24 13:28:57","新北市中和區新生街163號","121.48369","25.0011116666667","6500300","中和區"
"235003","097-UM","2017/07/24 13:29:13","新北市中和區景平路166號","121.517128333333","24.9922733333333","6500300","中和區"
"235029","098-UM","2017/07/24 13:29:06","新北市中和區莊敬路49巷20弄10號","121.50211","25.0060483333333","6500300","中和區"
"235004","150-BY","2017/07/24 13:29:03","新北市中和區保健路50巷66號","121.50932","24.9952066666667","6500300","中和區"
"235022","151-BY","2017/07/24 13:29:13","新北市中和區圓通路369巷76號","121.490055","24.9818383333333","6500300","中和區"
"235019","183-VK","2017/07/24 13:29:09","新北市中和區民享街283號","121.47139","24.99611","6500300","中和區"
"235002","185-VK","2017/07/24 13:29:06","新北市中和區大智街111號","121.523435","24.9924816666667","6500300","中和區"
"235013","186-VK","2017/07/24 13:29:12","新北市中和區景安路108號","121.505326666667","24.9953683333333","6500300","中和區"
"235031","255-BX","2017/07/24 13:28:58","新北市中和區民樂路71號","121.484166666667","25.0014033333333","6500300","中和區"
"235008","293-VK","2017/07/24 13:29:17","新北市中和區中正路281-1號","121.494936666667","24.9936783333333","6500300","中和區"
"235036","301-VK","2017/07/24 13:29:07","新北市中和區連城路263巷4弄10號","121.4917","24.995335","6500300","中和區"
"235007","352-BY","2017/07/24 13:29:14","新北市中和區景平路331號","121.5058","24.9931966666667","6500300","中和區"
"235015","376-QA","2017/07/24 13:29:11","新北市中和區興南路二段146號","121.503965","24.9830666666667","6500300","中和區"
"235032","377-QA","2017/07/24 13:29:07","新北市中和區中正路281-10號","121.494135","24.9938283333333","6500300","中和區"
"235025","378-QA","2017/07/24 13:29:13","新北市中和區民治街29巷2弄6號","121.475545","25.0006933333333","6500300","中和區"
"235014","4979-A6","2017/07/24 13:29:01","新北市中和區景新街418巷12號","121.512291666667","24.98885","6500300","中和區"
"235033","4980-A6","2017/07/24 13:29:15","新北市中和區連城路99巷3號","121.496825","24.999495","6500300","中和區"
"235006","551-UM","2017/07/24 13:29:07","新北市中和區自立路56巷14號","121.522785","24.99173","6500300","中和區"
"235034","558-UM","2017/07/24 13:28:49","新北市中和區圓通路150號","121.497961666667","24.9959433333333","6500300","中和區"
"235009","565-BX","2017/07/24 13:29:08","新北市中和區復興路51號","121.50465","24.9900366666667","6500300","中和區"
"235018","640-BX","2017/07/24 13:29:10","新北市中和區民享街117巷1號","121.474638333333","24.9992166666667","6500300","中和區"
"235024","647-TV","2017/07/24 13:29:01","新北市中和區員山路109號","121.480801666667","24.9946566666667","6500300","中和區"
"235011","732-UM","2017/07/24 13:29:10","新北市中和區南山路300號","121.507903333333","24.9871483333333","6500300","中和區"
"235010","733-UM","2017/07/24 13:29:01","新北市中和區中正路589巷15號","121.485775","24.9935766666667","6500300","中和區"
"235035","783-BX","2017/07/24 13:29:09","新北市中和區永和路458巷1弄2號","121.484153333333","25.012595","6500300","中和區"
"235026","800-TS","2017/07/24 13:28:59","新北市中和區景平路989巷2號","121.495816666667","25.0054616666667","6500300","中和區"
"235021","801-TS","2017/07/24 13:29:00","新北市中和區民安街111巷4弄3號","121.476321666667","24.99901","6500300","中和區"
"235005","802-TS","2017/07/24 13:29:07","新北市中和區中和路324巷8號","121.509936666667","25.0008133333333","6500300","中和區"
"235016","805-TS","2017/07/24 13:29:06","新北市中和區興南路二段96號","121.505003333333","24.98408","6500300","中和區"
"235012","896-TW","2017/07/24 13:29:16","新北市中和區中正路637巷52弄1號","121.485398333333","24.9934783333333","6500300","中和區"
"235017","900-TW","2017/07/24 13:29:03","新北市土城區金城路三段257號","121.471801666667","24.9900333333333","6500300","中和區"
"235001","AAC-213","2017/07/24 13:29:07","新北市中和區景德街71號","121.516746666667","24.99138","6500300","中和區"
"235023","AAC-215","2017/07/24 13:29:17","新北市中和區和城路一段271巷1號","121.485541666667","24.99174","6500300","中和區"
"220016","013-TV","2017/07/24 13:29:09","新北市板橋區民生路二段15-1號","121.472793333333","25.01637","6500100","板橋區"
"220013","072-UY","2017/07/24 13:29:09","新北市板橋區中山路二段50-6號","121.473541666667","25.015245","6500100","板橋區"
"220034","073-UY","2017/07/24 13:29:12","新北市板橋區華東街1-10號","121.448246666667","24.9950533333333","6500100","板橋區"
"247001","402-BY","2017/07/24 13:29:00","新北市蘆洲區民族路49號","121.47846","25.0853766666667","6501400","蘆洲區"
"247007","339-TH","2017/07/24 13:29:09","新北市五股區中興路三段2巷10號","121.449058333333","25.08135","6501400","蘆洲區"
"227001","400-TW","2017/07/24 13:29:12","新北市雙溪區三港里雙澳路46號","121.878478333333","25.05259","6502500","雙溪區"
"208004","AAC-292","2017/07/24 13:29:11","新北市金山區南勢湖70-2號","121.615205","25.2158933333333","6502700","金山區"
"207002","749-BX","2017/07/24 13:29:14","新北市萬里區崁腳里崁腳路166號","121.645156666667","25.1560233333333","6502800","萬里區"
"207001","463-BY","2017/07/24 13:29:03","新北市萬里區龜吼里翡翠路17號","121.683025","25.1876316666667","6502800","萬里區"
"252005","073-UM","2017/07/24 13:28:28","新北市三芝區福德里土地公埔69號","121.519911666667","25.224635","6502100","三芝區"
"236005","498-BY","2017/07/24 13:29:03","新北市土城區亞洲路11巷1弄35號","121.436185","24.9720366666667","6501300","土城區"
"221002","753-BX","2017/07/24 13:29:00","新北市汐止區福德一路452號","121.625476666667","25.058825","6501100","汐止區"
"220030","610-BX","2017/07/24 13:29:06","新北市板橋區華東街1-10號","121.448273333333","24.9949033333333","6500100","板橋區"
"220004","276-BY","2017/07/24 13:29:14","新北市板橋區中山路一段156號","121.464833333333","25.0115716666667","6500100","板橋區"
"220001","285-VK","2017/07/24 13:29:10","新北市板橋區民生路二段15-1號","121.472785","25.0164333333333","6500100","板橋區"
"220009","295-UM","2017/07/24 13:29:00","新北市板橋區民生路二段15-1號","121.472781666667","25.016455","6500100","板橋區"
"220010","303-R5","2017/07/24 13:29:12","新北市板橋區民生路二段36-1號","121.472563333333","25.0167216666667","6500100","板橋區"
"220104","560-BX","2017/07/24 13:29:10","新北市板橋區南雅東路87號","121.453093333333","25.0084266666667","6500100","板橋區"
"220011","609-BX","2017/07/24 13:28:56","新北市板橋區民生路二段36-1號","121.472575","25.016555","6500100","板橋區"
"220025","687-BX","2017/07/24 13:29:13","新北市板橋區華東街1-10號","121.448313333333","24.99498","6500100","板橋區"
"220042","689-BX","2017/07/24 13:29:11","新北市板橋區民生路二段120號","121.470406666667","25.019605","6500100","板橋區"
"220002","741-BX","2017/07/24 13:29:09","新北市板橋區民生路二段36-1號","121.472583333333","25.01662","6500100","板橋區"
"220022","895-R6","2017/07/24 13:29:06","新北市板橋區南雅南路二段144巷10號","121.451126666667","24.99586","6500100","板橋區"
"220021","985-R7","2017/07/24 13:28:57","新北市板橋區華東街1-10號","121.44833","24.9949933333333","6500100","板橋區"
