"lineid","car","time","location","longitude","latitude","cityid","cityname"
"234044","148-BY","2017/07/24 13:49:02","新北市永和區永利路358號","121.52618","25.0033283333333","6500400","永和區"
"234012","149-BY","2017/07/24 13:49:07","新北市永和區仁愛路204號","121.50929","25.0123066666667","6500400","永和區"
"234005","207-UY","2017/07/24 13:49:07","新北市永和區永和路一段84號","121.513096666667","25.0066","6500400","永和區"
"234078","298-R6","2017/07/24 13:49:12","新北市永和區永亨路114號","121.523805","25.004365","6500400","永和區"
"234036","336-UY","2017/07/24 13:49:00","新北市永和區成功路二段145號","121.526681666667","24.99776","6500400","永和區"
"234062","337-UY","2017/07/24 13:49:04","新北市永和區中正路368巷2號","121.51792","25.0007433333333","6500400","永和區"
"234084","338-UY","2017/07/24 13:49:13","新北市永和區永亨路134號","121.52477","25.0038933333333","6500400","永和區"
"234068","552-UM","2017/07/24 13:48:57","新北市永和區國光路14號","121.519043333333","25.0083116666667","6500400","永和區"
"234052","553-UM","2017/07/24 13:49:13","新北市永和區竹林路75巷25弄3號","121.52022","25.0143116666667","6500400","永和區"
"234015","745-BX","2017/07/24 13:49:10","新北市永和區文化路97號","121.51318","25.01512","6500400","永和區"
"234028","746-BX","2017/07/24 13:49:08","新北市永和區民生路67巷58號","121.52561","24.9975516666667","6500400","永和區"
"234066","841-RS","2017/07/24 13:49:14","新北市永和區中山路一段149號","121.510066666667","25.0094933333333","6500400","永和區"
"234060","AAD-866","2017/07/24 13:49:08","新北市永和區中正路142號","121.514698333333","24.99625","6500400","永和區"
"234040","862-TW","2017/07/24 13:49:15","新北市永和區中和路421巷3弄21號","121.508458333333","25.00033","6500400","永和區"
"234048","863-TW","2017/07/24 13:49:07","新北市永和區保安路77號","121.50862","25.0148533333333","6500400","永和區"
"234010","9373-KE","2017/07/24 13:49:00","新北市永和區保福路二段58號","121.510865","25.0123483333333","6500400","永和區"
"248015","026-BX","2017/07/24 13:49:06","新北市五股區凌雲路一段133巷9號","121.449345","25.1017583333333","6501500","五股區"
"248007","095-VK","2017/07/24 13:49:00","新北市五股區中興路一段147號","121.465191666667","25.073585","6501500","五股區"
"248019","225-UY","2017/07/24 13:49:11","新北市五股區凌雲路三段82-1號","121.431741666667","25.1173266666667","6501500","五股區"
"248011","247-BX","2017/07/22 21:22:56","新北市五股區中興路二段37巷24號","121.460658333333","25.0750166666667","6501500","五股區"
"248009","272-BY","2017/07/24 13:49:03","新北市五股區水碓九路55號","121.429283333333","25.072295","6501500","五股區"
"248003","677-BX","2017/07/24 13:49:02","新北市五股區民義路二段50-29號","121.41215","25.1028883333333","6501500","五股區"
"248001","682-TV","2017/07/24 13:48:55","新北市五股區成泰路三段454號","121.45138","25.10035","6501500","五股區"
"234022","9380-KE","2017/07/24 13:49:12","新北市永和區豫溪街57巷8弄6號","121.51759","25.0104133333333","6500400","永和區"
"234076","969-R7","2017/07/24 13:49:02","新北市永和區民族街39號","121.518723333333","24.9990283333333","6500400","永和區"
"234072","AAC-211","2017/07/24 13:49:04","新北市永和區豫溪街215巷16號","121.524011666667","25.00979","6500400","永和區"
"234001","AAC-295","2017/07/24 13:49:07","新北市永和區永和路一段105號","121.513763333333","25.0077066666667","6500400","永和區"
"244001","248-BX","2017/07/24 13:49:10","新北市林口區瑞平里9鄰62號","121.344773333333","25.1267733333333","6501700","林口區"
"244024","656-BX","2017/07/24 09:25:53","新北市林口區粉寮路二段160巷28號","121.405366666667","25.090905","6501700","林口區"
"243002","267-VK","2017/07/24 13:48:58","新北市泰山區辭修路24號","121.428996666667","25.058105","6501600","泰山區"
"243005","AAD-798","2017/07/24 13:49:01","新北市泰山區明志路三段206巷3號","121.423295","25.0379533333333","6501600","泰山區"
"243001","297-R6","2017/07/24 13:48:58","新北市泰山區福興三街26號","121.434121666667","25.0577633333333","6501600","泰山區"
"243007","380-SR","2017/07/24 13:48:56","新北市泰山區泰林路二段362號","121.428665","25.06365","6501600","泰山區"
"243003","549-UM","2017/07/24 13:49:04","新北市泰山區明志路二段125號","121.427958333333","25.05141","6501600","泰山區"
"243004","646-TV","2017/07/24 13:48:59","新北市泰山區泰林路二段73巷27號","121.434441666667","25.05783","6501600","泰山區"
"243008","680-BX","2017/07/24 13:49:04","新北市泰山區明志路二段137號","121.427716666667","25.05064","6501600","泰山區"
"231002","002-UM","2017/07/24 13:49:00","新北市新店區溪園路393號","121.524231666667","24.9790516666667","6500600","新店區"
"231025","0293-UT","2017/07/24 13:49:01","新北市新店區中央六街56號","121.527895","24.97573","6500600","新店區"
"231028","046-UY","2017/07/24 13:49:11","新北市新店區安和路三段46號","121.517958333333","24.9817683333333","6500600","新店區"
"231030","047-UY","2017/07/24 13:49:05","新北市新店區安康路一段279號","121.52377","24.9634916666667","6500600","新店區"
"231029","106-UY","2017/07/24 13:48:54","新北市新店區安康路二段125-1號","121.512355","24.9609266666667","6500600","新店區"
"231018","107-UY","2017/07/24 13:49:04","新北市新店區中正路400巷4號","121.534825","24.9776083333333","6500600","新店區"
"231011","108-UY","2017/07/24 13:49:15","新北市新店區中正路54巷25號","121.54497","24.97107","6500600","新店區"
"231019","187-VK","2017/07/24 13:49:15","新北市新店區湖子內路22號","121.54233","24.9307916666667","6500600","新店區"
"231026","256-BX","2017/07/24 13:49:05","新北市新店區平等街48巷27號","121.534881666667","24.9731816666667","6500600","新店區"
"231010","278-BY","2017/07/24 13:49:00","新北市新店區平等街69號","121.535851666667","24.9724133333333","6500600","新店區"
"231014","AAD-862","2017/07/24 13:49:14","新北市新店區竹林路71-7號","121.55358","24.9512616666667","6500600","新店區"
"231027","3712-VJ","2017/07/24 13:49:08","新北市新店區中興路一段24-2號","121.538563333333","24.95829","6500600","新店區"
"231024","3713-VJ","2017/07/24 13:49:09","新北市新店區北新路一段271巷35號","121.539621666667","24.96701","6500600","新店區"
"231038","4715-K9","2017/07/24 13:48:57","新北市新店區安華路1-1號","121.519633333333","24.959935","6500600","新店區"
"231036","512-UM","2017/07/24 13:49:06","新北市新店區安祥路110巷21號","121.473776666667","24.9562516666667","6500600","新店區"
"231023","513-UM","2017/07/24 13:48:59","新北市新店區國校路55號","121.538181666667","24.9545333333333","6500600","新店區"
"231035","515-UM","2017/07/24 13:49:10","新北市新店區安忠路57巷5-6號","121.513148333333","24.9587333333333","6500600","新店區"
"231006","617-UM","2017/07/24 13:49:00","新北市新店區北宜路一段196-1號","121.543201666667","24.9529816666667","6500600","新店區"
"231001","619-UM","2017/07/24 13:49:03","新北市新店區三民路88號","121.534345","24.9727216666667","6500600","新店區"
"231003","641-BX","2017/07/24 13:49:02","新北市新店區中興路一段123號","121.5417","24.9630966666667","6500600","新店區"
"231034","645-TV","2017/07/24 13:49:13","新北市新店區達觀路16號","121.503123333333","24.9408016666667","6500600","新店區"
"231013","719-UM","2017/07/24 13:49:03","新北市新店區二十張路25巷20號","121.539283333333","24.9819766666667","6500600","新店區"
"231031","720-UM","2017/07/24 13:49:01","新北市新店區莒光路44巷21弄11-3號","121.518695","24.952085","6500600","新店區"
"231005","897-TW","2017/07/24 13:49:05","新北市新店區寶中路120號","121.550025","24.97883","6500600","新店區"
"231004","899-TW","2017/07/24 13:49:07","新北市新店區中興路二段252號","121.547463333333","24.9757716666667","6500600","新店區"
"231037","AKT-0513","2017/07/24 13:49:04","新北市新店區安康路三段359巷12弄2號","121.484478333333","24.95021","6500600","新店區"
"235030","003-UY","2017/07/24 13:49:06","新北市中和區水源路7巷21號","121.504041666667","25.003785","6500300","中和區"
"235027","006-UY","2017/07/24 13:49:15","新北市中和區錦和路107號","121.49013","24.995235","6500300","中和區"
"235020","096-UM","2017/07/24 13:49:17","新北市中和區新民街94巷18號","121.48145","25.0092016666667","6500300","中和區"
"235003","097-UM","2017/07/24 13:49:09","新北市中和區大勇街29巷12-2號","121.515846666667","24.9946033333333","6500300","中和區"
"235029","098-UM","2017/07/24 13:49:06","新北市中和區中山路二段2巷49號","121.502003333333","25.0073216666667","6500300","中和區"
"235004","150-BY","2017/07/24 13:49:03","新北市中和區安平路55號","121.509416666667","24.995365","6500300","中和區"
"235022","151-BY","2017/07/24 13:49:13","新北市中和區連城路561號","121.479688333333","24.9946216666667","6500300","中和區"
"235019","183-VK","2017/07/24 13:49:09","新北市中和區民德路25巷20號","121.469798333333","25.00303","6500300","中和區"
"235002","185-VK","2017/07/24 13:49:06","新北市中和區大勇街45巷12號","121.517771666667","24.9950133333333","6500300","中和區"
"235013","186-VK","2017/07/24 13:49:12","新北市中和區景安路177巷20號","121.50628","24.9943266666667","6500300","中和區"
"235031","255-BX","2017/07/24 13:48:57","新北市中和區新生街220巷13號","121.482931666667","24.9984516666667","6500300","中和區"
"235008","293-VK","2017/07/24 13:48:58","新北市中和區復興路265號","121.502788333333","24.9902566666667","6500300","中和區"
"235036","301-VK","2017/07/24 13:49:07","新北市中和區中山路二段141號","121.501946666667","25.00295","6500300","中和區"
"235007","352-BY","2017/07/24 13:48:54","新北市中和區景平路4號","121.524243333333","24.9904316666667","6500300","中和區"
"235015","376-QA","2017/07/24 13:49:11","新北市中和區華新街143巷55弄30號","121.507825","24.9801366666667","6500300","中和區"
"235032","377-QA","2017/07/24 13:49:07","新北市中和區中正路211巷38號","121.497781666667","24.9925883333333","6500300","中和區"
"235025","378-QA","2017/07/24 13:49:13","新北市中和區民治街132巷1號","121.475266666667","25.0023633333333","6500300","中和區"
"235014","4979-A6","2017/07/24 13:49:01","新北市中和區忠孝街58巷28號","121.51257","24.9826166666667","6500300","中和區"
"235033","4980-A6","2017/07/24 13:49:15","新北市中和區景平路612-1號","121.500593333333","24.9968283333333","6500300","中和區"
"235006","551-UM","2017/07/24 13:49:07","新北市中和區秀朗路三段70巷10號","121.526048333333","24.994545","6500300","中和區"
"235034","558-UM","2017/07/24 13:49:10","新北市中和區景新街137號","121.506305","24.99715","6500300","中和區"
"235009","565-BX","2017/07/24 13:49:04","新北市中和區南山路391號","121.506531666667","24.9902383333333","6500300","中和區"
"235018","640-BX","2017/07/24 13:49:10","新北市中和區民享街54巷17號","121.47329","25.0023","6500300","中和區"
"235024","647-TV","2017/07/24 13:49:01","新北市中和區中山路三段13號","121.479593333333","25.0059","6500300","中和區"
"235011","732-UM","2017/07/24 13:49:10","新北市中和區興南路二段34巷75號","121.505043333333","24.98499","6500300","中和區"
"235010","733-UM","2017/07/24 13:49:01","新北市中和區仁愛街36巷51號","121.511506666667","24.9861283333333","6500300","中和區"
"235035","783-BX","2017/07/24 13:49:09","新北市中和區立德街7巷16號","121.489636666667","25.0061233333333","6500300","中和區"
"235026","800-TS","2017/07/24 13:48:59","新北市中和區中山路二段311-3號","121.495116666667","25.002105","6500300","中和區"
"235021","801-TS","2017/07/24 13:49:00","新北市中和區員山路327巷8號","121.480908333333","25.0011433333333","6500300","中和區"
"235005","802-TS","2017/07/24 13:49:07","新北市中和區中和路456號","121.512131666667","25.003795","6500300","中和區"
"235016","805-TS","2017/07/24 13:49:06","新北市中和區興南路三段1號","121.498383333333","24.9797583333333","6500300","中和區"
"235012","896-TW","2017/07/24 13:49:16","新北市中和區南山路188號","121.505815","24.99059","6500300","中和區"
"235017","900-TW","2017/07/24 13:49:03","新北市中和區華福街6號","121.465411666667","24.9967583333333","6500300","中和區"
"235001","AAC-213","2017/07/24 13:49:07","新北市中和區景德街141號","121.514503333333","24.9910283333333","6500300","中和區"
"235023","AAC-215","2017/07/24 13:49:12","新北市中和區圓通路391-2號","121.490003333333","24.9891916666667","6500300","中和區"
"220016","013-TV","2017/07/24 13:49:09","新北市板橋區民生路二段56-1號","121.472541666667","25.0170433333333","6500100","板橋區"
"220013","072-UY","2017/07/24 13:49:09","新北市板橋區民生路二段36-1號","121.472115","25.0167383333333","6500100","板橋區"
"220034","073-UY","2017/07/24 13:49:12","新北市板橋區大智街44號","121.454786666667","25.0152466666667","6500100","板橋區"
"220105","075-UY","2017/07/24 13:49:05","新北市板橋區民生路二段161巷7號","121.470231666667","25.019675","6500100","板橋區"
"220047","120-SR","2017/07/24 13:49:08","新北市板橋區民生路二段161巷1號","121.47009","25.0198466666667","6500100","板橋區"
"247001","402-BY","2017/07/24 13:49:00","新北市蘆洲區忠孝路13號","121.471411666667","25.08502","6501400","蘆洲區"
"247005","341-TH","2017/07/24 13:49:05","新北市蘆洲區和平路72號","121.469845","25.0791133333333","6501400","蘆洲區"
"247007","339-TH","2017/07/24 13:49:09","新北市蘆洲區集賢路269巷17號","121.482105","25.0833633333333","6501400","蘆洲區"
"247013","057-VK","2017/07/24 13:49:02","新北市蘆洲區中正路107號","121.469693333333","25.0842466666667","6501400","蘆洲區"
"247003","056-VK","2017/07/24 13:49:00","新北市蘆洲區長安街108巷9號","121.461296666667","25.082185","6501400","蘆洲區"
"247015","001-UY","2017/07/24 13:48:55","新北市蘆洲區中正路100號","121.469951666667","25.0841233333333","6501400","蘆洲區"
"227001","400-TW","2017/07/24 13:46:03","新北市貢寮區真理里美艷山街6-2號","121.928976666667","25.0611166666667","6502500","雙溪區"
"208004","AAC-292","2017/07/24 13:49:11","新北市金山區重和里三重橋18號","121.589163333333","25.188425","6502700","金山區"
"207002","749-BX","2017/07/24 13:49:07","新北市萬里區崁腳里崁腳路168號","121.64476","25.1546933333333","6502800","萬里區"
"207001","463-BY","2017/07/24 13:49:03","新北市萬里區磺潭里公館崙58號","121.628645","25.205645","6502800","萬里區"
"252005","073-UM","2017/07/24 13:48:48","新北市三芝區圓山里內柑宅25-2號","121.53761","25.2241716666667","6502100","三芝區"
"236064","105-UM","2017/07/24 13:49:13","新北市土城區城林路6巷80號","121.438271666667","24.9797616666667","6501300","土城區"
"236040","107-UM","2017/07/24 13:49:10","新北市土城區城林路6巷80號","121.438338333333","24.9798366666667","6501300","土城區"
"236074","166-UM","2017/07/24 13:48:50","新北市土城區永寧路35號","121.430146666667","24.9621283333333","6501300","土城區"
"236028","253-BX","2017/07/24 13:49:01","新北市土城區中華路二段2號","121.43888","24.9797883333333","6501300","土城區"
"236024","269-VK","2017/07/24 13:49:09","新北市土城區中華路二段90號","121.438341666667","24.9748766666667","6501300","土城區"
"236012","270-VK","2017/07/24 13:49:06","新北市土城區城林路6巷80號","121.438396666667","24.97982","6501300","土城區"
"236032","271-VK","2017/07/24 13:49:06","新北市土城區城林路6巷80號","121.438571666667","24.979735","6501300","土城區"
"236016","401-BY","2017/07/24 13:49:03","新北市土城區城林路6巷80號","121.438556666667","24.9797316666667","6501300","土城區"
"236005","498-BY","2017/07/24 13:49:03","新北市土城區中華路二段126號","121.43769","24.9736083333333","6501300","土城區"
"236056","912-UM","2017/07/24 13:49:05","新北市土城區城林路6巷80號","121.43832","24.9796","6501300","土城區"
"236044","913-UM","2017/07/24 13:48:58","新北市土城區城林路6巷80號","121.438535","24.9796216666667","6501300","土城區"
"236060","915-UM","2017/07/24 13:49:03","新北市土城區城林路6巷80號","121.438443333333","24.9797166666667","6501300","土城區"
"236052","AAC-216","2017/07/24 13:48:45","新北市土城區中華路二段2號","121.439033333333","24.979765","6501300","土城區"
"221002","753-BX","2017/07/24 13:49:00","新北市汐止區福德二路77-2號","121.63323","25.0659266666667","6501100","汐止區"
"220027","145-BY","2017/07/24 13:49:15","新北市板橋區中正路48號","121.456563333333","25.0140833333333","6500100","板橋區"
"220028","200-UY","2017/07/24 13:49:13","新北市板橋區大觀路二段265巷128號","121.442333333333","24.9961566666667","6500100","板橋區"
"220030","610-BX","2017/07/24 13:49:06","新北市板橋區篤行路二段143號","121.429726666667","24.98821","6500100","板橋區"
"220050","245-BX","2017/07/22 21:27:01","新北市板橋區民生路二段56-6號","121.470691666667","25.0187666666667","6500100","板橋區"
"220051","257-TC","2017/07/24 13:49:11","新北市板橋區民生路二段161巷3號","121.470255","25.0197933333333","6500100","板橋區"
"220017","258-TC","2017/07/24 13:48:54","新北市板橋區觀光街1巷1號","121.472248333333","25.0154566666667","6500100","板橋區"
"220004","276-BY","2017/07/24 13:49:14","新北市板橋區四川路二段77號","121.453141666667","24.9949883333333","6500100","板橋區"
"220020","277-BY","2017/07/24 13:48:58","新北市板橋區金門街47巷8號","121.4338","24.99338","6500100","板橋區"
"220019","283-VK","2017/07/24 13:49:06","新北市板橋區觀光街2-5號","121.472165","25.0155616666667","6500100","板橋區"
"220043","285-UM","2017/07/24 13:49:02","新北市板橋區民生路二段120號","121.470376666667","25.0197","6500100","板橋區"
"220001","285-VK","2017/07/24 13:49:10","新北市板橋區民生路二段30號","121.472631666667","25.0171116666667","6500100","板橋區"
"220031","286-VK","2017/07/24 13:49:00","新北市板橋區大觀路二段22巷24號","121.445551666667","25.003545","6500100","板橋區"
"220029","287-VK","2017/07/24 13:48:54","新北市板橋區南雅西路二段123巷8號","121.45155","25.0107783333333","6500100","板橋區"
"220039","288-VK","2017/07/24 13:49:11","新北市板橋區民生路二段120號","121.470488333333","25.01963","6500100","板橋區"
"220009","295-UM","2017/07/24 13:49:00","新北市板橋區民生路二段56-3號","121.472123333333","25.017165","6500100","板橋區"
"220032","296-UM","2017/07/24 13:49:05","新北市板橋區大觀路二段148巷34號","121.441925","24.9999816666667","6500100","板橋區"
"220023","297-UM","2017/07/24 13:49:12","新北市板橋區大觀路一段26號","121.44997","25.0086416666667","6500100","板橋區"
"220010","303-R5","2017/07/24 13:49:12","新北市板橋區觀光街1巷1號","121.472238333333","25.0154683333333","6500100","板橋區"
"220041","307-R5","2017/07/24 13:48:59","新北市板橋區民生路二段120號","121.470493333333","25.0196133333333","6500100","板橋區"
"220012","486-VK","2017/07/24 13:48:59","新北市板橋區民生路二段36-1號","121.472513333333","25.0165966666667","6500100","板橋區"
"220038","487-VK","2017/07/24 13:49:07","新北市板橋區民生路二段120號","121.470576666667","25.0195016666667","6500100","板橋區"
"220037","491-VK","2017/07/24 13:49:09","新北市板橋區民生路二段120號","121.47032","25.01977","6500100","板橋區"
"220104","560-BX","2017/07/24 13:49:10","新北市板橋區中正路275巷62弄6號","121.453078333333","25.01824","6500100","板橋區"
"220052","561-BX","2017/07/24 13:49:14","新北市板橋區民生路二段161巷1號","121.470016666667","25.0199833333333","6500100","板橋區"
"220011","609-BX","2017/07/24 13:49:16","新北市板橋區中山路二段50-1號","121.473148333333","25.015575","6500100","板橋區"
"220040","637-BX","2017/07/24 13:48:58","新北市板橋區莊敬路208巷8弄9號","121.470651666667","25.020465","6500100","板橋區"
"220005","686-BX","2017/07/24 13:49:10","新北市板橋區民生路二段36-1號","121.47234","25.0169266666667","6500100","板橋區"
"220025","687-BX","2017/07/24 13:49:13","新北市板橋區沙崙街25號","121.431338333333","24.9942983333333","6500100","板橋區"
"220042","689-BX","2017/07/24 13:49:11","新北市板橋區民生路二段120號","121.470636666667","25.0194833333333","6500100","板橋區"
"220002","741-BX","2017/07/24 13:49:09","新北市板橋區觀光街2-4號","121.47223","25.0154966666667","6500100","板橋區"
"220003","827-TW","2017/07/24 13:49:02","新北市板橋區民生路二段36-1號","121.47262","25.0166016666667","6500100","板橋區"
"220014","829-TW","2017/07/24 13:49:06","新北市板橋區民生路二段36-1號","121.472216666667","25.0168683333333","6500100","板橋區"
"220045","831-TW","2017/07/24 01:21:16","新北市板橋區民生路二段120號","121.470361666667","25.0196833333333","6500100","板橋區"
"220022","895-R6","2017/07/24 13:49:06","新北市板橋區南門街85號","121.456853333333","25.0077233333333","6500100","板橋區"
"220021","985-R7","2017/07/24 13:48:57","新北市板橋區館前西路90號","121.457406666667","25.0072366666667","6500100","板橋區"
"220018","AAC-253","2017/07/24 13:48:58","新北市板橋區民生路二段36-1號","121.472155","25.016915","6500100","板橋區"
