"lineid","car","time","location","longitude","latitude","cityid","cityname"
"234044","148-BY","2017/07/24 14:19:02","新北市永和區永元路118號","121.52271","25.0026516666667","6500400","永和區"
"234012","149-BY","2017/07/24 14:19:07","新北市永和區保生路54號","121.505453333333","25.0087383333333","6500400","永和區"
"234005","207-UY","2017/07/24 14:19:07","新北市中和區水源路102號","121.506203333333","25.0032766666667","6500400","永和區"
"234078","298-R6","2017/07/24 14:19:12","新北市永和區國中路132巷8號","121.523855","25.007355","6500400","永和區"
"234036","336-UY","2017/07/24 14:19:00","新北市永和區成功路一段1號","121.527165","25.0053183333333","6500400","永和區"
"234062","337-UY","2017/07/24 14:19:04","新北市永和區得和路168號","121.51948","25.0000166666667","6500400","永和區"
"234084","338-UY","2017/07/24 14:19:13","新北市永和區永和路二段55號","121.514638333333","25.010855","6500400","永和區"
"234068","552-UM","2017/07/24 14:18:57","新北市永和區永亨路7號","121.51942","25.0057466666667","6500400","永和區"
"234052","553-UM","2017/07/24 14:19:06","新北市永和區光復街4號","121.51632","25.0167466666667","6500400","永和區"
"234028","746-BX","2017/07/24 14:19:08","新北市永和區民有街24巷1弄7號","121.517101666667","24.9961766666667","6500400","永和區"
"234066","841-RS","2017/07/24 14:18:54","新北市永和區保平路214巷1弄1號","121.509591666667","25.00612","6500400","永和區"
"234060","AAD-866","2017/07/24 14:19:08","新北市永和區得和路29號","121.515865","25.000265","6500400","永和區"
"234040","862-TW","2017/07/24 14:18:55","新北市永和區中和路463號","121.509946666667","25.0017033333333","6500400","永和區"
"234048","863-TW","2017/07/24 14:19:07","新北市永和區新生路53巷2弄13號","121.508895","25.0160633333333","6500400","永和區"
"234025","9371-KE","2017/07/24 14:19:16","新北市永和區中正路47號","121.514336666667","24.9963666666667","6500400","永和區"
"234010","9373-KE","2017/07/24 14:19:00","新北市永和區仁愛路352巷110號","121.500605","25.0082883333333","6500400","永和區"
"248013","025-BX","2017/07/24 14:19:05","新北市五股區民義路一段107巷32號","121.432263333333","25.084795","6501500","五股區"
"248015","026-BX","2017/07/24 14:19:06","新北市五股區成洲五路12號","121.452335","25.1015816666667","6501500","五股區"
"248019","225-UY","2017/07/24 14:05:34","新北市五股區凌雲路三段57號","121.425288333333","25.125025","6501500","五股區"
"248011","247-BX","2017/07/22 21:22:56","新北市五股區中興路二段37巷24號","121.460658333333","25.0750166666667","6501500","五股區"
"248009","272-BY","2017/07/24 14:18:56","新北市五股區水碓一路23號","121.430668333333","25.071375","6501500","五股區"
"248003","677-BX","2017/07/24 14:19:02","新北市五股區五福路69號","121.432678333333","25.0901566666667","6501500","五股區"
"248001","682-TV","2017/07/24 14:19:15","新北市五股區成泰路四段3號","121.452701666667","25.106105","6501500","五股區"
"234022","9380-KE","2017/07/24 14:19:12","新北市永和區永和路二段276巷1號","121.516325","25.0153633333333","6500400","永和區"
"234072","AAC-211","2017/07/24 14:18:43","新北市永和區竹林路119巷19號","121.520918333333","25.01149","6500400","永和區"
"234001","AAC-295","2017/07/24 14:19:07","新北市永和區中正路609巷3號","121.516141666667","25.009375","6500400","永和區"
"244001","248-BX","2017/07/24 14:19:10","新北市林口區瑞平里33-1號","121.3485","25.1286983333333","6501700","林口區"
"244024","656-BX","2017/07/24 09:25:53","新北市林口區粉寮路二段160巷28號","121.405366666667","25.090905","6501700","林口區"
"243002","267-VK","2017/07/24 14:19:16","新北市泰山區明志路二段13號","121.429995","25.0535683333333","6501600","泰山區"
"243005","AAD-798","2017/07/24 14:19:01","新北市泰山區明志路三段145巷40號","121.426985","25.0391216666667","6501600","泰山區"
"243001","297-R6","2017/07/24 14:18:58","新北市泰山區明志路一段16號","121.433635","25.0658083333333","6501600","泰山區"
"243007","380-SR","2017/07/24 14:18:56","新北市泰山區公園路67號","121.426363333333","25.0552516666667","6501600","泰山區"
"243006","421-VK","2017/07/24 14:19:05","新北市泰山區泰林路二段119號","121.434293333333","25.05959","6501600","泰山區"
"243003","549-UM","2017/07/24 14:19:04","新北市泰山區貴子路76號","121.427081666667","25.0413066666667","6501600","泰山區"
"243004","646-TV","2017/07/24 14:18:59","新北市泰山區仁義路224號","121.433033333333","25.0535616666667","6501600","泰山區"
"243008","680-BX","2017/07/24 14:18:44","新北市泰山區明志路三段151號","121.424971666667","25.0398283333333","6501600","泰山區"
"231002","002-UM","2017/07/24 14:19:00","新北市新店區中正路485號","121.533806666667","24.982005","6500600","新店區"
"231025","0293-UT","2017/07/24 14:19:01","新北市新店區二十張路129巷5弄3號","121.53657","24.9787183333333","6500600","新店區"
"231028","046-UY","2017/07/24 14:19:10","新北市新店區安和路一段49號","121.517401666667","24.9659416666667","6500600","新店區"
"231030","047-UY","2017/07/24 14:19:05","新北市新店區安德街60巷21號","121.51044","24.9632833333333","6500600","新店區"
"231029","106-UY","2017/07/24 14:19:14","新北市新店區安康路二段159巷2號","121.510308333333","24.9592033333333","6500600","新店區"
"231018","107-UY","2017/07/24 14:19:04","新北市新店區中央五街60號","121.527486666667","24.9752033333333","6500600","新店區"
"231011","108-UY","2017/07/24 14:19:15","新北市新店區中興路二段22-2號","121.547081666667","24.97032","6500600","新店區"
"231019","187-VK","2017/07/24 14:19:15","新北市新店區桂山路51巷6-1號","121.562011666667","24.9015816666667","6500600","新店區"
"231014","AAD-862","2017/07/24 14:18:54","新北市新店區北宜路二段599號","121.568393333333","24.9556816666667","6500600","新店區"
"231027","3712-VJ","2017/07/24 14:19:08","新北市新店區檳榔路36巷17號","121.541166666667","24.963195","6500600","新店區"
"231038","4715-K9","2017/07/24 14:18:57","新北市新店區溪洲路6巷12號","121.533965","24.9617283333333","6500600","新店區"
"231036","512-UM","2017/07/24 14:19:06","新北市新店區安祥路109巷149號","121.477643333333","24.958595","6500600","新店區"
"231023","513-UM","2017/07/24 14:18:59","新北市新店區光明街140號","121.539298333333","24.9613583333333","6500600","新店區"
"231035","515-UM","2017/07/24 14:19:10","新北市新店區光華街5巷23號","121.517631666667","24.9681916666667","6500600","新店區"
"231006","617-UM","2017/07/24 14:19:01","新北市新店區北宜路二段599號","121.569156666667","24.9559583333333","6500600","新店區"
"231001","619-UM","2017/07/24 14:19:03","新北市新店區中華路1號","121.541161666667","24.967325","6500600","新店區"
"231003","641-BX","2017/07/24 14:19:02","新北市新店區中興路一段216號","121.543786666667","24.96584","6500600","新店區"
"231034","645-TV","2017/07/24 14:19:13","新北市新店區黎明路3號","121.50361","24.95251","6500600","新店區"
"231013","719-UM","2017/07/24 14:19:02","新北市新店區大豐路73號","121.53913","24.9794883333333","6500600","新店區"
"231031","720-UM","2017/07/24 14:19:01","新北市新店區溪洲路202-7號","121.528968333333","24.9681216666667","6500600","新店區"
"231005","897-TW","2017/07/24 14:19:05","新北市新店區中興路三段225號","121.543076666667","24.9831966666667","6500600","新店區"
"231004","899-TW","2017/07/24 14:19:07","新北市新店區北新路二段25號","121.54273","24.971695","6500600","新店區"
"231037","AKT-0513","2017/07/24 14:18:59","新北市新店區安康路二段341巷1號","121.496806666667","24.9552233333333","6500600","新店區"
"235030","003-UY","2017/07/24 14:19:06","新北市中和區景新街2號","121.502613333333","24.9996833333333","6500300","中和區"
"235027","006-UY","2017/07/24 14:19:15","新北市中和區連勝街121巷16號","121.495013333333","24.9944533333333","6500300","中和區"
"235020","096-UM","2017/07/24 14:18:57","新北市中和區員山路531號","121.47963","25.006995","6500300","中和區"
"235003","097-UM","2017/07/24 14:19:09","新北市中和區秀峰街119巷4弄1號","121.519735","24.990195","6500300","中和區"
"235029","098-UM","2017/07/24 14:19:06","新北市中和區中山路二段64巷12號","121.503571666667","25.0052033333333","6500300","中和區"
"235004","150-BY","2017/07/24 14:19:03","新北市中和區安平路36巷37號","121.510846666667","24.9953116666667","6500300","中和區"
"235022","151-BY","2017/07/24 14:19:13","新北市中和區連城路469巷68號","121.483418333333","24.994065","6500300","中和區"
"235019","183-VK","2017/07/24 14:19:10","新北市中和區中山路三段179巷21號","121.473486666667","25.0059716666667","6500300","中和區"
"235002","185-VK","2017/07/24 14:19:06","新北市中和區大仁街10巷9弄20號","121.519146666667","24.9927733333333","6500300","中和區"
"235013","186-VK","2017/07/24 14:19:12","新北市中和區景新街228-6號","121.5082","24.9941383333333","6500300","中和區"
"235031","255-BX","2017/07/24 14:18:57","新北市中和區新生街168號","121.483593333333","25.0001916666667","6500300","中和區"
"235008","293-VK","2017/07/24 14:18:57","新北市中和區中興街214號","121.499573333333","24.990095","6500300","中和區"
"235036","301-VK","2017/07/24 14:19:07","新北市中和區永和路39巷4號","121.497973333333","25.0050716666667","6500300","中和區"
"235007","352-BY","2017/07/24 14:19:14","新北市中和區景平路161-1號","121.512756666667","24.9923916666667","6500300","中和區"
"235015","376-QA","2017/07/24 14:19:11","新北市中和區興南路一段20-1號","121.511188333333","24.99094","6500300","中和區"
"235032","377-QA","2017/07/24 14:19:07","新北市中和區連城路139巷66號","121.49699","24.99686","6500300","中和區"
"235025","378-QA","2017/07/24 14:19:12","新北市中和區民利街61巷11弄2號","121.478863333333","24.9983316666667","6500300","中和區"
"235014","4979-A6","2017/07/24 14:19:01","新北市中和區中正路147號","121.499343333333","24.9932533333333","6500300","中和區"
"235033","4980-A6","2017/07/24 14:18:55","新北市中和區中山路二段220號","121.499498333333","25.002865","6500300","中和區"
"235006","551-UM","2017/07/24 14:19:07","新北市永和區民有街3-2號","121.515913333333","24.9972216666667","6500300","中和區"
"235034","558-UM","2017/07/24 14:19:09","新北市中和區中和路170號","121.504476666667","24.9996333333333","6500300","中和區"
"235009","565-BX","2017/07/24 14:19:04","新北市中和區景新街437巷13號","121.513928333333","24.9893333333333","6500300","中和區"
"235018","640-BX","2017/07/24 14:19:10","新北市中和區民德路150號","121.468615","25.0002283333333","6500300","中和區"
"235024","647-TV","2017/07/24 14:19:01","新北市中和區中山路三段111號","121.4748","25.0059066666667","6500300","中和區"
"235011","732-UM","2017/07/24 14:19:10","新北市中和區景平路239巷55號","121.508798333333","24.9921516666667","6500300","中和區"
"235010","733-UM","2017/07/24 14:19:01","新北市中和區華新街176號","121.507251666667","24.9822216666667","6500300","中和區"
"235035","783-BX","2017/07/24 14:19:09","新北市中和區連城路525號","121.481556666667","24.9951683333333","6500300","中和區"
"235026","800-TS","2017/07/24 14:18:59","新北市中和區中山路二段380-1號","121.4914","25.0033683333333","6500300","中和區"
"235021","801-TS","2017/07/24 14:19:00","新北市中和區員山路263號","121.481353333333","24.999325","6500300","中和區"
"235005","802-TS","2017/07/24 14:19:07","新北市中和區中安街178巷3弄2號","121.510578333333","24.9990866666667","6500300","中和區"
"235016","805-TS","2017/07/24 14:19:06","新北市中和區興南路二段142巷17弄15號","121.503316666667","24.9831233333333","6500300","中和區"
"235012","896-TW","2017/07/24 14:18:56","新北市中和區華新街109巷5號","121.509075","24.9819066666667","6500300","中和區"
"235017","900-TW","2017/07/24 14:19:08","新北市中和區華安街19巷1號","121.46691","24.9979866666667","6500300","中和區"
"235001","AAC-213","2017/07/24 14:19:07","新北市中和區秀朗路三段58-3號","121.525721666667","24.9951166666667","6500300","中和區"
"235023","AAC-215","2017/07/24 14:19:17","新北市中和區圓通路286巷20號","121.491831666667","24.9913783333333","6500300","中和區"
"220016","013-TV","2017/07/24 14:19:09","新北市板橋區林森街1巷29號","121.48272","25.0243183333333","6500100","板橋區"
"220013","072-UY","2017/07/24 14:19:09","新北市板橋區民族路129巷15號","121.46758","25.0084533333333","6500100","板橋區"
"220034","073-UY","2017/07/24 14:19:12","新北市板橋區中正路218號","121.455996666667","25.01841","6500100","板橋區"
"220105","075-UY","2017/07/24 14:19:05","新北市板橋區雙十路三段10巷29號","121.472555","25.03138","6500100","板橋區"
"220047","120-SR","2017/07/24 14:19:08","新北市板橋區民有街89巷8弄1-1號","121.464281666667","25.0274183333333","6500100","板橋區"
"247019","893-R6","2017/07/24 14:19:04","新北市蘆洲區仁愛街35巷15弄2號","121.471486666667","25.092605","6501400","蘆洲區"
"247009","546-UM","2017/07/24 14:19:04","新北市蘆洲區三民路26巷30號","121.477901666667","25.0831","6501400","蘆洲區"
"247017","500-BY","2017/07/24 14:19:04","新北市蘆洲區民權路78號","121.47465","25.0874733333333","6501400","蘆洲區"
"247001","402-BY","2017/07/24 14:19:00","新北市蘆洲區永樂街83號","121.455835","25.088655","6501400","蘆洲區"
"247005","341-TH","2017/07/24 14:19:05","新北市蘆洲區長安街22巷2號","121.46438","25.079295","6501400","蘆洲區"
"247007","339-TH","2017/07/24 14:19:09","新北市蘆洲區中山一路225號","121.473933333333","25.0805816666667","6501400","蘆洲區"
"247023","337-TH","2017/07/24 14:19:04","新北市蘆洲區長榮路776號","121.46084","25.0926966666667","6501400","蘆洲區"
"247001","336-TH","2017/07/24 14:19:06","新北市蘆洲區永樂街39號","121.457795","25.088275","6501400","蘆洲區"
"247013","057-VK","2017/07/24 14:19:02","新北市蘆洲區中山一路233號","121.473601666667","25.0806966666667","6501400","蘆洲區"
"247003","056-VK","2017/07/24 14:19:02","新北市蘆洲區中原路20巷1號","121.460206666667","25.083095","6501400","蘆洲區"
"247011","007-UY","2017/07/24 14:19:07","新北市蘆洲區信義路351巷18號","121.476651666667","25.086865","6501400","蘆洲區"
"247021","002-UY","2017/07/24 14:19:12","新北市蘆洲區民族路397號","121.469275","25.08996","6501400","蘆洲區"
"247015","001-UY","2017/07/24 14:19:14","新北市蘆洲區中正路185巷27號","121.466595","25.0844583333333","6501400","蘆洲區"
"208004","AAC-292","2017/07/24 14:19:11","新北市金山區六股里下六股65號","121.61444","25.2236316666667","6502700","金山區"
"207002","749-BX","2017/07/24 14:19:14","新北市萬里區溪底里瑞泉路5號","121.605188333333","25.143695","6502800","萬里區"
"207001","463-BY","2017/07/24 14:19:03","新北市萬里區磺潭里清水18號","121.63782","25.1977483333333","6502800","萬里區"
"252005","073-UM","2017/07/24 14:18:48","新北市三芝區橫山里橫山1號","121.532216666667","25.2595466666667","6502100","三芝區"
"236064","105-UM","2017/07/24 14:19:13","新北市土城區明德路一段130號","121.46364","24.9791083333333","6501300","土城區"
"236040","107-UM","2017/07/24 14:19:10","新北市土城區樂利街3巷20號","121.448681666667","24.9863183333333","6501300","土城區"
"236074","166-UM","2017/07/24 14:19:10","新北市土城區中央路三段281巷23弄20號","121.426318333333","24.961485","6501300","土城區"
"236028","253-BX","2017/07/24 14:19:01","新北市土城區順風路30號","121.440138333333","24.9770866666667","6501300","土城區"
"236024","269-VK","2017/07/24 14:19:09","新北市土城區承天路67號","121.43954","24.9635716666667","6501300","土城區"
"236012","270-VK","2017/07/24 14:19:06","新北市土城區青雲路39巷7號","121.460371666667","24.9875533333333","6501300","土城區"
"236032","271-VK","2017/07/24 14:19:06","新北市土城區青雲路521巷5號","121.459278333333","24.9732483333333","6501300","土城區"
"236016","401-BY","2017/07/24 14:19:03","新北市土城區金城路二段217號","121.454933333333","24.9818733333333","6501300","土城區"
"236005","498-BY","2017/07/24 14:19:03","新北市土城區中央路一段80號","121.447116666667","24.98911","6501300","土城區"
"236056","912-UM","2017/07/24 14:19:05","新北市土城區中央路四段260號","121.41489","24.9567966666667","6501300","土城區"
"236044","913-UM","2017/07/24 14:18:58","新北市土城區明德路一段280-1號","121.45722","24.977515","6501300","土城區"
"236060","915-UM","2017/07/24 14:19:03","新北市土城區延壽路44巷15號","121.471433333333","24.993035","6501300","土城區"
"236052","AAC-216","2017/07/24 14:19:05","新北市土城區中華路二段104號","121.438026666667","24.97429","6501300","土城區"
"220027","145-BY","2017/07/24 14:19:15","新北市板橋區民權路306號","121.457278333333","25.0161283333333","6500100","板橋區"
"220028","200-UY","2017/07/24 14:19:14","新北市板橋區大觀路二段3巷19號","121.448028333333","25.0038733333333","6500100","板橋區"
"220030","610-BX","2017/07/24 14:19:06","新北市板橋區溪崑二街134號","121.425865","24.9877133333333","6500100","板橋區"
"220050","245-BX","2017/07/24 14:18:57","新北市板橋區莊敬路242號","121.473565","25.0212733333333","6500100","板橋區"
"220051","257-TC","2017/07/24 14:19:11","新北市板橋區松柏街15巷9-3號","121.473978333333","25.030045","6500100","板橋區"
"220017","258-TC","2017/07/24 14:19:14","新北市板橋區貴興路14號","121.457555","25.0041266666667","6500100","板橋區"
"220004","276-BY","2017/07/24 14:19:08","新北市板橋區信義路83號","121.457926666667","24.9943","6500100","板橋區"
"220020","277-BY","2017/07/24 14:18:58","新北市板橋區金門街372巷38號","121.427631666667","24.9849416666667","6500100","板橋區"
"220019","283-VK","2017/07/24 14:19:08","新北市板橋區重慶路327巷5號","121.464231666667","24.998545","6500100","板橋區"
"220043","285-UM","2017/07/24 14:19:02","新北市板橋區吳鳳路21巷2號","121.466905","25.0312533333333","6500100","板橋區"
"220001","285-VK","2017/07/24 14:19:10","新北市板橋區富山街18巷2-1號","121.478638333333","25.0220816666667","6500100","板橋區"
"220031","286-VK","2017/07/24 14:19:00","新北市板橋區大觀路二段174巷196弄14-2號","121.44296","25.0036616666667","6500100","板橋區"
"220029","287-VK","2017/07/24 14:19:14","新北市板橋區南雅西路一段73號","121.452875","25.0083016666667","6500100","板橋區"
"220039","288-VK","2017/07/24 14:19:11","新北市板橋區裕民街36巷15號","121.461603333333","25.0293983333333","6500100","板橋區"
"220009","295-UM","2017/07/24 14:19:04","新北市板橋區光復街18號","121.481351666667","25.0189016666667","6500100","板橋區"
"220032","296-UM","2017/07/24 14:19:11","新北市板橋區溪崑二街16號","121.428663333333","24.9917383333333","6500100","板橋區"
"220023","297-UM","2017/07/24 14:19:12","新北市板橋區館前西路179號","121.45566","25.0082483333333","6500100","板橋區"
"220010","303-R5","2017/07/24 14:19:15","新北市板橋區三民路二段153巷20號","121.480371666667","25.014995","6500100","板橋區"
"220041","307-R5","2017/07/24 14:19:12","新北市板橋區松江街43號","121.468408333333","25.02725","6500100","板橋區"
"220012","486-VK","2017/07/24 14:18:59","新北市板橋區民權路31號","121.462251666667","25.0108866666667","6500100","板橋區"
"220038","487-VK","2017/07/24 14:19:09","新北市板橋區文化路二段59號","121.469155","25.0251633333333","6500100","板橋區"
"220037","491-VK","2017/07/24 14:19:09","新北市板橋區文化路二段182巷3弄64號","121.472736666667","25.0286733333333","6500100","板橋區"
"220104","560-BX","2017/07/24 14:19:10","新北市板橋區中正路360巷24號","121.455341666667","25.0233683333333","6500100","板橋區"
"220052","561-BX","2017/07/24 14:18:54","新北市板橋區文化路一段188巷7弄14號","121.46764","25.019705","6500100","板橋區"
"220011","609-BX","2017/07/24 14:19:04","新北市板橋區三民路二段202-24號","121.478905","25.0129466666667","6500100","板橋區"
"220040","637-BX","2017/07/24 14:18:58","新北市板橋區文聖街206號","121.480281666667","25.0257383333333","6500100","板橋區"
"220005","686-BX","2017/07/24 14:19:10","新北市板橋區重慶路342號","121.46422","24.99747","6500100","板橋區"
"220025","687-BX","2017/07/24 14:19:15","新北市板橋區龍興街69號","121.443655","25.0016066666667","6500100","板橋區"
"220042","689-BX","2017/07/24 14:19:11","新北市板橋區民生路三段11號","121.467366666667","25.0235166666667","6500100","板橋區"
"220002","741-BX","2017/07/24 14:19:09","新北市板橋區重慶路76巷8號","121.46123","25.0062616666667","6500100","板橋區"
"220003","827-TW","2017/07/24 14:19:01","新北市板橋區新民街7巷16號","121.463733333333","25.0104816666667","6500100","板橋區"
"220014","829-TW","2017/07/24 14:19:06","新北市板橋區漢生東路313巷2弄62號","121.47281","25.0079866666667","6500100","板橋區"
"220045","831-TW","2017/07/24 14:19:13","新北市板橋區大同街26巷3號","121.478051666667","25.027145","6500100","板橋區"
"220022","895-R6","2017/07/24 14:19:06","新北市板橋區府中路141-2號","121.455505","25.0094566666667","6500100","板橋區"
"220021","985-R7","2017/07/24 14:19:06","新北市板橋區中正路203號","121.456213333333","25.0174316666667","6500100","板橋區"
"220046","AAC-210","2017/07/24 14:19:14","新北市板橋區漢生西路89巷5弄2號","121.461241666667","25.0191983333333","6500100","板橋區"
"220018","AAC-253","2017/07/24 14:18:58","新北市板橋區忠孝路58號","121.461116666667","25.00191","6500100","板橋區"
