"lineid","car","time","location","longitude","latitude","cityid","cityname"
"234044","148-BY","2017/07/24 14:49:02","新北市八里區商港路50號","121.395623333333","25.1459766666667","6500400","永和區"
"234028","746-BX","2017/07/24 14:49:08","新北市八里區商港路105巷15號","121.389615","25.147925","6500400","永和區"
"234066","841-RS","2017/07/24 14:48:54","新北市中和區勝利路2號","121.498465","25.0086266666667","6500400","永和區"
"234025","9371-KE","2017/07/24 14:48:56","新北市永和區雙和街25巷3號","121.509026666667","25.0019833333333","6500400","永和區"
"248013","025-BX","2017/07/24 14:49:06","新北市五股區五福路14巷8號","121.43478","25.0887483333333","6501500","五股區"
"248015","026-BX","2017/07/24 14:49:07","新北市五股區成泰路三段577巷80弄7號","121.449515","25.1042666666667","6501500","五股區"
"248011","247-BX","2017/07/22 21:22:56","新北市五股區中興路二段37巷24號","121.460658333333","25.0750166666667","6501500","五股區"
"248009","272-BY","2017/07/24 14:48:55","新北市五股區成泰路一段87-1號","121.43513","25.06883","6501500","五股區"
"248003","677-BX","2017/07/24 14:49:02","新北市五股區成泰路一段153號","121.435308333333","25.0738866666667","6501500","五股區"
"248001","682-TV","2017/07/24 14:49:15","新北市五股區成泰路三段157號","121.445226666667","25.0917116666667","6501500","五股區"
"234022","9380-KE","2017/07/24 14:49:11","新北市永和區保生路55-1號","121.50448","25.01093","6500400","永和區"
"234001","AAC-295","2017/07/24 14:49:07","新北市永和區中正路620號","121.516976666667","25.0078216666667","6500400","永和區"
"244001","248-BX","2017/07/24 14:49:10","新北市林口區瑞平里33-1號","121.34885","25.1285283333333","6501700","林口區"
"244024","656-BX","2017/07/24 09:25:53","新北市林口區粉寮路二段160巷28號","121.405366666667","25.090905","6501700","林口區"
"243002","267-VK","2017/07/24 14:48:58","新北市泰山區明志路二段255巷10號","121.42772","25.0473783333333","6501600","泰山區"
"243005","AAD-798","2017/07/24 14:49:01","新北市泰山區應化街13號","121.423838333333","25.0437233333333","6501600","泰山區"
"243001","297-R6","2017/07/24 14:49:02","新北市泰山區泰林路二段116巷3弄2號","121.435141666667","25.0595683333333","6501600","泰山區"
"243007","380-SR","2017/07/24 14:49:15","新北市泰山區明志路二段214巷16弄16號","121.427141666667","25.049675","6501600","泰山區"
"243006","421-VK","2017/07/24 14:49:03","新北市泰山區明志路一段40號","121.433545","25.0653633333333","6501600","泰山區"
"243003","549-UM","2017/07/24 14:49:04","新北市泰山區明志路三段531巷11號","121.421158333333","25.0297666666667","6501600","泰山區"
"243004","646-TV","2017/07/24 14:48:59","新北市泰山區楓江路110號","121.438418333333","25.063965","6501600","泰山區"
"243008","680-BX","2017/07/24 14:49:04","新北市泰山區貴陽街4-1號","121.421655","25.0331683333333","6501600","泰山區"
"231002","002-UM","2017/07/24 14:49:00","新北市新店區民權路123號","121.535681666667","24.98286","6500600","新店區"
"231025","0293-UT","2017/07/24 14:49:01","新北市新店區民族路87號","121.538816666667","24.9778066666667","6500600","新店區"
"231028","046-UY","2017/07/24 14:48:50","新北市新店區安德街134號","121.508571666667","24.9601916666667","6500600","新店區"
"231030","047-UY","2017/07/24 14:49:05","新北市新店區安民街206號","121.51736","24.9719783333333","6500600","新店區"
"231029","106-UY","2017/07/24 14:49:14","新北市新店區錦秀路11巷94弄1號","121.48008","24.9423266666667","6500600","新店區"
"231018","107-UY","2017/07/24 14:49:04","新北市新店區中央二街5巷3號","121.529116666667","24.97286","6500600","新店區"
"231011","108-UY","2017/07/24 14:48:55","新北市新店區寶橋路10號","121.545405","24.9745616666667","6500600","新店區"
"231019","187-VK","2017/07/24 14:49:15","新北市新店區永福路54號","121.558091666667","24.9287016666667","6500600","新店區"
"231014","AAD-862","2017/07/24 14:48:54","新北市新店區北宜路三段214號","121.589318333333","24.9521566666667","6500600","新店區"
"231027","3712-VJ","2017/07/24 14:49:08","新北市新店區中正路328巷1號","121.53692","24.9752933333333","6500600","新店區"
"231024","3713-VJ","2017/07/24 14:49:11","新北市新店區新生街5巷7號","121.539985","24.965775","6500600","新店區"
"231038","4715-K9","2017/07/24 14:48:57","新北市新店區安康路一段266巷4號","121.51987","24.96395","6500600","新店區"
"231036","512-UM","2017/07/24 14:49:06","新北市新店區安祥路104巷6弄24號","121.482356666667","24.9623216666667","6500600","新店區"
"231023","513-UM","2017/07/24 14:48:59","新北市新店區檳榔路109號","121.54436","24.96162","6500600","新店區"
"231035","515-UM","2017/07/24 14:49:10","新北市新店區安樂街16號","121.520798333333","24.9732883333333","6500600","新店區"
"231006","617-UM","2017/07/24 14:49:00","新北市新店區北宜路一段286號","121.546451666667","24.9527533333333","6500600","新店區"
"231001","619-UM","2017/07/24 14:49:03","新北市新店區三民路98-5號","121.53395","24.973235","6500600","新店區"
"231003","641-BX","2017/07/24 14:49:02","新北市新店區中興路二段203號","121.54813","24.974175","6500600","新店區"
"231034","645-TV","2017/07/24 14:49:13","新北市新店區安康路二段383號","121.49494","24.954575","6500600","新店區"
"231039","718-UY","2017/07/24 14:49:00","新北市新店區中興路三段6號","121.54711","24.9774666666667","6500600","新店區"
"231013","719-UM","2017/07/24 14:49:02","新北市新店區北新路二段59巷7號","121.542153333333","24.9734433333333","6500600","新店區"
"231031","720-UM","2017/07/24 14:49:01","新北市新店區安泰路7巷16號","121.48573","24.9510583333333","6500600","新店區"
"231005","897-TW","2017/07/24 14:49:05","新北市新店區復興路66號","121.537883333333","24.9868416666667","6500600","新店區"
"231004","899-TW","2017/07/24 14:49:07","新北市新店區民族路81號","121.538956666667","24.977895","6500600","新店區"
"231037","AKT-0513","2017/07/24 14:48:59","新北市新店區柴埕路2-1號","121.514675","24.9658883333333","6500600","新店區"
"235030","003-UY","2017/07/24 14:49:05","新北市中和區南工路22巷1號","121.50566","25.00079","6500300","中和區"
"235027","006-UY","2017/07/24 14:49:15","新北市中和區板南路403號","121.49321","24.9991933333333","6500300","中和區"
"235020","096-UM","2017/07/24 14:48:57","新北市中和區中山路三段114巷17號","121.47561","25.00798","6500300","中和區"
"235003","097-UM","2017/07/24 14:49:09","新北市中和區安平路192-1號","121.51331","24.9993483333333","6500300","中和區"
"235029","098-UM","2017/07/24 14:49:06","新北市中和區福美路269號","121.498101666667","25.0049983333333","6500300","中和區"
"235004","150-BY","2017/07/24 14:49:03","新北市中和區保健路50巷66號","121.509381666667","24.9951316666667","6500300","中和區"
"235022","151-BY","2017/07/24 14:49:13","新北市中和區員山路146號","121.481201666667","24.99682","6500300","中和區"
"235019","183-VK","2017/07/24 14:49:09","新北市中和區民生街85巷4弄3號","121.469001666667","25.0041433333333","6500300","中和區"
"235002","185-VK","2017/07/24 14:49:06","新北市中和區自立路139巷8號","121.522536666667","24.9937266666667","6500300","中和區"
"235013","186-VK","2017/07/24 14:49:12","新北市中和區中正路46號","121.501931666667","24.99365","6500300","中和區"
"235031","255-BX","2017/07/24 14:48:57","新北市中和區新生街210號","121.483805","24.9988766666667","6500300","中和區"
"235008","293-VK","2017/07/24 14:48:57","新北市中和區捷運路10-3號","121.509225","24.989875","6500300","中和區"
"235036","301-VK","2017/07/24 14:49:07","新北市中和區板南路335號","121.494216666667","24.99785","6500300","中和區"
"235007","352-BY","2017/07/24 14:48:54","新北市中和區安平路31號","121.509326666667","24.9947283333333","6500300","中和區"
"235015","376-QA","2017/07/24 14:49:11","新北市中和區中興街180巷50弄1號","121.498968333333","24.988955","6500300","中和區"
"235032","377-QA","2017/07/24 14:49:07","新北市中和區福美路245號","121.499178333333","25.0052033333333","6500300","中和區"
"235025","378-QA","2017/07/24 14:48:53","新北市中和區連城路465號","121.484121666667","24.9961866666667","6500300","中和區"
"235014","4979-A6","2017/07/24 14:49:01","新北市中和區景平路241巷64弄8號","121.507741666667","24.9925166666667","6500300","中和區"
"235034","558-UM","2017/07/24 14:49:09","新北市中和區景平路519號","121.499148333333","24.99885","6500300","中和區"
"235018","640-BX","2017/07/24 14:49:10","新北市中和區莒光路96號","121.472265","25.0023766666667","6500300","中和區"
"235024","647-TV","2017/07/24 14:49:01","新北市中和區中山路二段485號","121.482763333333","25.0049766666667","6500300","中和區"
"235011","732-UM","2017/07/24 14:49:10","新北市中和區和平街23號","121.508046666667","24.9908816666667","6500300","中和區"
"235010","733-UM","2017/07/24 14:49:01","新北市中和區仁愛街112號","121.511635","24.9870016666667","6500300","中和區"
"235035","783-BX","2017/07/24 14:49:09","新北市中和區建康路101號","121.4881","25.0002583333333","6500300","中和區"
"235026","800-TS","2017/07/24 14:48:59","新北市中和區中山路二段365號","121.487641666667","25.0047816666667","6500300","中和區"
"235021","801-TS","2017/07/24 14:49:00","新北市中和區員山路187號","121.481246666667","24.9971316666667","6500300","中和區"
"235005","802-TS","2017/07/24 14:49:07","新北市中和區宜安路170號","121.50892","24.9990116666667","6500300","中和區"
"235016","805-TS","2017/07/24 14:49:06","新北市中和區華新街192巷23號","121.506378333333","24.9830066666667","6500300","中和區"
"235012","896-TW","2017/07/24 14:48:56","新北市中和區忠孝街136號","121.51197","24.9866533333333","6500300","中和區"
"235017","900-TW","2017/07/24 14:49:08","新北市中和區國光街146號","121.468205","25.0014","6500300","中和區"
"235001","AAC-213","2017/07/24 14:49:09","新北市中和區秀朗路三段10巷31弄9號","121.524743333333","24.9958316666667","6500300","中和區"
"235023","AAC-215","2017/07/24 14:48:57","新北市中和區圓通路305巷5弄42號","121.494713333333","24.9902733333333","6500300","中和區"
"220016","013-TV","2017/07/24 14:49:16","新北市板橋區中山路二段412巷29弄28號","121.48466","25.0200866666667","6500100","板橋區"
"220013","072-UY","2017/07/24 14:49:09","新北市板橋區國泰街39巷5弄2號","121.468591666667","25.005985","6500100","板橋區"
"220034","073-UY","2017/07/24 14:49:12","新北市板橋區林園街2號","121.454266666667","25.0093383333333","6500100","板橋區"
"220105","075-UY","2017/07/24 14:49:05","新北市板橋區文化路二段606號","121.477445","25.0352616666667","6500100","板橋區"
"220047","120-SR","2017/07/24 14:49:08","新北市板橋區新海路385巷8號","121.458663333333","25.0258733333333","6500100","板橋區"
"247019","893-R6","2017/07/24 14:49:04","新北市蘆洲區民義街71巷13號","121.472698333333","25.0903883333333","6501400","蘆洲區"
"247001","402-BY","2017/07/24 14:49:00","新北市林口區太平里180號","121.368238333333","25.13434","6501400","蘆洲區"
"247005","341-TH","2017/07/24 14:49:05","新北市蘆洲區中原路16號","121.461031666667","25.083275","6501400","蘆洲區"
"247007","339-TH","2017/07/24 14:49:09","新北市蘆洲區信義路73巷13號","121.475956666667","25.080665","6501400","蘆洲區"
"247001","336-TH","2017/07/24 14:49:06","新北市蘆洲區長安街248號","121.457565","25.0860933333333","6501400","蘆洲區"
"247013","057-VK","2017/07/24 14:49:02","新北市蘆洲區成功路179號","121.471851666667","25.0828333333333","6501400","蘆洲區"
"247021","002-UY","2017/07/24 14:49:12","新北市蘆洲區中正路385號","121.463811666667","25.092135","6501400","蘆洲區"
"247015","001-UY","2017/07/24 14:48:54","新北市蘆洲區和平路174巷15號","121.466846666667","25.0816116666667","6501400","蘆洲區"
"208004","AAC-292","2017/07/24 14:49:11","新北市金山區兩湖里倒照湖21-1號","121.594241666667","25.23901","6502700","金山區"
"207002","749-BX","2017/07/24 14:48:54","新北市萬里區崁腳里崁腳路73號","121.647598333333","25.1596083333333","6502800","萬里區"
"207001","463-BY","2017/07/24 14:42:44","新北市萬里區雙興里豐稟路22號","121.640816666667","25.1867166666667","6502800","萬里區"
"252005","073-UM","2017/07/24 14:48:48","新北市三芝區埔坪里埔頭坑164號","121.508135","25.2478416666667","6502100","三芝區"
"236064","105-UM","2017/07/24 14:48:53","新北市土城區明德路一段126號","121.463915","24.979065","6501300","土城區"
"236040","107-UM","2017/07/24 14:49:09","新北市土城區裕民路114巷11號","121.4506","24.986025","6501300","土城區"
"236074","166-UM","2017/07/24 14:49:10","新北市土城區中央路四段185巷32弄1號","121.415856666667","24.9558316666667","6501300","土城區"
"236028","253-BX","2017/07/24 14:49:01","新北市土城區忠義路26巷10號","121.43985","24.9699466666667","6501300","土城區"
"236024","269-VK","2017/07/24 14:49:09","新北市土城區慶安街80號","121.440706666667","24.9727466666667","6501300","土城區"
"236012","270-VK","2017/07/24 14:49:06","新北市土城區清水路235巷5弄2號","121.460731666667","24.9838316666667","6501300","土城區"
"236032","271-VK","2017/07/24 14:49:06","新北市土城區明德路一段195巷3弄3號","121.464263333333","24.97855","6501300","土城區"
"236016","401-BY","2017/07/24 14:49:03","新北市土城區延吉街253巷3號","121.467755","24.9846933333333","6501300","土城區"
"236056","912-UM","2017/07/24 14:49:05","新北市土城區中央路三段282號","121.426411666667","24.9634216666667","6501300","土城區"
"236044","913-UM","2017/07/24 14:49:10","新北市土城區青雲路38號","121.459926666667","24.9884516666667","6501300","土城區"
"236060","915-UM","2017/07/24 14:49:03","新北市土城區金城路三段207巷6弄18號","121.47089","24.9903183333333","6501300","土城區"
"236052","AAC-216","2017/07/24 14:49:05","新北市土城區裕民路138號","121.451663333333","24.986155","6501300","土城區"
"220027","145-BY","2017/07/24 14:49:09","新北市板橋區建國街54巷17號","121.459543333333","25.0169883333333","6500100","板橋區"
"220028","200-UY","2017/07/24 14:49:13","新北市板橋區大觀路二段37巷276號","121.449805","25.0011466666667","6500100","板橋區"
"220030","610-BX","2017/07/24 14:49:11","新北市板橋區大觀路三段198巷1號","121.43085","24.9925833333333","6500100","板橋區"
"220050","245-BX","2017/07/24 14:49:04","新北市板橋區萬板路28號","121.472446666667","25.02236","6500100","板橋區"
"220051","257-TC","2017/07/24 14:49:11","新北市板橋區仁化街67號","121.475683333333","25.0317933333333","6500100","板橋區"
"220017","258-TC","2017/07/24 14:48:54","新北市板橋區稚暉街35號","121.457035","25.00409","6500100","板橋區"
"220004","276-BY","2017/07/24 14:48:54","新北市板橋區四川路二段99巷7號","121.452908333333","24.9941983333333","6500100","板橋區"
"220020","277-BY","2017/07/24 14:48:58","新北市板橋區金門街215巷38號","121.434008333333","24.9891333333333","6500100","板橋區"
"220019","283-VK","2017/07/24 14:49:06","新北市板橋區遠東路9號","121.45755","24.9983216666667","6500100","板橋區"
"220043","285-UM","2017/07/24 14:49:03","新北市板橋區溪頭街2號","121.457485","25.0289083333333","6500100","板橋區"
"220001","285-VK","2017/07/24 14:49:10","新北市板橋區中山路二段60巷11號","121.474371666667","25.01533","6500100","板橋區"
"220031","286-VK","2017/07/24 14:49:00","新北市板橋區龍興街103巷1號","121.4445","25.0033766666667","6500100","板橋區"
"220029","287-VK","2017/07/24 14:48:54","新北市板橋區大觀路一段35巷7弄18號","121.45025","25.00735","6500100","板橋區"
"220039","288-VK","2017/07/24 14:49:12","新北市板橋區龍泉街72巷19號","121.45632","25.0263533333333","6500100","板橋區"
"220009","295-UM","2017/07/24 14:49:00","新北市板橋區觀光街3巷12號","121.471433333333","25.01559","6500100","板橋區"
"220032","296-UM","2017/07/24 14:49:04","新北市板橋區滿平二街2巷1弄2號","121.425275","24.986185","6500100","板橋區"
"220023","297-UM","2017/07/24 14:49:12","新北市板橋區大勇街71號","121.453036666667","25.01665","6500100","板橋區"
"220010","303-R5","2017/07/24 14:49:12","新北市板橋區光復街33巷15號","121.482005","25.0189966666667","6500100","板橋區"
"220041","307-R5","2017/07/24 14:49:14","新北市板橋區四維路137巷31號","121.46392","25.02462","6500100","板橋區"
"220012","486-VK","2017/07/24 14:49:00","新北市板橋區館前東路98-1號","121.462558333333","25.0074633333333","6500100","板橋區"
"220038","487-VK","2017/07/24 14:49:07","新北市板橋區龍泉街139號","121.457793333333","25.0239983333333","6500100","板橋區"
"220037","491-VK","2017/07/24 14:49:09","新北市板橋區民治街25號","121.4781","25.0342883333333","6500100","板橋區"
"220104","560-BX","2017/07/24 14:49:16","新北市板橋區新生街29巷15弄2號","121.456628333333","25.022085","6500100","板橋區"
"220052","561-BX","2017/07/24 14:49:04","新北市板橋區陽明街29巷11號","121.464846666667","25.0218633333333","6500100","板橋區"
"220011","609-BX","2017/07/24 14:48:56","新北市板橋區三民路一段31巷89弄5號","121.481906666667","25.0234066666667","6500100","板橋區"
"220040","637-BX","2017/07/24 14:48:58","新北市板橋區懷德街133號","121.479273333333","25.0304666666667","6500100","板橋區"
"220005","686-BX","2017/07/24 14:49:10","新北市板橋區國慶路160-3號","121.462016666667","24.9961033333333","6500100","板橋區"
"220025","687-BX","2017/07/24 14:49:13","新北市板橋區僑中二街90巷1號","121.446341666667","25.009035","6500100","板橋區"
"220042","689-BX","2017/07/24 14:49:11","新北市板橋區新海路440號","121.457903333333","25.0277716666667","6500100","板橋區"
"220002","741-BX","2017/07/24 14:49:09","新北市板橋區實踐路65巷32號","121.46507","25.0063383333333","6500100","板橋區"
"220003","827-TW","2017/07/24 14:49:08","新北市板橋區國慶路149巷13弄11號","121.460536666667","24.99704","6500100","板橋區"
"220014","829-TW","2017/07/24 14:49:09","新北市板橋區漢生東路163號","121.469293333333","25.012585","6500100","板橋區"
"220045","831-TW","2017/07/24 14:49:10","新北市板橋區莒光路16巷34號","121.469251666667","25.0237566666667","6500100","板橋區"
"220022","895-R6","2017/07/24 14:49:06","新北市板橋區明德街1-4號","121.45989","25.0105033333333","6500100","板橋區"
"220021","985-R7","2017/07/24 14:48:57","新北市板橋區大仁街71號","121.453995","25.016235","6500100","板橋區"
"220046","AAC-210","2017/07/24 14:49:14","新北市板橋區文化路一段285巷2弄27號","121.46406","25.019585","6500100","板橋區"
"220018","AAC-253","2017/07/24 14:49:14","新北市板橋區民族路282號","121.47016","25.00686","6500100","板橋區"
