"lineid","car","time","location","longitude","latitude","cityid","cityname"
"248020","225-UY","2017/07/24 15:30:24","新北市五股區中興路二段83巷26-3號","121.46014","25.07546","6501500","五股區"
"244024","656-BX","2017/07/24 09:25:53","新北市林口區粉寮路二段160巷28號","121.405366666667","25.090905","6501700","林口區"
"243009","297-R6","2017/07/24 15:49:32","新北市泰山區黎明路25號","121.422041666667","25.0609683333333","6501600","泰山區"
"243016","680-BX","2017/07/24 15:55:38","新北市泰山區黎明路25號","121.422236666667","25.0606866666667","6501600","泰山區"
"231030","047-UY","2017/07/24 15:59:05","新北市新店區安和路三段77號","121.5176","24.9835516666667","6500600","新店區"
"231018","107-UY","2017/07/24 15:59:04","新北市新店區中正路663巷7弄15-5號","121.533025","24.9902483333333","6500600","新店區"
"231011","108-UY","2017/07/24 15:58:55","新北市新店區中央六街1號","121.530656666667","24.9743666666667","6500600","新店區"
"231026","256-BX","2017/07/24 15:59:00","新北市新店區民生路14號","121.53234","24.986035","6500600","新店區"
"231046","278-BY","2017/07/24 15:59:04","新北市新店區安華路28-1號","121.519661666667","24.9609783333333","6500600","新店區"
"231014","AAD-862","2017/07/24 15:58:54","新北市新店區中正路234號","121.539873333333","24.9728966666667","6500600","新店區"
"231038","4715-K9","2017/07/24 15:58:57","新北市新店區安康路二段228巷6號","121.509446666667","24.9597966666667","6500600","新店區"
"231035","515-UM","2017/07/24 15:58:51","新北市新店區安和路二段169巷15號","121.51811","24.9738516666667","6500600","新店區"
"231003","641-BX","2017/07/24 15:59:02","新北市新店區寶興路40號","121.548813333333","24.9740816666667","6500600","新店區"
"231034","645-TV","2017/07/24 15:58:53","新北市新店區吉祥街5巷2號","121.497356666667","24.94758","6500600","新店區"
"231013","719-UM","2017/07/24 15:58:55","新北市新店區華城路36號","121.528403333333","24.9557083333333","6500600","新店區"
"231037","AKT-0513","2017/07/24 15:58:59","新北市新店區吉安街33號","121.515905","24.96599","6500600","新店區"
"241011","013-R5","2017/07/24 15:58:59","新北市三重區雙園街1巷3號","121.497056666667","25.0681866666667","6500200","三重區"
"241028","022-UY","2017/07/24 15:59:02","新北市三重區電信街100號","121.495456666667","25.058165","6500200","三重區"
"241015","062-VK","2017/07/24 15:59:05","新北市三重區重新路四段121號","121.485105","25.0519783333333","6500200","三重區"
"241017","063-VK","2017/07/24 15:59:04","新北市三重區大仁街48巷41號","121.490876666667","25.0644183333333","6500200","三重區"
"241026","066-VK","2017/07/24 15:58:54","新北市三重區大同南路50巷47號","121.497096666667","25.0599933333333","6500200","三重區"
"241002","090-VK","2017/07/24 15:58:53","新北市三重區仁義街47號","121.498363333333","25.0788333333333","6500200","三重區"
"241024","265-UM","2017/07/24 15:58:49","新北市三重區力行路一段38巷27號","121.485443333333","25.0670383333333","6500200","三重區"
"241016","266-UM","2017/07/24 15:58:58","新北市三重區重新路四段121號","121.484585","25.0518583333333","6500200","三重區"
"241022","267-UM","2017/07/24 15:59:09","新北市三重區三民街175巷2號","121.483396666667","25.06554","6500200","三重區"
"241018","268-UM","2017/07/24 15:59:03","新北市三重區中正北路35號","121.491471666667","25.0626416666667","6500200","三重區"
"241013","270-UM","2017/07/24 15:58:59","新北市三重區三和路三段16巷46號","121.49582","25.0698683333333","6500200","三重區"
"241025","271-UM","2017/07/24 15:59:05","新北市三重區三民街206號","121.48093","25.0661833333333","6500200","三重區"
"241007","398-BY","2017/07/24 15:59:01","新北市三重區忠孝路三段2號","121.481918333333","25.0676133333333","6500200","三重區"
"241020","413-TH","2017/07/24 15:59:06","新北市三重區忠孝路二段80號","121.484265","25.06974","6500200","三重區"
"241004","475-VK","2017/07/24 15:59:01","新北市三重區五華街74號","121.493496666667","25.0819666666667","6500200","三重區"
"241014","543-UM","2017/07/24 15:58:59","新北市三重區重新路四段121號","121.485155","25.0518716666667","6500200","三重區"
"241023","545-UM","2017/07/24 15:59:01","新北市三重區中正北路174號","121.483891666667","25.066625","6500200","三重區"
"241001","547-UM","2017/07/24 15:59:00","新北市三重區三陽路170-1號","121.481401666667","25.0579433333333","6500200","三重區"
"241006","AAD-863","2017/07/24 15:58:54","新北市三重區忠孝路三段1號","121.481801666667","25.06757","6500200","三重區"
"241005","887-TS","2017/07/24 15:59:06","新北市三重區集賢路110號","121.491866666667","25.0895933333333","6500200","三重區"
"241012","941-UM","2017/07/24 15:58:51","新北市三重區正義北路107巷17號","121.497733333333","25.0657316666667","6500200","三重區"
"241029","942-UM","2017/07/24 15:59:00","新北市三重區大同南路242號","121.496881666667","25.0559316666667","6500200","三重區"
"241033","AAC-255","2017/07/24 15:59:03","新北市三重區重新路五段509-4號","121.471993333333","25.0467216666667","6500200","三重區"
"235033","4980-A6","2017/07/24 15:59:08","新北市中和區連城路523巷11弄34號","121.482575","24.9939883333333","6500300","中和區"
"235026","800-TS","2017/07/24 15:58:59","新北市中和區永和路191巷19號","121.491425","25.00653","6500300","中和區"
"247001","402-BY","2017/07/24 15:59:00","新北市五股區新五路二段373號","121.444116666667","25.0887416666667","6501400","蘆洲區"
"224007","273-VK","2017/07/24 15:59:00","新北市瑞芳區粗坑口路1巷1-1號","121.761976666667","25.0973083333333","6501200","瑞芳區"
"224005","271-BY","2017/07/24 15:55:40","新北市瑞芳區明燈路二段66號","121.809326666667","25.1075033333333","6501200","瑞芳區"
"227008","642-TC","2017/07/24 15:59:05","新北市雙溪區三港里雙澳路33-3號","121.870353333333","25.04928","6502500","雙溪區"
"227001","400-TW","2017/07/24 15:58:56","新北市雙溪區平林里外平林57號","121.846823333333","25.03496","6502500","雙溪區"
"208004","AAC-292","2017/07/24 15:58:51","新北市金山區南勢25-3號","121.62849","25.2182433333333","6502700","金山區"
"236064","105-UM","2017/07/24 15:58:53","新北市土城區民權街8號","121.415446666667","24.9631516666667","6501300","土城區"
"236016","401-BY","2017/07/24 15:59:11","新北市土城區延吉街65號","121.472146666667","24.9874216666667","6501300","土城區"
"236056","912-UM","2017/07/24 15:59:05","新北市土城區中央路二段144號","121.441941666667","24.97728","6501300","土城區"
"236052","AAC-216","2017/07/24 15:59:05","新北市土城區中華路二段88號","121.438155","24.97547","6501300","土城區"
"238002","755-BX","2017/07/24 15:58:54","新北市樹林區文德街4巷19號","121.419341666667","24.9920383333333","6500700","樹林區"
"238010","601-UM","2017/07/24 15:59:08","新北市樹林區龍興街32巷20號","121.402173333333","25.0155983333333","6500700","樹林區"
"238006","599-UM","2017/07/24 15:58:53","新北市樹林區忠孝街101巷27號","121.424956666667","24.981155","6500700","樹林區"
"238005","571-TV","2017/07/24 15:59:05","新北市樹林區中華路21號","121.42417","24.983705","6500700","樹林區"
"238011","5061-A6","2017/07/24 15:59:04","新北市樹林區山佳街57號","121.392868333333","24.9725533333333","6500700","樹林區"
"238009","312-TH","2017/07/24 15:59:06","新北市樹林區太順街86巷26號","121.416551666667","24.9788066666667","6500700","樹林區"
"238008","311-TH","2017/07/24 15:59:04","新北市樹林區柑園街二段149巷17-1號","121.382306666667","24.9537033333333","6500700","樹林區"
"238012","303-VK","2017/07/24 15:59:02","新北市樹林區保安二街108號","121.422516666667","24.9956683333333","6500700","樹林區"
"238004","283-BY","2017/07/24 15:59:03","新北市樹林區中正路433-2號","121.414961666667","25.0081566666667","6500700","樹林區"
"238001","282-BY","2017/07/24 15:59:07","新北市樹林區保安二街40巷18號","121.425601666667","24.9946383333333","6500700","樹林區"
"238007","268-VK","2017/07/24 15:31:56","新北市樹林區俊英街120號","121.42719","25.0056033333333","6500700","樹林區"
"238013","172-UY","2017/07/24 15:58:59","新北市樹林區佳園路一段27號","121.392846666667","24.9711216666667","6500700","樹林區"
"238003","169-UY","2017/07/24 15:58:47","新北市樹林區文化街50號","121.41848","24.988395","6500700","樹林區"
"220014","829-TW","2017/07/24 15:59:05","新北市三重區五谷王北街161-1號","121.47835","25.05293","6500100","板橋區"
"220018","AAC-253","2017/07/24 15:58:58","新北市樹林區八德街630號","121.397281666667","24.9692283333333","6500100","板橋區"
