"lineid","car","time","location","longitude","latitude","cityid","cityname"
"249005","172-UM","2017/07/24 17:27:54","新北市八里區荖阡里36-1號","121.40824","25.1259116666667","6502300","八里區"
"249004","303-UY","2017/07/24 17:28:45","新北市八里區賢三街83-7號","121.416186666667","25.157565","6502300","八里區"
"249002","305-UY","2017/07/24 17:28:39","新北市八里區龍形一街19巷2號","121.449855","25.1303866666667","6502300","八里區"
"249003","593-UM","2017/07/24 17:28:47","新北市八里區中山路二段335號","121.400101666667","25.1475583333333","6502300","八里區"
"249001","759-BX","2017/07/24 17:28:33","新北市八里區中華路一段5號","121.422773333333","25.1583533333333","6502300","八里區"
"248020","225-UY","2017/07/24 15:30:24","新北市五股區中興路二段83巷26-3號","121.46014","25.07546","6501500","五股區"
"244013","069-UM","2017/07/24 17:28:33","新北市林口區粉寮路一段149號","121.399235","25.08134","6501700","林口區"
"244007","080-UY","2017/07/24 17:28:41","新北市林口區湖子22-1號","121.385871666667","25.092665","6501700","林口區"
"244019","403-UM","2017/07/24 17:28:44","新北市林口區公園路180號","121.37318","25.0732433333333","6501700","林口區"
"244009","410-SL","2017/07/24 17:28:40","新北市林口區松柏路31號","121.379616666667","25.0918116666667","6501700","林口區"
"244023","483-VK","2017/07/24 17:28:32","新北市林口區隆林街48-1號","121.387426666667","25.07543","6501700","林口區"
"244017","485-VK","2017/07/24 17:28:31","新北市林口區粉寮69號","121.404956666667","25.0908483333333","6501700","林口區"
"244025","656-BX","2017/07/24 17:28:41","新北市林口區民族路157號","121.367001666667","25.0764516666667","6501700","林口區"
"244011","701-TV","2017/07/24 17:28:29","新北市林口區仁愛路一段410號","121.386486666667","25.0767433333333","6501700","林口區"
"244021","838-TS","2017/07/24 17:28:33","新北市林口區粉寮路二段458號","121.404103333333","25.0989166666667","6501700","林口區"
"243009","297-R6","2017/07/24 15:49:32","新北市泰山區黎明路25號","121.422041666667","25.0609683333333","6501600","泰山區"
"231046","278-BY","2017/07/24 17:28:44","新北市新店區直潭路92號","121.530901666667","24.937575","6500600","新店區"
"241011","013-R5","2017/07/24 17:28:38","新北市三重區河邊北街110巷45號","121.50292","25.070625","6500200","三重區"
"241009","060-VK","2017/07/24 17:28:43","新北市三重區車路頭街135-1號","121.484278333333","25.0760233333333","6500200","三重區"
"241015","062-VK","2017/07/24 17:28:45","新北市三重區開元街1號","121.503516666667","25.066375","6500200","三重區"
"241017","063-VK","2017/07/24 17:28:48","新北市三重區重新路三段45-5號","121.493366666667","25.0618033333333","6500200","三重區"
"241026","066-VK","2017/07/24 17:28:34","新北市三重區正義南路20號","121.498191666667","25.06147","6500200","三重區"
"241003","091-VK","2017/07/24 17:28:39","新北市三重區富福街6號","121.489986666667","25.08321","6500200","三重區"
"241008","156-TC","2017/07/24 17:28:40","新北市三重區車路頭街139巷2號","121.483958333333","25.0763966666667","6500200","三重區"
"241024","265-UM","2017/07/24 17:28:29","新北市三重區大勇街82巷15弄15號","121.480455","25.0718966666667","6500200","三重區"
"241016","266-UM","2017/07/24 17:28:38","新北市三重區大同北路54巷1號","121.494268333333","25.063635","6500200","三重區"
"241022","267-UM","2017/07/24 17:28:29","新北市三重區新北大道一段7號","121.489715","25.0613716666667","6500200","三重區"
"241018","268-UM","2017/07/24 17:28:43","新北市三重區國隆路29號","121.492551666667","25.0643683333333","6500200","三重區"
"241032","269-UM","2017/07/24 17:28:31","新北市三重區名源街49號","121.48221","25.05978","6500200","三重區"
"241013","270-UM","2017/07/24 17:28:39","新北市三重區仁愛街106號","121.495333333333","25.0742","6500200","三重區"
"241025","271-UM","2017/07/24 17:28:45","新北市三重區中正北路380號","121.476615","25.0697333333333","6500200","三重區"
"241007","398-BY","2017/07/24 17:28:41","新北市三重區三和路四段145巷82號","121.48647","25.0789183333333","6500200","三重區"
"241020","413-TH","2017/07/24 17:28:46","新北市三重區忠孝路一段149號","121.488148333333","25.0718966666667","6500200","三重區"
"241024","462-BY","2017/07/24 17:28:30","新北市三重區大勇街82巷15弄30號","121.481148333333","25.0719966666667","6500200","三重區"
"241019","478-VK","2017/07/24 17:28:33","新北市三重區自強路二段36號","121.489145","25.06941","6500200","三重區"
"241030","480-VK","2017/07/24 17:28:47","新北市三重區集美街149號","121.490593333333","25.053175","6500200","三重區"
"241014","543-UM","2017/07/24 17:28:39","新北市三重區三和路二段75-7號","121.500223333333","25.0681483333333","6500200","三重區"
"241023","545-UM","2017/07/24 17:28:41","新北市三重區三民街146巷3弄2號","121.481673333333","25.06457","6500200","三重區"
"241005","887-TS","2017/07/24 17:28:46","新北市三重區永安北路二段43巷22號","121.483031666667","25.08275","6500200","三重區"
"241012","941-UM","2017/07/24 17:28:32","新北市三重區仁昌街112號","121.500351666667","25.075305","6500200","三重區"
"241033","AAC-255","2017/07/24 17:28:43","新北市三重區興德路133號","121.470135","25.05293","6500200","三重區"
"235062","800-TS","2017/07/24 17:28:30","新北市中和區員山路36巷16-3號","121.485113333333","24.99135","6500300","中和區"
"235064","911-UM","2017/07/24 15:55:09","新北市中和區員山路36巷16-3號","121.485041666667","24.9913466666667","6500300","中和區"
"247020","893-R6","2017/07/24 17:28:40","新北市蘆洲區仁愛街116號","121.469808333333","25.09496","6501400","蘆洲區"
"247010","546-UM","2017/07/24 17:28:40","新北市蘆洲區信義路114號","121.479873333333","25.082175","6501400","蘆洲區"
"247018","500-BY","2017/07/24 17:28:30","新北市蘆洲區民義街15號","121.471588333333","25.08879","6501400","蘆洲區"
"247001","402-BY","2017/07/24 16:16:09","新北市五股區中興路三段3-6號","121.44951","25.0788083333333","6501400","蘆洲區"
"247006","341-TH","2017/07/24 17:28:40","新北市蘆洲區長安街66號","121.462751666667","25.0800766666667","6501400","蘆洲區"
"247008","339-TH","2017/07/24 17:28:28","新北市蘆洲區信義路34巷170號","121.476088333333","25.075805","6501400","蘆洲區"
"247024","337-TH","2017/07/24 17:28:38","新北市蘆洲區長興路318號","121.461775","25.09233","6501400","蘆洲區"
"247002","336-TH","2017/07/24 17:28:41","新北市蘆洲區永樂街38巷67弄1號","121.458285","25.0905616666667","6501400","蘆洲區"
"247014","057-VK","2017/07/24 17:28:41","新北市蘆洲區三民路38-1號","121.475551666667","25.0829466666667","6501400","蘆洲區"
"247004","056-VK","2017/07/24 17:28:43","新北市蘆洲區長安街233巷39號","121.457918333333","25.0820733333333","6501400","蘆洲區"
"247012","007-UY","2017/07/24 17:28:39","新北市蘆洲區復興路58號","121.47375","25.0859","6501400","蘆洲區"
"247022","002-UY","2017/07/24 17:28:35","新北市蘆洲區三民路296號","121.466866666667","25.0904783333333","6501400","蘆洲區"
"247016","001-UY","2017/07/24 17:27:55","新北市蘆洲區光華路70巷6號","121.467878333333","25.0833183333333","6501400","蘆洲區"
"228003","097-TW","2017/07/24 17:28:43","新北市貢寮區仁理村研海街62-2號","121.925761666667","25.0438483333333","6502600","貢寮區"
"228002","585-TW","2017/07/24 17:28:40","新北市貢寮區福隆里興隆街36號","121.941455","25.017095","6502600","貢寮區"
"228001","670-TC","2017/07/24 17:28:37","新北市貢寮區仁理村仁愛路19號","121.924596666667","25.0533033333333","6502600","貢寮區"
"224010","AGQ-8101","2017/07/24 09:59:28","新北市瑞芳區民權街3-1號","121.809415","25.10829","6501200","瑞芳區"
"224006","676-BX","2017/07/24 17:28:36","新北市瑞芳區傑魚坑路165號","121.789783333333","25.1094416666667","6501200","瑞芳區"
"224009","285-BY","2017/07/24 17:28:47","新北市瑞芳區汽車路13-1號","121.845771666667","25.1108283333333","6501200","瑞芳區"
"224008","275-VK","2017/07/24 17:28:44","新北市瑞芳區侯硐路204號","121.830455","25.0881916666667","6501200","瑞芳區"
"224005","271-BY","2017/07/24 17:28:29","新北市瑞芳區明里路122號","121.865505","25.1220516666667","6501200","瑞芳區"
"227001","400-TW","2017/07/24 17:28:36","新北市雙溪區平林里外平林46-1號","121.850543333333","25.0354266666667","6502500","雙溪區"
"251009","008-UM","2017/07/24 17:05:50","新北市淡水區中正路332-1號","121.435851666667","25.1730816666667","6501000","淡水區"
"251004","009-UM","2017/07/24 17:28:39","新北市淡水區中正東路二段88巷15號","121.459011666667","25.1504733333333","6501000","淡水區"
"251007","179-VK","2017/07/24 17:28:35","新北市淡水區民生路47-4號","121.4621","25.1380433333333","6501000","淡水區"
"251008","181-VK","2017/07/24 17:28:34","新北市淡水區大同路122巷18號","121.463311666667","25.1397666666667","6501000","淡水區"
"251013","182-VK","2017/07/24 17:28:29","新北市淡水區水尾子2-2號","121.46474","25.1950916666667","6501000","淡水區"
"251010","413-VK","2017/07/24 17:28:50","新北市淡水區中正路二段211號","121.426208333333","25.1891066666667","6501000","淡水區"
"251012","441-VK","2017/07/24 17:28:43","新北市淡水區北新路80號","121.446675","25.178445","6501000","淡水區"
"251015","442-VK","2017/07/24 17:28:32","新北市淡水區三空泉16-10號","121.472076666667","25.16508","6501000","淡水區"
"251005","443-VK","2017/07/24 17:28:47","新北市淡水區鄧公路18號","121.45109","25.1700316666667","6501000","淡水區"
"251001","559-UM","2017/07/24 17:28:36","新北市淡水區民權路92巷35-1號","121.462155","25.1266516666667","6501000","淡水區"
"251006","561-UM","2017/07/24 17:28:31","新北市淡水區中山北路一段6號","121.441488333333","25.1746266666667","6501000","淡水區"
"251011","650-BX","2017/07/24 17:28:41","新北市淡水區坪頂路712號","121.482508333333","25.15847","6501000","淡水區"
"251002","672-BX","2017/07/24 17:28:41","新北市淡水區中正路一段1號","121.427215","25.1758416666667","6501000","淡水區"
"251003","766-UM","2017/07/24 17:28:30","新北市淡水區中山路157號","121.440765","25.1728733333333","6501000","淡水區"
"207003","550-UM","2017/07/24 17:28:39","新北市萬里區萬里里成功新村44號","121.687496666667","25.1747333333333","6502800","萬里區"
"207004","225-TW","2017/07/24 17:28:49","新北市萬里區萬里里景美路16號","121.686661666667","25.173365","6502800","萬里區"
"252002","178-VK","2017/07/24 17:28:30","新北市三芝區忠孝街1-14號","121.50548","25.254","6502100","三芝區"
"252001","702-TV","2017/07/24 17:28:29","新北市三芝區淡金路一段3號","121.498091666667","25.2596383333333","6502100","三芝區"
"237005","AKY-6261","2017/07/24 17:28:35","新北市三峽區中山路459巷163-3號","121.348858333333","24.933035","6500900","三峽區"
"242021","AAC-296","2017/07/24 17:28:41","新北市新莊區中港路9號","121.454901666667","25.0370866666667","6500500","新莊區"
"242048","751-BX","2017/07/24 17:28:44","新北市新莊區四維路221號","121.421543333333","25.019765","6500500","新莊區"
"242029","705-TV","2017/07/24 17:28:30","新北市新莊區復興路二段184號","121.45901","25.044295","6500500","新莊區"
"242025","615-BX","2017/07/24 17:28:43","新北市新莊區中港路281號","121.453155","25.043745","6500500","新莊區"
"242023","613-BX","2017/07/24 17:28:42","新北市新莊區中華路一段110號","121.452391666667","25.0401783333333","6500500","新莊區"
"242027","612-BX","2017/07/24 17:28:37","新北市新莊區思源路37號","121.46001","25.0397033333333","6500500","新莊區"
"242036","566-BX","2017/07/24 17:28:40","新北市新莊區建國二路11號","121.434496666667","25.023845","6500500","新莊區"
"242042","497-BY","2017/07/24 17:28:35","新北市新莊區新樹路52-38號","121.436176666667","25.02663","6500500","新莊區"
"242004","442-UM","2017/07/24 17:28:40","新北市新莊區中港路284號","121.45294","25.044125","6500500","新莊區"
"242046","441-UM","2017/07/24 17:28:38","新北市新莊區新樹路67巷2號","121.439163333333","25.030005","6500500","新莊區"
"242050","440-UM","2017/07/24 17:28:43","新北市新莊區瓊林南路59-8號","121.435431666667","25.016455","6500500","新莊區"
"242031","415-TV","2017/07/24 17:28:43","新北市新莊區新泰路401巷29-1號","121.442465","25.0438816666667","6500500","新莊區"
"242002","413-TV","2017/07/24 17:28:34","新北市新莊區新莊路211號","121.45532","25.0354066666667","6500500","新莊區"
"242039","400-BY","2017/07/24 17:28:44","新北市新莊區民安東路29號","121.428445","25.0209866666667","6500500","新莊區"
"242060","362-BY","2017/07/24 17:28:41","新北市新莊區瓊林路63號","121.43893","25.0207516666667","6500500","新莊區"
"242058","353-BY","2017/07/24 17:28:39","新北市新莊區中正路504號","121.436005","25.0328583333333","6500500","新莊區"
"242011","132-UY","2017/07/24 17:28:32","新北市新莊區中港路471號","121.452255","25.04915","6500500","新莊區"
"242034","133-UY","2017/07/24 17:28:43","新北市新莊區新莊路378號","121.449176666667","25.03343","6500500","新莊區"
"242019","135-UY","2017/07/24 17:28:43","新北市新莊區中港路50號","121.4554","25.038475","6500500","新莊區"
"242044","172-VK","2017/07/24 17:28:40","新北市新莊區富國路87號","121.420513333333","25.0257616666667","6500500","新莊區"
"242007","173-VK","2017/07/24 17:28:42","新北市新莊區自立街62號","121.453986666667","25.0454183333333","6500500","新莊區"
"242013","175-VK","2017/07/24 17:28:43","新北市新莊區中誠街16巷9號","121.451878333333","25.0487483333333","6500500","新莊區"
"242056","176-VK","2017/07/24 17:28:30","新北市新莊區新泰路16號","121.44968","25.0330866666667","6500500","新莊區"
"242017","348-TH","2017/07/24 17:28:33","新北市新莊區復興路一段212號","121.452858333333","25.0437966666667","6500500","新莊區"
"242053","349-TH","2017/07/24 17:28:38","新北市新莊區瓊林南路61-71號","121.439523333333","25.0187216666667","6500500","新莊區"
"242015","350-TH","2017/07/24 17:28:36","新北市新莊區新泰路161號","121.44773","25.0369633333333","6500500","新莊區"
"242009","351-TH","2017/07/24 17:28:29","新北市新莊區中原路143號","121.454216666667","25.0545583333333","6500500","新莊區"
"238015","755-BX","2017/07/24 17:28:31","新北市樹林區大安路267號","121.419008333333","24.9937","6500700","樹林區"
"238023","601-UM","2017/07/24 17:28:48","新北市樹林區中正路433號","121.415061666667","25.00855","6500700","樹林區"
"238019","599-UM","2017/07/24 17:28:35","新北市樹林區太平路45號","121.419188333333","24.9829516666667","6500700","樹林區"
"238018","571-TV","2017/07/24 17:28:45","新北市樹林區樹中街7號","121.42071","24.9860333333333","6500700","樹林區"
"238024","5061-A6","2017/07/24 17:28:32","新北市樹林區樹新路26號","121.426826666667","24.9941533333333","6500700","樹林區"
"238022","312-TH","2017/07/24 17:28:26","新北市樹林區和平街21號","121.42219","24.98147","6500700","樹林區"
"238021","311-TH","2017/07/24 17:28:28","新北市樹林區民權街37巷6號","121.39868","24.9598183333333","6500700","樹林區"
"238025","303-VK","2017/07/24 17:28:38","新北市樹林區保安街一段342號","121.418016666667","24.9981333333333","6500700","樹林區"
"238017","283-BY","2017/07/24 17:28:43","新北市樹林區中正路417號","121.416831666667","25.0073833333333","6500700","樹林區"
"238014","282-BY","2017/07/24 17:28:47","新北市樹林區長壽街70巷35弄9號","121.421373333333","24.9951633333333","6500700","樹林區"
"238020","268-VK","2017/07/24 17:27:26","新北市樹林區千歲街94號","121.426518333333","24.997925","6500700","樹林區"
"238026","172-UY","2017/07/24 17:28:38","新北市樹林區中山路二段249巷30號","121.403403333333","24.9756133333333","6500700","樹林區"
"238016","169-UY","2017/07/24 17:28:31","新北市樹林區中山路一段125-1號","121.422741666667","24.9900916666667","6500700","樹林區"
"239007","AAC-297","2017/07/24 17:28:16","新北市鶯歌區忠孝街11號","121.355131666667","24.9563683333333","6500800","鶯歌區"
"239006","891-R6","2017/07/24 17:28:37","新北市鶯歌區鶯桃路472巷26號","121.333318333333","24.9659233333333","6500800","鶯歌區"
"239008","527-UM","2017/07/24 17:28:39","新北市鶯歌區大湖路601號","121.335138333333","24.974415","6500800","鶯歌區"
"239005","526-UM","2017/07/24 17:28:24","新北市鶯歌區鶯桃路二段11號","121.325775","24.9719166666667","6500800","鶯歌區"
"239001","417-VK","2017/07/24 17:28:28","新北市鶯歌區中正三路106-1號","121.338128333333","24.94093","6500800","鶯歌區"
"239003","360-BY","2017/07/24 17:28:43","新北市鶯歌區德昌街50號","121.333031666667","24.95985","6500800","鶯歌區"
"239004","193-VK","2017/07/24 17:28:35","新北市鶯歌區三鶯路29巷33號","121.353983333333","24.9396016666667","6500800","鶯歌區"
"221033","647-BX","2017/07/24 17:28:38","新北市汐止區康寧街777-1號","121.644961666667","25.0758783333333","6501100","汐止區"
