"lineid","car","time","location","longitude","latitude","cityid","cityname"
"234026","9371-KE","2017/07/24 17:49:43","新北市永和區和平街109巷5號","121.51065","25.0095033333333","6500400","永和區"
"249005","172-UM","2017/07/24 17:37:54","新北市八里區荖阡坑路34號","121.40261","25.1297733333333","6502300","八里區"
"249004","303-UY","2017/07/24 17:49:45","新北市八里區中華路一段88號","121.420733333333","25.15753","6502300","八里區"
"249002","305-UY","2017/07/24 17:49:47","新北市八里區龍形三街9巷2號","121.450671666667","25.1317366666667","6502300","八里區"
"249003","593-UM","2017/07/24 17:49:47","新北市八里區中山路二段212號","121.405306666667","25.1519383333333","6502300","八里區"
"249001","759-BX","2017/07/24 17:49:33","新北市八里區龍米路二段133-1號","121.445003333333","25.1477216666667","6502300","八里區"
"248014","025-BX","2017/07/24 17:49:38","新北市五股區中興路二段63巷17號","121.460183333333","25.0753683333333","6501500","五股區"
"248016","026-BX","2017/07/24 17:49:50","新北市五股區中興路二段83巷26-6號","121.45993","25.0752633333333","6501500","五股區"
"248006","077-UY","2017/07/24 13:56:18","新北市五股區中興路二段37巷28號","121.460081666667","25.0749783333333","6501500","五股區"
"248008","095-VK","2017/07/24 17:49:39","新北市五股區中興路二段37巷26號","121.460606666667","25.0749833333333","6501500","五股區"
"248020","225-UY","2017/07/24 17:49:32","新北市五股區中興路二段83巷26-6號","121.460005","25.0752983333333","6501500","五股區"
"232011","375-UM","2017/07/24 17:49:41","新北市坪林區北宜路八段28號","121.703075","24.9361616666667","6502000","坪林區"
"244013","069-UM","2017/07/24 17:49:33","新北市林口區中正路480號","121.382558333333","25.0774083333333","6501700","林口區"
"244007","080-UY","2017/07/24 17:49:41","新北市林口區林口路226號","121.386783333333","25.0838333333333","6501700","林口區"
"244019","403-UM","2017/07/24 17:49:44","新北市林口區文化一路一段89-5號","121.371893333333","25.0704116666667","6501700","林口區"
"244009","410-SL","2017/07/24 17:49:40","新北市林口區中北三街61號","121.384741666667","25.0855633333333","6501700","林口區"
"244023","483-VK","2017/07/24 17:49:32","新北市林口區東湖路10號","121.38886","25.074165","6501700","林口區"
"244017","485-VK","2017/07/24 17:49:31","新北市林口區忠孝路377號","121.369396666667","25.0715233333333","6501700","林口區"
"244025","656-BX","2017/07/24 17:49:41","新北市林口區文化三路一段225巷13號","121.361853333333","25.0713666666667","6501700","林口區"
"244011","701-TV","2017/07/24 17:49:29","新北市林口區中興街3-1號","121.389125","25.07767","6501700","林口區"
"244021","838-TS","2017/07/24 17:49:33","新北市林口區仁愛路一段211巷63號","121.39701","25.0737183333333","6501700","林口區"
"243009","297-R6","2017/07/24 15:49:32","新北市泰山區黎明路25號","121.422041666667","25.0609683333333","6501600","泰山區"
"222003","436-BY","2017/07/24 17:49:36","新北市深坑區阿柔洋60-1號","121.608613333333","24.9985133333333","6501800","深坑區"
"222002","659-BX","2017/07/24 17:49:46","新北市深坑區平埔街22巷19號","121.614751666667","25.0008516666667","6501800","深坑區"
"231046","278-BY","2017/07/24 17:49:44","新北市新店區下石厝路17號","121.532965","24.92746","6500600","新店區"
"241024","265-UM","2017/07/24 17:49:29","新北市三重區國道路一段50號","121.48244","25.0729366666667","6500200","三重區"
"241016","266-UM","2017/07/24 17:49:38","新北市三重區重新路二段112號","121.49669","25.0616233333333","6500200","三重區"
"241024","462-BY","2017/07/24 17:49:50","新北市三重區國道路一段43號","121.48289","25.0729716666667","6500200","三重區"
"241014","543-UM","2017/07/24 17:49:39","新北市三重區龍濱路186號","121.501236666667","25.0730666666667","6500200","三重區"
"241005","887-TS","2017/07/24 17:49:46","新北市三重區碧華街384號","121.491318333333","25.0845516666667","6500200","三重區"
"241012","941-UM","2017/07/24 17:49:30","新北市三重區河邊北街377號","121.501763333333","25.0764133333333","6500200","三重區"
"241033","AAC-255","2017/07/24 17:49:43","新北市三重區光復路一段9號","121.472125","25.0471483333333","6500200","三重區"
"235067","255-BX","2017/07/24 17:49:31","新北市中和區和城路一段271巷1號","121.485518333333","24.9919916666667","6500300","中和區"
"235062","800-TS","2017/07/24 17:49:30","新北市中和區員山路36巷16-3號","121.485075","24.9913766666667","6500300","中和區"
"235064","911-UM","2017/07/24 15:55:09","新北市中和區員山路36巷16-3號","121.485041666667","24.9913466666667","6500300","中和區"
"247020","893-R6","2017/07/24 17:49:40","新北市蘆洲區民義街71巷14號","121.472851666667","25.0904533333333","6501400","蘆洲區"
"247010","546-UM","2017/07/24 17:49:40","新北市蘆洲區民族路49號","121.478458333333","25.08547","6501400","蘆洲區"
"247018","500-BY","2017/07/24 17:49:30","新北市蘆洲區復興路227巷2弄2號","121.479966666667","25.0900666666667","6501400","蘆洲區"
"247001","402-BY","2017/07/24 16:16:09","新北市五股區中興路三段3-6號","121.44951","25.0788083333333","6501400","蘆洲區"
"247008","339-TH","2017/07/24 17:49:48","新北市蘆洲區和平路29巷15號","121.472131666667","25.078465","6501400","蘆洲區"
"247024","337-TH","2017/07/24 17:49:38","新北市蘆洲區長樂路231號","121.46178","25.0896766666667","6501400","蘆洲區"
"247002","336-TH","2017/07/24 17:49:41","新北市蘆洲區永平街32巷21弄33號","121.457931666667","25.092295","6501400","蘆洲區"
"247014","057-VK","2017/07/24 17:49:41","新北市蘆洲區中原路79號","121.458261666667","25.0817366666667","6501400","蘆洲區"
"247006","053-VK","2017/07/24 17:49:41","新北市蘆洲區長安街22巷41-1號","121.464996666667","25.0803466666667","6501400","蘆洲區"
"247012","007-UY","2017/07/24 17:49:39","新北市蘆洲區民族路167巷2弄2號","121.478868333333","25.0881816666667","6501400","蘆洲區"
"247022","002-UY","2017/07/24 17:49:35","新北市蘆洲區中正路355號","121.465386666667","25.08976","6501400","蘆洲區"
"247016","001-UY","2017/07/24 17:49:36","新北市蘆洲區中正路185巷27號","121.466545","25.0844383333333","6501400","蘆洲區"
"228003","097-TW","2017/07/24 17:49:43","新北市貢寮區真理里延平街171號","121.925475","25.059025","6502600","貢寮區"
"228002","585-TW","2017/07/24 17:49:40","新北市貢寮區福隆里龜壽谷街12號","121.95578","25.0063416666667","6502600","貢寮區"
"228001","670-TC","2017/07/24 17:49:37","新北市貢寮區仁理村仁愛路95-1號","121.927706666667","25.0554833333333","6502600","貢寮區"
"224006","676-BX","2017/07/24 17:49:46","新北市瑞芳區傑魚坑路240-2號","121.79005","25.1096916666667","6501200","瑞芳區"
"224002","639-TC","2017/07/24 17:49:47","新北市瑞芳區明燈路二段46號","121.809426666667","25.1081416666667","6501200","瑞芳區"
"224009","285-BY","2017/07/24 17:49:44","新北市瑞芳區新山路189號","121.851233333333","25.10898","6501200","瑞芳區"
"224008","275-VK","2017/07/24 17:49:36","新北市瑞芳區明燈路一段175號","121.819218333333","25.107695","6501200","瑞芳區"
"224005","271-BY","2017/07/24 17:49:49","新北市瑞芳區豎崎路32-5號","121.823871666667","25.1210016666667","6501200","瑞芳區"
"253006","032-BX","2017/07/24 17:49:44","新北市石門區中央路3-1號","121.565865","25.29147","6502200","石門區"
"208003","665-BX","2017/07/24 17:49:44","新北市金山區磺清路135號","121.639446666667","25.2277166666667","6502700","金山區"
"208001","761-BX","2017/07/24 17:49:42","新北市金山區磺清路135號","121.639463333333","25.22784","6502700","金山區"
"251009","008-UM","2017/07/24 17:32:30","新北市淡水區重建街1巷5號","121.439748333333","25.173565","6501000","淡水區"
"251004","009-UM","2017/07/24 17:49:39","新北市淡水區民權一街33-3號","121.459358333333","25.136265","6501000","淡水區"
"251007","179-VK","2017/07/24 17:49:35","新北市淡水區民生路16巷2號","121.461065","25.1374416666667","6501000","淡水區"
"251008","181-VK","2017/07/24 17:49:35","新北市淡水區八勢路一段156號","121.468008333333","25.156405","6501000","淡水區"
"251013","182-VK","2017/07/24 17:49:49","新北市淡水區竹圍子7號","121.47758","25.1910133333333","6501000","淡水區"
"251010","413-VK","2017/07/24 17:49:50","新北市淡水區淡海路280巷33弄34-2號","121.418686666667","25.1885966666667","6501000","淡水區"
"251012","441-VK","2017/07/24 17:49:43","新北市淡水區北新路一段156-1號","121.460496666667","25.1824133333333","6501000","淡水區"
"251015","442-VK","2017/07/24 17:49:32","新北市淡水區興福寮32-1號","121.49107","25.163085","6501000","淡水區"
"251005","443-VK","2017/07/24 17:49:38","新北市淡水區學府路104號","121.449968333333","25.1718883333333","6501000","淡水區"
"251001","559-UM","2017/07/24 17:49:36","新北市淡水區民權路92巷35-1號","121.462123333333","25.1266183333333","6501000","淡水區"
"251006","561-UM","2017/07/24 17:49:31","新北市淡水區大信街1巷5號","121.441055","25.176625","6501000","淡水區"
"251011","650-BX","2017/07/24 17:43:41","新北市淡水區小坪頂23-4號","121.48348","25.1509516666667","6501000","淡水區"
"251002","672-BX","2017/07/24 17:49:42","新北市淡水區中山路42號","121.444201666667","25.1699966666667","6501000","淡水區"
"251003","766-UM","2017/07/24 17:49:30","新北市淡水區大忠街40號","121.443655","25.1759266666667","6501000","淡水區"
"207003","550-UM","2017/07/24 17:49:39","新北市萬里區野柳里東澳路66號","121.692738333333","25.200945","6502800","萬里區"
"207004","225-TW","2017/07/24 17:49:45","新北市萬里區萬里里瑪鋉頂街100-1號","121.687761666667","25.180515","6502800","萬里區"
"252002","178-VK","2017/07/24 17:49:29","新北市三芝區智成街73號","121.504555","25.2560316666667","6502100","三芝區"
"252001","702-TV","2017/07/24 17:49:29","新北市三芝區中山路一段30號","121.501243333333","25.25813","6502100","三芝區"
"208002","170-UY","2017/07/24 17:49:35","新北市金山區磺清路135號","121.6393","25.227635","6502700","金山區"
"237004","078-UY","2017/07/24 17:49:40","新北市三峽區仁愛街31號","121.368523333333","24.9333833333333","6500900","三峽區"
"237009","210-TH","2017/07/24 17:49:49","新北市三峽區大勇路17號","121.367273333333","24.93673","6500900","三峽區"
"237013","252-BX","2017/07/24 17:49:44","新北市三峽區愛國路18號","121.374053333333","24.933525","6500900","三峽區"
"237012","275-BY","2017/07/24 17:49:50","新北市三峽區文化路208號","121.368953333333","24.9359733333333","6500900","三峽區"
"237008","302-VK","2017/07/24 17:49:47","新北市三峽區中園街237-1號","121.366833333333","24.9194416666667","6500900","三峽區"
"237014","433-BY","2017/07/24 17:49:47","新北市三峽區文化路120巷7號","121.370941666667","24.93651","6500900","三峽區"
"237006","5529-G3","2017/07/24 17:49:36","新北市三峽區介壽路二段136巷83-4號","121.392485","24.9318566666667","6500900","三峽區"
"237011","572-TV","2017/07/24 13:46:53","新北市三峽區中山路459巷163-3號","121.348681666667","24.9327816666667","6500900","三峽區"
"237015","649-BX","2017/07/24 17:49:48","新北市三峽區白雞127號","121.393418333333","24.9095016666667","6500900","三峽區"
"237010","706-TV","2017/07/24 17:49:43","新北市三峽區和平街24-5號","121.370235","24.9365183333333","6500900","三峽區"
"237005","AKY-6261","2017/07/24 17:49:35","新北市三峽區文化路226號","121.36796","24.9359083333333","6500900","三峽區"
"236069","105-UM","2017/07/24 17:49:35","新北市土城區城林路6巷80號","121.438488333333","24.9797016666667","6501300","土城區"
"236042","107-UM","2017/07/24 17:49:50","新北市土城區裕生路65-1號","121.44756","24.98584","6501300","土城區"
"236078","166-UM","2017/07/24 17:49:28","新北市土城區永寧路97號","121.429821666667","24.9555","6501300","土城區"
"236030","253-BX","2017/07/24 17:49:41","新北市土城區城林路6巷80號","121.438533333333","24.979825","6501300","土城區"
"236026","269-VK","2017/07/24 17:49:37","新北市土城區中華路二段198號","121.437566666667","24.969845","6501300","土城區"
"236014","270-VK","2017/07/24 17:49:31","新北市土城區城林路6巷80號","121.438505","24.9795983333333","6501300","土城區"
"236036","271-VK","2017/07/24 17:49:36","新北市土城區城林路6巷80號","121.438523333333","24.979745","6501300","土城區"
"236020","401-BY","2017/07/24 17:49:39","新北市土城區城林路6巷80號","121.438761666667","24.9796466666667","6501300","土城區"
"236058","912-UM","2017/07/24 17:49:34","新北市土城區城林路6巷80號","121.438445","24.9796083333333","6501300","土城區"
"236048","913-UM","2017/07/24 17:49:30","新北市土城區城林路6巷80號","121.438535","24.9797283333333","6501300","土城區"
"236062","915-UM","2017/07/24 17:49:43","新北市土城區城林路6巷80號","121.438556666667","24.9798066666667","6501300","土城區"
"236053","AAC-216","2017/07/24 17:49:39","新北市土城區城林路6巷80號","121.438493333333","24.9795566666667","6501300","土城區"
"242021","AAC-296","2017/07/24 17:49:41","新北市新莊區復興路一段220號","121.45301","25.0436883333333","6500500","新莊區"
"242048","751-BX","2017/07/24 17:49:44","新北市新莊區萬安街161號","121.420205","25.0212316666667","6500500","新莊區"
"242029","705-TV","2017/07/24 17:49:30","新北市新莊區復興路一段63號","121.447618333333","25.042405","6500500","新莊區"
"242025","615-BX","2017/07/24 17:49:43","新北市三重區新北大道二段25號","121.471443333333","25.0613083333333","6500500","新莊區"
"242023","613-BX","2017/07/24 17:49:42","新北市新莊區福樂街58號","121.457838333333","25.0461233333333","6500500","新莊區"
"242027","612-BX","2017/07/24 17:49:37","新北市新莊區福壽街155號","121.458021666667","25.0532466666667","6500500","新莊區"
"242036","566-BX","2017/07/24 17:49:40","新北市新莊區建福路68號","121.426835","25.0269133333333","6500500","新莊區"
"242042","497-BY","2017/07/24 17:49:35","新北市新莊區中正路654號","121.421305","25.0285583333333","6500500","新莊區"
"242004","442-UM","2017/07/24 17:49:44","新北市新莊區自立街236號","121.458255","25.0454466666667","6500500","新莊區"
"242046","441-UM","2017/07/24 17:49:38","新北市新莊區建國一路59號","121.434626666667","25.0301466666667","6500500","新莊區"
"242050","440-UM","2017/07/24 17:49:43","新北市新莊區西盛街269巷20號","121.428825","25.0155133333333","6500500","新莊區"
"242031","415-TV","2017/07/24 17:49:29","新北市新莊區新泰路357巷1弄9號","121.442933333333","25.0407866666667","6500500","新莊區"
"242002","413-TV","2017/07/24 17:49:39","新北市新莊區景德路103號","121.451678333333","25.0345","6500500","新莊區"
"242039","400-BY","2017/07/24 17:49:44","新北市新莊區民安路142號","121.424341666667","25.0252966666667","6500500","新莊區"
"242060","362-BY","2017/07/24 17:49:41","新北市新莊區新樹路579號","121.432911666667","25.0069016666667","6500500","新莊區"
"242058","353-BY","2017/07/24 17:49:43","新北市新莊區中正路726-4號","121.416233333333","25.0246116666667","6500500","新莊區"
"242011","132-UY","2017/07/24 17:49:35","新北市新莊區中港路754號","121.45026","25.0588716666667","6500500","新莊區"
"242034","133-UY","2017/07/24 17:49:43","新北市新莊區新樹路13號","121.4408","25.032855","6500500","新莊區"
"242019","135-UY","2017/07/24 17:49:43","新北市新莊區民樂街90號","121.457893333333","25.04404","6500500","新莊區"
"242044","172-VK","2017/07/24 17:49:40","新北市新莊區中正路853-6號","121.41982","25.0278316666667","6500500","新莊區"
"242007","173-VK","2017/07/24 17:49:42","新北市新莊區福樂街108巷17號","121.457766666667","25.04827","6500500","新莊區"
"242013","175-VK","2017/07/24 17:49:43","新北市新莊區中誠街164號","121.44814","25.0474","6500500","新莊區"
"242056","176-VK","2017/07/24 17:49:30","新北市新莊區瓊林路40巷20號","121.44721","25.0302433333333","6500500","新莊區"
"242017","348-TH","2017/07/24 17:49:33","新北市新莊區永安街93號","121.450566666667","25.04456","6500500","新莊區"
"242053","349-TH","2017/07/24 17:49:38","新北市新莊區新樹路575號","121.432883333333","25.0069783333333","6500500","新莊區"
"242015","350-TH","2017/07/24 17:49:38","新北市新莊區新泰路470號","121.443071666667","25.045025","6500500","新莊區"
"242009","351-TH","2017/07/24 17:49:29","新北市新莊區中原路162號","121.45477","25.0544066666667","6500500","新莊區"
"238015","755-BX","2017/07/24 17:49:31","新北市樹林區長壽街21巷1號","121.421693333333","24.994135","6500700","樹林區"
"238023","601-UM","2017/07/24 17:49:48","新北市樹林區三福街70巷18號","121.404861666667","25.0167933333333","6500700","樹林區"
"238019","599-UM","2017/07/24 17:49:46","新北市樹林區太平路176號","121.418466666667","24.9768083333333","6500700","樹林區"
"238018","571-TV","2017/07/24 17:49:45","新北市樹林區鎮前街8號","121.426355","24.99341","6500700","樹林區"
"238022","312-TH","2017/07/24 17:49:46","新北市樹林區太順街62巷3弄2號","121.417478333333","24.9797166666667","6500700","樹林區"
"238021","311-TH","2017/07/24 17:49:47","新北市樹林區柑園街一段172號","121.396225","24.9566383333333","6500700","樹林區"
"238025","303-VK","2017/07/24 17:49:38","新北市樹林區三俊街81巷1號","121.415555","25.015475","6500700","樹林區"
"238017","283-BY","2017/07/24 17:49:43","新北市樹林區俊德街58號","121.415151666667","25.01322","6500700","樹林區"
"238014","282-BY","2017/07/24 17:49:47","新北市樹林區保安街一段313巷28號","121.417058333333","24.9974283333333","6500700","樹林區"
"238020","268-VK","2017/07/24 17:36:20","新北市樹林區俊英街98號","121.427718333333","25.0050616666667","6500700","樹林區"
"238026","172-UY","2017/07/24 17:49:38","新北市樹林區新興街19巷2弄25號","121.401605","24.97312","6500700","樹林區"
"238016","169-UY","2017/07/24 17:49:31","新北市樹林區復興路321號","121.418336666667","24.9884616666667","6500700","樹林區"
"239007","AAC-297","2017/07/24 17:49:36","新北市鶯歌區永利街18號","121.338976666667","24.9547633333333","6500800","鶯歌區"
"239006","891-R6","2017/07/24 17:49:37","新北市鶯歌區鶯桃路413巷42號","121.330766666667","24.9634616666667","6500800","鶯歌區"
"239008","527-UM","2017/07/24 17:49:39","新北市鶯歌區國際一路60號","121.335248333333","24.97802","6500800","鶯歌區"
"239005","526-UM","2017/07/24 17:49:44","新北市鶯歌區鳳吉五街39號","121.327596666667","24.9728966666667","6500800","鶯歌區"
"239001","417-VK","2017/07/24 17:49:28","新北市鶯歌區中正三路398號","121.325755","24.934675","6500800","鶯歌區"
"239003","360-BY","2017/07/24 17:49:43","新北市鶯歌區鶯桃路285巷2-5號","121.334346666667","24.9591116666667","6500800","鶯歌區"
"221008","489-VK","2017/07/24 17:49:32","新北市汐止區康寧街901號","121.65141","25.0750683333333","6501100","汐止區"
"221036","130-UY","2017/07/24 17:49:43","新北市汐止區吉祥街27巷16號","121.666745","25.0811533333333","6501100","汐止區"
"221015","131-UY","2017/07/24 17:49:35","新北市汐止區長江街59號","121.656518333333","25.0717016666667","6501100","汐止區"
"221010","269-BY","2017/07/24 17:49:33","新北市汐止區汐萬路一段401號","121.649405","25.0790283333333","6501100","汐止區"
"221031","277-VK","2017/07/24 17:49:42","新北市汐止區樟樹二路278號","121.640868333333","25.06832","6501100","汐止區"
"221012","278-VK","2017/07/24 17:49:04","新北市汐止區汐萬路一段158號","121.652631666667","25.0714","6501100","汐止區"
"221023","279-VK","2017/07/24 15:01:37","新北市汐止區康寧街901號","121.651661666667","25.0749716666667","6501100","汐止區"
"221038","297-VK","2017/07/24 17:49:43","新北市汐止區汐萬路一段310號","121.650363333333","25.07465","6501100","汐止區"
"221021","299-VK","2017/07/24 17:45:45","新北市汐止區長江街一段100巷1號","121.656271666667","25.0699266666667","6501100","汐止區"
"221035","622-UM","2017/07/24 17:49:48","新北市汐止區汐萬路一段144-2號","121.653048333333","25.0711116666667","6501100","汐止區"
"221025","623-UM","2017/07/24 17:49:41","新北市汐止區大同路二段175號","121.651645","25.0643016666667","6501100","汐止區"
"221033","647-BX","2017/07/24 17:49:38","新北市汐止區橫科路73巷20弄20號","121.619793333333","25.0516266666667","6501100","汐止區"
