"lineid","car","time","location","longitude","latitude","cityid","cityname"
"234026","9371-KE","2017/07/24 17:59:43","新北市永和區永和路一段45-1號","121.512826666667","25.0062633333333","6500400","永和區"
"234011","9373-KE","2017/07/24 17:59:44","新北市永和區福和路1號","121.52599","25.0092683333333","6500400","永和區"
"249005","172-UM","2017/07/24 17:37:54","新北市八里區荖阡坑路34號","121.40261","25.1297733333333","6502300","八里區"
"249004","303-UY","2017/07/24 17:59:44","新北市八里區中華路一段309巷19-13號","121.41722","25.1534016666667","6502300","八里區"
"249002","305-UY","2017/07/24 17:59:47","新北市八里區龍米路一段440巷10號","121.451346666667","25.1338983333333","6502300","八里區"
"249003","593-UM","2017/07/24 17:59:47","新北市八里區中山路二段137號","121.405318333333","25.1514533333333","6502300","八里區"
"249001","759-BX","2017/07/24 17:59:33","新北市八里區龍米路二段30號","121.448546666667","25.1399833333333","6502300","八里區"
"248014","025-BX","2017/07/24 17:59:38","新北市五股區更洲路70號","121.453366666667","25.078585","6501500","五股區"
"248016","026-BX","2017/07/24 17:59:30","新北市五股區中興路二段103巷16號","121.458601666667","25.0761933333333","6501500","五股區"
"248006","077-UY","2017/07/24 17:59:41","新北市五股區中興路二段37巷28號","121.460201666667","25.074955","6501500","五股區"
"248008","095-VK","2017/07/24 17:59:39","新北市五股區更洲路10號","121.45834","25.0787966666667","6501500","五股區"
"248020","225-UY","2017/07/24 17:59:32","新北市五股區中興路二段83巷26號","121.45908","25.0757266666667","6501500","五股區"
"248012","247-BX","2017/07/22 21:22:56","新北市五股區中興路二段37巷24號","121.460658333333","25.0750166666667","6501500","五股區"
"248010","272-BY","2017/07/24 17:59:37","新北市五股區中興路二段182巷5號","121.45707","25.0787283333333","6501500","五股區"
"248004","677-BX","2017/07/24 17:59:32","新北市五股區中興路二段180-1號","121.457561666667","25.0778283333333","6501500","五股區"
"232011","375-UM","2017/07/24 17:59:41","新北市坪林區水柳腳37號","121.709925","24.9352916666667","6502000","坪林區"
"244013","069-UM","2017/07/24 17:59:33","新北市林口區中山路125號","121.388868333333","25.078925","6501700","林口區"
"244007","080-UY","2017/07/24 17:59:41","新北市林口區竹林路155號","121.388728333333","25.0798033333333","6501700","林口區"
"244019","403-UM","2017/07/24 17:59:44","新北市林口區忠孝路552巷17-1號","121.37413","25.06718","6501700","林口區"
"244009","410-SL","2017/07/24 17:59:40","新北市林口區林口路241號","121.38661","25.08383","6501700","林口區"
"244023","483-VK","2017/07/24 17:59:48","新北市林口區東湖一街59號","121.386041666667","25.0726716666667","6501700","林口區"
"244017","485-VK","2017/07/24 17:59:31","新北市林口區文化二路一段230巷17號","121.370808333333","25.072285","6501700","林口區"
"244025","656-BX","2017/07/24 17:59:41","新北市林口區文化三路一段39巷177號","121.35917","25.0674983333333","6501700","林口區"
"244011","701-TV","2017/07/24 17:59:29","新北市林口區中正路114號","121.393453333333","25.0772783333333","6501700","林口區"
"244021","838-TS","2017/07/24 17:59:33","新北市林口區仁愛路一段123巷9號","121.398255","25.07064","6501700","林口區"
"243009","297-R6","2017/07/24 15:49:32","新北市泰山區黎明路25號","121.422041666667","25.0609683333333","6501600","泰山區"
"222003","436-BY","2017/07/24 17:59:36","新北市深坑區炮子崙24-1號","121.605708333333","24.9881516666667","6501800","深坑區"
"222001","628-TS","2017/07/24 17:59:29","新北市深坑區北深路三段25巷15-2號","121.608655","24.99954","6501800","深坑區"
"222002","659-BX","2017/07/24 17:59:46","新北市深坑區文化街98號","121.617015","25.0018716666667","6501800","深坑區"
"231046","278-BY","2017/07/24 17:59:44","新北市新店區康雅崙路3號","121.538746666667","24.9257983333333","6500600","新店區"
"241024","265-UM","2017/07/24 17:59:29","新北市三重區中正北路193巷35弄55號","121.4783","25.0711333333333","6500200","三重區"
"241016","266-UM","2017/07/24 17:59:38","新北市三重區新北大道一段7號","121.489725","25.0614816666667","6500200","三重區"
"241024","462-BY","2017/07/24 17:59:30","新北市三重區中正北路193巷35弄63號","121.478493333333","25.0712066666667","6500200","三重區"
"241005","887-TS","2017/07/24 17:59:46","新北市蘆洲區復興路355巷11-5號","121.48059","25.095795","6500200","三重區"
"241033","AAC-255","2017/07/24 17:59:43","新北市三重區重新路五段623號","121.46793","25.0441633333333","6500200","三重區"
"235065","098-UM","2017/07/24 17:59:35","新北市中和區連城路469巷79弄4號","121.483573333333","24.993695","6500300","中和區"
"235058","151-BY","2017/07/24 17:59:47","新北市中和區中正路637巷52弄1號","121.485423333333","24.9934633333333","6500300","中和區"
"235038","185-VK","2017/07/24 17:59:43","新北市中和區中正路501號","121.488813333333","24.994235","6500300","中和區"
"235067","255-BX","2017/07/24 17:59:31","新北市中和區和城路一段271巷1號","121.48552","24.991955","6500300","中和區"
"235061","378-QA","2017/07/24 15:46:19","新北市中和區員山路36巷16-3號","121.484525","24.9910966666667","6500300","中和區"
"235062","800-TS","2017/07/24 17:59:30","新北市中和區中正路637巷60弄61號","121.485428333333","24.992595","6500300","中和區"
"235064","911-UM","2017/07/24 15:55:09","新北市中和區員山路36巷16-3號","121.485041666667","24.9913466666667","6500300","中和區"
"247020","893-R6","2017/07/24 17:59:40","新北市蘆洲區民義街35巷16號","121.471565","25.0898633333333","6501400","蘆洲區"
"247018","500-BY","2017/07/24 17:59:29","新北市蘆洲區復興路296號","121.481083333333","25.0898133333333","6501400","蘆洲區"
"247001","402-BY","2017/07/24 16:16:09","新北市五股區中興路三段3-6號","121.44951","25.0788083333333","6501400","蘆洲區"
"247008","339-TH","2017/07/24 17:59:48","新北市蘆洲區信義路37巷9號","121.474185","25.0799766666667","6501400","蘆洲區"
"247024","337-TH","2017/07/24 17:59:39","新北市蘆洲區光復路30巷16號","121.463665","25.0843266666667","6501400","蘆洲區"
"247002","336-TH","2017/07/24 17:59:41","新北市蘆洲區永平街32巷45弄35號","121.458315","25.092945","6501400","蘆洲區"
"247014","057-VK","2017/07/24 17:59:41","新北市八里區荖阡坑路15-66號","121.398716666667","25.1399283333333","6501400","蘆洲區"
"247006","053-VK","2017/07/24 17:59:40","新北市蘆洲區九芎街189號","121.464565","25.07841","6501400","蘆洲區"
"247012","007-UY","2017/07/24 17:59:38","新北市蘆洲區民族路42號","121.476675","25.0845166666667","6501400","蘆洲區"
"247022","002-UY","2017/07/24 17:59:35","新北市蘆洲區中正路516巷21號","121.46297","25.09816","6501400","蘆洲區"
"228003","097-TW","2017/07/24 17:59:43","新北市貢寮區真理里美艷山街6-2號","121.928918333333","25.060705","6502600","貢寮區"
"228002","585-TW","2017/07/24 17:59:40","新北市貢寮區福連里香蘭街5號","121.974891666667","25.02423","6502600","貢寮區"
"228001","670-TC","2017/07/24 17:59:37","新北市貢寮區真理里新港街26巷48號","121.927745","25.0531716666667","6502600","貢寮區"
"224006","676-BX","2017/07/24 17:59:36","新北市瑞芳區瑞興新村12巷1號","121.788371666667","25.1082966666667","6501200","瑞芳區"
"224002","639-TC","2017/07/24 17:59:47","新北市瑞芳區三爪子坑路149號","121.81057","25.1063183333333","6501200","瑞芳區"
"224011","420-VK","2017/07/24 17:59:36","新北市瑞芳區逢甲路2-6號","121.812493333333","25.1079483333333","6501200","瑞芳區"
"224009","285-BY","2017/07/24 17:59:44","新北市瑞芳區山尖路2號","121.85426","25.116565","6501200","瑞芳區"
"224008","275-VK","2017/07/24 17:59:44","新北市瑞芳區明燈路一段45巷75號","121.82193","25.104775","6501200","瑞芳區"
"224007","273-VK","2017/07/24 17:59:40","新北市瑞芳區大寮路84號","121.780463333333","25.10129","6501200","瑞芳區"
"224005","271-BY","2017/07/24 17:59:37","新北市瑞芳區弘祥新村36號","121.817821666667","25.1284933333333","6501200","瑞芳區"
"253006","032-BX","2017/07/24 17:59:44","新北市石門區大丘田45-2號","121.549856666667","25.27481","6502200","石門區"
"253005","295-VK","2017/07/24 17:59:43","新北市石門區中山路62-11號","121.567573333333","25.2896216666667","6502200","石門區"
"208003","665-BX","2017/07/24 17:59:44","新北市金山區磺港里磺港路202-1號","121.64512","25.22749","6502700","金山區"
"208001","761-BX","2017/07/24 17:59:41","新北市金山區磺港里磺港路248號","121.64387","25.2250516666667","6502700","金山區"
"251009","008-UM","2017/07/24 17:32:30","新北市淡水區重建街1巷5號","121.439748333333","25.173565","6501000","淡水區"
"251004","009-UM","2017/07/24 17:59:39","新北市淡水區民權路187巷33號","121.461016666667","25.133565","6501000","淡水區"
"251007","179-VK","2017/07/24 17:59:35","新北市淡水區中正東路二段161巷11弄10號","121.461501666667","25.146045","6501000","淡水區"
"251008","181-VK","2017/07/24 17:59:34","新北市淡水區八勢一街51號","121.461916666667","25.1557333333333","6501000","淡水區"
"251013","182-VK","2017/07/24 17:59:29","新北市淡水區竹圍子7號","121.477518333333","25.1910983333333","6501000","淡水區"
"251010","413-VK","2017/07/24 17:59:29","新北市淡水區中正路一段87巷23弄2號","121.419483333333","25.1782133333333","6501000","淡水區"
"251012","441-VK","2017/07/24 17:59:43","新北市淡水區北新路三段10號","121.482763333333","25.18534","6501000","淡水區"
"251015","442-VK","2017/07/24 17:59:32","新北市淡水區興福寮88巷1號","121.485531666667","25.165075","6501000","淡水區"
"251005","443-VK","2017/07/24 17:59:27","新北市淡水區英專路130號","121.44643","25.1726333333333","6501000","淡水區"
"251001","559-UM","2017/07/24 17:59:36","新北市淡水區民權路14號","121.463048333333","25.1246866666667","6501000","淡水區"
"251006","561-UM","2017/07/24 17:59:31","新北市淡水區新生街18號","121.438898333333","25.1735083333333","6501000","淡水區"
"251011","650-BX","2017/07/24 17:59:41","新北市淡水區三空泉7-1號","121.476301666667","25.16252","6501000","淡水區"
"251002","672-BX","2017/07/24 17:59:41","新北市淡水區中正東路8-1號","121.44777","25.1668133333333","6501000","淡水區"
"251003","766-UM","2017/07/24 17:59:30","新北市淡水區大忠街79-1號","121.44586","25.177305","6501000","淡水區"
"207003","550-UM","2017/07/24 17:59:39","新北市萬里區港東路野柳風景區攤販80號","121.691158333333","25.205725","6502800","萬里區"
"207004","225-TW","2017/07/24 17:59:29","新北市萬里區中幅里中福路48號","121.683211666667","25.1740533333333","6502800","萬里區"
"252002","178-VK","2017/07/24 17:59:29","新北市三芝區中山路一段155號","121.502411666667","25.25594","6502100","三芝區"
"252001","702-TV","2017/07/24 17:59:29","新北市三芝區中興街一段31號","121.497426666667","25.25816","6502100","三芝區"
"208002","170-UY","2017/07/24 17:59:39","新北市金山區三界壇路91-1號","121.624861666667","25.2286416666667","6502700","金山區"
"237004","078-UY","2017/07/24 17:59:40","新北市三峽區中正路二段196號","121.365993333333","24.9148633333333","6500900","三峽區"
"237007","153-BY","2017/07/24 17:59:34","新北市三峽區中園街106-2號","121.36712","24.923265","6500900","三峽區"
"237009","210-TH","2017/07/24 17:59:29","新北市三峽區中山路106巷2號","121.366161666667","24.9360683333333","6500900","三峽區"
"237013","252-BX","2017/07/24 17:59:44","新北市三峽區介壽路一段176號","121.3773","24.9309233333333","6500900","三峽區"
"237012","275-BY","2017/07/24 17:59:30","新北市三峽區民生街27巷1號","121.376141666667","24.936235","6500900","三峽區"
"237008","302-VK","2017/07/24 17:59:47","新北市三峽區正義街206號","121.368035","24.9137616666667","6500900","三峽區"
"237014","433-BY","2017/07/24 17:59:27","新北市三峽區復興路101巷1弄73-2號","121.371273333333","24.93751","6500900","三峽區"
"237006","5529-G3","2017/07/24 17:59:36","新北市三峽區介壽路二段138巷1弄135號","121.399585","24.9309616666667","6500900","三峽區"
"237011","572-TV","2017/07/24 13:46:53","新北市三峽區中山路459巷163-3號","121.348681666667","24.9327816666667","6500900","三峽區"
"237015","649-BX","2017/07/24 17:59:48","新北市三峽區紫微路139號","121.40642","24.9114583333333","6500900","三峽區"
"237010","706-TV","2017/07/24 17:59:44","新北市三峽區中山路60號","121.368226666667","24.9346083333333","6500900","三峽區"
"237005","AKY-6261","2017/07/24 17:59:34","新北市三峽區和平街79巷15號","121.36977","24.9370583333333","6500900","三峽區"
"236069","105-UM","2017/07/24 17:59:35","新北市土城區城林路6巷80號","121.438456666667","24.9796933333333","6501300","土城區"
"236042","107-UM","2017/07/24 17:59:30","新北市土城區裕生路61號","121.447623333333","24.9859816666667","6501300","土城區"
"236078","166-UM","2017/07/24 17:59:28","新北市土城區永寧路32巷10弄3號","121.42885","24.9610283333333","6501300","土城區"
"236030","253-BX","2017/07/24 17:59:41","新北市土城區城林路6巷80號","121.438533333333","24.979825","6501300","土城區"
"236026","269-VK","2017/07/24 17:59:37","新北市土城區承天路18號","121.439471666667","24.963495","6501300","土城區"
"236014","270-VK","2017/07/24 17:59:31","新北市土城區城林路6巷80號","121.438503333333","24.9796033333333","6501300","土城區"
"236036","271-VK","2017/07/24 17:59:36","新北市土城區員林街55號","121.443528333333","24.977755","6501300","土城區"
"236020","401-BY","2017/07/24 17:59:39","新北市土城區城林路6巷80號","121.438745","24.9796466666667","6501300","土城區"
"236058","912-UM","2017/07/24 17:59:34","新北市土城區中央路三段140號","121.433226666667","24.9655516666667","6501300","土城區"
"236048","913-UM","2017/07/24 17:59:30","新北市土城區中央路二段280號","121.440816666667","24.9739783333333","6501300","土城區"
"236062","915-UM","2017/07/24 17:59:43","新北市土城區城林路6巷80號","121.438583333333","24.9798033333333","6501300","土城區"
"236053","AAC-216","2017/07/24 17:59:39","新北市土城區城林路6巷80號","121.438505","24.9795716666667","6501300","土城區"
"242021","AAC-296","2017/07/24 17:59:44","新北市新莊區中華路一段46號","121.45203","25.0379566666667","6500500","新莊區"
"242048","751-BX","2017/07/24 17:59:44","新北市新莊區後港二路18-1號","121.422598333333","25.02357","6500500","新莊區"
"242029","705-TV","2017/07/24 17:59:30","新北市新莊區中平路57號","121.444751666667","25.04444","6500500","新莊區"
"242025","615-BX","2017/07/24 17:59:43","新北市新莊區五工路86號","121.457231666667","25.0640233333333","6500500","新莊區"
"242023","613-BX","2017/07/24 17:59:42","新北市新莊區福壽街45號","121.45823","25.0487066666667","6500500","新莊區"
"242027","612-BX","2017/07/24 17:59:42","新北市新莊區思源路373號","121.459876666667","25.05103","6500500","新莊區"
"242036","566-BX","2017/07/24 17:59:40","新北市新莊區建福路29號","121.426371666667","25.0287716666667","6500500","新莊區"
"242042","497-BY","2017/07/24 17:59:35","新北市新莊區天祥街52號","121.416566666667","25.0290183333333","6500500","新莊區"
"242004","442-UM","2017/07/24 17:59:37","新北市新莊區福樂街71巷6號","121.45673","25.0475166666667","6500500","新莊區"
"242046","441-UM","2017/07/24 17:59:38","新北市新莊區福營路125巷3號","121.43317","25.03151","6500500","新莊區"
"242050","440-UM","2017/07/24 17:59:42","新北市新莊區龍安路492號","121.426426666667","25.0172883333333","6500500","新莊區"
"242031","415-TV","2017/07/24 17:59:49","新北市新莊區新泰路289巷3號","121.445336666667","25.0405233333333","6500500","新莊區"
"242002","413-TV","2017/07/24 17:59:34","新北市新莊區中正路153-2號","121.45594","25.0366833333333","6500500","新莊區"
"242039","400-BY","2017/07/24 17:59:44","新北市新莊區民安西路88巷12弄2號","121.425973333333","25.0200233333333","6500500","新莊區"
"242060","362-BY","2017/07/24 17:59:41","新北市新莊區新樹路331號","121.433186666667","25.01883","6500500","新莊區"
"242058","353-BY","2017/07/24 17:59:39","新北市新莊區雙鳳路134巷6號","121.41281","25.0280883333333","6500500","新莊區"
"242011","132-UY","2017/07/24 17:59:32","新北市新莊區中港路中慶巷27弄4號","121.450003333333","25.0536316666667","6500500","新莊區"
"242034","133-UY","2017/07/24 17:59:43","新北市新莊區福海街8號","121.44532","25.033455","6500500","新莊區"
"242019","135-UY","2017/07/24 17:59:43","新北市新莊區明中街43巷4號","121.457526666667","25.03897","6500500","新莊區"
"242044","172-VK","2017/07/24 17:59:40","新北市新莊區雙鳳路119號","121.41347","25.02806","6500500","新莊區"
"242007","173-VK","2017/07/24 17:59:42","新北市新莊區自信街65巷7號","121.455453333333","25.048685","6500500","新莊區"
"242013","175-VK","2017/07/24 17:59:43","新北市新莊區中和街125巷2號","121.44721","25.0486266666667","6500500","新莊區"
"242056","176-VK","2017/07/24 17:59:10","新北市新莊區豐年街126號","121.446491666667","25.0298133333333","6500500","新莊區"
"242017","348-TH","2017/07/24 17:59:33","新北市新莊區中和街60巷47號","121.450006666667","25.0450666666667","6500500","新莊區"
"242053","349-TH","2017/07/24 17:59:38","新北市新莊區光華街17號","121.428886666667","25.0108183333333","6500500","新莊區"
"242015","350-TH","2017/07/24 17:59:36","新北市新莊區中平路119巷10號","121.444283333333","25.0467166666667","6500500","新莊區"
"242009","351-TH","2017/07/24 17:59:36","新北市新莊區昌平街16號","121.45487","25.0527466666667","6500500","新莊區"
"238015","755-BX","2017/07/24 17:59:38","新北市樹林區啟智街80巷5號","121.419275","24.992175","6500700","樹林區"
"238023","601-UM","2017/07/24 17:59:48","新北市樹林區龍興街31巷21號","121.403738333333","25.01615","6500700","樹林區"
"238019","599-UM","2017/07/24 17:59:48","新北市樹林區和平街72號","121.42526","24.98246","6500700","樹林區"
"238018","571-TV","2017/07/24 17:59:45","新北市樹林區樹新路98號","121.429493333333","24.997635","6500700","樹林區"
"238022","312-TH","2017/07/24 17:59:46","新北市樹林區太順街52號","121.418171666667","24.97935","6500700","樹林區"
"238021","311-TH","2017/07/24 17:59:47","新北市樹林區柑園街一段36-8號","121.405435","24.9615283333333","6500700","樹林區"
"238025","303-VK","2017/07/24 17:59:38","新北市樹林區俊興街209-6號","121.41759","25.01453","6500700","樹林區"
"238017","283-BY","2017/07/24 17:59:43","新北市樹林區中正路651號","121.412558333333","25.0126533333333","6500700","樹林區"
"238014","282-BY","2017/07/24 17:59:47","新北市樹林區保安街一段195號","121.420946666667","24.9960133333333","6500700","樹林區"
"238020","268-VK","2017/07/24 17:56:06","新北市樹林區三俊街250號","121.421348333333","25.0149516666667","6500700","樹林區"
"238026","172-UY","2017/07/24 17:59:38","新北市樹林區中洲街30巷6弄4號","121.39732","24.9714266666667","6500700","樹林區"
"238016","169-UY","2017/07/24 17:59:31","新北市樹林區啟智街151巷3號","121.416665","24.987755","6500700","樹林區"
"239007","AAC-297","2017/07/24 17:59:36","新北市鶯歌區鶯桃路94巷59弄13號","121.341366666667","24.9552333333333","6500800","鶯歌區"
"239006","891-R6","2017/07/24 17:59:37","新北市鶯歌區鶯桃路455巷6弄6號","121.331825","24.9647316666667","6500800","鶯歌區"
"239008","527-UM","2017/07/24 17:59:39","新北市鶯歌區明圓街2號","121.336006666667","24.9777216666667","6500800","鶯歌區"
"239005","526-UM","2017/07/24 17:59:44","新北市鶯歌區大湖路361巷81-1號","121.33307","24.97392","6500800","鶯歌區"
"239001","417-VK","2017/07/24 17:59:48","新北市鶯歌區中正三路237號","121.334316666667","24.93909","6500800","鶯歌區"
"239003","360-BY","2017/07/24 17:59:43","新北市鶯歌區永吉街9巷1號","121.336515","24.958355","6500800","鶯歌區"
"221008","489-VK","2017/07/24 17:59:33","新北市汐止區明峰街13號","121.63513","25.07139","6501100","汐止區"
"221036","130-UY","2017/07/24 17:59:43","新北市汐止區大同路三段42號","121.667226666667","25.07668","6501100","汐止區"
"221015","131-UY","2017/07/24 17:59:35","新北市汐止區長江街267號","121.664273333333","25.08033","6501100","汐止區"
"221010","269-BY","2017/07/24 17:59:33","新北市汐止區汐萬路二段247號","121.646486666667","25.08823","6501100","汐止區"
"221031","277-VK","2017/07/24 17:59:42","新北市汐止區中興路86-5號","121.634726666667","25.0623366666667","6501100","汐止區"
"221012","278-VK","2017/07/24 17:59:05","新北市汐止區長興街二段6號","121.672308333333","25.0808783333333","6501100","汐止區"
"221023","279-VK","2017/07/24 15:01:37","新北市汐止區康寧街901號","121.651661666667","25.0749716666667","6501100","汐止區"
"221038","297-VK","2017/07/24 17:59:43","新北市汐止區連興街128巷7弄3號","121.653458333333","25.0614433333333","6501100","汐止區"
"221029","298-VK","2017/07/24 17:59:31","新北市汐止區樟樹二路332號","121.641531666667","25.07031","6501100","汐止區"
"221021","299-VK","2017/07/24 17:45:45","新北市汐止區長江街一段100巷1號","121.656271666667","25.0699266666667","6501100","汐止區"
"221035","622-UM","2017/07/24 17:59:48","新北市汐止區汐萬路一段115巷50號","121.652938333333","25.07035","6501100","汐止區"
"221025","623-UM","2017/07/24 17:59:41","新北市汐止區仁愛路16號","121.659693333333","25.063095","6501100","汐止區"
"221033","647-BX","2017/07/24 17:59:38","新北市汐止區合順街26號","121.619726666667","25.04312","6501100","汐止區"
"221002","707-TV","2017/07/24 17:59:46","新北市汐止區工建路203號","121.635876666667","25.0618366666667","6501100","汐止區"
