"lineid","car","time","location","longitude","latitude","cityid","cityname"
"234007","207-UY","2017/07/24 18:19:37","新北市永和區保生路55-1號","121.504753333333","25.0112266666667","6500400","永和區"
"234042","862-TW","2017/07/24 18:19:31","新北市永和區福和路1號","121.526485","25.0096783333333","6500400","永和區"
"234026","9371-KE","2017/07/24 18:19:43","新北市永和區豫溪街28巷22號","121.515005","25.008905","6500400","永和區"
"234011","9373-KE","2017/07/24 18:18:24","新北市永和區光復街31-1號","121.516385","25.0179933333333","6500400","永和區"
"249005","172-UM","2017/07/24 17:37:54","新北市八里區荖阡坑路34號","121.40261","25.1297733333333","6502300","八里區"
"249004","303-UY","2017/07/24 18:19:38","新北市八里區龍米路二段200巷5號","121.43378","25.1591816666667","6502300","八里區"
"249002","305-UY","2017/07/24 18:19:27","新北市八里區龍形五街15號","121.450031666667","25.1335716666667","6502300","八里區"
"249003","593-UM","2017/07/24 18:19:27","新北市八里區松子腳2號","121.403233333333","25.1448183333333","6502300","八里區"
"249001","759-BX","2017/07/24 18:19:33","新北市八里區龍米路一段125號","121.452246666667","25.126625","6502300","八里區"
"248014","025-BX","2017/07/24 18:19:37","新北市五股區自強路45號","121.43338","25.073685","6501500","五股區"
"248016","026-BX","2017/07/24 18:19:30","新北市五股區成泰路三段477巷9號","121.449923333333","25.0988366666667","6501500","五股區"
"248006","077-UY","2017/07/24 18:19:41","新北市五股區中興路一段169號","121.464728333333","25.073805","6501500","五股區"
"248008","095-VK","2017/07/24 18:19:39","新北市五股區更洲路32巷8弄14號","121.459261666667","25.0796133333333","6501500","五股區"
"248020","225-UY","2017/07/24 18:19:32","新北市五股區御史路160號","121.430505","25.1031433333333","6501500","五股區"
"248012","247-BX","2017/07/22 21:22:56","新北市五股區中興路二段37巷24號","121.460658333333","25.0750166666667","6501500","五股區"
"248010","272-BY","2017/07/24 18:19:37","新北市五股區成泰路一段139巷2弄2號","121.435075","25.0729816666667","6501500","五股區"
"248004","677-BX","2017/07/24 18:19:32","新北市五股區成泰路二段222-3號","121.439193333333","25.085535","6501500","五股區"
"248002","682-TV","2017/07/24 18:19:34","新北市五股區西雲路38號","121.443476666667","25.0908366666667","6501500","五股區"
"234023","9380-KE","2017/07/24 18:19:44","新北市永和區福和路1號","121.526188333333","25.0097133333333","6500400","永和區"
"232011","375-UM","2017/07/24 18:19:41","新北市坪林區坪雙路一段43號","121.711751666667","24.9424566666667","6502000","坪林區"
"244013","069-UM","2017/07/24 18:19:33","新北市林口區中山路138-1號","121.39171","25.0787083333333","6501700","林口區"
"244007","080-UY","2017/07/24 18:19:41","新北市林口區林口路113巷47號","121.38799","25.0799283333333","6501700","林口區"
"244019","403-UM","2017/07/24 18:19:44","新北市林口區文化一路一段100巷10弄1號","121.373965","25.0707816666667","6501700","林口區"
"244009","410-SL","2017/07/24 18:19:41","新北市林口區中山路577號","121.380533333333","25.0821433333333","6501700","林口區"
"244023","483-VK","2017/07/24 18:19:32","新北市林口區仁愛路二段82號","121.384318333333","25.075265","6501700","林口區"
"244017","485-VK","2017/07/24 18:19:31","新北市林口區八德路20巷11號","121.367671666667","25.0676333333333","6501700","林口區"
"244025","656-BX","2017/07/24 18:19:41","新北市林口區南勢二街62號","121.35579","25.0694466666667","6501700","林口區"
"244011","701-TV","2017/07/24 18:19:29","新北市林口區中正路106號","121.39374","25.0772233333333","6501700","林口區"
"244021","838-TS","2017/07/24 18:19:34","新北市林口區自強九街10號","121.400801666667","25.0760616666667","6501700","林口區"
"243013","AAD-798","2017/07/24 18:19:44","新北市泰山區南林路93號","121.415508333333","25.0511633333333","6501600","泰山區"
"243009","297-R6","2017/07/24 15:49:32","新北市泰山區黎明路25號","121.422041666667","25.0609683333333","6501600","泰山區"
"222003","436-BY","2017/07/24 18:19:36","新北市深坑區文山路二段3號","121.62298","25.0003466666667","6501800","深坑區"
"222001","628-TS","2017/07/24 18:19:29","新北市深坑區北深路二段51號","121.618981666667","25.0040166666667","6501800","深坑區"
"222002","659-BX","2017/07/24 18:19:46","新北市深坑區雲鄉路24號","121.621395","24.9996566666667","6501800","深坑區"
"231041","002-UM","2017/07/24 18:19:43","新北市新店區安華路28-1號","121.519535","24.960845","6500600","新店區"
"231056","0293-UT","2017/07/24 18:19:42","新北市新店區中央路220號","121.529756666667","24.9729916666667","6500600","新店區"
"231059","046-UY","2017/07/24 18:19:27","新北市新店區安華路28-1號","121.519531666667","24.96077","6500600","新店區"
"231061","047-UY","2017/07/24 18:19:27","新北市新店區安華路28-1號","121.519281666667","24.9608816666667","6500600","新店區"
"231060","106-UY","2017/07/24 18:19:28","新北市新店區安華路28-1號","121.519616666667","24.960765","6500600","新店區"
"231051","107-UY","2017/07/24 18:19:42","新北市新店區安華路28-1號","121.519473333333","24.9611766666667","6500600","新店區"
"231047","108-UY","2017/07/24 18:19:29","新北市新店區安華路28-1號","121.519415","24.9611566666667","6500600","新店區"
"231052","187-VK","2017/07/24 18:19:30","新北市新店區安康路一段11號","121.533433333333","24.9604116666667","6500600","新店區"
"231057","256-BX","2017/07/24 18:19:40","新北市新店區安華路28-1號","121.51973","24.961075","6500600","新店區"
"231063","268-BY","2017/07/24 18:19:46","新北市新店區安華路1-1號","121.519416666667","24.9604833333333","6500600","新店區"
"231046","278-BY","2017/07/24 18:19:44","新北市新店區直潭七街60號","121.532238333333","24.9398233333333","6500600","新店區"
"231058","3712-VJ","2017/07/24 18:19:33","新北市新店區環河路9號","121.537945","24.9612733333333","6500600","新店區"
"231055","3713-VJ","2017/07/24 18:19:34","新北市新店區安康路一段35-5號","121.531926666667","24.96065","6500600","新店區"
"231067","4772-VM","2017/07/24 18:19:37","新北市新店區安華路28-1號","121.519363333333","24.9606483333333","6500600","新店區"
"231065","512-UM","2017/07/24 18:19:40","新北市新店區安華路28-1號","121.519388333333","24.9611716666667","6500600","新店區"
"231054","513-UM","2017/07/24 18:19:33","新北市新店區安華路28-1號","121.519603333333","24.9611433333333","6500600","新店區"
"231045","617-UM","2017/07/24 18:19:33","新北市新店區安華路28-1號","121.519421666667","24.9608183333333","6500600","新店區"
"231040","619-UM","2017/07/24 18:19:38","新北市新店區安華路28-1號","121.519453333333","24.960905","6500600","新店區"
"231042","641-BX","2017/07/24 18:19:33","新北市新店區安華路1-1號","121.519508333333","24.9604983333333","6500600","新店區"
"231049","719-UM","2017/07/24 18:19:32","新北市新店區安華路28-1號","121.519488333333","24.9611833333333","6500600","新店區"
"231044","897-TW","2017/07/24 18:19:46","新北市新店區安華路28-1號","121.5194","24.96065","6500600","新店區"
"231066","AKT-0513","2017/07/24 18:19:32","新北市新店區安康路一段355-3號","121.519651666667","24.96155","6500600","新店區"
"241024","265-UM","2017/07/24 18:19:29","新北市三重區重化街3號","121.468385","25.06435","6500200","三重區"
"241033","AAC-255","2017/07/24 18:19:42","新北市三重區中興北街42巷56號","121.467746666667","25.0492316666667","6500200","三重區"
"235066","003-UY","2017/07/24 18:19:35","新北市中和區中山路二段136號","121.502115","25.00315","6500300","中和區"
"235056","096-UM","2017/07/24 18:19:33","新北市中和區中山路二段586-2號","121.482226666667","25.0052433333333","6500300","中和區"
"235039","097-UM","2017/07/24 18:19:35","新北市中和區中正路252號","121.495625","24.9939716666667","6500300","中和區"
"235065","098-UM","2017/07/24 18:19:35","新北市中和區莊敬路49巷18號","121.501638333333","25.006065","6500300","中和區"
"235040","150-BY","2017/07/24 18:19:27","新北市中和區安平路38號","121.509811666667","24.994995","6500300","中和區"
"235058","151-BY","2017/07/24 18:19:27","新北市中和區圓通路367巷57弄1號","121.492248333333","24.98369","6500300","中和區"
"235055","183-VK","2017/07/24 16:34:18","新北市中和區員山路36巷16-3號","121.48493","24.99119","6500300","中和區"
"235038","185-VK","2017/07/24 18:19:43","新北市中和區大智街57號","121.521163333333","24.9920816666667","6500300","中和區"
"235013","186-VK","2017/07/24 18:19:27","新北市中和區中正路637巷60弄61號","121.485476666667","24.9930316666667","6500300","中和區"
"235067","255-BX","2017/07/24 18:19:31","新北市中和區和城路一段271巷1號","121.485438333333","24.9918433333333","6500300","中和區"
"235043","352-BY","2017/07/24 18:19:27","新北市中和區景平路371號","121.504288333333","24.993475","6500300","中和區"
"235051","376-QA","2017/07/24 18:19:37","新北市中和區興南路一段86號","121.509996666667","24.989395","6500300","中和區"
"235068","377-QA","2017/07/24 18:19:41","新北市中和區員山路36巷16-3號","121.485166666667","24.9911366666667","6500300","中和區"
"235061","378-QA","2017/07/24 18:19:44","新北市中和區連城路518巷1號","121.476551666667","24.991785","6500300","中和區"
"235050","4979-A6","2017/07/24 18:18:32","新北市中和區南山路277號","121.504055","24.9923283333333","6500300","中和區"
"235069","4980-A6","2017/07/24 18:19:35","新北市中和區連城路126號","121.49603","24.9992416666667","6500300","中和區"
"235042","551-UM","2017/07/24 18:19:28","新北市中和區大仁街20巷25弄23號","121.518811666667","24.9936166666667","6500300","中和區"
"235070","558-UM","2017/07/24 18:19:35","新北市中和區錦和路350-1號","121.490551666667","24.9935633333333","6500300","中和區"
"235045","565-BX","2017/07/24 18:19:24","新北市中和區中正路13號","121.503103333333","24.9933483333333","6500300","中和區"
"235054","640-BX","2017/07/24 18:19:28","新北市土城區延壽路118-4號","121.469101666667","24.9943666666667","6500300","中和區"
"235060","647-TV","2017/07/24 18:19:37","新北市中和區員山路36巷16-3號","121.485135","24.9914233333333","6500300","中和區"
"235047","732-UM","2017/07/24 18:19:43","新北市中和區中正路175號","121.497395","24.993635","6500300","中和區"
"235071","783-BX","2017/07/24 18:19:41","新北市中和區員山路36巷20號","121.485586666667","24.9909483333333","6500300","中和區"
"235062","800-TS","2017/07/24 18:19:30","新北市中和區景平路999巷1號","121.49547","25.0060083333333","6500300","中和區"
"235052","805-TS","2017/07/24 18:19:44","新北市中和區興南路二段94號","121.505365","24.9842383333333","6500300","中和區"
"235048","896-TW","2017/07/24 18:19:41","新北市中和區員山路36巷16-2號","121.485326666667","24.9916933333333","6500300","中和區"
"235053","900-TW","2017/07/24 18:19:23","新北市中和區中正路637巷52弄1號","121.485463333333","24.99339","6500300","中和區"
"235064","911-UM","2017/07/24 18:19:39","新北市中和區圓通路141巷50弄5號","121.499008333333","24.994175","6500300","中和區"
"235037","AAC-213","2017/07/24 18:19:36","新北市中和區景平路149號","121.513908333333","24.992305","6500300","中和區"
"235059","AAC-215","2017/07/24 18:19:36","新北市中和區員山路36巷16-3號","121.484996666667","24.9910916666667","6500300","中和區"
"220068","013-TV","2017/07/24 18:19:37","新北市板橋區民生路二段15-1號","121.472748333333","25.0164416666667","6500100","板橋區"
"247001","402-BY","2017/07/24 16:16:09","新北市五股區中興路三段3-6號","121.44951","25.0788083333333","6501400","蘆洲區"
"247014","057-VK","2017/07/24 18:19:41","新北市八里區中華路三段27號","121.396518333333","25.1430366666667","6501400","蘆洲區"
"247006","053-VK","2017/07/24 18:19:40","新北市五股區中興路二段182巷15弄13號","121.45687","25.0817683333333","6501400","蘆洲區"
"247012","007-UY","2017/07/24 18:19:38","新北市八里區商港路105巷15號","121.388668333333","25.1471166666667","6501400","蘆洲區"
"226004","312-R5","2017/07/24 18:19:30","新北市平溪區靜安路二段22號","121.713055","25.02037","6502400","平溪區"
"228003","097-TW","2017/07/24 18:19:42","新北市貢寮區真理里美艷山街61-3號","121.923133333333","25.0697616666667","6502600","貢寮區"
"228002","585-TW","2017/07/24 18:19:40","新北市貢寮區福連里福興街39-3號","121.993813333333","25.0134016666667","6502600","貢寮區"
"228001","670-TC","2017/07/24 18:19:37","新北市貢寮區真理里新港街26巷55弄2-1號","121.927361666667","25.0528333333333","6502600","貢寮區"
"224006","676-BX","2017/07/24 18:19:36","新北市瑞芳區民權街3-2號","121.808066666667","25.10737","6501200","瑞芳區"
"224002","639-TC","2017/07/24 18:19:27","新北市瑞芳區三爪子坑路149號","121.810573333333","25.106295","6501200","瑞芳區"
"224011","420-VK","2017/07/24 18:18:56","新北市瑞芳區崙頂路3-1號","121.847006666667","25.1046916666667","6501200","瑞芳區"
"224009","285-BY","2017/07/24 18:19:43","新北市瑞芳區金光路250號","121.855291666667","25.10651","6501200","瑞芳區"
"224008","275-VK","2017/07/24 18:19:44","新北市瑞芳區逢甲路84號","121.809706666667","25.1087416666667","6501200","瑞芳區"
"224007","273-VK","2017/07/24 18:19:40","新北市瑞芳區大埔路61號","121.764346666667","25.10196","6501200","瑞芳區"
"224005","271-BY","2017/07/24 18:19:29","新北市瑞芳區建基路二段84號","121.814493333333","25.1297766666667","6501200","瑞芳區"
"227008","642-TC","2017/07/24 18:19:37","新北市雙溪區牡丹里牡丹73號","121.851733333333","25.0593233333333","6502500","雙溪區"
"227001","400-TW","2017/07/24 18:19:32","新北市雙溪區共和里中山路2號","121.86377","25.0337633333333","6502500","雙溪區"
"253006","032-BX","2017/07/24 18:19:44","新北市石門區老梅路65號","121.545838333333","25.2892416666667","6502200","石門區"
"253005","295-VK","2017/07/24 18:19:43","新北市石門區中央路37-1號","121.568026666667","25.2945716666667","6502200","石門區"
"208003","665-BX","2017/07/24 18:19:44","新北市金山區民生路192號","121.646845","25.2229183333333","6502700","金山區"
"208001","761-BX","2017/07/24 18:19:41","新北市金山區環金路19號","121.641086666667","25.2176516666667","6502700","金山區"
"251004","009-UM","2017/07/24 18:19:39","新北市淡水區民族路31巷2號","121.4624","25.13638","6501000","淡水區"
"251007","179-VK","2017/07/24 18:19:35","新北市淡水區中正東路二段143巷2弄1號","121.460723333333","25.1472783333333","6501000","淡水區"
"251008","181-VK","2017/07/24 18:19:34","新北市淡水區淡金路一段8號","121.4609","25.1696366666667","6501000","淡水區"
"251013","182-VK","2017/07/24 18:19:41","新北市淡水區行忠路850號","121.477628333333","25.20007","6501000","淡水區"
"251010","413-VK","2017/07/24 18:19:29","新北市淡水區中正路二段85號","121.419093333333","25.186455","6501000","淡水區"
"251012","441-VK","2017/07/24 18:19:43","新北市淡水區北新路二段77-5號","121.480483333333","25.18563","6501000","淡水區"
"251015","442-VK","2017/07/24 18:19:32","新北市淡水區興福寮88巷1號","121.485538333333","25.1650666666667","6501000","淡水區"
"251005","443-VK","2017/07/24 18:19:27","新北市淡水區學府路51巷6弄7號","121.447478333333","25.1702266666667","6501000","淡水區"
"251001","559-UM","2017/07/24 18:19:36","新北市淡水區自強路110-8號","121.461671666667","25.131305","6501000","淡水區"
"251006","561-UM","2017/07/24 18:19:31","新北市淡水區新民街74號","121.43863","25.1764083333333","6501000","淡水區"
"251011","650-BX","2017/07/24 18:19:41","新北市淡水區坪頂路51巷2號","121.458088333333","25.162555","6501000","淡水區"
"251002","672-BX","2017/07/24 18:19:41","新北市淡水區中正東路一段87-3號","121.453156666667","25.1619783333333","6501000","淡水區"
"251003","766-UM","2017/07/24 18:19:30","新北市淡水區北新路180號","121.449443333333","25.1787283333333","6501000","淡水區"
"207003","550-UM","2017/07/24 18:19:39","新北市萬里區野柳里港東路23號","121.687351666667","25.2036816666667","6502800","萬里區"
"207004","225-TW","2017/07/24 18:19:29","新北市萬里區中幅里中福路177號","121.674371666667","25.1653566666667","6502800","萬里區"
"252002","178-VK","2017/07/24 18:19:29","新北市三芝區中山路二段41號","121.50295","25.2550833333333","6502100","三芝區"
"252003","249-BX","2017/07/24 18:19:34","新北市三芝區錫板里南勢崗8號","121.479183333333","25.261855","6502100","三芝區"
"252001","702-TV","2017/07/24 18:19:29","新北市三芝區中興街二段2號","121.498345","25.2566983333333","6502100","三芝區"
"208002","170-UY","2017/07/24 18:19:35","新北市金山區磺清路135號","121.639376666667","25.2274483333333","6502700","金山區"
"237004","078-UY","2017/07/24 18:19:40","新北市三峽區圳頭94號","121.380001666667","24.8776116666667","6500900","三峽區"
"237007","153-BY","2017/07/24 18:19:34","新北市三峽區中正路二段488號","121.363083333333","24.9069683333333","6500900","三峽區"
"237009","210-TH","2017/07/24 18:19:36","新北市三峽區大勇路30號","121.367163333333","24.9373983333333","6500900","三峽區"
"237013","252-BX","2017/07/24 18:19:34","新北市三峽區長泰街41巷3號","121.377665","24.9322916666667","6500900","三峽區"
"237012","275-BY","2017/07/24 18:19:30","新北市三峽區民生街19巷7弄16號","121.376851666667","24.935745","6500900","三峽區"
"237008","302-VK","2017/07/24 18:19:27","新北市三峽區白雞68-85號","121.392643333333","24.9085816666667","6500900","三峽區"
"237014","433-BY","2017/07/24 18:19:27","新北市三峽區復興路110巷4弄9號","121.373316666667","24.9384033333333","6500900","三峽區"
"237006","5529-G3","2017/07/24 18:19:36","新北市三峽區溪東路235號","121.406488333333","24.9325883333333","6500900","三峽區"
"237011","572-TV","2017/07/24 13:46:53","新北市三峽區中山路459巷163-3號","121.348681666667","24.9327816666667","6500900","三峽區"
"237015","649-BX","2017/07/24 18:19:28","新北市三峽區紫微路42-1號","121.422313333333","24.919825","6500900","三峽區"
"237010","706-TV","2017/07/24 18:19:43","新北市三峽區民族街15號","121.369363333333","24.930905","6500900","三峽區"
"237005","AKY-6261","2017/07/24 18:19:34","新北市三峽區民權街42號","121.369735","24.9335766666667","6500900","三峽區"
"236069","105-UM","2017/07/24 18:19:35","新北市土城區明德路一段107號","121.4656","24.982285","6501300","土城區"
"236042","107-UM","2017/07/24 18:19:30","新北市土城區裕生路21巷2弄32號","121.447893333333","24.9862066666667","6501300","土城區"
"236078","166-UM","2017/07/24 18:19:28","新北市土城區永平街9號","121.427926666667","24.9629266666667","6501300","土城區"
"236030","253-BX","2017/07/24 18:19:41","新北市土城區順風路44號","121.440348333333","24.9769766666667","6501300","土城區"
"236026","269-VK","2017/07/24 18:19:37","新北市土城區承天路20號","121.439525","24.9633716666667","6501300","土城區"
"236014","270-VK","2017/07/24 18:19:31","新北市土城區青雲路39巷7號","121.460261666667","24.9874016666667","6501300","土城區"
"236036","271-VK","2017/07/24 18:19:42","新北市土城區青雲路483巷9號","121.459351666667","24.9734733333333","6501300","土城區"
"236020","401-BY","2017/07/24 18:19:39","新北市土城區清水路27號","121.454403333333","24.980205","6501300","土城區"
"236058","912-UM","2017/07/24 18:19:34","新北市土城區中央路四段207號","121.41406","24.95594","6501300","土城區"
"236048","913-UM","2017/07/24 18:19:30","新北市土城區青雲路453號","121.458733333333","24.974645","6501300","土城區"
"236062","915-UM","2017/07/24 18:19:43","新北市土城區金城路三段202-3號","121.469425","24.9885483333333","6501300","土城區"
"236053","AAC-216","2017/07/24 18:19:39","新北市土城區中華路二段98號","121.438155","24.9744033333333","6501300","土城區"
"242021","AAC-296","2017/07/24 18:19:41","新北市新莊區新興街80號","121.450675","25.03827","6500500","新莊區"
"242029","705-TV","2017/07/24 18:19:30","新北市泰山區信華六街2號","121.442013333333","25.04513","6500500","新莊區"
"242025","615-BX","2017/07/24 18:19:43","新北市新莊區五權一路12巷9弄6號","121.457351666667","25.06474","6500500","新莊區"
"242027","612-BX","2017/07/24 18:19:36","新北市新莊區幸福路908號","121.442848333333","25.049095","6500500","新莊區"
"242036","566-BX","2017/07/24 18:19:40","新北市新莊區後港一路49巷3弄11號","121.425093333333","25.02664","6500500","新莊區"
"242042","497-BY","2017/07/24 18:19:35","新北市新莊區天祥街81巷28號","121.415078333333","25.0284766666667","6500500","新莊區"
"242004","442-UM","2017/07/24 18:19:37","新北市新莊區新泰路351號","121.444568333333","25.0423216666667","6500500","新莊區"
"242046","441-UM","2017/07/24 18:19:38","新北市新莊區民安路44號","121.42279","25.0275083333333","6500500","新莊區"
"242050","440-UM","2017/07/24 18:19:42","新北市新莊區民本街9號","121.427728333333","25.0198733333333","6500500","新莊區"
"242031","415-TV","2017/07/24 18:19:29","新北市新莊區新泰路255巷64號","121.443573333333","25.039605","6500500","新莊區"
"242002","413-TV","2017/07/24 18:19:34","新北市新莊區碧江街27號","121.45354","25.03367","6500500","新莊區"
"242060","362-BY","2017/07/24 18:19:41","新北市新莊區富國路178號","121.42428","25.02452","6500500","新莊區"
"242058","353-BY","2017/07/24 18:19:42","新北市新莊區中正路905號","121.411168333333","25.0213816666667","6500500","新莊區"
"242011","132-UY","2017/07/24 18:19:32","新北市新莊區中榮街36號","121.449486666667","25.0528316666667","6500500","新莊區"
"242034","133-UY","2017/07/24 18:19:43","新北市新莊區新莊路592號","121.444011666667","25.0329016666667","6500500","新莊區"
"242044","172-VK","2017/07/24 18:19:40","新北市新莊區天祥街15巷31號","121.41568","25.0273733333333","6500500","新莊區"
"242007","173-VK","2017/07/24 18:19:42","新北市新莊區自治街39號","121.454265","25.0479366666667","6500500","新莊區"
"242056","176-VK","2017/07/24 18:19:30","新北市新莊區瓊林路33-1號","121.445575","25.0280083333333","6500500","新莊區"
"242053","349-TH","2017/07/24 18:19:38","新北市新莊區民安西路410巷5號","121.428418333333","25.009435","6500500","新莊區"
"242015","350-TH","2017/07/24 18:19:36","新北市新莊區中平路184巷10弄16號","121.445525","25.048235","6500500","新莊區"
"238015","755-BX","2017/07/24 18:19:31","新北市樹林區文化街112巷15號","121.416886666667","24.9900933333333","6500700","樹林區"
"238023","601-UM","2017/07/24 18:19:39","新北市樹林區三福街67巷3號","121.40795","25.01594","6500700","樹林區"
"238019","599-UM","2017/07/24 18:19:26","新北市樹林區中華路190-16號","121.411771666667","24.9806016666667","6500700","樹林區"
"238018","571-TV","2017/07/24 18:19:45","新北市樹林區博愛一街29巷1號","121.425683333333","24.991065","6500700","樹林區"
"238024","5061-A6","2017/07/24 18:19:36","新北市樹林區中山路一段137巷7號","121.422803333333","24.98958","6500700","樹林區"
"238021","311-TH","2017/07/24 18:19:28","新北市樹林區柑園街二段9號","121.38814","24.9557966666667","6500700","樹林區"
"238025","303-VK","2017/07/24 18:19:38","新北市樹林區保安街一段258號","121.419838333333","24.9967883333333","6500700","樹林區"
"238017","283-BY","2017/07/24 18:19:43","新北市樹林區保安街二段333巷16號","121.411248333333","25.0076083333333","6500700","樹林區"
"238014","282-BY","2017/07/24 18:19:27","新北市樹林區潭興街91巷1弄1號","121.424421666667","24.9986783333333","6500700","樹林區"
"238020","268-VK","2017/07/24 18:05:46","新北市樹林區俊興街257號","121.417981666667","25.0165083333333","6500700","樹林區"
"238026","172-UY","2017/07/24 18:19:38","新北市樹林區佳園路一段41巷28弄14號","121.394725","24.970385","6500700","樹林區"
"238016","169-UY","2017/07/24 18:19:31","新北市樹林區文化街28號","121.419298333333","24.9876966666667","6500700","樹林區"
"239007","AAC-297","2017/07/24 18:19:36","新北市鶯歌區尖山埔路35號","121.348786666667","24.9510133333333","6500800","鶯歌區"
"239006","891-R6","2017/07/24 18:19:37","新北市鶯歌區德昌街140巷12號","121.33211","24.9609583333333","6500800","鶯歌區"
"239008","527-UM","2017/07/24 18:19:39","新北市鶯歌區國際一路14號","121.336183333333","24.9765116666667","6500800","鶯歌區"
"239005","526-UM","2017/07/24 18:19:44","新北市鶯歌區鳳七路101巷8號","121.329628333333","24.97047","6500800","鶯歌區"
"239001","417-VK","2017/07/24 18:19:28","新北市鶯歌區中正三路福德巷10號","121.340833333333","24.9410116666667","6500800","鶯歌區"
"239003","360-BY","2017/07/24 18:19:43","新北市鶯歌區福安街58號","121.335616666667","24.96517","6500800","鶯歌區"
"239004","193-VK","2017/07/24 18:19:35","新北市鶯歌區尖山路174巷31號","121.344401666667","24.9484733333333","6500800","鶯歌區"
"221008","489-VK","2017/07/24 18:19:32","新北市汐止區康寧街484號","121.632535","25.0684283333333","6501100","汐止區"
"221036","130-UY","2017/07/24 18:19:43","新北市汐止區長安路83號","121.669295","25.0784533333333","6501100","汐止區"
"221015","131-UY","2017/07/24 18:19:35","新北市汐止區鄉長路二段23巷5號","121.667385","25.0826016666667","6501100","汐止區"
"221010","269-BY","2017/07/24 18:19:33","新北市汐止區祥雲街18巷10號","121.646611666667","25.0896033333333","6501100","汐止區"
"221031","277-VK","2017/07/24 18:19:42","新北市汐止區中興路131號","121.631843333333","25.065405","6501100","汐止區"
"221012","278-VK","2017/07/24 18:19:45","新北市汐止區保長路35巷15弄8號","121.67305","25.080315","6501100","汐止區"
"221023","279-VK","2017/07/24 15:01:37","新北市汐止區康寧街901號","121.651661666667","25.0749716666667","6501100","汐止區"
"221032","280-BY","2017/07/24 18:19:32","新北市汐止區民權街二段109巷32號","121.619936666667","25.046225","6501100","汐止區"
"221038","297-VK","2017/07/24 18:19:43","新北市汐止區仁愛路320號","121.664733333333","25.067555","6501100","汐止區"
"221029","298-VK","2017/07/24 18:19:31","新北市汐止區康寧街777-1號","121.644865","25.0755483333333","6501100","汐止區"
"221021","299-VK","2017/07/24 17:45:45","新北市汐止區長江街一段100巷1號","121.656271666667","25.0699266666667","6501100","汐止區"
"221035","622-UM","2017/07/24 18:19:28","新北市汐止區大同路二段183號","121.652066666667","25.064445","6501100","汐止區"
"221025","623-UM","2017/07/24 18:19:41","新北市汐止區勤進路12巷37號","121.659185","25.062665","6501100","汐止區"
"221033","647-BX","2017/07/24 18:19:38","新北市汐止區宜興街40巷20號","121.622571666667","25.0413066666667","6501100","汐止區"
"221002","707-TV","2017/07/24 18:19:46","新北市汐止區福德一路201巷30號","121.635893333333","25.0650016666667","6501100","汐止區"
