"lineid","car","time","location","longitude","latitude","cityid","cityname"
"234046","148-BY","2017/07/24 18:29:27","新北市永和區福和路1號","121.526505","25.0099183333333","6500400","永和區"
"234013","149-BY","2017/07/24 18:29:28","新北市永和區福和路1號","121.526316666667","25.0097466666667","6500400","永和區"
"234007","207-UY","2017/07/24 18:29:37","新北市永和區環河西路二段217巷1號","121.501465","25.0100816666667","6500400","永和區"
"234081","298-R6","2017/07/24 18:29:46","新北市永和區環河東路三段42號","121.526628333333","25.0066066666667","6500400","永和區"
"234086","338-UY","2017/07/24 18:29:34","新北市永和區福和路1號","121.525081666667","25.009015","6500400","永和區"
"234042","862-TW","2017/07/24 18:29:31","新北市永和區福和路8巷3號","121.52497","25.0091","6500400","永和區"
"234026","9371-KE","2017/07/24 18:29:23","新北市永和區中正路623號","121.515961666667","25.0098466666667","6500400","永和區"
"234011","9373-KE","2017/07/24 18:29:44","新北市永和區信義路120號","121.5124","25.0146583333333","6500400","永和區"
"249005","172-UM","2017/07/24 18:29:33","新北市八里區中華路三段92號","121.393211666667","25.139065","6502300","八里區"
"249004","303-UY","2017/07/24 18:29:24","新北市八里區文心街75號","121.428001666667","25.16095","6502300","八里區"
"249002","305-UY","2017/07/24 18:19:27","新北市八里區龍形五街15號","121.450031666667","25.1335716666667","6502300","八里區"
"249001","759-BX","2017/07/24 18:29:33","新北市八里區龍米路一段142號","121.452913333333","25.12566","6502300","八里區"
"248014","025-BX","2017/07/24 18:29:37","新北市五股區明德路7巷31號","121.434725","25.070835","6501500","五股區"
"248016","026-BX","2017/07/24 18:29:30","新北市五股區凌雲路一段83巷22弄1號","121.449886666667","25.1007383333333","6501500","五股區"
"248006","077-UY","2017/07/24 18:29:44","新北市五股區四維路25號","121.467148333333","25.070775","6501500","五股區"
"248008","095-VK","2017/07/24 18:29:39","新北市五股區四維路185巷42弄1號","121.46338","25.0768916666667","6501500","五股區"
"248020","225-UY","2017/07/24 18:29:32","新北市五股區民義路二段52巷22號","121.415528333333","25.1113166666667","6501500","五股區"
"248012","247-BX","2017/07/22 21:22:56","新北市五股區中興路二段37巷24號","121.460658333333","25.0750166666667","6501500","五股區"
"248010","272-BY","2017/07/24 18:29:37","新北市五股區明德路8號","121.433363333333","25.071695","6501500","五股區"
"248004","677-BX","2017/07/24 18:29:31","新北市五股區六合街3號","121.43198","25.0884966666667","6501500","五股區"
"248002","682-TV","2017/07/24 18:29:34","新北市五股區西雲路147號","121.445163333333","25.09396","6501500","五股區"
"234023","9380-KE","2017/07/24 18:29:24","新北市永和區福和路1號","121.52606","25.0096416666667","6500400","永和區"
"232011","375-UM","2017/07/24 18:29:41","新北市坪林區坪雙路一段43號","121.711711666667","24.9425233333333","6502000","坪林區"
"244013","069-UM","2017/07/24 18:29:33","新北市林口區林口路39號","121.390195","25.0788466666667","6501700","林口區"
"244007","080-UY","2017/07/24 18:29:41","新北市林口區後湖17號","121.387011666667","25.0974983333333","6501700","林口區"
"244019","403-UM","2017/07/24 18:29:44","新北市林口區忠孝路559號","121.372785","25.068305","6501700","林口區"
"244009","410-SL","2017/07/24 18:29:40","新北市林口區民生路166號","121.37974","25.087825","6501700","林口區"
"244023","483-VK","2017/07/24 18:29:32","新北市林口區四維路245巷20號","121.382068333333","25.0751016666667","6501700","林口區"
"244017","485-VK","2017/07/24 18:29:31","新北市林口區文化二路一段22號","121.364656666667","25.06725","6501700","林口區"
"244025","656-BX","2017/07/24 18:29:41","新北市林口區南勢四街216巷1號","121.356676666667","25.0735716666667","6501700","林口區"
"244011","701-TV","2017/07/24 18:29:29","新北市林口區興林路17巷3弄2號","121.390295","25.0769933333333","6501700","林口區"
"244021","838-TS","2017/07/24 18:29:33","新北市林口區自強二街6號","121.3974","25.0784133333333","6501700","林口區"
"243013","AAD-798","2017/07/24 18:29:25","新北市泰山區工專路2號","121.42412","25.039465","6501600","泰山區"
"243009","297-R6","2017/07/24 15:49:32","新北市泰山區黎明路25號","121.422041666667","25.0609683333333","6501600","泰山區"
"243012","646-TV","2017/07/24 18:29:39","新北市泰山區忠孝街16巷1號","121.427636666667","25.065025","6501600","泰山區"
"222003","436-BY","2017/07/24 18:29:36","新北市深坑區旺耽路35號","121.627523333333","25.0042033333333","6501800","深坑區"
"222001","628-TS","2017/07/24 18:29:29","新北市深坑區北深路一段199號","121.630406666667","25.0089666666667","6501800","深坑區"
"222002","659-BX","2017/07/24 18:29:26","新北市深坑區雲鄉路135號","121.622586666667","24.9980733333333","6501800","深坑區"
"231041","002-UM","2017/07/24 18:29:23","新北市新店區安華路28-1號","121.519545","24.9608416666667","6500600","新店區"
"231056","0293-UT","2017/07/24 18:29:42","新北市新店區二十張路143-1號","121.535161666667","24.9788366666667","6500600","新店區"
"231059","046-UY","2017/07/24 18:29:27","新北市新店區安華路28-1號","121.519545","24.9608266666667","6500600","新店區"
"231061","047-UY","2017/07/24 18:29:27","新北市新店區安華路28-1號","121.519301666667","24.9608616666667","6500600","新店區"
"231060","106-UY","2017/07/24 18:29:28","新北市新店區安華路28-1號","121.519596666667","24.960775","6500600","新店區"
"231051","107-UY","2017/07/24 18:29:42","新北市新店區安華路28-1號","121.519435","24.96115","6500600","新店區"
"231047","108-UY","2017/07/24 18:29:29","新北市新店區安華路28-1號","121.51948","24.9611016666667","6500600","新店區"
"231052","187-VK","2017/07/24 18:29:30","新北市新店區北宜路一段286號","121.546658333333","24.9526416666667","6500600","新店區"
"231057","256-BX","2017/07/24 18:29:40","新北市新店區北宜路一段106號","121.539035","24.9553383333333","6500600","新店區"
"231063","268-BY","2017/07/24 18:29:26","新北市新店區安華路1-1號","121.519391666667","24.9605333333333","6500600","新店區"
"231046","278-BY","2017/07/24 18:29:44","新北市新店區直潭七街60號","121.532275","24.9398316666667","6500600","新店區"
"231050","AAD-862","2017/07/24 18:29:37","新北市新店區安華路28-1號","121.519728333333","24.96125","6500600","新店區"
"231058","3712-VJ","2017/07/24 18:29:33","新北市新店區新店後街86號","121.537561666667","24.954785","6500600","新店區"
"231055","3713-VJ","2017/07/24 18:29:34","新北市新店區北新路二段29巷1弄5號","121.542161666667","24.97222","6500600","新店區"
"231067","4772-VM","2017/07/24 18:29:37","新北市新店區安華路28-1號","121.519373333333","24.9606","6500600","新店區"
"231065","512-UM","2017/07/24 18:29:40","新北市新店區安華路28-1號","121.519356666667","24.9612416666667","6500600","新店區"
"231054","513-UM","2017/07/24 18:29:33","新北市新店區安華路28-1號","121.519603333333","24.961135","6500600","新店區"
"231064","515-UM","2017/07/24 18:29:38","新北市新店區安華路28-1號","121.519595","24.9611916666667","6500600","新店區"
"231045","617-UM","2017/07/24 18:29:33","新北市新店區安華路28-1號","121.51944","24.9608833333333","6500600","新店區"
"231040","619-UM","2017/07/24 18:29:38","新北市新店區安華路28-1號","121.519466666667","24.9609","6500600","新店區"
"231042","641-BX","2017/07/24 18:29:33","新北市新店區安華路28-1號","121.519516666667","24.9605266666667","6500600","新店區"
"231049","719-UM","2017/07/24 18:29:32","新北市新店區安華路28-1號","121.519495","24.96118","6500600","新店區"
"231062","720-UM","2017/07/24 18:29:39","新北市新店區安華路28-1號","121.519355","24.9611683333333","6500600","新店區"
"231044","897-TW","2017/07/24 18:29:27","新北市新店區安華路28-1號","121.519453333333","24.9605583333333","6500600","新店區"
"231043","899-TW","2017/07/24 18:29:32","新北市新店區安華路28-1號","121.51933","24.960875","6500600","新店區"
"231066","AKT-0513","2017/07/24 18:29:32","新北市新店區安華路28-1號","121.51942","24.9605916666667","6500600","新店區"
"241024","265-UM","2017/07/24 18:29:29","新北市八里區荖阡坑路41-3號","121.400105","25.1321933333333","6500200","三重區"
"235066","003-UY","2017/07/24 18:29:35","新北市中和區中山路二段119號","121.502845","25.003695","6500300","中和區"
"235063","031-BX","2017/07/24 18:29:19","新北市中和區中正路537號","121.487698333333","24.9942983333333","6500300","中和區"
"235056","096-UM","2017/07/24 18:29:33","新北市中和區員山路611巷5弄3號","121.47803","25.0111933333333","6500300","中和區"
"235039","097-UM","2017/07/24 18:29:35","新北市中和區宜安路59號","121.511571666667","24.9969133333333","6500300","中和區"
"235065","098-UM","2017/07/24 18:29:35","新北市中和區莊敬路49巷18號","121.50167","25.0060483333333","6500300","中和區"
"235040","150-BY","2017/07/24 18:29:27","新北市中和區安平路38號","121.509811666667","24.9949833333333","6500300","中和區"
"235058","151-BY","2017/07/24 18:29:27","新北市中和區圓通路369巷36-1號","121.490823333333","24.9845833333333","6500300","中和區"
"235055","183-VK","2017/07/24 18:29:27","新北市中和區員山路77巷11弄5號","121.480381666667","24.9935583333333","6500300","中和區"
"235038","185-VK","2017/07/24 18:29:43","新北市中和區秀朗路三段128巷17弄4號","121.524255","24.9935233333333","6500300","中和區"
"235013","186-VK","2017/07/24 18:29:33","新北市中和區景安路130號","121.505145","24.99432","6500300","中和區"
"235067","255-BX","2017/07/24 18:29:31","新北市中和區中正路637巷60弄61號","121.485498333333","24.993305","6500300","中和區"
"235043","352-BY","2017/07/24 18:29:27","新北市中和區景平路428號","121.507365","24.9932233333333","6500300","中和區"
"235051","376-QA","2017/07/24 18:29:37","新北市中和區華新街123號","121.506971666667","24.9820083333333","6500300","中和區"
"235068","377-QA","2017/07/24 18:29:41","新北市中和區錦和路350-1號","121.490198333333","24.99354","6500300","中和區"
"235061","378-QA","2017/07/24 18:29:24","新北市中和區國光街107巷4弄4-3號","121.470238333333","24.999635","6500300","中和區"
"235050","4979-A6","2017/07/24 18:29:32","新北市中和區興南路一段8號","121.511525","24.9914516666667","6500300","中和區"
"235069","4980-A6","2017/07/24 18:29:41","新北市中和區連城路99巷7號","121.496985","24.999245","6500300","中和區"
"235042","551-UM","2017/07/24 18:29:28","新北市中和區自立路56巷14號","121.522756666667","24.991695","6500300","中和區"
"235070","558-UM","2017/07/24 18:29:36","新北市中和區圓通路171號","121.497621666667","24.9952116666667","6500300","中和區"
"235045","565-BX","2017/07/24 18:29:24","新北市中和區復興路22號","121.505403333333","24.990005","6500300","中和區"
"235054","640-BX","2017/07/24 18:29:28","新北市中和區民享街121巷2號","121.474461666667","24.9986033333333","6500300","中和區"
"235060","647-TV","2017/07/24 18:29:37","新北市中和區員山路115號","121.480988333333","24.9953083333333","6500300","中和區"
"235047","732-UM","2017/07/24 18:29:23","新北市中和區南山路300號","121.507888333333","24.987115","6500300","中和區"
"235046","733-UM","2017/07/24 18:29:25","新北市中和區錦和路350-1號","121.490006666667","24.9935466666667","6500300","中和區"
"235071","783-BX","2017/07/24 18:29:41","新北市中和區員山路36巷16-2號","121.485326666667","24.9910766666667","6500300","中和區"
"235062","800-TS","2017/07/24 18:29:30","新北市中和區景平路752號","121.49656","25.0045033333333","6500300","中和區"
"235057","801-TS","2017/07/24 18:29:31","新北市中和區連城路378號","121.480976666667","24.9951783333333","6500300","中和區"
"235041","802-TS","2017/07/24 18:29:27","新北市中和區中正路637巷52弄1號","121.485518333333","24.99386","6500300","中和區"
"235052","805-TS","2017/07/24 18:29:24","新北市中和區興南路二段96號","121.504968333333","24.9841016666667","6500300","中和區"
"235048","896-TW","2017/07/24 18:29:41","新北市中和區中正路169號","121.498125","24.993625","6500300","中和區"
"235053","900-TW","2017/07/24 18:29:43","新北市中和區連城路599號","121.478666666667","24.9932383333333","6500300","中和區"
"235064","911-UM","2017/07/24 18:29:39","新北市中和區圓通路167巷20號","121.497901666667","24.9945883333333","6500300","中和區"
"235037","AAC-213","2017/07/24 18:29:36","新北市中和區景德街88號","121.516145","24.99152","6500300","中和區"
"235059","AAC-215","2017/07/24 18:29:36","新北市中和區員山路36巷16-3號","121.485081666667","24.99118","6500300","中和區"
"220068","013-TV","2017/07/24 18:29:37","新北市板橋區民生路二段15-1號","121.472766666667","25.016435","6500100","板橋區"
"220086","073-UY","2017/07/24 18:29:40","新北市板橋區華東街11號","121.450636666667","24.997735","6500100","板橋區"
"247001","402-BY","2017/07/24 16:16:09","新北市五股區中興路三段3-6號","121.44951","25.0788083333333","6501400","蘆洲區"
"247014","057-VK","2017/07/24 18:29:41","新北市五股區成泰路三段320號","121.450283333333","25.0969583333333","6501400","蘆洲區"
"247006","053-VK","2017/07/24 18:29:40","新北市八里區商港路8號","121.39705","25.1444733333333","6501400","蘆洲區"
"226004","312-R5","2017/07/24 18:29:30","新北市平溪區白石里白石腳211號","121.72818","25.022725","6502400","平溪區"
"228003","097-TW","2017/07/24 18:29:22","新北市貢寮區和美里和美街40號","121.912408333333","25.0895566666667","6502600","貢寮區"
"228002","585-TW","2017/07/24 18:29:44","新北市貢寮區福連里香蘭街24號","121.98452","25.021375","6502600","貢寮區"
"228001","670-TC","2017/07/24 18:29:41","新北市貢寮區仁理村仁義街2號","121.923586666667","25.0520966666667","6502600","貢寮區"
"224006","676-BX","2017/07/24 18:29:36","新北市瑞芳區明燈路三段37-3號","121.807008333333","25.1079333333333","6501200","瑞芳區"
"224002","639-TC","2017/07/24 18:29:27","新北市瑞芳區正貿新村17號","121.81342","25.1058483333333","6501200","瑞芳區"
"224011","420-VK","2017/07/24 18:29:35","新北市瑞芳區崙頂路3-1號","121.847023333333","25.104705","6501200","瑞芳區"
"224009","285-BY","2017/07/24 18:29:24","新北市瑞芳區祈堂路183號","121.857371666667","25.109485","6501200","瑞芳區"
"224008","275-VK","2017/07/24 18:29:44","新北市瑞芳區岳王路1巷41-1號","121.805663333333","25.1104783333333","6501200","瑞芳區"
"224007","273-VK","2017/07/24 18:29:40","新北市瑞芳區大埔路國宅新村28號","121.764723333333","25.1002633333333","6501200","瑞芳區"
"224005","271-BY","2017/07/24 18:29:29","新北市瑞芳區建基新村20-7號","121.811211666667","25.1312366666667","6501200","瑞芳區"
"227008","642-TC","2017/07/24 18:29:37","新北市雙溪區牡丹里牡丹131號","121.850961666667","25.0592633333333","6502500","雙溪區"
"227001","400-TW","2017/07/24 18:29:32","新北市雙溪區魚行里坤溪21-1號","121.870883333333","25.0272783333333","6502500","雙溪區"
"253006","032-BX","2017/07/24 18:29:44","新北市石門區公地47-1號","121.545551666667","25.29011","6502200","石門區"
"253005","295-VK","2017/07/24 18:29:43","新北市石門區中央路1-25號","121.558761666667","25.2911416666667","6502200","石門區"
"208003","665-BX","2017/07/24 18:29:33","新北市金山區中山路118-1號","121.639261666667","25.2199816666667","6502700","金山區"
"208001","761-BX","2017/07/24 18:29:42","新北市金山區金包里街178號","121.637375","25.2236783333333","6502700","金山區"
"251004","009-UM","2017/07/24 18:29:39","新北市淡水區民族路31巷36號","121.462528333333","25.1365066666667","6501000","淡水區"
"251007","179-VK","2017/07/24 18:29:35","新北市淡水區中正東路二段143巷2弄1號","121.460751666667","25.1473416666667","6501000","淡水區"
"251008","181-VK","2017/07/24 18:29:34","新北市淡水區北投子92號","121.467286666667","25.1776333333333","6501000","淡水區"
"251013","182-VK","2017/07/24 18:29:29","新北市淡水區椿子林29號","121.482088333333","25.2047633333333","6501000","淡水區"
"251010","413-VK","2017/07/24 18:29:40","新北市淡水區沙崙路181巷27號","121.423121666667","25.184885","6501000","淡水區"
"251012","441-VK","2017/07/24 18:29:43","新北市淡水區北新路一段175號","121.459616666667","25.1823316666667","6501000","淡水區"
"251015","442-VK","2017/07/24 18:29:32","新北市淡水區興福寮88巷179號","121.486033333333","25.1668866666667","6501000","淡水區"
"251005","443-VK","2017/07/24 18:29:29","新北市淡水區中正東路37號","121.44606","25.1682516666667","6501000","淡水區"
"251001","559-UM","2017/07/24 18:29:36","新北市淡水區自強路120號","121.46417","25.13296","6501000","淡水區"
"251006","561-UM","2017/07/24 18:29:31","新北市淡水區中山北路一段45巷18號","121.441086666667","25.1760483333333","6501000","淡水區"
"251011","650-BX","2017/07/24 18:29:41","新北市淡水區中正東路21號","121.44808","25.1664466666667","6501000","淡水區"
"251002","672-BX","2017/07/24 18:29:41","新北市淡水區竿蓁二街22號","121.453381666667","25.1627816666667","6501000","淡水區"
"251003","766-UM","2017/07/24 18:29:30","新北市淡水區北新路69巷26號","121.446736666667","25.1800233333333","6501000","淡水區"
"207003","550-UM","2017/07/24 18:29:39","新北市萬里區野柳里港東路72-1號","121.688093333333","25.2049166666667","6502800","萬里區"
"207004","225-TW","2017/07/24 18:29:29","新北市萬里區萬里里瑪鋉路21號","121.687446666667","25.1753866666667","6502800","萬里區"
"252002","178-VK","2017/07/24 18:29:30","新北市三芝區中山路二段39號","121.502925","25.2550783333333","6502100","三芝區"
"252003","249-BX","2017/07/24 18:29:34","新北市三芝區後厝里北勢子41-7號","121.472526666667","25.2529466666667","6502100","三芝區"
"252001","702-TV","2017/07/24 18:29:29","新北市三芝區中興街二段2號","121.498333333333","25.2566716666667","6502100","三芝區"
"208002","170-UY","2017/07/24 18:29:35","新北市金山區民生路212號","121.640933333333","25.2206533333333","6502700","金山區"
"237004","078-UY","2017/07/24 18:29:40","新北市三峽區五寮144號","121.35953","24.8584083333333","6500900","三峽區"
"237007","153-BY","2017/07/24 18:29:34","新北市三峽區中正路三段70巷18號","121.355821666667","24.9046383333333","6500900","三峽區"
"237013","252-BX","2017/07/24 18:29:44","新北市三峽區永安街9巷15號","121.375921666667","24.9293933333333","6500900","三峽區"
"237012","275-BY","2017/07/24 18:29:30","新北市三峽區三樹路168巷21號","121.37927","24.9406516666667","6500900","三峽區"
"237008","302-VK","2017/07/24 18:29:27","新北市三峽區白雞68-237號","121.391268333333","24.9085483333333","6500900","三峽區"
"237014","433-BY","2017/07/24 18:29:27","新北市三峽區復興路86號","121.373015","24.9373583333333","6500900","三峽區"
"237006","5529-G3","2017/07/24 18:29:36","新北市三峽區溪東路473巷2號","121.413865","24.9281983333333","6500900","三峽區"
"237011","572-TV","2017/07/24 13:46:53","新北市三峽區中山路459巷163-3號","121.348681666667","24.9327816666667","6500900","三峽區"
"237015","649-BX","2017/07/24 18:29:28","新北市三峽區竹崙路149號","121.434248333333","24.9080183333333","6500900","三峽區"
"237010","706-TV","2017/07/24 18:29:43","新北市三峽區介壽路一段20號","121.375346666667","24.9329766666667","6500900","三峽區"
"237005","AKY-6261","2017/07/24 18:29:34","新北市三峽區清水街326號","121.372028333333","24.9341916666667","6500900","三峽區"
"236069","105-UM","2017/07/24 18:29:35","新北市土城區永豐路255巷27弄43號","121.476983333333","24.9736466666667","6501300","土城區"
"236042","107-UM","2017/07/24 18:29:30","新北市土城區裕民路67巷4弄12號","121.450146666667","24.9877033333333","6501300","土城區"
"236078","166-UM","2017/07/24 18:29:28","新北市土城區中央路四段27巷9號","121.42466","24.962005","6501300","土城區"
"236030","253-BX","2017/07/24 18:29:41","新北市土城區水源街81巷1弄1號","121.439586666667","24.9762216666667","6501300","土城區"
"236026","269-VK","2017/07/24 18:29:37","新北市土城區南天母路135巷33號","121.4487","24.95432","6501300","土城區"
"236014","270-VK","2017/07/24 18:29:31","新北市土城區青雲路39巷7號","121.460256666667","24.9874","6501300","土城區"
"236036","271-VK","2017/07/24 18:29:37","新北市土城區青雲路483巷2號","121.459336666667","24.9736666666667","6501300","土城區"
"236020","401-BY","2017/07/24 18:29:39","新北市土城區永豐路202巷7號","121.466278333333","24.9832883333333","6501300","土城區"
"236058","912-UM","2017/07/24 18:29:34","新北市土城區中央路四段464號","121.409976666667","24.9504016666667","6501300","土城區"
"236048","913-UM","2017/07/24 18:29:30","新北市土城區明德路一段275號","121.461026666667","24.9775433333333","6501300","土城區"
"236062","915-UM","2017/07/24 18:29:43","新北市土城區延壽路77巷6弄4號","121.468506666667","24.9927183333333","6501300","土城區"
"236053","AAC-216","2017/07/24 18:29:39","新北市土城區中華路二段141號","121.438991666667","24.9762683333333","6501300","土城區"
"242021","AAC-296","2017/07/24 18:29:41","新北市新莊區中正路190號","121.449731666667","25.0355883333333","6500500","新莊區"
"242042","497-BY","2017/07/24 18:29:35","新北市新莊區中正路694巷134號","121.415901666667","25.0300433333333","6500500","新莊區"
"242046","441-UM","2017/07/24 18:29:38","新北市新莊區中正路829巷16號","121.42109","25.027315","6500500","新莊區"
"242002","413-TV","2017/07/24 18:29:34","新北市新莊區瓊泰路77巷16號","121.442518333333","25.0293383333333","6500500","新莊區"
"242060","362-BY","2017/07/24 18:29:41","新北市新莊區建安街127號","121.425936666667","25.0237","6500500","新莊區"
"242058","353-BY","2017/07/24 18:29:39","新北市新莊區中正路887-7號","121.416625","25.02444","6500500","新莊區"
"242034","133-UY","2017/07/24 18:29:23","新北市新莊區新樹路613號","121.435796666667","25.0041783333333","6500500","新莊區"
"242044","172-VK","2017/07/24 18:29:40","新北市新莊區中正路新旺巷5號","121.415763333333","25.0235683333333","6500500","新莊區"
"242053","349-TH","2017/07/24 18:29:38","新北市新莊區新樹路448號","121.431536666667","25.0012066666667","6500500","新莊區"
"242015","350-TH","2017/07/24 18:29:36","新北市新莊區新泰路351號","121.444581666667","25.0423383333333","6500500","新莊區"
"238015","755-BX","2017/07/24 18:29:31","新北市樹林區啟智街173巷2號","121.415641666667","24.9875516666667","6500700","樹林區"
"238023","601-UM","2017/07/24 18:29:28","新北市樹林區忠信街13號","121.408113333333","25.0149866666667","6500700","樹林區"
"238019","599-UM","2017/07/24 18:29:26","新北市樹林區中華路190-16號","121.411718333333","24.9805633333333","6500700","樹林區"
"238018","571-TV","2017/07/24 18:29:25","新北市樹林區保安街一段16巷30號","121.428613333333","24.994245","6500700","樹林區"
"238024","5061-A6","2017/07/24 18:29:32","新北市樹林區中山路一段31號","121.42469","24.9928483333333","6500700","樹林區"
"238025","303-VK","2017/07/24 18:29:38","新北市樹林區保安街一段189號","121.421135","24.9958166666667","6500700","樹林區"
"238020","268-VK","2017/07/24 18:05:46","新北市樹林區俊興街257號","121.417981666667","25.0165083333333","6500700","樹林區"
"238026","172-UY","2017/07/24 18:29:38","新北市樹林區佳園路一段80巷5弄20號","121.392748333333","24.969075","6500700","樹林區"
"238016","169-UY","2017/07/24 18:29:31","新北市樹林區文化街28號","121.419303333333","24.987665","6500700","樹林區"
"239007","AAC-297","2017/07/24 18:29:36","新北市鶯歌區建國路278號","121.346968333333","24.9532766666667","6500800","鶯歌區"
"239008","527-UM","2017/07/24 18:29:39","新北市鶯歌區國際一路179號","121.336196666667","24.97649","6500800","鶯歌區"
"239005","526-UM","2017/07/24 18:29:44","新北市鶯歌區鶯桃路668巷30號","121.32899","24.9701666666667","6500800","鶯歌區"
"239001","417-VK","2017/07/24 18:29:28","新北市鶯歌區國中街199號","121.338198333333","24.9391466666667","6500800","鶯歌區"
"239003","360-BY","2017/07/24 18:29:43","新北市鶯歌區福安街58號","121.335626666667","24.9651766666667","6500800","鶯歌區"
"239004","193-VK","2017/07/24 18:29:37","新北市鶯歌區尖山路258巷23號","121.34201","24.9467933333333","6500800","鶯歌區"
"221008","489-VK","2017/07/24 18:29:32","新北市汐止區康寧街901號","121.651406666667","25.0750683333333","6501100","汐止區"
"221036","130-UY","2017/07/24 18:29:43","新北市汐止區長興街一段35號","121.669873333333","25.07908","6501100","汐止區"
"221015","131-UY","2017/07/24 18:29:35","新北市汐止區鄉友街36號","121.668913333333","25.0813883333333","6501100","汐止區"
"221010","269-BY","2017/07/24 18:29:33","新北市汐止區汐萬路二段308號","121.64396","25.090755","6501100","汐止區"
"221031","277-VK","2017/07/24 18:29:42","新北市汐止區光復街8巷1-4號","121.638951666667","25.0583333333333","6501100","汐止區"
"221012","278-VK","2017/07/24 18:29:25","新北市汐止區保長路37巷4號","121.672901666667","25.0793716666667","6501100","汐止區"
"221023","279-VK","2017/07/24 15:01:37","新北市汐止區康寧街901號","121.651661666667","25.0749716666667","6501100","汐止區"
"221032","280-BY","2017/07/24 18:29:32","新北市汐止區福山街60巷2號","121.617748333333","25.04645","6501100","汐止區"
"221038","297-VK","2017/07/24 18:29:43","新北市汐止區忠孝東路252號","121.662991666667","25.0673633333333","6501100","汐止區"
"221029","298-VK","2017/07/24 18:29:31","新北市汐止區樟樹二路345號","121.64188","25.0731766666667","6501100","汐止區"
"221021","299-VK","2017/07/24 17:45:45","新北市汐止區長江街一段100巷1號","121.656271666667","25.0699266666667","6501100","汐止區"
"221035","622-UM","2017/07/24 18:29:36","新北市汐止區大同路二段43號","121.64786","25.0631383333333","6501100","汐止區"
"221025","623-UM","2017/07/24 18:29:41","新北市汐止區仁愛路122巷18號","121.6634","25.0632683333333","6501100","汐止區"
"221033","647-BX","2017/07/24 18:28:58","新北市汐止區宜興街75號","121.623021666667","25.04327","6501100","汐止區"
"221002","707-TV","2017/07/24 18:29:26","新北市汐止區福德一路146號","121.636715","25.0669783333333","6501100","汐止區"
"220082","610-BX","2017/07/24 18:29:40","新北市板橋區華東街1-10號","121.44828","24.9949216666667","6500100","板橋區"
"220056","276-BY","2017/07/24 18:29:35","新北市板橋區中山路二段11號","121.47209","25.0149366666667","6500100","板橋區"
"220094","285-UM","2017/07/24 18:29:40","新北市板橋區民生路二段188號","121.470196666667","25.0203516666667","6500100","板橋區"
"220062","303-R5","2017/07/24 18:29:31","新北市板橋區民生路二段17號","121.472651666667","25.0164266666667","6500100","板橋區"
"220035","560-BX","2017/07/24 18:29:30","新北市板橋區華東街268號","121.45264","25.0012116666667","6500100","板橋區"
