"lineid","car","time","location","longitude","latitude","cityid","cityname"
"234046","148-BY","2017/07/24 18:39:27","新北市永和區林森路44巷6弄6號","121.52544","25.0050083333333","6500400","永和區"
"234013","149-BY","2017/07/24 18:39:28","新北市永和區環河東路二段28號","121.522588333333","25.0128566666667","6500400","永和區"
"234007","207-UY","2017/07/24 18:39:37","新北市永和區文化路170號","121.511853333333","25.015555","6500400","永和區"
"234081","298-R6","2017/07/24 18:39:26","新北市永和區林森路81號","121.523865","25.0039183333333","6500400","永和區"
"234038","336-UY","2017/07/24 18:39:29","新北市永和區福和路1號","121.526693333333","25.010095","6500400","永和區"
"234086","338-UY","2017/07/24 18:39:34","新北市中和區安平路160號","121.512618333333","24.9985583333333","6500400","永和區"
"234017","745-BX","2017/07/24 18:39:39","新北市永和區福和路1號","121.52646","25.00987","6500400","永和區"
"234030","746-BX","2017/07/24 18:39:34","新北市永和區成功路一段108號","121.526831666667","25.0028166666667","6500400","永和區"
"234061","AAD-866","2017/07/24 18:39:34","新北市永和區福和路1號","121.5261","25.0097416666667","6500400","永和區"
"234042","862-TW","2017/07/24 18:39:31","新北市永和區永貞路304號","121.511933333333","25.00479","6500400","永和區"
"234050","863-TW","2017/07/24 18:38:17","新北市永和區福和路1號","121.52592","25.0092483333333","6500400","永和區"
"234026","9371-KE","2017/07/24 18:39:43","新北市永和區永貞路417巷7號","121.50701","25.0090733333333","6500400","永和區"
"234011","9373-KE","2017/07/24 18:39:44","新北市永和區永和路二段231巷1-1號","121.51506","25.0140216666667","6500400","永和區"
"249005","172-UM","2017/07/24 18:39:33","新北市八里區中華路三段212號","121.388971666667","25.125335","6502300","八里區"
"249004","303-UY","2017/07/24 18:39:24","新北市八里區忠孝路21號","121.429163333333","25.1601233333333","6502300","八里區"
"249002","305-UY","2017/07/24 18:39:27","新北市八里區龍形一街33巷1-1號","121.449335","25.1300416666667","6502300","八里區"
"249001","759-BX","2017/07/24 18:39:33","新北市八里區龍米路一段205號","121.451493333333","25.13138","6502300","八里區"
"248014","025-BX","2017/07/24 18:39:37","新北市五股區中興路四段70號","121.436971666667","25.083475","6501500","五股區"
"248016","026-BX","2017/07/24 18:39:30","新北市五股區凌雲路一段149巷7-4號","121.448885","25.1015666666667","6501500","五股區"
"248008","095-VK","2017/07/24 18:39:39","新北市五股區中興路一段152號","121.464583333333","25.0739416666667","6501500","五股區"
"248020","225-UY","2017/07/24 18:38:52","新北市五股區民義路二段122號","121.404795","25.1138416666667","6501500","五股區"
"248012","247-BX","2017/07/22 21:22:56","新北市五股區中興路二段37巷24號","121.460658333333","25.0750166666667","6501500","五股區"
"248010","272-BY","2017/07/24 18:39:37","新北市五股區水碓三路120號","121.43177","25.0736","6501500","五股區"
"248004","677-BX","2017/07/24 18:39:32","新北市五股區民義路一段310-11號","121.42402","25.0941366666667","6501500","五股區"
"248002","682-TV","2017/07/24 18:39:34","新北市五股區西雲路199號","121.448015","25.0959783333333","6501500","五股區"
"234023","9380-KE","2017/07/24 18:39:24","新北市永和區豫溪街217巷1號","121.524841666667","25.0092483333333","6500400","永和區"
"234077","969-R7","2017/07/24 18:39:28","新北市永和區中正路612號","121.517073333333","25.007385","6500400","永和區"
"234074","AAC-211","2017/07/24 18:39:27","新北市永和區福和路1號","121.526525","25.00994","6500400","永和區"
"234067","AAC-212","2017/07/24 18:39:25","新北市永和區豫溪街217巷1號","121.524816666667","25.0093283333333","6500400","永和區"
"232011","375-UM","2017/07/24 18:39:21","新北市坪林區坪雙路一段43號","121.71176","24.9424733333333","6502000","坪林區"
"244013","069-UM","2017/07/24 18:39:33","新北市林口區中山路262-1號","121.384301666667","25.0802416666667","6501700","林口區"
"244007","080-UY","2017/07/24 18:39:21","新北市林口區後湖39-1號","121.386803333333","25.0998533333333","6501700","林口區"
"244019","403-UM","2017/07/24 18:39:24","新北市林口區忠孝路594巷16號","121.375975","25.0674566666667","6501700","林口區"
"244009","410-SL","2017/07/24 18:39:40","新北市林口區民生路139號","121.377935","25.0882866666667","6501700","林口區"
"244023","483-VK","2017/07/24 18:39:32","新北市林口區文化二路二段111號","121.378516666667","25.08114","6501700","林口區"
"244017","485-VK","2017/07/24 18:39:31","新北市林口區文化二路一段68巷2號","121.366166666667","25.06878","6501700","林口區"
"244025","656-BX","2017/07/24 18:39:41","新北市林口區南勢里53-6號","121.35506","25.0748916666667","6501700","林口區"
"244011","701-TV","2017/07/24 18:39:29","新北市林口區新寮1-62號","121.392935","25.07672","6501700","林口區"
"244021","838-TS","2017/07/24 18:39:33","新北市林口區自強二街49號","121.398988333333","25.07726","6501700","林口區"
"243010","267-VK","2017/07/24 15:31:40","新北市泰山區黎明路25號","121.422426666667","25.0609233333333","6501600","泰山區"
"243013","AAD-798","2017/07/24 18:35:17","新北市泰山區明志路三段206巷3號","121.4233","25.0379116666667","6501600","泰山區"
"243009","297-R6","2017/07/24 15:49:32","新北市泰山區黎明路25號","121.422041666667","25.0609683333333","6501600","泰山區"
"243015","380-SR","2017/07/24 18:39:32","新北市泰山區黎明路25號","121.422908333333","25.060905","6501600","泰山區"
"243011","549-UM","2017/07/24 18:39:35","新北市泰山區黎明路25號","121.421918333333","25.0610033333333","6501600","泰山區"
"243012","646-TV","2017/07/24 18:39:39","新北市泰山區福興街24號","121.43439","25.057665","6501600","泰山區"
"222003","436-BY","2017/07/24 18:39:36","新北市深坑區翠谷街81巷1號","121.628125","25.00922","6501800","深坑區"
"222001","628-TS","2017/07/24 18:39:29","新北市深坑區北深路一段84號","121.636153333333","25.0106816666667","6501800","深坑區"
"222002","659-BX","2017/07/24 18:39:25","新北市深坑區雲鄉路2號","121.620903333333","24.999645","6501800","深坑區"
"231041","002-UM","2017/07/24 18:39:43","新北市新店區安華路28-1號","121.519555","24.960835","6500600","新店區"
"231056","0293-UT","2017/07/24 18:39:42","新北市新店區自立街74號","121.537438333333","24.9796883333333","6500600","新店區"
"231059","046-UY","2017/07/24 18:39:27","新北市新店區安華路28-1號","121.519548333333","24.9608266666667","6500600","新店區"
"231061","047-UY","2017/07/24 18:39:27","新北市新店區安華路28-1號","121.519301666667","24.96088","6500600","新店區"
"231060","106-UY","2017/07/24 18:39:28","新北市新店區安華路28-1號","121.519635","24.9608083333333","6500600","新店區"
"231051","107-UY","2017/07/24 18:39:23","新北市新店區安康路一段285號","121.523201666667","24.9636166666667","6500600","新店區"
"231047","108-UY","2017/07/24 18:39:29","新北市新店區環河路1-5號","121.538336666667","24.9616633333333","6500600","新店區"
"231052","187-VK","2017/07/24 18:39:33","新北市新店區新烏路一段70號","121.545835","24.9413716666667","6500600","新店區"
"231057","256-BX","2017/07/24 18:39:40","新北市新店區新烏路一段215號","121.548968333333","24.9315433333333","6500600","新店區"
"231063","268-BY","2017/07/24 18:39:26","新北市新店區安華路28-1號","121.519411666667","24.96057","6500600","新店區"
"231046","278-BY","2017/07/24 18:39:44","新北市新店區直潭一街20號","121.536026666667","24.9423766666667","6500600","新店區"
"231050","AAD-862","2017/07/24 18:39:37","新北市新店區安華路28-1號","121.51974","24.9612233333333","6500600","新店區"
"231058","3712-VJ","2017/07/24 18:39:33","新北市新店區新店路13號","121.5404","24.952875","6500600","新店區"
"231055","3713-VJ","2017/07/24 18:39:34","新北市新店區華興街17號","121.537748333333","24.9694083333333","6500600","新店區"
"231067","4772-VM","2017/07/24 18:39:37","新北市新店區安華路28-1號","121.519368333333","24.960605","6500600","新店區"
"231065","512-UM","2017/07/24 18:39:40","新北市新店區安華路28-1號","121.519358333333","24.9612516666667","6500600","新店區"
"231054","513-UM","2017/07/24 18:39:33","新北市新店區安華路28-1號","121.5196","24.9611183333333","6500600","新店區"
"231064","515-UM","2017/07/24 18:39:38","新北市新店區安華路28-1號","121.519601666667","24.9611933333333","6500600","新店區"
"231045","617-UM","2017/07/24 18:39:34","新北市新店區安華路28-1號","121.51944","24.9608966666667","6500600","新店區"
"231040","619-UM","2017/07/24 18:39:38","新北市新店區安華路28-1號","121.519498333333","24.9609033333333","6500600","新店區"
"231042","641-BX","2017/07/24 18:39:33","新北市新店區安康路一段355-3號","121.519821666667","24.96226","6500600","新店區"
"231049","719-UM","2017/07/24 18:39:32","新北市新店區安康路一段107-2號","121.528711666667","24.9617183333333","6500600","新店區"
"231062","720-UM","2017/07/24 18:39:39","新北市新店區安華路28-1號","121.519356666667","24.9611716666667","6500600","新店區"
"231044","897-TW","2017/07/24 18:39:26","新北市新店區秀山路14號","121.532838333333","24.96028","6500600","新店區"
"231043","899-TW","2017/07/24 18:39:32","新北市新店區安華路28-1號","121.519323333333","24.9608566666667","6500600","新店區"
"231066","AKT-0513","2017/07/24 18:39:32","新北市新店區安華路1-1號","121.519503333333","24.9603216666667","6500600","新店區"
"241024","265-UM","2017/07/24 18:38:49","新北市八里區中山路三段409號","121.36879","25.13444","6500200","三重區"
"235066","003-UY","2017/07/24 18:39:36","新北市中和區水源路34巷2號","121.50475","25.003555","6500300","中和區"
"235063","031-BX","2017/07/24 18:39:39","新北市中和區連城路347巷16弄38號","121.486865","24.9951783333333","6500300","中和區"
"235056","096-UM","2017/07/24 18:39:33","新北市中和區員山路611巷5弄1號","121.477935","25.01103","6500300","中和區"
"235039","097-UM","2017/07/24 18:39:35","新北市永和區安樂路108號","121.51423","24.999695","6500300","中和區"
"235065","098-UM","2017/07/24 18:39:35","新北市中和區中山路二段64巷8號","121.503581666667","25.0051433333333","6500300","中和區"
"235040","150-BY","2017/07/24 18:39:27","新北市中和區宜安路65號","121.511263333333","24.9970683333333","6500300","中和區"
"235058","151-BY","2017/07/24 18:39:27","新北市中和區圓通路296巷1號","121.487391666667","24.9882066666667","6500300","中和區"
"235055","183-VK","2017/07/24 18:39:27","新北市中和區莒光路98號","121.472433333333","25.0023583333333","6500300","中和區"
"235038","185-VK","2017/07/24 18:39:23","新北市中和區自強路6-2號","121.519858333333","24.9960116666667","6500300","中和區"
"235013","186-VK","2017/07/24 18:39:29","新北市中和區景平路480號","121.505051666667","24.9938583333333","6500300","中和區"
"235067","255-BX","2017/07/24 18:39:31","新北市中和區新生街32號","121.483213333333","25.0038366666667","6500300","中和區"
"235044","293-VK","2017/07/24 18:39:43","新北市中和區復興路301巷23號","121.502006666667","24.989705","6500300","中和區"
"235043","352-BY","2017/07/24 18:39:27","新北市中和區景平路141-1號","121.51433","24.9920066666667","6500300","中和區"
"235051","376-QA","2017/07/24 18:39:43","新北市中和區興南路二段114巷12號","121.50402","24.98455","6500300","中和區"
"235068","377-QA","2017/07/24 18:39:41","新北市中和區中正路171號","121.497831666667","24.99349","6500300","中和區"
"235061","378-QA","2017/07/24 18:39:24","新北市中和區民享街86巷7號","121.474101666667","25.0006883333333","6500300","中和區"
"235050","4979-A6","2017/07/24 18:39:32","新北市中和區四維街37巷2號","121.512395","24.9868466666667","6500300","中和區"
"235069","4980-A6","2017/07/24 18:39:35","新北市中和區連城路65巷7號","121.497983333333","25.0010233333333","6500300","中和區"
"235042","551-UM","2017/07/24 18:39:37","新北市中和區成功路97巷7號","121.526503333333","24.991945","6500300","中和區"
"235070","558-UM","2017/07/24 18:39:35","新北市中和區南華路11號","121.502251666667","24.99557","6500300","中和區"
"235045","565-BX","2017/07/24 18:39:36","新北市中和區復興路16號","121.505633333333","24.9899333333333","6500300","中和區"
"235054","640-BX","2017/07/24 18:39:28","新北市中和區民享街89巷4弄12號","121.47515","25.0011866666667","6500300","中和區"
"235060","647-TV","2017/07/24 18:39:37","新北市中和區員山路463號","121.480451666667","25.0044533333333","6500300","中和區"
"235047","732-UM","2017/07/24 18:39:23","新北市中和區南山路320巷10弄21號","121.506803333333","24.9866633333333","6500300","中和區"
"235046","733-UM","2017/07/24 18:39:25","新北市中和區捷運路8-12號","121.50962","24.9897833333333","6500300","中和區"
"235071","783-BX","2017/07/24 18:39:41","新北市中和區員山路36巷16-3號","121.485255","24.9910866666667","6500300","中和區"
"235062","800-TS","2017/07/24 18:39:30","新北市中和區中山路二段312巷10弄2號","121.495613333333","25.0030216666667","6500300","中和區"
"235057","801-TS","2017/07/24 18:39:31","新北市中和區民安街47號","121.479795","25.0001933333333","6500300","中和區"
"235041","802-TS","2017/07/24 18:39:27","新北市中和區景安路121號","121.505741666667","24.99628","6500300","中和區"
"235052","805-TS","2017/07/24 18:39:24","新北市中和區興南路三段57號","121.49355","24.9753483333333","6500300","中和區"
"235048","896-TW","2017/07/24 18:39:42","新北市中和區南山路231號","121.503645","24.9933433333333","6500300","中和區"
"235053","900-TW","2017/07/24 18:39:43","新北市土城區金城路三段283號","121.473345","24.9906516666667","6500300","中和區"
"235064","911-UM","2017/07/24 18:39:39","新北市中和區連城路139巷46號","121.496598333333","24.997545","6500300","中和區"
"235037","AAC-213","2017/07/24 18:39:36","新北市中和區景德街89巷6弄1號","121.51606","24.9911183333333","6500300","中和區"
"235059","AAC-215","2017/07/24 18:39:36","新北市中和區錦和路350-1號","121.490585","24.9935733333333","6500300","中和區"
"220068","013-TV","2017/07/24 18:39:37","新北市板橋區民生路二段15-1號","121.472676666667","25.0164866666667","6500100","板橋區"
"220065","072-UY","2017/07/24 17:08:33","新北市板橋區民生路二段17號","121.472616666667","25.01647","6500100","板橋區"
"220086","073-UY","2017/07/24 18:39:40","新北市板橋區南雅西路二段192巷3號","121.45208","25.0144366666667","6500100","板橋區"
"247001","402-BY","2017/07/24 16:16:09","新北市五股區中興路三段3-6號","121.44951","25.0788083333333","6501400","蘆洲區"
"247008","339-TH","2017/07/24 18:39:28","新北市八里區中山路三段363號","121.3753","25.1384483333333","6501400","蘆洲區"
"247024","337-TH","2017/07/24 18:39:38","新北市八里區中華路三段7巷1號","121.397226666667","25.1437516666667","6501400","蘆洲區"
"247014","057-VK","2017/07/24 18:37:13","新北市五股區中興路三段163號","121.44922","25.0807533333333","6501400","蘆洲區"
"247006","053-VK","2017/07/24 18:39:40","新北市林口區太平里180號","121.367345","25.13374","6501400","蘆洲區"
"247022","002-UY","2017/07/24 18:39:35","新北市五股區中直路11-21號","121.426895","25.10947","6501400","蘆洲區"
"226004","312-R5","2017/07/24 18:39:30","新北市平溪區平溪里三坑路49-1號","121.731191666667","25.033955","6502400","平溪區"
"228003","097-TW","2017/07/24 18:39:42","新北市貢寮區和美里龍洞街38-1號","121.915718333333","25.111615","6502600","貢寮區"
"228002","585-TW","2017/07/24 18:39:40","新北市貢寮區福隆里東興街6-11號","121.95077","25.0210366666667","6502600","貢寮區"
"228001","670-TC","2017/07/24 18:39:37","新北市貢寮區仁理村研海街12-1號","121.92381","25.0517066666667","6502600","貢寮區"
"224010","AGQ-8101","2017/07/24 18:35:40","新北市瑞芳區崙頂路79號","121.845165","25.1068983333333","6501200","瑞芳區"
"224006","676-BX","2017/07/24 18:39:36","新北市瑞芳區明燈路三段151號","121.803021666667","25.1096783333333","6501200","瑞芳區"
"224002","639-TC","2017/07/24 18:39:27","新北市瑞芳區中山路266號","121.798876666667","25.1085866666667","6501200","瑞芳區"
"224011","420-VK","2017/07/24 18:39:35","新北市瑞芳區崙頂路3-1號","121.847011666667","25.1047","6501200","瑞芳區"
"224009","285-BY","2017/07/24 18:39:44","新北市瑞芳區祈堂路8號","121.858895","25.1140116666667","6501200","瑞芳區"
"224008","275-VK","2017/07/24 18:39:24","新北市瑞芳區瑞芳街15號","121.806683333333","25.1097633333333","6501200","瑞芳區"
"224007","273-VK","2017/07/24 18:39:40","新北市瑞芳區大埔路有勝二村11號","121.76403","25.1000316666667","6501200","瑞芳區"
"224005","271-BY","2017/07/24 18:39:29","新北市瑞芳區瑞濱路119號","121.820191666667","25.1201416666667","6501200","瑞芳區"
"227008","642-TC","2017/07/24 18:39:37","新北市雙溪區牡丹里下坑11號","121.85102","25.0561716666667","6502500","雙溪區"
"227001","400-TW","2017/07/24 18:39:32","新北市雙溪區魚行里坤溪3-5號","121.8762","25.0207716666667","6502500","雙溪區"
"253006","032-BX","2017/07/24 18:39:24","新北市石門區崁子腳58-19號","121.531175","25.28753","6502200","石門區"
"253005","295-VK","2017/07/24 18:39:23","新北市石門區石門街5號","121.565913333333","25.2910383333333","6502200","石門區"
"208003","665-BX","2017/07/24 18:39:24","新北市金山區中山路345號","121.63497","25.224325","6502700","金山區"
"208001","761-BX","2017/07/24 18:39:41","新北市金山區文化三路11號","121.635013333333","25.22483","6502700","金山區"
"251004","009-UM","2017/07/24 18:39:39","新北市淡水區民權路13-5號","121.459751666667","25.1416083333333","6501000","淡水區"
"251008","181-VK","2017/07/24 18:39:34","新北市淡水區北投子18號","121.453951666667","25.1839283333333","6501000","淡水區"
"251013","182-VK","2017/07/24 18:39:34","新北市淡水區雲廣坑5-1號","121.474275","25.2130183333333","6501000","淡水區"
"251010","413-VK","2017/07/24 18:39:29","新北市淡水區沙崙路122號","121.423353333333","25.1827683333333","6501000","淡水區"
"251012","441-VK","2017/07/24 18:39:43","新北市淡水區北新路121號","121.44903","25.1785966666667","6501000","淡水區"
"251015","442-VK","2017/07/24 18:39:32","新北市淡水區興福寮66巷28號","121.485933333333","25.1626033333333","6501000","淡水區"
"251001","559-UM","2017/07/24 18:39:36","新北市淡水區自強路166號","121.465593333333","25.1341683333333","6501000","淡水區"
"251006","561-UM","2017/07/24 18:39:31","新北市淡水區崁頂36-1號","121.438925","25.19467","6501000","淡水區"
"251011","650-BX","2017/07/24 18:39:41","新北市淡水區鄧公路42-1號","121.458335","25.16881","6501000","淡水區"
"251002","672-BX","2017/07/24 18:39:41","新北市淡水區中正東路一段5巷5號","121.45078","25.1644216666667","6501000","淡水區"
"251003","766-UM","2017/07/24 18:39:30","新北市淡水區中山北路一段212巷38號","121.446118333333","25.179055","6501000","淡水區"
"207003","550-UM","2017/07/24 18:39:39","新北市萬里區大鵬里頂社2-1號","121.661915","25.206465","6502800","萬里區"
"207004","225-TW","2017/07/24 18:39:44","新北市萬里區萬里里獅頭路7號","121.691995","25.1782583333333","6502800","萬里區"
"252002","178-VK","2017/07/24 18:39:29","新北市三芝區民生街54巷16號","121.503956666667","25.2552683333333","6502100","三芝區"
"252003","249-BX","2017/07/24 18:39:34","新北市三芝區後厝里土地公坑54-5號","121.466668333333","25.249855","6502100","三芝區"
"252001","702-TV","2017/07/24 18:39:34","新北市三芝區中興街二段58號","121.499671666667","25.2548733333333","6502100","三芝區"
"208002","170-UY","2017/07/24 18:39:35","新北市金山區忠孝一路19巷5號","121.638283333333","25.2182033333333","6502700","金山區"
"237004","078-UY","2017/07/24 18:39:40","新北市三峽區金敏189號","121.394698333333","24.8740533333333","6500900","三峽區"
"237007","153-BY","2017/07/24 18:39:34","新北市三峽區中正路三段1號","121.35815","24.9054833333333","6500900","三峽區"
"237013","252-BX","2017/07/24 18:39:23","新北市三峽區大同路145號","121.371316666667","24.9270166666667","6500900","三峽區"
"237012","275-BY","2017/07/24 18:39:30","新北市三峽區三樹路342-1號","121.383053333333","24.9438683333333","6500900","三峽區"
"237008","302-VK","2017/07/24 18:39:26","新北市三峽區白雞77-1號","121.40126","24.9105316666667","6500900","三峽區"
"237014","433-BY","2017/07/24 18:39:27","新北市三峽區文化路116號","121.371215","24.9362","6500900","三峽區"
"237006","5529-G3","2017/07/24 18:39:36","新北市三峽區溪東路315巷67號","121.412061666667","24.9310033333333","6500900","三峽區"
"237011","572-TV","2017/07/24 13:46:53","新北市三峽區中山路459巷163-3號","121.348681666667","24.9327816666667","6500900","三峽區"
"237015","649-BX","2017/07/24 18:39:28","新北市三峽區竹崙路29號","121.42948","24.922555","6500900","三峽區"
"237010","706-TV","2017/07/24 18:39:23","新北市三峽區中山路237號","121.362745","24.9372233333333","6500900","三峽區"
"237005","AKY-6261","2017/07/24 18:39:34","新北市三峽區新興街22號","121.372663333333","24.9355066666667","6500900","三峽區"
"236069","105-UM","2017/07/24 18:39:35","新北市土城區永豐路169-2號","121.467818333333","24.9803266666667","6501300","土城區"
"236042","107-UM","2017/07/24 18:39:30","新北市土城區裕民路55巷16號","121.449553333333","24.988665","6501300","土城區"
"236078","166-UM","2017/07/24 18:39:37","新北市土城區中央路四段54巷5號","121.419575","24.9606566666667","6501300","土城區"
"236030","253-BX","2017/07/24 18:39:41","新北市土城區福仁街67號","121.439528333333","24.9745966666667","6501300","土城區"
"236026","269-VK","2017/07/24 18:39:36","新北市土城區忠義路49-1號","121.440511666667","24.96905","6501300","土城區"
"236014","270-VK","2017/07/24 18:39:39","新北市土城區清水路207巷11號","121.459933333333","24.9821933333333","6501300","土城區"
"236036","271-VK","2017/07/24 18:39:36","新北市土城區明德路一段313巷9號","121.459781666667","24.9759333333333","6501300","土城區"
"236020","401-BY","2017/07/24 18:39:39","新北市土城區延吉街276號","121.465678333333","24.984325","6501300","土城區"
"236058","912-UM","2017/07/24 18:39:34","新北市土城區中央路四段56-5號","121.420205","24.9601866666667","6501300","土城區"
"236048","913-UM","2017/07/24 18:39:30","新北市土城區金城路二段356號","121.4615","24.98519","6501300","土城區"
"236062","915-UM","2017/07/24 18:39:30","新北市中和區民享街498號","121.46948","24.9916733333333","6501300","土城區"
"236053","AAC-216","2017/07/24 18:39:40","新北市土城區中華路一段183號","121.443466666667","24.9856883333333","6501300","土城區"
"242021","AAC-296","2017/07/24 18:39:21","新北市新莊區新泰路357巷3弄57號","121.442205","25.0396516666667","6500500","新莊區"
"242046","441-UM","2017/07/24 18:39:38","新北市新莊區中正路755號","121.422411666667","25.0282916666667","6500500","新莊區"
"242060","362-BY","2017/07/24 18:39:21","新北市新莊區三和路12-21號","121.442305","25.0386","6500500","新莊區"
"242034","133-UY","2017/07/24 18:39:23","新北市樹林區環河路600號","121.404163333333","24.969315","6500500","新莊區"
"242044","172-VK","2017/07/24 18:39:40","新北市泰山區新北大道五段152號","121.43671","25.0493766666667","6500500","新莊區"
"242053","349-TH","2017/07/24 18:39:38","新北市板橋區大觀路三段54號","121.433108333333","24.9955733333333","6500500","新莊區"
"238015","755-BX","2017/07/24 18:39:31","新北市樹林區備內街142號","121.408938333333","24.9895133333333","6500700","樹林區"
"238023","601-UM","2017/07/24 18:39:27","新北市樹林區三福街114號","121.406496666667","25.0164183333333","6500700","樹林區"
"238019","599-UM","2017/07/24 18:39:26","新北市樹林區中華路190-16號","121.411706666667","24.9805866666667","6500700","樹林區"
"238018","571-TV","2017/07/24 18:39:41","新北市樹林區樹新路50巷5弄28號","121.429433333333","24.99676","6500700","樹林區"
"238024","5061-A6","2017/07/24 18:39:32","新北市樹林區中華路190-8號","121.411203333333","24.9805316666667","6500700","樹林區"
"238025","303-VK","2017/07/24 18:39:38","新北市樹林區中山路三段22號","121.395613333333","24.9729016666667","6500700","樹林區"
"238020","268-VK","2017/07/24 18:05:46","新北市樹林區俊興街257號","121.417981666667","25.0165083333333","6500700","樹林區"
"238026","172-UY","2017/07/24 18:39:38","新北市樹林區八德街1016號","121.391278333333","24.9685333333333","6500700","樹林區"
"238016","169-UY","2017/07/24 18:39:31","新北市樹林區文化街23號","121.419318333333","24.9876483333333","6500700","樹林區"
"239007","AAC-297","2017/07/24 18:39:36","新北市鶯歌區中正一路478號","121.366523333333","24.9568133333333","6500800","鶯歌區"
"239008","527-UM","2017/07/24 18:39:39","新北市鶯歌區國際一路179號","121.336203333333","24.9764816666667","6500800","鶯歌區"
"239005","526-UM","2017/07/24 18:39:24","新北市鶯歌區鳳吉二街116號","121.327783333333","24.97438","6500800","鶯歌區"
"239001","417-VK","2017/07/24 18:39:08","新北市鶯歌區高職南街5號","121.337125","24.939555","6500800","鶯歌區"
"239003","360-BY","2017/07/24 18:39:43","新北市鶯歌區鶯桃路518號","121.33171","24.9665966666667","6500800","鶯歌區"
"239004","193-VK","2017/07/24 18:39:35","新北市鶯歌區中正三路35號","121.33939","24.9419533333333","6500800","鶯歌區"
"221008","489-VK","2017/07/24 18:39:32","新北市汐止區康寧街901號","121.651435","25.0750783333333","6501100","汐止區"
"221036","130-UY","2017/07/24 18:39:27","新北市汐止區南昌街31號","121.663155","25.069125","6501100","汐止區"
"221015","131-UY","2017/07/24 18:39:34","新北市汐止區吉祥街26號","121.667753333333","25.080985","6501100","汐止區"
"221010","269-BY","2017/07/24 18:39:33","新北市汐止區瑞松街28號","121.64575","25.1056366666667","6501100","汐止區"
"221031","277-VK","2017/07/24 18:39:22","新北市汐止區大同路一段166號","121.63404","25.0573033333333","6501100","汐止區"
"221012","278-VK","2017/07/24 18:39:05","新北市汐止區長興街二段1號","121.671561666667","25.0808866666667","6501100","汐止區"
"221023","279-VK","2017/07/24 15:01:37","新北市汐止區康寧街901號","121.651661666667","25.0749716666667","6501100","汐止區"
"221032","280-BY","2017/07/24 18:39:32","新北市汐止區民權街二段79號","121.619173333333","25.0479766666667","6501100","汐止區"
"221027","281-BY","2017/07/24 18:39:38","新北市汐止區和平街84號","121.661476666667","25.0707583333333","6501100","汐止區"
"221038","297-VK","2017/07/24 18:39:23","新北市汐止區汐萬路一段124號","121.653648333333","25.0712316666667","6501100","汐止區"
"221029","298-VK","2017/07/24 18:39:31","新北市汐止區樟樹一路133巷1號","121.642128333333","25.0650733333333","6501100","汐止區"
"221021","299-VK","2017/07/24 17:45:45","新北市汐止區長江街一段100巷1號","121.656271666667","25.0699266666667","6501100","汐止區"
"221035","622-UM","2017/07/24 18:39:28","新北市汐止區大同路二段298號","121.65522","25.0665566666667","6501100","汐止區"
"221025","623-UM","2017/07/24 18:39:41","新北市汐止區仁愛路119巷25號","121.662016666667","25.064355","6501100","汐止區"
"221033","647-BX","2017/07/24 18:39:38","台北市南港區舊莊街一段145巷12號","121.620605","25.0409766666667","6501100","汐止區"
"221002","707-TV","2017/07/24 18:39:26","新北市汐止區中興路25號","121.636933333333","25.0596583333333","6501100","汐止區"
"220079","145-BY","2017/07/24 18:39:29","新北市板橋區大觀路一段26號","121.44983","25.00861","6500100","板橋區"
"220080","200-UY","2017/07/24 18:39:39","新北市板橋區華東街1-9號","121.44826","24.994815","6500100","板橋區"
"220082","610-BX","2017/07/24 18:39:40","新北市板橋區華東街1-9號","121.44809","24.9949433333333","6500100","板橋區"
"220056","276-BY","2017/07/24 18:39:35","新北市板橋區四川路一段268號","121.458935","25.00107","6500100","板橋區"
"220072","277-BY","2017/07/24 18:39:34","新北市板橋區華東街1-10號","121.44827","24.9951266666667","6500100","板橋區"
"220071","283-VK","2017/07/24 18:39:27","新北市板橋區民生路二段15-1號","121.472798333333","25.0164283333333","6500100","板橋區"
"220094","285-UM","2017/07/24 18:39:40","新北市板橋區民生路二段188號","121.470215","25.0203933333333","6500100","板橋區"
"220053","285-VK","2017/07/24 18:39:35","新北市板橋區民生路二段16號","121.472931666667","25.0164666666667","6500100","板橋區"
"220083","286-VK","2017/07/24 18:39:36","新北市板橋區華東街1-9號","121.448251666667","24.994875","6500100","板橋區"
"220081","287-VK","2017/07/24 18:39:36","新北市板橋區華東街1-10號","121.448333333333","24.9949216666667","6500100","板橋區"
"220061","295-UM","2017/07/24 18:39:25","新北市板橋區民生路二段22號","121.472928333333","25.01661","6500100","板橋區"
"220084","296-UM","2017/07/24 18:39:43","新北市板橋區華東街1-9號","121.448156666667","24.9948733333333","6500100","板橋區"
"220075","297-UM","2017/07/24 18:39:31","新北市板橋區華東街1-9號","121.448171666667","24.994905","6500100","板橋區"
"220062","303-R5","2017/07/24 18:39:31","新北市板橋區民生路二段17號","121.472635","25.016445","6500100","板橋區"
"220064","486-VK","2017/07/24 16:53:26","新北市板橋區民生路二段17號","121.472458333333","25.0164333333333","6500100","板橋區"
"220035","560-BX","2017/07/24 18:39:30","新北市板橋區南雅西路二段145巷10號","121.45162","25.0119116666667","6500100","板橋區"
"220103","561-BX","2017/07/24 18:39:37","新北市板橋區民生路二段120號","121.470335","25.0199583333333","6500100","板橋區"
"220091","637-BX","2017/07/24 18:39:39","新北市板橋區萬板路11號","121.470496666667","25.020765","6500100","板橋區"
"220057","686-BX","2017/07/24 18:39:30","新北市板橋區民生路二段36-1號","121.472645","25.0167816666667","6500100","板橋區"
"220077","687-BX","2017/07/24 18:39:36","新北市板橋區華東街1-9號","121.44826","24.9949166666667","6500100","板橋區"
"220093","689-BX","2017/07/24 18:39:34","新北市板橋區民生路二段120號","121.470978333333","25.0195416666667","6500100","板橋區"
"220054","741-BX","2017/07/24 18:39:40","新北市板橋區民生路二段22號","121.472975","25.016615","6500100","板橋區"
"220074","895-R6","2017/07/24 18:39:28","新北市板橋區華東街1-10號","121.448276666667","24.9949116666667","6500100","板橋區"
"220097","AAC-210","2017/07/24 18:39:31","新北市板橋區民生路二段161巷1號","121.470238333333","25.0198783333333","6500100","板橋區"
"220070","AAC-253","2017/07/24 18:39:33","新北市板橋區民生路二段36-1號","121.472368333333","25.016565","6500100","板橋區"
