"lineid","car","time","location","longitude","latitude","cityid","cityname"
"234046","148-BY","2017/07/24 19:29:27","新北市永和區永元路58號","121.522301666667","25.0012533333333","6500400","永和區"
"234013","149-BY","2017/07/24 19:29:28","新北市永和區永和路二段119號","121.514846666667","25.0120883333333","6500400","永和區"
"234007","207-UY","2017/07/24 19:29:38","新北市永和區永和路一段69號","121.513175","25.00707","6500400","永和區"
"234081","298-R6","2017/07/24 19:29:26","新北市永和區林森路10巷1號","121.526441666667","25.0056666666667","6500400","永和區"
"234038","336-UY","2017/07/24 19:29:29","新北市永和區民樂街28號","121.527455","25.0015216666667","6500400","永和區"
"234064","337-UY","2017/07/24 19:29:17","新北市永和區永元路17巷25弄7號","121.520903333333","25.001665","6500400","永和區"
"234086","338-UY","2017/07/24 19:29:34","新北市永和區林森路99號","121.523456666667","25.0035533333333","6500400","永和區"
"234070","552-UM","2017/07/24 19:29:25","新北市永和區警光街2號","121.520215","25.0095966666667","6500400","永和區"
"234054","553-UM","2017/07/24 19:29:26","新北市永和區復興街17號","121.516068333333","25.01305","6500400","永和區"
"234017","745-BX","2017/07/24 19:29:19","新北市永和區環河西路一段87號","121.512368333333","25.017955","6500400","永和區"
"234030","746-BX","2017/07/24 19:29:34","新北市永和區民生路35號","121.522825","24.99819","6500400","永和區"
"234061","AAD-866","2017/07/24 19:29:34","新北市永和區中正路588-1號","121.517085","25.0069333333333","6500400","永和區"
"234042","862-TW","2017/07/24 19:29:31","新北市永和區中和路519巷10號","121.510883333333","25.0031433333333","6500400","永和區"
"234050","863-TW","2017/07/24 19:29:17","新北市永和區信義路109號","121.51227","25.0146383333333","6500400","永和區"
"234026","9371-KE","2017/07/24 19:29:23","新北市永和區安樂路144巷29號","121.515116666667","24.9997283333333","6500400","永和區"
"234011","9373-KE","2017/07/24 19:29:24","新北市永和區保福路二段163巷13弄3號","121.509145","25.0143316666667","6500400","永和區"
"249003","593-UM","2017/07/24 19:29:22","新北市八里區商港六路23號","121.396936666667","25.1487083333333","6502300","八里區"
"248014","025-BX","2017/07/24 19:29:30","新北市五股區民義路一段185-19號","121.431263333333","25.08741","6501500","五股區"
"248016","026-BX","2017/07/24 19:29:30","新北市五股區成洲五路12號","121.45236","25.1015183333333","6501500","五股區"
"248008","095-VK","2017/07/24 19:29:19","新北市五股區中興路一段95巷16號","121.466506666667","25.0723333333333","6501500","五股區"
"248020","225-UY","2017/07/24 19:29:32","新北市五股區壟路14-1號","121.415511666667","25.0868333333333","6501500","五股區"
"248012","247-BX","2017/07/24 19:29:35","新北市五股區中興路四段38巷9號","121.438726666667","25.08332","6501500","五股區"
"248010","272-BY","2017/07/24 19:29:36","新北市五股區水碓一路23號","121.43067","25.0712716666667","6501500","五股區"
"248004","677-BX","2017/07/24 19:29:32","新北市五股區五福路39號","121.43338","25.0896","6501500","五股區"
"248002","682-TV","2017/07/24 19:29:34","新北市五股區凌雲路一段158巷14-1號","121.447833333333","25.1035","6501500","五股區"
"234023","9380-KE","2017/07/24 19:29:35","新北市永和區竹林路91巷22號","121.520588333333","25.0123083333333","6500400","永和區"
"234077","969-R7","2017/07/24 19:29:35","新北市永和區民治街38號","121.519501666667","24.9977666666667","6500400","永和區"
"234074","AAC-211","2017/07/24 19:29:33","新北市永和區永和路二段259號","121.515945","25.01526","6500400","永和區"
"234067","AAC-212","2017/07/24 19:29:25","新北市永和區永貞路360巷8號","121.510668333333","25.0068633333333","6500400","永和區"
"234003","AAC-295","2017/07/24 19:29:19","新北市永和區永和路一段125號","121.513978333333","25.0082983333333","6500400","永和區"
"244013","069-UM","2017/07/24 19:29:33","新北市林口區麗園一街1號","121.375723333333","25.07239","6501700","林口區"
"244019","403-UM","2017/07/24 19:29:24","新北市林口區忠孝路597號","121.377706666667","25.068765","6501700","林口區"
"244023","483-VK","2017/07/24 19:29:32","新北市林口區文化三路二段1-1號","121.372828333333","25.078465","6501700","林口區"
"243010","267-VK","2017/07/24 19:29:33","新北市泰山區民權街37號","121.429158333333","25.0509383333333","6501600","泰山區"
"243013","AAD-798","2017/07/24 19:29:18","新北市泰山區明志路三段145巷61號","121.427331666667","25.0391016666667","6501600","泰山區"
"243009","297-R6","2017/07/24 19:29:21","新北市泰山區半山雅1號","121.431813333333","25.0673183333333","6501600","泰山區"
"243015","380-SR","2017/07/24 19:29:32","新北市泰山區明志路二段103-1號","121.428195","25.0516833333333","6501600","泰山區"
"243014","421-VK","2017/07/24 19:29:36","新北市泰山區仁愛路126號","121.433921666667","25.055765","6501600","泰山區"
"243011","549-UM","2017/07/24 19:29:35","新北市三重區新北大道六段50-1號","121.429275","25.0401516666667","6501600","泰山區"
"243012","646-TV","2017/07/24 19:29:19","新北市泰山區明志路一段501巷19號","121.431363333333","25.0545283333333","6501600","泰山區"
"243016","680-BX","2017/07/24 19:29:31","新北市泰山區明志路三段222號","121.421385","25.035925","6501600","泰山區"
"222003","436-BY","2017/07/24 19:29:16","新北市深坑區深南路88巷1號","121.621001666667","25.0117216666667","6501800","深坑區"
"222001","628-TS","2017/07/24 19:29:29","新北市深坑區深坑街10號","121.615873333333","25.0027866666667","6501800","深坑區"
"222002","659-BX","2017/07/24 19:29:26","新北市深坑區北深路一段177號","121.63252","25.0108766666667","6501800","深坑區"
"231041","002-UM","2017/07/24 19:29:23","新北市新店區中正路669號","121.533946666667","24.9898516666667","6500600","新店區"
"231059","046-UY","2017/07/24 19:29:27","新北市新店區安和路三段157號","121.516523333333","24.9857983333333","6500600","新店區"
"231061","047-UY","2017/07/24 19:29:27","新北市新店區安民街15號","121.515346666667","24.9646033333333","6500600","新店區"
"231060","106-UY","2017/07/24 19:29:28","新北市新店區安和路一段1號","121.516763333333","24.96386","6500600","新店區"
"231051","107-UY","2017/07/24 19:29:23","新北市新店區中央五街15-1號","121.52957","24.9743816666667","6500600","新店區"
"231047","108-UY","2017/07/24 19:29:31","新北市新店區五峰路140號","121.544666666667","24.9656483333333","6500600","新店區"
"231052","187-VK","2017/07/24 19:29:30","新北市新店區屈尺路55-2號","121.546015","24.9226233333333","6500600","新店區"
"231057","256-BX","2017/07/24 19:29:31","新北市新店區花園一路三段45號","121.550631666667","24.9328316666667","6500600","新店區"
"231063","268-BY","2017/07/24 19:29:26","新北市新店區達觀路16號","121.503163333333","24.940785","6500600","新店區"
"231046","278-BY","2017/07/24 19:29:24","新北市新店區安康路一段3-1號","121.534873333333","24.96079","6500600","新店區"
"231050","AAD-862","2017/07/24 19:29:17","新北市新店區秀水路39號","121.555265","24.9558683333333","6500600","新店區"
"231058","3712-VJ","2017/07/24 19:29:33","新北市新店區北新路二段226號","121.542855","24.9773","6500600","新店區"
"231067","4772-VM","2017/07/24 19:29:17","新北市新店區安德街60巷19號","121.510395","24.96319","6500600","新店區"
"231065","512-UM","2017/07/24 19:29:20","新北市新店區安祥路109巷1弄97號","121.478895","24.9602633333333","6500600","新店區"
"231054","513-UM","2017/07/24 19:29:32","新北市新店區文中路51號","121.539801666667","24.9565833333333","6500600","新店區"
"231064","515-UM","2017/07/24 19:29:15","新北市新店區安康路二段85巷1號","121.513588333333","24.962555","6500600","新店區"
"231045","617-UM","2017/07/24 19:29:33","新北市新店區北宜路二段207號","121.553131666667","24.9532966666667","6500600","新店區"
"231040","619-UM","2017/07/24 19:29:18","新北市新店區中華路14號","121.540543333333","24.967565","6500600","新店區"
"231042","641-BX","2017/07/24 19:29:33","新北市新店區中興路一段112號","121.540915","24.9618083333333","6500600","新店區"
"231049","719-UM","2017/07/24 19:29:32","新北市新店區二十張路1巷3弄3號","121.540656666667","24.9821383333333","6500600","新店區"
"231062","720-UM","2017/07/24 19:29:23","新北市新店區莒光路59號","121.523425","24.9588266666667","6500600","新店區"
"231044","897-TW","2017/07/24 19:29:26","新北市新店區中興路三段245號","121.542868333333","24.98389","6500600","新店區"
"231043","899-TW","2017/07/24 19:29:32","新北市新店區民族路1號","121.542401666667","24.9787983333333","6500600","新店區"
"231066","AKT-0513","2017/07/24 19:29:32","新北市新店區安康路三段165巷2弄10號","121.489171666667","24.9513583333333","6500600","新店區"
"241028","022-UY","2017/07/24 19:29:35","新北市三重區中寮街50號","121.492805","25.0586583333333","6500200","三重區"
"241009","060-VK","2017/07/24 19:29:22","新北市三重區溪尾街242巷68號","121.48616","25.0813783333333","6500200","三重區"
"241031","061-VK","2017/07/24 19:29:37","新北市三重區集美街100號","121.488531666667","25.0541433333333","6500200","三重區"
"241017","063-VK","2017/07/24 19:29:24","新北市三重區中正北路105號","121.489455","25.0632766666667","6500200","三重區"
"241026","066-VK","2017/07/24 19:29:34","新北市三重區文化南路47巷17號","121.49959","25.0611783333333","6500200","三重區"
"241008","156-TC","2017/07/24 19:29:19","新北市三重區永福街135巷30號","121.47753","25.07708","6500200","三重區"
"241022","267-UM","2017/07/24 19:29:30","新北市三重區三民街163-1號","121.483486666667","25.06484","6500200","三重區"
"241032","269-UM","2017/07/24 19:29:27","新北市三重區三陽路24號","121.48562","25.0587383333333","6500200","三重區"
"241025","271-UM","2017/07/24 19:29:19","新北市三重區頂崁街210巷28弄1號","121.475791666667","25.0678066666667","6500200","三重區"
"241007","398-BY","2017/07/24 19:29:21","新北市三重區溪尾街154號","121.488928333333","25.0799633333333","6500200","三重區"
"241020","413-TH","2017/07/24 19:29:26","新北市三重區三和路四段44巷7號","121.490033333333","25.0743566666667","6500200","三重區"
"241019","478-VK","2017/07/24 19:29:29","新北市三重區力行路一段91號","121.486415","25.06809","6500200","三重區"
"241030","480-VK","2017/07/24 19:29:27","新北市三重區成功路41巷9號","121.490258333333","25.0515016666667","6500200","三重區"
"241023","545-UM","2017/07/24 19:29:37","新北市三重區頂崁街99號","121.477835","25.0638133333333","6500200","三重區"
"241006","AAD-863","2017/07/24 19:29:25","新北市三重區三和路四段272號","121.485603333333","25.0772416666667","6500200","三重區"
"241035","743-BX","2017/07/24 19:29:21","新北市三重區信義西街1號","121.49818","25.0649083333333","6500200","三重區"
"241029","942-UM","2017/07/24 19:29:27","新北市三重區重安街144號","121.495455","25.0548966666667","6500200","三重區"
"235066","003-UY","2017/07/24 19:29:35","新北市中和區景新街40號","121.50359","24.99927","6500300","中和區"
"235063","031-BX","2017/07/24 19:29:19","新北市中和區連城路249巷26弄1號","121.494588333333","24.9952633333333","6500300","中和區"
"235056","096-UM","2017/07/24 19:29:33","新北市中和區民富街36號","121.47681","25.0066183333333","6500300","中和區"
"235039","097-UM","2017/07/24 19:29:15","新北市中和區秀峰街89號","121.521276666667","24.990255","6500300","中和區"
"235065","098-UM","2017/07/24 19:29:35","新北市中和區中山路二段2巷3弄1號","121.504938333333","25.0060583333333","6500300","中和區"
"235040","150-BY","2017/07/24 19:29:27","新北市中和區保健路10巷24號","121.508031666667","24.9966","6500300","中和區"
"235058","151-BY","2017/07/24 19:29:27","新北市中和區員山路36巷16-2號","121.485168333333","24.99151","6500300","中和區"
"235055","183-VK","2017/07/24 19:29:27","新北市中和區德光路47號","121.470205","25.004065","6500300","中和區"
"235038","185-VK","2017/07/24 19:29:23","新北市中和區大智街55巷31號","121.52061","24.9927833333333","6500300","中和區"
"235013","186-VK","2017/07/24 19:29:27","新北市中和區景新街295巷10號","121.511078333333","24.9934133333333","6500300","中和區"
"235067","255-BX","2017/07/24 19:29:31","新北市中和區中正路725號","121.485068333333","24.998965","6500300","中和區"
"235044","293-VK","2017/07/24 19:29:23","新北市中和區中興街263-1號","121.500025","24.9887166666667","6500300","中和區"
"235043","352-BY","2017/07/24 19:29:27","新北市中和區南山路179號","121.502806666667","24.9951816666667","6500300","中和區"
"235051","376-QA","2017/07/24 19:29:37","新北市中和區景平路239巷3號","121.509918333333","24.9926166666667","6500300","中和區"
"235068","377-QA","2017/07/24 19:29:21","新北市中和區連勝街55號","121.497845","24.9971833333333","6500300","中和區"
"235061","378-QA","2017/07/24 19:29:24","新北市中和區員山路141號","121.480906666667","24.99611","6500300","中和區"
"235050","4979-A6","2017/07/24 19:29:32","新北市中和區中正路637巷52弄1號","121.485446666667","24.9935616666667","6500300","中和區"
"235069","4980-A6","2017/07/24 19:29:15","新北市中和區中山路二段332巷13號","121.494301666667","25.0028466666667","6500300","中和區"
"235042","551-UM","2017/07/24 19:29:28","新北市中和區中和路378巷21號","121.511473333333","25.0016666666667","6500300","中和區"
"235070","558-UM","2017/07/24 19:29:35","新北市中和區中和路20號","121.499728333333","25.0018866666667","6500300","中和區"
"235045","565-BX","2017/07/24 19:29:24","新北市中和區景新街423巷33弄2號","121.513856666667","24.98985","6500300","中和區"
"235054","640-BX","2017/07/24 19:29:27","新北市中和區國光街109巷25號","121.469471666667","24.99959","6500300","中和區"
"235060","647-TV","2017/07/24 19:29:37","新北市中和區員山路294巷11號","121.482003333333","25.0024733333333","6500300","中和區"
"235047","732-UM","2017/07/24 19:29:23","新北市中和區景平路241巷31號","121.50876","24.9924716666667","6500300","中和區"
"235046","733-UM","2017/07/24 19:29:25","新北市中和區忠孝街37巷30號","121.510848333333","24.9842766666667","6500300","中和區"
"235071","783-BX","2017/07/24 19:29:21","新北市中和區連城路290號","121.484175","24.99631","6500300","中和區"
"235057","801-TS","2017/07/24 19:29:33","新北市中和區員山路423巷14弄1-1號","121.480338333333","25.0029083333333","6500300","中和區"
"235041","802-TS","2017/07/24 19:29:27","新北市中和區景安路6號","121.50767","24.9991733333333","6500300","中和區"
"235052","805-TS","2017/07/24 19:29:23","新北市中和區華新街143巷65弄2號","121.506655","24.9789266666667","6500300","中和區"
"235048","896-TW","2017/07/24 19:29:21","新北市中和區忠孝街135號","121.51275","24.9881233333333","6500300","中和區"
"235053","900-TW","2017/07/24 19:29:23","新北市中和區華安街19巷10號","121.467508333333","24.9979283333333","6500300","中和區"
"235064","911-UM","2017/07/24 19:29:19","新北市中和區連城路5號","121.499226666667","25.0022916666667","6500300","中和區"
"235037","AAC-213","2017/07/24 19:29:16","新北市中和區秀朗路三段10巷37弄15號","121.524091666667","24.9955383333333","6500300","中和區"
"235059","AAC-215","2017/07/24 19:29:36","新北市中和區圓通路252巷6-2號","121.49276","24.99187","6500300","中和區"
"220068","013-TV","2017/07/24 19:29:32","新北市板橋區萬安街41號","121.48414","25.02355","6500100","板橋區"
"220065","072-UY","2017/07/24 19:29:33","新北市板橋區國泰街75巷28弄24號","121.46756","25.0049333333333","6500100","板橋區"
"220086","073-UY","2017/07/24 19:29:20","新北市板橋區中正路236巷16號","121.456521666667","25.01905","6500100","板橋區"
"220106","075-UY","2017/07/24 19:29:19","新北市板橋區長江路三段62號","121.473626666667","25.033885","6500100","板橋區"
"220098","120-SR","2017/07/24 19:29:33","新北市板橋區民生路三段263巷6號","121.463871666667","25.0294416666667","6500100","板橋區"
"247001","402-BY","2017/07/24 16:16:09","新北市五股區中興路三段3-6號","121.44951","25.0788083333333","6501400","蘆洲區"
"247008","339-TH","2017/07/24 19:29:34","新北市五股區四維路171巷6號","121.467551666667","25.0753366666667","6501400","蘆洲區"
"247002","336-TH","2017/07/24 19:29:21","新北市五股區中興路三段2巷10號","121.448285","25.0837333333333","6501400","蘆洲區"
"247014","057-VK","2017/07/24 19:29:19","新北市蘆洲區復興路30-1號","121.472373333333","25.0850133333333","6501400","蘆洲區"
"247004","056-VK","2017/07/24 19:29:35","新北市蘆洲區長安街303號","121.45797","25.084965","6501400","蘆洲區"
"247006","053-VK","2017/07/24 19:29:38","新北市五股區中興路三段163號","121.449155","25.0807466666667","6501400","蘆洲區"
"226004","312-R5","2017/07/24 19:29:30","新北市平溪區靜安路三段369號","121.780768333333","25.0457066666667","6502400","平溪區"
"228003","097-TW","2017/07/24 19:29:22","新北市貢寮區和美里和美街22-1號","121.912816666667","25.082615","6502600","貢寮區"
"228002","585-TW","2017/07/24 19:29:20","新北市貢寮區龍門里龍門街69號","121.93095","25.0265516666667","6502600","貢寮區"
"228001","670-TC","2017/07/24 19:29:17","新北市貢寮區真理里延平街68-1號","121.925398333333","25.0574466666667","6502600","貢寮區"
"224010","AGQ-8101","2017/07/24 19:25:19","新北市瑞芳區基山街141號","121.843926666667","25.1082866666667","6501200","瑞芳區"
"224011","420-VK","2017/07/24 19:29:35","新北市瑞芳區崙頂路1-6號","121.847035","25.1047083333333","6501200","瑞芳區"
"224008","275-VK","2017/07/24 19:29:24","新北市瑞芳區一坑路173-3號","121.80174","25.1079983333333","6501200","瑞芳區"
"224005","271-BY","2017/07/24 19:29:29","新北市瑞芳區員山子路23號","121.820905","25.1034033333333","6501200","瑞芳區"
"227008","642-TC","2017/07/24 19:29:36","新北市雙溪區新基里新基北街43號","121.868181666667","25.0396883333333","6502500","雙溪區"
"227001","400-TW","2017/07/24 19:29:32","新北市雙溪區雙溪里光復街20號","121.86516","25.035425","6502500","雙溪區"
"253006","032-BX","2017/07/24 19:29:24","新北市石門區楓林23-10號","121.539053333333","25.29111","6502200","石門區"
"253005","295-VK","2017/07/24 19:29:22","新北市石門區小坑12號","121.59218","25.2883816666667","6502200","石門區"
"208003","665-BX","2017/07/24 19:29:24","新北市金山區忠孝一路90號","121.636656666667","25.22125","6502700","金山區"
"208001","761-BX","2017/07/24 19:29:24","新北市金山區金包里街117號","121.63756","25.2224916666667","6502700","金山區"
"251009","008-UM","2017/07/24 19:12:50","新北市淡水區中正路8巷11號","121.441685","25.1698783333333","6501000","淡水區"
"251007","179-VK","2017/07/24 19:29:15","新北市淡水區坪頂路22號","121.456321666667","25.161645","6501000","淡水區"
"251008","181-VK","2017/07/24 19:29:34","新北市淡水區中正路一段80號","121.424746666667","25.17725","6501000","淡水區"
"251013","182-VK","2017/07/24 19:29:29","新北市淡水區安子內20號","121.473788333333","25.2184633333333","6501000","淡水區"
"251010","413-VK","2017/07/24 19:29:29","新北市淡水區中正路二段142-7號","121.422416666667","25.1875916666667","6501000","淡水區"
"251015","442-VK","2017/07/24 19:29:32","新北市淡水區山子頂22-2號","121.492633333333","25.189365","6501000","淡水區"
"251005","443-VK","2017/07/24 19:29:27","新北市淡水區水源街一段47巷24號","121.443965","25.17311","6501000","淡水區"
"251001","559-UM","2017/07/24 19:29:36","新北市淡水區民權路177號","121.45986","25.1355483333333","6501000","淡水區"
"251006","561-UM","2017/07/24 19:29:31","新北市淡水區大義街54號","121.44165","25.1783816666667","6501000","淡水區"
"251011","650-BX","2017/07/24 19:29:28","新北市淡水區中正東路二段143巷2弄1號","121.460706666667","25.14736","6501000","淡水區"
"251003","766-UM","2017/07/24 19:29:30","新北市淡水區中山北路二段186號","121.444278333333","25.1851616666667","6501000","淡水區"
"207003","550-UM","2017/07/24 19:29:19","新北市萬里區大鵬里萬里加投197號","121.64401","25.2150383333333","6502800","萬里區"
"207004","225-TW","2017/07/24 19:29:29","新北市萬里區萬里里瑪鋉路127-8號","121.688856666667","25.1777433333333","6502800","萬里區"
"252002","178-VK","2017/07/24 19:29:29","新北市三芝區淡金路二段18-1號","121.50261","25.25953","6502100","三芝區"
"252001","702-TV","2017/07/24 19:29:29","新北市三芝區長勤街39號","121.50077","25.2554616666667","6502100","三芝區"
"208002","170-UY","2017/07/24 19:29:35","新北市金山區仁愛路78巷2號","121.634651666667","25.2215516666667","6502700","金山區"
"237004","078-UY","2017/07/24 19:29:20","新北市三峽區有木130-1號","121.435705","24.8570183333333","6500900","三峽區"
"237007","153-BY","2017/07/24 19:29:34","新北市三峽區二鬮路178號","121.359068333333","24.9068483333333","6500900","三峽區"
"237009","210-TH","2017/07/24 19:29:28","新北市三峽區中山路13巷11號","121.368848333333","24.933955","6500900","三峽區"
"237013","252-BX","2017/07/24 19:29:23","新北市三峽區大同路39巷45號","121.37832","24.9275633333333","6500900","三峽區"
"237012","275-BY","2017/07/24 19:29:30","新北市三峽區三樹路98巷171號","121.384543333333","24.939785","6500900","三峽區"
"237008","302-VK","2017/07/24 19:29:29","新北市三峽區大同路114號","121.374161666667","24.9269016666667","6500900","三峽區"
"237014","433-BY","2017/07/24 19:29:27","新北市三峽區中山路287號","121.361661666667","24.9376783333333","6500900","三峽區"
"237006","5529-G3","2017/07/24 19:29:36","新北市三峽區中正路一段292巷35號","121.3701","24.92598","6500900","三峽區"
"237011","572-TV","2017/07/24 13:46:53","新北市三峽區中山路459巷163-3號","121.348681666667","24.9327816666667","6500900","三峽區"
"237015","649-BX","2017/07/24 19:29:28","新北市三峽區成福路308-1號","121.429","24.9234883333333","6500900","三峽區"
"237010","706-TV","2017/07/24 19:29:23","新北市三峽區復興路49號","121.37328","24.9369883333333","6500900","三峽區"
"237005","AKY-6261","2017/07/24 19:29:34","新北市三峽區復興路367巷9號","121.363725","24.9377533333333","6500900","三峽區"
"236069","105-UM","2017/07/24 19:29:35","新北市土城區學府路一段143巷18號","121.45401","24.9854416666667","6501300","土城區"
"236042","107-UM","2017/07/24 19:29:29","新北市土城區學府路一段276號","121.449978333333","24.98293","6501300","土城區"
"236078","166-UM","2017/07/24 19:29:28","新北市土城區中州路3巷33弄1號","121.41365","24.95655","6501300","土城區"
"236030","253-BX","2017/07/24 19:29:21","新北市土城區中央路一段320號","121.44315","24.9817416666667","6501300","土城區"
"236026","269-VK","2017/07/24 19:29:16","新北市土城區中央路二段61巷22號","121.443158333333","24.978695","6501300","土城區"
"236020","401-BY","2017/07/24 19:29:19","新北市土城區峰廷街8號","121.4687","24.9877433333333","6501300","土城區"
"236058","912-UM","2017/07/24 19:29:34","新北市土城區中央路二段252號","121.441878333333","24.974705","6501300","土城區"
"236048","913-UM","2017/07/24 19:29:30","新北市土城區清水路201號","121.459956666667","24.9816633333333","6501300","土城區"
"242044","172-VK","2017/07/24 19:29:20","新北市新莊區三和路12-21號","121.442053333333","25.0386583333333","6500500","新莊區"
"238015","755-BX","2017/07/24 19:29:29","新北市樹林區復興路202號","121.419726666667","24.9906283333333","6500700","樹林區"
"238023","601-UM","2017/07/24 19:29:27","新北市樹林區三興路35號","121.396143333333","25.0146683333333","6500700","樹林區"
"238019","599-UM","2017/07/24 19:29:35","新北市樹林區八德街15號","121.418043333333","24.9843233333333","6500700","樹林區"
"238018","571-TV","2017/07/24 19:29:24","新北市樹林區中華路112-1號","121.418263333333","24.9807166666667","6500700","樹林區"
"238024","5061-A6","2017/07/24 19:29:32","新北市樹林區福德街48-6號","121.399083333333","24.9745733333333","6500700","樹林區"
"238022","312-TH","2017/07/24 19:29:26","新北市樹林區國凱街66號","121.420686666667","24.9790416666667","6500700","樹林區"
"238021","311-TH","2017/07/24 19:29:27","新北市樹林區柑園街二段403-1號","121.366653333333","24.9483016666667","6500700","樹林區"
"238025","303-VK","2017/07/24 19:29:23","新北市樹林區保安二街29號","121.42473","24.9938333333333","6500700","樹林區"
"238017","283-BY","2017/07/24 19:29:23","新北市樹林區光興街123號","121.408596666667","25.0024616666667","6500700","樹林區"
"238014","282-BY","2017/07/24 19:29:27","新北市樹林區保安二街40巷18號","121.425651666667","24.9945816666667","6500700","樹林區"
"238020","268-VK","2017/07/24 18:05:46","新北市樹林區俊興街257號","121.417981666667","25.0165083333333","6500700","樹林區"
"238026","172-UY","2017/07/24 19:29:18","新北市樹林區佳園路三段93號","121.387618333333","24.95234","6500700","樹林區"
"238016","169-UY","2017/07/24 19:29:31","新北市樹林區復興路408號","121.414566666667","24.9849816666667","6500700","樹林區"
"239007","AAC-297","2017/07/24 19:29:36","新北市鶯歌區大湖路326巷22號","121.346191666667","24.9699383333333","6500800","鶯歌區"
"239006","891-R6","2017/07/24 19:29:23","新北市鶯歌區建國路512巷3號","121.340436666667","24.9509733333333","6500800","鶯歌區"
"239005","526-UM","2017/07/24 19:29:24","新北市鶯歌區中湖街315巷1號","121.346356666667","24.9781016666667","6500800","鶯歌區"
"239001","417-VK","2017/07/24 19:29:28","新北市鶯歌區建國路568號","121.338285","24.9512966666667","6500800","鶯歌區"
"239003","360-BY","2017/07/24 19:29:23","新北市鶯歌區國華路56號","121.342278333333","24.954935","6500800","鶯歌區"
"239004","193-VK","2017/07/24 19:29:35","新北市鶯歌區二甲路43-29號","121.336535","24.9342016666667","6500800","鶯歌區"
"221008","489-VK","2017/07/24 19:29:32","新北市汐止區康寧街253號","121.62483","25.06683","6501100","汐止區"
"221036","130-UY","2017/07/24 19:29:23","新北市汐止區汐萬路一段256巷1號","121.651841666667","25.0748766666667","6501100","汐止區"
"221015","131-UY","2017/07/24 19:29:34","新北市汐止區康寧街901號","121.65164","25.0749566666667","6501100","汐止區"
"221010","269-BY","2017/07/24 19:29:33","新北市汐止區康寧街901號","121.651368333333","25.07502","6501100","汐止區"
"221031","277-VK","2017/07/24 19:29:22","新北市汐止區康寧街753巷2弄20號","121.640188333333","25.0740833333333","6501100","汐止區"
"221012","278-VK","2017/07/24 19:29:25","新北市汐止區大同路三段271號","121.674221666667","25.07556","6501100","汐止區"
"221023","279-VK","2017/07/24 19:29:00","台北市內湖區康樂街261巷3號","121.627968333333","25.0873333333333","6501100","汐止區"
"221032","280-BY","2017/07/24 19:29:32","新北市汐止區康寧街901號","121.651458333333","25.0749883333333","6501100","汐止區"
"221027","281-BY","2017/07/24 19:29:27","新北市汐止區汐萬路一段39-3號","121.654925","25.0696416666667","6501100","汐止區"
"221038","297-VK","2017/07/24 19:29:23","新北市汐止區汐萬路一段312號","121.6504","25.0750316666667","6501100","汐止區"
"221029","298-VK","2017/07/24 19:29:31","新北市汐止區康寧街901號","121.651508333333","25.0750033333333","6501100","汐止區"
"221021","299-VK","2017/07/24 19:29:25","新北市汐止區康寧街901號","121.651246666667","25.0749933333333","6501100","汐止區"
"221025","623-UM","2017/07/24 19:29:26","新北市汐止區秀峰路57號","121.660016666667","25.0649","6501100","汐止區"
"221033","647-BX","2017/07/24 19:29:32","新北市汐止區南勢街1巷1號","121.627051666667","25.037405","6501100","汐止區"
"221002","707-TV","2017/07/24 19:29:26","新北市汐止區大同路一段339-2號","121.638148333333","25.0598866666667","6501100","汐止區"
"221018","753-BX","2017/07/24 19:29:23","新北市汐止區康寧街901號","121.651608333333","25.0749133333333","6501100","汐止區"
"220079","145-BY","2017/07/24 19:29:29","新北市板橋區民權路306號","121.457236666667","25.0162166666667","6500100","板橋區"
"220080","200-UY","2017/07/24 19:29:19","新北市板橋區大觀路二段19巷113號","121.450366666667","25.002645","6500100","板橋區"
"220082","610-BX","2017/07/24 19:29:20","新北市板橋區金門街306號","121.428853333333","24.985325","6500100","板橋區"
"220101","245-BX","2017/07/24 19:29:16","新北市板橋區縣民大道三段153號","121.478565","25.0239216666667","6500100","板橋區"
"220102","257-TC","2017/07/24 19:29:27","新北市板橋區松柏街2-1號","121.473903333333","25.0293616666667","6500100","板橋區"
"220069","258-TC","2017/07/24 19:29:32","新北市板橋區貴興路34號","121.457431666667","25.0036883333333","6500100","板橋區"
"220056","276-BY","2017/07/24 19:29:25","新北市板橋區國慶路49巷19弄1號","121.459256666667","24.9962066666667","6500100","板橋區"
"220072","277-BY","2017/07/24 19:29:15","新北市板橋區篤行路二段161巷2-1號","121.42956","24.987555","6500100","板橋區"
"220071","283-VK","2017/07/24 19:29:27","新北市板橋區大豐街25號","121.462126666667","25.0013816666667","6500100","板橋區"
"220094","285-UM","2017/07/24 19:29:20","新北市板橋區吳鳳路50巷7號","121.46787","25.0304933333333","6500100","板橋區"
"220053","285-VK","2017/07/24 19:29:35","新北市板橋區永豐街96-2號","121.475821666667","25.020365","6500100","板橋區"
"220083","286-VK","2017/07/24 19:29:16","新北市板橋區龍興街95巷9-1號","121.443628333333","25.002545","6500100","板橋區"
"220081","287-VK","2017/07/24 19:29:36","新北市板橋區南雅西路一段10巷7弄1號","121.454633333333","25.00445","6500100","板橋區"
"220090","288-VK","2017/07/24 19:29:24","新北市板橋區裕民街83號","121.460595","25.02819","6500100","板橋區"
"220061","295-UM","2017/07/24 19:29:24","新北市板橋區中山路二段323號","121.479176666667","25.0186966666667","6500100","板橋區"
"220084","296-UM","2017/07/24 19:29:31","新北市板橋區滿平街136巷10弄6號","121.427483333333","24.9871483333333","6500100","板橋區"
"220075","297-UM","2017/07/24 19:29:37","新北市板橋區中正路289巷6號","121.45507","25.0191716666667","6500100","板橋區"
"220062","303-R5","2017/07/24 19:29:31","新北市板橋區三民路二段183號","121.479235","25.0143433333333","6500100","板橋區"
"220092","307-R5","2017/07/24 19:29:34","新北市板橋區光武街2巷43號","121.468321666667","25.0259283333333","6500100","板橋區"
"220064","486-VK","2017/07/24 19:29:25","新北市板橋區館前東路2-2號","121.459535","25.0069866666667","6500100","板橋區"
"220089","487-VK","2017/07/24 19:29:30","新北市板橋區文化路一段112號","121.464815","25.01839","6500100","板橋區"
"220088","491-VK","2017/07/24 19:29:32","新北市板橋區雙十路二段157號","121.474513333333","25.02832","6500100","板橋區"
"220035","560-BX","2017/07/24 19:29:32","新北市板橋區中正路433巷1弄8-3號","121.45373","25.0230083333333","6500100","板橋區"
"220103","561-BX","2017/07/24 19:29:18","新北市板橋區文化路一段210號","121.466481666667","25.0201866666667","6500100","板橋區"
"220063","609-BX","2017/07/24 19:29:34","新北市板橋區三民路一段31巷89弄7-2號","121.481945","25.0234483333333","6500100","板橋區"
"220091","637-BX","2017/07/24 19:29:20","新北市板橋區文聖街149巷24號","121.479616666667","25.02857","6500100","板橋區"
"220057","686-BX","2017/07/24 19:29:31","新北市板橋區五權街30巷1號","121.464801666667","24.993395","6500100","板橋區"
"220077","687-BX","2017/07/24 19:29:36","新北市板橋區僑中二街106巷1號","121.445893333333","25.007505","6500100","板橋區"
"220093","689-BX","2017/07/24 19:29:34","新北市板橋區新海路59號","121.461913333333","25.021435","6500100","板橋區"
"220054","741-BX","2017/07/24 19:29:20","新北市板橋區校前街22號","121.46054","25.003045","6500100","板橋區"
"220055","827-TW","2017/07/24 19:29:25","新北市板橋區重慶路278巷15號","121.462411666667","24.9995633333333","6500100","板橋區"
"220067","829-TW","2017/07/24 19:29:31","新北市板橋區漢生東路313巷21號","121.472481666667","25.008395","6500100","板橋區"
"220096","831-TW","2017/07/24 19:29:18","新北市板橋區大同街35巷9號","121.477638333333","25.02766","6500100","板橋區"
"220074","895-R6","2017/07/24 19:29:28","新北市板橋區中正路自強新村78號","121.454828333333","25.0128066666667","6500100","板橋區"
"220073","985-R7","2017/07/24 19:29:20","新北市板橋區瑞安街47號","121.45532","25.0223766666667","6500100","板橋區"
"220097","AAC-210","2017/07/24 19:29:31","新北市板橋區新海路135巷1號","121.460661666667","25.0233683333333","6500100","板橋區"
"220070","AAC-253","2017/07/24 19:29:33","新北市板橋區忠孝路145號","121.463371666667","25.0023466666667","6500100","板橋區"
