"lineid","car","time","location","longitude","latitude","cityid","cityname"
"234023","9380-KE","2017/07/24 20:57:04","新北市永和區仁愛路301號","121.503918333333","25.00814","6500400","永和區"
"234067","AAC-212","2017/07/24 20:57:05","新北市三重區後埔街61號","121.479651666667","25.0486533333333","6500400","永和區"
"222001","628-TS","2017/07/24 20:57:09","新北市深坑區北深路三段25巷15-1號","121.608695","25.0000683333333","6501800","深坑區"
"231059","046-UY","2017/07/24 20:57:07","新北市新店區僑信路118號","121.500451666667","24.9464316666667","6500600","新店區"
"231061","047-UY","2017/07/24 20:57:18","新北市新店區永安街87號","121.520111666667","24.986425","6500600","新店區"
"231060","106-UY","2017/07/24 20:57:08","新北市新店區安康路三段537號","121.479975","24.9473083333333","6500600","新店區"
"231051","107-UY","2017/07/24 20:57:03","新北市新店區民生路145巷35號","121.529558333333","24.9806416666667","6500600","新店區"
"231047","108-UY","2017/07/24 20:57:09","新北市新店區寶中路95-6號","121.548186666667","24.9832016666667","6500600","新店區"
"231057","256-BX","2017/07/24 20:57:11","新北市新店區新烏路一段58-2號","121.546031666667","24.9470433333333","6500600","新店區"
"231063","268-BY","2017/07/24 20:57:11","新北市新店區富貴街12巷2號","121.494098333333","24.9493533333333","6500600","新店區"
"231050","AAD-862","2017/07/24 20:57:17","新北市新店區三民路117巷2弄2號","121.534666666667","24.9718916666667","6500600","新店區"
"231058","3712-VJ","2017/07/24 20:57:13","新北市新店區平等街1號","121.537048333333","24.9742866666667","6500600","新店區"
"231065","512-UM","2017/07/24 20:57:00","新北市新店區安祥路69巷46號","121.481983333333","24.9601633333333","6500600","新店區"
"231054","513-UM","2017/07/24 20:57:12","新北市新店區北新路一段96巷27號","121.543088333333","24.96945","6500600","新店區"
"231064","515-UM","2017/07/24 20:57:15","新北市新店區安和路二段167號","121.518661666667","24.9744266666667","6500600","新店區"
"231040","619-UM","2017/07/24 20:57:18","新北市新店區中正路146號","121.541695","24.9716083333333","6500600","新店區"
"231042","641-BX","2017/07/24 20:57:13","新北市新店區寶橋路192號","121.550705","24.97806","6500600","新店區"
"231068","718-UY","2017/07/24 20:57:14","新北市新店區寶元路二段64巷1號","121.54723","24.9810266666667","6500600","新店區"
"231062","720-UM","2017/07/24 20:57:03","新北市新店區裕合街74號","121.49029","24.94851","6500600","新店區"
"231043","899-TW","2017/07/24 20:57:12","新北市新店區建國路104-1號","121.539898333333","24.9777983333333","6500600","新店區"
"231066","AKT-0513","2017/07/24 20:57:12","新北市新店區安民街133巷26號","121.515495","24.9696516666667","6500600","新店區"
"241011","013-R5","2017/07/24 20:57:11","新北市三重區秀江街119號","121.499673333333","25.07221","6500200","三重區"
"241028","022-UY","2017/07/24 20:57:15","新北市三重區新北大道一段1號","121.491453333333","25.0612866666667","6500200","三重區"
"241009","060-VK","2017/07/24 20:57:02","新北市三重區三和路四段388-2號","121.481991666667","25.079165","6500200","三重區"
"241031","061-VK","2017/07/24 20:57:16","新北市三重區重陽路一段113巷2弄2號","121.487546666667","25.0598633333333","6500200","三重區"
"241015","062-VK","2017/07/24 20:57:07","新北市三重區福德北路59號","121.502083333333","25.065445","6500200","三重區"
"241017","063-VK","2017/07/24 20:57:04","新北市三重區民生街38巷2弄24號","121.49224","25.0672566666667","6500200","三重區"
"241026","066-VK","2017/07/24 20:57:14","新北市三重區文化南路45號","121.500218333333","25.0614483333333","6500200","三重區"
"241002","090-VK","2017/07/24 20:57:13","新北市三重區仁義街157巷52號","121.498266666667","25.0815816666667","6500200","三重區"
"241003","091-VK","2017/07/24 20:57:19","新北市三重區五華街141巷58號","121.49359","25.0867866666667","6500200","三重區"
"241008","156-TC","2017/07/24 20:57:19","新北市三重區永福街72巷11號","121.479378333333","25.0767866666667","6500200","三重區"
"241024","265-UM","2017/07/24 20:57:16","新北市三重區大勇街49號","121.48131","25.071995","6500200","三重區"
"241016","266-UM","2017/07/24 20:57:18","新北市三重區長壽西街143-3號","121.494296666667","25.0667533333333","6500200","三重區"
"241022","267-UM","2017/07/24 20:57:10","新北市三重區中正北路20巷12號","121.488015","25.0626","6500200","三重區"
"241018","268-UM","2017/07/24 20:57:23","新北市三重區自強路一段236號","121.493435","25.0670716666667","6500200","三重區"
"241032","269-UM","2017/07/24 20:57:06","新北市三重區三陽路118號","121.482978333333","25.0587833333333","6500200","三重區"
"241013","270-UM","2017/07/24 20:57:18","新北市三重區仁賢街6號","121.49566","25.07481","6500200","三重區"
"241025","271-UM","2017/07/24 20:57:19","新北市三重區貴陽街14號","121.484203333333","25.0618033333333","6500200","三重區"
"241007","398-BY","2017/07/24 20:57:01","新北市三重區慈愛街10號","121.484545","25.07841","6500200","三重區"
"241020","413-TH","2017/07/24 20:57:06","新北市三重區忠孝路二段35號","121.485883333333","25.0710816666667","6500200","三重區"
"241004","475-VK","2017/07/24 20:57:20","新北市三重區溪尾街227巷1弄1號","121.488505","25.081345","6500200","三重區"
"241019","478-VK","2017/07/24 20:57:09","新北市三重區自強路二段74巷19號","121.488068333333","25.0698633333333","6500200","三重區"
"241030","480-VK","2017/07/24 20:57:06","新北市三重區昌隆街26號","121.491986666667","25.0522966666667","6500200","三重區"
"241014","543-UM","2017/07/24 20:57:19","新北市三重區長壽街120巷11號","121.5025","25.0690433333333","6500200","三重區"
"241023","545-UM","2017/07/24 20:57:17","新北市三重區忠孝路三段50巷41弄66號","121.482298333333","25.06375","6500200","三重區"
"241001","547-UM","2017/07/24 20:57:17","新北市三重區三和路四段118巷11號","121.488431666667","25.07471","6500200","三重區"
"241006","AAD-863","2017/07/24 20:57:05","新北市三重區永福街23號","121.481701666667","25.0781716666667","6500200","三重區"
"241005","887-TS","2017/07/24 20:57:05","新北市三重區五華街163號","121.49049","25.0848916666667","6500200","三重區"
"241012","941-UM","2017/07/24 20:57:10","新北市三重區仁信街6號","121.501306666667","25.0754766666667","6500200","三重區"
"241029","942-UM","2017/07/24 20:57:06","新北市三重區重新路三段132號","121.491666666667","25.0598683333333","6500200","三重區"
"241033","AAC-255","2017/07/24 20:57:01","新北市三重區光復路二段1號","121.47227","25.0533233333333","6500200","三重區"
"235069","4980-A6","2017/07/24 20:57:15","新北市中和區中正路637巷44弄8號","121.484915","24.9945","6500300","中和區"
"235026","800-TS","2017/07/24 20:25:35","新北市中和區員山路36巷16-3號","121.485106666667","24.9913783333333","6500300","中和區"
"247020","893-R6","2017/07/24 20:57:13","新北市蘆洲區民族路371號","121.471048333333","25.09122","6501400","蘆洲區"
"247018","500-BY","2017/07/24 20:57:09","新北市蘆洲區民權路108號","121.473825","25.0882483333333","6501400","蘆洲區"
"247001","402-BY","2017/07/24 16:16:09","新北市五股區中興路三段3-6號","121.44951","25.0788083333333","6501400","蘆洲區"
"247008","339-TH","2017/07/24 20:57:15","新北市蘆洲區和平路15號","121.472593333333","25.07928","6501400","蘆洲區"
"247024","337-TH","2017/07/24 20:57:12","新北市蘆洲區光榮路22號","121.460575","25.08822","6501400","蘆洲區"
"247002","336-TH","2017/07/24 20:57:20","新北市蘆洲區長安街315號","121.457531666667","25.0860933333333","6501400","蘆洲區"
"247014","057-VK","2017/07/24 20:56:59","新北市蘆洲區中山二路36巷1號","121.47445","25.0824116666667","6501400","蘆洲區"
"247004","056-VK","2017/07/24 20:57:15","新北市蘆洲區永安南路二段254號","121.45973","25.08028","6501400","蘆洲區"
"247006","053-VK","2017/07/24 20:57:17","新北市蘆洲區永安南路二段18號","121.46768","25.076985","6501400","蘆洲區"
"247012","007-UY","2017/07/24 20:57:15","新北市蘆洲區民權路5號","121.476675","25.0857683333333","6501400","蘆洲區"
"247022","002-UY","2017/07/24 20:57:04","新北市蘆洲區水湳街36-8號","121.47128","25.089785","6501400","蘆洲區"
"247016","001-UY","2017/07/24 20:57:13","新北市蘆洲區正和街43號","121.469303333333","25.0816066666667","6501400","蘆洲區"
"224011","420-VK","2017/07/24 20:28:28","新北市瑞芳區明燈路二段66號","121.80931","25.1075933333333","6501200","瑞芳區"
"251007","179-VK","2017/07/24 20:57:15","新北市淡水區仁愛街2巷42號","121.446805","25.171765","6501000","淡水區"
"251013","182-VK","2017/07/24 20:57:09","新北市淡水區行忠路253號","121.46027","25.200375","6501000","淡水區"
"251010","413-VK","2017/07/24 20:57:09","新北市淡水區淡海路23號","121.423695","25.1790816666667","6501000","淡水區"
"251012","441-VK","2017/07/24 20:57:03","新北市淡水區淡金路五段52號","121.454215","25.2331066666667","6501000","淡水區"
"251015","442-VK","2017/07/24 20:57:12","新北市淡水區淡金路四段542巷17號","121.45268","25.227075","6501000","淡水區"
"251005","443-VK","2017/07/24 20:57:06","新北市淡水區學府路96號","121.449231666667","25.1711416666667","6501000","淡水區"
"251001","559-UM","2017/07/24 20:57:16","新北市淡水區水源街二段194號","121.456755","25.176145","6501000","淡水區"
"251011","650-BX","2017/07/24 20:57:08","新北市淡水區新民街一段13-1號","121.433125","25.1846883333333","6501000","淡水區"
"251002","672-BX","2017/07/24 20:57:06","新北市淡水區英專路68號","121.445721666667","25.171065","6501000","淡水區"
"251003","766-UM","2017/07/24 20:57:10","新北市淡水區新春街174號","121.443175","25.1809833333333","6501000","淡水區"
"252001","702-TV","2017/07/24 20:57:09","新北市三芝區淡金路二段91號","121.504098333333","25.2608166666667","6502100","三芝區"
"236058","912-UM","2017/07/24 20:45:34","新北市樹林區中山路三段210-2號","121.38085","24.9672233333333","6501300","土城區"
"242021","AAC-296","2017/07/24 20:57:20","新北市新莊區中華路一段73號","121.452233333333","25.0400716666667","6500500","新莊區"
"242023","613-BX","2017/07/24 20:57:10","新北市新莊區思源路38號","121.459821666667","25.0428866666667","6500500","新莊區"
"242036","566-BX","2017/07/24 20:57:14","新北市新莊區建安街16巷2號","121.428478333333","25.026545","6500500","新莊區"
"242042","497-BY","2017/07/24 20:57:15","新北市新莊區中正路700-39號","121.417605","25.027615","6500500","新莊區"
"242002","413-TV","2017/07/24 20:57:14","新北市新莊區瓊林路13-5號","121.448546666667","25.0306166666667","6500500","新莊區"
"242053","349-TH","2017/07/24 20:57:18","新北市樹林區俊英街248巷23號","121.426073333333","25.011495","6500500","新莊區"
"238023","601-UM","2017/07/24 20:57:07","新北市樹林區育德街78-1號","121.387321666667","24.9679983333333","6500700","樹林區"
"221031","277-VK","2017/07/24 20:57:02","新北市汐止區汐萬路一段256巷3號","121.653373333333","25.0746666666667","6501100","汐止區"
"221035","622-UM","2017/07/24 20:57:08","新北市汐止區汐萬路一段256巷1號","121.651995","25.0747","6501100","汐止區"
"221018","753-BX","2017/07/24 20:57:03","新北市汐止區汐萬路一段81號","121.654576666667","25.0702916666667","6501100","汐止區"
"220069","258-TC","2017/07/24 20:57:12","新北市八里區下罟子8-10號","121.384863333333","25.1450116666667","6500100","板橋區"
"220070","AAC-253","2017/07/24 20:55:33","新北市五股區中直路21號","121.420658333333","25.1122483333333","6500100","板橋區"
