"lineid","car","time","location","longitude","latitude","cityid","cityname"
"224011","AGQ-8101","2017/11/26 18:37:38","新北市瑞芳區金光路334號","121.848113333333","25.1093916666667","6501200","瑞芳區"
"251013","179-VK","2017/11/26 18:39:48","新北市三芝區興華里田心子34-3號","121.485661666667","25.2046666666667","6501000","淡水區"
"251014","180-VK","2017/11/26 18:39:49","新北市淡水區南平19-3號","121.493855","25.2178416666667","6501000","淡水區"
"251015","182-VK","2017/11/26 18:39:45","新北市淡水區興福寮66巷295號","121.485816666667","25.1618766666667","6501000","淡水區"
"251016","442-VK","2017/11/26 18:39:35","新北市淡水區下圭柔山84-1號","121.438918333333","25.2050783333333","6501000","淡水區"
