"lineid","car","time","location","longitude","latitude","cityid","cityname"
"232010","375-UM","2017/07/22 07:59:33","新北市坪林區厚德岡坑8-5號","121.733168333333","24.940895","6502000","坪林區"
"244005","248-BX","2017/07/22 07:59:33","新北市林口區下福里70-1號","121.308543333333","25.1149","6501700","林口區"
"222004","289-BY","2017/07/22 07:11:16","新北市深坑區昇高坑路53號","121.631705","24.98916","6501800","深坑區"
"231007","189-VK","2017/07/22 07:59:41","新北市新店區安華路28-1號","121.519315","24.9610033333333","6500600","新店區"
"231008","192-VK","2017/07/22 07:59:33","新北市新店區安華路28-1號","121.52024","24.96131","6500600","新店區"
"247001","402-BY","2017/07/22 07:59:48","新北市蘆洲區集賢路376號","121.480476666667","25.0829466666667","6501400","蘆洲區"
"226005","5620-A6","2017/07/22 07:59:44","新北市平溪區南山里南山坪114號","121.782941666667","25.044095","6502400","平溪區"
"226002","7418-A5","2017/07/22 07:59:34","新北市平溪區十分里姜仔坑14號","121.771096666667","25.039445","6502400","平溪區"
"226003","AGD-0702","2017/07/22 07:59:50","新北市平溪區新寮里頂寮子4號","121.773643333333","25.05206","6502400","平溪區"
"223006","022-BY","2017/07/22 07:59:37","新北市石碇區碇坪路一段120號","121.658593333333","24.99137","6501900","石碇區"
"223002","198-BX","2017/07/22 07:59:42","新北市深坑區文山路一段10號","121.643045","25.00855","6501900","石碇區"
"223003","205-TH","2017/07/22 07:59:35","新北市石碇區北宜路六段塗潭巷2號","121.645326666667","24.9360266666667","6501900","石碇區"
"223008","406-TH","2017/07/22 07:59:41","新北市石碇區靜安路一段342號","121.698665","25.0084083333333","6501900","石碇區"
"223001","437-BY","2017/07/22 07:59:47","新北市石碇區北宜路六段塗潭巷2號","121.644406666667","24.9383433333333","6501900","石碇區"
"223004","660-BX","2017/07/22 07:59:47","新北市石碇區靜安路一段102號","121.64822","25.0099883333333","6501900","石碇區"
"223007","661-BX","2017/07/22 07:59:44","新北市石碇區靜安路一段342號","121.698486666667","25.0082566666667","6501900","石碇區"
"223005","677-TV","2017/07/22 07:59:48","新北市石碇區靜安路一段61號","121.648033333333","25.01023","6501900","石碇區"
"227006","282-VK","2017/07/22 07:59:46","新北市雙溪區牡丹里中正路68號","121.863955","25.0437833333333","6502500","雙溪區"
"253001","6251-TK","2017/07/22 07:59:39","新北市石門區中央路5-1號","121.566381666667","25.291495","6502200","石門區"
"252004","249-BX","2017/07/22 07:59:31","新北市三芝區興華里車埕36-20號","121.50595","25.1929383333333","6502100","三芝區"
"252007","AAC-283","2017/07/22 07:59:46","新北市三芝區後厝里土地公坑61-1號","121.463963333333","25.2469783333333","6502100","三芝區"
"237001","159-UY","2017/07/22 07:59:32","新北市三峽區三樹路104號","121.378248333333","24.939035","6500900","三峽區"
"236011","165-UM","2017/07/22 07:59:40","新北市土城區永豐路145號","121.466551666667","24.9836133333333","6501300","土城區"
"236002","339-SR","2017/07/22 07:59:45","新北市土城區龍泉路100號","121.441195","24.9426483333333","6501300","土城區"
