"lineid","car","time","location","longitude","latitude","cityid","cityname"
"234044","148-BY","2017/07/22 13:17:27","新北市永和區秀朗路二段128號","121.524843333333","25.0014583333333","6500400","永和區"
"234012","149-BY","2017/07/22 13:17:41","新北市永和區信義路56號","121.513088333333","25.01258","6500400","永和區"
"234005","207-UY","2017/07/22 13:17:43","新北市永和區保生路3號","121.50663","25.007435","6500400","永和區"
"234078","298-R6","2017/07/22 13:17:44","新北市永和區福和路7巷11弄4號","121.525508333333","25.007295","6500400","永和區"
"234036","336-UY","2017/07/22 13:17:45","新北市永和區成功路二段65號","121.527421666667","25.0000216666667","6500400","永和區"
"234062","337-UY","2017/07/22 13:17:27","新北市永和區永元路17巷6弄2號","121.521358333333","25.00068","6500400","永和區"
"234084","338-UY","2017/07/22 13:17:30","新北市永和區永利路37號","121.51877","25.0055166666667","6500400","永和區"
"234068","552-UM","2017/07/22 13:17:47","新北市永和區國光路28號","121.518505","25.0090633333333","6500400","永和區"
"234052","553-UM","2017/07/22 13:17:31","新北市永和區中興街50號","121.51669","25.0116383333333","6500400","永和區"
"234015","745-BX","2017/07/22 13:17:30","新北市永和區文化路90巷42弄3號","121.51294","25.0167966666667","6500400","永和區"
"234028","746-BX","2017/07/22 13:17:49","新北市永和區四維街64號","121.524166666667","24.9982383333333","6500400","永和區"
"234060","AAD-866","2017/07/22 13:17:30","新北市永和區永貞路176號","121.516541666667","25.0044366666667","6500400","永和區"
"234040","862-TW","2017/07/22 13:17:31","新北市永和區保平路151巷2弄6-3號","121.509641666667","25.0053033333333","6500400","永和區"
"234048","863-TW","2017/07/22 13:17:40","新北市永和區保福路二段78號","121.510463333333","25.0132933333333","6500400","永和區"
"234025","9371-KE","2017/07/22 13:17:50","新北市永和區豫溪街28巷19號","121.515073333333","25.0089516666667","6500400","永和區"
"234010","9373-KE","2017/07/22 13:17:50","新北市永和區文化路90巷39號","121.512613333333","25.0167","6500400","永和區"
"248017","225-UY","2017/07/22 13:17:33","新北市五股區御史路130-1號","121.434445","25.09874","6501500","五股區"
"234022","9380-KE","2017/07/22 13:17:32","新北市永和區竹林路91巷21弄11號","121.52088","25.01251","6500400","永和區"
"234076","969-R7","2017/07/22 13:17:33","新北市永和區民有街69號","121.517935","24.9956516666667","6500400","永和區"
"234072","AAC-211","2017/07/22 13:17:33","新北市永和區竹林路44號","121.517615","25.0143133333333","6500400","永和區"
"234066","AAC-212","2017/07/22 13:17:42","新北市永和區保平路52號","121.511328333333","25.0070583333333","6500400","永和區"
"234001","AAC-295","2017/07/22 13:17:38","新北市永和區保福路一段68-1號","121.5126","25.0098666666667","6500400","永和區"
"244005","248-BX","2017/07/22 13:17:33","新北市林口區南勢街72-3號","121.355475","25.0774733333333","6501700","林口區"
"231002","002-UM","2017/07/22 13:17:37","新北市新店區安華路28-1號","121.519765","24.9607083333333","6500600","新店區"
"231025","0293-UT","2017/07/22 13:17:32","新北市新店區安康路一段355-3號","121.519778333333","24.9616733333333","6500600","新店區"
"231028","046-UY","2017/07/22 13:17:44","新北市新店區安華路28-1號","121.519521666667","24.9609433333333","6500600","新店區"
"231030","047-UY","2017/07/22 13:17:34","新北市新店區安華路16號","121.515823333333","24.9579833333333","6500600","新店區"
"231029","106-UY","2017/07/22 13:17:42","新北市新店區安華路28-1號","121.519556666667","24.9608066666667","6500600","新店區"
"231018","107-UY","2017/07/22 13:17:35","新北市新店區安康路一段94-1號","121.5277","24.9621683333333","6500600","新店區"
"231012","110-UY","2017/07/22 13:17:28","新北市新店區安華路28-1號","121.519518333333","24.9612683333333","6500600","新店區"
"231020","187-VK","2017/07/22 13:17:45","新北市新店區安康路一段355號","121.519851666667","24.9628","6500600","新店區"
"231008","192-VK","2017/07/22 13:17:39","新北市新店區屈尺路22號","121.548636666667","24.9226516666667","6500600","新店區"
"231026","256-BX","2017/07/22 13:17:44","新北市新店區安華路28-1號","121.519721666667","24.9611716666667","6500600","新店區"
"231034","268-BY","2017/07/22 13:17:42","新北市新店區安華路28-1號","121.519388333333","24.9605666666667","6500600","新店區"
"231010","278-BY","2017/07/22 13:17:47","新北市新店區安康路一段85號","121.529523333333","24.9613983333333","6500600","新店區"
"231017","AAD-862","2017/07/22 13:17:35","新北市新店區安康路一段323-1號","121.5218","24.9637616666667","6500600","新店區"
"231027","3712-VJ","2017/07/22 13:17:40","新北市新店區北新路一段89號","121.538813333333","24.9615416666667","6500600","新店區"
"231024","3713-VJ","2017/07/22 13:17:30","新北市新店區安康路一段355-10號","121.520371666667","24.963865","6500600","新店區"
"231038","4715-K9","2017/07/22 13:17:33","新北市新店區安華路28-1號","121.519245","24.9606583333333","6500600","新店區"
"231036","512-UM","2017/07/22 13:15:36","新北市新店區安康路二段362號","121.501788333333","24.9574","6500600","新店區"
"231023","513-UM","2017/07/22 13:17:40","新北市新店區安康路一段257號","121.524503333333","24.963355","6500600","新店區"
"231035","515-UM","2017/07/22 13:17:35","新北市新店區安華路28-1號","121.519663333333","24.9612483333333","6500600","新店區"
"231006","617-UM","2017/07/22 13:17:38","新北市新店區安華路28-1號","121.519378333333","24.9609866666667","6500600","新店區"
"231001","619-UM","2017/07/22 13:17:31","新北市新店區安華路28-1號","121.519466666667","24.9610266666667","6500600","新店區"
"231003","641-BX","2017/07/22 13:17:38","新北市新店區北新路一段90號","121.54196","24.9687233333333","6500600","新店區"
"231013","719-UM","2017/07/22 13:17:31","新北市新店區安康路一段299-1號","121.522231666667","24.96373","6500600","新店區"
"231033","720-UM","2017/07/22 13:17:43","新北市新店區安華路28-1號","121.519351666667","24.961155","6500600","新店區"
"231005","897-TW","2017/07/22 13:17:38","新北市新店區安華路28-1號","121.519576666667","24.9605916666667","6500600","新店區"
"231004","899-TW","2017/07/22 13:17:40","新北市新店區安華路28-1號","121.519331666667","24.9608316666667","6500600","新店區"
"231037","AKT-0513","2017/07/22 13:17:48","新北市新店區安忠路57巷26弄62號","121.512083333333","24.9569233333333","6500600","新店區"
"235030","003-UY","2017/07/22 13:17:32","新北市中和區中山路二段64巷14弄1號","121.503423333333","25.005585","6500300","中和區"
"235027","006-UY","2017/07/22 13:17:45","新北市中和區員山路36巷16-2號","121.485255","24.9914833333333","6500300","中和區"
"235020","096-UM","2017/07/22 13:17:44","新北市中和區中正路637巷52弄1號","121.485328333333","24.9938116666667","6500300","中和區"
"235003","097-UM","2017/07/22 13:17:30","新北市中和區中正路271號","121.495946666667","24.9936766666667","6500300","中和區"
"235029","098-UM","2017/07/22 13:17:48","新北市中和區莊敬路49巷20弄22號","121.502705","25.0058066666667","6500300","中和區"
"235001","150-BY","2017/07/22 13:17:33","新北市中和區中正路165號","121.498201666667","24.9936333333333","6500300","中和區"
"235022","151-BY","2017/07/22 13:17:47","新北市中和區圓通路367巷65號","121.493143333333","24.9824916666667","6500300","中和區"
"235019","183-VK","2017/07/22 13:17:46","新北市中和區員山路36巷16-3號","121.485085","24.9914116666667","6500300","中和區"
"235002","185-VK","2017/07/22 13:17:45","新北市中和區大智街35號","121.520535","24.99193","6500300","中和區"
"235031","255-BX","2017/07/22 13:17:44","新北市中和區中正路801號","121.484901666667","25.0008883333333","6500300","中和區"
"235036","301-VK","2017/07/22 13:17:28","新北市中和區和城路一段271巷1號","121.485431666667","24.9915516666667","6500300","中和區"
"235007","352-BY","2017/07/22 13:17:28","新北市中和區錦和路350-1號","121.49038","24.9936083333333","6500300","中和區"
"235015","376-QA","2017/07/22 13:17:41","新北市中和區興南路一段67號","121.510211666667","24.98947","6500300","中和區"
"235032","377-QA","2017/07/22 13:17:35","新北市中和區員山路36巷16-3號","121.484968333333","24.991305","6500300","中和區"
"235025","378-QA","2017/07/22 13:17:39","新北市中和區連城路526-1號","121.475986666667","24.991625","6500300","中和區"
"235014","4979-A6","2017/07/22 13:17:33","新北市中和區捷運路61巷9號","121.509105","24.9894783333333","6500300","中和區"
"235033","4980-A6","2017/07/22 13:17:46","新北市中和區圓通路162-7號","121.497481666667","24.995005","6500300","中和區"
"235006","551-UM","2017/07/22 13:17:33","新北市中和區大仁街20巷25弄19號","121.518605","24.9935966666667","6500300","中和區"
"235034","558-UM","2017/07/22 13:17:40","新北市中和區中正路589巷15號","121.485945","24.9936966666667","6500300","中和區"
"235009","565-BX","2017/07/22 13:17:45","新北市中和區中正路305號","121.492085","24.9936783333333","6500300","中和區"
"235018","640-BX","2017/07/22 13:17:48","新北市中和區莒光路207號","121.469935","24.9957333333333","6500300","中和區"
"235011","732-UM","2017/07/22 13:17:33","新北市中和區中正路637巷52弄1號","121.485501666667","24.99354","6500300","中和區"
"235035","783-BX","2017/07/22 13:17:47","新北市中和區永和路458巷1弄22號","121.483375","25.0125883333333","6500300","中和區"
"235026","800-TS","2017/07/22 13:17:46","新北市中和區景平路999巷1號","121.495421666667","25.0059983333333","6500300","中和區"
"235021","801-TS","2017/07/22 13:17:49","新北市中和區員山路36巷16-2號","121.485226666667","24.99147","6500300","中和區"
"235005","802-TS","2017/07/22 13:17:43","新北市中和區景新街137號","121.50605","24.9970483333333","6500300","中和區"
"235016","805-TS","2017/07/22 13:17:36","新北市中和區興南路二段22-3號","121.507508333333","24.9858033333333","6500300","中和區"
"235012","896-TW","2017/07/22 13:17:43","新北市中和區員山路36巷16-2號","121.485323333333","24.9915666666667","6500300","中和區"
"235017","900-TW","2017/07/22 13:17:28","新北市中和區員山路36巷16-2號","121.485363333333","24.9914533333333","6500300","中和區"
"235001","AAC-213","2017/07/22 13:17:41","新北市中和區景平路149號","121.513888333333","24.9922033333333","6500300","中和區"
"235023","AAC-215","2017/07/22 13:17:48","新北市中和區員山路36巷16-3號","121.485071666667","24.9914583333333","6500300","中和區"
"220016","013-TV","2017/07/22 13:17:42","新北市板橋區民生路二段15-1號","121.472771666667","25.0164633333333","6500100","板橋區"
"220013","072-UY","2017/07/22 13:17:39","新北市板橋區民生路二段22號","121.47274","25.0166683333333","6500100","板橋區"
"220034","073-UY","2017/07/22 13:17:40","新北市板橋區華東街1-10號","121.448248333333","24.9950666666667","6500100","板橋區"
"247001","402-BY","2017/07/22 13:17:45","新北市蘆洲區長樂路157號","121.461936666667","25.0883666666667","6501400","蘆洲區"
"247013","057-VK","2017/07/22 02:24:34","新北市五股區中興路三段2巷10號","121.448871666667","25.08159","6501400","蘆洲區"
"228005","097-TW","2017/07/22 13:17:47","新北市貢寮區美豐里丹裡街10號","121.917283333333","25.0554533333333","6502600","貢寮區"
"228004","212-TW","2017/07/22 13:17:33","新北市貢寮區吉林里內寮街37號","121.898356666667","24.9791666666667","6502600","貢寮區"
"227002","400-TW","2017/07/22 12:44:49","新北市雙溪區三貂里政光路3-1號","121.850861666667","25.0631716666667","6502500","雙溪區"
"208004","AAC-292","2017/07/22 13:17:28","新北市金山區南勢湖80號","121.612093333333","25.212495","6502700","金山區"
"207002","749-BX","2017/07/22 13:17:39","新北市萬里區崁腳里崁腳路166號","121.645121666667","25.1560766666667","6502800","萬里區"
"207001","463-BY","2017/07/22 13:17:37","新北市萬里區龜吼里新墾丁路35-1號","121.679535","25.1944016666667","6502800","萬里區"
"252005","073-UM","2017/07/22 13:16:57","新北市三芝區八賢里八連溪33號","121.512176666667","25.23792","6502100","三芝區"
"252007","AAC-283","2017/07/22 10:47:43","新北市三芝區埔坪里埔頭坑41號","121.504508333333","25.2644216666667","6502100","三芝區"
"236002","339-SR","2017/07/22 10:24:34","新北市土城區永平街51號","121.42768","24.959185","6501300","土城區"
"236006","498-BY","2017/07/22 13:17:37","新北市土城區大安路138巷15號","121.434081666667","24.9713316666667","6501300","土城區"
"242044","172-VK","2017/07/22 13:17:34","新北市新莊區裕民街43號","121.418885","25.0249133333333","6500500","新莊區"
"220011","609-BX","2017/07/22 13:17:46","新北市板橋區民生路二段36-1號","121.47246","25.0166916666667","6500100","板橋區"
"220005","686-BX","2017/07/22 13:17:44","新北市板橋區民生路二段36-1號","121.47265","25.0166466666667","6500100","板橋區"
