"lineid","car","time","location","longitude","latitude","cityid","cityname"
"234044","148-BY","2017/07/22 13:39:47","新北市永和區得和路422號","121.526328333333","24.9989666666667","6500400","永和區"
"234012","149-BY","2017/07/22 13:39:41","新北市永和區永平路226巷14號","121.50912","25.011225","6500400","永和區"
"234005","207-UY","2017/07/22 13:39:43","新北市永和區中山路一段9號","121.513936666667","25.0104333333333","6500400","永和區"
"234078","298-R6","2017/07/22 13:39:45","新北市永和區林森路20巷1號","121.52606","25.0054533333333","6500400","永和區"
"234036","336-UY","2017/07/22 13:39:45","新北市永和區民樂街59巷5號","121.52794","24.9984483333333","6500400","永和區"
"234062","337-UY","2017/07/22 13:39:47","新北市永和區秀朗路一段192巷6弄14號","121.519188333333","25.002195","6500400","永和區"
"234084","338-UY","2017/07/22 13:39:49","新北市永和區永亨路165巷1-4號","121.526206666667","25.0042016666667","6500400","永和區"
"234068","552-UM","2017/07/22 13:39:47","新北市永和區竹林路78號","121.519276666667","25.0127583333333","6500400","永和區"
"234052","553-UM","2017/07/22 13:39:31","新北市永和區竹林路39巷26號","121.519068333333","25.014795","6500400","永和區"
"234015","745-BX","2017/07/22 13:39:49","新北市永和區永和路二段425巷58號","121.513808333333","25.0174683333333","6500400","永和區"
"234028","746-BX","2017/07/22 13:39:29","新北市永和區民生路49號","121.522953333333","24.9978183333333","6500400","永和區"
"234060","AAD-866","2017/07/22 13:39:39","新北市永和區秀朗路一段185號","121.51741","25.0037083333333","6500400","永和區"
"234040","862-TW","2017/07/22 13:39:39","新北市永和區中和路305巷12號","121.50723","25.0011266666667","6500400","永和區"
"234048","863-TW","2017/07/22 13:39:40","新北市永和區保安路35號","121.509836666667","25.0161533333333","6500400","永和區"
"234025","9371-KE","2017/07/22 13:39:50","新北市永和區永平路160號","121.511035","25.0087366666667","6500400","永和區"
"234010","9373-KE","2017/07/22 13:39:30","新北市永和區保福路二段14-1號","121.510903333333","25.0114133333333","6500400","永和區"
"248017","225-UY","2017/07/22 13:39:33","新北市五股區民義路二段46-2號","121.413931666667","25.1015333333333","6501500","五股區"
"234022","9380-KE","2017/07/22 13:39:32","新北市永和區中正路688號","121.516628333333","25.009525","6500400","永和區"
"234076","969-R7","2017/07/22 13:39:33","新北市永和區民權路46號","121.520198333333","24.9986133333333","6500400","永和區"
"234072","AAC-211","2017/07/22 13:39:45","新北市永和區竹林路213巷40號","121.522981666667","25.0090333333333","6500400","永和區"
"234066","AAC-212","2017/07/22 13:39:40","新北市永和區中山路一段184巷2號","121.509011666667","25.00917","6500400","永和區"
"234001","AAC-295","2017/07/22 13:39:38","新北市永和區自由街55號","121.51378","25.005505","6500400","永和區"
"231002","002-UM","2017/07/22 13:39:37","新北市新店區溪園路393號","121.524286666667","24.979065","6500600","新店區"
"231025","0293-UT","2017/07/22 13:39:32","新北市新店區中央六街56號","121.527903333333","24.9756883333333","6500600","新店區"
"231028","046-UY","2017/07/22 13:39:45","新北市新店區安和路二段166-10號","121.519083333333","24.9741533333333","6500600","新店區"
"231030","047-UY","2017/07/22 13:39:34","新北市新店區安康路一段72號","121.528366666667","24.9618883333333","6500600","新店區"
"231029","106-UY","2017/07/22 13:39:22","新北市新店區安康路二段199號","121.509138333333","24.9589566666667","6500600","新店區"
"231018","107-UY","2017/07/22 13:39:35","新北市新店區百忍街17巷1號","121.53444","24.9755966666667","6500600","新店區"
"231012","110-UY","2017/07/22 13:39:48","新北市新店區德正街27巷18號","121.54534","24.9714783333333","6500600","新店區"
"231020","187-VK","2017/07/22 13:39:45","新北市新店區永興路90-1號","121.543915","24.9314566666667","6500600","新店區"
"231026","256-BX","2017/07/22 13:39:44","新北市新店區北新路一段331號","121.541783333333","24.968565","6500600","新店區"
"231034","268-BY","2017/07/22 13:39:42","新北市新店區達觀路10號","121.50354","24.9435266666667","6500600","新店區"
"231010","278-BY","2017/07/22 13:39:47","新北市新店區平等街3號","121.537131666667","24.9742133333333","6500600","新店區"
"231017","AAD-862","2017/07/22 13:39:35","新北市新店區竹林路30巷1號","121.552288333333","24.95133","6500600","新店區"
"231027","3712-VJ","2017/07/22 13:39:40","新北市新店區北宜路一段123-5號","121.540801666667","24.953495","6500600","新店區"
"231024","3713-VJ","2017/07/22 13:39:30","新北市新店區華興街40號","121.537043333333","24.969105","6500600","新店區"
"231038","4715-K9","2017/07/22 13:39:33","新北市新店區安華路30巷1號","121.51961","24.9592816666667","6500600","新店區"
"231036","512-UM","2017/07/22 13:39:31","新北市新店區安祥路111號","121.475625","24.956965","6500600","新店區"
"231023","513-UM","2017/07/22 13:39:40","新北市新店區新店路143號","121.537071666667","24.9548333333333","6500600","新店區"
"231035","515-UM","2017/07/22 13:39:35","新北市新店區安忠路86號","121.511961666667","24.95861","6500600","新店區"
"231006","617-UM","2017/07/22 13:39:38","新北市新店區北宜路一段83號","121.538603333333","24.95611","6500600","新店區"
"231001","619-UM","2017/07/22 13:39:31","新北市新店區中正路397號","121.534548333333","24.9773933333333","6500600","新店區"
"231003","641-BX","2017/07/22 13:39:39","新北市新店區中正路64號","121.544231666667","24.9702066666667","6500600","新店區"
"231013","719-UM","2017/07/22 13:39:45","新北市新店區二十張路137-1號","121.535611666667","24.979095","6500600","新店區"
"231033","720-UM","2017/07/22 13:39:43","新北市新店區莒光路61巷2號","121.523696666667","24.958015","6500600","新店區"
"231005","897-TW","2017/07/22 13:39:38","新北市新店區寶中路72號","121.547848333333","24.9806233333333","6500600","新店區"
"231004","899-TW","2017/07/22 13:39:40","新北市新店區北新路二段1號","121.542641666667","24.971265","6500600","新店區"
"231037","AKT-0513","2017/07/22 13:39:48","新北市新店區安康路三段148號","121.49069","24.9517866666667","6500600","新店區"
"235030","003-UY","2017/07/22 13:39:32","新北市中和區水源路34巷2號","121.504773333333","25.0035366666667","6500300","中和區"
"235027","006-UY","2017/07/22 13:39:45","新北市中和區連城路347巷16弄43號","121.486971666667","24.99505","6500300","中和區"
"235020","096-UM","2017/07/22 13:39:44","新北市中和區新民街90號","121.481785","25.0075066666667","6500300","中和區"
"235003","097-UM","2017/07/22 13:39:30","新北市中和區大勇街25巷46號","121.515343333333","24.9941483333333","6500300","中和區"
"235029","098-UM","2017/07/22 13:39:28","新北市中和區莊敬路33巷36弄2號","121.500175","25.0064833333333","6500300","中和區"
"235001","150-BY","2017/07/22 13:39:33","新北市中和區安平路59號","121.509428333333","24.99516","6500300","中和區"
"235022","151-BY","2017/07/22 13:39:27","新北市中和區圓通路369巷66號","121.490505","24.9825533333333","6500300","中和區"
"235019","183-VK","2017/07/22 13:39:46","新北市中和區莒光路120巷28號","121.471555","25.001705","6500300","中和區"
"235002","185-VK","2017/07/22 13:39:45","新北市中和區立人街14巷40弄8號","121.519083333333","24.995805","6500300","中和區"
"235013","186-VK","2017/07/22 13:39:36","新北市中和區景安路132巷33號","121.503708333333","24.9945766666667","6500300","中和區"
"235031","255-BX","2017/07/22 13:39:44","新北市中和區新生街220巷1弄15號","121.48345","24.9978816666667","6500300","中和區"
"235008","293-VK","2017/07/22 13:39:49","新北市中和區復興路301巷21號","121.5018","24.989675","6500300","中和區"
"235036","301-VK","2017/07/22 13:39:48","新北市中和區連城路171巷41弄1號","121.496125","24.9965533333333","6500300","中和區"
"235007","352-BY","2017/07/22 13:39:48","新北市中和區景平路177號","121.511866666667","24.9925633333333","6500300","中和區"
"235015","376-QA","2017/07/22 13:39:40","新北市中和區興南路二段114巷10弄12號","121.503965","24.9849466666667","6500300","中和區"
"235032","377-QA","2017/07/22 13:39:35","新北市中和區中正路211巷8號","121.497001666667","24.9932016666667","6500300","中和區"
"235025","378-QA","2017/07/22 13:39:39","新北市中和區民享街90巷11號","121.474405","25.0001616666667","6500300","中和區"
"235014","4979-A6","2017/07/22 13:39:33","新北市中和區景新街496巷32弄22號","121.512716666667","24.985415","6500300","中和區"
"235033","4980-A6","2017/07/22 13:39:46","新北市中和區連城路67號","121.497646666667","25.00127","6500300","中和區"
"235006","551-UM","2017/07/22 13:39:37","新北市中和區成功路97巷7號","121.526448333333","24.9919333333333","6500300","中和區"
"235034","558-UM","2017/07/22 13:39:40","新北市中和區景平路580號","121.501395","24.9955616666667","6500300","中和區"
"235009","565-BX","2017/07/22 13:39:47","新北市中和區復興路6號","121.506171666667","24.989785","6500300","中和區"
"235018","640-BX","2017/07/22 13:39:48","新北市中和區民享街91巷8號","121.475168333333","25.0007533333333","6500300","中和區"
"235024","647-TV","2017/07/22 13:39:46","新北市中和區員山路489號","121.479788333333","25.0054866666667","6500300","中和區"
"235011","732-UM","2017/07/22 13:39:33","新北市中和區南山路320巷10弄13號","121.506731666667","24.98657","6500300","中和區"
"235010","733-UM","2017/07/22 13:39:40","新北市中和區捷運路129號","121.507168333333","24.990645","6500300","中和區"
"235035","783-BX","2017/07/22 13:39:47","新北市中和區立德街12號","121.490158333333","25.0066483333333","6500300","中和區"
"235026","800-TS","2017/07/22 13:39:46","新北市中和區中山路二段312巷17號","121.4954","25.003605","6500300","中和區"
"235021","801-TS","2017/07/22 13:39:29","新北市中和區民安街42巷24號","121.47958","25.0008433333333","6500300","中和區"
"235005","802-TS","2017/07/22 13:39:42","新北市中和區中和路400巷29號","121.511975","25.002135","6500300","中和區"
"235016","805-TS","2017/07/22 13:39:36","新北市中和區興南路三段52巷2-5號","121.494276666667","24.9758616666667","6500300","中和區"
"235012","896-TW","2017/07/22 13:39:43","新北市中和區中正路81號","121.500716666667","24.9934383333333","6500300","中和區"
"235017","900-TW","2017/07/22 13:39:48","新北市土城區延壽路77巷4弄11號","121.469093333333","24.99304","6500300","中和區"
"235001","AAC-213","2017/07/22 13:39:41","新北市中和區景德街95號","121.515701666667","24.9913266666667","6500300","中和區"
"235023","AAC-215","2017/07/22 13:39:48","新北市中和區和城路一段271巷1號","121.485813333333","24.9923","6500300","中和區"
"220016","013-TV","2017/07/22 13:39:42","新北市板橋區民生路二段22號","121.472706666667","25.0165166666667","6500100","板橋區"
"220013","072-UY","2017/07/22 13:39:39","新北市板橋區民生路二段15-1號","121.472748333333","25.0164933333333","6500100","板橋區"
"220034","073-UY","2017/07/22 13:39:40","新北市板橋區南雅西路二段192巷3號","121.452031666667","25.0144483333333","6500100","板橋區"
"247001","402-BY","2017/07/22 13:39:45","新北市蘆洲區民族路31-14號","121.477243333333","25.0851033333333","6501400","蘆洲區"
"247005","341-TH","2017/07/22 13:39:33","新北市五股區中興路二段182巷15弄13號","121.457103333333","25.08165","6501400","蘆洲區"
"247013","057-VK","2017/07/22 13:39:34","新北市蘆洲區三民路378-2號","121.464196666667","25.0918566666667","6501400","蘆洲區"
"247003","056-VK","2017/07/22 13:39:42","新北市蘆洲區永安南路二段292號","121.45729","25.0816","6501400","蘆洲區"
"247015","001-UY","2017/07/22 13:39:18","新北市五股區新城三路61號","121.44917","25.0935466666667","6501400","蘆洲區"
"228005","097-TW","2017/07/22 13:39:27","新北市貢寮區美豐里文秀坑3號","121.903915","25.05235","6502600","貢寮區"
"228004","212-TW","2017/07/22 13:38:24","新北市貢寮區龍崗里石壁坑街23-1號","121.912283333333","24.9970933333333","6502600","貢寮區"
"227002","400-TW","2017/07/22 12:44:49","新北市雙溪區三貂里政光路3-1號","121.850861666667","25.0631716666667","6502500","雙溪區"
"208004","AAC-292","2017/07/22 13:39:28","新北市金山區重和里三重橋23號","121.588616666667","25.18912","6502700","金山區"
"207002","749-BX","2017/07/22 13:39:39","新北市萬里區崁腳里崁腳路166號","121.645161666667","25.15606","6502800","萬里區"
"207001","463-BY","2017/07/22 13:38:57","新北市萬里區磺潭里公館崙24號","121.634778333333","25.2128816666667","6502800","萬里區"
"252005","073-UM","2017/07/22 13:38:37","新北市三芝區圓山里木屐寮40號","121.53164","25.2235383333333","6502100","三芝區"
"252007","AAC-283","2017/07/22 10:47:43","新北市三芝區埔坪里埔頭坑41號","121.504508333333","25.2644216666667","6502100","三芝區"
"236041","107-UM","2017/07/22 13:39:42","新北市土城區城林路6巷80號","121.43837","24.97986","6501300","土城區"
"236029","253-BX","2017/07/22 13:39:29","新北市土城區城林路6巷80號","121.438451666667","24.979875","6501300","土城區"
"236013","270-VK","2017/07/22 13:39:30","新北市土城區城林路6巷80號","121.438538333333","24.979755","6501300","土城區"
"236035","271-VK","2017/07/22 13:39:41","新北市土城區城林路6巷80號","121.438566666667","24.979695","6501300","土城區"
"236002","339-SR","2017/07/22 10:24:34","新北市土城區永平街51號","121.42768","24.959185","6501300","土城區"
"236017","401-BY","2017/07/22 13:39:35","新北市土城區城林路6巷80號","121.438576666667","24.9797466666667","6501300","土城區"
"236006","498-BY","2017/07/22 13:39:37","新北市土城區學府路二段151號","121.446758333333","24.9792066666667","6501300","土城區"
"236061","915-UM","2017/07/22 13:39:40","新北市土城區城林路6巷80號","121.438455","24.9798016666667","6501300","土城區"
"242044","172-VK","2017/07/22 13:39:34","新北市新莊區成德街69號","121.423853333333","25.022175","6500500","新莊區"
"220027","145-BY","2017/07/22 13:39:46","新北市板橋區公館街92號","121.46134","25.016515","6500100","板橋區"
"220028","200-UY","2017/07/22 13:39:44","新北市板橋區華東街1-9號","121.448278333333","24.99484","6500100","板橋區"
"220030","610-BX","2017/07/22 13:39:35","新北市板橋區華東街1-10號","121.448271666667","24.9949116666667","6500100","板橋區"
"220017","258-TC","2017/07/22 13:39:48","新北市板橋區民生路二段36-1號","121.47248","25.0168333333333","6500100","板橋區"
"220004","276-BY","2017/07/22 13:39:42","新北市板橋區四川路一段24號","121.459521666667","25.0063766666667","6500100","板橋區"
"220020","277-BY","2017/07/22 13:39:41","新北市板橋區華東街1-10號","121.448266666667","24.9950833333333","6500100","板橋區"
"220019","283-VK","2017/07/22 13:39:28","新北市板橋區民生路二段15-1號","121.472691666667","25.0164666666667","6500100","板橋區"
"220043","285-UM","2017/07/22 13:39:42","新北市板橋區民生路二段161巷1號","121.470063333333","25.02014","6500100","板橋區"
"220001","285-VK","2017/07/22 13:39:30","新北市板橋區中山路二段89巷5弄12號","121.472755","25.01682","6500100","板橋區"
"220031","286-VK","2017/07/22 13:39:49","新北市板橋區華東街1-9號","121.44825","24.99487","6500100","板橋區"
"220029","287-VK","2017/07/22 13:39:41","新北市板橋區華東街1-10號","121.44825","24.9950433333333","6500100","板橋區"
"220009","293-UM","2017/07/22 13:39:32","新北市板橋區民生路二段36-1號","121.47242","25.016865","6500100","板橋區"
"220032","296-UM","2017/07/22 13:39:31","新北市板橋區華東街1-9號","121.44812","24.994945","6500100","板橋區"
"220023","297-UM","2017/07/22 13:39:37","新北市板橋區華東街1-9號","121.448166666667","24.9949533333333","6500100","板橋區"
"220012","486-VK","2017/07/22 13:39:36","新北市板橋區民生路二段22號","121.472846666667","25.0166183333333","6500100","板橋區"
"220104","560-BX","2017/07/22 13:39:31","新北市板橋區南雅西路二段136號","121.451933333333","25.0128733333333","6500100","板橋區"
"220011","609-BX","2017/07/22 13:39:46","新北市板橋區民生路二段17號","121.472666666667","25.0164983333333","6500100","板橋區"
"220005","686-BX","2017/07/22 13:39:44","新北市板橋區民生路二段22號","121.472691666667","25.0165716666667","6500100","板橋區"
"220025","687-BX","2017/07/22 13:39:32","新北市板橋區大觀路三段236-6號","121.429268333333","24.9922533333333","6500100","板橋區"
"220002","741-BX","2017/07/22 13:39:27","新北市板橋區中山路二段89巷5弄12號","121.472701666667","25.01672","6500100","板橋區"
"220014","829-TW","2017/07/22 13:39:35","新北市板橋區民生路二段15-1號","121.47276","25.0164133333333","6500100","板橋區"
"220022","895-R6","2017/07/22 13:39:43","新北市板橋區南雅南路一段51號","121.455876666667","25.0061016666667","6500100","板橋區"
"220021","985-R7","2017/07/22 13:39:45","新北市板橋區華東街1-10號","121.448315","24.9950133333333","6500100","板橋區"
"220018","AAC-253","2017/07/22 13:39:30","新北市板橋區民生路二段36-1號","121.472491666667","25.0169166666667","6500100","板橋區"
