"lineid","car","time","location","longitude","latitude","cityid","cityname"
"234044","148-BY","2017/07/22 13:49:47","新北市永和區永元路108號","121.5226","25.0022116666667","6500400","永和區"
"234012","149-BY","2017/07/22 13:49:41","新北市永和區永平路286-1號","121.507628333333","25.0120383333333","6500400","永和區"
"234005","207-UY","2017/07/22 13:49:43","新北市永和區永和路一段22號","121.513045","25.00478","6500400","永和區"
"234078","298-R6","2017/07/22 13:49:45","新北市永和區林森路77號","121.523915","25.0039683333333","6500400","永和區"
"234036","336-UY","2017/07/22 13:49:49","新北市永和區成功路二段152-1號","121.526528333333","24.9967733333333","6500400","永和區"
"234062","337-UY","2017/07/22 13:49:47","新北市永和區中正路368巷29號","121.518551666667","25.0007933333333","6500400","永和區"
"234084","338-UY","2017/07/22 13:49:30","新北市永和區永亨路121號","121.52382","25.0045416666667","6500400","永和區"
"234068","552-UM","2017/07/22 13:49:47","新北市永和區國光路39-2號","121.519136666667","25.0080433333333","6500400","永和區"
"234052","553-UM","2017/07/22 13:49:31","新北市永和區竹林路39巷28弄13號","121.519656666667","25.0144716666667","6500400","永和區"
"234015","745-BX","2017/07/22 13:49:30","新北市永和區永和路二段299號","121.516078333333","25.016165","6500400","永和區"
"234028","746-BX","2017/07/22 13:49:29","新北市永和區民生路47巷34號","121.524611666667","24.9976433333333","6500400","永和區"
"234060","AAD-866","2017/07/22 13:49:30","新北市永和區中正路67巷2號","121.514696666667","24.9968316666667","6500400","永和區"
"234040","862-TW","2017/07/22 13:49:31","新北市永和區中和路389巷1弄1號","121.508443333333","25.00027","6500400","永和區"
"234048","863-TW","2017/07/22 13:49:40","新北市永和區保安路77號","121.5087","25.0148216666667","6500400","永和區"
"234010","9373-KE","2017/07/22 13:49:50","新北市永和區保福路二段163巷14號","121.508796666667","25.0146983333333","6500400","永和區"
"248017","225-UY","2017/07/22 13:49:33","新北市五股區民義路二段22巷6號","121.42054","25.0971433333333","6501500","五股區"
"234022","9380-KE","2017/07/22 13:49:32","新北市永和區復興街2巷4號","121.51574","25.0126433333333","6500400","永和區"
"234076","969-R7","2017/07/22 13:49:33","新北市永和區民族街35-1號","121.518771666667","24.9990616666667","6500400","永和區"
"234072","AAC-211","2017/07/22 13:49:33","新北市永和區豫溪街187巷2號","121.522745","25.0104583333333","6500400","永和區"
"234066","AAC-212","2017/07/22 13:49:40","新北市永和區中山路一段144號","121.509926666667","25.0096016666667","6500400","永和區"
"234001","AAC-295","2017/07/22 13:49:38","新北市永和區永和路一段115-1號","121.513953333333","25.0080533333333","6500400","永和區"
"231002","002-UM","2017/07/22 13:49:37","新北市新店區溪園路245-6號","121.525201666667","24.9831533333333","6500600","新店區"
"231025","0293-UT","2017/07/22 13:49:32","新北市新店區中央六街56號","121.52792","24.9756816666667","6500600","新店區"
"231028","046-UY","2017/07/22 13:49:44","新北市新店區安和路三段7號","121.518095","24.9805266666667","6500600","新店區"
"231030","047-UY","2017/07/22 13:49:34","新北市新店區安康路一段226-2號","121.523458333333","24.96361","6500600","新店區"
"231029","106-UY","2017/07/22 13:49:42","新北市新店區安康路二段125-1號","121.512353333333","24.9609366666667","6500600","新店區"
"231018","107-UY","2017/07/22 13:49:35","新北市新店區中正路398號","121.53477","24.9775566666667","6500600","新店區"
"231012","110-UY","2017/07/22 13:49:48","新北市新店區德正街27巷29弄19號","121.544888333333","24.9717916666667","6500600","新店區"
"231020","187-VK","2017/07/22 13:49:46","新北市新店區湖子內路1號","121.542388333333","24.9307216666667","6500600","新店區"
"231026","256-BX","2017/07/22 13:49:45","新北市新店區三民路84號","121.534595","24.9727916666667","6500600","新店區"
"231034","268-BY","2017/07/22 13:49:42","新北市新店區達觀路16號","121.503191666667","24.9404683333333","6500600","新店區"
"231010","278-BY","2017/07/22 13:49:47","新北市新店區平等街48巷8號","121.535826666667","24.9730566666667","6500600","新店區"
"231017","AAD-862","2017/07/22 13:49:42","新北市新店區北宜路二段82巷3號","121.55354","24.95308","6500600","新店區"
"231027","3712-VJ","2017/07/22 13:49:40","新北市新店區北宜路一段59號","121.538401666667","24.956705","6500600","新店區"
"231024","3713-VJ","2017/07/22 13:49:30","新北市新店區新生街55號","121.53885","24.9670116666667","6500600","新店區"
"231038","4715-K9","2017/07/22 13:49:33","新北市新店區安華路28-1號","121.519913333333","24.9605066666667","6500600","新店區"
"231036","512-UM","2017/07/22 13:49:32","新北市新店區安祥路110巷17弄1號","121.473946666667","24.955805","6500600","新店區"
"231023","513-UM","2017/07/22 13:49:39","新北市新店區國校路65巷1號","121.538378333333","24.9541533333333","6500600","新店區"
"231035","515-UM","2017/07/22 13:49:35","新北市新店區安忠路57巷26弄3號","121.51309","24.9587766666667","6500600","新店區"
"231006","617-UM","2017/07/22 13:49:38","新北市新店區北宜路一段260號","121.545638333333","24.9527666666667","6500600","新店區"
"231001","619-UM","2017/07/22 13:49:31","新北市新店區三民路40號","121.536206666667","24.9715833333333","6500600","新店區"
"231003","641-BX","2017/07/22 13:49:39","新北市新店區中興路一段123號","121.541641666667","24.9631016666667","6500600","新店區"
"231013","719-UM","2017/07/22 13:49:31","新北市新店區二十張路25巷16號","121.539236666667","24.9819016666667","6500600","新店區"
"231033","720-UM","2017/07/22 13:49:43","新北市新店區莒光路44巷21弄11-3號","121.518365","24.952245","6500600","新店區"
"231005","897-TW","2017/07/22 13:49:38","新北市新店區寶中路121-1號","121.549651666667","24.9794016666667","6500600","新店區"
"231004","899-TW","2017/07/22 13:49:40","新北市新店區寶橋路97號","121.547158333333","24.9762783333333","6500600","新店區"
"231037","AKT-0513","2017/07/22 13:49:48","新北市新店區安康路三段355巷14號","121.48485","24.95009","6500600","新店區"
"235030","003-UY","2017/07/22 13:49:32","新北市中和區中山路二段131巷33號","121.503918333333","25.002855","6500300","中和區"
"235027","006-UY","2017/07/22 13:49:45","新北市中和區錦和路196巷5號","121.48975","24.9948916666667","6500300","中和區"
"235020","096-UM","2017/07/22 13:49:44","新北市中和區中正路1206巷7號","121.480093333333","25.0111116666667","6500300","中和區"
"235003","097-UM","2017/07/22 13:49:50","新北市中和區大勇街25巷38弄3號","121.515875","24.9938","6500300","中和區"
"235029","098-UM","2017/07/22 13:49:28","新北市中和區中山路二段2巷21-2號","121.503413333333","25.006935","6500300","中和區"
"235001","150-BY","2017/07/22 13:49:33","新北市中和區保健路50巷68號","121.509246666667","24.9950916666667","6500300","中和區"
"235022","151-BY","2017/07/22 13:49:39","新北市中和區連城路384號","121.480591666667","24.9949983333333","6500300","中和區"
"235019","183-VK","2017/07/22 13:49:46","新北市中和區民德路25巷9號","121.469775","25.00308","6500300","中和區"
"235002","185-VK","2017/07/22 13:49:45","新北市中和區自強路60號","121.519833333333","24.9945683333333","6500300","中和區"
"235013","186-VK","2017/07/22 13:49:36","新北市中和區景安路177巷24號","121.506441666667","24.9943833333333","6500300","中和區"
"235031","255-BX","2017/07/22 13:49:44","新北市中和區新生街220巷13號","121.482926666667","24.9984533333333","6500300","中和區"
"235008","293-VK","2017/07/22 13:49:46","新北市中和區復興路280巷18弄8號","121.50225","24.9917616666667","6500300","中和區"
"235036","301-VK","2017/07/22 13:49:28","新北市中和區中山路二段139號","121.502016666667","25.0029966666667","6500300","中和區"
"235007","352-BY","2017/07/22 13:49:48","新北市中和區景平路1號","121.525543333333","24.9902416666667","6500300","中和區"
"235015","376-QA","2017/07/22 13:49:40","新北市中和區華新街143巷8號","121.506515","24.9810416666667","6500300","中和區"
"235032","377-QA","2017/07/22 13:49:35","新北市中和區中正路167巷18號","121.498226666667","24.9926716666667","6500300","中和區"
"235025","378-QA","2017/07/22 13:48:39","新北市中和區民享街54巷16弄5號","121.473203333333","25.002835","6500300","中和區"
"235014","4979-A6","2017/07/22 13:49:33","新北市中和區忠孝街58巷28號","121.512608333333","24.9827166666667","6500300","中和區"
"235033","4980-A6","2017/07/22 13:49:46","新北市中和區景平路618巷3號","121.500763333333","24.9971333333333","6500300","中和區"
"235006","551-UM","2017/07/22 13:49:33","新北市中和區秀朗路三段70巷43號","121.525211666667","24.9942866666667","6500300","中和區"
"235034","558-UM","2017/07/22 13:49:40","新北市中和區景新街133號","121.505825","24.997225","6500300","中和區"
"235009","565-BX","2017/07/22 13:49:45","新北市中和區復興路2號","121.506413333333","24.9898583333333","6500300","中和區"
"235018","640-BX","2017/07/22 13:49:44","新北市中和區民享街38-2號","121.473986666667","25.0029733333333","6500300","中和區"
"235024","647-TV","2017/07/22 13:49:46","新北市中和區中山路三段35號","121.478991666667","25.00562","6500300","中和區"
"235011","732-UM","2017/07/22 13:49:33","新北市中和區興南路二段34巷57弄2號","121.504876666667","24.9855583333333","6500300","中和區"
"235010","733-UM","2017/07/22 13:49:40","新北市中和區仁愛街36巷42號","121.511361666667","24.9864433333333","6500300","中和區"
"235035","783-BX","2017/07/22 13:49:47","新北市中和區立言街48號","121.488238333333","25.006735","6500300","中和區"
"235026","800-TS","2017/07/22 13:49:46","新北市中和區中山路二段322號","121.495453333333","25.002165","6500300","中和區"
"235021","801-TS","2017/07/22 13:49:29","新北市中和區民安街11號","121.48065","25.0007733333333","6500300","中和區"
"235005","802-TS","2017/07/22 13:49:43","新北市中和區永貞路221號","121.513616666667","25.0036433333333","6500300","中和區"
"235016","805-TS","2017/07/22 13:49:36","新北市中和區興南路二段399巷51-1號","121.501135","24.9766916666667","6500300","中和區"
"235012","896-TW","2017/07/22 13:49:43","新北市中和區南山路238號","121.507063333333","24.9897066666667","6500300","中和區"
"235017","900-TW","2017/07/22 13:49:48","新北市中和區華福街29-1號","121.466041666667","24.99681","6500300","中和區"
"235001","AAC-213","2017/07/22 13:49:41","新北市中和區景平路151巷59號","121.514818333333","24.9901066666667","6500300","中和區"
"235023","AAC-215","2017/07/22 13:49:28","新北市中和區錦和路410號","121.490803333333","24.9895433333333","6500300","中和區"
"220016","013-TV","2017/07/22 13:49:42","新北市板橋區民生路二段36-1號","121.472411666667","25.0168516666667","6500100","板橋區"
"220013","072-UY","2017/07/22 13:49:39","新北市板橋區民生路二段56-1號","121.472578333333","25.016965","6500100","板橋區"
"220034","073-UY","2017/07/22 13:49:40","新北市板橋區大智街71巷3弄1號","121.453505","25.0152366666667","6500100","板橋區"
"220105","075-UY","2017/07/22 13:49:44","新北市板橋區民生路二段120號","121.470455","25.0196066666667","6500100","板橋區"
"247001","402-BY","2017/07/22 13:49:45","新北市蘆洲區重陽街68號","121.481728333333","25.0841233333333","6501400","蘆洲區"
"247005","341-TH","2017/07/22 13:49:33","新北市蘆洲區和平路77號","121.469325","25.0790516666667","6501400","蘆洲區"
"247013","057-VK","2017/07/22 13:49:34","新北市蘆洲區中正路100號","121.469996666667","25.0841016666667","6501400","蘆洲區"
"247003","056-VK","2017/07/22 13:49:42","新北市蘆洲區長安街108巷5弄14號","121.461135","25.082355","6501400","蘆洲區"
"247015","001-UY","2017/07/22 13:49:40","新北市蘆洲區光華路38號","121.469116666667","25.0832016666667","6501400","蘆洲區"
"228005","097-TW","2017/07/22 13:49:47","新北市雙溪區三港里雙澳路100號","121.888576666667","25.0562533333333","6502600","貢寮區"
"228004","212-TW","2017/07/22 13:47:33","新北市貢寮區龍崗里嵩陽街10號","121.901743333333","25.01033","6502600","貢寮區"
"227002","400-TW","2017/07/22 12:44:49","新北市雙溪區三貂里政光路3-1號","121.850861666667","25.0631716666667","6502500","雙溪區"
"208004","AAC-292","2017/07/22 13:49:48","新北市金山區山城路1巷1號","121.595788333333","25.2007283333333","6502700","金山區"
"207002","749-BX","2017/07/22 13:49:19","新北市萬里區崁腳里崁腳路172-1號","121.642975","25.155005","6502800","萬里區"
"207001","463-BY","2017/07/22 13:49:37","新北市萬里區磺潭里清水2-2號","121.64129","25.2025983333333","6502800","萬里區"
"252005","073-UM","2017/07/22 13:48:57","新北市三芝區圓山里木屐寮38-2號","121.53219","25.2283916666667","6502100","三芝區"
"252007","AAC-283","2017/07/22 10:47:43","新北市三芝區埔坪里埔頭坑41號","121.504508333333","25.2644216666667","6502100","三芝區"
"236068","105-UM","2017/07/22 13:49:33","新北市土城區城林路6巷80號","121.438441666667","24.9796233333333","6501300","土城區"
"236041","107-UM","2017/07/22 13:49:42","新北市土城區中央路一段264-2號","121.443861666667","24.9836766666667","6501300","土城區"
"236029","253-BX","2017/07/22 13:49:29","新北市土城區城林路6巷80號","121.438371666667","24.9798466666667","6501300","土城區"
"236025","269-VK","2017/07/22 13:49:30","新北市土城區中華路二段221號","121.437561666667","24.9728283333333","6501300","土城區"
"236013","270-VK","2017/07/22 13:49:30","新北市土城區城林路6巷80號","121.43853","24.9797116666667","6501300","土城區"
"236035","271-VK","2017/07/22 13:49:41","新北市土城區城林路6巷80號","121.438623333333","24.9796933333333","6501300","土城區"
"236002","339-SR","2017/07/22 10:24:34","新北市土城區永平街51號","121.42768","24.959185","6501300","土城區"
"236017","401-BY","2017/07/22 13:49:34","新北市土城區城林路6巷80號","121.438556666667","24.979735","6501300","土城區"
"236006","498-BY","2017/07/22 13:49:37","新北市土城區中央路一段258號","121.444296666667","24.9843166666667","6501300","土城區"
"236045","913-UM","2017/07/22 13:49:36","新北市土城區城林路6巷80號","121.438373333333","24.97971","6501300","土城區"
"236061","915-UM","2017/07/22 13:49:40","新北市土城區城林路6巷80號","121.438453333333","24.9798066666667","6501300","土城區"
"236054","AAC-216","2017/07/22 13:49:32","新北市土城區城林路6巷80號","121.43832","24.9798016666667","6501300","土城區"
"242044","172-VK","2017/07/22 13:49:34","新北市新莊區四維路117號","121.423163333333","25.023125","6500500","新莊區"
"220027","145-BY","2017/07/22 13:49:46","新北市板橋區民權路202巷1弄1號","121.4593","25.014055","6500100","板橋區"
"220028","200-UY","2017/07/22 13:49:44","新北市板橋區大觀路二段265巷128號","121.442385","24.996255","6500100","板橋區"
"220030","610-BX","2017/07/22 13:49:37","新北市板橋區篤行路三段玉平巷35號","121.428908333333","24.9871033333333","6500100","板橋區"
"220052","257-TC","2017/07/22 13:49:40","新北市板橋區民生路二段120號","121.47052","25.019695","6500100","板橋區"
"220017","258-TC","2017/07/22 13:49:28","新北市板橋區觀光街2號","121.472415","25.0153366666667","6500100","板橋區"
"220004","276-BY","2017/07/22 13:49:42","新北市板橋區四川路二段237號","121.450865","24.99395","6500100","板橋區"
"220020","277-BY","2017/07/22 13:49:41","新北市板橋區金門街25巷16號","121.434131666667","24.9942966666667","6500100","板橋區"
"220019","283-VK","2017/07/22 13:49:48","新北市板橋區民生路二段11號","121.47251","25.01586","6500100","板橋區"
"220043","285-UM","2017/07/22 13:49:42","新北市板橋區民生路二段120號","121.470326666667","25.0198","6500100","板橋區"
"220001","285-VK","2017/07/22 13:49:30","新北市板橋區民生路二段36號","121.472571666667","25.0172416666667","6500100","板橋區"
"220031","286-VK","2017/07/22 13:49:33","新北市板橋區大觀路二段22巷30號","121.445171666667","25.0035866666667","6500100","板橋區"
"220029","287-VK","2017/07/22 13:49:41","新北市板橋區大觀路一段28巷75號","121.449941666667","25.0111183333333","6500100","板橋區"
"220039","288-VK","2017/07/22 13:49:46","新北市板橋區民生路二段188號","121.46984","25.02042","6500100","板橋區"
"220009","293-UM","2017/07/22 13:49:32","新北市板橋區民生路二段74號","121.47193","25.0181516666667","6500100","板橋區"
"220032","296-UM","2017/07/22 13:49:31","新北市板橋區大觀路二段174巷102弄19號","121.441635","25.0012466666667","6500100","板橋區"
"220023","297-UM","2017/07/22 13:49:49","新北市板橋區大觀路一段1-1號","121.450658333333","25.0084966666667","6500100","板橋區"
"220010","303-R5","2017/07/22 13:49:45","新北市板橋區觀光街2-2號","121.472321666667","25.015435","6500100","板橋區"
"220041","307-R5","2017/07/22 13:49:30","新北市板橋區民生路二段120號","121.470603333333","25.0196433333333","6500100","板橋區"
"220047","317-R6","2017/07/22 13:49:32","新北市板橋區民生路二段120號","121.470341666667","25.01997","6500100","板橋區"
"220012","486-VK","2017/07/22 13:49:36","新北市板橋區民生路二段36-1號","121.472575","25.0166416666667","6500100","板橋區"
"220038","487-VK","2017/07/22 13:49:31","新北市板橋區民生路二段120號","121.470615","25.01943","6500100","板橋區"
"220037","491-VK","2017/07/22 13:49:38","新北市板橋區民生路二段120號","121.470781666667","25.0193483333333","6500100","板橋區"
"220104","560-BX","2017/07/22 13:49:35","新北市板橋區中正路325巷49號","121.452975","25.0184933333333","6500100","板橋區"
"220011","609-BX","2017/07/22 13:49:46","新北市板橋區民生路二段36-1號","121.47236","25.0167233333333","6500100","板橋區"
"220040","637-BX","2017/07/22 13:49:39","新北市板橋區民生路二段188號","121.470045","25.0202733333333","6500100","板橋區"
"220005","686-BX","2017/07/22 13:49:44","新北市板橋區民生路二段36-1號","121.472241666667","25.0167016666667","6500100","板橋區"
"220025","687-BX","2017/07/22 13:49:32","新北市板橋區金門街86-2號","121.433056666667","24.9928433333333","6500100","板橋區"
"220042","689-BX","2017/07/22 13:49:40","新北市板橋區民生路二段120號","121.470631666667","25.01956","6500100","板橋區"
"220002","741-BX","2017/07/22 13:49:47","新北市板橋區觀光街2號","121.472455","25.01541","6500100","板橋區"
"220003","827-TW","2017/07/22 13:49:46","新北市板橋區民生路二段36-1號","121.472585","25.0167216666667","6500100","板橋區"
"220014","829-TW","2017/07/22 13:49:35","新北市板橋區民生路二段36-1號","121.47221","25.0167133333333","6500100","板橋區"
"220051","830-TW","2017/07/22 13:47:24","新北市板橋區民生路二段120號","121.470615","25.0195983333333","6500100","板橋區"
"220045","831-TW","2017/07/22 01:39:13","新北市板橋區民生路二段161巷9號","121.470343333333","25.0194633333333","6500100","板橋區"
"220022","895-R6","2017/07/22 13:49:43","新北市板橋區府中路63號","121.458268333333","25.0093333333333","6500100","板橋區"
"220021","985-R7","2017/07/22 13:49:45","新北市板橋區館前西路90號","121.457426666667","25.0072116666667","6500100","板橋區"
"220046","AAC-210","2017/07/22 13:49:35","新北市板橋區民生路二段120號","121.470566666667","25.0200683333333","6500100","板橋區"
"220018","AAC-253","2017/07/22 13:49:30","新北市板橋區民生路二段36-1號","121.472135","25.0168516666667","6500100","板橋區"
