"lineid","car","time","location","longitude","latitude","cityid","cityname"
"234025","9371-KE","2017/07/22 15:09:30","新北市永和區保生路55-1號","121.504488333333","25.0109233333333","6500400","永和區"
"248017","225-UY","2017/07/22 15:09:46","新北市五股區登林路99-1號","121.412835","25.076705","6501500","五股區"
"231002","002-UM","2017/07/22 15:09:37","新北市新店區中正路692號","121.534005","24.9904516666667","6500600","新店區"
"231025","0293-UT","2017/07/22 15:09:32","新北市新店區建國路241號","121.5376","24.9823283333333","6500600","新店區"
"231028","046-UY","2017/07/22 15:09:44","新北市新店區僑信路132巷23號","121.500046666667","24.94546","6500600","新店區"
"231030","047-UY","2017/07/22 15:09:34","新北市新店區安民街339號","121.516933333333","24.9748566666667","6500600","新店區"
"231029","106-UY","2017/07/22 15:09:42","新北市新店區安康路三段738號","121.473861666667","24.942015","6500600","新店區"
"231018","107-UY","2017/07/22 15:09:35","新北市新店區中央六街92號","121.526233333333","24.9768416666667","6500600","新店區"
"231012","110-UY","2017/07/22 15:09:28","新北市新店區中興路三段309號","121.542021666667","24.98587","6500600","新店區"
"231020","187-VK","2017/07/22 15:09:45","新北市新店區永福路86-1號","121.562895","24.9287866666667","6500600","新店區"
"231026","256-BX","2017/07/22 15:09:48","新北市新店區建興街9巷1號","121.539898333333","24.9763733333333","6500600","新店區"
"231034","268-BY","2017/07/22 15:09:41","新北市新店區玫瑰路4-1號","121.493653333333","24.9513816666667","6500600","新店區"
"231017","AAD-862","2017/07/22 15:07:35","新北市新店區明山路93號","121.565313333333","24.957115","6500600","新店區"
"231024","3713-VJ","2017/07/22 15:09:30","新北市新店區中華路42巷12號","121.540465","24.9685766666667","6500600","新店區"
"231036","512-UM","2017/07/22 15:09:38","新北市新店區安祥路104巷47號","121.482668333333","24.9635066666667","6500600","新店區"
"231023","513-UM","2017/07/22 15:09:39","新北市新店區檳榔路109號","121.544391666667","24.9617433333333","6500600","新店區"
"231035","515-UM","2017/07/22 15:09:36","新北市新店區安和路三段110巷1號","121.517333333333","24.98548","6500600","新店區"
"231006","617-UM","2017/07/22 15:09:38","新北市新店區新坡一街19號","121.549631666667","24.962995","6500600","新店區"
"231001","619-UM","2017/07/22 15:09:31","新北市新店區中正路272號","121.538918333333","24.9736566666667","6500600","新店區"
"231003","641-BX","2017/07/22 15:09:38","新北市新店區寶橋路220號","121.55114","24.9786783333333","6500600","新店區"
"231039","718-UY","2017/07/22 15:09:33","新北市新店區寶安街6巷2號","121.542171666667","24.9812933333333","6500600","新店區"
"231033","720-UM","2017/07/22 15:09:43","新北市新店區安泰路157號","121.488133333333","24.9381866666667","6500600","新店區"
"231005","897-TW","2017/07/22 15:09:38","新北市新店區順安街38號","121.540998333333","24.9856666666667","6500600","新店區"
"231004","899-TW","2017/07/22 15:09:40","新北市新店區建國路35巷1號","121.540401666667","24.974465","6500600","新店區"
"231037","AKT-0513","2017/07/22 15:09:28","新北市新店區安民街365巷7弄3號","121.516198333333","24.9753233333333","6500600","新店區"
"241013","270-UM","2017/07/22 15:09:48","新北市三重區重新路四段121號","121.484873333333","25.0525616666667","6500200","三重區"
"241005","887-TS","2017/07/22 15:09:50","新北市三重區重新路四段121號","121.484983333333","25.0520933333333","6500200","三重區"
"235030","003-UY","2017/07/22 15:09:32","新北市中和區水源路127巷2弄2號","121.508121666667","25.0039733333333","6500300","中和區"
"235020","096-UM","2017/07/22 15:09:49","新北市中和區中山路三段170巷2弄1號","121.472915","25.0066683333333","6500300","中和區"
"235003","097-UM","2017/07/22 15:09:30","新北市中和區安樂路217巷54號","121.512853333333","24.99759","6500300","中和區"
"235029","098-UM","2017/07/22 15:09:48","新北市中和區景平路791-4號","121.496148333333","25.0049983333333","6500300","中和區"
"235001","150-BY","2017/07/22 15:09:33","新北市中和區保健路22號","121.508353333333","24.997925","6500300","中和區"
"235022","151-BY","2017/07/22 15:09:27","新北市中和區中正路657號","121.485056666667","24.9962383333333","6500300","中和區"
"235008","293-VK","2017/07/22 15:09:46","新北市中和區板南路128巷1號","121.502675","24.9925983333333","6500300","中和區"
"235036","301-VK","2017/07/22 15:09:48","新北市中和區中正路434號","121.491263333333","24.9939366666667","6500300","中和區"
"235007","352-BY","2017/07/22 15:09:48","新北市中和區興南路二段159巷10號","121.505033333333","24.983235","6500300","中和區"
"235015","376-QA","2017/07/22 15:09:40","新北市中和區捷運路12-3號","121.509078333333","24.9900533333333","6500300","中和區"
"235032","377-QA","2017/07/22 15:09:35","新北市中和區勝利路35巷1弄36號","121.500318333333","25.0079266666667","6500300","中和區"
"235014","4979-A6","2017/07/22 15:09:32","新北市中和區景平路239巷3-7號","121.510028333333","24.9924266666667","6500300","中和區"
"235033","4980-A6","2017/07/22 15:09:46","新北市中和區圓通路196號","121.49632","24.9943866666667","6500300","中和區"
"235034","558-UM","2017/07/22 15:09:40","新北市中和區連勝街37號","121.498283333333","24.9977866666667","6500300","中和區"
"235018","640-BX","2017/07/22 15:09:28","新北市中和區民享街38號","121.47399","25.00303","6500300","中和區"
"235010","733-UM","2017/07/22 15:09:40","新北市中和區忠孝街31巷25-4號","121.510141666667","24.9839466666667","6500300","中和區"
"235026","800-TS","2017/07/22 15:09:46","新北市中和區永和路171巷3弄3號","121.49245","25.0066766666667","6500300","中和區"
"235021","801-TS","2017/07/22 15:09:48","新北市新莊區五權一路13-3號","121.459825","25.0686666666667","6500300","中和區"
"235012","896-TW","2017/07/22 15:09:43","新北市中和區興南路一段137號","121.50886","24.987625","6500300","中和區"
"235017","900-TW","2017/07/22 15:09:48","新北市中和區華安街102號","121.468843333333","24.995135","6500300","中和區"
"235001","AAC-213","2017/07/22 15:09:40","新北市中和區自立路36-8號","121.522691666667","24.9925933333333","6500300","中和區"
"235023","AAC-215","2017/07/22 15:09:28","新北市中和區圓通路335巷37弄1號","121.493973333333","24.9891016666667","6500300","中和區"
"220013","072-UY","2017/07/22 15:09:39","新北市板橋區新府路1-9號","121.463863333333","25.0123833333333","6500100","板橋區"
"247001","402-BY","2017/07/22 15:09:45","新北市八里區商港路98號","121.395321666667","25.1469166666667","6501400","蘆洲區"
"247002","336-TH","2017/07/22 15:08:15","新北市五股區中興路三段2巷10號","121.448721666667","25.081655","6501400","蘆洲區"
"247013","057-VK","2017/07/22 15:00:42","新北市五股區中興路三段2巷10號","121.448793333333","25.0815583333333","6501400","蘆洲區"
"228004","212-TW","2017/07/22 15:09:33","新北市貢寮區雙玉里田寮洋街6-4號","121.924411666667","25.02394","6502600","貢寮區"
"227002","400-TW","2017/07/22 12:44:49","新北市雙溪區三貂里政光路3-1號","121.850861666667","25.0631716666667","6502500","雙溪區"
"208004","AAC-292","2017/07/22 15:09:48","新北市金山區六股里下六股19號","121.62477","25.2239416666667","6502700","金山區"
"207002","749-BX","2017/07/22 15:09:39","新北市萬里區崁腳里內中福路21號","121.660526666667","25.1655033333333","6502800","萬里區"
"207001","463-BY","2017/07/22 15:09:15","新北市萬里區雙興里麗水路8-1號","121.649883333333","25.1871833333333","6502800","萬里區"
"252005","073-UM","2017/07/22 15:09:17","新北市三芝區埔坪里埔頭坑164-1號","121.508405","25.2483316666667","6502100","三芝區"
"252007","AAC-283","2017/07/22 10:47:43","新北市三芝區埔坪里埔頭坑41號","121.504508333333","25.2644216666667","6502100","三芝區"
"236068","105-UM","2017/07/22 15:09:36","新北市土城區中華路一段11號","121.44684","24.9894516666667","6501300","土城區"
"236041","107-UM","2017/07/22 15:09:42","新北市土城區裕民路255-1號","121.454771666667","24.9830183333333","6501300","土城區"
"236075","166-UM","2017/07/22 15:09:34","新北市土城區中州路3巷50號","121.413431666667","24.9564966666667","6501300","土城區"
"236029","253-BX","2017/07/22 15:09:47","新北市土城區福祥街22號","121.440961666667","24.9800966666667","6501300","土城區"
"236025","269-VK","2017/07/22 15:09:30","新北市土城區中正路43號","121.443956666667","24.97546","6501300","土城區"
"236013","270-VK","2017/07/22 15:09:39","新北市土城區學府路一段75巷10號","121.457056666667","24.9878783333333","6501300","土城區"
"236035","271-VK","2017/07/22 15:09:41","新北市土城區青雲路295巷16弄2號","121.459938333333","24.9797766666667","6501300","土城區"
"236002","339-SR","2017/07/22 10:24:34","新北市土城區永平街51號","121.42768","24.959185","6501300","土城區"
"236017","401-BY","2017/07/22 15:09:34","新北市土城區延吉街146號","121.469086666667","24.9855666666667","6501300","土城區"
"236057","912-UM","2017/07/22 15:09:35","新北市土城區金城路二段214號","121.455748333333","24.9824033333333","6501300","土城區"
"236045","913-UM","2017/07/22 15:09:39","新北市土城區清水路200號","121.460418333333","24.981905","6501300","土城區"
"236054","AAC-216","2017/07/22 15:09:39","新北市土城區學府路一段233號","121.451083333333","24.9839933333333","6501300","土城區"
"242044","172-VK","2017/07/22 15:09:34","新北市新莊區新泰路255巷83號","121.442163333333","25.0389766666667","6500500","新莊區"
"220028","200-UY","2017/07/22 15:09:44","新北市板橋區大觀路二段108號","121.444076666667","24.999475","6500100","板橋區"
"220030","610-BX","2017/07/22 15:09:35","新北市板橋區大觀路三段201號","121.43173","24.99317","6500100","板橋區"
"220050","245-BX","2017/07/22 15:09:29","新北市板橋區莒光路165巷40號","121.474546666667","25.024875","6500100","板橋區"
"220052","257-TC","2017/07/22 15:09:40","新北市板橋區英士路58巷14號","121.460663333333","25.0253016666667","6500100","板橋區"
"220017","258-TC","2017/07/22 15:09:47","新北市板橋區大明街32號","121.458275","25.002665","6500100","板橋區"
"220020","277-BY","2017/07/22 15:09:41","新北市板橋區金門街111-3號","121.433045","24.9920383333333","6500100","板橋區"
"220019","283-VK","2017/07/22 15:09:28","新北市板橋區五權街32巷3號","121.464776666667","24.9931533333333","6500100","板橋區"
"220031","286-VK","2017/07/22 15:09:44","新北市板橋區僑中二街100巷38號","121.444486666667","25.0087033333333","6500100","板橋區"
"220029","287-VK","2017/07/22 15:09:41","新北市板橋區僑中一街80巷3弄1號","121.447653333333","25.0120866666667","6500100","板橋區"
"220009","293-UM","2017/07/22 15:09:32","新北市板橋區四川路一段281號","121.459523333333","25.0020266666667","6500100","板橋區"
"220032","296-UM","2017/07/22 15:09:31","新北市板橋區篤行路三段玉平巷76弄9號","121.427326666667","24.9859683333333","6500100","板橋區"
"220041","307-R5","2017/07/22 15:09:30","新北市板橋區漢生西路89巷4弄11號","121.461338333333","25.01863","6500100","板橋區"
"220047","317-R6","2017/07/22 15:09:32","新北市板橋區新海路72巷4號","121.462185","25.0219533333333","6500100","板橋區"
"220012","486-VK","2017/07/22 15:09:36","新北市板橋區長安街331巷7號","121.474081666667","25.012245","6500100","板橋區"
"220038","487-VK","2017/07/22 15:09:31","新北市板橋區互助街80號","121.46064","25.0264033333333","6500100","板橋區"
"220037","491-VK","2017/07/22 15:09:38","新北市板橋區民治街52巷5弄10號","121.479451666667","25.0328616666667","6500100","板橋區"
"220005","686-BX","2017/07/22 15:09:43","新北市板橋區縣民大道二段68號","121.46316","25.0127566666667","6500100","板橋區"
"220025","687-BX","2017/07/22 15:09:32","新北市板橋區大觀路一段28巷1弄94號","121.451368333333","25.0066916666667","6500100","板橋區"
"220042","689-BX","2017/07/22 15:09:40","新北市板橋區長江路二段28號","121.464758333333","25.0314033333333","6500100","板橋區"
"220003","827-TW","2017/07/22 15:09:26","新北市板橋區仁愛路23號","121.458916666667","24.9994666666667","6500100","板橋區"
"220014","829-TW","2017/07/22 15:09:35","新北市五股區五工一路115號","121.455195","25.0722466666667","6500100","板橋區"
"220051","830-TW","2017/07/22 15:09:44","新北市板橋區縣民大道三段316號","121.47909","25.024175","6500100","板橋區"
"220046","AAC-210","2017/07/22 15:09:35","新北市板橋區光正街9巷2弄2號","121.462806666667","25.0169216666667","6500100","板橋區"
"220018","AAC-253","2017/07/22 15:09:30","新北市板橋區德興街16號","121.453415","24.9943883333333","6500100","板橋區"
