"lineid","car","time","location","longitude","latitude","cityid","cityname"
"234025","9371-KE","2017/07/22 15:19:30","新北市永和區保生路55-1號","121.504478333333","25.010915","6500400","永和區"
"231002","002-UM","2017/07/22 15:19:37","台北市文山區景文街146巷26號","121.5334","24.9916366666667","6500600","新店區"
"231025","0293-UT","2017/07/22 15:19:32","新北市新店區民權路103號","121.53661","24.9827266666667","6500600","新店區"
"231028","046-UY","2017/07/22 15:19:44","新北市新店區僑信路90巷46號","121.498536666667","24.94734","6500600","新店區"
"231030","047-UY","2017/07/22 15:19:34","新北市新店區安民街337號","121.517263333333","24.9749216666667","6500600","新店區"
"231029","106-UY","2017/07/22 15:19:42","新北市新店區安康路三段738號","121.473846666667","24.9419866666667","6500600","新店區"
"231018","107-UY","2017/07/22 15:19:35","新北市新店區中央七街13號","121.530195","24.9749766666667","6500600","新店區"
"231012","110-UY","2017/07/22 15:19:28","新北市新店區復興路27號","121.539155","24.98665","6500600","新店區"
"231020","187-VK","2017/07/22 15:19:45","新北市新店區湖興路109號","121.56019","24.9356833333333","6500600","新店區"
"231026","256-BX","2017/07/22 15:19:48","新北市新店區中正路265巷1號","121.538025","24.973685","6500600","新店區"
"231034","268-BY","2017/07/22 15:19:41","新北市新店區如意街1巷2號","121.495735","24.949525","6500600","新店區"
"231017","AAD-862","2017/07/22 15:19:35","新北市新店區明山路45號","121.563833333333","24.95589","6500600","新店區"
"231024","3713-VJ","2017/07/22 15:19:43","新北市新店區新明街14號","121.541006666667","24.9683116666667","6500600","新店區"
"231036","512-UM","2017/07/22 15:19:31","新北市新店區安祥路69巷17號","121.48201","24.961295","6500600","新店區"
"231023","513-UM","2017/07/22 15:19:39","新北市新店區行政街43號","121.543126666667","24.9656316666667","6500600","新店區"
"231035","515-UM","2017/07/22 15:19:35","新北市新店區永平街23巷5號","121.516841666667","24.9830916666667","6500600","新店區"
"231001","619-UM","2017/07/22 15:19:40","新北市新店區北新路一段90號","121.541841666667","24.9682233333333","6500600","新店區"
"231003","641-BX","2017/07/22 15:19:39","新北市新店區寶高路118號","121.554518333333","24.9758866666667","6500600","新店區"
"231039","718-UY","2017/07/22 15:19:33","新北市新店區寶元路一段61號","121.542116666667","24.985925","6500600","新店區"
"231033","720-UM","2017/07/22 15:19:43","新北市新店區和成街19巷35號","121.488166666667","24.9460266666667","6500600","新店區"
"231005","897-TW","2017/07/22 15:19:38","新北市新店區民族路20號","121.541101666667","24.9788083333333","6500600","新店區"
"231004","899-TW","2017/07/22 15:19:40","新北市新店區建國路31號","121.540268333333","24.974195","6500600","新店區"
"231037","AKT-0513","2017/07/22 15:19:48","新北市新店區安興路85-48號","121.513468333333","24.9756316666667","6500600","新店區"
"241013","270-UM","2017/07/22 15:19:28","新北市三重區重新路四段121號","121.48486","25.052565","6500200","三重區"
"241005","887-TS","2017/07/22 15:19:30","新北市三重區重新路四段121號","121.48496","25.0521166666667","6500200","三重區"
"235030","003-UY","2017/07/22 15:19:32","新北市中和區保平路326巷1號","121.507131666667","25.0042833333333","6500300","中和區"
"235020","096-UM","2017/07/22 15:19:44","新北市中和區中山路三段170巷8弄1號","121.47259","25.00759","6500300","中和區"
"235003","097-UM","2017/07/22 15:19:30","新北市中和區安平路17號","121.509186666667","24.9941766666667","6500300","中和區"
"235001","150-BY","2017/07/22 15:19:33","新北市中和區景安路79巷21號","121.506943333333","24.996685","6500300","中和區"
"235014","4979-A6","2017/07/22 15:10:13","新北市中和區景平路221巷3號","121.510385","24.9924166666667","6500300","中和區"
"235033","4980-A6","2017/07/22 15:19:46","新北市中和區中正路561號","121.486958333333","24.9943866666667","6500300","中和區"
"235034","558-UM","2017/07/22 15:19:39","新北市中和區圓通路156號","121.49795","24.99563","6500300","中和區"
"235026","800-TS","2017/07/22 15:19:46","新北市中和區建八路130號","121.488763333333","24.9985766666667","6500300","中和區"
"235021","801-TS","2017/07/22 15:19:29","新北市八里區商港路105巷15-1號","121.391498333333","25.1494116666667","6500300","中和區"
"235012","896-TW","2017/07/22 15:19:43","新北市中和區景新街377號","121.512261666667","24.99042","6500300","中和區"
"235001","AAC-213","2017/07/22 15:19:40","新北市中和區自立路99巷22弄32號","121.523193333333","24.993815","6500300","中和區"
"235023","AAC-215","2017/07/22 15:19:48","新北市中和區圓通路435巷1號","121.48652","24.9875316666667","6500300","中和區"
"247001","402-BY","2017/07/22 15:19:45","新北市八里區商港一路16號","121.396073333333","25.1473083333333","6501400","蘆洲區"
"247002","336-TH","2017/07/22 15:08:15","新北市五股區中興路三段2巷10號","121.448721666667","25.081655","6501400","蘆洲區"
"227002","400-TW","2017/07/22 12:44:49","新北市雙溪區三貂里政光路3-1號","121.850861666667","25.0631716666667","6502500","雙溪區"
"208004","AAC-292","2017/07/22 15:19:41","新北市金山區月眉25號","121.629061666667","25.2148033333333","6502700","金山區"
"207001","463-BY","2017/07/22 15:19:36","新北市萬里區大鵬里萬里加投10號","121.650653333333","25.207095","6502800","萬里區"
"252007","AAC-283","2017/07/22 10:47:43","新北市三芝區埔坪里埔頭坑41號","121.504508333333","25.2644216666667","6502100","三芝區"
"236068","105-UM","2017/07/22 15:19:33","新北市土城區裕民路185巷36弄8號","121.454505","24.984535","6501300","土城區"
"236041","107-UM","2017/07/22 15:19:42","新北市土城區金城路二段245巷40號","121.455538333333","24.9832716666667","6501300","土城區"
"236075","166-UM","2017/07/22 15:19:34","新北市土城區中州路27巷57號","121.413021666667","24.9568233333333","6501300","土城區"
"236029","253-BX","2017/07/22 15:19:32","新北市土城區中華路一段215號","121.442506666667","24.9843316666667","6501300","土城區"
"236025","269-VK","2017/07/22 15:19:30","新北市土城區中央路二段154號","121.441955","24.9767216666667","6501300","土城區"
"236013","270-VK","2017/07/22 15:19:30","新北市土城區廣福街5號","121.45725","24.9888333333333","6501300","土城區"
"236035","271-VK","2017/07/22 15:19:47","新北市土城區國際路139巷5號","121.468445","24.9766766666667","6501300","土城區"
"236002","339-SR","2017/07/22 10:24:34","新北市土城區永平街51號","121.42768","24.959185","6501300","土城區"
"236017","401-BY","2017/07/22 15:19:34","新北市土城區明峰街83號","121.468923333333","24.987385","6501300","土城區"
"236057","912-UM","2017/07/22 15:19:35","新北市土城區金城路一段3號","121.439216666667","24.96888","6501300","土城區"
"236045","913-UM","2017/07/22 15:19:36","新北市土城區明德路一段153號","121.464963333333","24.9798533333333","6501300","土城區"
"236061","915-UM","2017/07/22 15:19:40","新北市土城區延平街69巷3號","121.4674","24.99278","6501300","土城區"
"236054","AAC-216","2017/07/22 15:19:42","新北市土城區學府路一段198號","121.453078333333","24.9858866666667","6501300","土城區"
"220028","200-UY","2017/07/22 15:19:44","新北市土城區中山路2-2號","121.411158333333","24.9601066666667","6500100","板橋區"
"220050","245-BX","2017/07/22 15:19:29","新北市板橋區莊敬路127號","121.471893333333","25.025375","6500100","板橋區"
"220052","257-TC","2017/07/22 15:19:40","新北市板橋區漢生西路77-1號","121.462788333333","25.019","6500100","板橋區"
"220017","258-TC","2017/07/22 15:19:27","新北市板橋區大明街20巷19弄8號","121.458345","25.0032916666667","6500100","板橋區"
"220019","283-VK","2017/07/22 15:19:36","新北市板橋區和平路190巷20號","121.464696666667","24.994835","6500100","板橋區"
"220031","286-VK","2017/07/22 15:19:29","新北市板橋區僑中二街104巷17號","121.445273333333","25.0080016666667","6500100","板橋區"
"220029","287-VK","2017/07/22 15:19:41","新北市板橋區大觀路二段92號","121.44485","25.0002083333333","6500100","板橋區"
"220041","307-R5","2017/07/22 15:19:36","新北市板橋區民權路101巷2號","121.459198333333","25.013355","6500100","板橋區"
"220038","487-VK","2017/07/22 15:19:37","新北市板橋區四維路141號","121.465001666667","25.0254733333333","6500100","板橋區"
"220014","829-TW","2017/07/22 15:19:35","新北市八里區商港路105巷15號","121.391365","25.1492666666667","6500100","板橋區"
"220051","830-TW","2017/07/22 15:19:44","新北市板橋區文化路一段305號","121.46527","25.0190283333333","6500100","板橋區"
"220046","AAC-210","2017/07/22 15:19:35","新北市板橋區文化路一段101巷13號","121.460766666667","25.01467","6500100","板橋區"
"220018","AAC-253","2017/07/22 15:19:30","新北市板橋區四川路二段245巷12-2號","121.450893333333","24.9930116666667","6500100","板橋區"
