"lineid","car","time","location","longitude","latitude","cityid","cityname"
"231002","002-UM","2017/07/22 15:29:37","新北市新店區環河路18號","121.536891666667","24.9615083333333","6500600","新店區"
"231025","0293-UT","2017/07/22 15:29:32","新北市新店區環河路105-4號","121.531605","24.97031","6500600","新店區"
"231028","046-UY","2017/07/22 15:29:44","新北市新店區僑信路29巷27號","121.499398333333","24.95092","6500600","新店區"
"231030","047-UY","2017/07/22 15:29:35","新北市新店區新和街54號","121.519726666667","24.9852883333333","6500600","新店區"
"231029","106-UY","2017/07/22 15:29:42","新北市新店區安康路三段527號","121.482098333333","24.947675","6500600","新店區"
"231018","107-UY","2017/07/22 15:29:35","新北市新店區中央七街121號","121.525205","24.9780216666667","6500600","新店區"
"231012","110-UY","2017/07/22 15:29:48","新北市新店區寶元路一段70號","121.544011666667","24.9843783333333","6500600","新店區"
"231020","187-VK","2017/07/22 15:29:45","新北市新店區花園二路三段9號","121.555156666667","24.9315416666667","6500600","新店區"
"231026","256-BX","2017/07/22 15:29:28","新北市新店區三民路20巷30號","121.538108333333","24.9712833333333","6500600","新店區"
"231034","268-BY","2017/07/22 15:29:41","新北市新店區富貴街10巷2號","121.49424","24.9497166666667","6500600","新店區"
"231036","512-UM","2017/07/22 15:29:31","新北市新店區安祥路69巷54弄12號","121.482228333333","24.9591283333333","6500600","新店區"
"231023","513-UM","2017/07/22 15:29:39","新北市新店區北新路一段96巷23號","121.542835","24.9687","6500600","新店區"
"231035","515-UM","2017/07/22 15:29:35","新北市新店區安民街365巷7弄2號","121.516046666667","24.97553","6500600","新店區"
"231003","641-BX","2017/07/22 15:29:38","新北市新店區寶高路116號","121.554538333333","24.9760583333333","6500600","新店區"
"231039","718-UY","2017/07/22 15:29:33","新北市新店區寶元路一段101號","121.543738333333","24.984875","6500600","新店區"
"231033","720-UM","2017/07/22 15:29:23","新北市新店區雙城路31號","121.49261","24.9497316666667","6500600","新店區"
"231005","897-TW","2017/07/22 15:29:38","新北市新店區建國路291巷1號","121.536903333333","24.9851983333333","6500600","新店區"
"231004","899-TW","2017/07/22 15:29:40","新北市新店區中正路256號","121.539333333333","24.9733816666667","6500600","新店區"
"231037","AKT-0513","2017/07/22 15:29:48","新北市新店區安興路105號","121.514741666667","24.9778066666667","6500600","新店區"
"241015","062-VK","2017/07/22 15:29:31","新北市三重區重新路四段121號","121.485263333333","25.0519133333333","6500200","三重區"
"241017","063-VK","2017/07/22 15:29:42","新北市三重區重新路四段121號","121.484698333333","25.05189","6500200","三重區"
"241013","270-UM","2017/07/22 15:29:48","新北市三重區重新路四段121號","121.484828333333","25.0525666666667","6500200","三重區"
"241005","887-TS","2017/07/22 15:29:30","新北市三重區重新路四段121號","121.484966666667","25.052095","6500200","三重區"
"241033","AAC-255","2017/07/22 15:29:49","新北市三重區重新路四段121號","121.48487","25.0529","6500200","三重區"
"235030","003-UY","2017/07/22 15:29:32","新北市中和區光華街69號","121.506668333333","25.002785","6500300","中和區"
"235014","4979-A6","2017/07/22 15:10:13","新北市中和區景平路221巷3號","121.510385","24.9924166666667","6500300","中和區"
"235033","4980-A6","2017/07/22 15:29:46","新北市中和區員山路238號","121.481281666667","25.001215","6500300","中和區"
"235034","558-UM","2017/07/22 15:29:40","新北市中和區連城路263巷26號","121.492711666667","24.9941866666667","6500300","中和區"
"235026","800-TS","2017/07/22 15:29:46","新北市中和區建八路125巷6弄2號","121.489753333333","24.9988833333333","6500300","中和區"
"235021","801-TS","2017/07/22 15:29:29","新北市林口區太平里180號","121.36807","25.1343183333333","6500300","中和區"
"235012","896-TW","2017/07/22 15:29:43","新北市中和區忠孝街2-1號","121.50885","24.9828333333333","6500300","中和區"
"235001","AAC-213","2017/07/22 15:29:40","新北市中和區自立路15巷15號","121.52298","24.996045","6500300","中和區"
"235023","AAC-215","2017/07/22 15:29:28","新北市中和區員山路14-4號","121.484116666667","24.9830433333333","6500300","中和區"
"247001","402-BY","2017/07/22 15:29:45","新北市八里區中華路二段590號","121.397823333333","25.1442316666667","6501400","蘆洲區"
"247002","336-TH","2017/07/22 15:08:15","新北市五股區中興路三段2巷10號","121.448721666667","25.081655","6501400","蘆洲區"
"227002","400-TW","2017/07/22 15:29:36","新北市雙溪區三貂里政光路3-1號","121.850906666667","25.06329","6502500","雙溪區"
"252007","AAC-283","2017/07/22 10:47:43","新北市三芝區埔坪里埔頭坑41號","121.504508333333","25.2644216666667","6502100","三芝區"
"236068","105-UM","2017/07/22 15:29:33","新北市土城區中正路17號","121.443118333333","24.97528","6501300","土城區"
"236041","107-UM","2017/07/22 15:29:42","新北市土城區學府路一段98巷22號","121.455588333333","24.9887416666667","6501300","土城區"
"236075","166-UM","2017/07/22 15:29:34","新北市土城區中央路四段410巷3號","121.411161666667","24.95319","6501300","土城區"
"236029","253-BX","2017/07/22 15:29:29","新北市土城區日新街8巷5號","121.44536","24.9873166666667","6501300","土城區"
"236025","269-VK","2017/07/22 15:29:45","新北市土城區員林街61巷2弄17號","121.444701666667","24.977715","6501300","土城區"
"236013","270-VK","2017/07/22 15:29:30","新北市土城區廣明街6號","121.456045","24.9918833333333","6501300","土城區"
"236035","271-VK","2017/07/22 15:29:41","新北市土城區明德路一段20巷2弄2號","121.464711666667","24.9848783333333","6501300","土城區"
"236002","339-SR","2017/07/22 10:24:34","新北市土城區永平街51號","121.42768","24.959185","6501300","土城區"
"236017","401-BY","2017/07/22 15:29:34","新北市土城區峰廷街10號","121.468753333333","24.987595","6501300","土城區"
"236057","912-UM","2017/07/22 15:29:35","新北市土城區中央路二段134號","121.441973333333","24.977455","6501300","土城區"
"236045","913-UM","2017/07/22 15:29:36","新北市土城區金城路二段396號","121.464033333333","24.9856966666667","6501300","土城區"
"236061","915-UM","2017/07/22 15:29:39","新北市土城區金城路三段163巷16號","121.468926666667","24.9891666666667","6501300","土城區"
"236054","AAC-216","2017/07/22 15:29:44","新北市土城區延和路72號","121.46599","24.989245","6501300","土城區"
"220050","245-BX","2017/07/22 15:29:36","新北市板橋區漢生東路83巷1號","121.466343333333","25.0158633333333","6500100","板橋區"
"220052","257-TC","2017/07/22 15:29:40","新北市板橋區漢生東路41號","121.465561666667","25.0169116666667","6500100","板橋區"
"220031","286-VK","2017/07/22 15:29:38","新北市板橋區僑中二街116巷21號","121.444731666667","25.0064316666667","6500100","板橋區"
"220038","487-VK","2017/07/22 15:29:41","新北市板橋區四維路333號","121.46253","25.029495","6500100","板橋區"
"220014","829-TW","2017/07/22 15:29:35","新北市林口區太平里180號","121.367421666667","25.1346716666667","6500100","板橋區"
"220051","830-TW","2017/07/22 15:29:44","新北市板橋區民生路二段161巷17號","121.470215","25.0190683333333","6500100","板橋區"
