"lineid","car","time","location","longitude","latitude","cityid","cityname"
"249005","172-UM","2017/07/22 17:19:28","新北市五股區民義路二段128號","121.403023333333","25.12096","6502300","八里區"
"249004","303-UY","2017/07/22 17:19:46","新北市八里區文化街39號","121.423473333333","25.1598683333333","6502300","八里區"
"249002","305-UY","2017/07/22 17:19:41","新北市八里區龍米路二段117巷26號","121.44472","25.1427366666667","6502300","八里區"
"249003","593-UM","2017/07/22 17:19:27","新北市八里區商港路80號","121.395521666667","25.1464033333333","6502300","八里區"
"249001","759-BX","2017/07/22 17:19:38","新北市八里區中華路二段165巷3號","121.407623333333","25.150895","6502300","八里區"
"244013","069-UM","2017/07/22 17:19:36","新北市林口區粉寮69號","121.405021666667","25.0908933333333","6501700","林口區"
"244007","080-UY","2017/07/22 17:19:28","新北市林口區中湖40-9號","121.383285","25.0911833333333","6501700","林口區"
"244019","403-UM","2017/07/22 17:19:42","新北市林口區公園路229-3號","121.375018333333","25.0751","6501700","林口區"
"244009","410-SL","2017/07/22 17:19:46","新北市林口區文化北路二段699-2號","121.378266666667","25.0933183333333","6501700","林口區"
"244023","483-VK","2017/07/22 17:19:45","新北市林口區仁愛路一段637巷13號","121.388646666667","25.0757533333333","6501700","林口區"
"244017","485-VK","2017/07/22 17:19:28","新北市林口區粉寮69號","121.40498","25.09087","6501700","林口區"
"244021","838-TS","2017/07/22 17:19:37","新北市林口區粉寮路二段160巷17號","121.405705","25.0923233333333","6501700","林口區"
"231046","278-BY","2017/07/22 17:19:39","新北市新店區直潭路92號","121.530893333333","24.937605","6500600","新店區"
"241011","013-R5","2017/07/22 17:19:28","新北市三重區介壽路39巷168號","121.502063333333","25.070825","6500200","三重區"
"241028","022-UY","2017/07/22 17:19:35","新北市三重區仁化商場15號","121.49377","25.059185","6500200","三重區"
"241009","060-VK","2017/07/22 17:19:41","新北市三重區仁愛街618號","121.483586666667","25.0806033333333","6500200","三重區"
"241015","062-VK","2017/07/22 17:19:30","新北市三重區長元街82-1號","121.501918333333","25.0662916666667","6500200","三重區"
"241017","063-VK","2017/07/22 17:19:41","新北市三重區大同北路44巷1號","121.495035","25.0629883333333","6500200","三重區"
"241024","065-VK","2017/07/22 17:19:41","新北市三重區後竹圍街295號","121.47884","25.069815","6500200","三重區"
"241026","066-VK","2017/07/22 17:19:43","新北市三重區福裕街2號","121.499916666667","25.0616133333333","6500200","三重區"
"241002","090-VK","2017/07/22 17:19:26","新北市三重區自強路五段7-1號","121.492421666667","25.0804716666667","6500200","三重區"
"241003","091-VK","2017/07/22 17:19:29","新北市三重區富福街56號","121.491815","25.0844233333333","6500200","三重區"
"241001","265-UM","2017/07/22 17:19:48","新北市三重區碧華街278號","121.488985","25.0829183333333","6500200","三重區"
"241016","266-UM","2017/07/22 17:19:45","新北市三重區新北大道一段1號","121.491411666667","25.0613216666667","6500200","三重區"
"241022","267-UM","2017/07/22 17:19:38","新北市三重區重陽路二段34巷18號","121.486336666667","25.0633933333333","6500200","三重區"
"241018","268-UM","2017/07/22 17:19:38","新北市三重區安慶街144號","121.49439","25.0687633333333","6500200","三重區"
"241032","269-UM","2017/07/22 17:19:44","新北市三重區中華路20巷32號","121.482295","25.0606333333333","6500200","三重區"
"241013","270-UM","2017/07/22 17:19:28","新北市三重區仁愛街104號","121.495338333333","25.0741683333333","6500200","三重區"
"241025","271-UM","2017/07/22 17:19:32","新北市三重區中正北路237號","121.475456666667","25.0706383333333","6500200","三重區"
"241007","398-BY","2017/07/22 17:19:41","新北市三重區三和路四段155巷31號","121.484778333333","25.0787366666667","6500200","三重區"
"241008","412-TH","2017/07/22 17:19:44","新北市三重區下竹圍街12號","121.480908333333","25.0758216666667","6500200","三重區"
"241020","413-TH","2017/07/22 17:19:30","新北市三重區永德街8號","121.489165","25.0725483333333","6500200","三重區"
"241004","475-VK","2017/07/22 17:19:42","新北市三重區仁愛街425巷38號","121.49121","25.0822816666667","6500200","三重區"
"241019","478-VK","2017/07/22 17:19:44","新北市三重區自強路二段100號","121.487376666667","25.0712666666667","6500200","三重區"
"241030","480-VK","2017/07/22 17:19:42","新北市三重區成功路73巷11號","121.489455","25.051945","6500200","三重區"
"241014","543-UM","2017/07/22 17:19:39","新北市三重區長榮路6號","121.500103333333","25.0685316666667","6500200","三重區"
"241023","545-UM","2017/07/22 17:19:32","新北市三重區三民街174號","121.482051666667","25.06557","6500200","三重區"
"241005","887-TS","2017/07/22 17:19:35","新北市三重區永安北路二段25巷50號","121.483251666667","25.0819866666667","6500200","三重區"
"241012","941-UM","2017/07/22 17:19:44","新北市三重區河邊北街242號","121.501816666667","25.07575","6500200","三重區"
"241033","AAC-255","2017/07/22 17:19:48","新北市新莊區化成路630巷19弄12號","121.467296666667","25.055895","6500200","三重區"
"235061","378-QA","2017/07/22 15:21:28","新北市中和區員山路36巷13號","121.484343333333","24.9911316666667","6500300","中和區"
"235026","800-TS","2017/07/22 17:03:59","新北市中和區員山路36巷16-3號","121.485143333333","24.9913583333333","6500300","中和區"
"247020","893-R6","2017/07/22 17:19:46","新北市蘆洲區民族路426巷22號","121.473015","25.0927216666667","6501400","蘆洲區"
"247010","546-UM","2017/07/22 17:19:42","新北市蘆洲區中山一路122巷54號","121.476535","25.082735","6501400","蘆洲區"
"247018","500-BY","2017/07/22 17:19:35","新北市蘆洲區民權路82巷6弄2號","121.475091666667","25.0881016666667","6501400","蘆洲區"
"247001","402-BY","2017/07/22 16:10:54","新北市五股區中興路三段3-6號","121.44957","25.078835","6501400","蘆洲區"
"247006","341-TH","2017/07/22 17:19:30","新北市蘆洲區長安街73巷25號","121.461921666667","25.07925","6501400","蘆洲區"
"247008","339-TH","2017/07/22 17:19:31","新北市蘆洲區永安北路一段72巷48號","121.4762","25.0769333333333","6501400","蘆洲區"
"247024","337-TH","2017/07/22 17:19:41","新北市蘆洲區長榮路345號","121.459533333333","25.0876983333333","6501400","蘆洲區"
"247002","336-TH","2017/07/22 17:19:32","新北市蘆洲區永樂街38巷45弄8號","121.457803333333","25.0900883333333","6501400","蘆洲區"
"247014","057-VK","2017/07/22 17:19:32","新北市蘆洲區中正路94號","121.47027","25.0840066666667","6501400","蘆洲區"
"247004","056-VK","2017/07/22 17:19:43","新北市蘆洲區中原路31號","121.460118333333","25.0827333333333","6501400","蘆洲區"
"247012","007-UY","2017/07/22 17:19:41","新北市蘆洲區信義路295號","121.478573333333","25.085915","6501400","蘆洲區"
"247022","002-UY","2017/07/22 17:19:43","新北市蘆洲區三民路128巷31號","121.469998333333","25.0895166666667","6501400","蘆洲區"
"247016","001-UY","2017/07/22 17:19:37","新北市蘆洲區中正路185巷30號","121.467855","25.08518","6501400","蘆洲區"
"228003","097-TW","2017/07/22 17:19:41","新北市貢寮區福隆里興隆街24-1號","121.94433","25.0166483333333","6502600","貢寮區"
"228001","212-TW","2017/07/22 17:19:42","新北市貢寮區仁理村尖山腳街18-3號","121.92549","25.04823","6502600","貢寮區"
"228002","585-TW","2017/07/22 17:19:39","新北市貢寮區雙玉里田寮洋街42號","121.925366666667","25.0120766666667","6502600","貢寮區"
"224010","AGQ-8101","2017/07/22 09:35:12","新北市瑞芳區明燈路二段44-1號","121.809555","25.1082683333333","6501200","瑞芳區"
"224006","676-BX","2017/07/22 17:19:38","新北市瑞芳區大寮路29號","121.78244","25.0986683333333","6501200","瑞芳區"
"224009","285-BY","2017/07/22 17:19:31","新北市瑞芳區汽車路139號","121.838733333333","25.10986","6501200","瑞芳區"
"224008","275-VK","2017/07/22 17:19:26","新北市瑞芳區侯硐路184號","121.829006666667","25.087935","6501200","瑞芳區"
"224005","271-BY","2017/07/22 17:19:16","新北市瑞芳區鼻頭路91號","121.91619","25.1243216666667","6501200","瑞芳區"
"227010","642-TC","2017/07/22 17:19:36","新北市雙溪區三貂里十三層5-3號","121.852346666667","25.0767166666667","6502500","雙溪區"
"227002","400-TW","2017/07/22 17:19:36","新北市雙溪區上林里內平林59號","121.832673333333","25.0297216666667","6502500","雙溪區"
"251009","008-UM","2017/07/22 17:03:44","新北市淡水區中正路330-1號","121.43596","25.1730133333333","6501000","淡水區"
"251004","009-UM","2017/07/22 17:19:41","新北市淡水區中正東路二段48巷20號","121.45727","25.158425","6501000","淡水區"
"251005","010-UM","2017/07/22 17:19:36","新北市淡水區鄧公路19-1號","121.450261666667","25.1699333333333","6501000","淡水區"
"251002","012-UM","2017/07/22 17:19:38","新北市淡水區中正路二段31號","121.419286666667","25.1817216666667","6501000","淡水區"
"251014","180-VK","2017/07/22 17:19:37","新北市淡水區公埔子45號","121.464013333333","25.23019","6501000","淡水區"
"251008","181-VK","2017/07/22 17:19:32","新北市淡水區大同路293號","121.467766666667","25.1424533333333","6501000","淡水區"
"251010","413-VK","2017/07/22 17:19:34","新北市淡水區中正路二段31號","121.419126666667","25.1819966666667","6501000","淡水區"
"251012","441-VK","2017/07/22 17:19:28","新北市淡水區中山北路一段158號","121.44423","25.17791","6501000","淡水區"
"251016","442-VK","2017/07/22 17:19:37","新北市淡水區鄒厝崙14號","121.461883333333","25.1906383333333","6501000","淡水區"
"251006","561-UM","2017/07/22 17:19:33","新北市淡水區大智街10號","121.44165","25.1745916666667","6501000","淡水區"
"251007","577-R6","2017/07/22 17:19:30","新北市淡水區民生路47-4號","121.462003333333","25.1379816666667","6501000","淡水區"
"251011","650-BX","2017/07/22 17:19:28","新北市淡水區坪頂路128號","121.465185","25.1613066666667","6501000","淡水區"
"251003","673-BX","2017/07/22 17:19:31","新北市淡水區中正路257號","121.433165","25.1744733333333","6501000","淡水區"
"207003","550-UM","2017/07/22 17:19:47","新北市萬里區龜吼里美崙路45號","121.687301666667","25.1838366666667","6502800","萬里區"
"252002","178-VK","2017/07/22 17:19:38","新北市三芝區忠孝街1-14號","121.505461666667","25.2539733333333","6502100","三芝區"
"252001","292-VK","2017/07/22 17:19:31","新北市三芝區長安街119號","121.498056666667","25.259645","6502100","三芝區"
"252007","AAC-283","2017/07/22 10:47:43","新北市三芝區埔坪里埔頭坑41號","121.504508333333","25.2644216666667","6502100","三芝區"
"236002","339-SR","2017/07/22 10:24:34","新北市土城區永平街51號","121.42768","24.959185","6501300","土城區"
"242021","AAC-296","2017/07/22 17:19:29","新北市新莊區中港一街140號","121.447991666667","25.045135","6500500","新莊區"
"242029","986-R7","2017/07/22 17:19:39","新北市新莊區幸福路777號","121.446798333333","25.0490883333333","6500500","新莊區"
"242048","751-BX","2017/07/22 17:19:44","新北市新莊區龍安路253號","121.419663333333","25.0200466666667","6500500","新莊區"
"242025","615-BX","2017/07/22 17:19:34","新北市新莊區中港一街161號","121.447288333333","25.0449883333333","6500500","新莊區"
"242023","613-BX","2017/07/22 17:19:34","新北市新莊區中平路111號","121.444686666667","25.0464033333333","6500500","新莊區"
"242027","612-BX","2017/07/22 17:19:28","新北市新莊區中港一街161號","121.447361666667","25.0450183333333","6500500","新莊區"
"242036","566-BX","2017/07/22 17:19:43","新北市新莊區新樹路223號","121.435395","25.0230466666667","6500500","新莊區"
"242042","497-BY","2017/07/22 17:19:37","新北市新莊區新樹路113巷17號","121.439001666667","25.02642","6500500","新莊區"
"242004","442-UM","2017/07/22 17:19:35","新北市新莊區中港一街141號","121.44796","25.04504","6500500","新莊區"
"242046","441-UM","2017/07/22 17:19:40","新北市新莊區新樹路67巷32號","121.440405","25.03023","6500500","新莊區"
"242051","440-UM","2017/07/22 17:19:42","新北市新莊區瓊林南路59-8號","121.43545","25.016375","6500500","新莊區"
"242031","415-TV","2017/07/22 17:19:38","新北市新莊區新泰路417-2號","121.443176666667","25.0447116666667","6500500","新莊區"
"242002","413-TV","2017/07/22 17:19:42","新北市新莊區瓊林路46-12號","121.446685","25.0289616666667","6500500","新莊區"
"242039","400-BY","2017/07/22 17:19:32","新北市新莊區新樹路138-1號","121.435578333333","25.023455","6500500","新莊區"
"242061","362-BY","2017/07/22 17:19:29","新北市新莊區三和路12-18號","121.44169","25.0376666666667","6500500","新莊區"
"242058","353-BY","2017/07/22 17:19:44","新北市新莊區新泰路415-1號","121.442276666667","25.0444416666667","6500500","新莊區"
"242011","132-UY","2017/07/22 17:19:40","新北市新莊區中和街108巷1號","121.447593333333","25.0469333333333","6500500","新莊區"
"242034","133-UY","2017/07/22 17:19:31","新北市新莊區瓊林路46-4號","121.44729","25.02938","6500500","新莊區"
"242019","135-UY","2017/07/22 17:19:41","新北市新莊區中港路284號","121.453061666667","25.0441966666667","6500500","新莊區"
"242044","172-VK","2017/07/22 17:19:41","新北市新莊區福營路377號","121.423318333333","25.0274966666667","6500500","新莊區"
"242007","173-VK","2017/07/22 00:30:56","新北市新莊區三和路12-21號","121.442088333333","25.0387116666667","6500500","新莊區"
"242013","175-VK","2017/07/22 17:19:40","新北市新莊區新泰路502巷16號","121.442888333333","25.0464333333333","6500500","新莊區"
"242056","176-VK","2017/07/22 17:19:41","新北市新莊區新莊路763巷4號","121.442421666667","25.032415","6500500","新莊區"
"242017","348-TH","2017/07/22 17:19:36","新北市新莊區中港路292號","121.452871666667","25.0446983333333","6500500","新莊區"
"242015","350-TH","2017/07/22 17:19:40","新北市新莊區建中街150號","121.444868333333","25.0365016666667","6500500","新莊區"
"242009","351-TH","2017/07/22 17:19:44","新北市新莊區中平路441號","121.44411","25.0556066666667","6500500","新莊區"
"238015","755-BX","2017/07/22 17:19:39","新北市樹林區東和街7號","121.404186666667","24.9791966666667","6500700","樹林區"
"238023","601-UM","2017/07/22 17:19:31","新北市樹林區中正路433號","121.415055","25.0085083333333","6500700","樹林區"
"238019","599-UM","2017/07/22 17:19:41","新北市樹林區八德街279號","121.422675","24.97846","6500700","樹林區"
"238018","571-TV","2017/07/22 17:19:43","新北市樹林區中華路1-6號","121.425655","24.9844366666667","6500700","樹林區"
"238024","5061-A6","2017/07/22 17:19:42","新北市樹林區博愛一街29巷64號","121.425965","24.9916366666667","6500700","樹林區"
"238022","312-TH","2017/07/22 17:19:44","新北市樹林區忠孝街31號","121.423731666667","24.9822016666667","6500700","樹林區"
"238021","311-TH","2017/07/22 01:03:14","新北市樹林區中山路三段204號","121.386758333333","24.9681516666667","6500700","樹林區"
"238025","303-VK","2017/07/22 17:19:47","新北市樹林區中山路二段34號","121.417295","24.984945","6500700","樹林區"
"238017","283-BY","2017/07/22 17:19:43","新北市樹林區中華路190-6號","121.410165","24.9805616666667","6500700","樹林區"
"238014","282-BY","2017/07/22 17:19:23","新北市樹林區大安路349號","121.416475","24.9905583333333","6500700","樹林區"
"238020","268-VK","2017/07/22 17:19:37","新北市樹林區大安路220號","121.418726666667","24.9934016666667","6500700","樹林區"
"238026","172-UY","2017/07/22 17:19:42","新北市樹林區東順街90巷2-1號","121.408353333333","24.9758666666667","6500700","樹林區"
"238016","169-UY","2017/07/22 17:19:35","新北市樹林區中華路190-6號","121.41013","24.980505","6500700","樹林區"
"239007","AAC-297","2017/07/22 17:19:46","新北市鶯歌區建國路148號","121.35111","24.9543333333333","6500800","鶯歌區"
"239006","891-R6","2017/07/22 17:19:37","新北市鶯歌區福昌街27號","121.332728333333","24.96095","6500800","鶯歌區"
"239008","527-UM","2017/07/22 17:19:31","新北市鶯歌區西湖街279巷23號","121.340961666667","24.9677716666667","6500800","鶯歌區"
"239005","526-UM","2017/07/22 17:19:33","新北市鶯歌區福德三街24號","121.329328333333","24.967345","6500800","鶯歌區"
"239001","417-VK","2017/07/22 17:19:45","新北市鶯歌區黃厝街31巷39-1號","121.342718333333","24.9454233333333","6500800","鶯歌區"
"239003","360-BY","2017/07/22 17:19:44","新北市鶯歌區德昌街50號","121.333108333333","24.9598483333333","6500800","鶯歌區"
"239002","359-BY","2017/07/22 17:19:35","新北市鶯歌區南雅路37號","121.348848333333","24.9541216666667","6500800","鶯歌區"
"239004","193-VK","2017/07/22 17:19:33","新北市鶯歌區文化路417-17號","121.353741666667","24.94935","6500800","鶯歌區"
