"lineid","car","time","location","longitude","latitude","cityid","cityname"
"234026","9371-KE","2017/07/22 17:49:39","新北市永和區永平路166號","121.510815","25.0089016666667","6500400","永和區"
"249005","172-UM","2017/07/22 17:38:00","新北市八里區荖阡坑路28-5號","121.402901666667","25.1297483333333","6502300","八里區"
"249004","303-UY","2017/07/22 17:49:26","新北市八里區中華路一段88號","121.420678333333","25.1576166666667","6502300","八里區"
"249002","305-UY","2017/07/22 17:49:41","新北市八里區龍形五街37巷6號","121.448783333333","25.13272","6502300","八里區"
"249003","593-UM","2017/07/22 17:42:29","新北市八里區中山路二段171號","121.404976666667","25.15062","6502300","八里區"
"249001","759-BX","2017/07/22 17:49:38","新北市八里區龍米路二段121-1號","121.446898333333","25.14381","6502300","八里區"
"248006","077-UY","2017/07/22 17:49:46","新北市五股區中興路二段83巷26-6號","121.460011666667","25.0749283333333","6501500","五股區"
"248008","095-VK","2017/07/22 17:49:36","新北市五股區中興路二段83巷26-6號","121.460141666667","25.0751833333333","6501500","五股區"
"232011","375-UM","2017/07/22 17:49:40","新北市坪林區北宜路八段211號","121.708521666667","24.9348033333333","6502000","坪林區"
"244013","069-UM","2017/07/22 17:49:36","新北市林口區中正路505巷5號","121.38337","25.0772366666667","6501700","林口區"
"244007","080-UY","2017/07/22 17:49:28","新北市林口區林口路126號","121.388328333333","25.0816316666667","6501700","林口區"
"244019","403-UM","2017/07/22 17:49:42","新北市林口區文化一路一段89-5號","121.371933333333","25.0703333333333","6501700","林口區"
"244009","410-SL","2017/07/22 17:49:26","新北市林口區中北三街57號","121.38476","25.0856483333333","6501700","林口區"
"244023","483-VK","2017/07/22 17:49:45","新北市林口區興林路318巷13號","121.3882","25.0704533333333","6501700","林口區"
"244017","485-VK","2017/07/22 17:49:28","新北市林口區忠孝路377號","121.36936","25.071505","6501700","林口區"
"244025","656-BX","2017/07/22 17:49:37","新北市林口區忠孝三路42號","121.360145","25.0700166666667","6501700","林口區"
"244011","701-TV","2017/07/22 17:49:32","新北市林口區竹林路35號","121.386605","25.07772","6501700","林口區"
"244021","838-TS","2017/07/22 17:49:37","新北市林口區仁愛路一段145號","121.398611666667","25.0716866666667","6501700","林口區"
"222003","436-BY","2017/07/22 17:49:38","新北市深坑區阿柔洋60-1號","121.60866","24.9984983333333","6501800","深坑區"
"222001","628-TS","2017/07/22 17:49:44","新北市深坑區北深路二段140號","121.615651666667","25.0027766666667","6501800","深坑區"
"222002","659-BX","2017/07/22 17:49:33","新北市深坑區平埔街22巷17弄1號","121.614865","25.0008466666667","6501800","深坑區"
"231046","278-BY","2017/07/22 17:49:39","新北市新店區下石厝路21號","121.532416666667","24.92745","6500600","新店區"
"241024","065-VK","2017/07/22 17:49:41","新北市三重區車路頭街62巷35號","121.483293333333","25.0725166666667","6500200","三重區"
"241003","091-VK","2017/07/22 17:49:29","新北市三重區溪尾街267號","121.487656666667","25.0819616666667","6500200","三重區"
"241016","266-UM","2017/07/22 17:49:45","新北市三重區重新路二段97號","121.495858333333","25.061625","6500200","三重區"
"241007","398-BY","2017/07/22 17:49:41","新北市五股區中興路三段2巷10號","121.448405","25.0834033333333","6500200","三重區"
"241012","941-UM","2017/07/22 17:49:24","新北市三重區龍濱路287號","121.500911666667","25.0737433333333","6500200","三重區"
"241033","AAC-255","2017/07/22 17:49:35","新北市三重區重新路五段539號","121.470858333333","25.046125","6500200","三重區"
"235061","378-QA","2017/07/22 15:21:28","新北市中和區員山路36巷13號","121.484343333333","24.9911316666667","6500300","中和區"
"235026","800-TS","2017/07/22 17:49:36","新北市中和區員山路36巷16-3號","121.48509","24.9912983333333","6500300","中和區"
"247020","893-R6","2017/07/22 17:49:26","新北市蘆洲區民義街71巷14號","121.472796666667","25.09051","6501400","蘆洲區"
"247010","546-UM","2017/07/22 17:49:45","新北市蘆洲區信義路204號","121.479085","25.0848033333333","6501400","蘆洲區"
"247018","500-BY","2017/07/22 17:49:35","新北市蘆洲區復興路227巷2弄23號","121.481303333333","25.0904966666667","6501400","蘆洲區"
"247001","402-BY","2017/07/22 16:10:54","新北市五股區中興路三段3-6號","121.44957","25.078835","6501400","蘆洲區"
"247006","341-TH","2017/07/22 17:49:44","新北市蘆洲區九芎街189號","121.464593333333","25.07845","6501400","蘆洲區"
"247008","339-TH","2017/07/22 17:49:31","新北市蘆洲區信義路37巷11號","121.474185","25.0800233333333","6501400","蘆洲區"
"247024","337-TH","2017/07/22 17:49:41","新北市蘆洲區光榮路46號","121.461076666667","25.08824","6501400","蘆洲區"
"247002","336-TH","2017/07/22 17:49:32","新北市蘆洲區永平街32巷45弄24號","121.458685","25.0928633333333","6501400","蘆洲區"
"247014","057-VK","2017/07/22 17:49:32","新北市五股區新五路二段372巷20號","121.448035","25.0849516666667","6501400","蘆洲區"
"247012","007-UY","2017/07/22 17:49:41","新北市蘆洲區民族路171號","121.479205","25.0883766666667","6501400","蘆洲區"
"247022","002-UY","2017/07/22 17:49:43","新北市蘆洲區中正路306號","121.464753333333","25.0906883333333","6501400","蘆洲區"
"247016","001-UY","2017/07/22 17:49:37","新北市蘆洲區中正路185巷44號","121.467338333333","25.0849433333333","6501400","蘆洲區"
"226004","312-R5","2017/07/22 17:49:30","新北市平溪區石底里公園街18-3號","121.733336666667","25.0257433333333","6502400","平溪區"
"228003","097-TW","2017/07/22 17:49:41","新北市貢寮區真理里延平街72-5號","121.925203333333","25.0580466666667","6502600","貢寮區"
"228001","212-TW","2017/07/22 17:49:42","新北市貢寮區仁理村仁愛路95-1號","121.927703333333","25.0555133333333","6502600","貢寮區"
"228002","585-TW","2017/07/22 17:49:39","新北市貢寮區福隆里龜壽谷街11-1號","121.953925","25.00703","6502600","貢寮區"
"224006","676-BX","2017/07/22 17:49:17","新北市瑞芳區傑魚坑路356號","121.790578333333","25.1099233333333","6501200","瑞芳區"
"224002","639-TC","2017/07/22 17:49:38","新北市瑞芳區明燈路二段46號","121.809548333333","25.1081116666667","6501200","瑞芳區"
"224009","285-BY","2017/07/22 17:49:40","新北市瑞芳區新山路189號","121.851236666667","25.1090133333333","6501200","瑞芳區"
"224008","275-VK","2017/07/22 17:49:43","新北市瑞芳區明燈路一段118號","121.81865","25.1089166666667","6501200","瑞芳區"
"224005","271-BY","2017/07/22 17:49:36","新北市瑞芳區海濱路29號","121.830913333333","25.1242116666667","6501200","瑞芳區"
"253006","032-BX","2017/07/22 17:49:42","新北市石門區中央路3-1號","121.565886666667","25.291435","6502200","石門區"
"208004","AAC-292","2017/07/22 17:49:47","新北市萬里區龜吼里美崙路53-1號","121.687496666667","25.1834183333333","6502700","金山區"
"208003","665-BX","2017/07/22 17:49:39","新北市金山區磺清路135號","121.639441666667","25.2277833333333","6502700","金山區"
"208001","761-BX","2017/07/22 17:49:43","新北市金山區磺清路135號","121.639328333333","25.2276866666667","6502700","金山區"
"251009","008-UM","2017/07/22 17:32:44","新北市淡水區重建街1巷7號","121.439763333333","25.1736866666667","6501000","淡水區"
"251004","009-UM","2017/07/22 17:49:40","新北市淡水區民權一街17巷15號","121.45935","25.1366383333333","6501000","淡水區"
"251005","010-UM","2017/07/22 17:49:36","新北市淡水區學府路96號","121.449291666667","25.1711483333333","6501000","淡水區"
"251002","012-UM","2017/07/22 17:49:46","新北市淡水區中山路56號","121.44397","25.17043","6501000","淡水區"
"251014","180-VK","2017/07/22 17:49:37","新北市淡水區公埔子16-6號","121.481016666667","25.22457","6501000","淡水區"
"251008","181-VK","2017/07/22 17:49:31","新北市淡水區八勢路一段155號","121.467716666667","25.15653","6501000","淡水區"
"251010","413-VK","2017/07/22 17:49:33","新北市淡水區中正路二段53號","121.418225","25.1848066666667","6501000","淡水區"
"251012","441-VK","2017/07/22 17:49:28","新北市淡水區北投子46號","121.463236666667","25.1820316666667","6501000","淡水區"
"251016","442-VK","2017/07/22 17:49:37","新北市淡水區埤島39-15號","121.452783333333","25.195865","6501000","淡水區"
"251001","559-UM","2017/07/22 17:49:41","新北市淡水區民權路92巷35-1號","121.46219","25.1266766666667","6501000","淡水區"
"251006","561-UM","2017/07/22 17:49:33","新北市淡水區新生街51巷51號","121.441431666667","25.17623","6501000","淡水區"
"251011","650-BX","2017/07/22 17:48:48","新北市淡水區吳(仔)厝70號","121.479595","25.1496616666667","6501000","淡水區"
"251003","673-BX","2017/07/22 17:49:31","新北市淡水區大忠街13號","121.443498333333","25.175925","6501000","淡水區"
"207003","550-UM","2017/07/22 17:49:27","新北市萬里區野柳里東澳路55號","121.692018333333","25.203275","6502800","萬里區"
"207004","225-TW","2017/07/22 17:49:38","新北市萬里區萬里里瑪鋉頂街61號","121.688361666667","25.18046","6502800","萬里區"
"252002","178-VK","2017/07/22 17:49:38","新北市三芝區智成街35號","121.503963333333","25.2564616666667","6502100","三芝區"
"252001","292-VK","2017/07/22 17:49:30","新北市三芝區淡金路一段59號","121.500245","25.259015","6502100","三芝區"
"252007","AAC-283","2017/07/22 10:47:43","新北市三芝區埔坪里埔頭坑41號","121.504508333333","25.2644216666667","6502100","三芝區"
"237009","210-TH","2017/07/22 17:49:36","新北市三峽區大勇路15號","121.367251666667","24.93679","6500900","三峽區"
"237013","252-BX","2017/07/22 17:49:30","新北市三峽區安溪路309巷7號","121.373461666667","24.9333983333333","6500900","三峽區"
"237008","302-VK","2017/07/22 17:49:31","新北市三峽區中園街237-1號","121.366851666667","24.9194883333333","6500900","三峽區"
"237014","433-BY","2017/07/22 17:49:42","新北市三峽區文化路120巷21號","121.371028333333","24.9367433333333","6500900","三峽區"
"237006","5529-G3","2017/07/22 17:49:35","新北市三峽區介壽路二段136巷106弄3號","121.392186666667","24.93316","6500900","三峽區"
"237011","572-TV","2017/07/22 16:58:02","新北市三峽區中山路459巷163-3號","121.34876","24.9329783333333","6500900","三峽區"
"237016","649-BX","2017/07/22 17:49:39","新北市三峽區白雞64-5號","121.385346666667","24.9127016666667","6500900","三峽區"
"237010","706-TV","2017/07/22 17:49:34","新北市三峽區文化路185號","121.366845","24.9357616666667","6500900","三峽區"
"237005","AKY-6261","2017/07/22 17:49:35","新北市三峽區中山路130號","121.365368333333","24.9360583333333","6500900","三峽區"
"236073","105-UM","2017/07/22 17:49:36","新北市土城區明德路一段375-3號","121.454443333333","24.9783783333333","6501300","土城區"
"236043","107-UM","2017/07/22 17:49:29","新北市土城區中央路一段264-2號","121.443731666667","24.9837683333333","6501300","土城區"
"236079","166-UM","2017/07/22 17:49:35","新北市土城區中央路三段191號","121.43085","24.9649116666667","6501300","土城區"
"236031","253-BX","2017/07/22 17:49:31","新北市土城區城林路6巷80號","121.438511666667","24.9797383333333","6501300","土城區"
"236027","269-VK","2017/07/22 17:49:30","新北市土城區中華路二段196號","121.437538333333","24.9707883333333","6501300","土城區"
"236015","270-VK","2017/07/22 17:49:35","新北市土城區城林路6巷80號","121.438501666667","24.9797916666667","6501300","土城區"
"236038","271-VK","2017/07/22 17:49:34","新北市土城區城林路6巷80號","121.438515","24.9797733333333","6501300","土城區"
"236002","339-SR","2017/07/22 10:24:34","新北市土城區永平街51號","121.42768","24.959185","6501300","土城區"
"236023","401-BY","2017/07/22 17:49:34","新北市土城區城林路6巷80號","121.438671666667","24.9796683333333","6501300","土城區"
"236059","912-UM","2017/07/22 17:49:42","新北市土城區城林路6巷80號","121.438465","24.97955","6501300","土城區"
"236049","913-UM","2017/07/22 17:49:30","新北市土城區城林路6巷80號","121.438555","24.9795783333333","6501300","土城區"
"236063","915-UM","2017/07/22 17:49:39","新北市土城區城林路6巷80號","121.438486666667","24.9797666666667","6501300","土城區"
"236055","AAC-216","2017/07/22 17:49:45","新北市土城區城林路6巷80號","121.438535","24.9795866666667","6501300","土城區"
"242021","AAC-296","2017/07/22 17:49:42","新北市新莊區中港路137號","121.455213333333","25.0405066666667","6500500","新莊區"
"242029","986-R7","2017/07/22 17:49:39","新北市新莊區復興路一段63號","121.447633333333","25.04242","6500500","新莊區"
"242048","751-BX","2017/07/22 17:49:44","新北市新莊區萬安街102巷1號","121.4201","25.02246","6500500","新莊區"
"242025","615-BX","2017/07/22 17:49:34","新北市新莊區新北大道二段290號","121.465211666667","25.0614966666667","6500500","新莊區"
"242023","613-BX","2017/07/22 17:49:34","新北市新莊區福樂街40號","121.457813333333","25.04568","6500500","新莊區"
"242027","612-BX","2017/07/22 17:49:28","新北市新莊區福壽街165號","121.458015","25.0535433333333","6500500","新莊區"
"242036","566-BX","2017/07/22 17:49:43","新北市新莊區建福路67號","121.426816666667","25.0269833333333","6500500","新莊區"
"242042","497-BY","2017/07/22 17:49:37","新北市新莊區中正路612-1號","121.42617","25.0302383333333","6500500","新莊區"
"242004","442-UM","2017/07/22 17:49:35","新北市新莊區自立街259號","121.459151666667","25.0456033333333","6500500","新莊區"
"242046","441-UM","2017/07/22 17:49:41","新北市新莊區建國一路52號","121.434138333333","25.0309466666667","6500500","新莊區"
"242051","440-UM","2017/07/22 17:49:42","新北市新莊區西盛街311巷8號","121.428615","25.0152166666667","6500500","新莊區"
"242031","415-TV","2017/07/22 17:49:38","新北市新莊區新泰路347巷3號","121.444078333333","25.04209","6500500","新莊區"
"242002","413-TV","2017/07/22 17:49:42","新北市新莊區景德路83號","121.452491666667","25.0349433333333","6500500","新莊區"
"242039","400-BY","2017/07/22 17:49:32","新北市新莊區民安路119號","121.424863333333","25.0246","6500500","新莊區"
"242061","362-BY","2017/07/22 17:49:29","新北市新莊區新樹路254-1號","121.432846666667","25.0162633333333","6500500","新莊區"
"242058","353-BY","2017/07/22 17:49:44","新北市新莊區新北大道七段441號","121.414053333333","25.02355","6500500","新莊區"
"242011","132-UY","2017/07/22 17:49:48","新北市新莊區中港路746號","121.450366666667","25.0584483333333","6500500","新莊區"
"242034","133-UY","2017/07/22 17:49:31","新北市新莊區新莊路662號","121.442396666667","25.03269","6500500","新莊區"
"242019","135-UY","2017/07/22 17:49:41","新北市新莊區復興路二段20-2號","121.454221666667","25.0439766666667","6500500","新莊區"
"242044","172-VK","2017/07/22 17:49:41","新北市新莊區中正路857號","121.419606666667","25.0278466666667","6500500","新莊區"
"242007","173-VK","2017/07/22 17:49:49","新北市新莊區福壽街59巷9號","121.457628333333","25.04901","6500500","新莊區"
"242013","175-VK","2017/07/22 17:49:40","新北市新莊區中誠街164號","121.448165","25.047455","6500500","新莊區"
"242056","176-VK","2017/07/22 17:49:42","新北市新莊區瓊林路40巷34號","121.446533333333","25.0301983333333","6500500","新莊區"
"242017","348-TH","2017/07/22 17:49:36","新北市新莊區永安街92號","121.45056","25.0446166666667","6500500","新莊區"
"242053","349-TH","2017/07/22 17:49:41","新北市新莊區民安西路470-1號","121.43174","25.0078666666667","6500500","新莊區"
"242015","350-TH","2017/07/22 17:49:40","新北市新莊區新泰路502巷20號","121.44308","25.0464816666667","6500500","新莊區"
"242009","351-TH","2017/07/22 17:49:44","新北市新莊區昌平街59巷12號","121.454343333333","25.0531866666667","6500500","新莊區"
"238015","755-BX","2017/07/22 17:49:39","新北市樹林區長壽街25巷20號","121.420168333333","24.9945416666667","6500700","樹林區"
"238023","601-UM","2017/07/22 17:49:34","新北市樹林區福興街5號","121.404508333333","25.0170433333333","6500700","樹林區"
"238019","599-UM","2017/07/22 17:49:41","新北市樹林區太平路106號","121.418623333333","24.978905","6500700","樹林區"
"238018","571-TV","2017/07/22 17:49:43","新北市樹林區鎮前街10號","121.426256666667","24.993345","6500700","樹林區"
"238022","312-TH","2017/07/22 17:49:44","新北市樹林區太元街42號","121.418258333333","24.9798416666667","6500700","樹林區"
"238021","311-TH","2017/07/22 01:03:14","新北市樹林區中山路三段204號","121.386758333333","24.9681516666667","6500700","樹林區"
"238025","303-VK","2017/07/22 17:49:46","新北市樹林區三俊街70號","121.413201666667","25.0156666666667","6500700","樹林區"
"238017","283-BY","2017/07/22 17:49:44","新北市樹林區三德街1號","121.41269","25.012805","6500700","樹林區"
"238014","282-BY","2017/07/22 17:49:43","新北市樹林區保安街一段356號","121.41799","24.9984683333333","6500700","樹林區"
"238020","268-VK","2017/07/22 17:49:37","新北市樹林區三俊街261號","121.42252","25.014285","6500700","樹林區"
"238026","172-UY","2017/07/22 17:49:42","新北市樹林區新興街17號","121.400093333333","24.972725","6500700","樹林區"
"238016","169-UY","2017/07/22 17:49:35","新北市樹林區文化街56號","121.417976666667","24.98863","6500700","樹林區"
"239007","AAC-297","2017/07/22 17:49:26","新北市鶯歌區鶯桃路94巷59弄13號","121.341393333333","24.9552083333333","6500800","鶯歌區"
"239006","891-R6","2017/07/22 17:49:37","新北市鶯歌區鶯桃路413巷78弄8-1號","121.329653333333","24.963335","6500800","鶯歌區"
"239008","527-UM","2017/07/22 17:49:31","新北市鶯歌區香賓街7巷17號","121.336111666667","24.9793033333333","6500800","鶯歌區"
"239005","526-UM","2017/07/22 17:49:33","新北市鶯歌區鳳吉五街17號","121.326935","24.9725283333333","6500800","鶯歌區"
"239001","417-VK","2017/07/22 17:49:45","新北市鶯歌區中正三路460-1號","121.32113","24.9341116666667","6500800","鶯歌區"
"239003","360-BY","2017/07/22 17:49:44","新北市鶯歌區永吉街35-1號","121.335771666667","24.9574466666667","6500800","鶯歌區"
"239002","359-BY","2017/07/22 17:49:35","新北市鶯歌區光明街94號","121.346391666667","24.9558583333333","6500800","鶯歌區"
"239004","193-VK","2017/07/22 17:49:33","新北市鶯歌區文化路324巷1-37號","121.352275","24.945855","6500800","鶯歌區"
"221008","489-VK","2017/07/22 17:49:36","新北市汐止區康寧街901號","121.651425","25.0750966666667","6501100","汐止區"
"221036","130-UY","2017/07/22 17:49:38","新北市汐止區長江街75號","121.6572","25.0721266666667","6501100","汐止區"
"221015","131-UY","2017/07/22 17:49:32","新北市汐止區長江街249-1號","121.662868333333","25.0793583333333","6501100","汐止區"
"221010","269-BY","2017/07/22 17:49:43","新北市汐止區汐萬路二段63號","121.649165","25.0824316666667","6501100","汐止區"
"221031","277-VK","2017/07/22 17:49:30","新北市汐止區樟樹二路276號","121.640933333333","25.0683033333333","6501100","汐止區"
"221012","278-VK","2017/07/22 15:01:16","新北市汐止區汐萬路一段256巷1號","121.651816666667","25.074635","6501100","汐止區"
"221023","279-VK","2017/07/22 02:03:33","新北市汐止區汐萬路一段256巷1號","121.651926666667","25.0750583333333","6501100","汐止區"
"221032","280-BY","2017/07/22 17:49:40","新北市汐止區民權街一段16號","121.62125","25.053305","6501100","汐止區"
"221027","281-BY","2017/07/22 17:49:40","新北市汐止區康寧街901號","121.651253333333","25.0750716666667","6501100","汐止區"
"221038","297-VK","2017/07/22 17:49:31","新北市汐止區汐萬路一段312號","121.650433333333","25.075295","6501100","汐止區"
"221021","299-VK","2017/07/22 17:42:52","新北市汐止區汐萬路一段312號","121.650671666667","25.07526","6501100","汐止區"
"221035","622-UM","2017/07/22 17:49:41","新北市汐止區汐萬路一段211巷13號","121.651648333333","25.0718966666667","6501100","汐止區"
"221025","623-UM","2017/07/22 17:49:43","新北市汐止區新台五路一段262號","121.658496666667","25.0642183333333","6501100","汐止區"
"221033","647-BX","2017/07/22 17:49:39","新北市汐止區橫科路73巷20弄8號","121.619733333333","25.0515533333333","6501100","汐止區"
"221018","753-BX","2017/07/22 17:49:27","新北市汐止區忠孝東路382巷3弄1號","121.665756666667","25.0697833333333","6501100","汐止區"
