"lineid","car","time","location","longitude","latitude","cityid","cityname"
"234026","9371-KE","2017/07/22 18:19:39","新北市永和區豫溪街28巷9號","121.515215","25.009415","6500400","永和區"
"249005","172-UM","2017/07/22 17:38:00","新北市八里區荖阡坑路28-5號","121.402901666667","25.1297483333333","6502300","八里區"
"249004","303-UY","2017/07/22 18:19:46","新北市八里區龍米路二段206巷7號","121.43282","25.159355","6502300","八里區"
"249002","305-UY","2017/07/22 18:19:41","新北市八里區龍形二街52號","121.450178333333","25.132995","6502300","八里區"
"249001","759-BX","2017/07/22 18:19:44","新北市八里區龍米路一段103號","121.452971666667","25.12515","6502300","八里區"
"248016","026-BX","2017/07/22 18:19:37","新北市五股區成泰路三段477巷18號","121.449885","25.098995","6501500","五股區"
"248006","077-UY","2017/07/22 18:19:26","新北市五股區中興路一段142-2號","121.464791666667","25.073805","6501500","五股區"
"248008","095-VK","2017/07/22 18:19:36","新北市五股區更洲路32巷8弄17號","121.459275","25.0796183333333","6501500","五股區"
"248020","225-UY","2017/07/22 18:19:30","新北市五股區孝義路47巷23號","121.45039","25.1093316666667","6501500","五股區"
"248012","247-BX","2017/07/21 21:13:44","新北市五股區中興路二段103巷14號","121.458036666667","25.076665","6501500","五股區"
"248014","261-SL","2017/07/22 18:19:36","新北市五股區自強路19巷11號","121.43463","25.07367","6501500","五股區"
"248004","677-BX","2017/07/22 18:19:38","新北市五股區成泰路二段131號","121.438835","25.084965","6501500","五股區"
"248002","678-BX","2017/07/22 18:19:27","新北市五股區西雲路66號","121.443675","25.09158","6501500","五股區"
"248010","682-TV","2017/07/22 18:19:32","新北市五股區成泰路一段126號","121.435255","25.0743633333333","6501500","五股區"
"232011","375-UM","2017/07/22 18:14:56","新北市坪林區坪雙路一段43號","121.711763333333","24.9424716666667","6502000","坪林區"
"244013","069-UM","2017/07/22 18:19:36","新北市林口區林口路39號","121.390196666667","25.0788483333333","6501700","林口區"
"244007","080-UY","2017/07/22 18:19:47","新北市林口區湖子36-1號","121.386178333333","25.0942333333333","6501700","林口區"
"244019","403-UM","2017/07/22 18:19:42","新北市林口區麗園路54號","121.373723333333","25.069565","6501700","林口區"
"244009","410-SL","2017/07/22 18:19:47","新北市林口區中山路416號","121.380633333333","25.082135","6501700","林口區"
"244023","483-VK","2017/07/22 18:19:25","新北市林口區東湖路117巷2號","121.383063333333","25.072915","6501700","林口區"
"244017","485-VK","2017/07/22 18:19:28","新北市林口區八德路48巷76號","121.367263333333","25.067415","6501700","林口區"
"244025","656-BX","2017/07/22 18:19:37","新北市林口區南勢二街68號","121.355925","25.0696083333333","6501700","林口區"
"244011","701-TV","2017/07/22 18:19:41","新北市林口區新生街6號","121.394286666667","25.0769533333333","6501700","林口區"
"244021","838-TS","2017/07/22 18:19:37","新北市林口區自強一街30號","121.398715","25.0778516666667","6501700","林口區"
"243013","AAD-798","2017/07/22 18:19:39","新北市泰山區南林路93號","121.415535","25.0511266666667","6501600","泰山區"
"222003","436-BY","2017/07/22 18:19:38","新北市深坑區文山路一段64號","121.623555","25.00054","6501800","深坑區"
"222001","628-TS","2017/07/22 18:19:44","新北市深坑區北深路二段51號","121.61897","25.0040633333333","6501800","深坑區"
"222002","659-BX","2017/07/22 18:19:33","新北市深坑區雲鄉路1號","121.620998333333","25.000115","6501800","深坑區"
"231041","002-UM","2017/07/22 18:19:44","新北市新店區安華路28-1號","121.519528333333","24.9609183333333","6500600","新店區"
"231056","0293-UT","2017/07/22 18:19:36","新北市新店區環河路29巷1號","121.536215","24.961155","6500600","新店區"
"231060","106-UY","2017/07/22 18:19:29","新北市新店區安華路28-1號","121.519558333333","24.9608066666667","6500600","新店區"
"231051","107-UY","2017/07/22 18:19:39","新北市新店區安華路28-1號","121.519461666667","24.9611633333333","6500600","新店區"
"231048","110-UY","2017/07/22 18:19:29","新北市新店區安康路一段355-3號","121.519273333333","24.9614616666667","6500600","新店區"
"231052","187-VK","2017/07/22 18:19:43","新北市新店區秀山路43號","121.531525","24.96082","6500600","新店區"
"231057","256-BX","2017/07/22 18:19:35","新北市新店區安華路28-1號","121.519651666667","24.96109","6500600","新店區"
"231063","268-BY","2017/07/22 18:19:33","新北市新店區安華路1-1號","121.519465","24.960425","6500600","新店區"
"231046","278-BY","2017/07/22 18:19:39","新北市新店區直潭七街60號","121.532246666667","24.93991","6500600","新店區"
"231050","AAD-862","2017/07/22 18:19:38","新北市新店區安華路28-1號","121.519658333333","24.961355","6500600","新店區"
"231058","3712-VJ","2017/07/22 18:19:43","新北市新店區環河路7號","121.538031666667","24.961245","6500600","新店區"
"231055","3713-VJ","2017/07/22 18:19:32","新北市新店區環河路29巷1-1號","121.536023333333","24.9610583333333","6500600","新店區"
"231067","4772-VM","2017/07/22 18:19:32","新北市新店區安華路28-1號","121.519315","24.9605866666667","6500600","新店區"
"231065","512-UM","2017/07/22 18:19:29","新北市新店區安華路28-1號","121.519393333333","24.9611066666667","6500600","新店區"
"231054","513-UM","2017/07/22 18:19:29","新北市新店區安華路28-1號","121.519573333333","24.96111","6500600","新店區"
"231064","515-UM","2017/07/22 18:19:25","新北市新店區安華路28-1號","121.519586666667","24.96117","6500600","新店區"
"231045","617-UM","2017/07/22 18:19:45","新北市新店區安華路28-1號","121.51942","24.9608266666667","6500600","新店區"
"231040","619-UM","2017/07/22 18:19:43","新北市新店區安華路28-1號","121.519441666667","24.96089","6500600","新店區"
"231042","641-BX","2017/07/22 18:19:36","新北市新店區安華路28-1號","121.519553333333","24.9605816666667","6500600","新店區"
"231049","719-UM","2017/07/22 18:19:36","新北市新店區安華路28-1號","121.519491666667","24.96118","6500600","新店區"
"231062","720-UM","2017/07/22 18:19:36","新北市新店區安華路28-1號","121.519406666667","24.961015","6500600","新店區"
"231043","899-TW","2017/07/22 18:19:36","新北市新店區安華路28-1號","121.519263333333","24.9608633333333","6500600","新店區"
"231066","AKT-0513","2017/07/22 18:19:40","新北市新店區安華路1-1號","121.519323333333","24.96043","6500600","新店區"
"241033","AAC-255","2017/07/22 18:19:28","新北市三重區光復路一段61巷23號","121.473518333333","25.0490366666667","6500200","三重區"
"235030","003-UY","2017/07/22 18:19:33","新北市中和區中山路二段120號","121.502813333333","25.003745","6500300","中和區"
"235056","096-UM","2017/07/22 18:19:35","新北市板橋區民生路一段26-1號","121.47729","25.0120433333333","6500300","中和區"
"235039","097-UM","2017/07/22 18:19:32","新北市中和區中正路250號","121.495693333333","24.9939716666667","6500300","中和區"
"235065","098-UM","2017/07/22 18:19:36","新北市中和區莊敬路49巷18號","121.501631666667","25.0061533333333","6500300","中和區"
"235005","150-BY","2017/07/22 18:19:31","新北市中和區中正路273號","121.495746666667","24.99383","6500300","中和區"
"235058","151-BY","2017/07/22 18:19:29","新北市中和區圓通路367巷50號","121.492288333333","24.9860733333333","6500300","中和區"
"235038","185-VK","2017/07/22 18:19:25","新北市中和區大智街57號","121.521193333333","24.9920383333333","6500300","中和區"
"235049","186-VK","2017/07/22 18:19:37","新北市中和區員山路36巷16-3號","121.48467","24.991255","6500300","中和區"
"235043","352-BY","2017/07/22 18:19:45","新北市中和區圓通路208號","121.496106666667","24.99394","6500300","中和區"
"235051","376-QA","2017/07/22 18:19:32","新北市中和區復興路260號","121.503461666667","24.990465","6500300","中和區"
"235068","377-QA","2017/07/22 18:19:41","新北市中和區員山路36巷16-3號","121.485201666667","24.9911533333333","6500300","中和區"
"235061","378-QA","2017/07/22 18:17:31","新北市中和區國光街215巷47號","121.467265","25.0003833333333","6500300","中和區"
"235050","4979-A6","2017/07/22 18:12:54","新北市中和區中正路250號","121.495648333333","24.993985","6500300","中和區"
"235069","4980-A6","2017/07/22 18:19:43","新北市中和區連城路137號","121.49577","24.99877","6500300","中和區"
"235042","551-UM","2017/07/22 18:19:30","新北市中和區大仁街20巷25弄39號","121.519485","24.9936766666667","6500300","中和區"
"235070","558-UM","2017/07/22 18:19:32","新北市中和區錦和路350-1號","121.490458333333","24.9936166666667","6500300","中和區"
"235045","565-BX","2017/07/22 18:19:46","新北市中和區景安路200巷1弄1號","121.503928333333","24.9913716666667","6500300","中和區"
"235054","640-BX","2017/07/22 18:19:45","新北市中和區莒光路185號","121.472686666667","24.9990083333333","6500300","中和區"
"235060","647-TV","2017/07/22 18:19:42","新北市中和區中正路637巷52弄1號","121.485418333333","24.9933533333333","6500300","中和區"
"235047","732-UM","2017/07/22 18:19:32","新北市中和區錦和路350-1號","121.490463333333","24.99355","6500300","中和區"
"235046","733-UM","2017/07/22 18:19:29","新北市中和區中正路637巷52弄1號","121.485403333333","24.993445","6500300","中和區"
"235026","800-TS","2017/07/22 18:19:36","新北市中和區景平路989巷6-3號","121.495388333333","25.005225","6500300","中和區"
"235057","801-TS","2017/07/22 18:19:31","新北市中和區中正路637巷52弄1號","121.485448333333","24.99358","6500300","中和區"
"235052","805-TS","2017/07/22 18:19:40","新北市中和區興南路一段164號","121.508006666667","24.9866666666667","6500300","中和區"
"235053","900-TW","2017/07/22 18:19:28","新北市中和區員山路36巷16-3號","121.484575","24.99111","6500300","中和區"
"235037","AAC-213","2017/07/22 18:19:30","新北市中和區景平路149號","121.513921666667","24.9920783333333","6500300","中和區"
"235059","AAC-215","2017/07/22 18:19:46","新北市中和區員山路36巷16-3號","121.485156666667","24.9912333333333","6500300","中和區"
"247001","402-BY","2017/07/22 16:10:54","新北市五股區中興路三段3-6號","121.44957","25.078835","6501400","蘆洲區"
"247006","341-TH","2017/07/22 18:19:30","新北市八里區中山路三段132號","121.385453333333","25.1452666666667","6501400","蘆洲區"
"247014","057-VK","2017/07/22 18:18:32","新北市八里區荖阡坑路34號","121.402156666667","25.1290133333333","6501400","蘆洲區"
"226004","312-R5","2017/07/22 18:19:30","新北市平溪區薯榔里薯榔寮31號","121.71037","25.0195216666667","6502400","平溪區"
"228003","097-TW","2017/07/22 18:19:41","新北市貢寮區真理里美艷山街61-3號","121.92306","25.06986","6502600","貢寮區"
"228001","212-TW","2017/07/22 18:19:42","新北市貢寮區真理里新港街26巷55弄2-1號","121.927363333333","25.05284","6502600","貢寮區"
"228002","585-TW","2017/07/22 18:19:39","新北市貢寮區福連里馬崗街1號","121.997038333333","25.0170816666667","6502600","貢寮區"
"224006","676-BX","2017/07/22 18:19:37","新北市瑞芳區民權街3-2號","121.80806","25.107335","6501200","瑞芳區"
"224002","639-TC","2017/07/22 18:19:41","新北市瑞芳區三爪子坑路105號","121.810885","25.1072516666667","6501200","瑞芳區"
"224011","420-VK","2017/07/22 18:19:27","新北市瑞芳區崙頂路1-6號","121.847146666667","25.104715","6501200","瑞芳區"
"224009","285-BY","2017/07/22 18:19:31","新北市瑞芳區金光路162號","121.855421666667","25.1065583333333","6501200","瑞芳區"
"224008","275-VK","2017/07/22 18:19:26","新北市瑞芳區逢甲路78-4號","121.810116666667","25.1085733333333","6501200","瑞芳區"
"224007","273-VK","2017/07/22 18:19:40","新北市瑞芳區大埔路49號","121.76466","25.102","6501200","瑞芳區"
"224005","271-BY","2017/07/22 18:19:36","新北市瑞芳區深澳路1號","121.81648","25.128535","6501200","瑞芳區"
"227010","642-TC","2017/07/22 18:19:33","新北市雙溪區牡丹里牡丹73號","121.851745","25.0593383333333","6502500","雙溪區"
"227002","400-TW","2017/07/22 18:19:27","新北市雙溪區共和里中山路2號","121.863841666667","25.0337433333333","6502500","雙溪區"
"253006","032-BX","2017/07/22 18:19:42","新北市石門區老梅路65號","121.545838333333","25.2892633333333","6502200","石門區"
"208004","AAC-292","2017/07/22 18:19:27","新北市汐止區國興街26巷37號","121.62502","25.04481","6502700","金山區"
"208003","665-BX","2017/07/22 18:19:39","新北市金山區民生路200號","121.645001666667","25.221895","6502700","金山區"
"208001","761-BX","2017/07/22 18:19:43","新北市金山區環金路19號","121.641043333333","25.217675","6502700","金山區"
"251004","009-UM","2017/07/22 18:19:40","新北市淡水區民族路136號","121.46292","25.1345083333333","6501000","淡水區"
"251005","010-UM","2017/07/22 18:19:36","新北市淡水區水源街一段122巷37號","121.447115","25.170415","6501000","淡水區"
"251002","012-UM","2017/07/22 18:19:38","新北市淡水區中正東路一段87-2號","121.452966666667","25.1618866666667","6501000","淡水區"
"251014","180-VK","2017/07/22 18:19:37","新北市淡水區崙頂16號","121.49174","25.2216316666667","6501000","淡水區"
"251008","181-VK","2017/07/22 18:19:31","新北市淡水區水源街二段231號","121.460663333333","25.1764233333333","6501000","淡水區"
"251010","413-VK","2017/07/22 18:19:33","新北市淡水區淡海路199號","121.420338333333","25.1847516666667","6501000","淡水區"
"251012","441-VK","2017/07/22 18:19:28","新北市淡水區北新路二段77-5號","121.480475","25.1856316666667","6501000","淡水區"
"251016","442-VK","2017/07/22 18:19:37","新北市淡水區淡金路三段228巷24號","121.449783333333","25.2049066666667","6501000","淡水區"
"251001","559-UM","2017/07/22 18:19:41","新北市淡水區自強路110-8號","121.461626666667","25.1313533333333","6501000","淡水區"
"251006","561-UM","2017/07/22 18:19:33","新北市淡水區新民街30號","121.439706666667","25.1761566666667","6501000","淡水區"
"251011","650-BX","2017/07/22 18:19:28","新北市淡水區坪頂路51巷2號","121.458105","25.1625616666667","6501000","淡水區"
"251003","673-BX","2017/07/22 18:19:31","新北市淡水區北新路180號","121.44946","25.1787083333333","6501000","淡水區"
"207003","550-UM","2017/07/22 18:19:47","新北市萬里區野柳里港東路62-1號","121.68764","25.2039","6502800","萬里區"
"207004","225-TW","2017/07/22 18:19:38","新北市萬里區中幅里中福路39-2號","121.676881666667","25.16585","6502800","萬里區"
"252002","178-VK","2017/07/22 18:19:38","新北市三芝區中山路二段43號","121.502991666667","25.2550733333333","6502100","三芝區"
"252003","249-BX","2017/07/22 18:19:46","新北市三芝區錫板里海尾11-7號","121.478468333333","25.2608033333333","6502100","三芝區"
"252001","292-VK","2017/07/22 18:19:30","新北市三芝區中興街二段2號","121.498368333333","25.2566516666667","6502100","三芝區"
"252007","AAC-283","2017/07/22 10:47:43","新北市三芝區埔坪里埔頭坑41號","121.504508333333","25.2644216666667","6502100","三芝區"
"208002","170-UY","2017/07/22 18:19:39","新北市金山區清泉里清水路60巷20號","121.63428","25.23414","6502700","金山區"
"237004","078-UY","2017/07/22 18:19:45","新北市三峽區大埔路393號","121.37229","24.8961883333333","6500900","三峽區"
"237007","153-BY","2017/07/22 18:19:38","新北市三峽區中正路三段24號","121.357905","24.9054666666667","6500900","三峽區"
"237009","210-TH","2017/07/22 18:19:36","新北市三峽區大勇路36巷23號","121.365606666667","24.9370366666667","6500900","三峽區"
"237013","252-BX","2017/07/22 18:19:42","新北市三峽區永安街3號","121.377991666667","24.9299433333333","6500900","三峽區"
"237012","275-BY","2017/07/22 18:19:41","新北市三峽區民生街1巷1-11號","121.377966666667","24.936465","6500900","三峽區"
"237008","302-VK","2017/07/22 18:19:31","新北市三峽區白雞68-319號","121.39168","24.909405","6500900","三峽區"
"237014","433-BY","2017/07/22 18:19:41","新北市三峽區復興路78號","121.373216666667","24.93733","6500900","三峽區"
"237006","5529-G3","2017/07/22 18:19:43","新北市三峽區溪東路240號","121.408283333333","24.93175","6500900","三峽區"
"237011","572-TV","2017/07/22 16:58:02","新北市三峽區中山路459巷163-3號","121.34876","24.9329783333333","6500900","三峽區"
"237016","649-BX","2017/07/22 18:19:39","新北市三峽區紫微南路11號","121.42547","24.9218733333333","6500900","三峽區"
"237010","706-TV","2017/07/22 18:19:34","新北市三峽區中山路129號","121.365275","24.935995","6500900","三峽區"
"237005","AKY-6261","2017/07/22 18:19:34","新北市三峽區長福街12號","121.370333333333","24.9336366666667","6500900","三峽區"
"236073","105-UM","2017/07/22 18:19:36","新北市土城區永豐路202巷1號","121.466641666667","24.9832766666667","6501300","土城區"
"236043","107-UM","2017/07/22 18:19:29","新北市土城區裕生路21巷6弄2-1號","121.448748333333","24.98699","6501300","土城區"
"236079","166-UM","2017/07/22 18:19:35","新北市土城區中央路三段235巷7號","121.429353333333","24.9638966666667","6501300","土城區"
"236031","253-BX","2017/07/22 18:19:45","新北市土城區順風路27號","121.440411666667","24.97687","6501300","土城區"
"236027","269-VK","2017/07/22 18:19:30","新北市土城區承天路18號","121.439463333333","24.9634583333333","6501300","土城區"
"236015","270-VK","2017/07/22 18:19:35","新北市土城區立清街69號","121.460313333333","24.987305","6501300","土城區"
"236038","271-VK","2017/07/22 18:19:34","新北市土城區青雲路521巷11號","121.459305","24.973265","6501300","土城區"
"236002","339-SR","2017/07/22 10:24:34","新北市土城區永平街51號","121.42768","24.959185","6501300","土城區"
"236023","401-BY","2017/07/22 18:19:34","新北市土城區明德路一段398號","121.453306666667","24.979325","6501300","土城區"
"236059","912-UM","2017/07/22 18:19:42","新北市土城區中央路四段322號","121.41369","24.9556166666667","6501300","土城區"
"236049","913-UM","2017/07/22 18:19:30","新北市土城區明德路一段288-1號","121.456906666667","24.9776233333333","6501300","土城區"
"236063","915-UM","2017/07/22 18:19:39","新北市土城區延壽路44巷14號","121.470978333333","24.9923883333333","6501300","土城區"
"236055","AAC-216","2017/07/22 18:19:45","新北市土城區中華路二段199號","121.438136666667","24.9742766666667","6501300","土城區"
"242021","AAC-296","2017/07/22 18:19:29","新北市新莊區新興街64號","121.450826666667","25.0377483333333","6500500","新莊區"
"242029","986-R7","2017/07/22 18:19:39","新北市新莊區幸福路858號","121.443835","25.0490566666667","6500500","新莊區"
"242025","615-BX","2017/07/22 18:19:34","新北市新莊區五工路95-1號","121.45749","25.06374","6500500","新莊區"
"242027","612-BX","2017/07/22 18:19:48","新北市泰山區磚雅厝6號","121.44206","25.04259","6500500","新莊區"
"242042","497-BY","2017/07/22 18:19:37","新北市新莊區天祥街71巷25號","121.4155","25.0284533333333","6500500","新莊區"
"242046","441-UM","2017/07/22 18:19:40","新北市新莊區福營路334號","121.421801666667","25.0265466666667","6500500","新莊區"
"242051","440-UM","2017/07/22 18:19:42","新北市新莊區民本街4號","121.427508333333","25.01988","6500500","新莊區"
"242031","415-TV","2017/07/22 18:19:38","新北市新莊區新泰路277巷43弄12號","121.443626666667","25.0398866666667","6500500","新莊區"
"242002","413-TV","2017/07/22 18:19:42","新北市新莊區思明街19號","121.455763333333","25.0350883333333","6500500","新莊區"
"242061","362-BY","2017/07/22 18:19:29","新北市新莊區民安路188巷28號","121.424331666667","25.0233583333333","6500500","新莊區"
"242058","353-BY","2017/07/22 18:19:44","新北市新莊區中正路895號","121.41234","25.0220533333333","6500500","新莊區"
"242011","132-UY","2017/07/22 18:19:40","新北市新莊區中榮街52號","121.449436666667","25.052815","6500500","新莊區"
"242034","133-UY","2017/07/22 18:19:31","新北市新莊區景德路212號","121.448906666667","25.0338166666667","6500500","新莊區"
"242044","172-VK","2017/07/22 18:19:41","新北市新莊區新北大道七段856號","121.413966666667","25.0234266666667","6500500","新莊區"
"242007","173-VK","2017/07/22 18:19:29","新北市新莊區自立街79巷6號","121.454478333333","25.04571","6500500","新莊區"
"242056","176-VK","2017/07/22 18:19:41","新北市新莊區豐年街53巷48號","121.447931666667","25.031825","6500500","新莊區"
"242053","349-TH","2017/07/22 18:19:28","新北市新莊區民安西路410巷7號","121.428346666667","25.00941","6500500","新莊區"
"242015","350-TH","2017/07/22 18:19:40","新北市新莊區中平路198巷25號","121.446345","25.0485116666667","6500500","新莊區"
"238015","755-BX","2017/07/22 18:19:39","新北市樹林區啟智街86巷15號","121.418125","24.9908633333333","6500700","樹林區"
"238023","601-UM","2017/07/22 18:19:31","新北市樹林區三福街85巷11號","121.407293333333","25.0154633333333","6500700","樹林區"
"238018","571-TV","2017/07/22 18:19:43","新北市樹林區保順街85號","121.429051666667","24.994455","6500700","樹林區"
"238024","5061-A6","2017/07/22 18:19:42","新北市樹林區中山路一段176-1號","121.421861666667","24.9888783333333","6500700","樹林區"
"238022","312-TH","2017/07/22 18:19:44","新北市樹林區太平路162號","121.418606666667","24.9776366666667","6500700","樹林區"
"238021","311-TH","2017/07/22 01:03:14","新北市樹林區中山路三段204號","121.386758333333","24.9681516666667","6500700","樹林區"
"238025","303-VK","2017/07/22 18:19:26","新北市樹林區保安二街55號","121.424595","24.9944766666667","6500700","樹林區"
"238017","283-BY","2017/07/22 18:19:43","新北市樹林區中正路660號","121.409628333333","25.0165683333333","6500700","樹林區"
"238014","282-BY","2017/07/22 18:19:43","新北市樹林區潭興街91巷8號","121.424395","24.9987366666667","6500700","樹林區"
"238020","268-VK","2017/07/22 18:19:37","新北市樹林區三俊街9號","121.411541666667","25.0154983333333","6500700","樹林區"
"238026","172-UY","2017/07/22 18:19:22","新北市樹林區佳園路一段88號","121.393366666667","24.9693466666667","6500700","樹林區"
"238016","169-UY","2017/07/22 18:19:35","新北市樹林區文化街23號","121.419313333333","24.98755","6500700","樹林區"
"239007","AAC-297","2017/07/22 18:19:26","新北市鶯歌區國慶街12號","121.34963","24.9565116666667","6500800","鶯歌區"
"239006","891-R6","2017/07/22 18:19:37","新北市鶯歌區中正一路306號","121.356318333333","24.9570766666667","6500800","鶯歌區"
"239008","527-UM","2017/07/22 18:19:31","新北市鶯歌區國際一路179號","121.336203333333","24.9765166666667","6500800","鶯歌區"
"239005","526-UM","2017/07/22 18:19:33","桃園市八德區桃鶯路142號","121.32875","24.9693966666667","6500800","鶯歌區"
"239001","417-VK","2017/07/22 18:19:45","新北市鶯歌區國中街197號","121.338236666667","24.939175","6500800","鶯歌區"
"239003","360-BY","2017/07/22 18:19:44","新北市鶯歌區福安街58號","121.335596666667","24.9651633333333","6500800","鶯歌區"
"239002","359-BY","2017/07/22 18:19:35","新北市鶯歌區中正一路461-5號","121.363061666667","24.9565533333333","6500800","鶯歌區"
"239004","193-VK","2017/07/22 18:19:33","新北市鶯歌區尖山路212巷27號","121.343068333333","24.947895","6500800","鶯歌區"
"221008","489-VK","2017/07/22 18:19:36","新北市汐止區康寧街901號","121.651415","25.07507","6501100","汐止區"
"221036","130-UY","2017/07/22 18:19:38","新北市汐止區長興街一段12號","121.669615","25.0787683333333","6501100","汐止區"
"221015","131-UY","2017/07/22 18:19:32","新北市汐止區鄉長路二段23巷18號","121.667695","25.08304","6501100","汐止區"
"221010","269-BY","2017/07/22 18:19:37","新北市汐止區祥雲街18巷23號","121.647278333333","25.0894266666667","6501100","汐止區"
"221031","277-VK","2017/07/22 18:19:38","新北市汐止區中興路168號","121.631928333333","25.06535","6501100","汐止區"
"221012","278-VK","2017/07/22 18:12:46","新北市汐止區保長路37巷42號","121.674183333333","25.079845","6501100","汐止區"
"221023","279-VK","2017/07/22 02:03:33","新北市汐止區汐萬路一段256巷1號","121.651926666667","25.0750583333333","6501100","汐止區"
"221032","280-BY","2017/07/22 18:19:39","新北市汐止區民權街二段109巷11弄1號","121.619526666667","25.04679","6501100","汐止區"
"221027","281-BY","2017/07/22 18:19:40","新北市汐止區和平街6巷5弄2號","121.663586666667","25.0717483333333","6501100","汐止區"
"221038","297-VK","2017/07/22 18:19:31","新北市汐止區仁愛路317號","121.66459","25.067675","6501100","汐止區"
"221029","298-VK","2017/07/22 18:19:42","新北市汐止區樟樹二路330巷76號","121.64302","25.0700416666667","6501100","汐止區"
"221021","299-VK","2017/07/22 17:42:52","新北市汐止區汐萬路一段312號","121.650671666667","25.07526","6501100","汐止區"
"221035","622-UM","2017/07/22 18:19:41","新北市汐止區大同路二段175號","121.6514","25.0641916666667","6501100","汐止區"
"221025","623-UM","2017/07/22 18:19:43","新北市汐止區勤進路12巷42號","121.659106666667","25.062865","6501100","汐止區"
"221033","647-BX","2017/07/22 18:19:39","新北市汐止區宜興街40巷1號","121.622065","25.041995","6501100","汐止區"
"221002","707-TV","2017/07/22 18:19:42","新北市汐止區福德一路201巷36號","121.635705","25.0649816666667","6501100","汐止區"
"221018","753-BX","2017/07/22 18:19:27","新北市汐止區茄苳路123號","121.667601666667","25.070585","6501100","汐止區"
