"lineid","car","time","location","longitude","latitude","cityid","cityname"
"234046","148-BY","2017/07/22 19:19:32","新北市永和區秀朗路二段153號","121.52499","25.0015966666667","6500400","永和區"
"234013","149-BY","2017/07/22 19:19:40","新北市永和區信義路60號","121.51287","25.0126666666667","6500400","永和區"
"234007","207-UY","2017/07/22 19:19:37","新北市永和區中山路一段230號","121.508051666667","25.0080716666667","6500400","永和區"
"234081","298-R6","2017/07/22 19:19:47","新北市永和區福和路5-4號","121.524933333333","25.0085133333333","6500400","永和區"
"234038","336-UY","2017/07/22 19:19:32","新北市永和區成功路二段67號","121.527438333333","24.99996","6500400","永和區"
"234064","337-UY","2017/07/22 19:19:40","新北市永和區永元路17巷6弄2號","121.521341666667","25.00067","6500400","永和區"
"234086","338-UY","2017/07/22 19:19:29","新北市永和區永亨路7號","121.51937","25.0056866666667","6500400","永和區"
"234070","552-UM","2017/07/22 19:19:43","新北市永和區中正路666巷59號","121.519191666667","25.0091783333333","6500400","永和區"
"234054","553-UM","2017/07/22 19:19:33","新北市永和區中興街39號","121.516298333333","25.0118166666667","6500400","永和區"
"234017","745-BX","2017/07/22 19:19:29","新北市永和區環河西路一段85巷4弄20號","121.512051666667","25.016915","6500400","永和區"
"234030","746-BX","2017/07/22 19:19:33","新北市永和區民生路49號","121.522738333333","24.9978616666667","6500400","永和區"
"234061","AAD-866","2017/07/22 19:19:39","新北市永和區秀朗路一段175號","121.517083333333","25.00367","6500400","永和區"
"234042","862-TW","2017/07/22 19:19:39","新北市永和區保平路151巷2弄6-3號","121.509568333333","25.0052866666667","6500400","永和區"
"234050","863-TW","2017/07/22 19:19:35","新北市永和區仁愛路100號","121.512201666667","25.0131883333333","6500400","永和區"
"234026","9371-KE","2017/07/22 19:19:39","新北市中和區安樂路245號","121.514111666667","24.9995516666667","6500400","永和區"
"234011","9373-KE","2017/07/22 19:19:40","新北市永和區仁愛路141巷3弄11號","121.512011666667","25.01252","6500400","永和區"
"249005","172-UM","2017/07/22 19:19:28","新北市八里區中華路三段15號","121.396873333333","25.1435583333333","6502300","八里區"
"249003","593-UM","2017/07/22 19:19:29","新北市八里區中山路二段440號","121.399515","25.147485","6502300","八里區"
"249001","759-BX","2017/07/22 19:19:38","新北市八里區中華路二段103-1號","121.409271666667","25.1522866666667","6502300","八里區"
"248020","225-UY","2017/07/22 19:19:29","新北市五股區凌雲路三段57號","121.42521","25.1250216666667","6501500","五股區"
"248012","247-BX","2017/07/21 21:13:44","新北市五股區中興路二段103巷14號","121.458036666667","25.076665","6501500","五股區"
"248014","261-SL","2017/07/22 19:19:34","新北市五股區民義路一段107巷32號","121.432491666667","25.0845783333333","6501500","五股區"
"248004","677-BX","2017/07/22 19:19:38","新北市五股區五福路40號","121.43384","25.0893133333333","6501500","五股區"
"248002","678-BX","2017/07/22 19:19:27","新北市五股區凌雲路一段158巷14-1號","121.44785","25.103555","6501500","五股區"
"248010","682-TV","2017/07/22 19:19:32","新北市五股區水碓一路23號","121.430655","25.07135","6501500","五股區"
"234023","9380-KE","2017/07/22 19:19:29","新北市永和區竹林路109巷7號","121.52035","25.0120483333333","6500400","永和區"
"234077","969-R7","2017/07/22 19:19:38","新北市永和區民族街44號","121.518418333333","24.99877","6500400","永和區"
"234074","AAC-211","2017/07/22 19:19:38","新北市永和區竹林路101號","121.519763333333","25.0120083333333","6500400","永和區"
"234067","AAC-212","2017/07/22 19:19:44","新北市永和區保平路95號","121.511505","25.0069433333333","6500400","永和區"
"234003","AAC-295","2017/07/22 19:19:39","新北市永和區永平路181號","121.510303333333","25.00927","6500400","永和區"
"244013","069-UM","2017/07/22 19:19:36","新北市林口區麗園一街3號","121.375981666667","25.0721666666667","6501700","林口區"
"244019","403-UM","2017/07/22 19:19:42","新北市林口區麗園二街3巷6-3號","121.378765","25.070095","6501700","林口區"
"244009","410-SL","2017/07/22 19:19:46","新北市林口區林口路50號","121.390515","25.07903","6501700","林口區"
"244023","483-VK","2017/07/22 19:19:25","新北市林口區民富街99號","121.370376666667","25.07509","6501700","林口區"
"244011","701-TV","2017/07/22 19:19:32","新北市林口區中山路97巷10號","121.389525","25.0783383333333","6501700","林口區"
"243013","AAD-798","2017/07/22 19:19:39","新北市泰山區明志路三段203號","121.424183333333","25.0384016666667","6501600","泰山區"
"243009","297-R6","2017/07/22 19:19:39","新北市泰山區和平街13巷11號","121.43437","25.0651233333333","6501600","泰山區"
"243015","380-SR","2017/07/22 19:19:38","新北市泰山區公園路71號","121.426348333333","25.055425","6501600","泰山區"
"243014","421-VK","2017/07/22 19:19:46","新北市泰山區泰林路二段118號","121.43461","25.0593416666667","6501600","泰山區"
"243011","549-UM","2017/07/22 19:19:43","新北市泰山區中央路11巷3號","121.426368333333","25.0427533333333","6501600","泰山區"
"243012","646-TV","2017/07/22 19:19:38","新北市泰山區仁愛路100巷22號","121.433283333333","25.0547616666667","6501600","泰山區"
"243016","680-BX","2017/07/22 19:19:41","新北市泰山區工專路10號","121.423835","25.0396033333333","6501600","泰山區"
"222003","436-BY","2017/07/22 19:19:38","新北市深坑區深南路204號","121.626631666667","25.0159966666667","6501800","深坑區"
"222001","628-TS","2017/07/22 19:19:24","新北市深坑區北深路二段103號","121.61743","25.00343","6501800","深坑區"
"222002","659-BX","2017/07/22 19:19:34","新北市深坑區紅葉街2號","121.633178333333","25.011335","6501800","深坑區"
"231041","002-UM","2017/07/22 19:19:44","新北市新店區溪園路245-2號","121.525575","24.9835133333333","6500600","新店區"
"231059","046-UY","2017/07/22 19:19:43","新北市新店區安和路三段29-1號","121.517591666667","24.9814616666667","6500600","新店區"
"231061","047-UY","2017/07/22 19:19:43","新北市新店區安康路一段186號","121.524993333333","24.9633666666667","6500600","新店區"
"231060","106-UY","2017/07/22 19:19:29","新北市新店區安康路二段115號","121.512551666667","24.9617233333333","6500600","新店區"
"231051","107-UY","2017/07/22 19:19:39","新北市新店區中央路116號","121.531081666667","24.9751166666667","6500600","新店區"
"231048","110-UY","2017/07/22 19:19:29","新北市新店區中興路二段57巷24號","121.545518333333","24.9709883333333","6500600","新店區"
"231052","187-VK","2017/07/22 19:19:43","新北市新店區自強路241號","121.547538333333","24.91877","6500600","新店區"
"231063","268-BY","2017/07/22 19:19:32","新北市新店區達觀路16號","121.503168333333","24.9408183333333","6500600","新店區"
"231046","278-BY","2017/07/22 19:19:39","新北市新店區華城路2號","121.530465","24.9605316666667","6500600","新店區"
"231050","AAD-862","2017/07/22 19:19:38","新北市新店區竹林路157號","121.556138333333","24.9484666666667","6500600","新店區"
"231058","3712-VJ","2017/07/22 19:19:42","新北市新店區光明街286巷2號","121.5406","24.9638666666667","6500600","新店區"
"231067","4772-VM","2017/07/22 19:19:32","新北市新店區安康路二段414巷2號","121.495856666667","24.957785","6500600","新店區"
"231065","512-UM","2017/07/22 19:19:29","新北市新店區安祥路112號","121.47487","24.9569166666667","6500600","新店區"
"231054","513-UM","2017/07/22 19:19:29","新北市新店區國校路6-2號","121.53789","24.9562416666667","6500600","新店區"
"231064","515-UM","2017/07/22 19:19:25","新北市新店區安忠路57巷26弄2號","121.512956666667","24.9587116666667","6500600","新店區"
"231045","617-UM","2017/07/22 19:19:45","新北市新店區北宜路一段260號","121.545728333333","24.95279","6500600","新店區"
"231040","619-UM","2017/07/22 19:19:43","新北市新店區三民路66號","121.534928333333","24.9723","6500600","新店區"
"231042","641-BX","2017/07/22 19:19:36","新北市新店區北宜路一段3號","121.538346666667","24.958525","6500600","新店區"
"231049","719-UM","2017/07/22 19:19:36","新北市新店區明德路111號","121.541515","24.9794783333333","6500600","新店區"
"231062","720-UM","2017/07/22 19:19:36","新北市新店區莒光路87巷10號","121.523936666667","24.9555466666667","6500600","新店區"
"231044","897-TW","2017/07/22 19:19:41","新北市新店區中興路三段330號","121.542068333333","24.98661","6500600","新店區"
"231043","899-TW","2017/07/22 19:19:37","新北市新店區北新路二段135號","121.542908333333","24.97552","6500600","新店區"
"231066","AKT-0513","2017/07/22 19:19:40","新北市新店區安康路三段355巷47號","121.48499","24.9492883333333","6500600","新店區"
"241009","060-VK","2017/07/22 19:19:41","新北市三重區溪尾街230巷40號","121.486331666667","25.08119","6500200","三重區"
"241031","061-VK","2017/07/22 19:19:45","新北市三重區重新路四段101-1號","121.48568","25.0543183333333","6500200","三重區"
"241017","063-VK","2017/07/22 19:19:41","新北市三重區大同北路217號","121.491538333333","25.0659983333333","6500200","三重區"
"241026","066-VK","2017/07/22 19:19:40","新北市三重區重安街160號","121.496008333333","25.0545516666667","6500200","三重區"
"241022","267-UM","2017/07/22 19:19:40","新北市三重區重陽路二段72號","121.487221666667","25.06411","6500200","三重區"
"241032","269-UM","2017/07/22 19:19:30","新北市三重區新生街79號","121.484226666667","25.059385","6500200","三重區"
"241007","398-BY","2017/07/22 19:19:41","新北市三重區慈愛街47號","121.485981666667","25.079115","6500200","三重區"
"241020","413-TH","2017/07/22 19:19:30","新北市三重區永德街21號","121.489131666667","25.0727916666667","6500200","三重區"
"241035","462-BY","2017/07/22 19:19:38","新北市三重區大仁街43號","121.493075","25.0655316666667","6500200","三重區"
"241030","480-VK","2017/07/22 19:19:42","新北市三重區新興路42號","121.49143","25.0534533333333","6500200","三重區"
"241006","AAD-863","2017/07/22 19:19:23","新北市三重區車路頭街139巷2號","121.484026666667","25.0762983333333","6500200","三重區"
"241029","942-UM","2017/07/22 19:19:28","新北市三重區重安街27號","121.491171666667","25.05707","6500200","三重區"
"235030","003-UY","2017/07/22 19:19:33","新北市中和區中和路102號","121.50266","24.99971","6500300","中和區"
"235063","006-UY","2017/07/22 19:19:36","新北市中和區連城路249巷21弄2號","121.494085","24.9960466666667","6500300","中和區"
"235056","096-UM","2017/07/22 19:19:35","新北市中和區中正路1173號","121.480853333333","25.0096866666667","6500300","中和區"
"235039","097-UM","2017/07/22 19:19:32","新北市中和區自立路60號","121.523648333333","24.9915633333333","6500300","中和區"
"235065","098-UM","2017/07/22 19:19:36","新北市中和區中山路二段136巷17號","121.5015","25.0041316666667","6500300","中和區"
"235005","150-BY","2017/07/22 19:19:31","新北市中和區宜安路1巷28弄18號","121.512118333333","24.9945333333333","6500300","中和區"
"235058","151-BY","2017/07/22 19:19:29","新北市中和區連城路477巷6弄16號","121.482595","24.99508","6500300","中和區"
"235055","183-VK","2017/07/22 19:19:27","新北市中和區德光路113號","121.468103333333","25.0031933333333","6500300","中和區"
"235038","185-VK","2017/07/22 19:19:45","新北市中和區大仁街20巷22-3號","121.51871","24.99322","6500300","中和區"
"235049","186-VK","2017/07/22 19:19:37","新北市中和區景新街227巷8號","121.508061666667","24.9947166666667","6500300","中和區"
"235067","255-BX","2017/07/22 19:19:33","新北市中和區民樂路36號","121.48307","25.0012483333333","6500300","中和區"
"235044","293-VK","2017/07/22 19:19:39","新北市中和區復興路337號","121.500113333333","24.9903033333333","6500300","中和區"
"235072","301-VK","2017/07/22 19:19:38","新北市中和區連城路184號","121.492761666667","24.9968566666667","6500300","中和區"
"235043","352-BY","2017/07/22 19:19:42","新北市中和區景平路420號","121.507856666667","24.9933183333333","6500300","中和區"
"235051","376-QA","2017/07/22 19:19:36","新北市中和區和平街2巷4弄2號","121.510111666667","24.99053","6500300","中和區"
"235068","377-QA","2017/07/22 19:19:21","新北市中和區連勝街38巷20號","121.497763333333","24.9981116666667","6500300","中和區"
"235061","378-QA","2017/07/22 19:19:31","新北市中和區中山路二段523巷56-1號","121.482211666667","25.0029166666667","6500300","中和區"
"235050","4979-A6","2017/07/22 19:19:34","新北市中和區復興路311號","121.501208333333","24.99026","6500300","中和區"
"235069","4980-A6","2017/07/22 19:19:43","新北市中和區中山路二段181巷10號","121.500633333333","25.0023866666667","6500300","中和區"
"235042","551-UM","2017/07/22 19:19:30","新北市中和區大勇街60巷8號","121.518631666667","24.994745","6500300","中和區"
"235070","558-UM","2017/07/22 19:19:32","新北市中和區安和路217號","121.50592","24.9993616666667","6500300","中和區"
"235045","565-BX","2017/07/22 19:19:30","新北市中和區景新街437巷16號","121.514098333333","24.989275","6500300","中和區"
"235054","640-BX","2017/07/22 19:19:45","新北市中和區民德路136號","121.468733333333","25.00063","6500300","中和區"
"235060","647-TV","2017/07/22 19:19:42","新北市中和區民有街41號","121.475883333333","25.0049366666667","6500300","中和區"
"235047","732-UM","2017/07/22 19:19:46","新北市中和區和平街38巷23號","121.50947","24.9910683333333","6500300","中和區"
"235046","733-UM","2017/07/22 19:19:29","新北市中和區華新街98號","121.508611666667","24.98286","6500300","中和區"
"235071","783-BX","2017/07/22 19:19:38","新北市中和區中正路637巷52弄1號","121.485496666667","24.9938","6500300","中和區"
"235057","801-TS","2017/07/22 19:19:32","新北市中和區民利街78號","121.47825","24.9981633333333","6500300","中和區"
"235041","802-TS","2017/07/22 19:19:45","新北市中和區景安路55號","121.507288333333","24.9981366666667","6500300","中和區"
"235052","805-TS","2017/07/22 19:19:40","新北市中和區興南路二段116號","121.504705","24.9838683333333","6500300","中和區"
"235048","896-TW","2017/07/22 19:19:42","新北市中和區忠孝街37巷4號","121.511336666667","24.98359","6500300","中和區"
"235053","900-TW","2017/07/22 19:19:28","新北市中和區華福街71巷21號","121.467388333333","24.9969816666667","6500300","中和區"
"235037","AAC-213","2017/07/22 19:19:30","新北市中和區秀朗路三段60巷46號","121.524751666667","24.994895","6500300","中和區"
"235059","AAC-215","2017/07/22 19:19:46","新北市中和區圓通路286巷2號","121.491436666667","24.991","6500300","中和區"
"220068","013-TV","2017/07/22 19:19:35","新北市板橋區三民路一段1巷39號","121.480318333333","25.0248766666667","6500100","板橋區"
"220065","072-UY","2017/07/22 19:19:45","新北市板橋區民族路129巷10號","121.467646666667","25.0084733333333","6500100","板橋區"
"220086","073-UY","2017/07/22 19:19:42","新北市板橋區中正路216巷117號","121.459598333333","25.0193216666667","6500100","板橋區"
"220106","075-UY","2017/07/22 19:19:26","新北市板橋區雙十路三段66號","121.47061","25.03185","6500100","板橋區"
"247001","402-BY","2017/07/22 16:10:54","新北市五股區中興路三段3-6號","121.44957","25.078835","6501400","蘆洲區"
"247006","341-TH","2017/07/22 19:19:41","新北市五股區中興路三段163號","121.449126666667","25.0809833333333","6501400","蘆洲區"
"247008","339-TH","2017/07/22 19:19:46","新北市五股區工商路8號","121.44051","25.0823366666667","6501400","蘆洲區"
"247014","057-VK","2017/07/22 19:19:44","新北市蘆洲區復興路38號","121.472436666667","25.0853483333333","6501400","蘆洲區"
"226004","312-R5","2017/07/22 19:19:29","新北市平溪區十分里十分街106號","121.776738333333","25.0427683333333","6502400","平溪區"
"228003","097-TW","2017/07/22 19:19:41","新北市貢寮區和美里和美街19-2號","121.912781666667","25.0826216666667","6502600","貢寮區"
"228001","212-TW","2017/07/22 19:19:42","新北市貢寮區真理里新港街10號","121.925568333333","25.0544516666667","6502600","貢寮區"
"228002","585-TW","2017/07/22 19:19:39","新北市貢寮區龍門里復興街29-1號","121.926126666667","25.0269433333333","6502600","貢寮區"
"224006","676-BX","2017/07/22 19:19:37","新北市瑞芳區中山路154號","121.8023","25.1065566666667","6501200","瑞芳區"
"224011","420-VK","2017/07/22 19:19:27","新北市瑞芳區崙頂路1-6號","121.84708","25.1047233333333","6501200","瑞芳區"
"224009","285-BY","2017/07/22 19:19:11","新北市瑞芳區洞頂路148號","121.859453333333","25.1179933333333","6501200","瑞芳區"
"224008","275-VK","2017/07/22 19:19:30","新北市瑞芳區一坑路74號","121.803141666667","25.108135","6501200","瑞芳區"
"224005","271-BY","2017/07/22 19:19:43","新北市瑞芳區三爪子坑路37號","121.813275","25.1074966666667","6501200","瑞芳區"
"227010","642-TC","2017/07/22 19:19:33","新北市雙溪區新基里新基北街40號","121.868558333333","25.0380416666667","6502500","雙溪區"
"227002","400-TW","2017/07/22 19:19:47","新北市雙溪區平林里梅竹蹊66-1號","121.860153333333","25.035835","6502500","雙溪區"
"253006","032-BX","2017/07/22 19:19:41","新北市石門區崁子腳44號","121.533493333333","25.2883716666667","6502200","石門區"
"208004","AAC-292","2017/07/22 19:19:47","新北市土城區和城路二段255巷140號","121.476685","24.9865716666667","6502700","金山區"
"208003","665-BX","2017/07/22 19:19:39","新北市金山區忠孝一路28號","121.638218333333","25.2197166666667","6502700","金山區"
"208001","761-BX","2017/07/22 19:19:42","新北市金山區金包里街32號","121.639718333333","25.2209033333333","6502700","金山區"
"251009","008-UM","2017/07/22 19:10:04","新北市淡水區中正路55號","121.441811666667","25.16954","6501000","淡水區"
"251005","010-UM","2017/07/22 19:19:43","新北市淡水區水源街一段34巷1號","121.44329","25.1722266666667","6501000","淡水區"
"251002","012-UM","2017/07/22 19:19:38","新北市淡水區中正路356號","121.434325","25.1741816666667","6501000","淡水區"
"251014","180-VK","2017/07/22 19:19:37","新北市淡水區小中寮19-7號","121.484778333333","25.22964","6501000","淡水區"
"251010","413-VK","2017/07/22 19:19:33","新北市淡水區沙崙路28號","121.42146","25.1814016666667","6501000","淡水區"
"251016","442-VK","2017/07/22 19:19:37","新北市淡水區下圭柔山119-51號","121.450816666667","25.20842","6501000","淡水區"
"251001","559-UM","2017/07/22 19:19:41","新北市淡水區自強路201巷39號","121.462156666667","25.1268516666667","6501000","淡水區"
"251007","577-R6","2017/07/22 19:19:30","新北市淡水區八勢一街48號","121.46111","25.1547916666667","6501000","淡水區"
"251011","650-BX","2017/07/22 19:19:28","新北市淡水區中正東路二段143巷2弄1號","121.460678333333","25.1473683333333","6501000","淡水區"
"251003","673-BX","2017/07/22 19:19:33","新北市淡水區中山路189號","121.441345","25.1743716666667","6501000","淡水區"
"207003","550-UM","2017/07/22 19:19:27","新北市萬里區大鵬里萬里加投79-3號","121.647396666667","25.2123466666667","6502800","萬里區"
"207004","225-TW","2017/07/22 19:19:38","新北市萬里區萬里里成功新村65號","121.688306666667","25.1745533333333","6502800","萬里區"
"252002","178-VK","2017/07/22 19:19:38","新北市三芝區淡金路二段18-1號","121.502645","25.2595466666667","6502100","三芝區"
"252003","249-BX","2017/07/22 19:19:26","新北市三芝區淡金路一段4-5號","121.498331666667","25.2600433333333","6502100","三芝區"
"252001","292-VK","2017/07/22 19:19:30","新北市三芝區長勤街9巷11弄1號","121.501786666667","25.2547983333333","6502100","三芝區"
"252007","AAC-283","2017/07/22 10:47:43","新北市三芝區埔坪里埔頭坑41號","121.504508333333","25.2644216666667","6502100","三芝區"
"208002","170-UY","2017/07/22 19:19:36","新北市金山區環金路376巷1號","121.632033333333","25.222215","6502700","金山區"
"237004","078-UY","2017/07/22 19:19:45","新北市三峽區有木183-2號","121.445933333333","24.837275","6500900","三峽區"
"237007","153-BY","2017/07/22 19:19:38","新北市三峽區中正路二段42巷12-1號","121.364241666667","24.9206833333333","6500900","三峽區"
"237009","210-TH","2017/07/22 19:19:36","新北市三峽區民生街148號","121.372308333333","24.934845","6500900","三峽區"
"237013","252-BX","2017/07/22 19:19:30","新北市三峽區大同路39巷20弄1號","121.37703","24.9277933333333","6500900","三峽區"
"237012","275-BY","2017/07/22 19:19:41","新北市三峽區三樹路222巷236弄23號","121.391425","24.943055","6500900","三峽區"
"237008","302-VK","2017/07/22 19:19:31","新北市三峽區大同路40-6號","121.376283333333","24.9278966666667","6500900","三峽區"
"237014","433-BY","2017/07/22 19:19:41","新北市三峽區中山路63巷8號","121.36696","24.9343283333333","6500900","三峽區"
"237006","5529-G3","2017/07/22 19:19:35","新北市三峽區中正路一段231號","121.372136666667","24.9269016666667","6500900","三峽區"
"237011","572-TV","2017/07/22 19:14:44","新北市三峽區中正路一段100號","121.374328333333","24.9296633333333","6500900","三峽區"
"237016","649-BX","2017/07/22 19:19:39","新北市三峽區成福路188號","121.42562","24.9277016666667","6500900","三峽區"
"237010","706-TV","2017/07/22 19:19:34","新北市三峽區復興路92號","121.372908333333","24.9374183333333","6500900","三峽區"
"237005","AKY-6261","2017/07/22 19:19:34","新北市三峽區中山路459巷42號","121.35713","24.93742","6500900","三峽區"
"236073","105-UM","2017/07/22 19:19:36","新北市土城區學府路一段126巷55號","121.45297","24.9880116666667","6501300","土城區"
"236079","166-UM","2017/07/22 19:19:35","新北市土城區龍泉路8號","121.409666666667","24.94987","6501300","土城區"
"236027","269-VK","2017/07/22 19:19:36","新北市土城區中正路69號","121.444611666667","24.9756833333333","6501300","土城區"
"236015","270-VK","2017/07/22 19:19:35","新北市土城區學府路一段25號","121.458363333333","24.9882866666667","6501300","土城區"
"236002","339-SR","2017/07/22 10:24:34","新北市土城區永平街51號","121.42768","24.959185","6501300","土城區"
"236023","401-BY","2017/07/22 19:19:34","新北市土城區峰廷街3號","121.469131666667","24.9873883333333","6501300","土城區"
"236059","912-UM","2017/07/22 19:19:42","新北市土城區金城路一段1號","121.439125","24.9688616666667","6501300","土城區"
"236049","913-UM","2017/07/22 19:19:30","新北市土城區明德路一段398-1號","121.453658333333","24.9791033333333","6501300","土城區"
"238015","755-BX","2017/07/22 19:19:41","新北市樹林區備內街1巷31號","121.41259","24.9863316666667","6500700","樹林區"
"238023","601-UM","2017/07/22 19:19:43","新北市樹林區三興路64號","121.39373","25.0146283333333","6500700","樹林區"
"238019","599-UM","2017/07/22 19:19:43","新北市樹林區鎮前街409號","121.415133333333","24.9833","6500700","樹林區"
"238018","571-TV","2017/07/22 19:19:43","新北市樹林區太平路48號","121.41904","24.9825583333333","6500700","樹林區"
"238024","5061-A6","2017/07/22 19:19:42","新北市樹林區福德街17號","121.400986666667","24.9760816666667","6500700","樹林區"
"238022","312-TH","2017/07/22 19:19:44","新北市樹林區中華路190-8號","121.411198333333","24.98056","6500700","樹林區"
"238021","311-TH","2017/07/22 01:03:14","新北市樹林區中山路三段204號","121.386758333333","24.9681516666667","6500700","樹林區"
"238025","303-VK","2017/07/22 19:19:26","新北市樹林區中山路二段42號","121.4171","24.9847983333333","6500700","樹林區"
"238017","283-BY","2017/07/22 19:19:24","新北市樹林區光興街297號","121.406796666667","25.0056983333333","6500700","樹林區"
"238014","282-BY","2017/07/22 19:19:42","新北市樹林區中正路22-1號","121.427683333333","24.9994033333333","6500700","樹林區"
"238020","268-VK","2017/07/22 19:19:41","新北市樹林區俊英街155巷1號","121.424286666667","25.0122483333333","6500700","樹林區"
"238026","172-UY","2017/07/22 19:19:42","新北市樹林區寶園街11號","121.385805","24.9536816666667","6500700","樹林區"
"238016","169-UY","2017/07/22 19:19:35","新北市樹林區備前街23號","121.416963333333","24.98559","6500700","樹林區"
"239007","AAC-297","2017/07/22 19:19:25","新北市鶯歌區大湖路328號","121.345326666667","24.9704033333333","6500800","鶯歌區"
"239006","891-R6","2017/07/22 19:19:37","新北市鶯歌區建國路546號","121.338448333333","24.95044","6500800","鶯歌區"
"239008","527-UM","2017/07/22 19:19:31","新北市鶯歌區大湖路468巷8號","121.33966","24.972545","6500800","鶯歌區"
"239005","526-UM","2017/07/22 19:19:33","新北市鶯歌區中湖街312號","121.347566666667","24.9777166666667","6500800","鶯歌區"
"239001","417-VK","2017/07/22 19:19:45","新北市鶯歌區建國路546號","121.338376666667","24.9503516666667","6500800","鶯歌區"
"239003","360-BY","2017/07/22 19:19:44","新北市鶯歌區中正二路51號","121.35046","24.9510633333333","6500800","鶯歌區"
"239002","359-BY","2017/07/22 19:19:35","新北市鶯歌區大湖路201號","121.346395","24.9718166666667","6500800","鶯歌區"
"239004","193-VK","2017/07/22 19:19:42","新北市鶯歌區二甲路33-11號","121.340025","24.9381783333333","6500800","鶯歌區"
"221008","489-VK","2017/07/22 19:19:36","新北市汐止區康寧街301號","121.626911666667","25.0672716666667","6501100","汐止區"
"221036","130-UY","2017/07/22 19:19:38","新北市汐止區汐萬路一段256巷3號","121.652546666667","25.0745116666667","6501100","汐止區"
"221015","131-UY","2017/07/22 19:19:31","新北市汐止區汐萬路一段256巷1號","121.651786666667","25.074855","6501100","汐止區"
"221010","269-BY","2017/07/22 19:19:37","新北市汐止區康寧街901號","121.651296666667","25.074945","6501100","汐止區"
"221031","277-VK","2017/07/22 19:19:30","新北市汐止區汐萬路一段256巷3號","121.652458333333","25.0746066666667","6501100","汐止區"
"221012","278-VK","2017/07/22 19:19:26","新北市汐止區長江街286-1號","121.665725","25.0805316666667","6501100","汐止區"
"221023","279-VK","2017/07/22 19:19:37","新北市汐止區康寧街901號","121.651306666667","25.0752683333333","6501100","汐止區"
"221032","280-BY","2017/07/22 19:19:39","新北市汐止區汐萬路一段256巷3號","121.653455","25.0746566666667","6501100","汐止區"
"221027","281-BY","2017/07/22 19:19:28","新北市汐止區康寧街901號","121.650733333333","25.0752283333333","6501100","汐止區"
"221038","297-VK","2017/07/22 19:19:31","新北市汐止區康寧街901號","121.650738333333","25.0753283333333","6501100","汐止區"
"221029","298-VK","2017/07/22 19:19:42","新北市汐止區康寧街901號","121.651661666667","25.0749583333333","6501100","汐止區"
"221021","299-VK","2017/07/22 19:19:32","新北市汐止區康寧街901號","121.65083","25.07528","6501100","汐止區"
"221025","623-UM","2017/07/22 19:19:43","新北市汐止區汐萬路一段310號","121.650343333333","25.0748483333333","6501100","汐止區"
"221033","647-BX","2017/07/22 19:19:39","新北市汐止區南勢街1巷1號","121.62708","25.0374466666667","6501100","汐止區"
"221002","707-TV","2017/07/22 19:19:42","新北市汐止區大同路一段327號","121.638151666667","25.0592433333333","6501100","汐止區"
"221018","753-BX","2017/07/22 19:19:27","新北市汐止區康寧街901號","121.651476666667","25.0749883333333","6501100","汐止區"
"220079","145-BY","2017/07/22 19:19:30","新北市板橋區民權路202巷16弄2號","121.460656666667","25.016105","6500100","板橋區"
"220080","200-UY","2017/07/22 19:19:33","新北市板橋區大觀路二段1巷38號","121.450021666667","25.00364","6500100","板橋區"
"220082","610-BX","2017/07/22 19:19:38","新北市板橋區溪崑二街108號","121.42651","24.98869","6500100","板橋區"
"220101","245-BX","2017/07/22 16:43:19","新北市板橋區民生路二段120號","121.47056","25.019625","6500100","板橋區"
"220103","257-TC","2017/07/22 19:19:25","新北市板橋區介壽街18號","121.467548333333","25.020085","6500100","板橋區"
"220069","258-TC","2017/07/22 19:19:28","新北市板橋區華興街1號","121.459381666667","25.0044783333333","6500100","板橋區"
"220056","276-BY","2017/07/22 19:19:32","新北市板橋區信義路237號","121.46009","24.9910483333333","6500100","板橋區"
"220072","277-BY","2017/07/22 19:19:36","新北市板橋區金門街337巷7弄23號","121.430591666667","24.98523","6500100","板橋區"
"220071","283-VK","2017/07/22 19:19:42","新北市板橋區重慶路327巷5號","121.464265","24.99858","6500100","板橋區"
"220094","285-UM","2017/07/22 19:19:41","新北市板橋區吳鳳路82號","121.466978333333","25.031315","6500100","板橋區"
"220053","285-VK","2017/07/22 19:19:42","新北市板橋區富山街40號","121.477836666667","25.021855","6500100","板橋區"
"220083","286-VK","2017/07/22 19:19:41","新北市板橋區大觀路二段174巷165弄14號","121.44144","25.0035383333333","6500100","板橋區"
"220081","287-VK","2017/07/22 19:19:31","新北市板橋區南雅西路二段20號","121.452986666667","25.0095466666667","6500100","板橋區"
"220090","288-VK","2017/07/22 19:19:32","新北市板橋區長江路一段106巷13弄27號","121.461058333333","25.0296283333333","6500100","板橋區"
"220061","293-UM","2017/07/22 19:19:45","新北市板橋區光復街192巷20號","121.48148","25.0189333333333","6500100","板橋區"
"220084","296-UM","2017/07/22 19:19:34","新北市板橋區溪崑二街56巷10號","121.427696666667","24.990955","6500100","板橋區"
"220075","297-UM","2017/07/22 19:19:45","新北市板橋區南雅東路1-22號","121.454503333333","25.0051816666667","6500100","板橋區"
"220062","303-R5","2017/07/22 19:19:40","新北市板橋區三民路二段153巷30弄37號","121.48105","25.01451","6500100","板橋區"
"220092","307-R5","2017/07/22 19:19:45","新北市板橋區松江街66號","121.46874","25.0276633333333","6500100","板橋區"
"220098","317-R6","2017/07/22 19:19:31","新北市板橋區四維路115-3號","121.465398333333","25.024835","6500100","板橋區"
"220064","486-VK","2017/07/22 19:19:40","新北市板橋區中山路一段30號","121.460516666667","25.008495","6500100","板橋區"
"220089","487-VK","2017/07/22 19:19:45","新北市板橋區文化路一段357號","121.466798333333","25.0210816666667","6500100","板橋區"
"220088","491-VK","2017/07/22 19:19:38","新北市板橋區雙十路二段50號","121.475586666667","25.0276233333333","6500100","板橋區"
"220035","560-BX","2017/07/22 19:19:42","新北市板橋區中正路326巷13號","121.455106666667","25.0222116666667","6500100","板橋區"
"220063","609-BX","2017/07/22 19:19:43","新北市板橋區三民路一段31巷19號","121.480143333333","25.02326","6500100","板橋區"
"220091","637-BX","2017/07/22 19:19:31","新北市板橋區萬板路408號","121.479036666667","25.0255166666667","6500100","板橋區"
"220057","686-BX","2017/07/22 19:19:44","新北市板橋區重慶路342號","121.46429","24.9973966666667","6500100","板橋區"
"220077","687-BX","2017/07/22 19:19:32","新北市板橋區大觀路一段28巷8號","121.450025","25.00883","6500100","板橋區"
"220093","689-BX","2017/07/22 19:19:37","新北市板橋區文化路一段96號","121.464488333333","25.0179233333333","6500100","板橋區"
"220054","741-BX","2017/07/22 19:19:28","新北市板橋區四川路一段185-1號","121.460706666667","25.003775","6500100","板橋區"
"220055","827-TW","2017/07/22 19:19:35","新北市板橋區館前東路156巷44號","121.464506666667","25.0065633333333","6500100","板橋區"
"220067","829-TW","2017/07/22 19:19:43","新北市板橋區長安街138巷1弄52號","121.473931666667","25.0101416666667","6500100","板橋區"
"220102","830-TW","2017/07/22 19:19:31","新北市板橋區懷德街201巷30號","121.48233","25.0296083333333","6500100","板橋區"
"220096","831-TW","2017/07/22 19:19:36","新北市板橋區大同街26巷1號","121.478068333333","25.0272233333333","6500100","板橋區"
"220074","895-R6","2017/07/22 19:19:31","新北市板橋區中正路自強新村28號","121.455123333333","25.014035","6500100","板橋區"
"220073","985-R7","2017/07/22 19:19:31","新北市板橋區英士路190巷2號","121.458158333333","25.0223766666667","6500100","板橋區"
"220097","AAC-210","2017/07/22 19:19:35","新北市板橋區漢生西路89巷4弄1號","121.461353333333","25.01915","6500100","板橋區"
"220070","AAC-253","2017/07/22 19:19:45","新北市板橋區忠孝路31-1號","121.460771666667","25.0019933333333","6500100","板橋區"
