"lineid","car","time","location","longitude","latitude","cityid","cityname"
"234046","148-BY","2017/07/22 19:29:32","新北市永和區永元路22號","121.52213","25.0005816666667","6500400","永和區"
"234013","149-BY","2017/07/22 19:29:40","新北市永和區中山路一段93號","121.511485","25.0106983333333","6500400","永和區"
"234007","207-UY","2017/07/22 19:29:37","新北市永和區永和路一段157-1號","121.514311666667","25.0095766666667","6500400","永和區"
"234081","298-R6","2017/07/22 19:29:28","新北市永和區環河東路三段54號","121.526876666667","25.0061766666667","6500400","永和區"
"234038","336-UY","2017/07/22 19:29:32","新北市永和區民樂街20號","121.527378333333","25.001945","6500400","永和區"
"234064","337-UY","2017/07/22 19:29:40","新北市永和區中正路368巷1弄88號","121.520566666667","25.0007183333333","6500400","永和區"
"234086","338-UY","2017/07/22 19:29:29","新北市永和區林森路41巷1號","121.525165","25.0046983333333","6500400","永和區"
"234070","552-UM","2017/07/22 19:29:43","新北市永和區中興街20號","121.516036666667","25.0118566666667","6500400","永和區"
"234054","553-UM","2017/07/22 19:29:41","新北市永和區復興街19巷2號","121.516156666667","25.0131166666667","6500400","永和區"
"234017","745-BX","2017/07/22 19:29:29","新北市永和區永和路二段425巷5號","121.515216666667","25.017705","6500400","永和區"
"234030","746-BX","2017/07/22 19:29:33","新北市永和區民權路1巷38號","121.52208","24.9981966666667","6500400","永和區"
"234061","AAD-866","2017/07/22 19:29:39","新北市永和區中正路570號","121.517118333333","25.0062116666667","6500400","永和區"
"234042","862-TW","2017/07/22 19:29:39","新北市永和區中和路591號","121.512251666667","25.0040466666667","6500400","永和區"
"234050","863-TW","2017/07/22 19:29:35","新北市永和區保福路二段114巷8號","121.510046666667","25.013935","6500400","永和區"
"234026","9371-KE","2017/07/22 19:29:39","新北市中和區安平路222號","121.514116666667","24.999955","6500400","永和區"
"234011","9373-KE","2017/07/22 19:29:40","新北市永和區保福路二段20號","121.510991666667","25.0114683333333","6500400","永和區"
"249003","593-UM","2017/07/22 19:29:40","新北市八里區商港六路23號","121.396686666667","25.14862","6502300","八里區"
"248008","095-VK","2017/07/22 19:29:36","新北市五股區中興路一段97號","121.466585","25.0730316666667","6501500","五股區"
"248020","225-UY","2017/07/22 19:29:30","新北市五股區凌雲路三段41號","121.429503333333","25.1183316666667","6501500","五股區"
"248012","247-BX","2017/07/21 21:13:44","新北市五股區中興路二段103巷14號","121.458036666667","25.076665","6501500","五股區"
"248014","261-SL","2017/07/22 19:29:46","新北市五股區民義路一段183巷6-1號","121.430843333333","25.0871633333333","6501500","五股區"
"248004","677-BX","2017/07/22 19:29:38","新北市五股區五福路85-1號","121.432385","25.0904216666667","6501500","五股區"
"248002","678-BX","2017/07/22 19:29:47","新北市五股區凌雲路一段158巷14號","121.447826666667","25.103365","6501500","五股區"
"248010","682-TV","2017/07/22 19:29:32","新北市五股區水碓一路23號","121.430616666667","25.0713083333333","6501500","五股區"
"234023","9380-KE","2017/07/22 19:29:26","新北市永和區竹林路91巷47弄1號","121.521213333333","25.0128166666667","6500400","永和區"
"234077","969-R7","2017/07/22 19:29:38","新北市永和區民族街43巷12號","121.519131666667","24.9983683333333","6500400","永和區"
"234074","AAC-211","2017/07/22 19:29:37","新北市永和區竹林路30號","121.517061666667","25.0147766666667","6500400","永和區"
"234067","AAC-212","2017/07/22 19:29:44","新北市永和區保平路113號","121.510913333333","25.0067116666667","6500400","永和區"
"234003","AAC-295","2017/07/22 19:29:40","新北市永和區福和路385號","121.51423","25.0076283333333","6500400","永和區"
"244013","069-UM","2017/07/22 19:29:36","新北市林口區麗園一街1號","121.37568","25.0725483333333","6501700","林口區"
"244019","403-UM","2017/07/22 19:29:42","新北市林口區文化一路一段126號","121.375638333333","25.0725","6501700","林口區"
"244023","483-VK","2017/07/22 19:29:45","新北市林口區文化三路二段1-1號","121.372961666667","25.0785183333333","6501700","林口區"
"243013","AAD-798","2017/07/22 19:29:39","新北市泰山區明志路三段145巷36弄1號","121.426593333333","25.03935","6501600","泰山區"
"243009","297-R6","2017/07/22 19:29:39","新北市泰山區半山雅1號","121.43189","25.0673116666667","6501600","泰山區"
"243015","380-SR","2017/07/22 19:29:39","新北市泰山區明志路二段83號","121.428893333333","25.0521833333333","6501600","泰山區"
"243014","421-VK","2017/07/22 19:29:34","新北市泰山區仁愛路6巷9號","121.431403333333","25.0536216666667","6501600","泰山區"
"243011","549-UM","2017/07/22 19:29:43","新北市泰山區中山路二段565號","121.429831666667","25.040355","6501600","泰山區"
"243012","646-TV","2017/07/22 19:29:38","新北市泰山區仁愛路41號","121.432261666667","25.05508","6501600","泰山區"
"243016","680-BX","2017/07/22 19:29:41","新北市泰山區明志路三段223號","121.423808333333","25.03807","6501600","泰山區"
"222003","436-BY","2017/07/22 19:29:38","新北市深坑區深南路88巷1號","121.621","25.0114666666667","6501800","深坑區"
"222001","628-TS","2017/07/22 19:29:44","新北市深坑區深坑街10號","121.615851666667","25.0028133333333","6501800","深坑區"
"222002","659-BX","2017/07/22 19:29:33","新北市深坑區北深路一段177號","121.632555","25.0109033333333","6501800","深坑區"
"231041","002-UM","2017/07/22 19:29:44","新北市新店區中正路543-3號","121.533608333333","24.987315","6500600","新店區"
"231059","046-UY","2017/07/22 19:29:42","新北市新店區安和路三段99號","121.517806666667","24.9843083333333","6500600","新店區"
"231061","047-UY","2017/07/22 19:29:43","新北市新店區安民街40號","121.515883333333","24.965335","6500600","新店區"
"231060","106-UY","2017/07/22 19:29:29","新北市新店區安康路二段51-1號","121.514853333333","24.963605","6500600","新店區"
"231051","107-UY","2017/07/22 19:29:39","新北市新店區中央五街23號","121.52931","24.9745766666667","6500600","新店區"
"231048","110-UY","2017/07/22 19:29:29","新北市新店區五峰路115號","121.54512","24.9666433333333","6500600","新店區"
"231052","187-VK","2017/07/22 19:29:43","新北市新店區新烏路二段300號","121.548256666667","24.913835","6500600","新店區"
"231057","256-BX","2017/07/22 19:29:38","新北市新店區花園一路二段27號","121.551323333333","24.9325416666667","6500600","新店區"
"231063","268-BY","2017/07/22 19:29:32","新北市新店區達觀路16號","121.50321","24.9407916666667","6500600","新店區"
"231046","278-BY","2017/07/22 19:29:39","新北市新店區光明街123號","121.539066666667","24.961875","6500600","新店區"
"231050","AAD-862","2017/07/22 19:29:18","新北市新店區秀水路50號","121.555535","24.9565183333333","6500600","新店區"
"231058","3712-VJ","2017/07/22 19:29:42","新北市新店區北新路二段228巷2號","121.543311666667","24.9771833333333","6500600","新店區"
"231067","4772-VM","2017/07/22 19:29:32","新北市新店區安德街60巷35號","121.511001666667","24.963725","6500600","新店區"
"231065","512-UM","2017/07/22 19:29:29","新北市新店區安祥路109巷1弄55號","121.477561666667","24.9607283333333","6500600","新店區"
"231054","513-UM","2017/07/22 19:29:29","新北市新店區文中路40號","121.539796666667","24.9565566666667","6500600","新店區"
"231064","515-UM","2017/07/22 19:29:25","新北市新店區安忠路36號","121.513995","24.9605733333333","6500600","新店區"
"231045","617-UM","2017/07/22 19:29:45","新北市新店區北宜路二段209號","121.553171666667","24.9532916666667","6500600","新店區"
"231040","619-UM","2017/07/22 19:29:23","新北市新店區中華路52號","121.539623333333","24.96859","6500600","新店區"
"231042","641-BX","2017/07/22 19:29:36","新北市新店區中興路一段112號","121.54094","24.9617783333333","6500600","新店區"
"231049","719-UM","2017/07/22 19:29:36","新北市新店區二十張路1巷3弄3號","121.5407","24.9821833333333","6500600","新店區"
"231062","720-UM","2017/07/22 19:29:37","新北市新店區安康路一段135號","121.527776666667","24.9617983333333","6500600","新店區"
"231044","897-TW","2017/07/22 19:29:28","新北市新店區中興路三段197號","121.543881666667","24.98148","6500600","新店區"
"231043","899-TW","2017/07/22 19:29:36","新北市新店區北新路二段187號","121.542821666667","24.9777","6500600","新店區"
"231066","AKT-0513","2017/07/22 19:29:40","新北市新店區安康路三段165巷5號","121.489698333333","24.9512466666667","6500600","新店區"
"241028","022-UY","2017/07/22 19:29:44","新北市三重區中寮街90號","121.493263333333","25.0580216666667","6500200","三重區"
"241009","060-VK","2017/07/22 19:29:41","新北市三重區仁美街123號","121.48559","25.0813","6500200","三重區"
"241031","061-VK","2017/07/22 19:29:45","新北市三重區集美街100號","121.488538333333","25.0541333333333","6500200","三重區"
"241017","063-VK","2017/07/22 19:29:41","新北市三重區新北大道一段6號","121.488856666667","25.0615916666667","6500200","三重區"
"241026","066-VK","2017/07/22 19:29:40","新北市三重區文化南路47巷35號","121.499336666667","25.0611166666667","6500200","三重區"
"241022","267-UM","2017/07/22 19:29:40","新北市三重區三民街157巷2號","121.483788333333","25.0646183333333","6500200","三重區"
"241032","269-UM","2017/07/22 19:29:30","新北市三重區三陽路64號","121.483851666667","25.0586916666667","6500200","三重區"
"241025","271-UM","2017/07/22 19:29:47","新北市三重區頂崁街210巷28弄3號","121.47577","25.0676466666667","6500200","三重區"
"241007","398-BY","2017/07/22 19:29:41","新北市三重區溪尾街128號","121.48928","25.0794616666667","6500200","三重區"
"241008","412-TH","2017/07/22 19:29:32","新北市三重區永福街135巷40號","121.477151666667","25.077255","6500200","三重區"
"241020","413-TH","2017/07/22 19:29:30","新北市三重區三和路四段44巷5號","121.490145","25.0743933333333","6500200","三重區"
"241035","462-BY","2017/07/22 19:29:38","新北市三重區信義西街1巷13號","121.498035","25.0652383333333","6500200","三重區"
"241019","478-VK","2017/07/22 19:29:31","新北市三重區力行路一段38巷2號","121.485231666667","25.06668","6500200","三重區"
"241030","480-VK","2017/07/22 19:29:42","新北市三重區成功路41巷3號","121.490196666667","25.0514366666667","6500200","三重區"
"241006","AAD-863","2017/07/22 19:29:43","新北市三重區三和路四段272號","121.485605","25.07725","6500200","三重區"
"241029","942-UM","2017/07/22 19:29:28","新北市三重區泉州街110號","121.494875","25.0535583333333","6500200","三重區"
"235030","003-UY","2017/07/22 19:29:44","新北市中和區中和路108號","121.50289","24.9996266666667","6500300","中和區"
"235063","006-UY","2017/07/22 19:29:36","新北市中和區連勝街130號","121.494353333333","24.99673","6500300","中和區"
"235056","096-UM","2017/07/22 19:29:35","新北市中和區員山路501號","121.479916666667","25.0062583333333","6500300","中和區"
"235039","097-UM","2017/07/22 19:29:32","新北市中和區秀峰街89號","121.52131","24.9902566666667","6500300","中和區"
"235065","098-UM","2017/07/22 19:29:36","新北市中和區中山路二段2巷3弄1號","121.504938333333","25.0061433333333","6500300","中和區"
"235005","150-BY","2017/07/22 19:29:31","新北市中和區保健路48巷1號","121.510056666667","24.99698","6500300","中和區"
"235058","151-BY","2017/07/22 19:29:29","新北市中和區中正路637巷60弄61號","121.485411666667","24.99331","6500300","中和區"
"235055","183-VK","2017/07/22 19:29:27","新北市中和區莒光路84巷12號","121.471911666667","25.0021516666667","6500300","中和區"
"235038","185-VK","2017/07/22 19:29:45","新北市中和區大仁街20巷48號","121.519936666667","24.9933516666667","6500300","中和區"
"235049","186-VK","2017/07/22 19:29:37","新北市中和區景新街295巷25號","121.51107","24.9934333333333","6500300","中和區"
"235067","255-BX","2017/07/22 19:29:33","新北市中和區連城路340巷10弄13號","121.483085","24.9966033333333","6500300","中和區"
"235044","293-VK","2017/07/22 19:29:39","新北市中和區中興街262號","121.499031666667","24.9875066666667","6500300","中和區"
"235072","301-VK","2017/07/22 19:29:38","新北市中和區連城路263巷4弄12號","121.491741666667","24.99523","6500300","中和區"
"235043","352-BY","2017/07/22 19:29:45","新北市中和區景新街153號","121.506555","24.996515","6500300","中和區"
"235051","376-QA","2017/07/22 19:29:31","新北市中和區景新街232號","121.508678333333","24.99396","6500300","中和區"
"235068","377-QA","2017/07/22 19:29:41","新北市中和區圓通路158巷5弄1號","121.497973333333","24.9963833333333","6500300","中和區"
"235061","378-QA","2017/07/22 19:29:31","新北市中和區員山路143巷17號","121.480053333333","24.9957233333333","6500300","中和區"
"235050","4979-A6","2017/07/22 19:29:34","新北市中和區中正路637巷52弄1號","121.48545","24.99353","6500300","中和區"
"235042","551-UM","2017/07/22 19:29:30","新北市中和區中安街208號","121.511778333333","24.9988583333333","6500300","中和區"
"235070","558-UM","2017/07/22 19:29:32","新北市中和區中和路16號","121.49967","25.0020583333333","6500300","中和區"
"235045","565-BX","2017/07/22 19:29:30","新北市中和區景新街423巷33弄8-3號","121.513768333333","24.9900816666667","6500300","中和區"
"235054","640-BX","2017/07/22 19:29:45","新北市中和區國光街109巷20號","121.469575","24.9998383333333","6500300","中和區"
"235060","647-TV","2017/07/22 19:29:42","新北市中和區新生街114巷1號","121.483415","25.0024","6500300","中和區"
"235047","732-UM","2017/07/22 19:29:13","新北市中和區景平路241巷15號","121.509295","24.992405","6500300","中和區"
"235046","733-UM","2017/07/22 19:29:29","新北市中和區忠孝街37巷30號","121.510821666667","24.98444","6500300","中和區"
"235071","783-BX","2017/07/22 19:29:38","新北市中和區中正路637巷18弄20號","121.484255","24.995095","6500300","中和區"
"235057","801-TS","2017/07/22 19:29:32","新北市中和區員山路421號","121.481035","25.0034516666667","6500300","中和區"
"235041","802-TS","2017/07/22 19:29:25","新北市中和區中和路294號","121.508586666667","24.9997266666667","6500300","中和區"
"235052","805-TS","2017/07/22 19:29:40","新北市中和區華新街143巷69弄2號","121.507318333333","24.9787166666667","6500300","中和區"
"235048","896-TW","2017/07/22 19:29:42","新北市中和區景新街471號","121.513503333333","24.9879216666667","6500300","中和區"
"235053","900-TW","2017/07/22 19:29:28","新北市中和區華安街17巷27號","121.467398333333","24.9982716666667","6500300","中和區"
"235037","AAC-213","2017/07/22 19:29:30","新北市中和區秀朗路三段50巷12弄6號","121.524078333333","24.9952983333333","6500300","中和區"
"235059","AAC-215","2017/07/22 19:29:46","新北市中和區圓通路252巷4號","121.493168333333","24.9916916666667","6500300","中和區"
"220068","013-TV","2017/07/22 19:29:43","新北市板橋區翠華街6巷97號","121.48225","25.0254316666667","6500100","板橋區"
"220065","072-UY","2017/07/22 19:29:45","新北市板橋區國泰街75巷28弄10號","121.467648333333","25.005285","6500100","板橋區"
"220086","073-UY","2017/07/22 19:29:42","新北市板橋區中正路216巷8號","121.456353333333","25.0184316666667","6500100","板橋區"
"220106","075-UY","2017/07/22 19:29:46","新北市板橋區長江路三段58號","121.473598333333","25.033915","6500100","板橋區"
"247001","402-BY","2017/07/22 16:10:54","新北市五股區中興路三段3-6號","121.44957","25.078835","6501400","蘆洲區"
"247006","341-TH","2017/07/22 19:29:41","新北市五股區中興路三段163號","121.44924","25.08084","6501400","蘆洲區"
"247008","339-TH","2017/07/22 19:29:26","新北市蘆洲區中山一路234號","121.472916666667","25.080315","6501400","蘆洲區"
"247002","336-TH","2017/07/22 19:29:29","新北市五股區新五路二段372巷20號","121.447991666667","25.08504","6501400","蘆洲區"
"247014","057-VK","2017/07/22 19:29:44","新北市蘆洲區忠孝路74號","121.471535","25.0854516666667","6501400","蘆洲區"
"247004","056-VK","2017/07/22 19:29:41","新北市蘆洲區長安街239號","121.459256666667","25.083015","6501400","蘆洲區"
"226004","312-R5","2017/07/22 19:29:29","新北市平溪區十分里十分街236號","121.778146666667","25.044095","6502400","平溪區"
"228003","097-TW","2017/07/22 19:29:41","新北市貢寮區和美里和美街22-1號","121.912796666667","25.0826483333333","6502600","貢寮區"
"228001","212-TW","2017/07/22 19:29:42","新北市貢寮區真理里延平街68-2號","121.925371666667","25.0574683333333","6502600","貢寮區"
"224006","676-BX","2017/07/22 19:29:37","新北市瑞芳區三爪子坑路226號","121.805781666667","25.1056533333333","6501200","瑞芳區"
"224002","639-TC","2017/07/22 19:29:38","新北市瑞芳區三爪子坑路13巷25號","121.814103333333","25.1069533333333","6501200","瑞芳區"
"224011","420-VK","2017/07/22 19:29:47","新北市瑞芳區崙頂路1-6號","121.847078333333","25.104735","6501200","瑞芳區"
"224005","271-BY","2017/07/22 19:29:39","新北市瑞芳區蛇子形路6號","121.825666666667","25.104735","6501200","瑞芳區"
"227010","642-TC","2017/07/22 19:29:33","新北市雙溪區新基里新基北街43號","121.868205","25.039685","6502500","雙溪區"
"227002","400-TW","2017/07/22 19:29:27","新北市雙溪區雙溪里光復街20號","121.865136666667","25.0354666666667","6502500","雙溪區"
"253006","032-BX","2017/07/22 19:29:42","新北市石門區楓林23-10號","121.538778333333","25.2911283333333","6502200","石門區"
"208004","AAC-292","2017/07/22 19:29:07","台北市文山區老泉街45巷18-1號","121.575278333333","24.9760816666667","6502700","金山區"
"208003","665-BX","2017/07/22 19:29:39","新北市金山區中山路263巷14號","121.636348333333","25.22156","6502700","金山區"
"208001","761-BX","2017/07/22 19:29:43","新北市金山區金包里街69號","121.638413333333","25.2217716666667","6502700","金山區"
"251009","008-UM","2017/07/22 19:10:04","新北市淡水區中正路55號","121.441811666667","25.16954","6501000","淡水區"
"251005","010-UM","2017/07/22 19:29:36","新北市淡水區水源街一段47巷27號","121.443935","25.1731633333333","6501000","淡水區"
"251014","180-VK","2017/07/22 19:29:37","新北市淡水區小中寮19-7號","121.484776666667","25.22964","6501000","淡水區"
"251010","413-VK","2017/07/22 19:29:33","新北市淡水區中正路二段142-1號","121.422066666667","25.1875316666667","6501000","淡水區"
"251016","442-VK","2017/07/22 19:29:37","新北市淡水區下圭柔山119-51號","121.45082","25.208405","6501000","淡水區"
"251001","559-UM","2017/07/22 19:29:46","新北市淡水區民權路155號","121.459966666667","25.1361733333333","6501000","淡水區"
"251006","561-UM","2017/07/22 19:29:33","新北市淡水區大義街40號","121.441973333333","25.17836","6501000","淡水區"
"251007","577-R6","2017/07/22 19:29:30","新北市淡水區中正東路一段111巷27號","121.455395","25.160625","6501000","淡水區"
"251011","650-BX","2017/07/22 19:29:48","新北市淡水區中正東路二段143巷2弄1號","121.460693333333","25.1473766666667","6501000","淡水區"
"251003","673-BX","2017/07/22 19:29:31","新北市淡水區中山北路二段375號","121.444211666667","25.1874166666667","6501000","淡水區"
"207003","550-UM","2017/07/22 19:29:47","新北市萬里區大鵬里萬里加投199號","121.643963333333","25.2151333333333","6502800","萬里區"
"207004","225-TW","2017/07/22 19:29:44","新北市萬里區萬里里瑪鋉路91號","121.688725","25.1773316666667","6502800","萬里區"
"252002","178-VK","2017/07/22 19:29:38","新北市三芝區淡金路二段18-1號","121.50264","25.2595266666667","6502100","三芝區"
"252001","292-VK","2017/07/22 19:29:30","新北市三芝區長勤街63-1號","121.500083333333","25.2561016666667","6502100","三芝區"
"252007","AAC-283","2017/07/22 10:47:43","新北市三芝區埔坪里埔頭坑41號","121.504508333333","25.2644216666667","6502100","三芝區"
"208002","170-UY","2017/07/22 19:29:36","新北市金山區仁愛路55號","121.635205","25.2206133333333","6502700","金山區"
"237004","078-UY","2017/07/22 19:26:05","新北市三峽區有木191號","121.448668333333","24.8443783333333","6500900","三峽區"
"237007","153-BY","2017/07/22 19:29:38","新北市三峽區二鬮路178號","121.359128333333","24.9068333333333","6500900","三峽區"
"237009","210-TH","2017/07/22 19:29:36","新北市三峽區中山路29號","121.368523333333","24.9344116666667","6500900","三峽區"
"237013","252-BX","2017/07/22 19:29:30","新北市三峽區介壽路一段251號","121.37952","24.9302066666667","6500900","三峽區"
"237012","275-BY","2017/07/22 19:29:41","新北市三峽區三樹路98巷169號","121.384595","24.9394816666667","6500900","三峽區"
"237008","302-VK","2017/07/22 19:29:31","新北市三峽區大同路154號","121.373125","24.9267416666667","6500900","三峽區"
"237014","433-BY","2017/07/22 19:29:41","新北市三峽區嘉添1號","121.368283333333","24.9117966666667","6500900","三峽區"
"237006","5529-G3","2017/07/22 19:29:35","新北市三峽區中正路一段336巷15弄2號","121.369983333333","24.9249783333333","6500900","三峽區"
"237011","572-TV","2017/07/22 19:14:44","新北市三峽區中正路一段100號","121.374328333333","24.9296633333333","6500900","三峽區"
"237016","649-BX","2017/07/22 19:29:39","新北市三峽區溪東路222號","121.407765","24.9319916666667","6500900","三峽區"
"237005","AKY-6261","2017/07/22 19:29:34","新北市三峽區復興路367巷1弄14號","121.364181666667","24.9376933333333","6500900","三峽區"
"236073","105-UM","2017/07/22 19:29:44","新北市土城區學府路一段155巷2號","121.453376666667","24.9856916666667","6501300","土城區"
"236079","166-UM","2017/07/22 19:29:35","新北市土城區中州路3巷35號","121.413448333333","24.9563883333333","6501300","土城區"
"236027","269-VK","2017/07/22 19:29:30","新北市土城區中央路二段61巷22號","121.443143333333","24.978705","6501300","土城區"
"236002","339-SR","2017/07/22 10:24:34","新北市土城區永平街51號","121.42768","24.959185","6501300","土城區"
"236023","401-BY","2017/07/22 19:29:34","新北市土城區峰廷街3號","121.46906","24.9873666666667","6501300","土城區"
"236059","912-UM","2017/07/22 19:29:42","新北市土城區中央路二段93號","121.44217","24.97803","6501300","土城區"
"236049","913-UM","2017/07/22 19:29:30","新北市土城區清水路179號","121.459523333333","24.9814866666667","6501300","土城區"
"242031","415-TV","2017/07/22 19:29:38","新北市新莊區新泰路225巷7號","121.446023333333","25.0391283333333","6500500","新莊區"
"238015","755-BX","2017/07/22 19:29:41","新北市樹林區復興路200號","121.419811666667","24.9907533333333","6500700","樹林區"
"238023","601-UM","2017/07/22 19:29:31","桃園市龜山區萬壽路一段127號","121.4083","25.0186","6500700","樹林區"
"238019","599-UM","2017/07/22 19:29:21","新北市樹林區八德街3號","121.41787","24.9846116666667","6500700","樹林區"
"238018","571-TV","2017/07/22 19:29:43","新北市樹林區中華路126號","121.41754","24.9805033333333","6500700","樹林區"
"238024","5061-A6","2017/07/22 19:29:42","新北市樹林區福德街36-1號","121.400426666667","24.9753016666667","6500700","樹林區"
"238022","312-TH","2017/07/22 19:29:44","新北市樹林區名園街19號","121.419375","24.9793533333333","6500700","樹林區"
"238021","311-TH","2017/07/22 01:03:14","新北市樹林區中山路三段204號","121.386758333333","24.9681516666667","6500700","樹林區"
"238025","303-VK","2017/07/22 19:29:26","新北市樹林區中山路一段65號","121.42383","24.9920683333333","6500700","樹林區"
"238017","283-BY","2017/07/22 19:29:43","新北市樹林區光興街63巷5號","121.410885","25.00205","6500700","樹林區"
"238014","282-BY","2017/07/22 19:29:42","新北市樹林區保安二街40巷26號","121.425766666667","24.9950433333333","6500700","樹林區"
"238020","268-VK","2017/07/22 19:29:37","新北市樹林區俊英街133巷19號","121.423291666667","25.0109583333333","6500700","樹林區"
"238026","172-UY","2017/07/22 19:29:41","新北市樹林區佳園路二段133號","121.390195","24.95793","6500700","樹林區"
"238016","169-UY","2017/07/22 19:29:35","新北市樹林區復興路397-1號","121.41467","24.9849733333333","6500700","樹林區"
"239007","AAC-297","2017/07/22 19:29:45","新北市鶯歌區大湖路338巷15號","121.346775","24.9690416666667","6500800","鶯歌區"
"239006","891-R6","2017/07/22 19:29:37","新北市鶯歌區中正二路56號","121.350613333333","24.9515483333333","6500800","鶯歌區"
"239001","417-VK","2017/07/22 19:29:45","新北市鶯歌區國華路81號","121.343008333333","24.9543566666667","6500800","鶯歌區"
"239003","360-BY","2017/07/22 19:29:44","新北市鶯歌區國華路58號","121.342603333333","24.9549","6500800","鶯歌區"
"239002","359-BY","2017/07/22 19:29:35","新北市鶯歌區大湖路20號","121.342896666667","24.96103","6500800","鶯歌區"
"239004","193-VK","2017/07/22 19:29:33","新北市鶯歌區二甲路佳美巷24號","121.337455","24.933925","6500800","鶯歌區"
"221008","489-VK","2017/07/22 19:29:36","新北市汐止區康寧街227號","121.62306","25.0666333333333","6501100","汐止區"
"221036","130-UY","2017/07/22 19:29:38","新北市汐止區康寧街901號","121.651585","25.0749433333333","6501100","汐止區"
"221015","131-UY","2017/07/22 19:29:32","新北市汐止區汐萬路一段256巷1號","121.651783333333","25.0748533333333","6501100","汐止區"
"221010","269-BY","2017/07/22 19:29:37","新北市汐止區康寧街901號","121.651353333333","25.07497","6501100","汐止區"
"221031","277-VK","2017/07/22 19:29:30","新北市汐止區福德二路54巷6號","121.633725","25.067655","6501100","汐止區"
"221012","278-VK","2017/07/22 19:29:46","新北市汐止區大同路三段284號","121.677963333333","25.07104","6501100","汐止區"
"221023","279-VK","2017/07/22 19:24:57","新北市汐止區連峰街1巷5號","121.64585","25.076145","6501100","汐止區"
"221032","280-BY","2017/07/22 19:29:39","新北市汐止區康寧街901號","121.651466666667","25.0750516666667","6501100","汐止區"
"221027","281-BY","2017/07/22 19:29:29","新北市汐止區汐萬路一段2號","121.656266666667","25.0671916666667","6501100","汐止區"
"221038","297-VK","2017/07/22 19:29:31","新北市汐止區汐萬路一段312號","121.650411666667","25.0751366666667","6501100","汐止區"
"221029","298-VK","2017/07/22 19:29:42","新北市汐止區康寧街901號","121.651626666667","25.0749616666667","6501100","汐止區"
"221021","299-VK","2017/07/22 19:22:52","新北市汐止區康寧街901號","121.650831666667","25.0752916666667","6501100","汐止區"
"221025","623-UM","2017/07/22 19:29:43","新北市汐止區新台五路二段30號","121.660776666667","25.0653083333333","6501100","汐止區"
"221033","647-BX","2017/07/22 19:29:39","新北市汐止區南勢街1巷1號","121.627046666667","25.0374183333333","6501100","汐止區"
"221002","707-TV","2017/07/22 19:29:42","新北市汐止區中興路17號","121.63702","25.0594433333333","6501100","汐止區"
"221018","753-BX","2017/07/22 19:29:47","新北市汐止區康寧街901號","121.651485","25.0749616666667","6501100","汐止區"
"220079","145-BY","2017/07/22 19:29:41","新北市板橋區復興街30號","121.458123333333","25.0173983333333","6500100","板橋區"
"220080","200-UY","2017/07/22 19:29:32","新北市板橋區大觀路二段3巷32號","121.448265","25.0036166666667","6500100","板橋區"
"220082","610-BX","2017/07/22 19:29:41","新北市板橋區金門街346號","121.428041666667","24.9844933333333","6500100","板橋區"
"220101","245-BX","2017/07/22 16:43:19","新北市板橋區民生路二段120號","121.47056","25.019625","6500100","板橋區"
"220103","257-TC","2017/07/22 19:29:46","新北市板橋區文化路一段270巷3弄4號","121.467645","25.0208233333333","6500100","板橋區"
"220069","258-TC","2017/07/22 19:29:28","新北市板橋區華興街33號","121.458353333333","25.0045516666667","6500100","板橋區"
"220056","276-BY","2017/07/22 19:29:32","新北市板橋區信義路1巷26弄33號","121.458776666667","24.9966783333333","6500100","板橋區"
"220072","277-BY","2017/07/22 19:29:36","新北市板橋區金門街236號","121.430635","24.987365","6500100","板橋區"
"220071","283-VK","2017/07/22 19:29:41","新北市板橋區大豐街111號","121.461253333333","25.001155","6500100","板橋區"
"220094","285-UM","2017/07/22 19:29:20","新北市板橋區吳鳳路50號","121.4679","25.0304716666667","6500100","板橋區"
"220053","285-VK","2017/07/22 19:29:42","新北市板橋區富山街53巷1弄54號","121.47804","25.0205683333333","6500100","板橋區"
"220083","286-VK","2017/07/22 19:29:38","新北市板橋區龍興街95巷11號","121.443535","25.00256","6500100","板橋區"
"220081","287-VK","2017/07/22 19:29:31","新北市板橋區南雅西路一段10巷7弄15號","121.454075","25.0042866666667","6500100","板橋區"
"220090","288-VK","2017/07/22 19:29:32","新北市板橋區長江路一段106巷20弄11號","121.460138333333","25.028245","6500100","板橋區"
"220061","293-UM","2017/07/22 19:29:45","新北市板橋區成功路6巷3號","121.47574","25.0170233333333","6500100","板橋區"
"220084","296-UM","2017/07/22 19:29:34","新北市板橋區滿平街136巷8弄2號","121.427938333333","24.987295","6500100","板橋區"
"220075","297-UM","2017/07/22 19:29:45","新北市板橋區中正路325巷3弄27號","121.454171666667","25.0184416666667","6500100","板橋區"
"220062","303-R5","2017/07/22 19:29:27","新北市板橋區三民路二段183號","121.479128333333","25.014345","6500100","板橋區"
"220092","307-R5","2017/07/22 19:29:45","新北市板橋區光武街4巷7號","121.468156666667","25.025425","6500100","板橋區"
"220098","317-R6","2017/07/22 19:29:33","新北市板橋區民有街105號","121.464353333333","25.0281433333333","6500100","板橋區"
"220064","486-VK","2017/07/22 19:29:37","新北市板橋區中山路一段91號","121.461666666667","25.0100766666667","6500100","板橋區"
"220089","487-VK","2017/07/22 19:29:27","新北市板橋區文化路一段135號","121.462036666667","25.0150216666667","6500100","板橋區"
"220088","491-VK","2017/07/22 19:29:28","新北市板橋區雙十路二段44號","121.475803333333","25.0275033333333","6500100","板橋區"
"220035","560-BX","2017/07/22 19:29:33","新北市板橋區中正路362號","121.454566666667","25.0239366666667","6500100","板橋區"
"220063","609-BX","2017/07/22 19:29:32","新北市板橋區三民路一段31巷2-4號","121.481881666667","25.023225","6500100","板橋區"
"220091","637-BX","2017/07/22 19:29:31","新北市板橋區文聖街149巷25號","121.479578333333","25.0286333333333","6500100","板橋區"
"220057","686-BX","2017/07/22 19:29:44","新北市板橋區五權街61-4號","121.464818333333","24.9933966666667","6500100","板橋區"
"220077","687-BX","2017/07/22 19:29:41","新北市板橋區僑中二街102巷2號","121.44603","25.0082466666667","6500100","板橋區"
"220093","689-BX","2017/07/22 19:29:37","新北市板橋區雨農路32號","121.461316666667","25.0243716666667","6500100","板橋區"
"220054","741-BX","2017/07/22 19:29:28","新北市板橋區光明街86號","121.461848333333","25.0027666666667","6500100","板橋區"
"220055","827-TW","2017/07/22 19:29:35","新北市板橋區重慶路290巷14號","121.46265","24.9988166666667","6500100","板橋區"
"220067","829-TW","2017/07/22 19:29:43","新北市板橋區長安街138巷28號","121.473128333333","25.008895","6500100","板橋區"
"220102","830-TW","2017/07/22 19:29:31","新北市板橋區松柏街3號","121.473791666667","25.0296066666667","6500100","板橋區"
"220096","831-TW","2017/07/22 19:29:44","新北市板橋區大同街12號","121.477218333333","25.0268783333333","6500100","板橋區"
"220074","895-R6","2017/07/22 19:29:37","新北市板橋區中正路25巷13號","121.454833333333","25.0125566666667","6500100","板橋區"
"220073","985-R7","2017/07/22 19:29:31","新北市板橋區瑞安街46巷3號","121.455278333333","25.0222383333333","6500100","板橋區"
"220097","AAC-210","2017/07/22 19:29:33","新北市板橋區新海路135巷2號","121.460001666667","25.022925","6500100","板橋區"
"220070","AAC-253","2017/07/22 19:29:45","新北市板橋區忠孝路136號","121.463475","25.0023183333333","6500100","板橋區"
