"lineid","car","time","location","longitude","latitude","cityid","cityname"
"231059","046-UY","2017/07/22 21:09:23","新北市新店區僑義路11巷1號","121.500298333333","24.9516466666667","6500600","新店區"
"231061","047-UY","2017/07/22 21:09:23","新北市新店區永平街68號","121.516245","24.98512","6500600","新店區"
"231060","106-UY","2017/07/22 21:09:29","新北市新店區安康路三段26號","121.493173333333","24.9532416666667","6500600","新店區"
"231051","107-UY","2017/07/22 21:09:39","新北市新店區中正路663巷7弄15號","121.532873333333","24.99004","6500600","新店區"
"231048","110-UY","2017/07/22 21:09:29","新北市新店區文化路21巷2號","121.54327","24.9796716666667","6500600","新店區"
"231063","268-BY","2017/07/22 21:09:32","新北市新店區玫瑰路58巷2號","121.495381666667","24.9465866666667","6500600","新店區"
"231050","AAD-862","2017/07/22 21:09:38","新北市新店區三民路75巷1弄2號","121.535868333333","24.971225","6500600","新店區"
"231067","4772-VM","2017/07/22 21:09:32","新北市新店區安德街130巷10號","121.50821","24.9607616666667","6500600","新店區"
"231065","512-UM","2017/07/22 21:09:32","新北市新店區安祥路69巷41弄54號","121.482265","24.9612983333333","6500600","新店區"
"231054","513-UM","2017/07/22 21:09:29","新北市新店區中興路一段274號","121.545353333333","24.9682716666667","6500600","新店區"
"231040","619-UM","2017/07/22 21:09:42","新北市新店區北新路一段351號","121.54199","24.9693516666667","6500600","新店區"
"231042","641-BX","2017/07/22 21:09:36","新北市新店區寶興路60巷3號","121.549883333333","24.9717783333333","6500600","新店區"
"231062","720-UM","2017/07/22 21:09:36","新北市新店區雙城路45巷1號","121.492388333333","24.9483033333333","6500600","新店區"
"241011","013-R5","2017/07/22 21:09:36","新北市三重區龍濱路231號","121.501575","25.0721666666667","6500200","三重區"
"241028","022-UY","2017/07/22 21:09:44","新北市三重區正義南路60-1號","121.49829","25.0605666666667","6500200","三重區"
"241009","060-VK","2017/07/22 21:09:41","新北市三重區忠孝路二段122號","121.483063333333","25.0687316666667","6500200","三重區"
"241031","061-VK","2017/07/22 21:09:45","新北市三重區重新路五段416號","121.475455","25.0475666666667","6500200","三重區"
"241015","062-VK","2017/07/22 21:09:41","新北市三重區長元街57號","121.502488333333","25.066495","6500200","三重區"
"241017","063-VK","2017/07/22 21:09:41","新北市三重區國隆路31號","121.492356666667","25.0645016666667","6500200","三重區"
"241026","066-VK","2017/07/22 21:09:40","新北市三重區中央南路141巷32-2號","121.500456666667","25.0588683333333","6500200","三重區"
"241002","090-VK","2017/07/22 21:09:26","新北市三重區五華街11號","121.495016666667","25.0802983333333","6500200","三重區"
"241003","091-VK","2017/07/22 21:09:29","新北市三重區進安街198號","121.493975","25.08606","6500200","三重區"
"241001","265-UM","2017/07/22 21:09:44","新北市三重區福隆路44號","121.492318333333","25.0785366666667","6500200","三重區"
"241016","266-UM","2017/07/22 21:09:25","新北市三重區信義西街138號","121.495668333333","25.0644283333333","6500200","三重區"
"241022","267-UM","2017/07/22 21:09:39","新北市三重區中正北路64巷24號","121.486161666667","25.06373","6500200","三重區"
"241018","268-UM","2017/07/22 21:09:39","新北市三重區六張街39號","121.494298333333","25.0706","6500200","三重區"
"241032","269-UM","2017/07/22 21:09:30","新北市三重區忠孝路三段125號","121.479375","25.0615783333333","6500200","三重區"
"241013","270-UM","2017/07/22 21:09:26","新北市三重區仁愛街129巷3號","121.495741666667","25.0750116666667","6500200","三重區"
"241025","271-UM","2017/07/22 21:09:27","新北市三重區三民街151號","121.484226666667","25.0642366666667","6500200","三重區"
"241007","398-BY","2017/07/22 21:09:41","新北市三重區三和路四段145巷85號","121.48641","25.07873","6500200","三重區"
"241008","412-TH","2017/07/22 21:09:32","新北市三重區三和路三段8號","121.497183333333","25.070095","6500200","三重區"
"241020","413-TH","2017/07/22 21:09:29","新北市三重區忠孝路二段34號","121.485738333333","25.07095","6500200","三重區"
"241004","475-VK","2017/07/22 21:09:42","新北市三重區仁愛街420號","121.490371666667","25.08142","6500200","三重區"
"241019","478-VK","2017/07/22 21:09:31","新北市三重區自強路二段74巷19號","121.488028333333","25.0699166666667","6500200","三重區"
"241030","480-VK","2017/07/22 21:09:42","新北市三重區五谷王北街20巷15弄1號","121.475083333333","25.0484766666667","6500200","三重區"
"241014","543-UM","2017/07/22 21:09:38","新北市三重區三和路二段37-9號","121.501308333333","25.0676783333333","6500200","三重區"
"241023","545-UM","2017/07/22 21:09:31","新北市三重區忠孝路三段50巷41弄64號","121.482331666667","25.0637083333333","6500200","三重區"
"241006","AAD-863","2017/07/22 21:09:43","新北市三重區民生街92號","121.489601666667","25.063465","6500200","三重區"
"241005","887-TS","2017/07/22 21:09:34","新北市三重區三信路182號","121.488008333333","25.0861566666667","6500200","三重區"
"241012","941-UM","2017/07/22 21:09:43","新北市三重區河邊北街230號","121.50216","25.0753966666667","6500200","三重區"
"241029","942-UM","2017/07/22 21:09:28","新北市三重區正義南路107號","121.498211666667","25.058515","6500200","三重區"
"241033","AAC-255","2017/07/22 21:09:39","新北市三重區新北大道二段41號","121.470243333333","25.0612566666667","6500200","三重區"
"235072","301-VK","2017/07/22 21:09:38","新北市中和區員山路36巷12號","121.484005","24.990915","6500300","中和區"
"235026","800-TS","2017/07/22 21:09:26","新北市中和區員山路36巷16-2號","121.485241666667","24.991415","6500300","中和區"
"247020","893-R6","2017/07/22 21:09:36","新北市蘆洲區民族路436巷7號","121.472796666667","25.0928316666667","6501400","蘆洲區"
"247010","546-UM","2017/07/22 21:09:30","新北市蘆洲區鷺江街71號","121.47717","25.08309","6501400","蘆洲區"
"247018","500-BY","2017/07/22 21:09:28","新北市蘆洲區民族路408巷12號","121.474815","25.0919233333333","6501400","蘆洲區"
"247001","402-BY","2017/07/22 16:10:54","新北市五股區中興路三段3-6號","121.44957","25.078835","6501400","蘆洲區"
"247006","341-TH","2017/07/22 21:09:41","新北市蘆洲區永安南路二段16巷18號","121.467988333333","25.0777766666667","6501400","蘆洲區"
"247008","339-TH","2017/07/22 21:09:26","新北市蘆洲區民生街74號","121.47281","25.079075","6501400","蘆洲區"
"247024","337-TH","2017/07/22 21:09:41","新北市蘆洲區長興路50巷1號","121.463755","25.0838","6501400","蘆洲區"
"247002","336-TH","2017/07/22 21:09:29","新北市蘆洲區永平街22號","121.45905","25.09064","6501400","蘆洲區"
"247014","057-VK","2017/07/22 21:09:43","新北市蘆洲區復興路30-3號","121.472613333333","25.084815","6501400","蘆洲區"
"247004","056-VK","2017/07/22 21:09:41","新北市蘆洲區永安南路二段320號","121.457055","25.08268","6501400","蘆洲區"
"247012","007-UY","2017/07/22 21:09:34","新北市蘆洲區復興路58號","121.474015","25.08606","6501400","蘆洲區"
"247022","002-UY","2017/07/22 21:09:25","新北市蘆洲區中正路261號","121.46733","25.08735","6501400","蘆洲區"
"247016","001-UY","2017/07/22 21:09:26","新北市蘆洲區和平路138號","121.466843333333","25.08074","6501400","蘆洲區"
"224011","420-VK","2017/07/22 20:46:38","新北市瑞芳區明燈路二段66號","121.809376666667","25.1076216666667","6501200","瑞芳區"
"251009","008-UM","2017/07/22 21:09:44","新北市淡水區民族路112巷40號","121.461996666667","25.1343816666667","6501000","淡水區"
"251005","010-UM","2017/07/22 21:09:36","新北市淡水區博愛街61號","121.446936666667","25.1688283333333","6501000","淡水區"
"251002","012-UM","2017/07/22 21:09:26","新北市淡水區學府路88號","121.449015","25.17102","6501000","淡水區"
"251014","180-VK","2017/07/22 21:09:36","新北市淡水區六塊厝6-8號","121.450468333333","25.23973","6501000","淡水區"
"251010","413-VK","2017/07/22 21:09:33","新北市淡水區中正路一段63巷7弄2號","121.423058333333","25.1773","6501000","淡水區"
"251012","441-VK","2017/07/22 21:09:28","新北市淡水區淡金路五段83號","121.454863333333","25.2340266666667","6501000","淡水區"
"251016","442-VK","2017/07/22 21:09:37","新北市淡水區牛埔子1-5號","121.446716666667","25.2195616666667","6501000","淡水區"
"251001","559-UM","2017/07/22 21:09:41","新北市淡水區新市一路三段101巷16弄3號","121.446521666667","25.1839366666667","6501000","淡水區"
"251007","577-R6","2017/07/22 21:09:30","新北市淡水區水源街二段194號","121.457","25.1761166666667","6501000","淡水區"
"251011","650-BX","2017/07/22 21:09:28","新北市淡水區新民街120巷45弄24號","121.437726666667","25.17974","6501000","淡水區"
"251003","673-BX","2017/07/22 21:09:30","新北市淡水區新春街97號","121.439823333333","25.1824966666667","6501000","淡水區"
"252007","AAC-283","2017/07/22 10:47:43","新北市三芝區埔坪里埔頭坑41號","121.504508333333","25.2644216666667","6502100","三芝區"
"236002","339-SR","2017/07/22 10:24:34","新北市土城區永平街51號","121.42768","24.959185","6501300","土城區"
"242034","133-UY","2017/07/22 21:09:31","新北市樹林區八德街247巷24-3號","121.420036666667","24.9733366666667","6500500","新莊區"
"221036","130-UY","2017/07/22 21:09:37","新北市汐止區汐萬路一段256巷1號","121.651848333333","25.074805","6501100","汐止區"
"221023","279-VK","2017/07/22 20:38:37","新北市汐止區民族二街30巷1號","121.635001666667","25.07179","6501100","汐止區"
"221018","753-BX","2017/07/22 21:09:47","新北市汐止區汐萬路一段256巷1號","121.651918333333","25.0747266666667","6501100","汐止區"
"220070","AAC-253","2017/07/22 21:09:45","新北市林口區太平里180號","121.368316666667","25.134655","6500100","板橋區"
