"lineid","car","time","location","longitude","latitude","cityid","cityname"
"224010","AGQ-8101","2017/06/11 13:13:42","新北市瑞芳區明燈路二段46號","121.809475","25.1081766666667","6501200","瑞芳區"
"251013","179-VK","2017/06/11 17:39:36","新北市淡水區演戲埔腳2-5號","121.474166666667","25.1925633333333","6501000","淡水區"
"251014","180-VK","2017/06/11 17:39:24","新北市淡水區公埔子16-6號","121.481021666667","25.2245933333333","6501000","淡水區"
"251015","182-VK","2017/06/11 17:39:40","新北市淡水區三空泉21號","121.468965","25.166735","6501000","淡水區"
"251016","442-VK","2017/06/11 17:39:40","新北市淡水區埤島39-15號","121.452816666667","25.19588","6501000","淡水區"
