"lineid","car","time","location","longitude","latitude","cityid","cityname"
"224011","AGQ-8101","2017/06/11 18:35:29","新北市瑞芳區街頂巷21號","121.84447","25.107575","6501200","瑞芳區"
"251013","179-VK","2017/06/11 18:39:16","新北市淡水區雲廣坑7-1號","121.475348333333","25.2131583333333","6501000","淡水區"
"251014","180-VK","2017/06/11 18:39:24","新北市淡水區崙頂12-8號","121.49493","25.2175566666667","6501000","淡水區"
"251015","182-VK","2017/06/11 18:39:39","新北市淡水區樹林口58號","121.484756666667","25.1630683333333","6501000","淡水區"
"251016","442-VK","2017/06/11 18:39:22","新北市淡水區下圭柔山72號","121.445633333333","25.2048783333333","6501000","淡水區"
