"lineid","car","time","location","longitude","latitude","cityid","cityname"
"235001","783-BX","2017/06/11 19:19:26","新北市中和區員山路36巷16-2號","121.485448333333","24.9910683333333","6500300","中和區"
"224011","AGQ-8101","2017/06/11 19:12:50","新北市瑞芳區金光路334號","121.848333333333","25.1096216666667","6501200","瑞芳區"
"251013","179-VK","2017/06/11 19:19:36","新北市淡水區安子內12號","121.481485","25.21905","6501000","淡水區"
"251014","180-VK","2017/06/11 19:16:08","新北市淡水區小中寮19-7號","121.484753333333","25.2296383333333","6501000","淡水區"
"251015","182-VK","2017/06/11 19:19:19","新北市淡水區白石腳7-6號","121.485398333333","25.1747616666667","6501000","淡水區"
"251016","442-VK","2017/06/11 19:19:20","新北市淡水區淡金路三段350巷18號","121.450785","25.2083633333333","6501000","淡水區"
