"lineid","car","time","location","longitude","latitude","cityid","cityname"
"235001","783-BX","2017/06/11 19:29:26","新北市中和區中正路462號","121.490193333333","24.99429","6500300","中和區"
"224011","AGQ-8101","2017/06/11 19:29:22","新北市瑞芳區基山街125號","121.844131666667","25.1085033333333","6501200","瑞芳區"
"251013","179-VK","2017/06/11 19:29:36","新北市淡水區大牛稠5號","121.469928333333","25.21956","6501000","淡水區"
"251014","180-VK","2017/06/11 19:16:08","新北市淡水區小中寮19-7號","121.484753333333","25.2296383333333","6501000","淡水區"
"251015","182-VK","2017/06/11 19:29:39","新北市淡水區南勢埔20號","121.481696666667","25.1790166666667","6501000","淡水區"
"251016","442-VK","2017/06/11 19:29:20","新北市淡水區淡金路三段350巷18號","121.45079","25.2083866666667","6501000","淡水區"
