"lineid","car","time","location","longitude","latitude","cityid","cityname"
"248005","653-BX","2017/06/12 07:29:24","新北市五股區明德路12巷3號","121.43324","25.0717166666667","6501500","五股區"
"232005","290-BY","2017/06/12 07:29:21","新北市坪林區魚堀33-9號","121.697966666667","24.9257016666667","6502000","坪林區"
"232001","291-BY","2017/06/12 07:29:25","新北市坪林區上坑子口22號","121.702058333333","24.952265","6502000","坪林區"
"232010","375-UM","2017/06/12 07:29:23","新北市坪林區水聳淒坑14號","121.723038333333","24.926915","6502000","坪林區"
"232012","705-BZ","2017/06/12 07:29:29","新北市坪林區金瓜寮3-1號","121.68086","24.9182583333333","6502000","坪林區"
"232017","758-BX","2017/06/12 07:29:20","新北市坪林區大舌湖9號","121.734556666667","24.9753116666667","6502000","坪林區"
"244001","248-BX","2017/06/12 07:29:23","新北市林口區頂福73號","121.341393333333","25.0930166666667","6501700","林口區"
"243002","548-UM","2017/06/12 07:29:20","新北市泰山區明志路一段95號","121.433515","25.0639716666667","6501600","泰山區"
"222005","289-BY","2017/06/12 07:29:36","新北市深坑區文化街39巷13號","121.619165","25.00112","6501800","深坑區"
"247002","402-BY","2017/06/12 07:29:26","新北市蘆洲區忠孝路96號","121.471406666667","25.0858966666667","6501400","蘆洲區"
"226005","5620-A6","2017/06/12 07:29:37","新北市平溪區嶺腳里中華街38號","121.739141666667","25.0252583333333","6502400","平溪區"
"226001","8452-VL","2017/06/12 07:22:46","新北市平溪區望古里灰4號","121.76283","25.0300183333333","6502400","平溪區"
"226003","AGD-0702","2017/06/12 07:29:34","新北市平溪區靜安路二段441號","121.740028333333","25.0251016666667","6502400","平溪區"
"223006","022-BY","2017/06/12 07:29:32","新北市石碇區番子坑24-1號","121.678081666667","25.001785","6501900","石碇區"
"223002","198-BX","2017/06/12 07:29:37","新北市石碇區碇格路二段8號","121.645221666667","24.9575483333333","6501900","石碇區"
"223003","205-TH","2017/06/12 07:29:30","新北市石碇區中楒子腳4號","121.6413","24.9706366666667","6501900","石碇區"
"223008","406-TH","2017/06/12 07:29:34","新北市石碇區番子坑22-5號","121.677386666667","25.0003","6501900","石碇區"
"223001","592-UM","2017/06/12 07:29:24","新北市石碇區中楒子腳4號","121.641375","24.970645","6501900","石碇區"
"223004","660-BX","2017/06/12 07:29:24","新北市石碇區楓子林30號","121.642286666667","25.00953","6501900","石碇區"
"223007","661-BX","2017/06/12 07:29:39","新北市石碇區蚯蚓坑19-5號","121.686345","25.0010633333333","6501900","石碇區"
"227005","282-VK","2017/06/12 07:29:24","新北市雙溪區新基里自強路7號","121.866278333333","25.0390916666667","6502500","雙溪區"
"252006","073-UM","2017/06/12 07:29:36","新北市三芝區古庄里四棧橋18-3號","121.490021666667","25.2608483333333","6502100","三芝區"
"252004","249-BX","2017/06/12 07:29:36","新北市三芝區興華里楓子林53-5號","121.501848333333","25.212185","6502100","三芝區"
"237001","159-UY","2017/06/12 07:29:34","新北市三峽區大義路380號","121.376676666667","24.94827","6500900","三峽區"
"236007","165-UM","2017/06/12 07:29:24","新北市土城區延壽路2巷5號","121.47185","24.990395","6501300","土城區"
"236001","339-SR","2017/06/12 07:29:22","新北市土城區南天母路111巷1-1號","121.44823","24.954955","6501300","土城區"
"242020","AAC-296","2017/06/12 04:14:24","新北市新莊區新泰路357巷3弄57號","121.442145","25.0393966666667","6500500","新莊區"
"242047","751-BX","2017/06/12 07:29:36","新北市新莊區新泰路357巷3弄57號","121.442095","25.0390833333333","6500500","新莊區"
"242057","705-TV","2017/06/12 07:29:24","新北市新莊區三和路12-12號","121.442265","25.037015","6500500","新莊區"
"242024","615-BX","2017/06/12 07:29:37","新北市新莊區新泰路255巷83號","121.442311666667","25.0387583333333","6500500","新莊區"
"242022","613-BX","2017/06/12 07:29:24","新北市新莊區新泰路357巷3弄57號","121.442218333333","25.0393433333333","6500500","新莊區"
"242026","612-BX","2017/06/12 07:29:36","新北市新莊區新泰路357巷3弄57號","121.44204","25.0395533333333","6500500","新莊區"
"242035","566-BX","2017/06/12 07:29:18","新北市新莊區新泰路357巷3弄57號","121.442016666667","25.0392516666667","6500500","新莊區"
"242040","497-BY","2017/06/12 07:29:32","新北市新莊區新泰路357巷3弄41號","121.442151666667","25.04031","6500500","新莊區"
"242003","442-UM","2017/06/12 07:29:31","新北市新莊區三和路12-21號","121.441858333333","25.0388","6500500","新莊區"
"242045","441-UM","2017/06/12 04:19:44","新北市新莊區三和路12-21號","121.441988333333","25.0383383333333","6500500","新莊區"
"242033","413-TV","2017/06/12 07:29:37","新北市新莊區新泰路357巷3弄57號","121.442083333333","25.03959","6500500","新莊區"
"242038","400-BY","2017/06/12 07:29:20","新北市新莊區新泰路357巷3弄57號","121.442051666667","25.0395666666667","6500500","新莊區"
"242059","362-BY","2017/06/12 07:29:21","新北市新莊區三和路12-21號","121.442225","25.0384066666667","6500500","新莊區"
"242010","132-UY","2017/06/12 07:29:26","新北市新莊區三和路12-21號","121.442063333333","25.0387583333333","6500500","新莊區"
"242043","172-VK","2017/06/12 07:29:28","新北市新莊區三和路12-21號","121.441946666667","25.0385283333333","6500500","新莊區"
"242012","175-VK","2017/06/12 07:29:30","新北市新莊區三和路12-21號","121.441988333333","25.0385916666667","6500500","新莊區"
"242030","346-TH","2017/06/12 07:29:31","新北市新莊區新泰路357巷3弄57號","121.441805","25.0392666666667","6500500","新莊區"
"242016","348-TH","2017/06/12 07:29:25","新北市新莊區新泰路357巷3弄57號","121.442083333333","25.039415","6500500","新莊區"
"242014","350-TH","2017/06/12 07:29:38","新北市新莊區三和路12-21號","121.442001666667","25.0387233333333","6500500","新莊區"
"242008","351-TH","2017/06/12 04:18:26","新北市新莊區新泰路357巷3弄57號","121.442","25.039465","6500500","新莊區"
