"lineid","car","time","location","longitude","latitude","cityid","cityname"
"248005","653-BX","2017/06/12 07:39:24","新北市五股區明德路12巷1號","121.433265","25.07171","6501500","五股區"
"232005","290-BY","2017/06/12 07:39:21","新北市坪林區魚堀49號","121.701513333333","24.9300916666667","6502000","坪林區"
"232001","291-BY","2017/06/12 07:39:25","新北市坪林區下坑子口6-15號","121.711446666667","24.943375","6502000","坪林區"
"232010","375-UM","2017/06/12 07:39:23","新北市坪林區苦苓腳1-1號","121.71413","24.93611","6502000","坪林區"
"232012","705-BZ","2017/06/12 07:39:29","新北市坪林區金瓜寮13-1號","121.681743333333","24.9160233333333","6502000","坪林區"
"232017","758-BX","2017/06/12 07:36:20","新北市坪林區乾溪2-1號","121.740578333333","24.97592","6502000","坪林區"
"244001","248-BX","2017/06/12 07:39:23","新北市林口區頂福里8鄰70-2號","121.331198333333","25.1002433333333","6501700","林口區"
"244018","403-UM","2017/06/12 07:39:34","新北市林口區粉寮69號","121.40502","25.090815","6501700","林口區"
"243002","548-UM","2017/06/12 07:39:20","新北市泰山區明志路一段95號","121.433543333333","25.0639783333333","6501600","泰山區"
"222005","289-BY","2017/06/12 07:39:36","新北市深坑區文化街39巷1號","121.619108333333","25.0011733333333","6501800","深坑區"
"247002","402-BY","2017/06/12 07:39:26","新北市蘆洲區三民路101號","121.472395","25.085395","6501400","蘆洲區"
"226005","5620-A6","2017/06/12 07:39:37","新北市平溪區嶺腳里嶺腳寮27號","121.747886666667","25.0301866666667","6502400","平溪區"
"226001","8452-VL","2017/06/12 07:39:26","新北市平溪區南山里南山坪96號","121.778791666667","25.0399016666667","6502400","平溪區"
"226003","AGD-0702","2017/06/12 07:39:27","新北市平溪區嶺腳里嶺腳寮27號","121.747911666667","25.0301916666667","6502400","平溪區"
"223006","022-BY","2017/06/12 07:39:32","新北市石碇區蚯蚓坑22-1號","121.688138333333","25.0072866666667","6501900","石碇區"
"223002","198-BX","2017/06/12 07:39:37","新北市石碇區北宜路五段55號","121.631955","24.951845","6501900","石碇區"
"223003","205-TH","2017/06/12 07:39:30","新北市石碇區中楒子腳4號","121.641418333333","24.9713916666667","6501900","石碇區"
"223008","406-TH","2017/06/12 07:39:34","新北市石碇區藤寮坑5-1號","121.700911666667","25.0109583333333","6501900","石碇區"
"223001","592-UM","2017/06/12 07:39:24","新北市石碇區內楒仔腳4-1號","121.641886666667","24.9707283333333","6501900","石碇區"
"223004","660-BX","2017/06/12 07:39:24","新北市石碇區楓子林61號","121.644935","25.010755","6501900","石碇區"
"223007","661-BX","2017/06/12 07:39:19","新北市石碇區靜安路一段296號","121.691736666667","25.0060883333333","6501900","石碇區"
"227005","282-VK","2017/06/12 07:39:24","新北市雙溪區雙溪里太平路54號","121.864791666667","25.0354866666667","6502500","雙溪區"
"252006","073-UM","2017/06/12 07:39:36","新北市三芝區古庄里茂興店78號","121.49037","25.2665316666667","6502100","三芝區"
"252004","249-BX","2017/06/12 07:39:36","新北市三芝區店子里菜公坑77-1號","121.511066666667","25.20615","6502100","三芝區"
"237001","159-UY","2017/06/12 07:39:34","新北市三峽區國慶路144號","121.37574","24.9396716666667","6500900","三峽區"
"236007","165-UM","2017/06/12 07:39:24","新北市土城區金城路三段67號","121.46611","24.9869816666667","6501300","土城區"
"236001","339-SR","2017/06/12 07:39:22","新北市土城區南天母路18-3號","121.448108333333","24.9528466666667","6501300","土城區"
"242020","AAC-296","2017/06/12 04:14:24","新北市新莊區新泰路357巷3弄57號","121.442145","25.0393966666667","6500500","新莊區"
"242028","986-R7","2017/06/12 07:39:30","新北市新莊區新泰路357巷3弄1號","121.442476666667","25.0414583333333","6500500","新莊區"
"242047","751-BX","2017/06/12 07:39:36","新北市新莊區中正路400號","121.441836666667","25.0343933333333","6500500","新莊區"
"242057","705-TV","2017/06/12 07:39:24","新北市新莊區三和路12-13號","121.442233333333","25.037135","6500500","新莊區"
"242024","615-BX","2017/06/12 07:39:37","新北市新莊區新泰路255巷83號","121.442296666667","25.0388283333333","6500500","新莊區"
"242022","613-BX","2017/06/12 07:39:24","新北市新莊區新泰路255巷83號","121.442105","25.0390683333333","6500500","新莊區"
"242026","612-BX","2017/06/12 07:39:36","新北市新莊區新泰路357巷3弄57號","121.442078333333","25.039475","6500500","新莊區"
"242035","566-BX","2017/06/12 07:39:38","新北市新莊區三和路12-21號","121.442223333333","25.0385683333333","6500500","新莊區"
"242040","497-BY","2017/06/12 07:39:32","新北市新莊區新泰路357巷1弄57號","121.442583333333","25.0395683333333","6500500","新莊區"
"242003","442-UM","2017/06/12 07:39:31","新北市新莊區三和路18-23號","121.441843333333","25.038895","6500500","新莊區"
"242045","441-UM","2017/06/12 07:39:34","新北市新莊區三和路12-21號","121.441893333333","25.0382333333333","6500500","新莊區"
"242049","440-UM","2017/06/12 07:39:30","新北市新莊區三和路12-21號","121.441883333333","25.0384066666667","6500500","新莊區"
"242033","413-TV","2017/06/12 07:39:37","新北市新莊區三和路12-14號","121.441831666667","25.0372683333333","6500500","新莊區"
"242038","400-BY","2017/06/12 07:39:20","新北市新莊區新泰路357巷3弄57號","121.442326666667","25.0396266666667","6500500","新莊區"
"242059","362-BY","2017/06/12 07:39:21","新北市新莊區三和路12-21號","121.442365","25.0382233333333","6500500","新莊區"
"242010","132-UY","2017/06/12 07:39:26","新北市新莊區新泰路357巷3弄57號","121.441923333333","25.038955","6500500","新莊區"
"242018","135-UY","2017/06/12 07:39:18","新北市新莊區三和路18-25號","121.441356666667","25.039245","6500500","新莊區"
"242043","172-VK","2017/06/12 07:39:28","新北市新莊區福營路94號","121.436801666667","25.03301","6500500","新莊區"
"242006","173-VK","2017/06/12 00:41:47","新北市新莊區三和路12-21號","121.442046666667","25.0386516666667","6500500","新莊區"
"242012","175-VK","2017/06/12 07:39:30","新北市新莊區三和路12-21號","121.44203","25.0385566666667","6500500","新莊區"
"242055","176-VK","2017/06/12 07:39:37","新北市新莊區三和路12-21號","121.442","25.0384316666667","6500500","新莊區"
"242030","346-TH","2017/06/12 07:39:31","新北市新莊區三和路18-23號","121.441751666667","25.0388783333333","6500500","新莊區"
"242001","347-TH","2017/06/12 07:39:33","新北市新莊區三和路12-21號","121.442015","25.0379166666667","6500500","新莊區"
"242016","348-TH","2017/06/12 07:39:24","新北市新莊區新泰路357巷3弄57號","121.442245","25.0395416666667","6500500","新莊區"
"242052","349-TH","2017/06/12 02:43:19","新北市新莊區三和路12-19號","121.442406666667","25.0377566666667","6500500","新莊區"
"242014","350-TH","2017/06/12 07:39:38","新北市新莊區三和路12-11號","121.442005","25.0369983333333","6500500","新莊區"
"242008","351-TH","2017/06/12 04:18:26","新北市新莊區新泰路357巷3弄57號","121.442","25.039465","6500500","新莊區"
