"lineid","car","time","location","longitude","latitude","cityid","cityname"
"224011","AGQ-8101","2017/08/06 18:09:23","新北市瑞芳區明燈路一段178號","121.818506666667","25.1083716666667","6501200","瑞芳區"
"224011","201-TW","2017/08/06 18:09:52","新北市瑞芳區汽車路11號","121.846025","25.1104683333333","6501200","瑞芳區"
"251013","179-VK","2017/08/06 18:09:56","新北市淡水區桂花樹4-3號","121.47631","25.1957016666667","6501000","淡水區"
"251014","180-VK","2017/08/06 18:09:49","新北市淡水區南平15號","121.487901666667","25.219765","6501000","淡水區"
"251015","182-VK","2017/08/06 18:09:45","新北市淡水區興福寮88巷1號","121.485576666667","25.1650533333333","6501000","淡水區"
"251016","442-VK","2017/08/06 18:09:48","新北市淡水區下圭柔山13號","121.451293333333","25.200885","6501000","淡水區"
"237008","760-BX","2017/08/06 17:52:57","新北市三峽區中山路12號","121.369573333333","24.9344316666667","6500900","三峽區"
