"lineid","car","time","location","longitude","latitude","cityid","cityname"
"224011","AGQ-8101","2017/08/06 18:19:43","新北市瑞芳區汽車路7-1號","121.847458333333","25.11067","6501200","瑞芳區"
"224011","201-TW","2017/08/06 18:18:12","新北市瑞芳區崙頂路3-1號","121.84714","25.1045416666667","6501200","瑞芳區"
"251013","179-VK","2017/08/06 18:19:57","新北市淡水區行忠路790號","121.473611666667","25.19965","6501000","淡水區"
"251014","180-VK","2017/08/06 18:19:49","新北市淡水區南平16號","121.489078333333","25.2214","6501000","淡水區"
"251015","182-VK","2017/08/06 18:19:45","新北市淡水區興福寮88巷1號","121.485603333333","25.16507","6501000","淡水區"
"251016","442-VK","2017/08/06 18:19:48","新北市淡水區淡金路三段228巷20號","121.449576666667","25.2049416666667","6501000","淡水區"
"237008","760-BX","2017/08/06 18:19:59","新北市三峽區中山路61號","121.367458333333","24.9348283333333","6500900","三峽區"
