"lineid","car","time","location","longitude","latitude","cityid","cityname"
"224011","AGQ-8101","2017/08/06 19:19:42","新北市瑞芳區輕便路95號","121.84489","25.10882","6501200","瑞芳區"
"224011","201-TW","2017/08/06 18:34:12","新北市瑞芳區崙頂路1-6號","121.847036666667","25.1047083333333","6501200","瑞芳區"
"251013","179-VK","2017/08/06 19:19:56","新北市淡水區安子內12號","121.480875","25.2194766666667","6501000","淡水區"
"251014","180-VK","2017/08/06 19:19:50","新北市淡水區小中寮19-7號","121.484783333333","25.2296116666667","6501000","淡水區"
"251015","182-VK","2017/08/06 19:19:57","新北市淡水區山子邊16巷4號","121.485611666667","25.182245","6501000","淡水區"
"251016","442-VK","2017/08/06 19:19:48","新北市淡水區淡金路三段350巷18號","121.450805","25.2083883333333","6501000","淡水區"
"237008","760-BX","2017/08/06 18:39:04","新北市三峽區中山路459巷163-3號","121.348905","24.933075","6500900","三峽區"
