"lineid","car","time","location","longitude","latitude","cityid","cityname"
"224011","201-TW","2017/08/06 18:34:12","新北市瑞芳區崙頂路1-6號","121.847036666667","25.1047083333333","6501200","瑞芳區"
"251013","179-VK","2017/08/06 19:39:56","新北市淡水區頂田寮路232號","121.462385","25.21573","6501000","淡水區"
"251014","180-VK","2017/08/06 19:39:49","新北市淡水區桂竹圍4-2號","121.474451666667","25.2317316666667","6501000","淡水區"
"251015","182-VK","2017/08/06 19:39:57","新北市淡水區大埤頭1號","121.492756666667","25.194655","6501000","淡水區"
"251016","442-VK","2017/08/06 19:39:48","新北市淡水區下圭柔山119-51號","121.450795","25.208425","6501000","淡水區"
"237008","760-BX","2017/08/06 18:39:04","新北市三峽區中山路459巷163-3號","121.348905","24.933075","6500900","三峽區"
