"lineid","car","time","location","longitude","latitude","cityid","cityname"
"224011","201-TW","2017/08/06 18:34:12","新北市瑞芳區崙頂路1-6號","121.847036666667","25.1047083333333","6501200","瑞芳區"
"251013","179-VK","2017/08/06 19:59:56","新北市淡水區淡金路三段333號","121.448885","25.2064","6501000","淡水區"
"251014","180-VK","2017/08/06 19:59:49","新北市淡水區石頭厝12-1號","121.461095","25.2360933333333","6501000","淡水區"
"251015","182-VK","2017/08/06 19:59:45","新北市淡水區北新路三段82號","121.485738333333","25.1879916666667","6501000","淡水區"
"251016","442-VK","2017/08/06 19:59:48","新北市淡水區番子田16-13號","121.45374","25.2315866666667","6501000","淡水區"
"237008","760-BX","2017/08/06 18:39:04","新北市三峽區中山路459巷163-3號","121.348905","24.933075","6500900","三峽區"
