"lineid","car","time","location","longitude","latitude","cityid","cityname"
"224011","201-TW","2017/08/06 18:34:12","新北市瑞芳區崙頂路1-6號","121.847036666667","25.1047083333333","6501200","瑞芳區"
"251013","179-VK","2017/08/06 20:09:59","新北市淡水區奎柔山路752巷1號","121.472546666667","25.20546","6501000","淡水區"
"251014","180-VK","2017/08/06 20:09:49","新北市淡水區石頭厝1號","121.458733333333","25.2355483333333","6501000","淡水區"
"251015","182-VK","2017/08/06 20:09:45","新北市淡水區埤島80-7號","121.44907","25.1891783333333","6501000","淡水區"
"251016","442-VK","2017/08/06 20:09:48","新北市淡水區番子田18-1號","121.45672","25.2294366666667","6501000","淡水區"
"237008","760-BX","2017/08/06 18:39:04","新北市三峽區中山路459巷163-3號","121.348905","24.933075","6500900","三峽區"
