"lineid","car","time","location","longitude","latitude","cityid","cityname"
"224011","201-TW","2017/08/06 20:39:35","新北市瑞芳區明燈路二段66號","121.809391666667","25.1075783333333","6501200","瑞芳區"
"251013","179-VK","2017/08/06 20:49:56","新北市淡水區行忠路118號","121.45285","25.198955","6501000","淡水區"
"251014","180-VK","2017/08/06 20:49:49","新北市淡水區公埔子36號","121.461833333333","25.2323566666667","6501000","淡水區"
"251016","442-VK","2017/08/06 20:49:48","新北市淡水區淡金路四段231號","121.451761666667","25.222585","6501000","淡水區"
"237008","760-BX","2017/08/06 18:39:04","新北市三峽區中山路459巷163-3號","121.348905","24.933075","6500900","三峽區"
