"lineid","car","time","location","longitude","latitude","cityid","cityname"
"235023","911-UM","2017/08/06 20:53:07","新北市中和區員山路36巷16-2號","121.485248333333","24.9918133333333","6500300","中和區"
"224011","201-TW","2017/08/06 21:19:50","新北市瑞芳區明燈路二段66號","121.809411666667","25.1075683333333","6501200","瑞芳區"
"251013","179-VK","2017/08/06 21:19:56","新北市淡水區行忠路330號","121.46055","25.199775","6501000","淡水區"
"251014","180-VK","2017/08/06 21:19:49","新北市淡水區六塊厝3-2號","121.450483333333","25.2406233333333","6501000","淡水區"
"251015","182-VK","2017/08/06 21:19:45","新北市淡水區淡金路四段542巷83弄12號","121.45612","25.226965","6501000","淡水區"
"251016","442-VK","2017/08/06 21:19:48","新北市淡水區前洲子11號","121.44112","25.2193083333333","6501000","淡水區"
"237008","760-BX","2017/08/06 18:39:04","新北市三峽區中山路459巷163-3號","121.348905","24.933075","6500900","三峽區"
