"lineid","car","time","location","longitude","latitude","cityid","cityname"
"248005","653-BX","2017/06/08 09:09:35","新北市五股區水碓路3-1號","121.43382","25.07221","6501500","五股區"
"244006","080-UY","2017/06/08 09:09:31","新北市林口區林口路113巷47號","121.387958333333","25.0798783333333","6501700","林口區"
"244003","248-BX","2017/06/08 09:09:33","新北市林口區嘉寶里89-1號","121.333193333333","25.1218616666667","6501700","林口區"
"244018","403-UM","2017/06/08 09:09:28","新北市林口區文化一路一段22巷13號","121.370986666667","25.0679883333333","6501700","林口區"
"244012","742-UY","2017/06/08 09:09:24","新北市林口區中山路262-1號","121.384843333333","25.0799416666667","6501700","林口區"
"244008","410-SL","2017/06/08 09:09:36","新北市林口區文化二路二段369號","121.381245","25.086605","6501700","林口區"
"244022","483-VK","2017/06/08 09:09:21","新北市林口區仁愛路二段69號","121.38519","25.0758033333333","6501700","林口區"
"244016","485-VK","2017/06/08 09:09:28","新北市林口區文化二路一段68巷18-2號","121.366253333333","25.0678183333333","6501700","林口區"
"244010","701-TV","2017/06/08 09:09:34","新北市林口區粉寮路一段7號","121.396243333333","25.0760916666667","6501700","林口區"
"244024","837-TS","2017/06/08 09:09:25","新北市林口區文化三路一段555巷81號","121.368396666667","25.0772466666667","6501700","林口區"
"243003","549-UM","2017/06/08 09:09:29","新北市泰山區黎明路25號","121.421911666667","25.060915","6501600","泰山區"
"222006","289-BY","2017/06/08 09:09:24","新北市深坑區土庫尖路60-1號","121.638166666667","25.01728","6501800","深坑區"
"231008","192-VK","2017/06/08 09:09:20","新北市新店區廣興路30-1號","121.540201666667","24.9118583333333","6500600","新店區"
"235001","783-BX","2017/06/08 09:09:36","新北市鶯歌區鶯桃路38號","121.342035","24.9528033333333","6500300","中和區"
"247002","402-BY","2017/06/08 09:09:31","新北市蘆洲區復興路139號","121.477911666667","25.0886833333333","6501400","蘆洲區"
"226002","7418-A5","2017/06/08 09:09:25","新北市平溪區東勢里芊蓁坑29號","121.73055","24.97888","6502400","平溪區"
"223002","198-BX","2017/06/08 08:49:45","新北市石碇區溪邊寮2-2號","121.657658333333","24.9761166666667","6501900","石碇區"
"223003","205-TH","2017/06/08 09:09:39","新北市石碇區北宜路五段坑內巷4號","121.635268333333","24.9527766666667","6501900","石碇區"
"223008","406-TH","2017/06/08 09:09:24","新北市石碇區光明路13號","121.680083333333","25.0336266666667","6501900","石碇區"
"223001","437-BY","2017/06/08 09:09:34","新北市石碇區北宜路五段52號","121.632173333333","24.95203","6501900","石碇區"
"223004","660-BX","2017/06/08 09:09:30","新北市石碇區碇坪路二段65號","121.685436666667","24.96599","6501900","石碇區"
"223007","661-BX","2017/06/08 09:09:30","新北市石碇區碇南路二段鹿窟巷19號","121.66681","25.0322433333333","6501900","石碇區"
"223005","677-TV","2017/06/08 09:09:36","新北市石碇區碇坪路二段65號","121.685463333333","24.9658966666667","6501900","石碇區"
"253003","6232-TK","2017/06/08 09:09:24","新北市石門區尖子鹿50號","121.580151666667","25.2735783333333","6502200","石門區"
"253001","6251-TK","2017/06/08 09:09:36","新北市石門區下員坑50號","121.518525","25.2733116666667","6502200","石門區"
"253002","637-UY","2017/06/08 09:09:27","新北市石門區七股20-3號","121.550205","25.270305","6502200","石門區"
"252004","249-BX","2017/06/08 09:09:28","新北市三芝區興華里田心子32號","121.48935","25.2001233333333","6502100","三芝區"
"252007","AAC-283","2017/06/08 00:22:10","新北市三芝區埔坪里埔頭坑41號","121.504455","25.26445","6502100","三芝區"
"237001","159-UY","2017/06/08 09:09:38","新北市三峽區學府路100號","121.373881666667","24.94874","6500900","三峽區"
"236009","165-UM","2017/06/08 09:09:37","新北市土城區金城路二段46巷18-6號","121.452386666667","24.9772566666667","6501300","土城區"
"236003","339-SR","2017/06/08 09:09:19","新北市土城區慶安街57號","121.440851666667","24.9730033333333","6501300","土城區"
"236005","498-BY","2017/06/08 09:09:37","新北市土城區中央路三段126巷1弄2號","121.434618333333","24.9666466666667","6501300","土城區"
"242020","AAC-296","2017/06/08 09:09:20","新北市新莊區中興街13號","121.449208333333","25.036195","6500500","新莊區"
"242028","986-R7","2017/06/08 09:09:34","新北市新莊區中華路二段151號","121.452845","25.05142","6500500","新莊區"
"242047","751-BX","2017/06/08 09:09:21","新北市新莊區四維路152巷42號","121.42173","25.0219616666667","6500500","新莊區"
"242057","705-TV","2017/06/08 09:09:25","新北市新莊區八德街148巷2號","121.423553333333","25.0202","6500500","新莊區"
"242024","615-BX","2017/06/08 09:09:32","新北市新莊區五工三路70巷32號","121.460183333333","25.0658033333333","6500500","新莊區"
"242022","613-BX","2017/06/08 09:09:31","新北市新莊區化成路744號","121.465541666667","25.05744","6500500","新莊區"
"242026","612-BX","2017/06/08 09:09:25","新北市新莊區幸福路556號","121.454721666667","25.04937","6500500","新莊區"
"242035","566-BX","2017/06/08 09:09:39","新北市新莊區後港一路130巷37號","121.429966666667","25.0259816666667","6500500","新莊區"
"242040","497-BY","2017/06/08 09:09:40","新北市新莊區中正路694巷96號","121.417168333333","25.0296416666667","6500500","新莊區"
"242003","442-UM","2017/06/08 09:09:38","新北市新莊區化成路330號","121.465801666667","25.0488533333333","6500500","新莊區"
"242045","441-UM","2017/06/08 09:09:34","新北市新莊區裕民街132號","121.417771666667","25.0221183333333","6500500","新莊區"
"242030","415-TV","2017/06/08 09:09:28","新北市新莊區忠孝街29巷35號","121.44358","25.0368966666667","6500500","新莊區"
"242001","413-TV","2017/06/08 09:09:41","新北市新莊區中正路55-3號","121.461965","25.0398633333333","6500500","新莊區"
"242038","400-BY","2017/06/08 09:09:42","新北市新莊區民安西路23號","121.427105","25.0212333333333","6500500","新莊區"
"242059","362-BY","2017/06/08 09:09:32","新北市新莊區瓊林路96-4號","121.44394","25.02724","6500500","新莊區"
"242010","132-UY","2017/06/08 09:09:27","新北市新莊區中信街49號","121.449733333333","25.0506966666667","6500500","新莊區"
"242033","133-UY","2017/06/08 09:09:28","新北市新莊區華興街34號","121.446005","25.0358733333333","6500500","新莊區"
"242018","135-UY","2017/06/08 09:09:34","新北市新莊區民樂街93號","121.457785","25.0435883333333","6500500","新莊區"
"242043","172-VK","2017/06/08 09:09:24","新北市新莊區中正路923號","121.410705","25.0212366666667","6500500","新莊區"
"242006","173-VK","2017/06/08 09:09:28","新北市新莊區福壽街124巷34弄15號","121.459348333333","25.05069","6500500","新莊區"
"242012","175-VK","2017/06/08 09:09:35","新北市新莊區中平路270巷31號","121.446576666667","25.0503366666667","6500500","新莊區"
"242055","176-VK","2017/06/08 09:09:39","新北市新莊區新莊路649巷7號","121.445096666667","25.0321783333333","6500500","新莊區"
"242049","346-TH","2017/06/08 09:09:36","新北市新莊區民安西路175號","121.426301666667","25.0159383333333","6500500","新莊區"
"242016","348-TH","2017/06/08 09:09:23","新北市新莊區中港三街7號","121.451166666667","25.0464033333333","6500500","新莊區"
"242052","349-TH","2017/06/08 09:09:34","新北市新莊區民安西路261巷8號","121.426696666667","25.0130866666667","6500500","新莊區"
"242014","350-TH","2017/06/08 09:09:31","新北市新莊區中平路36巷23號","121.445761666667","25.0435833333333","6500500","新莊區"
