"lineid","car","time","location","longitude","latitude","cityid","cityname"
"244018","403-UM","2017/06/08 10:47:28","新北市林口區太平里180號","121.36845","25.1344083333333","6501700","林口區"
"222006","289-BY","2017/06/08 10:49:24","新北市深坑區公館後10號","121.602115","24.9924866666667","6501800","深坑區"
"231008","192-VK","2017/06/08 10:47:16","新北市新店區小坑一路71號","121.531258333333","24.90846","6500600","新店區"
"247002","402-BY","2017/06/08 10:22:54","新北市五股區中興路三段3-6號","121.449688333333","25.0788016666667","6501400","蘆洲區"
"253001","6251-TK","2017/06/08 10:49:26","新北市石門區小坑9號","121.594438333333","25.2891583333333","6502200","石門區"
"252007","AAC-283","2017/06/08 00:22:10","新北市三芝區埔坪里埔頭坑41號","121.504455","25.26445","6502100","三芝區"
