"lineid","car","time","location","longitude","latitude","cityid","cityname"
"234044","148-BY","2017/06/08 13:29:34","新北市永和區秀朗路二段86號","121.523403333333","25.00166","6500400","永和區"
"234012","149-BY","2017/06/08 13:29:27","新北市永和區保福路二段2號","121.511336666667","25.0106683333333","6500400","永和區"
"234005","207-UY","2017/06/08 13:29:19","新北市永和區中山路一段240號","121.507595","25.0076633333333","6500400","永和區"
"234078","298-R6","2017/06/08 13:29:32","新北市永和區福和路7巷7號","121.52534","25.00779","6500400","永和區"
"234036","336-UY","2017/06/08 13:29:33","新北市永和區成功路一段127號","121.526868333333","25.0018366666667","6500400","永和區"
"234062","337-UY","2017/06/08 13:29:37","新北市永和區秀朗路二段24巷25弄34號","121.52024","25.0015233333333","6500400","永和區"
"234084","338-UY","2017/06/08 13:29:30","新北市永和區林森路107號","121.522945","25.0034","6500400","永和區"
"234068","552-UM","2017/06/08 13:29:33","新北市永和區竹林路102號","121.519618333333","25.0119683333333","6500400","永和區"
"234052","553-UM","2017/06/08 13:29:39","新北市永和區竹林路27號","121.517476666667","25.0146633333333","6500400","永和區"
"234015","745-BX","2017/06/08 13:29:34","新北市永和區環河西路一段87號","121.512315","25.0179416666667","6500400","永和區"
"234028","746-BX","2017/06/08 13:29:21","新北市永和區民生路61號","121.522693333333","24.99745","6500400","永和區"
"234060","AAD-866","2017/06/08 13:29:38","新北市永和區中正路568號","121.51715","25.00619","6500400","永和區"
"234040","862-TW","2017/06/08 13:29:34","新北市永和區水源街39巷5號","121.510446666667","25.0040766666667","6500400","永和區"
"234048","863-TW","2017/06/08 13:29:36","新北市永和區仁愛路104巷7弄1號","121.511955","25.0139783333333","6500400","永和區"
"234025","9371-KE","2017/06/08 13:29:33","新北市永和區中山路一段17巷4弄12號","121.513203333333","25.0102433333333","6500400","永和區"
"234010","9373-KE","2017/06/08 13:29:30","新北市永和區仁愛路141巷9號","121.511678333333","25.0118833333333","6500400","永和區"
"248013","025-BX","2017/06/08 13:29:26","新北市五股區成泰路一段205號","121.43517","25.0769566666667","6501500","五股區"
"248005","077-UY","2017/06/08 13:29:36","新北市五股區四維路25號","121.467185","25.0707866666667","6501500","五股區"
"248007","095-VK","2017/06/08 13:29:24","新北市五股區四維路185巷46號","121.463438333333","25.077665","6501500","五股區"
"248017","225-UY","2017/06/08 13:29:30","新北市五股區御史路277-1號","121.42059","25.106175","6501500","五股區"
"248011","247-BX","2017/06/05 21:10:54","新北市五股區中興路二段83巷26-6號","121.459251666667","25.0754066666667","6501500","五股區"
"248015","261-SL","2017/06/08 13:29:22","新北市五股區凌雲路一段133巷11號","121.449313333333","25.1016183333333","6501500","五股區"
"248009","272-BY","2017/06/08 13:29:27","新北市五股區自強路85號","121.432545","25.071855","6501500","五股區"
"248001","678-BX","2017/06/08 13:29:40","新北市五股區西雲路172號","121.44697","25.0948566666667","6501500","五股區"
"234022","9380-KE","2017/06/08 13:29:29","新北市永和區竹林路91巷38號","121.52102","25.01257","6500400","永和區"
"234076","969-R7","2017/06/08 13:29:36","新北市永和區智光街22號","121.518036666667","24.99929","6500400","永和區"
"234072","AAC-211","2017/06/08 13:29:34","新北市永和區永和路二段100號","121.515166666667","25.0118916666667","6500400","永和區"
"234066","AAC-212","2017/06/08 13:29:31","新北市永和區保平路50巷23號","121.510555","25.0080083333333","6500400","永和區"
"234001","AAC-295","2017/06/08 13:27:14","新北市永和區保福路一段57號","121.512656666667","25.0095133333333","6500400","永和區"
"244003","248-BX","2017/06/08 13:28:13","新北市林口區瑞樹坑53-1號","121.342043333333","25.1234266666667","6501700","林口區"
"243005","AAD-798","2017/06/08 13:29:23","新北市泰山區明志路三段206巷3號","121.423316666667","25.0379516666667","6501600","泰山區"
"243007","380-SR","2017/06/08 12:09:21","新北市泰山區黎明路25號","121.422076666667","25.0606516666667","6501600","泰山區"
"243008","539-UM","2017/06/08 13:28:55","新北市泰山區犁頭窠3-1號","121.421996666667","25.060555","6501600","泰山區"
"231002","002-UM","2017/06/08 13:29:21","新北市新店區環河路64號","121.537045","24.9627366666667","6500600","新店區"
"231025","0291-UT","2017/06/08 13:29:29","新北市新店區中央路135號","121.530351666667","24.9738066666667","6500600","新店區"
"231028","046-UY","2017/06/08 13:29:27","新北市新店區安和路一段6-6號","121.517308333333","24.96547","6500600","新店區"
"231030","047-UY","2017/06/08 13:29:28","新北市新店區安康路一段351-1號","121.519296666667","24.9639216666667","6500600","新店區"
"231029","106-UY","2017/06/08 13:29:24","新北市新店區車子路10-4號","121.505016666667","24.9545633333333","6500600","新店區"
"231018","107-UY","2017/06/08 13:29:28","新北市新店區中央路135號","121.530343333333","24.9738216666667","6500600","新店區"
"231011","108-UY","2017/06/08 13:29:24","新北市新店區北新路二段80號","121.542976666667","24.9727333333333","6500600","新店區"
"231021","187-VK","2017/06/08 13:29:33","新北市新店區新烏路一段159號","121.544933333333","24.9350983333333","6500600","新店區"
"231007","189-VK","2017/06/08 12:01:24","新北市新店區安華路28-1號","121.519721666667","24.9610833333333","6500600","新店區"
"231008","192-VK","2017/06/08 13:29:38","新北市新店區新烏路一段58-2號","121.54589","24.946545","6500600","新店區"
"231026","256-BX","2017/06/08 13:29:30","新北市新店區光明街17號","121.538195","24.9595033333333","6500600","新店區"
"231034","268-BY","2017/06/08 13:29:19","新北市新店區車子路109號","121.505238333333","24.9521383333333","6500600","新店區"
"231010","278-BY","2017/06/08 13:29:32","新北市新店區自由街2-1號","121.535648333333","24.97556","6500600","新店區"
"231017","AAD-862","2017/06/08 13:29:33","新北市新店區北宜路二段30巷5弄2號","121.54807","24.9508333333333","6500600","新店區"
"231027","3712-VJ","2017/06/08 13:29:37","新北市新店區國校路22號","121.537751666667","24.9548216666667","6500600","新店區"
"231024","3713-VJ","2017/06/08 13:29:22","新北市新店區北新路二段59巷5號","121.542251666667","24.9730516666667","6500600","新店區"
"231037","4715-K9","2017/06/08 13:29:33","新北市新店區薏仁坑路53-1號","121.491228333333","24.9636833333333","6500600","新店區"
"231036","512-UM","2017/06/08 13:29:25","新北市新店區安祥路190巷47號","121.476936666667","24.95574","6500600","新店區"
"231023","513-UM","2017/06/08 13:29:36","新北市新店區新店路13號","121.54032","24.9528816666667","6500600","新店區"
"231035","515-UM","2017/06/08 13:29:37","新北市新店區安華路28-1號","121.519666666667","24.961345","6500600","新店區"
"231006","617-UM","2017/06/08 13:29:24","新北市新店區安康路一段355-3號","121.519766666667","24.9619116666667","6500600","新店區"
"231001","619-UM","2017/06/08 13:29:35","新北市新店區安康路一段24巷4號","121.532528333333","24.9604533333333","6500600","新店區"
"231003","641-BX","2017/06/08 13:29:36","新北市新店區中正路71號","121.543568333333","24.9697633333333","6500600","新店區"
"231013","719-UM","2017/06/08 13:29:32","新北市新店區中正路454-5號","121.534475","24.9790716666667","6500600","新店區"
"231031","720-UM","2017/06/08 13:29:29","新北市新店區安忠路57巷11弄2號","121.514095","24.95749","6500600","新店區"
"231005","897-TW","2017/06/08 13:29:23","新北市新店區安康路一段107-2號","121.528756666667","24.96167","6500600","新店區"
"231004","899-TW","2017/06/08 13:29:17","新北市新店區安康路一段98號","121.527525","24.96232","6500600","新店區"
"231038","AKT-0513","2017/06/08 13:29:24","新北市新店區安華路28-1號","121.519488333333","24.9606283333333","6500600","新店區"
"235030","003-UY","2017/06/08 13:29:35","新北市中和區中山路二段119號","121.502811666667","25.0036483333333","6500300","中和區"
"235028","005-UY","2017/06/08 13:29:28","新北市中和區圓通路145巷9弄3號","121.498653333333","24.9947383333333","6500300","中和區"
"235027","006-UY","2017/06/08 13:29:20","新北市中和區中正路545號","121.487401666667","24.9943283333333","6500300","中和區"
"235020","096-UM","2017/06/08 13:29:21","新北市中和區中山路二段594號","121.48229","25.00542","6500300","中和區"
"235003","097-UM","2017/06/08 13:29:36","新北市中和區景平路235號","121.510136666667","24.9927966666667","6500300","中和區"
"235029","098-UM","2017/06/08 13:29:30","新北市中和區莊敬路49巷18號","121.501608333333","25.00602","6500300","中和區"
"235004","150-BY","2017/06/08 13:29:27","新北市中和區保健路50巷66號","121.509223333333","24.995205","6500300","中和區"
"235022","151-BY","2017/06/08 13:29:29","新北市中和區圓通路369巷156弄33號","121.489196666667","24.98197","6500300","中和區"
"235019","183-VK","2017/06/08 13:29:28","新北市中和區民享街283號","121.471188333333","24.9960333333333","6500300","中和區"
"235002","185-VK","2017/06/08 13:29:24","新北市中和區秀朗路三段128巷17弄4號","121.524301666667","24.9935483333333","6500300","中和區"
"235013","186-VK","2017/06/08 13:29:36","新北市中和區景安路175-2號","121.50518","24.9941733333333","6500300","中和區"
"235031","255-BX","2017/06/08 13:29:34","新北市中和區員山路148巷46號","121.482586666667","24.99713","6500300","中和區"
"235036","301-VK","2017/06/08 13:29:29","新北市中和區連城路265巷1號","121.491466666667","24.9963683333333","6500300","中和區"
"235007","352-BY","2017/06/08 13:29:22","新北市中和區景平路321號","121.505978333333","24.9933133333333","6500300","中和區"
"235015","376-QA","2017/06/08 13:29:28","新北市中和區興南路二段242巷21號","121.50245","24.9830083333333","6500300","中和區"
"235032","377-QA","2017/06/08 13:29:35","新北市中和區圓通路230號","121.495056666667","24.992795","6500300","中和區"
"235025","378-QA","2017/06/08 13:29:27","新北市中和區民享街97巷9號","121.475286666667","24.9992883333333","6500300","中和區"
"235014","4979-A6","2017/06/08 13:29:21","新北市中和區景新街418巷35號","121.51238","24.9883216666667","6500300","中和區"
"235033","4980-A6","2017/06/08 13:29:26","新北市中和區連城路109巷31號","121.49689","24.998545","6500300","中和區"
"235006","551-UM","2017/06/08 13:29:30","新北市中和區景平路64巷26號","121.52237","24.991555","6500300","中和區"
"235034","558-UM","2017/06/08 13:29:19","新北市中和區圓通路123號","121.499303333333","24.9960933333333","6500300","中和區"
"235009","565-BX","2017/06/08 13:29:34","新北市中和區景安路212號","121.503948333333","24.990685","6500300","中和區"
"235018","640-BX","2017/06/08 13:29:35","新北市中和區民享街117巷2號","121.47452","24.9989433333333","6500300","中和區"
"235024","647-TV","2017/06/08 13:29:18","新北市中和區員山路168號","121.481375","24.99978","6500300","中和區"
"235011","732-UM","2017/06/08 13:29:23","新北市中和區南山路519號","121.507946666667","24.9874","6500300","中和區"
"235010","733-UM","2017/06/08 13:29:26","新北市中和區中正路545巷1號","121.487598333333","24.9935533333333","6500300","中和區"
"235035","783-BX","2017/06/08 13:29:35","新北市中和區環中路126號","121.481896666667","25.0126583333333","6500300","中和區"
"235026","800-TS","2017/06/08 13:29:27","新北市中和區景平路762號","121.496358333333","25.0048616666667","6500300","中和區"
"235021","801-TS","2017/06/08 13:29:28","新北市中和區民安街111巷4弄3號","121.476278333333","24.9989983333333","6500300","中和區"
"235005","802-TS","2017/06/08 13:29:29","新北市中和區中和路324巷6弄2號","121.50973","25.000545","6500300","中和區"
"235016","805-TS","2017/06/08 13:29:37","新北市中和區興南路二段96號","121.504956666667","24.98411","6500300","中和區"
"235012","896-TW","2017/06/08 13:29:32","新北市中和區中正路169號","121.49815","24.993565","6500300","中和區"
"235017","900-TW","2017/06/08 13:29:20","新北市中和區連城路607號","121.478223333333","24.9931066666667","6500300","中和區"
"235001","AAC-213","2017/06/08 13:29:28","新北市中和區景平路73號","121.518863333333","24.9915416666667","6500300","中和區"
"235023","AAC-215","2017/06/08 13:29:22","新北市中和區員山路36巷16-3號","121.485093333333","24.9912633333333","6500300","中和區"
"220016","013-TV","2017/06/08 13:29:27","新北市板橋區民生路二段36-1號","121.472548333333","25.0165616666667","6500100","板橋區"
"220013","072-UY","2017/06/08 13:29:30","新北市板橋區民生路二段22號","121.472708333333","25.0166033333333","6500100","板橋區"
"220034","073-UY","2017/06/08 13:29:38","新北市板橋區華東街1-8號","121.447568333333","24.9950133333333","6500100","板橋區"
"247009","546-UM","2017/06/08 13:29:32","新北市五股區中興路三段2巷10號","121.44874","25.081535","6501400","蘆洲區"
"247002","402-BY","2017/06/08 13:29:32","新北市蘆洲區民權路5號","121.476486666667","25.0857666666667","6501400","蘆洲區"
"247013","057-VK","2017/06/08 13:29:28","新北市五股區中興路三段163號","121.44937","25.0807","6501400","蘆洲區"
"247015","001-UY","2017/06/08 13:29:23","新北市五股區中興路三段2巷10號","121.448783333333","25.081765","6501400","蘆洲區"
"228004","212-TW","2017/06/08 13:28:36","新北市貢寮區龍崗里石壁坑街17號","121.910366666667","24.98951","6502600","貢寮區"
"228005","828-UM","2017/06/08 13:28:54","新北市貢寮區美豐里文秀坑8號","121.90261","25.0504483333333","6502600","貢寮區"
"208004","AAC-292","2017/06/08 13:29:24","新北市金山區南勢湖66號","121.616171666667","25.2148283333333","6502700","金山區"
"207002","749-BX","2017/06/08 13:29:34","新北市萬里區崁腳里崁腳路166號","121.645176666667","25.1560616666667","6502800","萬里區"
"207001","681-TV","2017/06/08 13:27:42","新北市萬里區龜吼里海景路1號","121.683618333333","25.1911966666667","6502800","萬里區"
"252005","073-UM","2017/06/08 13:29:35","新北市三芝區福德里土地公埔66號","121.517318333333","25.22683","6502100","三芝區"
"252007","AAC-283","2017/06/08 00:22:10","新北市三芝區埔坪里埔頭坑41號","121.504455","25.26445","6502100","三芝區"
"236052","AAC-216","2017/06/08 13:29:28","新北市土城區城林路6巷80號","121.438353333333","24.9797833333333","6501300","土城區"
"242043","172-VK","2017/06/08 13:29:38","新北市新莊區中華路二段45巷7號","121.452925","25.0464616666667","6500500","新莊區"
"221032","280-BY","2017/06/08 13:29:26","新北市汐止區水源路一段56號","121.657436666667","25.06555","6501100","汐止區"
"221002","281-BY","2017/06/08 13:29:32","新北市汐止區汐平路一段111巷2號","121.684703333333","25.069425","6501100","汐止區"
"221021","299-VK","2017/06/08 13:29:31","新北市汐止區福德一路351巷10號","121.629308333333","25.0611566666667","6501100","汐止區"
"221002","753-BX","2017/06/08 13:29:23","新北市汐止區福德一路430巷11號","121.62588","25.0602883333333","6501100","汐止區"
"220027","145-BY","2017/06/08 13:29:29","新北市板橋區華東街1-9號","121.44826","24.994895","6500100","板橋區"
"220001","285-VK","2017/06/08 13:29:31","新北市板橋區民生路二段36-1號","121.472608333333","25.0166383333333","6500100","板橋區"
"220029","287-VK","2017/06/08 13:29:27","新北市板橋區華東街1-10號","121.448261666667","24.9950416666667","6500100","板橋區"
"220009","293-UM","2017/06/08 13:29:22","新北市板橋區民生路二段16號","121.472913333333","25.0164716666667","6500100","板橋區"
"220004","303-R5","2017/06/08 13:29:36","新北市板橋區中山路二段7號","121.472033333333","25.0148966666667","6500100","板橋區"
"220028","461-BY","2017/06/08 13:29:40","新北市板橋區華東街1-9號","121.448268333333","24.9948916666667","6500100","板橋區"
"220011","609-BX","2017/06/08 00:43:12","新北市板橋區民生路二段17號","121.472508333333","25.0165083333333","6500100","板橋區"
"220025","687-BX","2017/06/08 13:29:32","新北市板橋區華東街1-10號","121.448458333333","24.99514","6500100","板橋區"
"220002","741-BX","2017/06/08 13:29:23","新北市板橋區民生路二段56-1號","121.472436666667","25.0170766666667","6500100","板橋區"
"220030","806-UM","2017/06/08 13:29:34","新北市樹林區樹新路106巷1號","121.43006","24.9977783333333","6500100","板橋區"
"220022","895-R6","2017/06/08 13:29:25","新北市板橋區南雅南路一段121號","121.455205","25.0046533333333","6500100","板橋區"
