"lineid","car","time","location","longitude","latitude","cityid","cityname"
"234044","148-BY","2017/06/08 14:09:34","新北市永和區成功路一段20號","121.527006666667","25.0050916666667","6500400","永和區"
"234012","149-BY","2017/06/08 14:09:27","新北市永和區永貞路403號","121.507681666667","25.00901","6500400","永和區"
"234005","207-UY","2017/06/08 14:09:19","新北市中和區中和路262號","121.5083","24.99942","6500400","永和區"
"234078","298-R6","2017/06/08 14:09:32","新北市永和區林森路112巷12弄2號","121.522486666667","25.0043733333333","6500400","永和區"
"234036","336-UY","2017/06/08 14:09:33","新北市永和區成功路一段74號","121.526745","25.003425","6500400","永和區"
"234062","337-UY","2017/06/08 14:09:37","新北市永和區永元路107號","121.5226","25.0024016666667","6500400","永和區"
"234084","338-UY","2017/06/08 14:09:30","新北市永和區福和路131號","121.521415","25.007625","6500400","永和區"
"234068","552-UM","2017/06/08 14:09:33","新北市永和區永亨路33號","121.519748333333","25.006285","6500400","永和區"
"234052","553-UM","2017/06/08 14:09:39","新北市永和區環河東路一段122號","121.520668333333","25.0157066666667","6500400","永和區"
"234015","745-BX","2017/06/08 14:09:34","新北市永和區文化路28號","121.515131666667","25.015105","6500400","永和區"
"234028","746-BX","2017/06/08 14:09:29","新北市永和區民權路49巷5弄33號","121.521655","24.9978883333333","6500400","永和區"
"234060","AAD-866","2017/06/08 14:09:18","新北市永和區中正路129巷2號","121.515935","24.9979083333333","6500400","永和區"
"234040","862-TW","2017/06/08 14:09:29","新北市永和區雙和街3號","121.509773333333","25.0016983333333","6500400","永和區"
"234048","863-TW","2017/06/08 14:09:36","新北市永和區永平路281號","121.505976666667","25.0134383333333","6500400","永和區"
"234025","9371-KE","2017/06/08 14:09:33","新北市永和區安樂路272巷11號","121.514938333333","25.0044016666667","6500400","永和區"
"234010","9373-KE","2017/06/08 14:09:30","新北市永和區環河西路二段241號","121.500643333333","25.00925","6500400","永和區"
"248017","225-UY","2017/06/08 14:09:30","新北市五股區民義路一段220巷16-18號","121.428456666667","25.09373","6501500","五股區"
"248011","247-BX","2017/06/05 21:10:54","新北市五股區中興路二段83巷26-6號","121.459251666667","25.0754066666667","6501500","五股區"
"248015","261-SL","2017/06/08 14:09:22","新北市五股區成泰路三段543巷62號","121.449385","25.103255","6501500","五股區"
"248009","272-BY","2017/06/08 14:09:27","新北市五股區水碓一路23號","121.430583333333","25.07133","6501500","五股區"
"248001","678-BX","2017/06/08 14:09:40","新北市五股區成泰路三段577巷49號","121.450725","25.103215","6501500","五股區"
"234022","9380-KE","2017/06/08 14:09:26","新北市永和區光復街2巷16弄37號","121.518321666667","25.0163083333333","6500400","永和區"
"234076","969-R7","2017/06/08 14:09:23","新北市永和區民有街75巷10弄8號","121.5187","24.996095","6500400","永和區"
"234072","AAC-211","2017/06/08 14:09:34","新北市永和區竹林路201巷10號","121.521423333333","25.00922","6500400","永和區"
"234066","AAC-212","2017/06/08 14:09:31","新北市永和區永貞路362號","121.510345","25.006695","6500400","永和區"
"234001","AAC-295","2017/06/08 14:07:14","新北市永和區中正路730號","121.515535","25.0101166666667","6500400","永和區"
"244003","248-BX","2017/06/08 14:09:33","新北市林口區寶林路23號","121.386181666667","25.0839516666667","6501700","林口區"
"243005","AAD-798","2017/06/08 14:09:22","新北市泰山區台麗街16巷12號","121.424316666667","25.037645","6501600","泰山區"
"243001","297-R6","2017/06/08 14:09:24","新北市泰山區文化街18號","121.434568333333","25.063565","6501600","泰山區"
"243007","380-SR","2017/06/08 14:09:30","新北市泰山區明志路一段429號","121.430951666667","25.056605","6501600","泰山區"
"243006","421-VK","2017/06/08 14:09:30","新北市泰山區泰林路二段385巷1號","121.427683333333","25.0641883333333","6501600","泰山區"
"243008","539-UM","2017/06/08 14:08:59","新北市泰山區貴子路2號","121.425053333333","25.0419983333333","6501600","泰山區"
"243002","548-UM","2017/06/08 14:09:29","新北市泰山區明志路一段458巷11號","121.430015","25.0558283333333","6501600","泰山區"
"243003","549-UM","2017/06/08 14:09:29","新北市泰山區明志路二段358號","121.425428333333","25.045285","6501600","泰山區"
"243004","646-TV","2017/06/08 14:09:30","新北市泰山區辭修路36巷8弄1號","121.427853333333","25.0584566666667","6501600","泰山區"
"231002","002-UM","2017/06/08 14:09:41","新北市新店區中正路552號","121.533615","24.9868583333333","6500600","新店區"
"231025","0291-UT","2017/06/08 14:09:29","新北市新店區中正路312巷19號","121.53803","24.9752816666667","6500600","新店區"
"231028","046-UY","2017/06/08 14:09:27","新北市新店區安業街4號","121.51564","24.9788916666667","6500600","新店區"
"231030","047-UY","2017/06/08 14:09:28","新北市新店區薏仁坑路自強巷1號","121.497758333333","24.9576883333333","6500600","新店區"
"231029","106-UY","2017/06/08 14:09:24","新北市新店區安康路二段99號","121.512965","24.96265","6500600","新店區"
"231018","107-UY","2017/06/08 14:09:28","新北市新店區中央路95巷6號","121.531568333333","24.9749316666667","6500600","新店區"
"231011","108-UY","2017/06/08 14:09:24","新北市新店區五峰路157號","121.544931666667","24.9656366666667","6500600","新店區"
"231021","187-VK","2017/06/08 14:09:33","新北市新店區新烏路二段132號","121.549593333333","24.9198966666667","6500600","新店區"
"231007","189-VK","2017/06/08 12:01:24","新北市新店區安華路28-1號","121.519721666667","24.9610833333333","6500600","新店區"
"231034","268-BY","2017/06/08 14:09:39","新北市新店區黎明路3號","121.503568333333","24.9524583333333","6500600","新店區"
"231017","AAD-862","2017/06/08 14:09:33","新北市新店區北宜路二段363號","121.558935","24.9543483333333","6500600","新店區"
"231027","3712-VJ","2017/06/08 14:09:37","新北市新店區中興路一段24號","121.538688333333","24.9584583333333","6500600","新店區"
"231024","3713-VJ","2017/06/08 14:09:22","新北市新店區溪園路369號","121.523","24.980155","6500600","新店區"
"231037","4715-K9","2017/06/08 14:09:33","新北市新店區安康路三段170號","121.4897","24.9518183333333","6500600","新店區"
"231036","512-UM","2017/06/08 14:09:24","新北市新店區安祥路109巷55號","121.476956666667","24.9598366666667","6500600","新店區"
"231023","513-UM","2017/06/08 14:09:36","新北市新店區北宜路一段47號","121.538371666667","24.9570816666667","6500600","新店區"
"231035","515-UM","2017/06/08 14:09:37","新北市新店區安和路二段1-1號","121.517826666667","24.9667383333333","6500600","新店區"
"231006","617-UM","2017/06/08 14:09:24","新北市新店區北宜路二段126號","121.556783333333","24.953895","6500600","新店區"
"231001","619-UM","2017/06/08 14:09:35","新北市新店區中華路68號","121.539191666667","24.969105","6500600","新店區"
"231003","641-BX","2017/06/08 14:09:36","新北市新店區光明街138巷13弄3號","121.540445","24.961195","6500600","新店區"
"231013","719-UM","2017/06/08 14:09:32","新北市新店區二十張路1巷3弄3號","121.540645","24.98214","6500600","新店區"
"231031","720-UM","2017/06/08 14:09:29","新北市新店區碧潭路18號","121.534551666667","24.9562533333333","6500600","新店區"
"231005","897-TW","2017/06/08 14:09:23","新北市新店區中興路三段304號","121.542361666667","24.98527","6500600","新店區"
"231004","899-TW","2017/06/08 14:09:37","新北市新店區北新路二段205號","121.54242","24.9785033333333","6500600","新店區"
"231038","AKT-0513","2017/06/08 14:09:24","新北市新店區溪洲路121號","121.531355","24.96279","6500600","新店區"
"235030","003-UY","2017/06/08 14:09:35","新北市中和區廣福路12-5號","121.505308333333","25.0027383333333","6500300","中和區"
"235028","005-UY","2017/06/08 14:09:20","新北市中和區泰和街30巷36號","121.498731666667","25.001635","6500300","中和區"
"235027","006-UY","2017/06/08 14:09:40","新北市中和區連城路367號","121.487435","24.996205","6500300","中和區"
"235020","096-UM","2017/06/08 14:09:21","新北市中和區員山路568號","121.47883","25.0108316666667","6500300","中和區"
"235003","097-UM","2017/06/08 14:09:36","新北市中和區自立路64號","121.52382","24.9913883333333","6500300","中和區"
"235029","098-UM","2017/06/08 14:09:30","新北市中和區中山路二段136巷3弄4號","121.50147","25.0036283333333","6500300","中和區"
"235004","150-BY","2017/06/08 14:09:27","新北市中和區保健路67巷3弄3號","121.509748333333","24.9974433333333","6500300","中和區"
"235022","151-BY","2017/06/08 14:09:29","新北市中和區員山路114號","121.481083333333","24.9957333333333","6500300","中和區"
"235019","183-VK","2017/06/08 14:09:27","新北市中和區德光路94號","121.468681666667","25.0034733333333","6500300","中和區"
"235002","185-VK","2017/06/08 14:09:24","新北市中和區立人街24-4號","121.518913333333","24.99419","6500300","中和區"
"235013","186-VK","2017/06/08 14:09:20","新北市中和區明仁街1號","121.50579","24.995625","6500300","中和區"
"235031","255-BX","2017/06/08 14:09:34","新北市中和區新生街168號","121.483681666667","25.0001933333333","6500300","中和區"
"235008","293-VK","2017/06/08 14:09:34","新北市中和區復興路280巷33弄3號","121.501453333333","24.9915083333333","6500300","中和區"
"235036","301-VK","2017/06/08 14:09:29","新北市中和區中山路二段191號","121.50015","25.0027616666667","6500300","中和區"
"235007","352-BY","2017/06/08 14:09:29","新北市中和區景平路8號","121.524098333333","24.9906183333333","6500300","中和區"
"235015","376-QA","2017/06/08 14:09:28","新北市中和區興南路一段105巷20弄3號","121.509893333333","24.9859833333333","6500300","中和區"
"235032","377-QA","2017/06/08 14:09:35","新北市中和區圓通路162巷37弄1號","121.496253333333","24.9954683333333","6500300","中和區"
"235025","378-QA","2017/06/08 14:09:27","新北市中和區員山路266巷9號","121.48177","25.001855","6500300","中和區"
"235014","4979-A6","2017/06/08 14:09:21","新北市中和區景安路208巷31號","121.502288333333","24.99223","6500300","中和區"
"235033","4980-A6","2017/06/08 14:09:26","新北市中和區中和路217巷1弄9號","121.503771666667","25.0003533333333","6500300","中和區"
"235006","551-UM","2017/06/08 14:09:30","新北市中和區立人街1號","121.521933333333","24.9939516666667","6500300","中和區"
"235034","558-UM","2017/06/08 14:09:39","新北市中和區安和路189號","121.506115","24.9982766666667","6500300","中和區"
"235009","565-BX","2017/06/08 14:09:34","新北市中和區景新街467巷38弄2號","121.514508333333","24.988585","6500300","中和區"
"235018","640-BX","2017/06/08 14:09:35","新北市中和區民享街29號","121.474031666667","25.004375","6500300","中和區"
"235024","647-TV","2017/06/08 14:09:18","新北市中和區民享街66號","121.47415","25.0020983333333","6500300","中和區"
"235011","732-UM","2017/06/08 14:09:25","新北市中和區興南路一段50號","121.510876666667","24.9907183333333","6500300","中和區"
"235010","733-UM","2017/06/08 14:09:26","新北市中和區忠孝街1巷68號","121.508345","24.9845366666667","6500300","中和區"
"235035","783-BX","2017/06/08 14:09:35","新北市中和區立德街98巷101號","121.488731666667","25.008415","6500300","中和區"
"235026","800-TS","2017/06/08 14:09:22","新北市中和區中山路二段366巷13-1號","121.491738333333","25.004435","6500300","中和區"
"235021","801-TS","2017/06/08 14:09:28","新北市中和區民利街89號","121.478028333333","24.9980166666667","6500300","中和區"
"235005","802-TS","2017/06/08 14:09:29","新北市中和區新興街17巷1號","121.512366666667","25.0025633333333","6500300","中和區"
"235016","805-TS","2017/06/08 14:09:37","新北市中和區興南路二段114巷21弄2號","121.503586666667","24.98444","6500300","中和區"
"235012","896-TW","2017/06/08 14:09:32","新北市中和區華新街109巷24號","121.508546666667","24.9804783333333","6500300","中和區"
"235017","900-TW","2017/06/08 14:09:20","新北市板橋區五權街1-9號","121.463693333333","24.9951383333333","6500300","中和區"
"235001","AAC-213","2017/06/08 14:09:28","新北市中和區自立路99巷36弄16號","121.523816666667","24.9941866666667","6500300","中和區"
"235023","AAC-215","2017/06/08 14:09:22","新北市中和區圓通路294巷17-5號","121.48865","24.9904833333333","6500300","中和區"
"220016","013-TV","2017/06/08 14:09:27","新北市板橋區三民路一段1巷49-1號","121.48088","25.0249016666667","6500100","板橋區"
"220013","072-UY","2017/06/08 14:09:30","新北市板橋區民族路219巷7號","121.469326666667","25.008015","6500100","板橋區"
"220034","073-UY","2017/06/08 14:09:38","新北市板橋區中正路236巷23號","121.456951666667","25.019205","6500100","板橋區"
"220105","075-UY","2017/06/08 14:09:25","新北市板橋區文化路二段179號","121.47076","25.0278766666667","6500100","板橋區"
"220045","120-SR","2017/06/08 14:09:22","新北市板橋區雙十路二段47巷2號","121.476258333333","25.026125","6500100","板橋區"
"247019","893-R6","2017/06/08 14:09:33","新北市蘆洲區民族路426巷22號","121.47304","25.0928133333333","6501400","蘆洲區"
"247009","546-UM","2017/06/08 14:09:31","新北市蘆洲區信義路233號","121.479163333333","25.0839916666667","6501400","蘆洲區"
"247017","500-BY","2017/06/08 14:09:21","新北市蘆洲區復興路111-7號","121.476816666667","25.0884816666667","6501400","蘆洲區"
"247002","402-BY","2017/06/08 14:09:32","新北市蘆洲區重陽二街22號","121.482315","25.0851833333333","6501400","蘆洲區"
"247005","341-TH","2017/06/08 14:09:36","新北市蘆洲區九芎街98號","121.465615","25.079725","6501400","蘆洲區"
"247007","339-TH","2017/06/08 14:09:36","新北市五股區四維路142巷23號","121.470276666667","25.07499","6501400","蘆洲區"
"247023","337-TH","2017/06/08 14:09:19","新北市蘆洲區光榮路118-2號","121.46507","25.089135","6501400","蘆洲區"
"247001","336-TH","2017/06/08 13:52:28","新北市蘆洲區環堤大道365號","121.457911666667","25.0975483333333","6501400","蘆洲區"
"247013","057-VK","2017/06/08 14:09:28","新北市蘆洲區忠孝路64號","121.471628333333","25.08496","6501400","蘆洲區"
"247003","056-VK","2017/06/08 14:09:27","新北市蘆洲區長安街106號","121.46182","25.08139","6501400","蘆洲區"
"247011","007-UY","2017/06/08 14:09:21","新北市蘆洲區信義路321號","121.478265","25.086595","6501400","蘆洲區"
"247021","002-UY","2017/06/08 14:09:24","新北市蘆洲區三民路165號","121.471246666667","25.087125","6501400","蘆洲區"
"247015","001-UY","2017/06/08 14:09:23","新北市蘆洲區光華路46巷34號","121.467938333333","25.0841366666667","6501400","蘆洲區"
"228004","212-TW","2017/06/08 14:09:36","新北市貢寮區雙玉里下雙溪街6-2號","121.915816666667","25.015985","6502600","貢寮區"
"228005","828-UM","2017/06/08 14:09:14","新北市貢寮區美豐里土地公嶺10號","121.88978","25.0574266666667","6502600","貢寮區"
"208004","AAC-292","2017/06/08 14:09:35","新北市金山區六股里頂六股6-1號","121.612855","25.2206833333333","6502700","金山區"
"207002","749-BX","2017/06/08 14:09:34","新北市萬里區溪底里瑞泉路1號","121.610963333333","25.14592","6502800","萬里區"
"207001","681-TV","2017/06/08 14:09:22","新北市萬里區磺潭里清水18號","121.637803333333","25.1977966666667","6502800","萬里區"
"252005","073-UM","2017/06/08 14:09:35","新北市三芝區橫山里橫山56-6號","121.535608333333","25.2496666666667","6502100","三芝區"
"252007","AAC-283","2017/06/08 00:22:10","新北市三芝區埔坪里埔頭坑41號","121.504455","25.26445","6502100","三芝區"
"236066","105-UM","2017/06/08 14:09:28","新北市土城區金城路一段88巷22號","121.445683333333","24.9729333333333","6501300","土城區"
"236040","107-UM","2017/06/08 14:09:34","新北市土城區裕生路64號","121.447626666667","24.986205","6501300","土城區"
"236076","166-UM","2017/06/08 14:09:25","新北市土城區永寧路35號","121.430168333333","24.96217","6501300","土城區"
"236028","253-BX","2017/06/08 14:09:24","新北市土城區城林路6巷80號","121.43836","24.97978","6501300","土城區"
"236024","269-VK","2017/06/08 14:09:31","新北市土城區承天路18號","121.43934","24.9633433333333","6501300","土城區"
"236012","270-VK","2017/06/08 14:09:23","新北市土城區學府路一段185號","121.452216666667","24.9851016666667","6501300","土城區"
"236033","271-VK","2017/06/08 14:09:30","新北市土城區明德路一段355-5號","121.456978333333","24.977555","6501300","土城區"
"236018","401-BY","2017/06/08 14:09:20","新北市土城區城林路6巷80號","121.438556666667","24.9798483333333","6501300","土城區"
"236005","498-BY","2017/06/08 14:09:20","新北市土城區中央路一段104號","121.446766666667","24.9882833333333","6501300","土城區"
"236056","912-UM","2017/06/08 14:09:35","新北市土城區中央路四段22號","121.420936666667","24.960965","6501300","土城區"
"236047","913-UM","2017/06/08 14:09:25","新北市土城區明德路一段398-1號","121.453591666667","24.9790916666667","6501300","土城區"
"236060","915-UM","2017/06/08 14:09:24","新北市土城區金城路二段208號","121.455215","24.9820933333333","6501300","土城區"
"236052","AAC-216","2017/06/08 14:09:28","新北市土城區中華路二段92號","121.438198333333","24.9744833333333","6501300","土城區"
"242043","172-VK","2017/06/08 14:09:38","新北市新莊區瓊林南路77-39號","121.437921666667","25.014055","6500500","新莊區"
"221032","280-BY","2017/06/08 14:09:26","新北市汐止區新台五路一段76號","121.642713333333","25.0598783333333","6501100","汐止區"
"221002","281-BY","2017/06/08 14:09:32","新北市汐止區大同路三段211號","121.672506666667","25.0767666666667","6501100","汐止區"
"221021","299-VK","2017/06/08 14:07:31","台北市文山區新光路二段74巷1-1號","121.593333333333","24.9951583333333","6501100","汐止區"
"220027","145-BY","2017/06/08 14:09:29","新北市板橋區民權路260巷7號","121.458325","25.0153983333333","6500100","板橋區"
"220037","145-RM","2017/06/08 14:09:28","新北市板橋區莊敬路48-2號","121.472683333333","25.0270133333333","6500100","板橋區"
"220042","146-RM","2017/06/08 14:09:34","新北市板橋區民生路三段259號","121.464375","25.02938","6500100","板橋區"
"220052","257-TC","2017/06/08 14:09:37","新北市板橋區文化路一段188巷9弄124號","121.46907","25.01917","6500100","板橋區"
"220017","258-TC","2017/06/08 14:09:30","新北市板橋區華興街76號","121.457051666667","25.0051333333333","6500100","板橋區"
"220043","267-BY","2017/06/08 14:09:32","新北市板橋區光武街108-5號","121.465753333333","25.029135","6500100","板橋區"
"220020","277-BY","2017/06/08 14:09:36","新北市板橋區金門街328-1號","121.428426666667","24.9848016666667","6500100","板橋區"
"220012","280-UM","2017/06/08 14:09:26","新北市板橋區民生路一段33號","121.476263333333","25.0120433333333","6500100","板橋區"
"220019","283-VK","2017/06/08 14:09:38","新北市板橋區忠孝路153號","121.463571666667","25.0024266666667","6500100","板橋區"
"220040","285-UM","2017/06/08 14:09:23","新北市板橋區縣民大道三段247巷16號","121.481786666667","25.0263483333333","6500100","板橋區"
"220001","285-VK","2017/06/08 14:09:31","新北市板橋區懷仁街32號","121.476333333333","25.019375","6500100","板橋區"
"220031","286-VK","2017/06/08 14:09:26","新北市板橋區龍興街99巷47-3號","121.443045","25.0031633333333","6500100","板橋區"
"220029","287-VK","2017/06/08 14:09:36","新北市板橋區南雅西路二段156巷3號","121.452086666667","25.0134266666667","6500100","板橋區"
"220039","288-VK","2017/06/08 14:09:27","新北市板橋區四維路291巷1號","121.46203","25.02827","6500100","板橋區"
"220009","293-UM","2017/06/08 14:09:22","新北市板橋區中山路二段268號","121.478978333333","25.0184933333333","6500100","板橋區"
"220032","296-UM","2017/06/08 14:09:34","新北市板橋區大觀路三段5-4號","121.432566666667","24.9959183333333","6500100","板橋區"
"220023","297-UM","2017/06/08 14:09:24","新北市板橋區大智街25巷28號","121.454251666667","25.0148583333333","6500100","板橋區"
"220046","299-UM","2017/06/08 14:09:21","新北市板橋區英士路76號","121.460145","25.024245","6500100","板橋區"
"220004","303-R5","2017/06/08 14:09:36","新北市土城區廣興街2號","121.456873333333","24.9917833333333","6500100","板橋區"
"220010","305-R5","2017/06/08 14:09:21","新北市板橋區三民路二段245巷71號","121.481098333333","25.012825","6500100","板橋區"
"220041","307-R5","2017/06/08 14:09:28","新北市板橋區文化路二段225巷35號","121.469488333333","25.0283733333333","6500100","板橋區"
"220047","317-R6","2017/06/08 14:09:25","新北市板橋區自由路51巷16號","121.46478","25.0235616666667","6500100","板橋區"
"220028","461-BY","2017/06/08 14:09:40","新北市板橋區大觀路二段7巷80號","121.44965","25.0030333333333","6500100","板橋區"
"220038","487-VK","2017/06/08 14:09:29","新北市板橋區文化路二段435號","121.474921666667","25.0330416666667","6500100","板橋區"
"220104","560-BX","2017/06/08 14:09:34","新北市板橋區中正路379巷3弄38-1號","121.45321","25.0213266666667","6500100","板橋區"
"220011","609-BX","2017/06/08 14:09:31","新北市板橋區三民路二段163號","121.479216666667","25.014665","6500100","板橋區"
"220050","637-BX","2017/06/08 14:09:39","新北市板橋區萬板路53巷2號","121.47142","25.0216466666667","6500100","板橋區"
"220005","686-BX","2017/06/08 14:09:34","新北市板橋區重慶路199-1號","121.462935","25.0017833333333","6500100","板橋區"
"220025","687-BX","2017/06/08 14:09:33","新北市板橋區大觀路二段142-1號","121.442626666667","24.9990266666667","6500100","板橋區"
"220002","741-BX","2017/06/08 14:09:36","新北市板橋區重慶路93巷26號","121.463098333333","25.0058233333333","6500100","板橋區"
"220030","806-UM","2017/06/08 14:09:34","新北市板橋區溪北路1-1號","121.426536666667","24.9905666666667","6500100","板橋區"
"220003","827-TW","2017/06/08 14:09:23","新北市板橋區中山路一段132號","121.463443333333","25.0108416666667","6500100","板橋區"
"220014","829-TW","2017/06/08 14:09:36","新北市板橋區長安街232-3號","121.475173333333","25.0124666666667","6500100","板橋區"
"220051","830-TW","2017/06/08 14:09:26","新北市板橋區田單街51號","121.482646666667","25.0278733333333","6500100","板橋區"
"220022","895-R6","2017/06/08 14:09:25","新北市板橋區林園街41號","121.453763333333","25.0100066666667","6500100","板橋區"
"220021","985-R7","2017/06/08 14:09:28","新北市板橋區民權路248號","121.458425","25.0146833333333","6500100","板橋區"
"220018","AAC-253","2017/06/08 14:09:37","新北市板橋區四川路一段278號","121.458813333333","25.0009266666667","6500100","板橋區"
