"lineid","car","time","location","longitude","latitude","cityid","cityname"
"234005","207-UY","2017/06/08 14:29:19","新北市永和區中正路736號","121.515238333333","25.01023","6500400","永和區"
"234078","298-R6","2017/06/08 14:29:32","新北市永和區福和路19巷1弄5號","121.524316666667","25.0078666666667","6500400","永和區"
"234036","336-UY","2017/06/08 14:29:33","新北市永和區環河東路四段38號","121.52876","24.9989266666667","6500400","永和區"
"234062","337-UY","2017/06/08 14:29:37","新北市永和區中正路401號","121.517251666667","25.0046033333333","6500400","永和區"
"234084","338-UY","2017/06/08 14:29:30","新北市永和區永和路二段217號","121.515538333333","25.0140383333333","6500400","永和區"
"234068","552-UM","2017/06/08 14:29:33","新北市永和區永亨路7號","121.519385","25.0057233333333","6500400","永和區"
"234052","553-UM","2017/06/08 14:29:19","新北市永和區光復街32號","121.516565","25.01748","6500400","永和區"
"234028","746-BX","2017/06/08 14:29:21","新北市永和區民族街67巷25號","121.519425","24.9971583333333","6500400","永和區"
"234060","AAD-866","2017/06/08 14:29:18","新北市永和區安樂路194巷39弄2號","121.516531666667","25.0013083333333","6500400","永和區"
"234040","862-TW","2017/06/08 14:29:29","新北市永和區安樂路306號","121.514403333333","25.0053883333333","6500400","永和區"
"234048","863-TW","2017/06/08 14:29:36","新北市永和區新生路147巷2弄4號","121.507403333333","25.0147416666667","6500400","永和區"
"234025","9371-KE","2017/06/08 14:29:33","新北市永和區得和路42巷23號","121.515368333333","24.99964","6500400","永和區"
"248013","025-BX","2017/06/08 14:29:14","新北市五股區民義路一段157-22號","121.431351666667","25.0868183333333","6501500","五股區"
"248007","095-VK","2017/06/08 14:29:24","新北市五股區中興路一段95巷16號","121.466558333333","25.0723916666667","6501500","五股區"
"248017","225-UY","2017/06/08 14:25:50","新北市五股區壟路11-3號","121.415575","25.0850883333333","6501500","五股區"
"248011","247-BX","2017/06/08 14:29:30","新北市五股區蓬萊路32號","121.434278333333","25.079905","6501500","五股區"
"248015","261-SL","2017/06/08 14:29:22","新北市五股區成泰路三段476號","121.451805","25.1014716666667","6501500","五股區"
"248009","272-BY","2017/06/08 14:29:27","新北市五股區水碓三路63號","121.430426666667","25.07156","6501500","五股區"
"248001","678-BX","2017/06/08 14:29:20","新北市五股區成泰路三段436號","121.450938333333","25.0995716666667","6501500","五股區"
"234022","9380-KE","2017/06/08 14:29:26","新北市永和區保生路55-1號","121.504518333333","25.0109333333333","6500400","永和區"
"234072","AAC-211","2017/06/08 14:29:34","新北市永和區環河東路一段124號","121.520681666667","25.0154066666667","6500400","永和區"
"234066","AAC-212","2017/06/08 14:29:31","新北市永和區保平路191號","121.509105","25.0052166666667","6500400","永和區"
"234001","AAC-295","2017/06/08 14:27:14","新北市永和區永和路一段115-1號","121.513938333333","25.0081483333333","6500400","永和區"
"244003","248-BX","2017/06/08 14:29:33","新北市林口區竹林路265號","121.389606666667","25.0807816666667","6501700","林口區"
"243005","AAD-798","2017/06/08 14:29:22","新北市泰山區民國街21號","121.425598333333","25.0434483333333","6501600","泰山區"
"243001","297-R6","2017/06/08 14:29:34","新北市泰山區明志路一段122巷24號","121.431586666667","25.064145","6501600","泰山區"
"243007","380-SR","2017/06/08 14:29:30","新北市泰山區明志路二段116號","121.42782","25.0513933333333","6501600","泰山區"
"243006","421-VK","2017/06/08 14:29:31","新北市泰山區仁愛路18號","121.431436666667","25.05416","6501600","泰山區"
"243008","539-UM","2017/06/08 14:28:56","新北市泰山區明志路三段470號","121.420776666667","25.0321016666667","6501600","泰山區"
"243002","548-UM","2017/06/08 14:29:29","新北市泰山區明志路二段47號","121.429581666667","25.0528283333333","6501600","泰山區"
"243003","549-UM","2017/06/08 14:29:35","新北市泰山區貴子路67巷5號","121.430665","25.0398366666667","6501600","泰山區"
"243004","646-TV","2017/06/08 14:29:30","新北市泰山區全興路18巷23號","121.43208","25.0584733333333","6501600","泰山區"
"231002","002-UM","2017/06/08 14:29:21","新北市新店區中央路129號","121.530455","24.974035","6500600","新店區"
"231025","0291-UT","2017/06/08 14:29:29","新北市新店區民族路163號","121.537643333333","24.9766633333333","6500600","新店區"
"231028","046-UY","2017/06/08 14:29:27","新北市新店區安康路二段188號","121.511311666667","24.9601116666667","6500600","新店區"
"231030","047-UY","2017/06/08 14:29:28","新北市新店區安民街65巷6號","121.516058333333","24.9668966666667","6500600","新店區"
"231029","106-UY","2017/06/08 14:29:24","新北市新店區安康路二段382號","121.500528333333","24.9570583333333","6500600","新店區"
"231018","107-UY","2017/06/08 14:29:28","新北市新店區中央二街41號","121.527603333333","24.9740583333333","6500600","新店區"
"231011","108-UY","2017/06/08 14:29:24","新北市新店區寶興路63巷2號","121.550905","24.971775","6500600","新店區"
"231021","187-VK","2017/06/08 14:29:33","新北市新店區桂山路2-1號","121.556831666667","24.9044633333333","6500600","新店區"
"231007","189-VK","2017/06/08 12:01:24","新北市新店區安華路28-1號","121.519721666667","24.9610833333333","6500600","新店區"
"231034","268-BY","2017/06/08 14:29:39","新北市新店區車子路11號","121.502995","24.951785","6500600","新店區"
"231017","AAD-862","2017/06/08 14:29:34","新北市新店區北宜路三段62號","121.574953333333","24.9513133333333","6500600","新店區"
"231027","3712-VJ","2017/06/08 14:29:37","新北市新店區北新路二段228巷11號","121.543366666667","24.9771783333333","6500600","新店區"
"231037","4715-K9","2017/06/08 14:29:33","新北市新店區車子路10-3號","121.504648333333","24.95465","6500600","新店區"
"231036","512-UM","2017/06/08 14:29:24","新北市新店區安祥路109巷15號","121.476005","24.9591633333333","6500600","新店區"
"231023","513-UM","2017/06/08 14:29:36","新北市新店區光明街135號","121.539488333333","24.9619533333333","6500600","新店區"
"231035","515-UM","2017/06/08 14:29:37","新北市新店區安民街3巷1號","121.514555","24.9642333333333","6500600","新店區"
"231006","617-UM","2017/06/08 14:29:24","新北市新店區北宜路二段491號","121.56263","24.95388","6500600","新店區"
"231001","619-UM","2017/06/08 14:29:35","新北市新店區北新路一段96巷23號","121.542963333333","24.96888","6500600","新店區"
"231003","641-BX","2017/06/08 14:29:36","新北市新店區中興路一段272號","121.545316666667","24.9681283333333","6500600","新店區"
"231013","719-UM","2017/06/08 14:29:32","新北市新店區民權路100-1號","121.53624","24.9834116666667","6500600","新店區"
"231031","720-UM","2017/06/08 14:29:28","新北市新店區安業街33號","121.51747","24.977225","6500600","新店區"
"231005","897-TW","2017/06/08 14:29:23","新北市新店區中興路三段135號","121.544583333333","24.97966","6500600","新店區"
"231004","899-TW","2017/06/08 14:29:37","新北市新店區中正路235號","121.53937","24.973195","6500600","新店區"
"231038","AKT-0513","2017/06/08 14:29:24","新北市新店區溪洲路8巷120-1號","121.533056666667","24.9632066666667","6500600","新店區"
"235030","003-UY","2017/06/08 14:29:35","新北市中和區景新街10號","121.502743333333","24.9995116666667","6500300","中和區"
"235028","005-UY","2017/06/08 14:29:20","新北市中和區連城路4號","121.499181666667","25.002415","6500300","中和區"
"235027","006-UY","2017/06/08 14:29:20","新北市中和區連城路231號","121.493993333333","24.997415","6500300","中和區"
"235020","096-UM","2017/06/08 14:29:21","新北市中和區員山路581巷2-10號","121.477398333333","25.0090433333333","6500300","中和區"
"235003","097-UM","2017/06/08 14:29:36","新北市中和區秀峰街103巷7弄2號","121.520013333333","24.98953","6500300","中和區"
"235029","098-UM","2017/06/08 14:29:30","新北市中和區永和路66巷1-1號","121.498631666667","25.0046283333333","6500300","中和區"
"235004","150-BY","2017/06/08 14:29:27","新北市中和區安樂路83號","121.51268","24.9944633333333","6500300","中和區"
"235022","151-BY","2017/06/08 14:29:29","新北市中和區連城路346-1號","121.482521666667","24.995525","6500300","中和區"
"235019","183-VK","2017/06/08 14:29:27","新北市中和區中山路三段181巷18弄11號","121.472693333333","25.0049","6500300","中和區"
"235002","185-VK","2017/06/08 14:29:28","新北市中和區大智街23巷2弄1號","121.519978333333","24.9923683333333","6500300","中和區"
"235013","186-VK","2017/06/08 14:29:20","新北市中和區景新街267號","121.508896666667","24.99392","6500300","中和區"
"235031","255-BX","2017/06/08 14:29:34","新北市中和區連城路286號","121.48424","24.9962566666667","6500300","中和區"
"235008","293-VK","2017/06/08 14:29:33","新北市中和區中興街239號","121.500448333333","24.9890883333333","6500300","中和區"
"235036","301-VK","2017/06/08 14:29:29","新北市中和區保平路326巷28號","121.506211666667","25.0049033333333","6500300","中和區"
"235007","352-BY","2017/06/08 14:29:22","新北市中和區景平路302號","121.512825","24.9928983333333","6500300","中和區"
"235015","376-QA","2017/06/08 14:29:28","新北市中和區興南路一段71號","121.510205","24.9893616666667","6500300","中和區"
"235032","377-QA","2017/06/08 14:29:35","新北市中和區圓通路158巷24號","121.49835","24.996955","6500300","中和區"
"235025","378-QA","2017/06/08 14:29:27","新北市中和區民安街42巷36號","121.479228333333","25.001265","6500300","中和區"
"235014","4979-A6","2017/06/08 14:29:21","新北市中和區中正路525號","121.488058333333","24.9935616666667","6500300","中和區"
"235033","4980-A6","2017/06/08 14:29:26","新北市中和區連城路110號","121.4963","24.9997233333333","6500300","中和區"
"235006","551-UM","2017/06/08 14:29:30","新北市中和區中和路350巷21弄1號","121.510738333333","25.0005816666667","6500300","中和區"
"235034","558-UM","2017/06/08 14:29:19","新北市中和區景平路674號","121.496908333333","25.001165","6500300","中和區"
"235009","565-BX","2017/06/08 14:29:34","新北市中和區景新街425號","121.513185","24.9893133333333","6500300","中和區"
"235018","640-BX","2017/06/08 14:29:35","新北市中和區國光街107巷2弄21號","121.469708333333","24.9993816666667","6500300","中和區"
"235024","647-TV","2017/06/08 14:29:38","新北市中和區新生街114巷8號","121.48303","25.0023966666667","6500300","中和區"
"235011","732-UM","2017/06/08 14:29:23","新北市中和區景平路259巷20號","121.507666666667","24.9927233333333","6500300","中和區"
"235010","733-UM","2017/06/08 14:29:30","新北市中和區忠孝街29號","121.51055","24.9830816666667","6500300","中和區"
"235035","783-BX","2017/06/08 14:29:35","新北市中和區中正路635號","121.485295","24.9953916666667","6500300","中和區"
"235026","800-TS","2017/06/08 14:29:22","新北市中和區中山路二段372號","121.491685","25.0032016666667","6500300","中和區"
"235021","801-TS","2017/06/08 14:29:28","新北市中和區台新街43號","121.479851666667","25.0048783333333","6500300","中和區"
"235005","802-TS","2017/06/08 14:29:29","新北市中和區安平路125號","121.511745","24.9978066666667","6500300","中和區"
"235016","805-TS","2017/06/08 14:29:37","新北市中和區華新街143巷47號","121.50636","24.980315","6500300","中和區"
"235012","896-TW","2017/06/08 14:29:32","新北市中和區忠孝街39-13號","121.512108333333","24.9844583333333","6500300","中和區"
"235017","900-TW","2017/06/08 14:29:27","新北市中和區華安街4號","121.46637","24.9982716666667","6500300","中和區"
"235001","AAC-213","2017/06/08 14:29:28","新北市中和區秀朗路三段58-3號","121.525716666667","24.9951166666667","6500300","中和區"
"235023","AAC-215","2017/06/08 14:29:22","新北市中和區圓通路319-5號","121.492735","24.9906866666667","6500300","中和區"
"220016","013-TV","2017/06/08 14:29:27","新北市板橋區中山路二段505巷9號","121.482521666667","25.0214333333333","6500100","板橋區"
"220013","072-UY","2017/06/08 14:29:32","新北市板橋區國泰街75巷39-2號","121.468105","25.0052633333333","6500100","板橋區"
"220034","073-UY","2017/06/08 14:29:34","新北市板橋區中正路216巷2弄17號","121.45671","25.0179216666667","6500100","板橋區"
"220105","075-UY","2017/06/08 14:29:25","新北市板橋區江寧路三段125號","121.473446666667","25.0332","6500100","板橋區"
"220045","120-SR","2017/06/08 14:29:22","新北市板橋區大同街35巷21號","121.476803333333","25.02772","6500100","板橋區"
"247019","893-R6","2017/06/08 14:29:33","新北市蘆洲區水湳街102號","121.469618333333","25.0929566666667","6501400","蘆洲區"
"247009","546-UM","2017/06/08 14:29:31","新北市蘆洲區鷺江街16-4號","121.478528333333","25.082495","6501400","蘆洲區"
"247017","500-BY","2017/06/08 14:29:41","新北市蘆洲區民族路336巷27弄2號","121.477808333333","25.0914016666667","6501400","蘆洲區"
"247002","402-BY","2017/06/08 14:29:32","新北市蘆洲區忠孝路13號","121.471443333333","25.084995","6501400","蘆洲區"
"247005","341-TH","2017/06/08 14:29:36","新北市蘆洲區永安南路二段168號","121.461166666667","25.0790916666667","6501400","蘆洲區"
"247007","339-TH","2017/06/08 14:29:36","新北市蘆洲區中山一路161號","121.475643333333","25.0814366666667","6501400","蘆洲區"
"247023","337-TH","2017/06/08 14:29:19","新北市蘆洲區中正路101號","121.469916666667","25.0840466666667","6501400","蘆洲區"
"247001","336-TH","2017/06/08 13:52:28","新北市蘆洲區環堤大道365號","121.457911666667","25.0975483333333","6501400","蘆洲區"
"247013","057-VK","2017/06/08 14:29:28","新北市蘆洲區中山二路206號","121.470081666667","25.0801116666667","6501400","蘆洲區"
"247003","056-VK","2017/06/08 14:29:24","新北市蘆洲區中原路16號","121.46101","25.0832816666667","6501400","蘆洲區"
"247011","007-UY","2017/06/08 14:29:21","新北市蘆洲區復興路86號","121.475306666667","25.086785","6501400","蘆洲區"
"247021","002-UY","2017/06/08 14:29:24","新北市蘆洲區民義街5號","121.471256666667","25.0885233333333","6501400","蘆洲區"
"247015","001-UY","2017/06/08 14:29:23","新北市蘆洲區中正路185巷68弄25號","121.466321666667","25.085375","6501400","蘆洲區"
"228004","212-TW","2017/06/08 14:29:36","新北市貢寮區雙玉里田寮洋街33-1號","121.932181666667","25.01362","6502600","貢寮區"
"228005","828-UM","2017/06/08 14:29:14","新北市貢寮區美豐里巫里岸9-1號","121.901956666667","25.070115","6502600","貢寮區"
"227010","400-TW","2017/06/08 14:20:57","新北市雙溪區三貂里政光路3-1號","121.850916666667","25.0632116666667","6502500","雙溪區"
"208004","AAC-292","2017/06/08 14:29:24","新北市金山區重和里六股林口38號","121.602695","25.2191883333333","6502700","金山區"
"207002","749-BX","2017/06/08 14:29:34","新北市萬里區溪底里溪底路2號","121.619005","25.1518183333333","6502800","萬里區"
"207001","681-TV","2017/06/08 14:29:22","新北市萬里區磺潭里清水13號","121.639265","25.1991766666667","6502800","萬里區"
"252005","073-UM","2017/06/08 14:29:35","新北市三芝區橫山里橫山13-1號","121.536611666667","25.2625383333333","6502100","三芝區"
"252007","AAC-283","2017/06/08 00:22:10","新北市三芝區埔坪里埔頭坑41號","121.504455","25.26445","6502100","三芝區"
"236066","105-UM","2017/06/08 14:29:28","新北市土城區永豐路205-5號","121.474718333333","24.9780316666667","6501300","土城區"
"236040","107-UM","2017/06/08 14:29:34","新北市土城區裕民路61巷7號","121.449448333333","24.98813","6501300","土城區"
"236076","166-UM","2017/06/08 14:29:25","新北市土城區中央路四段25-10號","121.424445","24.9624483333333","6501300","土城區"
"236028","253-BX","2017/06/08 14:29:24","新北市土城區順風路4號","121.43975","24.97648","6501300","土城區"
"236024","269-VK","2017/06/08 14:29:31","新北市土城區承天路18號","121.439438333333","24.9634316666667","6501300","土城區"
"236012","270-VK","2017/06/08 14:29:23","新北市土城區青雲路39巷7號","121.46033","24.9875483333333","6501300","土城區"
"236033","271-VK","2017/06/08 14:29:30","新北市土城區青雲路451巷8弄1號","121.459608333333","24.9745583333333","6501300","土城區"
"236018","401-BY","2017/06/08 14:29:20","新北市土城區永豐路202巷7號","121.466293333333","24.9832183333333","6501300","土城區"
"236005","498-BY","2017/06/08 14:29:40","新北市土城區中華路一段70巷2號","121.444881666667","24.9884983333333","6501300","土城區"
"236056","912-UM","2017/06/08 14:29:35","新北市土城區中央路四段307-3號","121.410783333333","24.9514116666667","6501300","土城區"
"236047","913-UM","2017/06/08 14:29:25","新北市土城區青雲路475號","121.458781666667","24.9738566666667","6501300","土城區"
"236060","915-UM","2017/06/08 14:29:24","新北市土城區延壽路118-6號","121.46908","24.99467","6501300","土城區"
"236052","AAC-216","2017/06/08 14:29:28","新北市土城區中華路二段1號","121.439658333333","24.9791783333333","6501300","土城區"
"242043","172-VK","2017/06/08 14:29:18","新北市樹林區中山路三段214號","121.379801666667","24.9676816666667","6500500","新莊區"
"221032","280-BY","2017/06/08 14:29:27","新北市汐止區弘道街51號","121.618408333333","25.0484933333333","6501100","汐止區"
"221002","281-BY","2017/06/08 14:29:32","新北市新店區安業街285-1號","121.527141666667","24.9669116666667","6501100","汐止區"
"221021","299-VK","2017/06/08 14:26:31","新北市新店區安康路二段325號","121.499936666667","24.95505","6501100","汐止區"
"220027","145-BY","2017/06/08 14:29:29","新北市板橋區民權路302巷13號","121.457588333333","25.0165866666667","6500100","板橋區"
"220037","145-RM","2017/06/08 14:29:28","新北市板橋區雙十路二段37-1號","121.476816666667","25.0258","6500100","板橋區"
"220042","146-RM","2017/06/08 14:29:34","新北市板橋區雨農路27巷2號","121.461198333333","25.024115","6500100","板橋區"
"220052","257-TC","2017/06/08 14:29:30","新北市板橋區文化路一段266號","121.467255","25.0205616666667","6500100","板橋區"
"220017","258-TC","2017/06/08 14:29:30","新北市板橋區華興街18號","121.45935","25.00473","6500100","板橋區"
"220043","267-BY","2017/06/08 14:29:32","新北市板橋區吳鳳路50巷85弄1號","121.470235","25.0304466666667","6500100","板橋區"
"220020","277-BY","2017/06/08 14:29:36","新北市板橋區金門街337巷8弄2號","121.429701666667","24.9853016666667","6500100","板橋區"
"220012","280-UM","2017/06/08 14:29:26","新北市板橋區中山路一段24號","121.460353333333","25.0082633333333","6500100","板橋區"
"220019","283-VK","2017/06/08 14:29:18","新北市板橋區大豐街111號","121.461226666667","25.0011433333333","6500100","板橋區"
"220040","285-UM","2017/06/08 14:29:23","新北市板橋區文聖街149巷23弄16號","121.479265","25.0289533333333","6500100","板橋區"
"220001","285-VK","2017/06/08 14:29:31","新北市板橋區富山街102號","121.476251666667","25.02194","6500100","板橋區"
"220031","286-VK","2017/06/08 14:29:25","新北市板橋區大觀路二段174巷173弄12號","121.441236666667","25.003935","6500100","板橋區"
"220029","287-VK","2017/06/08 14:29:27","新北市板橋區大觀路一段75巷39號","121.448968333333","25.0041816666667","6500100","板橋區"
"220039","288-VK","2017/06/08 14:29:27","新北市板橋區長江路一段106巷13弄2號","121.460158333333","25.0290966666667","6500100","板橋區"
"220009","293-UM","2017/06/08 14:29:22","新北市板橋區中山路一段265巷1弄1號","121.46836","25.0141466666667","6500100","板橋區"
"220032","296-UM","2017/06/08 14:29:34","新北市板橋區滿平街141號","121.429026666667","24.9880983333333","6500100","板橋區"
"220023","297-UM","2017/06/08 14:29:23","新北市板橋區僑中一街124巷70-5號","121.449668333333","25.0170466666667","6500100","板橋區"
"220046","299-UM","2017/06/08 14:29:21","新北市板橋區新海路135巷1號","121.46059","25.023415","6500100","板橋區"
"220004","303-R5","2017/06/08 14:29:36","新北市板橋區干城路20巷1號","121.459235","24.9935133333333","6500100","板橋區"
"220010","305-R5","2017/06/08 14:29:31","新北市板橋區三民路二段153巷4號","121.479641666667","25.0148933333333","6500100","板橋區"
"220041","307-R5","2017/06/08 14:29:28","新北市板橋區松江街18號","121.469066666667","25.02638","6500100","板橋區"
"220047","317-R6","2017/06/08 14:29:25","新北市板橋區四維路266巷5弄14號","121.463633333333","25.0288966666667","6500100","板橋區"
"220028","461-BY","2017/06/08 14:29:20","新北市板橋區大觀路二段37巷126號","121.449455","25.002175","6500100","板橋區"
"220038","487-VK","2017/06/08 14:29:29","新北市板橋區文化路一段209號","121.463525","25.0168816666667","6500100","板橋區"
"220104","560-BX","2017/06/08 14:29:34","新北市板橋區中正路413巷2弄2號","121.45399","25.0227516666667","6500100","板橋區"
"220011","609-BX","2017/06/08 14:29:31","新北市板橋區三民路二段142號","121.479136666667","25.01551","6500100","板橋區"
"220050","637-BX","2017/06/08 14:29:37","新北市板橋區縣民大道三段133巷19號","121.477025","25.023835","6500100","板橋區"
"220005","686-BX","2017/06/08 14:29:34","新北市中和區民德路330號","121.466636666667","24.9944433333333","6500100","板橋區"
"220025","687-BX","2017/06/08 14:29:33","新北市板橋區僑中二街92巷1號","121.446278333333","25.0087233333333","6500100","板橋區"
"220002","741-BX","2017/06/08 14:29:35","新北市板橋區光明街116號","121.463223333333","25.0030916666667","6500100","板橋區"
"220030","806-UM","2017/06/08 14:29:35","新北市板橋區金門街351號","121.428826666667","24.9851633333333","6500100","板橋區"
"220003","827-TW","2017/06/08 14:29:23","新北市板橋區重慶路278巷20-3號","121.462731666667","24.9996283333333","6500100","板橋區"
"220014","829-TW","2017/06/08 14:29:23","新北市板橋區漢生東路279巷8號","121.471885","25.009165","6500100","板橋區"
"220051","830-TW","2017/06/08 14:29:26","新北市板橋區雙十路二段130巷2弄21號","121.474646666667","25.028815","6500100","板橋區"
"220022","895-R6","2017/06/08 14:29:25","新北市板橋區文化路一段11號","121.457868333333","25.01002","6500100","板橋區"
"220021","985-R7","2017/06/08 14:29:35","新北市板橋區新生街66號","121.457791666667","25.020995","6500100","板橋區"
"220018","AAC-253","2017/06/08 14:29:37","新北市板橋區忠孝路153號","121.463535","25.0024316666667","6500100","板橋區"
