"lineid","car","time","location","longitude","latitude","cityid","cityname"
"248017","225-UY","2017/06/08 15:19:38","新北市五股區登林路91-23號","121.421053333333","25.0718216666667","6501500","五股區"
"248015","261-SL","2017/06/08 15:19:22","新北市五股區天乙路16號","121.44864","25.1033233333333","6501500","五股區"
"243003","549-UM","2017/06/08 15:19:29","新北市泰山區仁德路10號","121.434563333333","25.057085","6501600","泰山區"
"231002","002-UM","2017/06/08 15:19:21","新北市新店區中正路700巷1號","121.5339","24.9912016666667","6500600","新店區"
"231025","0291-UT","2017/06/08 15:19:29","新北市新店區中央路151號","121.529488333333","24.9723933333333","6500600","新店區"
"231028","046-UY","2017/06/08 15:19:27","新北市新店區僑信路74巷1號","121.499381666667","24.9485816666667","6500600","新店區"
"231030","047-UY","2017/06/08 15:19:28","新北市新店區安和路二段232號","121.51677","24.9772983333333","6500600","新店區"
"231029","106-UY","2017/06/08 15:19:24","新北市新店區安康路三段738號","121.473835","24.942005","6500600","新店區"
"231018","107-UY","2017/06/08 15:19:28","新北市新店區中央七街45號","121.528775","24.97586","6500600","新店區"
"231011","108-UY","2017/06/08 15:19:24","新北市新店區復興路23號","121.539215","24.98659","6500600","新店區"
"231021","187-VK","2017/06/08 15:19:33","新北市新店區花園二路三段19號","121.556323333333","24.9314916666667","6500600","新店區"
"231007","189-VK","2017/06/08 12:01:24","新北市新店區安華路28-1號","121.519721666667","24.9610833333333","6500600","新店區"
"231026","256-BX","2017/06/08 15:19:34","新北市新店區中正路247巷1弄1號","121.538981666667","24.9731116666667","6500600","新店區"
"231034","268-BY","2017/06/08 15:19:20","新北市新店區玫瑰路38號","121.495926666667","24.9497733333333","6500600","新店區"
"231017","AAD-862","2017/06/08 15:19:33","新北市新店區明山路45號","121.56385","24.9558433333333","6500600","新店區"
"231024","3713-VJ","2017/06/08 15:19:22","新北市新店區北新路一段297巷20號","121.540791666667","24.9679266666667","6500600","新店區"
"231037","4715-K9","2017/06/08 15:19:33","新北市新店區安興路69號","121.515903333333","24.9751733333333","6500600","新店區"
"231036","512-UM","2017/06/08 15:19:29","新北市新店區安祥路69巷19號","121.481865","24.9612866666667","6500600","新店區"
"231023","513-UM","2017/06/08 15:19:36","新北市新店區行政街20號","121.54322","24.9658083333333","6500600","新店區"
"231035","515-UM","2017/06/08 15:19:37","新北市新店區永平街27號","121.516946666667","24.9834383333333","6500600","新店區"
"231001","619-UM","2017/06/08 15:19:35","新北市新店區北新路一段319號","121.54166","24.9682016666667","6500600","新店區"
"231003","641-BX","2017/06/08 15:19:36","新北市新店區寶高路5號","121.551013333333","24.9778866666667","6500600","新店區"
"231039","718-UY","2017/06/08 15:19:32","新北市新店區寶元路一段61號","121.542221666667","24.986005","6500600","新店區"
"231031","720-UM","2017/06/08 15:19:34","新北市新店區和成街14巷1號","121.488028333333","24.9477166666667","6500600","新店區"
"231005","897-TW","2017/06/08 15:19:23","新北市新店區民族路29號","121.540991666667","24.9786233333333","6500600","新店區"
"231004","899-TW","2017/06/08 15:19:37","新北市新店區博愛街13巷24號","121.540253333333","24.9740333333333","6500600","新店區"
"241020","412-TH","2017/06/08 15:19:22","新北市三重區捷運路36號","121.482908333333","25.055105","6500200","三重區"
"235030","003-UY","2017/06/08 15:19:35","新北市中和區光華街69號","121.5067","25.0028083333333","6500300","中和區"
"235003","097-UM","2017/06/08 15:19:36","新北市中和區安樂路217巷40弄1號","121.513185","24.997895","6500300","中和區"
"235036","301-VK","2017/06/08 15:19:29","新北市五股區中直路15號","121.423636666667","25.1109233333333","6500300","中和區"
"235032","377-QA","2017/06/08 15:19:35","新北市中和區福祥路72號","121.499285","25.0054016666667","6500300","中和區"
"235014","4979-A6","2017/06/08 15:19:21","新北市中和區景安路82巷5號","121.505081666667","24.9961516666667","6500300","中和區"
"235033","4980-A6","2017/06/08 15:19:29","新北市中和區南山路127巷31號","121.503565","24.9975","6500300","中和區"
"235034","558-UM","2017/06/08 15:19:39","新北市中和區中正路246號","121.495785","24.9939033333333","6500300","中和區"
"235035","783-BX","2017/06/08 15:19:35","新北市中和區永和路343號","121.483738333333","25.0117166666667","6500300","中和區"
"235012","896-TW","2017/06/08 15:19:32","新北市中和區景新街377號","121.512246666667","24.990415","6500300","中和區"
"235001","AAC-213","2017/06/08 15:19:27","新北市中和區秀朗路三段135巷2號","121.525075","24.99253","6500300","中和區"
"235023","AAC-215","2017/06/08 15:19:22","新北市中和區圓通路320-1號","121.485325","24.9877933333333","6500300","中和區"
"247002","402-BY","2017/06/08 15:19:28","新北市蘆洲區三民路226號","121.468505","25.0894366666667","6501400","蘆洲區"
"247013","057-VK","2017/06/08 15:19:28","新北市八里區商港路105巷15號","121.389075","25.1476216666667","6501400","蘆洲區"
"227004","642-TC","2017/06/08 15:19:35","新北市雙溪區牡丹里下坑25號","121.85023","25.056575","6502500","雙溪區"
"227010","400-TW","2017/06/08 14:20:57","新北市雙溪區三貂里政光路3-1號","121.850916666667","25.0632116666667","6502500","雙溪區"
"208004","AAC-292","2017/06/08 15:19:27","新北市金山區南勢35號","121.626736666667","25.2193133333333","6502700","金山區"
"207001","681-TV","2017/06/08 15:19:22","新北市萬里區大鵬里萬里加投14號","121.650353333333","25.2091733333333","6502800","萬里區"
"252005","073-UM","2017/06/08 15:19:35","新北市三芝區福德里埔尾9-88號","121.502686666667","25.243885","6502100","三芝區"
"252007","AAC-283","2017/06/08 00:22:10","新北市三芝區埔坪里埔頭坑41號","121.504455","25.26445","6502100","三芝區"
"236066","105-UM","2017/06/08 15:19:28","新北市土城區學府路一段129巷2號","121.454268333333","24.9862666666667","6501300","土城區"
"236040","107-UM","2017/06/08 15:19:34","新北市土城區裕民路274號","121.45505","24.9824733333333","6501300","土城區"
"236076","166-UM","2017/06/08 15:19:25","新北市土城區中州路27巷81號","121.412665","24.9563383333333","6501300","土城區"
"236028","253-BX","2017/06/08 15:19:24","新北市土城區中央路一段290號","121.44331","24.9824183333333","6501300","土城區"
"236024","269-VK","2017/06/08 15:19:31","新北市土城區中央路二段134號","121.44198","24.9773683333333","6501300","土城區"
"236012","270-VK","2017/06/08 15:19:23","新北市土城區廣福街1號","121.457351666667","24.9887333333333","6501300","土城區"
"236033","271-VK","2017/06/08 15:19:30","新北市土城區國際路158巷24弄2號","121.46852","24.9758966666667","6501300","土城區"
"236018","401-BY","2017/06/08 15:19:20","新北市土城區峰廷街14號","121.468873333333","24.9874733333333","6501300","土城區"
"236056","912-UM","2017/06/08 15:19:39","新北市土城區金城路二段246號","121.456955","24.9832316666667","6501300","土城區"
"236047","913-UM","2017/06/08 15:15:05","新北市土城區金城路二段380號","121.463345","24.9852833333333","6501300","土城區"
"236060","915-UM","2017/06/08 15:19:24","新北市土城區延平街22號","121.468211666667","24.9912633333333","6501300","土城區"
"236052","AAC-216","2017/06/08 15:19:28","新北市土城區學府路一段276號","121.449981666667","24.983095","6501300","土城區"
"238002","755-BX","2017/06/08 15:19:37","新北市樹林區文化街53號","121.41739","24.988835","6500700","樹林區"
"238010","601-UM","2017/06/08 15:19:32","新北市樹林區大安路396號","121.415636666667","24.9892","6500700","樹林區"
"238006","599-UM","2017/06/08 15:19:36","新北市樹林區八德街293號","121.422573333333","24.97888","6500700","樹林區"
"238005","571-TV","2017/06/08 15:19:26","新北市樹林區樹新路110號","121.429833333333","24.9980483333333","6500700","樹林區"
"238011","5061-A6","2017/06/08 15:19:35","新北市樹林區鎮前街160號","121.42443","24.99012","6500700","樹林區"
"238009","312-TH","2017/06/08 15:19:26","新北市樹林區環河路600-1號","121.403693333333","24.9693133333333","6500700","樹林區"
"238008","311-TH","2017/06/08 15:19:22","新北市樹林區西圳街一段165巷20弄11號","121.395583333333","24.9601783333333","6500700","樹林區"
"238012","303-VK","2017/06/08 15:19:30","新北市樹林區中山路一段296號","121.420388333333","24.9864466666667","6500700","樹林區"
"238004","283-BY","2017/06/08 15:19:27","新北市樹林區保安街一段219號","121.42051","24.9963366666667","6500700","樹林區"
"238001","282-BY","2017/06/08 15:18:43","新北市樹林區大安路579號","121.411981666667","24.98353","6500700","樹林區"
"238007","268-VK","2017/06/08 15:19:22","新北市樹林區樹新路207號","121.429726666667","24.99802","6500700","樹林區"
"238013","172-UY","2017/06/08 15:19:37","新北市樹林區東大街144號","121.409918333333","24.9762","6500700","樹林區"
"238003","169-UY","2017/06/08 15:19:40","新北市樹林區中洲街21號","121.397253333333","24.9721966666667","6500700","樹林區"
"221002","281-BY","2017/06/08 15:19:32","新北市汐止區南興路28號","121.652143333333","25.0616533333333","6501100","汐止區"
"221021","299-VK","2017/06/08 15:08:11","新北市汐止區汐萬路一段256巷3號","121.652126666667","25.07485","6501100","汐止區"
"220037","145-RM","2017/06/08 15:19:28","新北市板橋區民治街84號","121.479361666667","25.032065","6500100","板橋區"
"220042","146-RM","2017/06/08 15:19:34","新北市板橋區長江路二段6號","121.464531666667","25.0312533333333","6500100","板橋區"
"220017","258-TC","2017/06/08 15:19:36","新北市板橋區大明街22號","121.458595","25.0025983333333","6500100","板橋區"
"220031","286-VK","2017/06/08 15:19:25","新北市板橋區僑中二街104巷34號","121.44471","25.0081233333333","6500100","板橋區"
"220029","287-VK","2017/06/08 15:19:27","新北市板橋區僑中一街80巷5弄5號","121.447551666667","25.0124716666667","6500100","板橋區"
"220046","299-UM","2017/06/08 15:19:21","新北市板橋區文化路一段101巷11號","121.460706666667","25.0145816666667","6500100","板橋區"
"220041","307-R5","2017/06/08 15:19:36","新北市板橋區文化路一段59號","121.460625","25.0137333333333","6500100","板橋區"
"220028","461-BY","2017/06/08 15:19:20","新北市樹林區環河路600號","121.404665","24.9690983333333","6500100","板橋區"
"220038","487-VK","2017/06/08 15:19:28","新北市板橋區互助街68號","121.461011666667","25.0266666666667","6500100","板橋區"
"220034","630-UY","2017/06/08 15:19:23","新北市板橋區林園街2號","121.454306666667","25.009215","6500100","板橋區"
"220050","637-BX","2017/06/08 15:19:26","新北市板橋區雙十路二段47巷8弄14號","121.474458333333","25.0259383333333","6500100","板橋區"
"220003","827-TW","2017/06/08 15:19:23","新北市板橋區四川路一段62號","121.459335","25.0054683333333","6500100","板橋區"
"220051","830-TW","2017/06/08 15:19:26","新北市板橋區漢生東路83巷2號","121.46683","25.0157983333333","6500100","板橋區"
"220018","AAC-253","2017/06/08 15:19:37","新北市板橋區四川路一段489號","121.45701","24.99715","6500100","板橋區"
