"lineid","car","time","location","longitude","latitude","cityid","cityname"
"249005","172-UM","2017/06/08 16:39:30","新北市八里區挖子尾街16號","121.415283333333","25.164435","6502300","八里區"
"249002","305-UY","2017/06/08 16:39:30","新北市八里區大堀湖7-3號","121.42598","25.1514483333333","6502300","八里區"
"243015","380-SR","2017/06/08 15:47:16","新北市泰山區犁頭窠3-1號","121.422105","25.0604566666667","6501600","泰山區"
"243012","646-TV","2017/06/08 15:43:07","新北市泰山區犁頭窠3-1號","121.422385","25.0603816666667","6501600","泰山區"
"231007","189-VK","2017/06/08 12:01:24","新北市新店區安華路28-1號","121.519721666667","24.9610833333333","6500600","新店區"
"231046","278-BY","2017/06/08 16:39:32","新北市新店區灣潭路70號","121.538498333333","24.94183","6500600","新店區"
"231027","3712-VJ","2017/06/08 15:34:03","新北市新店區安華路28-1號","121.519326666667","24.9606983333333","6500600","新店區"
"241011","013-R5","2017/06/08 16:39:23","新北市三重區仁愛街43巷16號","121.497335","25.07185","6500200","三重區"
"241028","022-UY","2017/06/08 16:39:30","新北市三重區重新路三段84號","121.493353333333","25.0607383333333","6500200","三重區"
"241008","059-VK","2017/06/08 16:39:35","新北市三重區永安北路一段29號","121.476631666667","25.0756983333333","6500200","三重區"
"241009","060-VK","2017/06/08 16:39:30","新北市三重區三和路四段191巷34號","121.48313","25.0795616666667","6500200","三重區"
"241031","061-VK","2017/06/08 16:39:36","新北市三重區重新路四段43號","121.488016666667","25.0576016666667","6500200","三重區"
"241015","062-VK","2017/06/08 16:39:30","新北市三重區文化北路41-4號","121.49885","25.065305","6500200","三重區"
"241017","063-VK","2017/06/08 16:39:17","新北市三重區中正北路25巷8號","121.493386666667","25.0628833333333","6500200","三重區"
"241024","065-VK","2017/06/08 16:39:30","新北市三重區中正北路315巷6弄67號","121.477273333333","25.0724683333333","6500200","三重區"
"241002","090-VK","2017/06/08 16:39:32","新北市三重區自強路五段109號","121.495773333333","25.08243","6500200","三重區"
"241003","091-VK","2017/06/08 16:39:31","新北市三重區五華街71巷91號","121.494325","25.083905","6500200","三重區"
"241025","156-TC","2017/06/08 16:39:18","新北市三重區中正北路428巷9號","121.474498333333","25.070315","6500200","三重區"
"241005","262-UM","2017/06/08 16:39:36","新北市三重區仁華街120號","121.486175","25.0831116666667","6500200","三重區"
"241012","265-UM","2017/06/08 16:39:36","新北市三重區龍門路274巷8號","121.501441666667","25.0742516666667","6500200","三重區"
"241016","266-UM","2017/06/08 16:39:26","新北市三重區大智街17-2號","121.494416666667","25.06541","6500200","三重區"
"241022","267-UM","2017/06/08 16:39:28","新北市三重區新北大道一段100巷29號","121.485386666667","25.0626666666667","6500200","三重區"
"241018","268-UM","2017/06/08 16:39:28","新北市三重區正義北路338巷50號","121.493045","25.0702516666667","6500200","三重區"
"241032","269-UM","2017/06/08 16:39:39","新北市三重區三民街19號","121.485818333333","25.0611483333333","6500200","三重區"
"241013","270-UM","2017/06/08 16:39:34","新北市三重區三和路三段101巷64號","121.496283333333","25.0730116666667","6500200","三重區"
"241007","398-BY","2017/06/08 16:39:19","新北市三重區三和路四段167巷51號","121.485391666667","25.0794","6500200","三重區"
"241020","412-TH","2017/06/08 16:39:21","新北市三重區車路頭街70號","121.484268333333","25.0729583333333","6500200","三重區"
"241004","475-VK","2017/06/08 16:39:22","新北市三重區五福街4號","121.493201666667","25.0816483333333","6500200","三重區"
"241019","478-VK","2017/06/08 16:39:26","新北市三重區安慶街287號","121.488983333333","25.0673283333333","6500200","三重區"
"241030","480-VK","2017/06/08 16:39:30","新北市三重區成功路50巷50號","121.488165","25.049505","6500200","三重區"
"241014","543-UM","2017/06/08 16:39:17","新北市三重區龍濱路38號","121.50277","25.0682583333333","6500200","三重區"
"241023","545-UM","2017/06/08 16:39:20","新北市三重區忠孝路三段50巷45號","121.482881666667","25.0643466666667","6500200","三重區"
"241001","547-UM","2017/06/08 16:39:38","新北市三重區福隆路121號","121.493011666667","25.0784633333333","6500200","三重區"
"241006","AAD-863","2017/06/08 16:39:21","新北市三重區車路頭街138-6號","121.483796666667","25.0754816666667","6500200","三重區"
"241026","887-TS","2017/06/08 16:39:22","新北市三重區福和街1號","121.502985","25.0617583333333","6500200","三重區"
"241029","942-UM","2017/06/08 16:39:24","新北市三重區集美街112巷13號","121.48946","25.0541483333333","6500200","三重區"
"241033","AAC-255","2017/06/08 16:39:37","新北市三重區光華路14號","121.470038333333","25.0598383333333","6500200","三重區"
"235026","800-TS","2017/06/08 16:39:21","新北市中和區建八路166號","121.490211666667","24.998545","6500300","中和區"
"235023","AAC-215","2017/06/08 16:05:49","新北市中和區員山路36巷16-3號","121.48491","24.99125","6500300","中和區"
"247002","402-BY","2017/06/08 16:39:28","新北市五股區中興路三段3-6號","121.44946","25.0786683333333","6501400","蘆洲區"
"247006","341-TH","2017/06/08 16:39:26","新北市五股區中興路三段5號","121.449913333333","25.0795583333333","6501400","蘆洲區"
"247014","057-VK","2017/06/08 16:39:32","新北市蘆洲區三民路378號","121.464076666667","25.091955","6501400","蘆洲區"
"247004","056-VK","2017/06/08 16:39:30","新北市五股區中興路三段163號","121.447553333333","25.0801916666667","6501400","蘆洲區"
"247016","001-UY","2017/06/08 16:39:27","新北市蘆洲區三民路378號","121.464131666667","25.09161","6501400","蘆洲區"
"228002","585-TW","2017/06/08 16:39:21","新北市貢寮區貢寮里朝陽街2號","121.912523333333","25.0215883333333","6502600","貢寮區"
"228003","828-UM","2017/06/08 15:21:48","新北市貢寮區貢寮里朝陽街1-2號","121.912336666667","25.0212333333333","6502600","貢寮區"
"224006","676-BX","2017/06/08 16:39:26","新北市瑞芳區大寮路356-1號","121.784823333333","25.1032166666667","6501200","瑞芳區"
"224008","275-VK","2017/06/08 16:39:38","新北市瑞芳區逢甲路20-1號","121.809331666667","25.1085916666667","6501200","瑞芳區"
"224007","273-VK","2017/06/08 16:39:32","新北市瑞芳區中央路48巷34號","121.76112","25.1030583333333","6501200","瑞芳區"
"224005","271-BY","2017/06/08 16:39:30","新北市瑞芳區洞頂路132-1號","121.862081666667","25.123505","6501200","瑞芳區"
"227004","642-TC","2017/06/08 16:39:34","新北市雙溪區外柑里外柑腳54號","121.808021666667","25.0178616666667","6502500","雙溪區"
"227010","400-TW","2017/06/08 16:39:23","新北市雙溪區牡丹里中正路97號","121.861975","25.0471433333333","6502500","雙溪區"
"251001","011-UM","2017/06/08 16:39:38","新北市淡水區中正路二段31號","121.419406666667","25.18176","6501000","淡水區"
"251008","181-VK","2017/06/08 16:39:24","新北市淡水區樹梅坑6-1號","121.472631666667","25.1433633333333","6501000","淡水區"
"251014","182-VK","2017/06/08 16:39:26","新北市淡水區淡金路三段338號","121.449158333333","25.2086333333333","6501000","淡水區"
"251016","442-VK","2017/06/08 16:39:28","新北市淡水區中山北路一段261號","121.444573333333","25.180765","6501000","淡水區"
"252002","178-VK","2017/06/08 16:39:36","新北市三芝區芝柏路81號","121.510906666667","25.257085","6502100","三芝區"
"252001","292-VK","2017/06/08 16:39:35","新北市三芝區埔坪里埔頭坑56號","121.507335","25.2648283333333","6502100","三芝區"
"252007","AAC-283","2017/06/08 00:22:10","新北市三芝區埔坪里埔頭坑41號","121.504455","25.26445","6502100","三芝區"
"242027","612-BX","2017/06/08 16:39:29","新北市新莊區三和路18-25號","121.441711666667","25.0393533333333","6500500","新莊區"
"242061","362-BY","2017/06/08 16:39:30","新北市新莊區新泰路255巷83號","121.44248","25.03885","6500500","新莊區"
"242044","172-VK","2017/06/08 14:54:52","新北市新莊區三和路12-21號","121.442133333333","25.03869","6500500","新莊區"
"238010","601-UM","2017/06/08 16:39:32","新北市樹林區保安街二段94號","121.41451","25.0036766666667","6500700","樹林區"
"238025","303-VK","2017/06/08 16:39:29","新北市樹林區中正路22-1號","121.42788","24.9993966666667","6500700","樹林區"
"238004","283-BY","2017/06/08 16:39:27","新北市樹林區光武街7-3號","121.415813333333","25.005315","6500700","樹林區"
"238001","282-BY","2017/06/08 16:39:23","新北市樹林區中正路22-1號","121.427736666667","24.99949","6500700","樹林區"
"238007","268-VK","2017/06/08 16:39:21","新北市樹林區俊英街82-1號","121.427798333333","25.0045583333333","6500700","樹林區"
"239002","359-BY","2017/06/06 20:27:05","新北市鶯歌區二甲路12-2號","121.345551666667","24.93486","6500800","鶯歌區"
"221021","299-VK","2017/06/08 15:08:11","新北市汐止區汐萬路一段256巷3號","121.652126666667","25.07485","6501100","汐止區"
"220050","637-BX","2017/06/08 16:39:26","新北市五股區五工一路109號","121.456805","25.0706583333333","6500100","板橋區"
