"lineid","car","time","location","longitude","latitude","cityid","cityname"
"234062","337-UY","2017/06/08 17:59:33","新北市永和區福和路1號","121.526278333333","25.0095416666667","6500400","永和區"
"234026","9371-KE","2017/06/08 17:59:21","新北市永和區水源街2巷15號","121.512025","25.005685","6500400","永和區"
"234011","9373-KE","2017/06/08 17:47:38","新北市永和區福和路1號","121.526018333333","25.0093116666667","6500400","永和區"
"249005","172-UM","2017/06/08 17:59:29","新北市八里區荖阡坑路22號","121.399225","25.1357583333333","6502300","八里區"
"249001","173-UM","2017/06/08 17:59:22","新北市八里區龍米路二段36號","121.448468333333","25.1401116666667","6502300","八里區"
"249004","303-UY","2017/06/08 17:59:33","新北市八里區賢一街75號","121.41932","25.15769","6502300","八里區"
"249002","305-UY","2017/06/08 17:09:10","新北市八里區龍米路二段147巷7號","121.442053333333","25.15054","6502300","八里區"
"249003","593-UM","2017/06/08 17:59:37","新北市八里區中山路二段107號","121.40578","25.15239","6502300","八里區"
"248014","025-BX","2017/06/08 17:59:18","新北市五股區成泰路一段98巷77號","121.4517","25.0790966666667","6501500","五股區"
"248006","077-UY","2017/06/08 17:59:20","新北市五股區中興路二段37巷28號","121.460185","25.0749933333333","6501500","五股區"
"248008","095-VK","2017/06/08 17:59:25","新北市五股區更洲路18號","121.458113333333","25.0789633333333","6501500","五股區"
"248020","225-UY","2017/06/08 17:59:37","新北市五股區中興路二段83巷26-6號","121.460126666667","25.0752433333333","6501500","五股區"
"248016","261-SL","2017/06/08 17:59:24","新北市五股區中興路二段163號","121.457655","25.0775333333333","6501500","五股區"
"248010","272-BY","2017/06/08 17:59:20","新北市五股區中興路二段103巷16號","121.45864","25.07608","6501500","五股區"
"232011","375-UM","2017/06/08 17:59:28","新北市坪林區北宜路八段298號","121.710326666667","24.93528","6502000","坪林區"
"244007","080-UY","2017/06/08 17:59:21","新北市林口區竹林路267號","121.389543333333","25.08087","6501700","林口區"
"244019","403-UM","2017/06/08 17:59:26","新北市林口區忠孝路542巷8號","121.372745","25.067105","6501700","林口區"
"244013","742-UY","2017/06/08 17:59:28","新北市林口區中山路190號","121.389196666667","25.078925","6501700","林口區"
"244009","410-SL","2017/06/08 17:59:19","新北市林口區竹林路582巷13號","121.385995","25.0833083333333","6501700","林口區"
"244023","483-VK","2017/06/08 17:59:35","新北市林口區育林街30號","121.385865","25.0737533333333","6501700","林口區"
"244017","485-VK","2017/06/08 17:59:16","新北市林口區公園路175號","121.370936666667","25.0721633333333","6501700","林口區"
"244011","701-TV","2017/06/08 17:59:20","新北市林口區中正路208號","121.390763333333","25.0776766666667","6501700","林口區"
"244025","837-TS","2017/06/08 17:59:21","新北市林口區文化三路一段39巷126號","121.359531666667","25.0683116666667","6501700","林口區"
"244021","838-TS","2017/06/08 17:59:36","新北市林口區新寮38號","121.40073","25.065905","6501700","林口區"
"243005","AAD-798","2017/06/08 17:59:36","新北市泰山區犁頭窠18號","121.419701666667","25.04989","6501600","泰山區"
"222003","436-BY","2017/06/08 17:59:36","新北市深坑區炮子崙24號","121.605236666667","24.9876166666667","6501800","深坑區"
"222002","659-BX","2017/06/08 17:59:30","新北市深坑區平埔街5巷2號","121.61572","25.0010883333333","6501800","深坑區"
"231007","189-VK","2017/06/08 12:01:24","新北市新店區安華路28-1號","121.519721666667","24.9610833333333","6500600","新店區"
"231046","278-BY","2017/06/08 17:59:34","新北市新店區康雅崙路1號","121.54041","24.92605","6500600","新店區"
"231027","3712-VJ","2017/06/08 15:34:03","新北市新店區安華路28-1號","121.519326666667","24.9606983333333","6500600","新店區"
"241017","063-VK","2017/06/08 17:59:37","新北市新莊區化成路966號","121.465071666667","25.0633283333333","6500200","三重區"
"241003","091-VK","2017/06/08 17:59:31","新北市新莊區瓊林南路77-41號","121.43762","25.0133833333333","6500200","三重區"
"241016","266-UM","2017/06/08 17:59:26","新北市三重區新北大道一段252號","121.48019","25.0616166666667","6500200","三重區"
"241024","271-UM","2017/06/08 17:59:36","新北市三重區國道路一段42號","121.48296","25.072985","6500200","三重區"
"241033","AAC-255","2017/06/08 17:59:17","新北市三重區重新路五段638號","121.468475","25.0445116666667","6500200","三重區"
"235064","005-UY","2017/06/08 17:59:28","新北市中和區員山路36巷16-3號","121.485076666667","24.99142","6500300","中和區"
"235063","006-UY","2017/06/08 17:59:27","新北市中和區員山路36巷16-3號","121.485108333333","24.9913016666667","6500300","中和區"
"235065","098-UM","2017/06/08 17:59:18","新北市中和區連城路469巷14號","121.483545","24.99531","6500300","中和區"
"235040","150-BY","2017/06/08 16:31:30","新北市中和區和城路一段271巷1號","121.485466666667","24.9918416666667","6500300","中和區"
"235058","151-BY","2017/06/08 17:59:38","新北市中和區錦和路350-1號","121.490081666667","24.99351","6500300","中和區"
"235038","185-VK","2017/06/08 17:59:20","新北市中和區中正路271號","121.495956666667","24.9937116666667","6500300","中和區"
"235067","255-BX","2017/06/08 17:43:34","新北市中和區員山路36巷16-4號","121.485313333333","24.9919333333333","6500300","中和區"
"235072","301-VK","2017/06/08 17:59:37","新北市中和區員山路36巷13號","121.48396","24.991065","6500300","中和區"
"235042","551-UM","2017/06/08 17:59:34","新北市中和區員山路36巷16-8號","121.48556","24.9922883333333","6500300","中和區"
"235071","783-BX","2017/06/08 17:59:33","新北市中和區員山路36巷16-2號","121.48529","24.9911766666667","6500300","中和區"
"235062","800-TS","2017/06/08 17:59:34","新北市中和區員山路36巷16-3號","121.485165","24.9913566666667","6500300","中和區"
"247018","500-BY","2017/06/08 17:59:38","新北市蘆洲區復興路306號","121.481393333333","25.09004","6501400","蘆洲區"
"247002","402-BY","2017/06/08 16:40:25","新北市五股區中興路三段3-6號","121.449421666667","25.0787566666667","6501400","蘆洲區"
"247006","341-TH","2017/06/08 17:59:26","新北市蘆洲區長榮路1號","121.463833333333","25.0817666666667","6501400","蘆洲區"
"247008","339-TH","2017/06/08 17:59:28","新北市蘆洲區成功路29號","121.473095","25.0796233333333","6501400","蘆洲區"
"247002","336-TH","2017/06/08 17:59:35","新北市蘆洲區永平街32巷45弄35號","121.458175","25.0930833333333","6501400","蘆洲區"
"247014","057-VK","2017/06/08 17:59:31","新北市八里區商港路120號","121.39292","25.1499583333333","6501400","蘆洲區"
"247012","007-UY","2017/06/08 17:59:33","新北市蘆洲區民族路119號","121.479695","25.0869","6501400","蘆洲區"
"247022","002-UY","2017/06/08 17:59:30","新北市蘆洲區中正路516巷5號","121.461735","25.0975866666667","6501400","蘆洲區"
"228001","212-TW","2017/06/08 17:59:23","新北市貢寮區真理里新港街26巷53號","121.92855","25.0536133333333","6502600","貢寮區"
"228002","585-TW","2017/06/08 17:59:21","新北市貢寮區福連里香蘭街5號","121.973948333333","25.0243633333333","6502600","貢寮區"
"228003","828-UM","2017/06/08 17:58:45","新北市貢寮區真理里美艷山街6-2號","121.928876666667","25.060725","6502600","貢寮區"
"224006","676-BX","2017/06/08 17:59:26","新北市瑞芳區傑魚坑路183號","121.788483333333","25.1082816666667","6501200","瑞芳區"
"224002","639-TC","2017/06/08 17:59:33","新北市瑞芳區三爪子坑路12號","121.810288333333","25.10665","6501200","瑞芳區"
"224011","420-VK","2017/06/08 17:59:23","新北市瑞芳區傑魚坑路319-1號","121.78581","25.103225","6501200","瑞芳區"
"224009","285-BY","2017/06/08 17:59:27","新北市瑞芳區山尖路191號","121.85109","25.1121083333333","6501200","瑞芳區"
"224008","275-VK","2017/06/08 17:59:38","新北市瑞芳區明燈路一段45巷75號","121.821913333333","25.1047616666667","6501200","瑞芳區"
"224007","273-VK","2017/06/08 17:59:30","新北市瑞芳區大寮路84號","121.780443333333","25.1013016666667","6501200","瑞芳區"
"224005","271-BY","2017/06/08 17:59:33","新北市瑞芳區深澳路10-2號","121.817405","25.1289166666667","6501200","瑞芳區"
"227004","642-TC","2017/06/08 17:36:54","新北市雙溪區共和里東榮街31號","121.866273333333","25.0335733333333","6502500","雙溪區"
"253006","032-BX","2017/06/08 17:59:31","新北市石門區大丘田45-2號","121.549758333333","25.2748616666667","6502200","石門區"
"253005","295-VK","2017/06/08 17:59:32","新北市石門區中山路62-11號","121.567535","25.2896433333333","6502200","石門區"
"208001","742-BX","2017/06/08 17:59:28","新北市金山區磺港里社寮16-1號","121.639038333333","25.2264983333333","6502700","金山區"
"208003","665-BX","2017/06/08 17:59:24","新北市金山區磺港里磺港路202-1號","121.645146666667","25.2275016666667","6502700","金山區"
"251009","008-UM","2017/06/08 17:26:47","新北市淡水區重建街1巷10號","121.439705","25.173745","6501000","淡水區"
"251004","009-UM","2017/06/08 17:59:21","新北市淡水區民族路110巷43弄7號","121.461546666667","25.1350316666667","6501000","淡水區"
"251001","011-UM","2017/06/08 17:59:24","新北市淡水區自立路12-4號","121.463326666667","25.1289666666667","6501000","淡水區"
"251008","181-VK","2017/06/08 17:59:24","新北市淡水區八勢一街23號","121.46166","25.1563466666667","6501000","淡水區"
"251014","182-VK","2017/06/08 17:59:25","新北市淡水區公埔子16-6號","121.481018333333","25.2245866666667","6501000","淡水區"
"251010","413-VK","2017/06/08 17:59:24","新北市淡水區淡海路53號","121.42313","25.1803566666667","6501000","淡水區"
"251012","441-VK","2017/06/08 17:59:39","新北市淡水區北新路三段38巷7號","121.484525","25.186965","6501000","淡水區"
"251016","442-VK","2017/06/08 17:59:29","新北市淡水區淡金路三段36號","121.448018333333","25.198985","6501000","淡水區"
"251005","443-VK","2017/06/08 17:59:34","新北市淡水區水源街一段83巷149-15號","121.448333333333","25.1730383333333","6501000","淡水區"
"251006","561-UM","2017/06/08 17:59:22","新北市淡水區真理街3巷20號","121.437606666667","25.1760183333333","6501000","淡水區"
"251011","650-BX","2017/06/08 17:59:20","新北市淡水區三空泉9-1號","121.474868333333","25.1627733333333","6501000","淡水區"
"251002","672-BX","2017/06/08 17:59:36","新北市淡水區中正東路8-8號","121.447988333333","25.1666433333333","6501000","淡水區"
"251003","766-UM","2017/06/08 17:59:29","新北市淡水區大忠街113巷10號","121.446933333333","25.1775366666667","6501000","淡水區"
"207003","550-UM","2017/06/08 17:59:20","新北市萬里區港東路野柳風景區攤販153號","121.690773333333","25.2054566666667","6502800","萬里區"
"207004","225-TW","2017/06/08 17:59:22","新北市萬里區中幅里中福路48號","121.683218333333","25.1740183333333","6502800","萬里區"
"252002","178-VK","2017/06/08 17:59:36","新北市三芝區中山路一段155號","121.502313333333","25.2559983333333","6502100","三芝區"
"252001","292-VK","2017/06/08 17:59:35","新北市三芝區中興街一段43號","121.497828333333","25.25748","6502100","三芝區"
"252007","AAC-283","2017/06/08 00:22:10","新北市三芝區埔坪里埔頭坑41號","121.504455","25.26445","6502100","三芝區"
"208002","170-UY","2017/06/08 17:59:27","新北市金山區三界壇路55號","121.627208333333","25.22802","6502700","金山區"
"237004","078-UY","2017/06/08 17:59:27","新北市三峽區中園街205號","121.366965","24.92073","6500900","三峽區"
"237007","153-BY","2017/06/08 17:59:17","新北市三峽區中園街108-4號","121.366741666667","24.923025","6500900","三峽區"
"237009","210-TH","2017/06/08 17:59:17","新北市三峽區文化路248號","121.36726","24.9359583333333","6500900","三峽區"
"237013","252-BX","2017/06/08 17:59:27","新北市三峽區長泰街78巷16號","121.376753333333","24.9335766666667","6500900","三峽區"
"237012","275-BY","2017/06/08 17:59:36","新北市三峽區民生街19巷3-1號","121.376143333333","24.9361933333333","6500900","三峽區"
"237008","302-VK","2017/06/08 17:59:30","新北市三峽區正義街153號","121.368191666667","24.9153166666667","6500900","三峽區"
"237014","433-BY","2017/06/08 17:59:18","新北市三峽區復興路101巷1弄77號","121.371103333333","24.9375233333333","6500900","三峽區"
"237006","5529-G3","2017/06/08 17:59:25","新北市三峽區介壽路二段136巷116-2號","121.392288333333","24.9327616666667","6500900","三峽區"
"237011","572-TV","2017/06/08 17:59:34","新北市三峽區大同路1-9號","121.377896666667","24.92935","6500900","三峽區"
"237016","649-BX","2017/06/08 17:59:39","新北市三峽區紫微路105號","121.409866666667","24.9124566666667","6500900","三峽區"
"237010","706-TV","2017/06/08 17:59:28","新北市三峽區文化路266-13號","121.366143333333","24.9356666666667","6500900","三峽區"
"237005","AKY-6261","2017/06/08 17:59:22","新北市三峽區復興路239-1號","121.368181666667","24.9385566666667","6500900","三峽區"
"236071","105-UM","2017/06/08 17:59:31","新北市土城區青雲路482-2號","121.46929","24.9644783333333","6501300","土城區"
"236042","107-UM","2017/06/08 17:59:34","新北市土城區中華路一段279號","121.440083333333","24.9797883333333","6501300","土城區"
"236078","166-UM","2017/06/08 17:59:28","新北市土城區永寧路93號","121.429141666667","24.95661","6501300","土城區"
"236030","253-BX","2017/06/08 17:59:35","新北市土城區城林路6巷80號","121.438468333333","24.9798016666667","6501300","土城區"
"236026","269-VK","2017/06/08 17:59:25","新北市土城區中華路二段1號","121.439583333333","24.9790766666667","6501300","土城區"
"236014","270-VK","2017/06/08 17:59:22","新北市土城區城林路6巷80號","121.438571666667","24.9795866666667","6501300","土城區"
"236037","271-VK","2017/06/08 17:59:18","新北市土城區城林路6巷80號","121.438416666667","24.9795716666667","6501300","土城區"
"236021","401-BY","2017/06/08 17:59:27","新北市土城區城林路6巷80號","121.438543333333","24.9796433333333","6501300","土城區"
"236058","912-UM","2017/06/08 17:59:36","新北市土城區中央路三段164-1號","121.43141","24.965405","6501300","土城區"
"236051","913-UM","2017/06/08 17:53:46","新北市土城區城林路6巷80號","121.438436666667","24.9795516666667","6501300","土城區"
"236062","915-UM","2017/06/08 17:59:24","新北市土城區城林路6巷80號","121.438441666667","24.9797016666667","6501300","土城區"
"236053","AAC-216","2017/06/08 17:59:29","新北市土城區城林路6巷80號","121.438271666667","24.979815","6501300","土城區"
"242021","AAC-296","2017/06/08 17:59:36","新北市新莊區中正路170號","121.45081","25.0359683333333","6500500","新莊區"
"242029","986-R7","2017/06/08 17:59:30","新北市新莊區中平路32號","121.444755","25.0434633333333","6500500","新莊區"
"242048","751-BX","2017/06/08 17:59:36","新北市新莊區萬安街57巷25號","121.422663333333","25.024055","6500500","新莊區"
"242025","615-BX","2017/06/08 17:59:27","新北市新莊區五工路86號","121.457211666667","25.0639916666667","6500500","新莊區"
"242023","613-BX","2017/06/08 17:59:39","新北市新莊區福壽街65號","121.45819","25.0493116666667","6500500","新莊區"
"242027","612-BX","2017/06/08 17:59:29","新北市新莊區思源路385號","121.459895","25.05138","6500500","新莊區"
"242036","566-BX","2017/06/08 17:59:33","新北市新莊區福營路250號","121.426075","25.029245","6500500","新莊區"
"242042","497-BY","2017/06/08 17:59:29","新北市新莊區壽山路31號","121.420016666667","25.0287183333333","6500500","新莊區"
"242004","442-UM","2017/06/08 17:59:17","新北市新莊區福樂街35號","121.457636666667","25.0469616666667","6500500","新莊區"
"242046","441-UM","2017/06/08 17:59:18","新北市新莊區福營路185號","121.431363333333","25.030815","6500500","新莊區"
"242031","415-TV","2017/06/08 17:59:26","新北市新莊區新泰路289巷35號","121.443958333333","25.0404616666667","6500500","新莊區"
"242002","413-TV","2017/06/08 17:59:38","新北市新莊區中正路147號","121.458095","25.0373666666667","6500500","新莊區"
"242039","400-BY","2017/06/08 17:59:21","新北市新莊區民安西路24巷14號","121.426371666667","25.0209616666667","6500500","新莊區"
"242061","362-BY","2017/06/08 17:59:30","新北市新莊區新樹路270號","121.432553333333","25.013265","6500500","新莊區"
"242058","353-BY","2017/06/08 17:59:32","新北市新莊區雙鳳路134巷2號","121.412975","25.0279133333333","6500500","新莊區"
"242011","132-UY","2017/06/08 17:59:38","新北市新莊區中港路中慶巷30號","121.449406666667","25.053785","6500500","新莊區"
"242034","133-UY","2017/06/08 17:59:33","新北市新莊區景德路382號","121.446228333333","25.033585","6500500","新莊區"
"242019","135-UY","2017/06/08 17:59:27","新北市新莊區明中街51巷1號","121.456753333333","25.0396983333333","6500500","新莊區"
"242044","172-VK","2017/06/08 17:59:34","新北市新莊區雙鳳路21號","121.416765","25.0269316666667","6500500","新莊區"
"242007","173-VK","2017/06/08 17:59:24","新北市新莊區自信街75巷13號","121.455781666667","25.048805","6500500","新莊區"
"242013","175-VK","2017/06/08 17:59:25","新北市新莊區中和街92號","121.447633333333","25.0468133333333","6500500","新莊區"
"242056","176-VK","2017/06/08 17:59:21","新北市新莊區豐年街124巷18號","121.44551","25.029835","6500500","新莊區"
"242051","346-TH","2017/06/08 17:59:21","新北市新莊區民安西路135號","121.426483333333","25.0176866666667","6500500","新莊區"
"242017","348-TH","2017/06/08 17:59:39","新北市新莊區中和街60巷47號","121.44997","25.0450316666667","6500500","新莊區"
"242053","349-TH","2017/06/08 17:59:18","新北市新莊區光華街26號","121.428778333333","25.0111283333333","6500500","新莊區"
"242015","350-TH","2017/06/08 17:59:29","新北市新莊區中平路119巷19號","121.44392","25.0466816666667","6500500","新莊區"
"242009","351-TH","2017/06/08 17:59:29","新北市新莊區昌平街36號","121.454826666667","25.0531233333333","6500500","新莊區"
"238015","755-BX","2017/06/08 17:59:37","新北市樹林區復興路198號","121.419741666667","24.991035","6500700","樹林區"
"238023","601-UM","2017/06/08 17:59:32","新北市樹林區龍興街29號","121.402991666667","25.015895","6500700","樹林區"
"238019","599-UM","2017/06/08 17:59:36","新北市樹林區中華路69號","121.423175","24.983205","6500700","樹林區"
"238018","571-TV","2017/06/08 17:59:37","新北市樹林區中正路7-1號","121.430235","24.9975883333333","6500700","樹林區"
"238022","312-TH","2017/06/08 17:59:26","新北市樹林區太順街51巷1號","121.41769","24.9791416666667","6500700","樹林區"
"238021","311-TH","2017/06/08 17:59:21","新北市樹林區柑園街一段115號","121.40111","24.95986","6500700","樹林區"
"238025","303-VK","2017/06/08 17:59:30","新北市樹林區俊興街232號","121.417865","25.01541","6500700","樹林區"
"238017","283-BY","2017/06/08 17:59:27","新北市樹林區中正路745號","121.411056666667","25.0146716666667","6500700","樹林區"
"238014","282-BY","2017/06/08 17:59:23","新北市樹林區保安街一段219號","121.420405","24.9962816666667","6500700","樹林區"
"238020","268-VK","2017/06/08 17:59:21","新北市新莊區龍安路254巷18-1號","121.420661666667","25.0184233333333","6500700","樹林區"
"238026","172-UY","2017/06/08 17:59:31","新北市樹林區中洲街30巷13弄35號","121.398193333333","24.9722866666667","6500700","樹林區"
"238016","169-UY","2017/06/08 17:59:40","新北市樹林區啟智街137巷10弄12號","121.417706666667","24.98792","6500700","樹林區"
"239007","AAC-297","2017/06/08 17:59:31","新北市鶯歌區鶯桃路94巷59弄9號","121.341608333333","24.9552666666667","6500800","鶯歌區"
"239006","891-R6","2017/06/08 17:59:34","新北市鶯歌區鶯桃路413巷74號","121.329783333333","24.9631","6500800","鶯歌區"
"239008","527-UM","2017/06/08 17:59:30","新北市鶯歌區欣欣街5號","121.336745","24.978375","6500800","鶯歌區"
"239001","417-VK","2017/06/08 17:59:28","新北市鶯歌區中正三路152號","121.335965","24.9397116666667","6500800","鶯歌區"
"239003","360-BY","2017/06/08 17:59:19","新北市鶯歌區鶯桃路213-1號","121.336998333333","24.95905","6500800","鶯歌區"
"239002","359-BY","2017/06/08 17:59:23","新北市鶯歌區光明街15巷5號","121.34897","24.95559","6500800","鶯歌區"
"221036","130-UY","2017/06/08 17:59:27","新北市汐止區大同路三段42號","121.66731","25.0766066666667","6501100","汐止區"
"221015","131-UY","2017/06/08 17:59:25","新北市汐止區長江街285-1號","121.665241666667","25.08113","6501100","汐止區"
"221010","269-BY","2017/06/08 17:59:35","新北市汐止區汐萬路二段245巷56號","121.645338333333","25.087565","6501100","汐止區"
"221012","278-VK","2017/06/08 17:59:32","新北市汐止區長興街二段24號","121.673093333333","25.0812566666667","6501100","汐止區"
"221023","279-VK","2017/06/08 15:19:46","新北市汐止區汐萬路一段256巷1號","121.651626666667","25.0748066666667","6501100","汐止區"
"221032","280-BY","2017/06/08 17:59:28","新北市汐止區橫科路73巷2-2號","121.619543333333","25.0506016666667","6501100","汐止區"
"221002","281-BY","2017/06/08 17:59:24","新北市汐止區大同路二段430號","121.659098333333","25.0671583333333","6501100","汐止區"
"221038","297-VK","2017/06/08 17:59:32","新北市汐止區連興街52號","121.653975","25.0629283333333","6501100","汐止區"
"221029","298-VK","2017/06/08 17:59:18","新北市汐止區樟樹二路336號","121.641706666667","25.0703983333333","6501100","汐止區"
"221021","299-VK","2017/06/08 15:08:11","新北市汐止區汐萬路一段256巷3號","121.652126666667","25.07485","6501100","汐止區"
"221035","622-UM","2017/06/08 17:59:37","新北市汐止區新江北路30巷20號","121.651856666667","25.0695833333333","6501100","汐止區"
"221025","623-UM","2017/06/08 17:59:20","新北市汐止區仁愛路13號","121.659128333333","25.0639933333333","6501100","汐止區"
"221033","647-BX","2017/06/08 17:59:31","台北市南港區福山街44巷15弄31號","121.617931666667","25.045395","6501100","汐止區"
"221002","707-TV","2017/06/08 17:59:29","新北市汐止區工建路202號","121.636845","25.0626316666667","6501100","汐止區"
"221018","753-BX","2017/06/08 17:59:26","新北市汐止區招商街11巷1號","121.666485","25.0688616666667","6501100","汐止區"
