"lineid","car","time","location","longitude","latitude","cityid","cityname"
"234013","149-BY","2017/06/08 18:09:25","新北市永和區福和路1號","121.52659","25.009855","6500400","永和區"
"234007","207-UY","2017/06/08 18:09:22","新北市永和區環河西路二段111號","121.506176666667","25.0146916666667","6500400","永和區"
"234062","337-UY","2017/06/08 18:09:33","新北市永和區福和路1號","121.525968333333","25.010015","6500400","永和區"
"234026","9371-KE","2017/06/08 18:09:31","新北市永和區自強街8巷2號","121.514668333333","25.0078533333333","6500400","永和區"
"234011","9373-KE","2017/06/08 17:47:38","新北市永和區福和路1號","121.526018333333","25.0093116666667","6500400","永和區"
"249005","172-UM","2017/06/08 18:09:29","新北市八里區荖阡坑路17-10號","121.402023333333","25.1388866666667","6502300","八里區"
"249001","173-UM","2017/06/08 18:09:22","新北市八里區龍米路二段11號","121.448661666667","25.1394416666667","6502300","八里區"
"249004","303-UY","2017/06/08 18:09:33","新北市八里區龍米路二段159巷2-10號","121.438876666667","25.15321","6502300","八里區"
"249002","305-UY","2017/06/08 17:09:10","新北市八里區龍米路二段147巷7號","121.442053333333","25.15054","6502300","八里區"
"249003","593-UM","2017/06/08 18:09:17","新北市八里區中華路二段165巷3號","121.407605","25.1509633333333","6502300","八里區"
"248014","025-BX","2017/06/08 18:09:18","新北市五股區成泰路一段219-4號","121.435316666667","25.077375","6501500","五股區"
"248006","077-UY","2017/06/08 18:09:20","新北市五股區中興路二段82號","121.460871666667","25.07725","6501500","五股區"
"248008","095-VK","2017/06/08 18:09:25","新北市五股區更洲路32巷15弄9號","121.458371666667","25.0804133333333","6501500","五股區"
"248020","225-UY","2017/06/08 18:09:37","新北市五股區成泰路四段2號","121.45286","25.1061616666667","6501500","五股區"
"248012","247-BX","2017/06/08 15:12:11","新北市五股區中興路二段37巷26號","121.460533333333","25.075045","6501500","五股區"
"248016","261-SL","2017/06/08 18:09:24","新北市五股區成泰路三段221巷18號","121.44571","25.09348","6501500","五股區"
"248010","272-BY","2017/06/08 18:09:20","新北市五股區新五路二段137號","121.439363333333","25.08096","6501500","五股區"
"248002","678-BX","2017/06/08 18:09:29","新北市五股區新五路二段258號","121.440823333333","25.0822433333333","6501500","五股區"
"232011","375-UM","2017/06/08 18:09:28","新北市坪林區坪林街114號","121.710711666667","24.9358866666667","6502000","坪林區"
"244007","080-UY","2017/06/08 18:09:21","新北市林口區林口路235號","121.386985","25.0834433333333","6501700","林口區"
"244019","403-UM","2017/06/08 18:09:25","新北市林口區文化一路一段24號","121.370361666667","25.0685466666667","6501700","林口區"
"244013","742-UY","2017/06/08 18:09:34","新北市林口區中山路5號","121.396491666667","25.078055","6501700","林口區"
"244009","410-SL","2017/06/08 18:09:19","新北市林口區竹林路606巷15號","121.385563333333","25.0828583333333","6501700","林口區"
"244023","483-VK","2017/06/08 18:09:15","新北市林口區隆林街215巷26號","121.383611666667","25.0732833333333","6501700","林口區"
"244017","485-VK","2017/06/08 18:09:36","新北市林口區文化一路一段31-5號","121.370183333333","25.0688933333333","6501700","林口區"
"244011","701-TV","2017/06/08 18:09:20","新北市林口區中正路89號","121.394613333333","25.0773333333333","6501700","林口區"
"244025","837-TS","2017/06/08 18:09:21","新北市林口區文明街182號","121.361175","25.0726633333333","6501700","林口區"
"244021","838-TS","2017/06/08 18:09:17","新北市林口區自強三街21號","121.397665","25.077355","6501700","林口區"
"243005","AAD-798","2017/06/08 18:09:36","新北市泰山區南林路99巷1-1號","121.415321666667","25.0511433333333","6501600","泰山區"
"222003","436-BY","2017/06/08 18:09:34","新北市深坑區腳坑2-1號","121.610535","24.9950833333333","6501800","深坑區"
"222002","659-BX","2017/06/08 18:09:30","新北市深坑區文化街52號","121.618973333333","25.0015783333333","6501800","深坑區"
"222001","696-SL","2017/06/08 18:09:28","新北市深坑區北深路二段151號","121.614106666667","25.0022033333333","6501800","深坑區"
"231052","187-VK","2017/06/08 15:58:48","新北市新店區安華路28-1號","121.519508333333","24.9612466666667","6500600","新店區"
"231007","189-VK","2017/06/08 12:01:24","新北市新店區安華路28-1號","121.519721666667","24.9610833333333","6500600","新店區"
"231046","278-BY","2017/06/08 18:09:34","新北市新店區直潭路113號","121.532421666667","24.9343433333333","6500600","新店區"
"231058","3712-VJ","2017/06/08 18:09:36","新北市新店區安華路28-1號","121.519366666667","24.9605533333333","6500600","新店區"
"231055","3713-VJ","2017/06/08 18:09:30","新北市新店區安華路28-1號","121.519236666667","24.960715","6500600","新店區"
"231045","617-UM","2017/06/08 18:09:25","新北市新店區安華路28-1號","121.519508333333","24.96067","6500600","新店區"
"231062","720-UM","2017/06/08 18:09:31","新北市新店區安華路28-1號","121.519273333333","24.9612533333333","6500600","新店區"
"241017","063-VK","2017/06/08 18:09:37","新北市五股區中興路三段2巷10號","121.448166666667","25.0842616666667","6500200","三重區"
"241003","091-VK","2017/06/08 18:09:31","新北市樹林區八德街369-1號","121.416111666667","24.9715633333333","6500200","三重區"
"241024","271-UM","2017/06/08 18:09:36","新北市三重區力行路一段277號","121.482138333333","25.0716816666667","6500200","三重區"
"241033","AAC-255","2017/06/08 18:09:37","新北市三重區中興北街56-1號","121.469106666667","25.0515083333333","6500200","三重區"
"235066","003-UY","2017/06/08 18:09:33","新北市中和區圓通路177號","121.497553333333","24.9950166666667","6500300","中和區"
"235064","005-UY","2017/06/08 18:09:28","新北市中和區錦和路350-1號","121.490371666667","24.993615","6500300","中和區"
"235063","006-UY","2017/06/08 18:09:27","新北市中和區員山路36巷16-3號","121.485053333333","24.991255","6500300","中和區"
"235056","096-UM","2017/06/08 18:09:19","新北市中和區中正路637巷52弄1號","121.485465","24.9935483333333","6500300","中和區"
"235065","098-UM","2017/06/08 18:09:18","新北市中和區中山路二段2巷85號","121.500925","25.0077133333333","6500300","中和區"
"235040","150-BY","2017/06/08 18:09:29","新北市中和區和城路一段271巷1號","121.485578333333","24.991665","6500300","中和區"
"235058","151-BY","2017/06/08 18:09:18","新北市中和區圓通路367巷33弄41號","121.495383333333","24.98558","6500300","中和區"
"235038","185-VK","2017/06/08 18:09:20","新北市中和區景平路188號","121.515648333333","24.9921366666667","6500300","中和區"
"235067","255-BX","2017/06/08 18:09:34","新北市中和區員山路36巷16-2號","121.485118333333","24.9918133333333","6500300","中和區"
"235072","301-VK","2017/06/08 18:09:37","新北市中和區員山路36巷12號","121.483948333333","24.991075","6500300","中和區"
"235051","376-QA","2017/06/08 18:08:55","新北市中和區中正路466號","121.49004","24.9941066666667","6500300","中和區"
"235061","378-QA","2017/06/08 18:09:18","新北市中和區員山路72號","121.480995","24.9935516666667","6500300","中和區"
"235050","4979-A6","2017/06/08 18:09:39","新北市中和區中正路637巷60弄61號","121.48553","24.9932266666667","6500300","中和區"
"235069","4980-A6","2017/06/08 18:09:27","新北市中和區中正路637巷60弄61號","121.485465","24.9930816666667","6500300","中和區"
"235042","551-UM","2017/06/08 18:09:34","新北市中和區景平路406號","121.508781666667","24.99311","6500300","中和區"
"235070","558-UM","2017/06/08 18:09:37","新北市中和區員山路36巷16-3號","121.485028333333","24.99134","6500300","中和區"
"235045","565-BX","2017/06/08 18:09:37","新北市中和區員山路36巷13號","121.484413333333","24.9909016666667","6500300","中和區"
"235054","640-BX","2017/06/08 18:09:25","新北市土城區延壽路77巷4弄3號","121.46921","24.9928533333333","6500300","中和區"
"235071","783-BX","2017/06/08 18:09:33","新北市中和區員山路36巷16-2號","121.48537","24.9911283333333","6500300","中和區"
"235062","800-TS","2017/06/08 18:09:34","新北市中和區民樂路81號","121.484588333333","25.0012616666667","6500300","中和區"
"235052","805-TS","2017/06/08 18:09:34","新北市中和區錦和路350-1號","121.49043","24.9935783333333","6500300","中和區"
"235037","AAC-213","2017/06/08 18:09:29","新北市中和區錦和路350-1號","121.49054","24.9935366666667","6500300","中和區"
"247002","402-BY","2017/06/08 16:40:25","新北市五股區中興路三段3-6號","121.449421666667","25.0787566666667","6501400","蘆洲區"
"247006","341-TH","2017/06/08 18:09:26","新北市五股區中直路17-3號","121.421876666667","25.1117066666667","6501400","蘆洲區"
"247014","057-VK","2017/06/08 18:09:31","新北市林口區太平里180號","121.36826","25.1346433333333","6501400","蘆洲區"
"226004","312-R5","2017/06/08 18:09:25","新北市平溪區薯榔里薯榔寮27號","121.714085","25.019425","6502400","平溪區"
"228001","212-TW","2017/06/08 18:09:23","新北市貢寮區真理里新港街26巷55弄2-1號","121.927388333333","25.052845","6502600","貢寮區"
"228002","585-TW","2017/06/08 18:09:21","新北市貢寮區福連里馬崗街31-5號","122.002346666667","25.0126116666667","6502600","貢寮區"
"228003","828-UM","2017/06/08 18:09:25","新北市貢寮區真理里美艷山街6-2號","121.928886666667","25.0607083333333","6502600","貢寮區"
"224006","676-BX","2017/06/08 18:09:26","新北市瑞芳區三爪子坑路32巷124號","121.809205","25.10649","6501200","瑞芳區"
"224002","639-TC","2017/06/08 18:09:33","新北市瑞芳區三爪子坑路32巷94號","121.80945","25.1064566666667","6501200","瑞芳區"
"224011","420-VK","2017/06/08 18:09:23","新北市瑞芳區中山路176號","121.801703333333","25.1065966666667","6501200","瑞芳區"
"224009","285-BY","2017/06/08 18:09:27","新北市瑞芳區金光路117號","121.853526666667","25.1062383333333","6501200","瑞芳區"
"224008","275-VK","2017/06/08 18:09:18","新北市瑞芳區員山子路23號","121.821401666667","25.1030283333333","6501200","瑞芳區"
"224007","273-VK","2017/06/08 18:09:30","新北市瑞芳區大寮路84號","121.780391666667","25.1013033333333","6501200","瑞芳區"
"224005","271-BY","2017/06/08 18:09:32","新北市瑞芳區深澳路123-1號","121.819011666667","25.1308416666667","6501200","瑞芳區"
"253006","032-BX","2017/06/08 18:09:31","新北市石門區老梅路52巷25弄2-1號","121.546678333333","25.2873783333333","6502200","石門區"
"253005","295-VK","2017/06/08 18:09:32","新北市石門區福安街47號","121.568423333333","25.2918666666667","6502200","石門區"
"208001","742-BX","2017/06/08 18:09:28","新北市金山區磺港里磺港路111號","121.646308333333","25.2267433333333","6502700","金山區"
"208003","665-BX","2017/06/08 18:09:24","新北市金山區磺港里磺港路308號","121.643883333333","25.2274233333333","6502700","金山區"
"251009","008-UM","2017/06/08 17:26:47","新北市淡水區重建街1巷10號","121.439705","25.173745","6501000","淡水區"
"251004","009-UM","2017/06/08 18:09:21","新北市淡水區民族路91號","121.462656666667","25.1338183333333","6501000","淡水區"
"251001","011-UM","2017/06/08 18:09:38","新北市淡水區自立路1巷19號","121.462715","25.1296916666667","6501000","淡水區"
"251008","181-VK","2017/06/08 18:09:24","新北市淡水區淡金路16巷26號","121.459291666667","25.1608533333333","6501000","淡水區"
"251014","182-VK","2017/06/08 18:09:25","新北市淡水區南平15號","121.488503333333","25.219035","6501000","淡水區"
"251010","413-VK","2017/06/08 18:09:24","新北市淡水區中正路二段50巷10號","121.419968333333","25.18344","6501000","淡水區"
"251012","441-VK","2017/06/08 18:09:19","新北市淡水區北新路三段174號","121.492858333333","25.19284","6501000","淡水區"
"251016","442-VK","2017/06/08 18:09:28","新北市淡水區下圭柔山13號","121.451203333333","25.2007733333333","6501000","淡水區"
"251005","443-VK","2017/06/08 18:09:35","新北市淡水區水源街一段120號","121.44721","25.1716033333333","6501000","淡水區"
"251006","561-UM","2017/06/08 18:09:22","新北市淡水區新民街76巷36弄1號","121.439515","25.1780066666667","6501000","淡水區"
"251011","650-BX","2017/06/08 18:09:20","新北市淡水區三空泉9-2號","121.4741","25.1634783333333","6501000","淡水區"
"251002","672-BX","2017/06/08 18:09:16","新北市淡水區中正東路一段52號","121.4526","25.1619533333333","6501000","淡水區"
"251003","766-UM","2017/06/08 18:09:19","新北市淡水區北新路184巷3-1號","121.449393333333","25.1782733333333","6501000","淡水區"
"207003","550-UM","2017/06/08 18:09:21","新北市萬里區野柳里港西路10號","121.685073333333","25.2039833333333","6502800","萬里區"
"207004","225-TW","2017/06/08 18:09:22","新北市萬里區中幅里中福路106號","121.676328333333","25.1696016666667","6502800","萬里區"
"252002","178-VK","2017/06/08 18:09:36","新北市三芝區中山路二段41號","121.502955","25.2550816666667","6502100","三芝區"
"252003","249-BX","2017/06/08 18:09:28","新北市三芝區埔頭里埔頭37號","121.498435","25.2602433333333","6502100","三芝區"
"252001","292-VK","2017/06/08 18:09:35","新北市三芝區中興街二段2號","121.498348333333","25.2566766666667","6502100","三芝區"
"252007","AAC-283","2017/06/08 00:22:10","新北市三芝區埔坪里埔頭坑41號","121.504455","25.26445","6502100","三芝區"
"208002","170-UY","2017/06/08 18:09:32","新北市金山區三界壇路99巷9-1號","121.621121666667","25.2281483333333","6502700","金山區"
"237004","078-UY","2017/06/08 18:09:27","新北市三峽區大埔路150-2號","121.36476","24.8982633333333","6500900","三峽區"
"237007","153-BY","2017/06/08 18:09:37","新北市三峽區中正路二段326號","121.365968333333","24.9107233333333","6500900","三峽區"
"237009","210-TH","2017/06/08 18:09:17","新北市三峽區大仁路32號","121.365965","24.93778","6500900","三峽區"
"237013","252-BX","2017/06/08 18:09:27","新北市三峽區長泰街41巷10號","121.377508333333","24.9322583333333","6500900","三峽區"
"237012","275-BY","2017/06/08 18:09:16","新北市三峽區民生街19巷7弄36-4號","121.377303333333","24.9354716666667","6500900","三峽區"
"237008","302-VK","2017/06/08 18:09:30","新北市三峽區白雞42-3號","121.378871666667","24.9113733333333","6500900","三峽區"
"237014","433-BY","2017/06/08 18:09:18","新北市三峽區和平街95號","121.370206666667","24.937855","6500900","三峽區"
"237006","5529-G3","2017/06/08 18:09:25","新北市三峽區介壽路二段138巷102-1號","121.399035","24.9317383333333","6500900","三峽區"
"237011","572-TV","2017/06/08 18:09:34","新北市三峽區溪東路89號","121.401385","24.93463","6500900","三峽區"
"237016","649-BX","2017/06/08 18:09:19","新北市三峽區紫新路48號","121.422043333333","24.9220116666667","6500900","三峽區"
"237010","706-TV","2017/06/08 18:09:17","新北市三峽區民權街168號","121.367883333333","24.9301283333333","6500900","三峽區"
"237005","AKY-6261","2017/06/08 18:09:22","新北市三峽區文化路65巷2號","121.371921666667","24.9357866666667","6500900","三峽區"
"236071","105-UM","2017/06/08 18:09:31","新北市土城區石門路32巷2號","121.457701666667","24.9646333333333","6501300","土城區"
"236042","107-UM","2017/06/08 18:09:34","新北市土城區裕生路65-1號","121.44754","24.9858133333333","6501300","土城區"
"236078","166-UM","2017/06/08 18:09:28","新北市土城區永寧路32巷6號","121.429073333333","24.96064","6501300","土城區"
"236030","253-BX","2017/06/08 18:09:35","新北市土城區城林路6巷80號","121.438468333333","24.9798016666667","6501300","土城區"
"236026","269-VK","2017/06/08 18:09:25","新北市土城區承天路67號","121.43963","24.9635016666667","6501300","土城區"
"236014","270-VK","2017/06/08 18:09:22","新北市土城區學府路二段5號","121.449426666667","24.9820916666667","6501300","土城區"
"236037","271-VK","2017/06/08 18:09:17","新北市土城區金城路二段14號","121.449456666667","24.977485","6501300","土城區"
"236021","401-BY","2017/06/08 18:09:27","新北市土城區中央路二段278巷2-1號","121.440676666667","24.97437","6501300","土城區"
"236058","912-UM","2017/06/08 18:09:15","新北市土城區中央路四段38號","121.420861666667","24.96083","6501300","土城區"
"236051","913-UM","2017/06/08 18:09:26","新北市土城區金城路二段14號","121.449436666667","24.97744","6501300","土城區"
"236062","915-UM","2017/06/08 18:09:24","新北市土城區金城路二段37號","121.44993","24.9778616666667","6501300","土城區"
"236053","AAC-216","2017/06/08 18:09:29","新北市土城區中華路二段193號","121.438223333333","24.974435","6501300","土城區"
"242021","AAC-296","2017/06/08 18:09:15","新北市新莊區中華路一段63巷40號","121.450055","25.0392766666667","6500500","新莊區"
"242029","986-R7","2017/06/08 18:09:30","新北市新莊區中平路110巷11號","121.445628333333","25.0461133333333","6500500","新莊區"
"242048","751-BX","2017/06/08 18:09:36","新北市新莊區民安路49號","121.423945","25.0262533333333","6500500","新莊區"
"242025","615-BX","2017/06/08 18:09:27","新北市新莊區五工一路96號","121.460573333333","25.0680233333333","6500500","新莊區"
"242023","613-BX","2017/06/08 18:09:19","新北市新莊區幸福路829號","121.444855","25.049035","6500500","新莊區"
"242027","612-BX","2017/06/08 18:09:34","新北市新莊區幸福路577號","121.45392","25.0491316666667","6500500","新莊區"
"242036","566-BX","2017/06/08 18:09:29","新北市新莊區後港一路49巷3弄1號","121.42579","25.02678","6500500","新莊區"
"242042","497-BY","2017/06/08 18:09:29","新北市新莊區雙鳳路116巷15弄2號","121.413485","25.0291283333333","6500500","新莊區"
"242004","442-UM","2017/06/08 18:09:37","新北市新莊區自立街78號","121.454416666667","25.0453716666667","6500500","新莊區"
"242046","441-UM","2017/06/08 18:09:38","新北市新莊區民安路29號","121.423376666667","25.0275533333333","6500500","新莊區"
"242031","415-TV","2017/06/08 18:09:26","新北市新莊區新泰路257號","121.445898333333","25.0398416666667","6500500","新莊區"
"242002","413-TV","2017/06/08 18:09:20","新北市新莊區新莊路90號","121.456696666667","25.0362766666667","6500500","新莊區"
"242039","400-BY","2017/06/08 18:09:21","新北市新莊區民安東路45號","121.429215","25.02093","6500500","新莊區"
"242061","362-BY","2017/06/08 18:09:32","新北市新莊區新樹路259-2號","121.434501666667","25.0212783333333","6500500","新莊區"
"242058","353-BY","2017/06/08 18:09:31","新北市新莊區壽山路45號","121.41469","25.0311416666667","6500500","新莊區"
"242011","132-UY","2017/06/08 18:09:18","新北市新莊區中榮街47號","121.449463333333","25.0526883333333","6500500","新莊區"
"242034","133-UY","2017/06/08 18:09:33","新北市新莊區景德路266號","121.448395","25.0336533333333","6500500","新莊區"
"242019","135-UY","2017/06/08 18:09:27","新北市新莊區公園路202巷1號","121.454701666667","25.04021","6500500","新莊區"
"242044","172-VK","2017/06/08 18:09:34","新北市新莊區雙鳳路163巷2號","121.412798333333","25.026835","6500500","新莊區"
"242007","173-VK","2017/06/08 18:09:33","新北市新莊區自重街2號","121.453408333333","25.0473633333333","6500500","新莊區"
"242013","175-VK","2017/06/08 18:09:25","新北市新莊區中和街122號","121.447523333333","25.0478366666667","6500500","新莊區"
"242056","176-VK","2017/06/08 18:09:23","新北市新莊區豐年街豐2巷13號","121.447115","25.0308316666667","6500500","新莊區"
"242051","346-TH","2017/06/08 18:09:22","新北市新莊區民本街23巷17號","121.429098333333","25.01982","6500500","新莊區"
"242017","348-TH","2017/06/08 18:09:39","新北市新莊區永樂街2號","121.45218","25.045205","6500500","新莊區"
"242053","349-TH","2017/06/08 18:09:38","新北市新莊區民安西路356號","121.42738","25.0112166666667","6500500","新莊區"
"242015","350-TH","2017/06/08 18:09:26","新北市新莊區中平路132巷8號","121.44539","25.046695","6500500","新莊區"
"242009","351-TH","2017/06/08 18:09:29","新北市新莊區幸福路751號","121.448413333333","25.0491566666667","6500500","新莊區"
"238015","755-BX","2017/06/08 18:09:37","新北市樹林區大安路493號","121.414363333333","24.9869033333333","6500700","樹林區"
"238023","601-UM","2017/06/08 18:09:32","新北市樹林區龍興街46巷28號","121.402033333333","25.0152133333333","6500700","樹林區"
"238019","599-UM","2017/06/08 18:09:36","新北市樹林區國凱街140巷1號","121.423885","24.9804416666667","6500700","樹林區"
"238018","571-TV","2017/06/08 18:09:16","新北市樹林區保順街85號","121.429066666667","24.99438","6500700","樹林區"
"238022","312-TH","2017/06/08 18:09:26","新北市樹林區太平路174巷32弄1號","121.417296666667","24.976505","6500700","樹林區"
"238021","311-TH","2017/06/08 18:09:21","新北市樹林區柑園街一段33巷26號","121.405993333333","24.9555433333333","6500700","樹林區"
"238025","303-VK","2017/06/08 18:09:29","新北市樹林區保安街二段281-1號","121.41258","25.0059783333333","6500700","樹林區"
"238017","283-BY","2017/06/08 18:09:27","新北市樹林區中正路825號","121.40927","25.0171966666667","6500700","樹林區"
"238014","282-BY","2017/06/08 18:09:23","新北市樹林區中正路59號","121.426525","24.999925","6500700","樹林區"
"238020","268-VK","2017/06/08 18:09:36","新北市樹林區三龍街115號","121.417505","25.0182983333333","6500700","樹林區"
"238026","172-UY","2017/06/08 18:09:31","新北市樹林區育德街35號","121.391876666667","24.97032","6500700","樹林區"
"238016","169-UY","2017/06/08 18:09:20","新北市樹林區中山路一段276號","121.420713333333","24.9870216666667","6500700","樹林區"
"239007","AAC-297","2017/06/08 18:09:31","新北市鶯歌區尖山埔路165巷1號","121.346193333333","24.9504833333333","6500800","鶯歌區"
"239006","891-R6","2017/06/08 18:09:20","新北市鶯歌區鶯桃路457號","121.332098333333","24.96568","6500800","鶯歌區"
"239008","527-UM","2017/06/08 18:09:30","新北市鶯歌區朝陽街61巷31號","121.33888","24.977685","6500800","鶯歌區"
"239001","417-VK","2017/06/08 18:09:28","新北市鶯歌區國中街64號","121.342033333333","24.94305","6500800","鶯歌區"
"239003","360-BY","2017/06/08 18:09:19","新北市鶯歌區福安街7巷1-1號","121.334843333333","24.9647066666667","6500800","鶯歌區"
"239002","359-BY","2017/06/08 18:09:22","新北市鶯歌區中山路329巷8號","121.343926666667","24.95649","6500800","鶯歌區"
"221036","130-UY","2017/06/08 18:09:26","新北市汐止區大同路三段155號","121.670128333333","25.0776366666667","6501100","汐止區"
"221015","131-UY","2017/06/08 18:09:25","新北市汐止區鄉長路二段33號","121.667765","25.08344","6501100","汐止區"
"221010","269-BY","2017/06/08 18:09:33","新北市汐止區汐萬路二段258號","121.64578","25.089165","6501100","汐止區"
"221012","278-VK","2017/06/08 18:09:32","新北市汐止區保一街47-2號","121.674525","25.0802216666667","6501100","汐止區"
"221023","279-VK","2017/06/08 15:19:46","新北市汐止區汐萬路一段256巷1號","121.651626666667","25.0748066666667","6501100","汐止區"
"221032","280-BY","2017/06/08 18:09:28","新北市汐止區力行街15號","121.617133333333","25.050835","6501100","汐止區"
"221002","281-BY","2017/06/08 18:09:24","新北市汐止區大同路二段595號","121.663583333333","25.0705783333333","6501100","汐止區"
"221038","297-VK","2017/06/08 18:09:32","新北市汐止區南興路83巷11號","121.65352","25.0591716666667","6501100","汐止區"
"221029","298-VK","2017/06/08 18:09:18","新北市汐止區樟樹二路134號","121.639936666667","25.0657833333333","6501100","汐止區"
"221021","299-VK","2017/06/08 15:08:11","新北市汐止區汐萬路一段256巷3號","121.652126666667","25.07485","6501100","汐止區"
"221035","622-UM","2017/06/08 18:09:18","新北市汐止區大同路二段207號","121.652833333333","25.0645183333333","6501100","汐止區"
"221025","623-UM","2017/06/08 18:09:20","新北市汐止區秀峰路151巷1號","121.660768333333","25.062055","6501100","汐止區"
"221033","647-BX","2017/06/08 18:09:31","新北市汐止區林森街1號","121.621035","25.0411416666667","6501100","汐止區"
"221002","707-TV","2017/06/08 18:09:32","新北市汐止區福德一路221號","121.634428333333","25.06508","6501100","汐止區"
"221018","753-BX","2017/06/08 18:09:25","新北市汐止區忠孝東路384號","121.665573333333","25.07018","6501100","汐止區"
