"lineid","car","time","location","longitude","latitude","cityid","cityname"
"234046","148-BY","2017/06/08 18:49:33","新北市永和區秀朗路二段126巷30號","121.524585","25.0007683333333","6500400","永和區"
"234013","149-BY","2017/06/08 18:49:25","新北市永和區保福路二段133巷32號","121.508971666667","25.0134383333333","6500400","永和區"
"234007","207-UY","2017/06/08 18:49:22","新北市永和區復興街16巷4號","121.515301666667","25.012655","6500400","永和區"
"234081","298-R6","2017/06/08 18:49:31","新北市永和區永利路81巷1號","121.521376666667","25.00382","6500400","永和區"
"234038","336-UY","2017/06/08 18:49:34","新北市永和區成功路二段217巷3號","121.526566666667","24.995655","6500400","永和區"
"234064","337-UY","2017/06/08 18:49:33","新北市永和區福和路10巷1號","121.524603333333","25.0087133333333","6500400","永和區"
"234086","338-UY","2017/06/08 18:49:30","新北市中和區安樂路101號","121.513388333333","24.9949183333333","6500400","永和區"
"234070","552-UM","2017/06/08 18:49:30","新北市永和區竹林路96巷4號","121.519231666667","25.01214","6500400","永和區"
"234054","553-UM","2017/06/08 18:49:24","新北市永和區竹林路64號","121.518371666667","25.0135133333333","6500400","永和區"
"234017","745-BX","2017/06/08 18:49:27","新北市永和區永和路二段303號","121.515936666667","25.0165933333333","6500400","永和區"
"234030","746-BX","2017/06/08 18:49:32","新北市永和區得和路321號","121.523388333333","24.999585","6500400","永和區"
"234061","AAD-866","2017/06/08 18:49:22","新北市永和區福和路309巷1號","121.516286666667","25.0070516666667","6500400","永和區"
"234042","862-TW","2017/06/08 18:49:28","新北市永和區永貞路267號","121.511776666667","25.0048316666667","6500400","永和區"
"234050","863-TW","2017/06/08 18:49:24","新北市永和區保安路4號","121.510713333333","25.0172983333333","6500400","永和區"
"234026","9371-KE","2017/06/08 18:49:20","新北市永和區自由街56號","121.51375","25.0060216666667","6500400","永和區"
"234011","9373-KE","2017/06/08 18:49:26","新北市永和區文化路126巷3號","121.513068333333","25.01556","6500400","永和區"
"249005","172-UM","2017/06/08 18:49:29","新北市八里區長道坑17號","121.39662","25.1160783333333","6502300","八里區"
"249001","173-UM","2017/06/08 18:49:22","新北市八里區龍米路二段3號","121.44885","25.1391733333333","6502300","八里區"
"249004","303-UY","2017/06/08 18:49:33","新北市八里區中山路一段108號","121.419055","25.1597333333333","6502300","八里區"
"249002","305-UY","2017/06/08 17:09:10","新北市八里區龍米路二段147巷7號","121.442053333333","25.15054","6502300","八里區"
"248006","077-UY","2017/06/08 18:49:19","新北市五股區中興路一段171巷63號","121.465621666667","25.070535","6501500","五股區"
"248008","095-VK","2017/06/08 18:49:25","新北市五股區中興路一段151巷38號","121.465126666667","25.0726033333333","6501500","五股區"
"248020","225-UY","2017/06/08 18:49:17","新北市五股區凌雲路三段88號","121.428731666667","25.1186433333333","6501500","五股區"
"248012","247-BX","2017/06/08 15:12:11","新北市五股區中興路二段37巷26號","121.460533333333","25.075045","6501500","五股區"
"248016","261-SL","2017/06/08 18:49:24","新北市五股區凌雲路一段83巷42號","121.449116666667","25.1012616666667","6501500","五股區"
"248010","272-BY","2017/06/08 18:49:20","新北市五股區水碓七路81號","121.429705","25.0722683333333","6501500","五股區"
"248002","678-BX","2017/06/08 18:49:29","新北市五股區成泰路三段437號","121.449871666667","25.0978316666667","6501500","五股區"
"234023","9380-KE","2017/06/08 18:49:28","新北市永和區竹林路119巷45號","121.52193","25.0117933333333","6500400","永和區"
"234077","969-R7","2017/06/08 18:49:37","新北市永和區中正路2巷29弄2號","121.513996666667","24.9936516666667","6500400","永和區"
"234074","AAC-211","2017/06/08 18:49:20","新北市永和區福和路1號","121.526288333333","25.0099516666667","6500400","永和區"
"234067","AAC-212","2017/06/08 18:49:24","新北市中和區永貞路221號","121.513635","25.003645","6500400","永和區"
"234003","AAC-295","2017/06/08 18:48:08","新北市永和區中正路643號","121.515253333333","25.0100183333333","6500400","永和區"
"232011","375-UM","2017/06/08 18:49:33","新北市坪林區坪碇路10號","121.711471666667","24.9410583333333","6502000","坪林區"
"244007","080-UY","2017/06/08 18:49:21","新北市林口區後湖56-7號","121.384661666667","25.1026333333333","6501700","林口區"
"244019","403-UM","2017/06/08 18:49:25","新北市林口區忠孝路622巷1弄1號","121.377833333333","25.0682083333333","6501700","林口區"
"244013","742-UY","2017/06/08 18:49:28","新北市林口區文化一路二段92號","121.381983333333","25.0786183333333","6501700","林口區"
"244009","410-SL","2017/06/08 18:49:19","新北市林口區竹林路330巷8號","121.391656666667","25.08308","6501700","林口區"
"244023","483-VK","2017/06/08 18:49:35","新北市林口區民權路200號","121.374485","25.0843766666667","6501700","林口區"
"244017","485-VK","2017/06/08 18:49:36","新北市林口區文化二路一段20巷50-1號","121.365193333333","25.06624","6501700","林口區"
"244011","701-TV","2017/06/08 18:49:20","新北市林口區新寮1-65號","121.392795","25.0765766666667","6501700","林口區"
"244025","837-TS","2017/06/08 18:49:21","新北市林口區南勢里53-6號","121.355055","25.074935","6501700","林口區"
"243005","AAD-798","2017/06/08 18:49:36","新北市泰山區明志路三段206巷1號","121.423356666667","25.0379166666667","6501600","泰山區"
"243009","297-R6","2017/06/08 18:49:16","新北市泰山區黎明路31號","121.42171","25.0607733333333","6501600","泰山區"
"243016","539-UM","2017/06/08 18:49:19","新北市泰山區明志路一段203號","121.432776666667","25.0613983333333","6501600","泰山區"
"243012","646-TV","2017/06/08 18:49:24","新北市泰山區福興三街26號","121.434143333333","25.0576716666667","6501600","泰山區"
"222003","436-BY","2017/06/08 18:49:14","新北市深坑區翠谷街17巷42弄2號","121.625361666667","25.0101616666667","6501800","深坑區"
"222002","659-BX","2017/06/08 18:49:30","新北市深坑區文山路一段62巷3號","121.62287","25.0008383333333","6501800","深坑區"
"222001","696-SL","2017/06/08 18:49:28","新北市深坑區松柏街35號","121.638608333333","25.0115","6501800","深坑區"
"231041","002-UM","2017/06/08 18:49:31","新北市新店區安華路28-1號","121.51975","24.960835","6500600","新店區"
"231056","0291-UT","2017/06/08 18:49:36","新北市新店區大豐路68巷18號","121.53883","24.9800466666667","6500600","新店區"
"231059","046-UY","2017/06/08 18:49:31","新北市新店區安華路28-1號","121.51952","24.960675","6500600","新店區"
"231061","047-UY","2017/06/08 18:49:37","新北市新店區安忠路38號","121.513255","24.9596833333333","6500600","新店區"
"231060","106-UY","2017/06/08 18:49:31","新北市新店區安華路28-1號","121.519606666667","24.960765","6500600","新店區"
"231051","107-UY","2017/06/08 18:49:25","新北市新店區中央路57號","121.532791666667","24.9774233333333","6500600","新店區"
"231047","108-UY","2017/06/08 18:49:29","新北市新店區北新路二段51號","121.542806666667","24.9730483333333","6500600","新店區"
"231052","187-VK","2017/06/08 18:49:24","新北市新店區新烏路一段106號","121.545461666667","24.9365533333333","6500600","新店區"
"231007","189-VK","2017/06/08 12:01:24","新北市新店區安華路28-1號","121.519721666667","24.9610833333333","6500600","新店區"
"231063","268-BY","2017/06/08 18:49:36","新北市新店區安華路16號","121.51681","24.9580316666667","6500600","新店區"
"231046","278-BY","2017/06/08 18:49:34","新北市新店區直潭路47號","121.533285","24.9424733333333","6500600","新店區"
"231050","AAD-862","2017/06/08 18:49:24","新北市新店區安康路一段52巷2號","121.530091666667","24.961205","6500600","新店區"
"231058","3712-VJ","2017/06/08 18:49:36","新北市新店區能仁街12-1號","121.54064","24.955475","6500600","新店區"
"231055","3713-VJ","2017/06/08 18:49:30","新北市新店區新生街55號","121.538826666667","24.967025","6500600","新店區"
"231066","4715-K9","2017/06/08 18:49:38","新北市新店區安豐路22巷15號","121.502885","24.9549933333333","6500600","新店區"
"231067","4772-VM","2017/06/08 18:49:24","新北市新店區安康路一段76巷10-1號","121.528725","24.9626","6500600","新店區"
"231065","512-UM","2017/06/08 18:49:37","新北市新店區安豐路74號","121.496515","24.95284","6500600","新店區"
"231054","513-UM","2017/06/08 18:49:19","新北市新店區安康路一段70號","121.528416666667","24.9617683333333","6500600","新店區"
"231064","515-UM","2017/06/08 18:49:35","新北市新店區安華路28-1號","121.519876666667","24.9609816666667","6500600","新店區"
"231045","617-UM","2017/06/08 18:49:25","新北市新店區安康路一段355號","121.519903333333","24.9634933333333","6500600","新店區"
"231040","619-UM","2017/06/08 18:49:36","新北市新店區秀山路72號","121.531211666667","24.9609266666667","6500600","新店區"
"231042","641-BX","2017/06/08 18:49:35","新北市新店區北新路一段126巷27號","121.54335","24.96959","6500600","新店區"
"231049","719-UM","2017/06/08 18:49:35","新北市新店區中正路454-5號","121.53445","24.979055","6500600","新店區"
"231062","720-UM","2017/06/08 18:49:31","新北市新店區安華路16號","121.517111666667","24.9581266666667","6500600","新店區"
"231044","897-TW","2017/06/08 18:49:24","新北市新店區中正路2號","121.545888333333","24.9693216666667","6500600","新店區"
"231043","899-TW","2017/06/08 18:49:28","新北市新店區安康路一段74號","121.528363333333","24.9619433333333","6500600","新店區"
"241003","091-VK","2017/06/08 18:49:31","新北市三重區河邊北街122-1號","121.503798333333","25.071575","6500200","三重區"
"235066","003-UY","2017/06/08 18:49:32","新北市中和區水源路18巷2弄2號","121.503965","25.0034016666667","6500300","中和區"
"235064","005-UY","2017/06/08 18:49:28","新北市中和區連城路109巷73-2號","121.497335","24.9978166666667","6500300","中和區"
"235063","006-UY","2017/06/08 18:49:27","新北市中和區錦和路101號","121.49011","24.9954283333333","6500300","中和區"
"235056","096-UM","2017/06/08 18:49:19","新北市中和區員山路611巷5弄7號","121.4782","25.011095","6500300","中和區"
"235039","097-UM","2017/06/08 18:49:31","新北市中和區宜安路18巷9號","121.51374","24.9961483333333","6500300","中和區"
"235065","098-UM","2017/06/08 18:49:18","新北市中和區莊敬路49巷29弄6-6號","121.50138","25.0064733333333","6500300","中和區"
"235040","150-BY","2017/06/08 18:49:29","新北市中和區保健路60號","121.510985","24.996605","6500300","中和區"
"235058","151-BY","2017/06/08 18:49:38","新北市中和區連城路607號","121.478186666667","24.9935283333333","6500300","中和區"
"235055","183-VK","2017/06/08 18:49:35","新北市中和區民生街14號","121.470398333333","25.0055033333333","6500300","中和區"
"235038","185-VK","2017/06/08 18:49:20","新北市中和區大勇街60巷30號","121.519323333333","24.9945366666667","6500300","中和區"
"235049","186-VK","2017/06/08 18:49:34","新北市中和區景安路159號","121.505341666667","24.994775","6500300","中和區"
"235067","255-BX","2017/06/08 18:49:34","新北市中和區中正路877巷4號","121.48411","25.00396","6500300","中和區"
"235044","293-VK","2017/06/08 18:49:24","新北市中和區復興路280巷5號","121.5022","24.99102","6500300","中和區"
"235072","301-VK","2017/06/08 18:49:37","新北市中和區中山路二段91號","121.50344","25.00417","6500300","中和區"
"235043","352-BY","2017/06/08 18:49:33","新北市中和區成功路139號","121.525918333333","24.99057","6500300","中和區"
"235051","376-QA","2017/06/08 18:49:35","新北市中和區華新街143巷106弄28號","121.50595","24.9786666666667","6500300","中和區"
"235068","377-QA","2017/06/08 18:49:29","新北市中和區中正路173號","121.497675","24.9935066666667","6500300","中和區"
"235061","378-QA","2017/06/08 18:49:39","新北市中和區民享街30巷4號","121.473646666667","25.0035483333333","6500300","中和區"
"235050","4979-A6","2017/06/08 18:49:20","新北市中和區忠孝街62巷2號","121.512061666667","24.9837883333333","6500300","中和區"
"235069","4980-A6","2017/06/08 18:49:27","新北市中和區南山路27號","121.502108333333","24.99904","6500300","中和區"
"235042","551-UM","2017/06/08 18:49:34","新北市中和區秀朗路三段108巷3號","121.525248333333","24.9927333333333","6500300","中和區"
"235070","558-UM","2017/06/08 18:37:57","新北市中和區中正路64巷2號","121.50129","24.9937733333333","6500300","中和區"
"235045","565-BX","2017/06/08 18:49:37","新北市中和區南山路206號","121.506161666667","24.9903966666667","6500300","中和區"
"235054","640-BX","2017/06/08 18:49:25","新北市中和區民享街50號","121.47394","25.0025666666667","6500300","中和區"
"235060","647-TV","2017/06/08 18:49:26","新北市中和區中山路三段33號","121.479055","25.0059583333333","6500300","中和區"
"235047","732-UM","2017/06/08 18:49:28","新北市中和區興南路二段34巷58號","121.504906666667","24.9849666666667","6500300","中和區"
"235046","733-UM","2017/06/08 18:49:28","新北市中和區忠孝街99-3號","121.5119","24.9861316666667","6500300","中和區"
"235071","783-BX","2017/06/08 18:49:33","新北市中和區員山路36巷16-3號","121.485256666667","24.9911733333333","6500300","中和區"
"235062","800-TS","2017/06/08 18:49:34","新北市中和區景平路703巷4號","121.49611","25.0035016666667","6500300","中和區"
"235057","801-TS","2017/06/08 18:49:34","新北市中和區員山路327巷1號","121.480851666667","25.0011816666667","6500300","中和區"
"235041","802-TS","2017/06/08 18:49:20","新北市中和區景安路79巷1號","121.506721666667","24.9973433333333","6500300","中和區"
"235052","805-TS","2017/06/08 18:49:34","新北市中和區興南路二段399巷22號","121.49913","24.9789616666667","6500300","中和區"
"235048","896-TW","2017/06/08 18:49:33","新北市中和區南山路272號","121.50792","24.9879466666667","6500300","中和區"
"235053","900-TW","2017/06/08 18:49:27","新北市中和區華順街105號","121.465303333333","24.9973283333333","6500300","中和區"
"235037","AAC-213","2017/06/08 18:49:29","新北市中和區景平路111巷19-1號","121.516266666667","24.9906216666667","6500300","中和區"
"235059","AAC-215","2017/06/08 18:49:23","新北市中和區圓通路393巷15號","121.49005","24.9886183333333","6500300","中和區"
"220068","013-TV","2017/06/08 18:49:35","新北市板橋區民生路二段15-1號","121.472688333333","25.0164783333333","6500100","板橋區"
"220065","072-UY","2017/06/08 18:49:33","新北市板橋區中山路二段89巷5弄12號","121.472715","25.0167433333333","6500100","板橋區"
"220086","073-UY","2017/06/08 18:49:30","新北市板橋區華東街328號","121.452773333333","25.0034416666667","6500100","板橋區"
"220106","075-UY","2017/06/08 18:49:33","新北市板橋區民生路二段161巷7號","121.470225","25.0196683333333","6500100","板橋區"
"220096","120-SR","2017/06/08 18:49:19","新北市板橋區民生路二段161巷9號","121.470225","25.0195716666667","6500100","板橋區"
"247002","402-BY","2017/06/08 16:40:25","新北市五股區中興路三段3-6號","121.449421666667","25.0787566666667","6501400","蘆洲區"
"247006","341-TH","2017/06/08 18:49:26","新北市五股區中興路三段163號","121.449283333333","25.08074","6501400","蘆洲區"
"247008","339-TH","2017/06/08 18:49:28","新北市五股區成泰路一段98巷77號","121.450721666667","25.0781233333333","6501400","蘆洲區"
"247014","057-VK","2017/06/08 18:34:52","新北市五股區中興路三段163號","121.449353333333","25.08072","6501400","蘆洲區"
"247022","002-UY","2017/06/08 18:49:30","新北市五股區中興路三段3-6號","121.450188333333","25.07884","6501400","蘆洲區"
"226004","312-R5","2017/06/08 18:49:25","新北市平溪區靜安路二段500號","121.743791666667","25.0268333333333","6502400","平溪區"
"228001","212-TW","2017/06/08 18:49:23","新北市貢寮區仁理村研海街12-1號","121.92377","25.051705","6502600","貢寮區"
"228002","585-TW","2017/06/08 18:49:21","新北市貢寮區福隆里東興街6-11號","121.950781666667","25.0211066666667","6502600","貢寮區"
"228003","828-UM","2017/06/08 18:49:08","新北市貢寮區和美里龍洞街56-3號","121.912468333333","25.1141316666667","6502600","貢寮區"
"224006","676-BX","2017/06/08 18:49:35","新北市瑞芳區中正路73號","121.805508333333","25.1075816666667","6501200","瑞芳區"
"224011","420-VK","2017/06/08 18:29:43","新北市瑞芳區崙頂路3-1號","121.846991666667","25.1047033333333","6501200","瑞芳區"
"224009","285-BY","2017/06/08 18:49:27","新北市瑞芳區祈堂路2號","121.859751666667","25.1116883333333","6501200","瑞芳區"
"224008","275-VK","2017/06/08 18:49:18","新北市瑞芳區逢甲路225號","121.802893333333","25.11172","6501200","瑞芳區"
"224007","273-VK","2017/06/08 18:49:30","新北市瑞芳區大埔路80號","121.7623","25.101275","6501200","瑞芳區"
"224005","271-BY","2017/06/08 18:47:48","新北市瑞芳區建基路一段44-6號","121.818993333333","25.121685","6501200","瑞芳區"
"227004","642-TC","2017/06/08 18:49:34","新北市雙溪區平林里梅竹蹊26號","121.861656666667","25.036065","6502500","雙溪區"
"227010","400-TW","2017/06/08 18:49:31","新北市雙溪區牡丹里聖南10-3號","121.860805","25.0494816666667","6502500","雙溪區"
"253006","032-BX","2017/06/08 18:49:31","新北市石門區下員坑15-7號","121.511253333333","25.2853516666667","6502200","石門區"
"253005","295-VK","2017/06/08 18:49:32","新北市石門區中山路28號","121.565751666667","25.2899383333333","6502200","石門區"
"208001","742-BX","2017/06/08 18:49:28","新北市金山區文化三路66巷2弄7號","121.63443","25.2257266666667","6502700","金山區"
"208003","665-BX","2017/06/08 18:49:24","新北市金山區中山路393號","121.633455","25.2252583333333","6502700","金山區"
"251001","011-UM","2017/06/08 18:49:38","新北市淡水區自強路60號","121.463173333333","25.1276016666667","6501000","淡水區"
"251008","181-VK","2017/06/08 18:49:24","新北市淡水區中山北路三段165-1號","121.445378333333","25.196775","6501000","淡水區"
"251014","182-VK","2017/06/08 18:49:25","新北市淡水區崙頂3號","121.490233333333","25.2240783333333","6501000","淡水區"
"251010","413-VK","2017/06/08 18:49:24","新北市淡水區沙崙路11號","121.42117","25.1812283333333","6501000","淡水區"
"251012","441-VK","2017/06/08 18:49:19","新北市淡水區中山北路一段156號","121.443983333333","25.177915","6501000","淡水區"
"251016","442-VK","2017/06/08 18:49:28","新北市淡水區下圭柔山71-3號","121.447033333333","25.206145","6501000","淡水區"
"251005","443-VK","2017/06/08 18:49:34","新北市淡水區崁頂78-5號","121.429436666667","25.2070766666667","6501000","淡水區"
"251011","650-BX","2017/06/08 18:49:32","新北市淡水區學府路55號","121.44819","25.1694183333333","6501000","淡水區"
"251002","672-BX","2017/06/08 18:49:36","新北市淡水區學府路88號","121.44915","25.1708766666667","6501000","淡水區"
"251003","766-UM","2017/06/08 18:49:19","新北市淡水區中山北路一段149巷24號","121.442998333333","25.177995","6501000","淡水區"
"207003","550-UM","2017/06/08 18:49:20","新北市萬里區大鵬里頂社2-1號","121.66037","25.207225","6502800","萬里區"
"207004","225-TW","2017/06/08 18:49:22","新北市萬里區萬里里獅頭路23號","121.69322","25.1782466666667","6502800","萬里區"
"252002","178-VK","2017/06/08 18:49:36","新北市三芝區中正路一段101號","121.504705","25.2563766666667","6502100","三芝區"
"252003","249-BX","2017/06/08 18:49:28","新北市三芝區後厝里大片頭76號","121.459273333333","25.245965","6502100","三芝區"
"252001","292-VK","2017/06/08 18:49:15","新北市三芝區中正路三段9號","121.502906666667","25.2539633333333","6502100","三芝區"
"252007","AAC-283","2017/06/08 00:22:10","新北市三芝區埔坪里埔頭坑41號","121.504455","25.26445","6502100","三芝區"
"208002","170-UY","2017/06/08 18:49:27","新北市金山區信義路62號","121.635713333333","25.2189833333333","6502700","金山區"
"237004","078-UY","2017/06/08 18:49:27","新北市三峽區插角219-3號","121.416213333333","24.86593","6500900","三峽區"
"237007","153-BY","2017/06/08 18:49:17","新北市三峽區中正路二段451號","121.362096666667","24.9062933333333","6500900","三峽區"
"237009","210-TH","2017/06/08 18:49:37","新北市三峽區民權街235號","121.368036666667","24.92781","6500900","三峽區"
"237013","252-BX","2017/06/08 18:49:27","新北市三峽區大同路48巷17弄8-1號","121.376801666667","24.9290933333333","6500900","三峽區"
"237012","275-BY","2017/06/08 18:49:36","新北市三峽區三樹路340號","121.383965","24.94332","6500900","三峽區"
"237008","302-VK","2017/06/08 18:49:30","新北市三峽區白雞39-1號","121.38076","24.9113983333333","6500900","三峽區"
"237014","433-BY","2017/06/08 18:49:18","新北市三峽區復興路480巷52-1號","121.361935","24.9398416666667","6500900","三峽區"
"237006","5529-G3","2017/06/08 18:49:25","新北市三峽區溪東路211巷18弄1-1號","121.406263333333","24.9343966666667","6500900","三峽區"
"237011","572-TV","2017/06/08 18:49:34","新北市三峽區介壽路三段138號","121.400778333333","24.9430033333333","6500900","三峽區"
"237016","649-BX","2017/06/08 18:49:39","新北市三峽區建安80-3號","121.452708333333","24.923895","6500900","三峽區"
"237010","706-TV","2017/06/08 18:49:17","新北市三峽區復興路357號","121.363815","24.93869","6500900","三峽區"
"237005","AKY-6261","2017/06/08 18:49:22","新北市三峽區新興街12號","121.372635","24.935725","6500900","三峽區"
"236071","105-UM","2017/06/08 18:49:31","新北市土城區延和路21巷41號","121.463586666667","24.9892566666667","6501300","土城區"
"236042","107-UM","2017/06/08 18:49:34","新北市土城區裕民路92巷25弄1號","121.449628333333","24.9859283333333","6501300","土城區"
"236078","166-UM","2017/06/08 18:49:28","新北市土城區中央路四段185巷57號","121.416751666667","24.9560116666667","6501300","土城區"
"236030","253-BX","2017/06/08 18:49:35","新北市土城區中央路三段49號","121.438978333333","24.969675","6501300","土城區"
"236026","269-VK","2017/06/08 18:49:26","新北市土城區興城路48號","121.441363333333","24.9726","6501300","土城區"
"236014","270-VK","2017/06/08 18:49:22","新北市土城區金城路二段354巷8號","121.460816666667","24.98447","6501300","土城區"
"236037","271-VK","2017/06/08 18:49:18","新北市土城區明德路一段226號","121.46065","24.9774466666667","6501300","土城區"
"236021","401-BY","2017/06/08 18:49:27","新北市土城區延吉街253巷13號","121.467835","24.9843166666667","6501300","土城區"
"236058","912-UM","2017/06/08 18:49:15","新北市土城區中央路三段141-1號","121.433455","24.965445","6501300","土城區"
"236051","913-UM","2017/06/08 18:49:26","新北市土城區青雲路102號","121.459225","24.9863833333333","6501300","土城區"
"236062","915-UM","2017/06/08 18:49:24","新北市土城區金城路三段139巷11號","121.467795","24.988735","6501300","土城區"
"236053","AAC-216","2017/06/08 18:49:29","新北市土城區裕民路151號","121.452166666667","24.9859216666667","6501300","土城區"
"242004","442-UM","2017/06/08 18:42:38","新北市新莊區新泰路255巷83號","121.442105","25.038985","6500500","新莊區"
"242044","172-VK","2017/06/08 18:49:34","新北市泰山區泰林路一段1巷7號","121.440281666667","25.0469166666667","6500500","新莊區"
"238023","601-UM","2017/06/08 18:49:32","新北市樹林區三福街114號","121.406465","25.01641","6500700","樹林區"
"238019","599-UM","2017/06/08 18:49:36","新北市樹林區東榮街147巷27弄1號","121.414736666667","24.9806966666667","6500700","樹林區"
"238018","571-TV","2017/06/08 18:49:16","新北市樹林區鎮前街261-1號","121.420455","24.9861983333333","6500700","樹林區"
"238024","5061-A6","2017/06/08 18:49:36","新北市樹林區太順街60號","121.417891666667","24.9793","6500700","樹林區"
"238022","312-TH","2017/06/08 18:49:26","新北市樹林區中華路379巷37號","121.413931666667","24.9774616666667","6500700","樹林區"
"238025","303-VK","2017/06/08 18:49:29","新北市樹林區中山路三段337號","121.390675","24.9712033333333","6500700","樹林區"
"238020","268-VK","2017/06/08 18:49:29","新北市樹林區三俊街252巷25號","121.421008333333","25.01385","6500700","樹林區"
"238026","172-UY","2017/06/08 18:49:31","新北市樹林區信和街126-1號","121.387618333333","24.9734616666667","6500700","樹林區"
"238016","169-UY","2017/06/08 18:49:20","新北市樹林區文化街23號","121.419301666667","24.9876283333333","6500700","樹林區"
"239007","AAC-297","2017/06/08 18:49:31","新北市鶯歌區中正一路建德巷2號","121.364731666667","24.9567583333333","6500800","鶯歌區"
"239008","527-UM","2017/06/08 18:49:30","新北市鶯歌區晨曦街3-2號","121.33685","24.97644","6500800","鶯歌區"
"239001","417-VK","2017/06/08 18:49:27","新北市鶯歌區鶯桃路69-1號","121.340743333333","24.953135","6500800","鶯歌區"
"239003","360-BY","2017/06/08 18:49:39","新北市鶯歌區永和街181號","121.335886666667","24.970415","6500800","鶯歌區"
"239004","193-VK","2017/06/08 18:49:28","新北市鶯歌區中正三路156巷31號","121.333468333333","24.9397066666667","6500800","鶯歌區"
"221036","130-UY","2017/06/08 18:49:26","新北市汐止區忠孝東路340號","121.665111666667","25.06955","6501100","汐止區"
"221015","131-UY","2017/06/08 18:49:25","新北市汐止區鄉長路一段55巷22號","121.664715","25.0763033333333","6501100","汐止區"
"221010","269-BY","2017/06/08 18:49:33","新北市汐止區汐萬路一段256巷3號","121.652511666667","25.0745383333333","6501100","汐止區"
"221012","278-VK","2017/06/08 18:49:32","新北市汐止區汐萬路一段256巷3號","121.65342","25.0748316666667","6501100","汐止區"
"221023","279-VK","2017/06/08 18:49:36","新北市汐止區康寧街901號","121.650936666667","25.075135","6501100","汐止區"
"221032","280-BY","2017/06/08 18:49:28","新北市汐止區橫科路322巷24弄6-1號","121.620271666667","25.0501916666667","6501100","汐止區"
"221002","281-BY","2017/06/08 18:49:23","新北市汐止區汐萬路一段256巷3號","121.653381666667","25.0746966666667","6501100","汐止區"
"221038","297-VK","2017/06/08 18:49:32","新北市汐止區康寧街901號","121.651546666667","25.07498","6501100","汐止區"
"221029","298-VK","2017/06/08 18:49:18","新北市汐止區樟樹一路2巷59號","121.641595","25.062995","6501100","汐止區"
"221021","299-VK","2017/06/08 15:08:11","新北市汐止區汐萬路一段256巷3號","121.652126666667","25.07485","6501100","汐止區"
"221035","622-UM","2017/06/08 18:49:37","新北市汐止區禮門街8號","121.656776666667","25.0676216666667","6501100","汐止區"
"221025","623-UM","2017/06/08 18:49:20","新北市汐止區仁愛路79號","121.661195","25.0628466666667","6501100","汐止區"
"221033","647-BX","2017/06/08 18:49:31","新北市汐止區南勢街1巷1號","121.627143333333","25.0375216666667","6501100","汐止區"
"221002","707-TV","2017/06/08 18:49:29","新北市汐止區大同路一段149號","121.632118333333","25.0561683333333","6501100","汐止區"
"221018","753-BX","2017/06/08 18:49:25","新北市汐止區茄苳路277號","121.672355","25.0678816666667","6501100","汐止區"
"220079","145-BY","2017/06/08 18:49:28","新北市板橋區民權路202巷2弄1號","121.459505","25.0141866666667","6500100","板橋區"
"220088","145-RM","2017/06/08 18:49:33","新北市板橋區民生路二段161巷9號","121.470228333333","25.019645","6500100","板橋區"
"220101","245-BX","2017/06/06 21:47:18","新北市板橋區民生路二段120號","121.470615","25.0195116666667","6500100","板橋區"
"220103","257-TC","2017/06/08 18:49:35","新北市板橋區民生路二段120號","121.470543333333","25.01957","6500100","板橋區"
"220069","258-TC","2017/06/08 18:49:31","新北市板橋區民生路二段36-1號","121.472456666667","25.0168083333333","6500100","板橋區"
"220094","267-BY","2017/06/08 18:49:24","新北市板橋區民生路二段161巷1號","121.47017","25.0201983333333","6500100","板橋區"
"220072","277-BY","2017/06/08 18:49:18","新北市板橋區金門街25巷8號","121.433851666667","24.9941983333333","6500100","板橋區"
"220064","280-UM","2017/06/08 18:49:26","新北市板橋區民生路二段36-1號","121.472565","25.0166066666667","6500100","板橋區"
"220071","283-VK","2017/06/08 18:49:27","新北市板橋區民生路二段36-1號","121.472606666667","25.0165883333333","6500100","板橋區"
"220091","285-UM","2017/06/08 18:49:27","新北市板橋區民生路二段188號","121.470221666667","25.020255","6500100","板橋區"
"220053","285-VK","2017/06/08 18:49:29","新北市板橋區民生路二段15-1號","121.472806666667","25.0163783333333","6500100","板橋區"
"220083","286-VK","2017/06/08 18:49:19","新北市板橋區大觀路二段22巷38-2號","121.444686666667","25.0037383333333","6500100","板橋區"
"220081","287-VK","2017/06/08 18:49:20","新北市板橋區大觀路一段27號","121.450016666667","25.008485","6500100","板橋區"
"220090","288-VK","2017/06/08 18:49:26","新北市板橋區民生路二段120號","121.470338333333","25.0197333333333","6500100","板橋區"
"220061","293-UM","2017/06/08 18:49:21","新北市板橋區民生路二段15-1號","121.47276","25.0164333333333","6500100","板橋區"
"220084","296-UM","2017/06/08 18:49:29","新北市板橋區大觀路二段148巷39-1號","121.441728333333","25.0006583333333","6500100","板橋區"
"220075","297-UM","2017/06/08 18:49:07","新北市板橋區大觀路一段28巷106-3號","121.45112","25.010755","6500100","板橋區"
"220097","299-UM","2017/06/08 18:49:16","新北市板橋區民生路二段161巷5號","121.470115","25.019665","6500100","板橋區"
"220004","303-R5","2017/06/08 18:49:34","新北市板橋區四川路二段95號","121.452748333333","24.99483","6500100","板橋區"
"220092","307-R5","2017/06/08 16:23:06","新北市板橋區民生路二段120號","121.470386666667","25.0196766666667","6500100","板橋區"
"220098","317-R6","2017/06/08 16:43:22","新北市板橋區民生路二段161巷3號","121.470135","25.019795","6500100","板橋區"
"220080","461-BY","2017/06/08 18:49:30","新北市板橋區大觀路二段265巷72弄11號","121.441968333333","24.9969183333333","6500100","板橋區"
"220089","487-VK","2017/06/08 18:49:29","新北市板橋區民生路二段120號","121.470501666667","25.0196133333333","6500100","板橋區"
"220035","560-BX","2017/06/08 18:49:30","新北市板橋區中正路275巷79弄20號","121.451988333333","25.0174316666667","6500100","板橋區"
"220063","609-BX","2017/06/08 16:44:36","新北市板橋區民生路二段36-1號","121.472576666667","25.0168866666667","6500100","板橋區"
"220057","686-BX","2017/06/08 18:49:17","新北市板橋區民生路二段36-1號","121.472465","25.0165366666667","6500100","板橋區"
"220077","687-BX","2017/06/08 18:49:20","新北市板橋區大觀路二段174巷147號","121.441453333333","25.002565","6500100","板橋區"
"220054","741-BX","2017/06/08 18:49:31","新北市板橋區民生路二段36-1號","121.472501666667","25.0167283333333","6500100","板橋區"
"220082","806-UM","2017/06/08 18:49:35","新北市板橋區篤行路二段107號","121.431456666667","24.9912616666667","6500100","板橋區"
"220055","827-TW","2017/06/08 18:49:21","新北市板橋區民生路二段22號","121.472915","25.01657","6500100","板橋區"
"220067","829-TW","2017/06/08 18:49:29","新北市板橋區民生路二段17號","121.472643333333","25.01644","6500100","板橋區"
"220102","830-TW","2017/06/08 16:33:05","新北市板橋區民生路二段120號","121.470366666667","25.0195233333333","6500100","板橋區"
"220074","895-R6","2017/06/08 18:49:37","新北市板橋區南雅南路二段18號","121.454623333333","25.0036216666667","6500100","板橋區"
"220073","985-R7","2017/06/08 18:49:34","新北市板橋區館前西路110號","121.45693","25.0074616666667","6500100","板橋區"
"220070","AAC-253","2017/06/08 18:49:36","新北市板橋區民生路二段22號","121.472736666667","25.0166116666667","6500100","板橋區"
