"lineid","car","time","location","longitude","latitude","cityid","cityname"
"234046","148-BY","2017/06/08 19:39:33","新北市永和區秀朗路二段84號","121.523295","25.0017033333333","6500400","永和區"
"234013","149-BY","2017/06/08 19:39:25","新北市永和區永平路246號","121.508588333333","25.0110166666667","6500400","永和區"
"234007","207-UY","2017/06/08 19:39:22","新北市中和區中和路362號","121.510365","25.0018116666667","6500400","永和區"
"234081","298-R6","2017/06/08 19:39:37","新北市永和區福和路7巷15弄20號","121.52616","25.0075066666667","6500400","永和區"
"234038","336-UY","2017/06/08 19:39:34","新北市永和區民樂街31巷6弄2號","121.527998333333","25.0013066666667","6500400","永和區"
"234064","337-UY","2017/06/08 19:39:33","新北市永和區秀朗路二段24巷28弄9號","121.519593333333","25.001765","6500400","永和區"
"234086","338-UY","2017/06/08 19:39:30","新北市永和區成功路一段38巷12號","121.526368333333","25.0045333333333","6500400","永和區"
"234070","552-UM","2017/06/08 19:39:30","新北市永和區竹林路38號","121.517461666667","25.0143333333333","6500400","永和區"
"234054","553-UM","2017/06/08 19:39:24","新北市永和區竹林路39巷10號","121.518323333333","25.014465","6500400","永和區"
"234017","745-BX","2017/06/08 19:39:27","新北市永和區文化路90巷32弄7號","121.513373333333","25.0169716666667","6500400","永和區"
"234030","746-BX","2017/06/08 19:39:32","新北市永和區民生路67巷22號","121.523816666667","24.997075","6500400","永和區"
"234061","AAD-866","2017/06/08 19:39:22","新北市永和區中正路401號","121.517151666667","25.0044316666667","6500400","永和區"
"234042","862-TW","2017/06/08 19:39:28","新北市永和區永貞路265號","121.511803333333","25.0047033333333","6500400","永和區"
"234050","863-TW","2017/06/08 19:39:31","新北市永和區保安路60號","121.510096666667","25.0165833333333","6500400","永和區"
"234026","9371-KE","2017/06/08 19:39:20","新北市永和區雙和街7巷7號","121.509536666667","25.0015483333333","6500400","永和區"
"234011","9373-KE","2017/06/08 19:39:26","新北市永和區保生路55號","121.504556666667","25.0108166666667","6500400","永和區"
"249004","303-UY","2017/06/08 19:39:33","新北市八里區中山路一段268巷2號","121.414373333333","25.1602866666667","6502300","八里區"
"249002","305-UY","2017/06/08 17:09:10","新北市八里區龍米路二段147巷7號","121.442053333333","25.15054","6502300","八里區"
"249003","593-UM","2017/06/08 19:39:37","新北市八里區中華路二段530號","121.399318333333","25.1457966666667","6502300","八里區"
"248014","025-BX","2017/06/08 19:39:21","新北市五股區五福路23巷8號","121.43345","25.0888683333333","6501500","五股區"
"248008","095-VK","2017/06/08 19:39:25","新北市五股區四維路118巷13號","121.469208333333","25.0741966666667","6501500","五股區"
"248020","225-UY","2017/06/08 19:39:32","新北市五股區中直路28-3號","121.424065","25.1121216666667","6501500","五股區"
"248012","247-BX","2017/06/08 19:39:22","新北市五股區民義路一段46-3號","121.436936666667","25.0845866666667","6501500","五股區"
"248016","261-SL","2017/06/08 19:39:25","新北市五股區成泰路三段476號","121.451835","25.1014666666667","6501500","五股區"
"248010","272-BY","2017/06/08 19:39:20","新北市五股區自強路111號","121.432325","25.0705916666667","6501500","五股區"
"248002","678-BX","2017/06/08 19:39:29","新北市五股區成泰路三段577巷77號","121.449701666667","25.1036916666667","6501500","五股區"
"234077","969-R7","2017/06/08 19:39:37","新北市永和區民權路1巷10號","121.520806666667","24.9983566666667","6500400","永和區"
"234074","AAC-211","2017/06/08 19:39:20","新北市永和區竹林路225巷37號","121.522901666667","25.0088166666667","6500400","永和區"
"234067","AAC-212","2017/06/08 19:39:25","新北市永和區保平路178號","121.51069","25.0066966666667","6500400","永和區"
"234003","AAC-295","2017/06/08 19:37:08","新北市永和區自由街7號","121.514993333333","25.0069333333333","6500400","永和區"
"244019","403-UM","2017/06/08 19:39:25","新北市林口區文化二路一段575號","121.375721666667","25.07815","6501700","林口區"
"243005","AAD-798","2017/06/08 19:39:31","新北市泰山區貴子路8號","121.425245","25.0420216666667","6501600","泰山區"
"243009","297-R6","2017/06/08 19:39:36","新北市泰山區美寧街60號","121.430993333333","25.0647283333333","6501600","泰山區"
"243014","421-VK","2017/06/08 19:39:21","新北市泰山區泰林路二段33-7號","121.435193333333","25.0564683333333","6501600","泰山區"
"243016","539-UM","2017/06/08 19:38:39","新北市泰山區新北大道七段25號","121.420345","25.032135","6501600","泰山區"
"243010","548-UM","2017/06/08 19:39:31","新北市泰山區仁愛路6巷28號","121.431615","25.0527866666667","6501600","泰山區"
"243011","549-UM","2017/06/08 19:39:18","新北市泰山區新北大道五段487號","121.430713333333","25.0415983333333","6501600","泰山區"
"243012","646-TV","2017/06/08 19:39:24","新北市泰山區仁愛路100巷58號","121.433816666667","25.0543883333333","6501600","泰山區"
"222003","436-BY","2017/06/08 19:39:34","新北市深坑區深南路51-1號","121.62124","25.0100783333333","6501800","深坑區"
"222002","659-BX","2017/06/08 19:39:30","新北市深坑區北深路一段177號","121.632508333333","25.0109083333333","6501800","深坑區"
"222001","696-SL","2017/06/08 19:39:28","新北市深坑區深坑街150號","121.612996666667","25.001465","6501800","深坑區"
"231041","002-UM","2017/06/08 19:39:31","新北市新店區中正路485號","121.533823333333","24.9819583333333","6500600","新店區"
"231059","046-UY","2017/06/08 19:39:31","新北市新店區安和路二段218-1號","121.517895","24.9753633333333","6500600","新店區"
"231061","047-UY","2017/06/08 19:39:37","新北市新店區安民街141號","121.516511666667","24.9695016666667","6500600","新店區"
"231060","106-UY","2017/06/08 19:39:31","新北市新店區安康路二段133號","121.511996666667","24.9604766666667","6500600","新店區"
"231051","107-UY","2017/06/08 19:39:25","新北市新店區中央四街90號","121.525863333333","24.9760583333333","6500600","新店區"
"231047","108-UY","2017/06/08 19:39:29","新北市新店區中興路一段282-4號","121.546346666667","24.9683066666667","6500600","新店區"
"231052","187-VK","2017/06/08 19:39:24","新北市新店區新烏路二段478號","121.552955","24.9080283333333","6500600","新店區"
"231007","189-VK","2017/06/08 12:01:24","新北市新店區安華路28-1號","121.519721666667","24.9610833333333","6500600","新店區"
"231057","256-BX","2017/06/08 19:39:39","新北市新店區橘園一路11號","121.547978333333","24.9340283333333","6500600","新店區"
"231063","268-BY","2017/06/08 19:39:35","新北市新店區達觀路40號","121.503075","24.9392266666667","6500600","新店區"
"231046","278-BY","2017/06/08 19:39:34","新北市新店區中正路329巷1弄2號","121.535621666667","24.9748716666667","6500600","新店區"
"231050","AAD-862","2017/06/08 19:39:24","新北市新店區郵政路101號","121.554325","24.9513883333333","6500600","新店區"
"231058","3712-VJ","2017/06/08 19:39:36","新北市新店區德正街19巷2號","121.543711666667","24.9724383333333","6500600","新店區"
"231066","4715-K9","2017/06/08 19:39:17","新北市新店區安康路二段317號","121.499708333333","24.9567966666667","6500600","新店區"
"231065","512-UM","2017/06/08 19:39:37","新北市新店區安祥路109巷85弄1號","121.477801666667","24.9603183333333","6500600","新店區"
"231054","513-UM","2017/06/08 19:39:19","新北市新店區北宜路一段47號","121.538301666667","24.9570516666667","6500600","新店區"
"231064","515-UM","2017/06/08 19:39:35","新北市新店區安和路一段52巷2號","121.517608333333","24.9662133333333","6500600","新店區"
"231045","617-UM","2017/06/08 19:39:25","新北市新店區北宜路二段150-2號","121.557911666667","24.954055","6500600","新店區"
"231040","619-UM","2017/06/08 19:39:36","新北市新店區北新路一段327號","121.541696666667","24.9684066666667","6500600","新店區"
"231042","641-BX","2017/06/08 19:39:35","新北市新店區中興路一段203號","121.543658333333","24.9657166666667","6500600","新店區"
"231049","719-UM","2017/06/08 19:39:35","新北市新店區大豐路35號","121.540655","24.9799833333333","6500600","新店區"
"231062","720-UM","2017/06/08 19:39:31","新北市新店區永業路3號","121.533921666667","24.9561266666667","6500600","新店區"
"231044","897-TW","2017/06/08 19:39:27","新北市新店區北新路三段7號","121.542121666667","24.9795","6500600","新店區"
"231043","899-TW","2017/06/08 19:39:28","新北市新店區北新路二段106-1號","121.543111666667","24.9740483333333","6500600","新店區"
"241011","013-R5","2017/06/08 19:39:23","新北市三重區秀江街184號","121.497926666667","25.0715883333333","6500200","三重區"
"241028","022-UY","2017/06/08 19:39:35","新北市三重區中正南路204號","121.493935","25.0558333333333","6500200","三重區"
"241008","059-VK","2017/06/08 19:39:32","新北市三重區永福街74號","121.47889","25.0767616666667","6500200","三重區"
"241009","060-VK","2017/06/08 19:39:30","新北市三重區三和路四段400巷30號","121.480041666667","25.0791016666667","6500200","三重區"
"241031","061-VK","2017/06/08 19:39:36","新北市三重區重新路四段244巷6號","121.486131666667","25.0535883333333","6500200","三重區"
"241015","062-VK","2017/06/08 19:39:34","新北市三重區福德北路34號","121.50203","25.0652383333333","6500200","三重區"
"241017","063-VK","2017/06/08 19:39:17","新北市三重區大仁街1號","121.49163","25.0635033333333","6500200","三重區"
"241024","065-VK","2017/06/08 19:39:30","新北市三重區國道路一段58巷18號","121.481005","25.07201","6500200","三重區"
"241003","091-VK","2017/06/08 19:39:28","新北市三重區五華街141巷58號","121.493533333333","25.0867283333333","6500200","三重區"
"241025","156-TC","2017/06/08 19:39:18","新北市三重區頂崁街210巷12弄19號","121.476478333333","25.0668016666667","6500200","三重區"
"241012","265-UM","2017/06/08 19:39:24","新北市三重區河邊北街256巷5號","121.501513333333","25.0762733333333","6500200","三重區"
"241022","267-UM","2017/06/08 19:39:20","新北市三重區中正北路164號","121.48443","25.0661266666667","6500200","三重區"
"241013","270-UM","2017/06/08 19:39:26","新北市三重區仁愛街141巷16號","121.496226666667","25.0754083333333","6500200","三重區"
"241007","398-BY","2017/06/08 19:39:31","新北市三重區溪尾街120巷23號","121.488785","25.0789416666667","6500200","三重區"
"241020","412-TH","2017/06/08 19:39:21","新北市三重區三和路四段20巷11號","121.490546666667","25.0739466666667","6500200","三重區"
"241035","462-BY","2017/06/08 19:39:24","新北市三重區信義西街40號","121.498246666667","25.064705","6500200","三重區"
"241019","478-VK","2017/06/08 19:39:38","新北市三重區六張街194巷1弄1號","121.488366666667","25.0682183333333","6500200","三重區"
"241030","480-VK","2017/06/08 19:39:30","新北市三重區環河南路221巷21號","121.491411666667","25.0526233333333","6500200","三重區"
"241014","543-UM","2017/06/08 19:39:26","新北市三重區長榮路129號","121.50379","25.0693666666667","6500200","三重區"
"241023","545-UM","2017/06/08 19:39:20","新北市三重區忠孝路三段99巷20號","121.47951","25.0642433333333","6500200","三重區"
"241001","547-UM","2017/06/08 19:39:30","新北市三重區仁愛街315巷14號","121.493116666667","25.079655","6500200","三重區"
"241006","AAD-863","2017/06/08 19:39:24","新北市三重區三和路四段160巷67號","121.486136666667","25.0751283333333","6500200","三重區"
"241026","887-TS","2017/06/08 19:39:26","新北市三重區光興街57號","121.498951666667","25.0601216666667","6500200","三重區"
"241029","942-UM","2017/06/08 19:39:23","新北市三重區同安街122號","121.493401666667","25.0560583333333","6500200","三重區"
"235066","003-UY","2017/06/08 19:39:32","新北市中和區安和路165號","121.505905","24.9975316666667","6500300","中和區"
"235064","005-UY","2017/06/08 19:39:28","新北市中和區南華路14號","121.502528333333","24.9955716666667","6500300","中和區"
"235063","006-UY","2017/06/08 19:39:27","新北市中和區連城路219巷22弄1號","121.494806666667","24.9964416666667","6500300","中和區"
"235056","096-UM","2017/06/08 19:39:19","新北市中和區員山路581巷2弄7號","121.477808333333","25.0095666666667","6500300","中和區"
"235039","097-UM","2017/06/08 19:39:38","新北市中和區秀峰街119巷8弄14號","121.519071666667","24.9900633333333","6500300","中和區"
"235065","098-UM","2017/06/08 19:39:18","新北市中和區中山路二段2巷45弄28號","121.502005","25.0065666666667","6500300","中和區"
"235040","150-BY","2017/06/08 19:39:29","新北市中和區安平路38號","121.509871666667","24.994965","6500300","中和區"
"235058","151-BY","2017/06/08 19:39:18","新北市中和區連城路525號","121.481663333333","24.99503","6500300","中和區"
"235055","183-VK","2017/06/08 19:39:35","新北市中和區中山路三段179巷2號","121.473215","25.00573","6500300","中和區"
"235038","185-VK","2017/06/08 19:39:20","新北市中和區立人街39號","121.520836666667","24.9941633333333","6500300","中和區"
"235049","186-VK","2017/06/08 19:39:34","新北市中和區安平路17號","121.50921","24.99418","6500300","中和區"
"235067","255-BX","2017/06/08 19:39:34","新北市中和區新生街264號","121.483676666667","24.9972383333333","6500300","中和區"
"235044","293-VK","2017/06/08 19:39:24","新北市中和區景安路212號","121.50399","24.99077","6500300","中和區"
"235072","301-VK","2017/06/08 19:39:37","新北市中和區中正路432巷9號","121.490776666667","24.9957233333333","6500300","中和區"
"235043","352-BY","2017/06/08 19:39:33","新北市中和區安和路31號","121.510266666667","24.9943916666667","6500300","中和區"
"235051","376-QA","2017/06/08 19:39:35","新北市中和區南華路46號","121.503925","24.99659","6500300","中和區"
"235068","377-QA","2017/06/08 19:39:28","新北市中和區連勝街57巷7號","121.497918333333","24.9969216666667","6500300","中和區"
"235061","378-QA","2017/06/08 19:39:39","新北市中和區民安街4號","121.480923333333","25.00104","6500300","中和區"
"235042","551-UM","2017/06/08 19:39:33","新北市中和區中和路262巷43弄3號","121.509633333333","24.99956","6500300","中和區"
"235070","558-UM","2017/06/08 19:39:17","新北市中和區泰和街2號","121.499975","25.00126","6500300","中和區"
"235045","565-BX","2017/06/08 19:39:37","新北市中和區景平路151巷37號","121.514661666667","24.9907283333333","6500300","中和區"
"235054","640-BX","2017/06/08 19:39:25","新北市中和區國光街112巷22弄5號","121.469845","25.0024033333333","6500300","中和區"
"235060","647-TV","2017/06/08 19:39:26","新北市中和區中山路二段523巷21號","121.481948333333","25.0038366666667","6500300","中和區"
"235047","732-UM","2017/06/08 19:39:32","新北市中和區景平路329巷2弄4號","121.505655","24.9929466666667","6500300","中和區"
"235046","733-UM","2017/06/08 19:39:28","新北市中和區忠孝街64號","121.511915","24.9839683333333","6500300","中和區"
"235071","783-BX","2017/06/08 19:39:32","新北市中和區中正路839巷29號","121.483611666667","25.0023533333333","6500300","中和區"
"235057","801-TS","2017/06/08 19:39:33","新北市中和區員山路437號","121.480806666667","25.003855","6500300","中和區"
"235041","802-TS","2017/06/08 19:39:20","新北市中和區中和路320號","121.50973","25.0005716666667","6500300","中和區"
"235052","805-TS","2017/06/08 19:39:34","新北市中和區華新街143巷67弄10號","121.50717","24.9789583333333","6500300","中和區"
"235048","896-TW","2017/06/08 19:39:32","新北市中和區忠孝街102號","121.512113333333","24.9846216666667","6500300","中和區"
"235053","900-TW","2017/06/08 19:39:27","新北市中和區華順街9號","121.467625","24.9987033333333","6500300","中和區"
"235037","AAC-213","2017/06/08 19:39:29","新北市中和區秀朗路三段50巷6弄1號","121.52524","24.9952366666667","6500300","中和區"
"235059","AAC-215","2017/06/08 19:39:21","新北市中和區圓通路337號","121.491635","24.9905816666667","6500300","中和區"
"220068","013-TV","2017/06/08 19:39:35","新北市板橋區中山路二段507號","121.482696666667","25.0211966666667","6500100","板橋區"
"220065","072-UY","2017/06/08 19:39:13","新北市板橋區國泰街70-4號","121.4676","25.006655","6500100","板橋區"
"220086","073-UY","2017/06/08 19:39:30","新北市板橋區中正路216巷8號","121.456333333333","25.0184416666667","6500100","板橋區"
"220106","075-UY","2017/06/08 19:39:33","新北市板橋區江寧路三段66號","121.472138333333","25.032245","6500100","板橋區"
"220096","120-SR","2017/06/08 19:39:23","新北市板橋區民生路二段226巷6弄8號","121.469745","25.02158","6500100","板橋區"
"247010","546-UM","2017/06/08 19:39:21","新北市蘆洲區中正路516巷38-5號","121.461596666667","25.0987433333333","6501400","蘆洲區"
"247002","402-BY","2017/06/08 16:40:25","新北市五股區中興路三段3-6號","121.449421666667","25.0787566666667","6501400","蘆洲區"
"247008","339-TH","2017/06/08 19:39:27","新北市蘆洲區中山一路101號","121.47671","25.0814633333333","6501400","蘆洲區"
"247002","336-TH","2017/06/08 19:39:33","新北市蘆洲區三民路593-1號","121.460975","25.0935533333333","6501400","蘆洲區"
"247014","057-VK","2017/06/08 19:39:20","新北市蘆洲區中正路131號","121.469495","25.0845933333333","6501400","蘆洲區"
"247004","056-VK","2017/06/08 19:39:30","新北市蘆洲區長安街98巷20號","121.46297","25.0817716666667","6501400","蘆洲區"
"226004","312-R5","2017/06/08 19:39:25","新北市平溪區南山里南山坪94號","121.777165","25.0412966666667","6502400","平溪區"
"228001","212-TW","2017/06/08 19:39:23","新北市貢寮區真理里延平街67巷1號","121.924366666667","25.0556466666667","6502600","貢寮區"
"228003","828-UM","2017/06/08 19:38:25","新北市貢寮區真理里美艷山街19-1號","121.923516666667","25.06826","6502600","貢寮區"
"224010","AGQ-8101","2017/06/08 19:39:28","新北市瑞芳區基山街70號","121.844768333333","25.10857","6501200","瑞芳區"
"224011","420-VK","2017/06/08 18:47:03","新北市瑞芳區崙頂路3-1號","121.847003333333","25.1047083333333","6501200","瑞芳區"
"227004","642-TC","2017/06/08 19:39:34","新北市雙溪區雙溪里太平路66號","121.865295","25.0360033333333","6502500","雙溪區"
"227010","400-TW","2017/06/08 19:39:31","新北市雙溪區新基里新基南街2號","121.86701","25.0372816666667","6502500","雙溪區"
"253006","032-BX","2017/06/08 19:39:31","新北市石門區小坑9號","121.594818333333","25.2868316666667","6502200","石門區"
"208001","742-BX","2017/06/08 19:39:28","新北市金山區金包里街32號","121.639708333333","25.2208916666667","6502700","金山區"
"208003","665-BX","2017/06/08 19:39:24","新北市金山區仁愛路9號","121.637936666667","25.2195883333333","6502700","金山區"
"251009","008-UM","2017/06/08 19:11:27","新北市淡水區中山路129巷23號","121.441576666667","25.1703916666667","6501000","淡水區"
"251004","009-UM","2017/06/08 19:39:21","新北市淡水區民權路185-10號","121.459408333333","25.1335783333333","6501000","淡水區"
"251001","011-UM","2017/06/08 19:39:38","新北市淡水區淡金路182號","121.459201666667","25.1659366666667","6501000","淡水區"
"251007","179-VK","2017/06/08 19:39:36","新北市淡水區中正東路一段3巷21號","121.451796666667","25.16602","6501000","淡水區"
"251008","181-VK","2017/06/08 19:39:24","新北市淡水區中正路32巷3號","121.43073","25.1753516666667","6501000","淡水區"
"251014","182-VK","2017/06/08 19:39:25","新北市淡水區北勢子20號","121.475878333333","25.23204","6501000","淡水區"
"251010","413-VK","2017/06/08 19:39:24","新北市淡水區崁頂三路107號","121.432198333333","25.20018","6501000","淡水區"
"251012","441-VK","2017/06/08 19:39:19","新北市淡水區新市二路四段265號","121.445423333333","25.1922183333333","6501000","淡水區"
"251016","442-VK","2017/06/08 19:39:28","新北市淡水區下圭柔山119-51號","121.450738333333","25.2083966666667","6501000","淡水區"
"251005","443-VK","2017/06/08 19:39:34","新北市淡水區原德路108巷2號","121.443281666667","25.1735583333333","6501000","淡水區"
"251011","650-BX","2017/06/08 19:39:18","新北市淡水區八勢一街40號","121.461515","25.1551416666667","6501000","淡水區"
"207003","550-UM","2017/06/08 19:39:20","新北市萬里區大鵬里萬里加投288-27號","121.64748","25.2190916666667","6502800","萬里區"
"207004","225-TW","2017/06/08 19:39:22","新北市萬里區萬里里瑪鋉路55號","121.687976666667","25.176115","6502800","萬里區"
"252002","178-VK","2017/06/08 19:39:36","新北市三芝區中正路一段18巷34號","121.504023333333","25.2591566666667","6502100","三芝區"
"252001","292-VK","2017/06/08 19:39:35","新北市三芝區公正街9號","121.499728333333","25.2575016666667","6502100","三芝區"
"252007","AAC-283","2017/06/08 00:22:10","新北市三芝區埔坪里埔頭坑41號","121.504455","25.26445","6502100","三芝區"
"208002","170-UY","2017/06/08 19:39:27","新北市金山區四維路15號","121.635261666667","25.2226283333333","6502700","金山區"
"237004","078-UY","2017/06/08 19:39:27","新北市三峽區金敏5號","121.384998333333","24.8751","6500900","三峽區"
"237007","153-BY","2017/06/08 19:39:37","新北市三峽區中正路二段584巷4弄5號","121.359101666667","24.9067883333333","6500900","三峽區"
"237009","210-TH","2017/06/08 19:39:37","新北市三峽區民權街31號","121.370153333333","24.9340983333333","6500900","三峽區"
"237013","252-BX","2017/06/08 19:39:27","新北市三峽區介壽路二段22-1號","121.390326666667","24.934985","6500900","三峽區"
"237012","275-BY","2017/06/08 19:39:36","新北市三峽區民生街3號","121.374563333333","24.9353983333333","6500900","三峽區"
"237008","302-VK","2017/06/08 19:39:30","新北市三峽區永安街183號","121.37314","24.9267883333333","6500900","三峽區"
"237014","433-BY","2017/06/08 19:39:18","新北市三峽區中山路63巷6號","121.366935","24.934365","6500900","三峽區"
"237006","5529-G3","2017/06/08 19:39:25","新北市三峽區中正路一段336巷15弄2號","121.369966666667","24.9249583333333","6500900","三峽區"
"237016","649-BX","2017/06/08 19:39:39","新北市三峽區成福路219號","121.42665","24.9268733333333","6500900","三峽區"
"237010","706-TV","2017/06/08 19:39:17","新北市三峽區復興路167號","121.370146666667","24.938495","6500900","三峽區"
"237005","AKY-6261","2017/06/08 19:39:02","新北市三峽區中山路219巷1號","121.363256666667","24.9365883333333","6500900","三峽區"
"236071","105-UM","2017/06/08 19:39:31","新北市土城區裕民路185巷36弄10號","121.454376666667","24.9845333333333","6501300","土城區"
"236042","107-UM","2017/06/08 19:39:34","新北市土城區學士路13號","121.4536","24.9828316666667","6501300","土城區"
"236078","166-UM","2017/06/08 19:39:28","新北市土城區中州路27巷76號","121.412646666667","24.9564283333333","6501300","土城區"
"236030","253-BX","2017/06/08 19:39:35","新北市土城區福祥街91號","121.441326666667","24.981185","6501300","土城區"
"236026","269-VK","2017/06/08 19:39:25","新北市土城區中央路二段61巷22號","121.443173333333","24.9787016666667","6501300","土城區"
"236037","271-VK","2017/06/08 19:39:38","新北市土城區清水路98巷3弄45號","121.45854","24.980875","6501300","土城區"
"236021","401-BY","2017/06/08 19:39:27","新北市土城區峰廷街3號","121.469131666667","24.9873416666667","6501300","土城區"
"236051","913-UM","2017/06/08 19:39:26","新北市土城區明德路一段59號","121.465321666667","24.9845383333333","6501300","土城區"
"236053","AAC-216","2017/06/08 19:39:29","新北市土城區學府路一段113號","121.45559","24.98752","6501300","土城區"
"242048","751-BX","2017/06/08 19:39:36","新北市新莊區後港一路14號","121.424763333333","25.0257583333333","6500500","新莊區"
"242042","497-BY","2017/06/08 19:39:27","新北市新莊區中正路700-28號","121.418058333333","25.02723","6500500","新莊區"
"242004","442-UM","2017/06/08 19:39:22","新北市新莊區化成路74號","121.465198333333","25.0435833333333","6500500","新莊區"
"242031","415-TV","2017/06/08 19:39:36","新北市新莊區新泰路213巷54號","121.445003333333","25.0384433333333","6500500","新莊區"
"242061","362-BY","2017/06/08 19:39:36","新北市新莊區新泰路255巷83號","121.442301666667","25.03868","6500500","新莊區"
"242034","133-UY","2017/06/08 19:39:19","新北市新莊區中正路417號","121.444683333333","25.0345066666667","6500500","新莊區"
"242007","173-VK","2017/06/08 19:39:24","新北市新莊區福壽街336號","121.45774","25.058345","6500500","新莊區"
"242013","175-VK","2017/06/08 19:39:25","新北市新莊區中泰街102號","121.449026666667","25.0467116666667","6500500","新莊區"
"242015","350-TH","2017/06/08 19:39:29","新北市新莊區三和路12-14號","121.44229","25.0372433333333","6500500","新莊區"
"242009","351-TH","2017/06/08 19:39:16","新北市新莊區新泰路357巷3弄57號","121.442028333333","25.0395516666667","6500500","新莊區"
"238015","755-BX","2017/06/08 19:39:26","新北市樹林區中興街49-2號","121.420923333333","24.9908166666667","6500700","樹林區"
"238023","601-UM","2017/06/08 19:39:32","新北市樹林區中正路825號","121.409303333333","25.0173116666667","6500700","樹林區"
"238018","571-TV","2017/06/08 19:39:37","新北市樹林區八德街495-1號","121.402181666667","24.9693183333333","6500700","樹林區"
"238024","5061-A6","2017/06/08 19:39:30","新北市樹林區佳園路一段37-1號","121.393065","24.97089","6500700","樹林區"
"238022","312-TH","2017/06/08 19:39:26","新北市樹林區太元街53號","121.418933333333","24.97888","6500700","樹林區"
"238021","311-TH","2017/06/08 19:39:21","新北市樹林區學府路210號","121.377593333333","24.9501633333333","6500700","樹林區"
"238025","303-VK","2017/06/08 19:39:29","新北市樹林區中山路一段115號","121.422891666667","24.9905233333333","6500700","樹林區"
"238017","283-BY","2017/06/08 19:39:27","新北市樹林區保安街二段115號","121.415498333333","25.0015333333333","6500700","樹林區"
"238014","282-BY","2017/06/08 19:39:23","新北市樹林區保安二街64巷17號","121.424486666667","24.9965266666667","6500700","樹林區"
"238020","268-VK","2017/06/08 19:39:21","新北市樹林區俊英街121巷13號","121.423831666667","25.0101716666667","6500700","樹林區"
"238026","172-UY","2017/06/08 19:39:31","新北市樹林區佳園路二段138號","121.389498333333","24.9561466666667","6500700","樹林區"
"238016","169-UY","2017/06/08 19:39:20","新北市樹林區東和街50號","121.39896","24.983905","6500700","樹林區"
"239007","AAC-297","2017/06/08 19:39:31","新北市鶯歌區大湖路326巷21號","121.34615","24.9702883333333","6500800","鶯歌區"
"239006","891-R6","2017/06/08 19:39:20","新北市鶯歌區建國路401號","121.33793","24.950915","6500800","鶯歌區"
"239003","360-BY","2017/06/08 19:39:19","新北市鶯歌區中山路177號","121.34803","24.9569916666667","6500800","鶯歌區"
"239004","193-VK","2017/06/08 19:39:28","新北市鶯歌區二甲路38-3號","121.337801666667","24.93488","6500800","鶯歌區"
"221036","130-UY","2017/06/08 19:39:26","新北市汐止區汐萬路一段256巷1號","121.651815","25.07491","6501100","汐止區"
"221015","131-UY","2017/06/08 19:39:25","新北市汐止區康寧街901號","121.65169","25.074985","6501100","汐止區"
"221010","269-BY","2017/06/08 19:39:33","新北市汐止區汐萬路一段312號","121.650145","25.07501","6501100","汐止區"
"221012","278-VK","2017/06/08 19:39:32","新北市汐止區大同路三段495號","121.680015","25.0711283333333","6501100","汐止區"
"221023","279-VK","2017/06/08 19:39:36","新北市汐止區中興路284號","121.628325","25.0694416666667","6501100","汐止區"
"221032","280-BY","2017/06/08 19:39:28","新北市汐止區新台五路一段116號","121.649098333333","25.0613966666667","6501100","汐止區"
"221002","281-BY","2017/06/08 19:39:30","新北市汐止區忠孝東路9號","121.658321666667","25.0659166666667","6501100","汐止區"
"221038","297-VK","2017/06/08 19:39:32","新北市汐止區大同路二段426號","121.658958333333","25.0670866666667","6501100","汐止區"
"221029","298-VK","2017/06/08 19:39:38","新北市汐止區康寧街901號","121.651586666667","25.0750216666667","6501100","汐止區"
"221021","299-VK","2017/06/08 19:38:53","新北市汐止區大同路二段187巷13號","121.651743333333","25.0649533333333","6501100","汐止區"
"221025","623-UM","2017/06/08 19:39:20","新北市汐止區福安街20巷3號","121.662535","25.0648966666667","6501100","汐止區"
"221033","647-BX","2017/06/08 19:39:31","新北市汐止區南勢街3號","121.62709","25.0374116666667","6501100","汐止區"
"220079","145-BY","2017/06/08 19:39:27","新北市板橋區復興街89號","121.459521666667","25.0177333333333","6500100","板橋區"
"220088","145-RM","2017/06/08 19:39:34","新北市板橋區仁化街180號","121.47847","25.0339433333333","6500100","板橋區"
"220093","146-RM","2017/06/08 19:39:38","新北市板橋區新海路436號","121.458035","25.0276816666667","6500100","板橋區"
"220101","245-BX","2017/06/08 19:39:39","新北市板橋區莊敬路220巷56號","121.471665","25.0206533333333","6500100","板橋區"
"220103","257-TC","2017/06/08 19:39:35","新北市板橋區文化路一段361號","121.46687","25.0211483333333","6500100","板橋區"
"220069","258-TC","2017/06/08 19:39:36","新北市板橋區貴興路51號","121.457543333333","25.00315","6500100","板橋區"
"220094","267-BY","2017/06/08 19:39:29","新北市板橋區銘傳街86號","121.469356666667","25.031445","6500100","板橋區"
"220072","277-BY","2017/06/08 19:39:18","新北市板橋區金門街253巷2弄25號","121.43171","24.9876616666667","6500100","板橋區"
"220064","280-UM","2017/06/08 19:39:26","新北市板橋區民權路33號","121.462141666667","25.0109733333333","6500100","板橋區"
"220071","283-VK","2017/06/08 19:39:27","新北市板橋區忠孝路24巷29號","121.460293333333","25.000745","6500100","板橋區"
"220091","285-UM","2017/06/08 19:39:32","新北市板橋區懷德街201巷1號","121.480668333333","25.0293533333333","6500100","板橋區"
"220053","285-VK","2017/06/08 19:39:29","新北市板橋區中山路二段176號","121.477378333333","25.017385","6500100","板橋區"
"220083","286-VK","2017/06/08 19:39:19","新北市板橋區龍興街71巷31號","121.442463333333","25.0023016666667","6500100","板橋區"
"220081","287-VK","2017/06/08 19:39:26","新北市板橋區大觀路一段75巷35號","121.448745","25.004105","6500100","板橋區"
"220090","288-VK","2017/06/08 19:39:26","新北市板橋區長江路一段102號","121.459543333333","25.0294633333333","6500100","板橋區"
"220061","293-UM","2017/06/08 19:39:21","新北市板橋區中山路二段147號","121.475515","25.0166216666667","6500100","板橋區"
"220084","296-UM","2017/06/08 19:39:28","新北市板橋區篤行路三段玉平巷76弄2號","121.427993333333","24.9855416666667","6500100","板橋區"
"220075","297-UM","2017/06/08 19:39:27","新北市板橋區中正路253巷27號","121.454193333333","25.0176966666667","6500100","板橋區"
"220097","299-UM","2017/06/08 19:39:36","新北市板橋區幸福路32巷4弄16號","121.461425","25.0215183333333","6500100","板橋區"
"220056","303-R5","2017/06/08 19:39:33","新北市板橋區四川路一段485號","121.457348333333","24.9971016666667","6500100","板橋區"
"220062","305-R5","2017/06/08 19:39:37","新北市板橋區三民路二段123巷31號","121.480625","25.0157466666667","6500100","板橋區"
"220092","307-R5","2017/06/08 19:39:33","新北市板橋區自由路5號","121.465356666667","25.0225116666667","6500100","板橋區"
"220098","317-R6","2017/06/08 19:39:28","新北市板橋區民生路三段299巷14號","121.462868333333","25.03027","6500100","板橋區"
"220080","461-BY","2017/06/08 19:39:30","新北市板橋區大觀路二段37巷250號","121.449756666667","25.00203","6500100","板橋區"
"220089","487-VK","2017/06/08 19:39:29","新北市板橋區公館街94-1號","121.46127","25.016605","6500100","板橋區"
"220035","560-BX","2017/06/08 19:39:30","新北市板橋區中正路330號","121.454478333333","25.0217883333333","6500100","板橋區"
"220063","609-BX","2017/06/08 19:39:28","新北市板橋區萬安街27巷22號","121.483833333333","25.0228616666667","6500100","板橋區"
"220057","686-BX","2017/06/08 19:39:27","新北市板橋區和平路82-1號","121.461425","24.9945833333333","6500100","板橋區"
"220077","687-BX","2017/06/08 19:39:26","新北市板橋區僑中三街7號","121.4466","25.0045733333333","6500100","板橋區"
"220054","741-BX","2017/06/08 19:39:31","新北市板橋區光明街1號","121.460098333333","25.002495","6500100","板橋區"
"220082","806-UM","2017/06/08 19:39:34","新北市板橋區大觀路三段133巷1號","121.432733333333","24.9940966666667","6500100","板橋區"
"220055","827-TW","2017/06/08 19:39:21","新北市板橋區和平路161巷24號","121.46338","24.9967633333333","6500100","板橋區"
"220067","829-TW","2017/06/08 19:39:29","新北市板橋區長安街251巷18號","121.472306666667","25.01067","6500100","板橋區"
"220102","830-TW","2017/06/08 19:39:33","新北市板橋區松柏街23號","121.47485","25.0300616666667","6500100","板橋區"
"220074","895-R6","2017/06/08 19:39:17","新北市板橋區中正路1巷14號","121.455236666667","25.0116666666667","6500100","板橋區"
"220073","985-R7","2017/06/08 19:39:34","新北市板橋區中正路228號","121.455766666667","25.0186366666667","6500100","板橋區"
"220070","AAC-253","2017/06/08 19:39:36","新北市板橋區忠孝路58號","121.461195","25.0019783333333","6500100","板橋區"
