"lineid","car","time","location","longitude","latitude","cityid","cityname"
"234046","148-BY","2017/06/08 20:09:33","新北市永和區成功路二段28號","121.526731666667","25.0005916666667","6500400","永和區"
"234013","149-BY","2017/06/08 20:09:25","新北市永和區永貞路422號","121.508433333333","25.008295","6500400","永和區"
"234007","207-UY","2017/06/08 20:09:22","新北市永和區保順路37巷14號","121.502938333333","25.0104183333333","6500400","永和區"
"234081","298-R6","2017/06/08 20:09:22","新北市永和區永利路81巷5號","121.521571666667","25.0039116666667","6500400","永和區"
"234038","336-UY","2017/06/08 20:09:34","新北市永和區成功路一段50號","121.526998333333","25.0041183333333","6500400","永和區"
"234064","337-UY","2017/06/08 20:09:33","新北市永和區秀朗路一段218-2號","121.520075","25.0030083333333","6500400","永和區"
"234086","338-UY","2017/06/08 20:09:35","新北市永和區福和路147號","121.520655","25.0076733333333","6500400","永和區"
"234070","552-UM","2017/06/08 20:09:30","新北市永和區永安街9號","121.518926666667","25.0062183333333","6500400","永和區"
"234054","553-UM","2017/06/08 20:09:24","新北市永和區博愛街15號","121.517133333333","25.0158183333333","6500400","永和區"
"234017","745-BX","2017/06/08 20:09:27","新北市永和區文化路32號","121.515061666667","25.0151183333333","6500400","永和區"
"234030","746-BX","2017/06/08 20:09:32","新北市永和區民有街69號","121.517886666667","24.9957533333333","6500400","永和區"
"234061","AAD-866","2017/06/08 20:09:22","新北市永和區中正路151巷5弄4-1號","121.515656666667","24.9986316666667","6500400","永和區"
"234042","862-TW","2017/06/08 20:09:28","新北市永和區雙和街14號","121.509526666667","25.0020466666667","6500400","永和區"
"234050","863-TW","2017/06/08 20:09:36","新北市永和區永平路360號","121.505951666667","25.0137716666667","6500400","永和區"
"234011","9373-KE","2017/06/08 20:09:26","新北市永和區仁愛路352巷112弄15號","121.501035","25.0086316666667","6500400","永和區"
"249005","172-UM","2017/06/08 20:09:29","新北市八里區長坑口43-5號","121.386036666667","25.1347383333333","6502300","八里區"
"249001","173-UM","2017/06/08 20:09:26","新北市八里區中華路二段305-7號","121.403393333333","25.1479216666667","6502300","八里區"
"249004","303-UY","2017/06/08 20:09:33","新北市八里區中山路一段157巷67號","121.412303333333","25.1577866666667","6502300","八里區"
"249002","305-UY","2017/06/08 17:09:10","新北市八里區龍米路二段147巷7號","121.442053333333","25.15054","6502300","八里區"
"249003","593-UM","2017/06/08 20:09:37","新北市八里區中山路二段540巷28號","121.397186666667","25.1471416666667","6502300","八里區"
"248014","025-BX","2017/06/08 20:09:21","新北市五股區五福路6巷13號","121.435165","25.0884816666667","6501500","五股區"
"248008","095-VK","2017/06/08 20:09:25","新北市五股區中興路一段1巷20號","121.469826666667","25.07091","6501500","五股區"
"248020","225-UY","2017/06/08 20:09:20","新北市五股區凌雲路二段13號","121.444571666667","25.1024433333333","6501500","五股區"
"248012","247-BX","2017/06/08 20:09:22","新北市五股區民義路一段212號","121.430586666667","25.08946","6501500","五股區"
"248016","261-SL","2017/06/08 20:09:25","新北市五股區成泰路三段577巷80弄72號","121.448925","25.1048033333333","6501500","五股區"
"248010","272-BY","2017/06/08 20:09:20","新北市五股區成泰路一段7巷4號","121.43338","25.0666533333333","6501500","五股區"
"248002","678-BX","2017/06/08 20:09:29","新北市五股區成泰路三段331號","121.448271666667","25.09519","6501500","五股區"
"234023","9380-KE","2017/06/08 20:09:28","新北市永和區復興街14號","121.515828333333","25.01286","6500400","永和區"
"234077","969-R7","2017/06/08 20:09:17","新北市永和區民享街23巷5弄8號","121.516098333333","24.995645","6500400","永和區"
"234074","AAC-211","2017/06/08 20:09:20","新北市永和區豫溪街148號","121.521775","25.010375","6500400","永和區"
"234067","AAC-212","2017/06/08 20:09:24","新北市永和區保平路236巷24弄1號","121.508066666667","25.0068616666667","6500400","永和區"
"234003","AAC-295","2017/06/08 20:07:48","新北市永和區中正路626號","121.51709","25.0079566666667","6500400","永和區"
"243005","AAD-798","2017/06/08 20:09:36","新北市泰山區明志路三段74巷8號","121.424471666667","25.04174","6501600","泰山區"
"243009","297-R6","2017/06/08 20:09:36","新北市泰山區泰林路二段116巷4弄1號","121.43524","25.0595933333333","6501600","泰山區"
"243014","421-VK","2017/06/08 20:09:21","新北市泰山區明志路一段78號","121.433545","25.064455","6501600","泰山區"
"243016","539-UM","2017/06/08 20:09:31","新北市泰山區明志路三段215號","121.423886666667","25.03824","6501600","泰山區"
"243010","548-UM","2017/06/08 20:09:31","新北市泰山區明志路二段136巷11號","121.426608333333","25.0514983333333","6501600","泰山區"
"243011","549-UM","2017/06/08 20:09:18","新北市泰山區明志路三段182巷58號","121.422721666667","25.0398216666667","6501600","泰山區"
"243012","646-TV","2017/06/08 20:09:24","新北市泰山區楓江路39-2號","121.435086666667","25.0624316666667","6501600","泰山區"
"222003","436-BY","2017/06/08 20:09:34","新北市深坑區埔新街60號","121.620211666667","25.0024133333333","6501800","深坑區"
"222002","659-BX","2017/06/08 20:09:30","新北市深坑區北深路三段156號","121.602766666667","25.0033016666667","6501800","深坑區"
"222001","696-SL","2017/06/08 20:09:28","新北市深坑區北深路三段193號","121.601115","25.0036733333333","6501800","深坑區"
"231041","002-UM","2017/06/08 20:09:34","新北市新店區中正路468號","121.533996666667","24.979485","6500600","新店區"
"231056","0291-UT","2017/06/08 20:09:36","新北市新店區北新路二段29巷3弄1號","121.542165","24.9730416666667","6500600","新店區"
"231059","046-UY","2017/06/08 20:09:31","新北市新店區安德街60巷35號","121.511111666667","24.9633983333333","6500600","新店區"
"231061","047-UY","2017/06/08 20:09:37","新北市新店區安興路33-1號","121.515778333333","24.9704183333333","6500600","新店區"
"231060","106-UY","2017/06/08 20:09:31","新北市新店區安康路三段136號","121.490705","24.9517833333333","6500600","新店區"
"231051","107-UY","2017/06/08 20:09:25","新北市新店區中央一街2-1號","121.528953333333","24.9727183333333","6500600","新店區"
"231047","108-UY","2017/06/08 20:09:29","新北市新店區寶宏路38號","121.549456666667","24.9755066666667","6500600","新店區"
"231052","187-VK","2017/06/08 20:09:24","新北市新店區桂山路87號","121.554075","24.9040566666667","6500600","新店區"
"231007","189-VK","2017/06/08 12:01:24","新北市新店區安華路28-1號","121.519721666667","24.9610833333333","6500600","新店區"
"231057","256-BX","2017/06/08 20:09:19","新北市新店區花園一路一段2號","121.553136666667","24.9324366666667","6500600","新店區"
"231063","268-BY","2017/06/08 20:09:35","新北市新店區黎明路56巷1號","121.502348333333","24.9477466666667","6500600","新店區"
"231046","278-BY","2017/06/08 20:09:34","新北市新店區安民街65巷21-1號","121.515425","24.9672183333333","6500600","新店區"
"231050","AAD-862","2017/06/08 20:09:24","新北市新店區中生路66號","121.5647","24.9523333333333","6500600","新店區"
"231055","3713-VJ","2017/06/08 20:09:29","新北市新店區中華路42巷28號","121.54095","24.968965","6500600","新店區"
"231066","4715-K9","2017/06/08 20:09:18","新北市新店區柴埕路60巷15-3號","121.508068333333","24.9655116666667","6500600","新店區"
"231065","512-UM","2017/06/08 20:09:17","新北市新店區安祥路106巷272號","121.472971666667","24.95867","6500600","新店區"
"231054","513-UM","2017/06/08 20:09:33","新北市新店區光明街306號","121.540571666667","24.96501","6500600","新店區"
"231064","515-UM","2017/06/08 20:09:35","新北市新店區安民街3巷1號","121.514708333333","24.9643533333333","6500600","新店區"
"231045","617-UM","2017/06/08 20:09:25","新北市新店區北宜路一段152號","121.540298333333","24.953845","6500600","新店區"
"231040","619-UM","2017/06/08 20:09:16","新北市新店區中正路106號","121.543078333333","24.9705616666667","6500600","新店區"
"231042","641-BX","2017/06/08 20:09:35","新北市新店區中興路二段175號","121.548268333333","24.9736033333333","6500600","新店區"
"231049","719-UM","2017/06/08 20:09:35","新北市新店區北新路二段171巷9號","121.542188333333","24.97642","6500600","新店區"
"231062","720-UM","2017/06/08 20:09:31","新北市新店區安華路3號","121.519276666667","24.9600966666667","6500600","新店區"
"231044","897-TW","2017/06/08 20:09:24","新北市新店區寶慶街58巷6號","121.542103333333","24.9870566666667","6500600","新店區"
"231043","899-TW","2017/06/08 20:09:28","新北市新店區中正路295號","121.537125","24.9746016666667","6500600","新店區"
"241011","013-R5","2017/06/08 20:09:23","新北市三重區秀江街243號","121.4962","25.0716866666667","6500200","三重區"
"241028","022-UY","2017/06/08 20:09:15","新北市三重區仁化街174號","121.494766666667","25.0571016666667","6500200","三重區"
"241008","059-VK","2017/06/08 20:09:32","新北市三重區永福街197巷37弄9號","121.477983333333","25.0741866666667","6500200","三重區"
"241009","060-VK","2017/06/08 20:09:30","新北市三重區永福街125巷18號","121.478276666667","25.077195","6500200","三重區"
"241031","061-VK","2017/06/08 20:09:36","新北市三重區過圳街9-1號","121.488753333333","25.0600683333333","6500200","三重區"
"241015","062-VK","2017/06/08 20:09:34","新北市三重區福德北路43號","121.502356666667","25.0649233333333","6500200","三重區"
"241017","063-VK","2017/06/08 20:09:37","新北市三重區自強路一段236號","121.493103333333","25.06702","6500200","三重區"
"241024","065-VK","2017/06/08 20:09:30","新北市三重區中正北路294號","121.48014","25.068795","6500200","三重區"
"241002","090-VK","2017/06/08 20:09:32","新北市三重區仁義街210號","121.49619","25.0822683333333","6500200","三重區"
"241003","091-VK","2017/06/08 20:09:28","新北市三重區仁愛街435號","121.490176666667","25.082055","6500200","三重區"
"241025","156-TC","2017/06/08 20:09:18","新北市三重區中正北路430號","121.474551666667","25.0710566666667","6500200","三重區"
"241005","262-UM","2017/06/08 20:09:34","新北市三重區五華街180巷31號","121.488036666667","25.085455","6500200","三重區"
"241012","265-UM","2017/06/08 20:09:24","新北市三重區仁愛街125巷38號","121.498041666667","25.076","6500200","三重區"
"241016","266-UM","2017/06/08 20:09:20","新北市三重區大同北路61號","121.49515","25.0634083333333","6500200","三重區"
"241022","267-UM","2017/06/08 20:09:20","新北市三重區新北大道一段17號","121.488001666667","25.0611466666667","6500200","三重區"
"241018","268-UM","2017/06/08 20:09:27","新北市三重區正義北路256巷40號","121.495078333333","25.0682316666667","6500200","三重區"
"241013","270-UM","2017/06/08 20:09:26","新北市三重區三和路三段139巷34號","121.493848333333","25.0740416666667","6500200","三重區"
"241007","398-BY","2017/06/08 20:09:31","新北市三重區仁美街47號","121.48752","25.0778033333333","6500200","三重區"
"241020","412-TH","2017/06/08 20:09:21","新北市三重區大智街179巷23號","121.490783333333","25.0729316666667","6500200","三重區"
"241035","462-BY","2017/06/08 20:09:24","新北市三重區文化北路22-2號","121.499148333333","25.0642633333333","6500200","三重區"
"241004","475-VK","2017/06/08 20:09:38","新北市三重區自強路四段107-1號","121.491711666667","25.0799716666667","6500200","三重區"
"241019","478-VK","2017/06/08 20:09:26","新北市三重區自強路二段33巷48號","121.490578333333","25.069835","6500200","三重區"
"241030","480-VK","2017/06/08 20:09:30","新北市三重區成功路145巷33號","121.48771","25.05323","6500200","三重區"
"241014","543-UM","2017/06/08 20:09:26","新北市三重區長樂街90號","121.501318333333","25.069455","6500200","三重區"
"241023","545-UM","2017/06/08 20:09:20","新北市三重區頂崁街225號","121.477028333333","25.068135","6500200","三重區"
"241001","547-UM","2017/06/08 20:09:30","新北市三重區溪尾街26號","121.49101","25.0764083333333","6500200","三重區"
"241006","AAD-863","2017/06/08 20:09:24","新北市三重區力行路二段138-1號","121.482498333333","25.07579","6500200","三重區"
"241026","887-TS","2017/06/08 20:09:31","新北市三重區福德南路65巷2號","121.502323333333","25.0604383333333","6500200","三重區"
"241029","942-UM","2017/06/08 20:09:23","新北市三重區重新路三段204號","121.489986666667","25.058545","6500200","三重區"
"241033","AAC-255","2017/06/08 20:09:17","新北市三重區光復路一段70號","121.472041666667","25.04932","6500200","三重區"
"235066","003-UY","2017/06/08 20:09:32","新北市中和區水源路127巷9號","121.508043333333","25.0036583333333","6500300","中和區"
"235039","097-UM","2017/06/08 20:09:30","新北市中和區景平路278巷14弄16號","121.514938333333","24.99312","6500300","中和區"
"235065","098-UM","2017/06/08 20:09:18","新北市中和區福美路245號","121.499168333333","25.005235","6500300","中和區"
"235040","150-BY","2017/06/08 20:09:29","新北市中和區保健路26巷21號","121.508655","24.9971216666667","6500300","中和區"
"235058","151-BY","2017/06/08 20:09:38","新北市中和區員山路102號","121.481063333333","24.995425","6500300","中和區"
"235055","183-VK","2017/06/08 20:09:35","新北市中和區德光路35號","121.470543333333","25.0042066666667","6500300","中和區"
"235038","185-VK","2017/06/08 20:09:20","新北市中和區自立路7號","121.522501666667","24.9965383333333","6500300","中和區"
"235044","293-VK","2017/06/08 20:09:24","新北市中和區中正路3號","121.503343333333","24.9932066666667","6500300","中和區"
"235072","301-VK","2017/06/08 20:09:37","新北市八里區中山路三段409號","121.368523333333","25.135245","6500300","中和區"
"235051","376-QA","2017/06/08 20:09:35","新北市中和區景安路221號","121.50437","24.9913583333333","6500300","中和區"
"235068","377-QA","2017/06/08 20:09:29","新北市中和區福美路301巷14號","121.49746","25.0043233333333","6500300","中和區"
"235050","4979-A6","2017/06/08 20:09:19","新北市中和區景平路302號","121.512921666667","24.9929066666667","6500300","中和區"
"235069","4980-A6","2017/06/08 20:09:27","新北市中和區南山路127巷27弄28號","121.50344","24.998015","6500300","中和區"
"235070","558-UM","2017/06/08 20:09:37","新北市中和區圓通路119號","121.499283333333","24.9963416666667","6500300","中和區"
"235054","640-BX","2017/06/08 20:09:25","新北市中和區莒光路94號","121.472345","25.0024716666667","6500300","中和區"
"235046","733-UM","2017/06/08 20:09:28","新北市中和區忠孝街31巷51號","121.509635","24.985565","6500300","中和區"
"235041","802-TS","2017/06/08 20:09:21","新北市中和區中安街10號","121.513526666667","25.00324","6500300","中和區"
"235052","805-TS","2017/06/08 20:09:34","新北市中和區華新街192巷31號","121.506216666667","24.983315","6500300","中和區"
"235048","896-TW","2017/06/08 20:09:32","新北市中和區景新街463號","121.513341666667","24.9882033333333","6500300","中和區"
"235037","AAC-213","2017/06/08 20:09:29","新北市中和區秀朗路三段10巷29弄5號","121.525078333333","24.99601","6500300","中和區"
"235059","AAC-215","2017/06/08 20:09:21","新北市中和區圓通路335巷37弄31號","121.493848333333","24.9889766666667","6500300","中和區"
"220068","013-TV","2017/06/08 20:09:35","新北市板橋區中山路二段290號","121.479638333333","25.018765","6500100","板橋區"
"220065","072-UY","2017/06/08 20:09:33","新北市板橋區縣民大道二段82號","121.465913333333","25.014775","6500100","板橋區"
"220106","075-UY","2017/06/08 20:09:33","新北市板橋區民治街52巷22號","121.47878","25.0327333333333","6500100","板橋區"
"220096","120-SR","2017/06/08 20:09:39","新北市板橋區莒光路133巷12-3號","121.4729","25.0243716666667","6500100","板橋區"
"247020","893-R6","2017/06/08 20:09:20","新北市蘆洲區民義街68巷32號","121.474066666667","25.08922","6501400","蘆洲區"
"247010","546-UM","2017/06/08 20:09:24","新北市蘆洲區信義路148號","121.479443333333","25.08324","6501400","蘆洲區"
"247018","500-BY","2017/06/08 20:09:30","新北市蘆洲區民族路257巷6號","121.476355","25.09062","6501400","蘆洲區"
"247002","402-BY","2017/06/08 20:09:24","新北市蘆洲區民義街68巷11號","121.473753333333","25.0896433333333","6501400","蘆洲區"
"247006","341-TH","2017/06/08 20:09:26","新北市蘆洲區中山二路284號","121.469053333333","25.0778616666667","6501400","蘆洲區"
"247008","339-TH","2017/06/08 20:09:27","新北市蘆洲區集賢路300號","121.481595","25.0852666666667","6501400","蘆洲區"
"247024","337-TH","2017/06/08 20:09:35","新北市蘆洲區光明路88巷19號","121.463313333333","25.0870783333333","6501400","蘆洲區"
"247002","336-TH","2017/06/08 20:09:33","新北市蘆洲區長安街246巷35號","121.4585","25.0864316666667","6501400","蘆洲區"
"247014","057-VK","2017/06/08 20:09:20","新北市蘆洲區和平路38號","121.470876666667","25.079325","6501400","蘆洲區"
"247004","056-VK","2017/06/08 20:09:29","新北市蘆洲區永安南路二段328巷15弄5號","121.456503333333","25.0836383333333","6501400","蘆洲區"
"247012","007-UY","2017/06/08 20:09:29","新北市蘆洲區民族路236巷35號","121.48033","25.0888083333333","6501400","蘆洲區"
"247022","002-UY","2017/06/08 20:09:33","新北市蘆洲區三民路185號","121.470686666667","25.08745","6501400","蘆洲區"
"247016","001-UY","2017/06/08 20:09:21","新北市蘆洲區光華路150巷11號","121.465515","25.0827466666667","6501400","蘆洲區"
"224011","420-VK","2017/06/08 20:09:23","新北市瑞芳區崙頂路1-6號","121.847165","25.104905","6501200","瑞芳區"
"227004","642-TC","2017/06/08 20:09:34","新北市雙溪區魚行里新店74-1號","121.872033333333","25.0301316666667","6502500","雙溪區"
"208001","742-BX","2017/06/08 20:09:33","新北市金山區六股里下六股49號","121.61787","25.2218833333333","6502700","金山區"
"208003","665-BX","2017/06/08 20:09:24","新北市金山區香園14號","121.633853333333","25.2538466666667","6502700","金山區"
"251009","008-UM","2017/06/08 20:06:07","新北市淡水區英專路41號","121.445441666667","25.1703733333333","6501000","淡水區"
"251004","009-UM","2017/06/08 19:40:21","新北市淡水區民權路187巷15號","121.460195","25.1332983333333","6501000","淡水區"
"251001","011-UM","2017/06/08 20:09:18","新北市淡水區新市二路四段265號","121.445758333333","25.19246","6501000","淡水區"
"251008","181-VK","2017/06/08 20:09:24","新北市淡水區淡海路72巷30弄13號","121.424875","25.1827566666667","6501000","淡水區"
"251014","182-VK","2017/06/08 20:09:25","新北市淡水區石頭厝3號","121.458665","25.2355233333333","6501000","淡水區"
"251010","413-VK","2017/06/08 20:09:24","新北市淡水區新市二路二段108號","121.428001666667","25.1953433333333","6501000","淡水區"
"251012","441-VK","2017/06/08 20:09:33","新北市淡水區淡金路三段216號","121.448953333333","25.20467","6501000","淡水區"
"251016","442-VK","2017/06/08 20:09:31","新北市淡水區番子田20-4號","121.457693333333","25.2283483333333","6501000","淡水區"
"251011","650-BX","2017/06/08 20:06:58","新北市淡水區崁頂78-5號","121.429453333333","25.2070333333333","6501000","淡水區"
"251002","672-BX","2017/06/08 20:09:30","新北市淡水區中正路334號","121.435725","25.1731333333333","6501000","淡水區"
"251003","766-UM","2017/06/08 20:09:19","新北市淡水區中山北路一段271號","121.444616666667","25.1812883333333","6501000","淡水區"
"207003","550-UM","2017/06/08 20:09:20","新北市萬里區大鵬里萬里加投180號","121.642946666667","25.2157883333333","6502800","萬里區"
"207004","225-TW","2017/06/08 20:09:22","新北市萬里區北基里孝七街29號","121.682461666667","25.1766916666667","6502800","萬里區"
"252002","178-VK","2017/06/08 20:09:36","新北市三芝區忠孝街116-3號","121.505528333333","25.257445","6502100","三芝區"
"252001","292-VK","2017/06/08 20:09:35","新北市三芝區公正街9號","121.499755","25.2574933333333","6502100","三芝區"
"252007","AAC-283","2017/06/08 00:22:10","新北市三芝區埔坪里埔頭坑41號","121.504455","25.26445","6502100","三芝區"
"237007","153-BY","2017/06/08 20:09:37","新北市三峽區二鬮路136巷24弄73號","121.35773","24.9106083333333","6500900","三峽區"
"237009","210-TH","2017/06/08 20:09:37","新北市三峽區民權街203號","121.367823333333","24.9285233333333","6500900","三峽區"
"237012","275-BY","2017/06/08 20:09:36","新北市三峽區中華路48巷16號","121.371113333333","24.9301216666667","6500900","三峽區"
"237008","302-VK","2017/06/08 20:09:30","新北市三峽區中正路一段292巷10號","121.370988333333","24.9260133333333","6500900","三峽區"
"237014","433-BY","2017/06/08 20:09:18","新北市三峽區嘉添109-2號","121.369661666667","24.9106516666667","6500900","三峽區"
"237006","5529-G3","2017/06/08 20:09:25","新北市三峽區大利路16號","121.36674","24.9116316666667","6500900","三峽區"
"237016","649-BX","2017/06/08 20:09:19","新北市三峽區介壽路二段138巷1弄21號","121.396561666667","24.9335033333333","6500900","三峽區"
"237005","AKY-6261","2017/06/08 20:09:22","新北市三峽區三樹路44巷17號","121.3785","24.9375516666667","6500900","三峽區"
"236071","105-UM","2017/06/08 20:09:31","新北市土城區中央路三段134-1號","121.433448333333","24.96556","6501300","土城區"
"236042","107-UM","2017/06/08 20:09:34","新北市土城區學府路一段116號","121.45558","24.98757","6501300","土城區"
"236078","166-UM","2017/06/08 20:09:28","新北市土城區三民路7號","121.42056","24.96324","6501300","土城區"
"236030","253-BX","2017/06/08 20:09:35","新北市土城區中央路一段118巷1弄22號","121.445556666667","24.9875616666667","6501300","土城區"
"236026","269-VK","2017/06/08 20:09:37","新北市土城區中央路一段269-3號","121.444886666667","24.98523","6501300","土城區"
"236014","270-VK","2017/06/08 20:09:22","新北市土城區德興街135號","121.455093333333","24.9916766666667","6501300","土城區"
"236037","271-VK","2017/06/08 20:09:17","新北市土城區延吉街280號","121.465325","24.9842516666667","6501300","土城區"
"236021","401-BY","2017/06/08 20:09:27","新北市土城區延吉街63巷2號","121.47235","24.98736","6501300","土城區"
"236058","912-UM","2017/06/08 20:09:35","新北市土城區中央路一段304號","121.443413333333","24.9818583333333","6501300","土城區"
"236051","913-UM","2017/06/08 20:09:26","新北市土城區金城路三段22-1號","121.465178333333","24.98639","6501300","土城區"
"236062","915-UM","2017/06/08 20:09:24","新北市土城區延和路18巷13號","121.464788333333","24.9877516666667","6501300","土城區"
"236053","AAC-216","2017/06/08 20:09:29","新北市土城區學成路2號","121.453666666667","24.9863233333333","6501300","土城區"
"242021","AAC-296","2017/06/08 20:09:19","新北市新莊區建中街48巷4號","121.448466666667","25.037615","6500500","新莊區"
"242029","986-R7","2017/06/08 20:09:30","新北市新莊區中榮街103號","121.444881666667","25.0527933333333","6500500","新莊區"
"242048","751-BX","2017/06/08 20:09:36","新北市新莊區四維路152巷30號","121.421946666667","25.0225116666667","6500500","新莊區"
"242025","615-BX","2017/06/08 20:09:32","新北市新莊區五權一路12巷25弄26號","121.458815","25.0648116666667","6500500","新莊區"
"242023","613-BX","2017/06/08 20:09:25","新北市新莊區化成路251號","121.466206666667","25.0536466666667","6500500","新莊區"
"242027","612-BX","2017/06/08 20:06:48","新北市新莊區立信一街48號","121.443285","25.0494383333333","6500500","新莊區"
"242036","566-BX","2017/06/08 20:09:26","新北市新莊區建安街9巷6號","121.429015","25.0265733333333","6500500","新莊區"
"242042","497-BY","2017/06/08 20:09:27","新北市新莊區壽山路49-1號","121.414425","25.0307616666667","6500500","新莊區"
"242004","442-UM","2017/06/08 20:09:27","新北市新莊區頭興街13巷2號","121.461181666667","25.05351","6500500","新莊區"
"242031","415-TV","2017/06/08 20:09:36","新北市新莊區中正路449-1號","121.443023333333","25.0339266666667","6500500","新莊區"
"242002","413-TV","2017/06/08 20:09:20","新北市新莊區中正路2號","121.465911666667","25.0424733333333","6500500","新莊區"
"242039","400-BY","2017/06/08 20:09:24","新北市新莊區民安西路107號","121.426905","25.0183966666667","6500500","新莊區"
"242061","362-BY","2017/06/08 20:09:36","新北市新莊區瓊林路96-7號","121.443891666667","25.0269333333333","6500500","新莊區"
"242058","353-BY","2017/06/08 20:09:38","新北市新莊區八德街145號","121.42356","25.0198","6500500","新莊區"
"242011","132-UY","2017/06/08 20:09:18","新北市新莊區中信街55號","121.449543333333","25.0507483333333","6500500","新莊區"
"242034","133-UY","2017/06/08 20:09:19","新北市新莊區中正路318巷15號","121.446266666667","25.0359083333333","6500500","新莊區"
"242019","135-UY","2017/06/08 20:09:26","新北市新莊區思源路131號","121.459808333333","25.0431666666667","6500500","新莊區"
"242044","172-VK","2017/06/08 20:09:31","桃園市龜山區萬壽路一段21巷10號","121.410588333333","25.0203","6500500","新莊區"
"242007","173-VK","2017/06/08 20:09:34","新北市新莊區福壽街184巷20號","121.459298333333","25.0530183333333","6500500","新莊區"
"242013","175-VK","2017/06/08 20:09:25","新北市新莊區中港路391號","121.4515","25.0470433333333","6500500","新莊區"
"242056","176-VK","2017/06/08 20:09:21","新北市新莊區新莊路649巷15弄1號","121.444986666667","25.0315266666667","6500500","新莊區"
"242051","346-TH","2017/06/08 20:09:31","新北市新莊區民安西路172巷2弄2號","121.425848333333","25.0160066666667","6500500","新莊區"
"242017","348-TH","2017/06/08 20:09:18","新北市新莊區中港路397號","121.451976666667","25.0469233333333","6500500","新莊區"
"242053","349-TH","2017/06/08 20:09:17","新北市新莊區西盛街387巷5號","121.428335","25.012995","6500500","新莊區"
"242015","350-TH","2017/06/08 20:09:29","新北市新莊區中平路26巷7號","121.445233333333","25.043295","6500500","新莊區"
"242009","351-TH","2017/06/08 20:09:16","新北市新莊區昌平街33號","121.45474","25.052005","6500500","新莊區"
"238023","601-UM","2017/06/08 20:09:32","新北市樹林區大安路322巷1號","121.416895","24.9913133333333","6500700","樹林區"
"238021","311-TH","2017/06/08 20:09:00","新北市樹林區佳園路三段181巷81號","121.390631666667","24.9484716666667","6500700","樹林區"
"239006","891-R6","2017/06/08 20:09:20","新北市鶯歌區文化路115巷23號","121.357723333333","24.9551216666667","6500800","鶯歌區"
"221036","130-UY","2017/06/08 20:09:26","新北市汐止區新台五路二段100號","121.66246","25.0659716666667","6501100","汐止區"
"221015","131-UY","2017/06/08 20:09:25","新北市汐止區建成路15號","121.664526666667","25.0725766666667","6501100","汐止區"
"221010","269-BY","2017/06/08 20:09:33","新北市汐止區八連路一段197巷25號","121.641888333333","25.0791216666667","6501100","汐止區"
"221012","278-VK","2017/06/08 20:09:32","新北市汐止區汐平路二段32號","121.694686666667","25.0654183333333","6501100","汐止區"
"221023","279-VK","2017/06/08 20:09:36","新北市汐止區明峰街298巷3弄2號","121.625055","25.0683716666667","6501100","汐止區"
"221032","280-BY","2017/06/08 20:09:28","新北市汐止區弘道街8巷3弄1號","121.617098333333","25.0481566666667","6501100","汐止區"
"221002","281-BY","2017/06/08 20:09:30","新北市汐止區光明街8號","121.66087","25.0687866666667","6501100","汐止區"
"221038","297-VK","2017/06/08 20:09:32","新北市汐止區忠孝東路444號","121.666071666667","25.072545","6501100","汐止區"
"221029","298-VK","2017/06/08 20:09:38","新北市汐止區樟樹一路119巷10弄1號","121.641241666667","25.0646266666667","6501100","汐止區"
"221021","299-VK","2017/06/08 20:09:33","新北市汐止區莊敬街128-6號","121.654498333333","25.061335","6501100","汐止區"
"221025","623-UM","2017/06/08 20:09:20","新北市汐止區秀峰路64號","121.659731666667","25.06462","6501100","汐止區"
"221033","647-BX","2017/06/08 20:09:31","新北市汐止區東勢街201巷104號","121.633478333333","25.0429283333333","6501100","汐止區"
"221002","707-TV","2017/06/08 20:09:29","新北市汐止區中興路27巷4號","121.634933333333","25.0608733333333","6501100","汐止區"
"220088","145-RM","2017/06/08 20:09:34","新北市板橋區懷德街127巷23弄7號","121.479328333333","25.031725","6500100","板橋區"
"220093","146-RM","2017/06/08 20:09:18","新北市板橋區長江路二段192號","121.467345","25.0321116666667","6500100","板橋區"
"220101","245-BX","2017/06/08 20:09:38","新北市板橋區莒光路165巷2號","121.474125","25.0239366666667","6500100","板橋區"
"220103","257-TC","2017/06/08 20:09:35","新北市板橋區陽明街110號","121.463956666667","25.023315","6500100","板橋區"
"220069","258-TC","2017/06/08 20:09:31","新北市板橋區貴興路81號","121.456758333333","25.0029166666667","6500100","板橋區"
"220072","277-BY","2017/06/08 20:09:18","新北市板橋區篤行路二段77巷1號","121.432043333333","24.99186","6500100","板橋區"
"220064","280-UM","2017/06/08 20:09:26","新北市板橋區長安街331巷24號","121.473958333333","25.01258","6500100","板橋區"
"220071","283-VK","2017/06/08 20:09:27","新北市中和區和平路200巷25號","121.46489","24.9947333333333","6500100","板橋區"
"220053","285-VK","2017/06/08 20:09:29","新北市板橋區懷仁街16號","121.47623","25.0198783333333","6500100","板橋區"
"220083","286-VK","2017/06/08 20:09:19","新北市板橋區僑中二街48巷6號","121.446048333333","25.0104083333333","6500100","板橋區"
"220081","287-VK","2017/06/08 20:09:20","新北市板橋區僑中一街124巷18弄45號","121.448208333333","25.0136366666667","6500100","板橋區"
"220090","288-VK","2017/06/08 20:09:27","新北市板橋區幸福路32巷4弄2號","121.460971666667","25.021275","6500100","板橋區"
"220061","293-UM","2017/06/08 20:09:20","新北市板橋區觀光街90號","121.46945","25.0168816666667","6500100","板橋區"
"220084","296-UM","2017/06/08 20:09:28","新北市板橋區滿平街2巷10號","121.425358333333","24.9894666666667","6500100","板橋區"
"220075","297-UM","2017/06/08 20:09:27","新北市板橋區金華街10巷118號","121.459281666667","25.0204933333333","6500100","板橋區"
"220097","299-UM","2017/06/08 20:09:36","新北市板橋區光正街18巷15號","121.462733333333","25.0178133333333","6500100","板橋區"
"220062","305-R5","2017/06/08 20:09:29","新北市板橋區光復街33巷8號","121.481921666667","25.018895","6500100","板橋區"
"220092","307-R5","2017/06/08 20:09:33","新北市板橋區光正街45巷35號","121.46187","25.015755","6500100","板橋區"
"220098","317-R6","2017/06/08 20:09:27","新北市板橋區新海路72巷59號","121.461478333333","25.0236166666667","6500100","板橋區"
"220080","461-BY","2017/06/08 20:09:30","新北市板橋區大觀路二段181號","121.44496","25.00003","6500100","板橋區"
"220089","487-VK","2017/06/08 20:09:37","新北市板橋區新海路403巷22號","121.45747","25.0263416666667","6500100","板橋區"
"220035","560-BX","2017/06/08 20:09:30","新北市板橋區新生街53巷1弄10號","121.456961666667","25.021565","6500100","板橋區"
"220057","686-BX","2017/06/08 20:09:17","新北市板橋區四川路二段119號","121.451346666667","24.99431","6500100","板橋區"
"220054","741-BX","2017/06/08 20:09:31","新北市板橋區忠孝路201巷94號","121.464686666667","25.004765","6500100","板橋區"
"220082","806-UM","2017/06/08 20:09:34","新北市板橋區大觀路三段133巷19號","121.432745","24.9944566666667","6500100","板橋區"
"220055","827-TW","2017/06/08 20:09:21","新北市板橋區仁愛路74號","121.460483333333","24.9995683333333","6500100","板橋區"
"220067","829-TW","2017/06/08 20:09:29","新北市板橋區中山路二段29號","121.47272","25.0152433333333","6500100","板橋區"
"220102","830-TW","2017/06/08 20:09:33","新北市板橋區民治街132號","121.47771","25.03082","6500100","板橋區"
"220074","895-R6","2017/06/08 20:09:37","新北市板橋區府中路29-2號","121.458603333333","25.0080216666667","6500100","板橋區"
"220073","985-R7","2017/06/08 20:09:34","新北市板橋區南雅西路二段108號","121.452223333333","25.0119533333333","6500100","板橋區"
"220070","AAC-253","2017/06/08 20:09:36","新北市板橋區成都街69號","121.462278333333","25.0050783333333","6500100","板橋區"
