"lineid","car","time","location","longitude","latitude","cityid","cityname"
"249002","305-UY","2017/06/08 17:09:10","新北市八里區龍米路二段147巷7號","121.442053333333","25.15054","6502300","八里區"
"234074","AAC-211","2017/06/08 21:19:20","新北市新店區薏仁坑路2-2號","121.501295","24.9582716666667","6500400","永和區"
"231059","046-UY","2017/06/08 21:19:31","新北市新店區薏仁坑路自強巷1號","121.496675","24.95804","6500600","新店區"
"231061","047-UY","2017/06/08 21:19:17","新北市新店區安康路二段118號","121.513145","24.9628066666667","6500600","新店區"
"231060","106-UY","2017/06/08 21:19:31","新北市新店區薏仁坑路自強巷1號","121.497121666667","24.9578216666667","6500600","新店區"
"231051","107-UY","2017/06/08 21:19:25","新北市新店區中正路700巷82號","121.53601","24.9932366666667","6500600","新店區"
"231007","189-VK","2017/06/08 12:01:24","新北市新店區安華路28-1號","121.519721666667","24.9610833333333","6500600","新店區"
"231063","268-BY","2017/06/08 21:19:35","新北市新店區玫瑰路57巷25號","121.496636666667","24.946405","6500600","新店區"
"231050","AAD-862","2017/06/08 21:19:24","新北市新店區中華路83巷4弄11號","121.538538333333","24.96844","6500600","新店區"
"231067","4772-VM","2017/06/08 21:19:24","新北市新店區安德街148巷11弄2號","121.507771666667","24.9601466666667","6500600","新店區"
"231040","619-UM","2017/06/08 21:19:36","新北市新店區光明街294號","121.54053","24.96469","6500600","新店區"
"231043","899-TW","2017/06/08 21:19:28","新北市新店區薏仁坑路自強巷1號","121.496908333333","24.9580633333333","6500600","新店區"
"241011","013-R5","2017/06/08 21:19:23","新北市三重區龍濱路197號","121.50186","25.07135","6500200","三重區"
"241028","022-UY","2017/06/08 21:19:35","新北市三重區正義南路169號","121.49885","25.0574783333333","6500200","三重區"
"241008","059-VK","2017/06/08 21:19:32","新北市三重區自強路一段60號","121.497296666667","25.0668166666667","6500200","三重區"
"241009","060-VK","2017/06/08 21:19:30","新北市三重區忠孝路三段26號","121.481373333333","25.066965","6500200","三重區"
"241031","061-VK","2017/06/08 21:19:36","新北市三重區五谷王南街46巷37號","121.475731666667","25.0455183333333","6500200","三重區"
"241017","063-VK","2017/06/08 21:19:17","新北市三重區中正北路25巷25弄2號","121.493233333333","25.0626316666667","6500200","三重區"
"241024","065-VK","2017/06/08 21:19:30","新北市三重區中正北路145巷8弄2號","121.484028333333","25.067785","6500200","三重區"
"241002","090-VK","2017/06/08 21:19:32","新北市三重區五華街32號","121.49461","25.08074","6500200","三重區"
"241003","091-VK","2017/06/08 21:19:29","新北市三重區仁義街325號","121.495388333333","25.08451","6500200","三重區"
"241025","156-TC","2017/06/08 21:19:18","新北市三重區中正北路208巷8號","121.482256666667","25.0669383333333","6500200","三重區"
"241005","262-UM","2017/06/08 21:19:34","新北市三重區三信路182號","121.488031666667","25.0860883333333","6500200","三重區"
"241012","265-UM","2017/06/08 21:19:24","新北市三重區龍門路239號","121.501971666667","25.0739816666667","6500200","三重區"
"241016","266-UM","2017/06/08 21:19:20","新北市三重區自強路一段95號","121.495873333333","25.066385","6500200","三重區"
"241013","270-UM","2017/06/08 21:19:26","新北市三重區仁愛街81-1號","121.495893333333","25.073135","6500200","三重區"
"241007","398-BY","2017/06/08 21:19:31","新北市三重區自強路三段72號","121.486868333333","25.0734083333333","6500200","三重區"
"241019","478-VK","2017/06/08 21:19:25","新北市三重區重陽路三段7-3號","121.48918","25.0664966666667","6500200","三重區"
"241030","480-VK","2017/06/08 21:19:29","新北市三重區中興南街80巷8號","121.47129","25.043725","6500200","三重區"
"241014","543-UM","2017/06/08 21:19:26","新北市三重區萬全街16號","121.499253333333","25.0697183333333","6500200","三重區"
"241023","545-UM","2017/06/08 21:19:20","新北市三重區中正北路176巷27號","121.482625","25.0659433333333","6500200","三重區"
"241006","AAD-863","2017/06/08 21:19:24","新北市三重區重陽路二段67號","121.487735","25.06383","6500200","三重區"
"241026","887-TS","2017/06/08 21:19:26","新北市三重區大同南路232號","121.496835","25.0561466666667","6500200","三重區"
"241029","942-UM","2017/06/08 21:19:23","新北市三重區大同南路124號","121.49632","25.0584016666667","6500200","三重區"
"241033","AAC-255","2017/06/08 21:19:37","新北市三重區光復路二段102巷1號","121.471813333333","25.0582316666667","6500200","三重區"
"235054","640-BX","2017/06/08 21:19:24","新北市中和區中正路959號","121.483115","25.0074833333333","6500300","中和區"
"235026","800-TS","2017/06/08 21:19:34","新北市中和區員山路36巷16-3號","121.48497","24.9913233333333","6500300","中和區"
"247020","893-R6","2017/06/08 21:19:20","新北市蘆洲區民族路422巷35號","121.473543333333","25.0935983333333","6501400","蘆洲區"
"247010","546-UM","2017/06/08 21:19:21","新北市蘆洲區鷺江街16-2號","121.478818333333","25.08247","6501400","蘆洲區"
"247018","500-BY","2017/06/08 21:19:30","新北市蘆洲區復興路105巷11號","121.476438333333","25.0883616666667","6501400","蘆洲區"
"247002","402-BY","2017/06/08 20:46:50","新北市五股區中興路三段3-6號","121.449575","25.0787416666667","6501400","蘆洲區"
"247006","341-TH","2017/06/08 21:19:26","新北市蘆洲區長安街63號","121.462818333333","25.0798516666667","6501400","蘆洲區"
"247008","339-TH","2017/06/08 21:19:27","新北市蘆洲區民生街24號","121.475028333333","25.07889","6501400","蘆洲區"
"247024","337-TH","2017/06/08 21:19:35","新北市蘆洲區光明路110號","121.46357","25.0881566666667","6501400","蘆洲區"
"247002","336-TH","2017/06/08 21:19:33","新北市蘆洲區永樂街38巷40號","121.458603333333","25.0900233333333","6501400","蘆洲區"
"247014","057-VK","2017/06/08 21:19:20","新北市蘆洲區保和街28號","121.470476666667","25.0866066666667","6501400","蘆洲區"
"247004","056-VK","2017/06/08 21:19:29","新北市蘆洲區永安南路二段320號","121.45697","25.082705","6501400","蘆洲區"
"247012","007-UY","2017/06/08 21:19:29","新北市蘆洲區中興街114號","121.482333333333","25.088815","6501400","蘆洲區"
"247022","002-UY","2017/06/08 21:19:33","新北市蘆洲區三民路241-15號","121.468833333333","25.0887116666667","6501400","蘆洲區"
"247016","001-UY","2017/06/08 21:19:20","新北市蘆洲區中正路185巷44號","121.467335","25.08487","6501400","蘆洲區"
"224011","420-VK","2017/06/08 20:22:41","新北市瑞芳區明燈路二段66號","121.809378333333","25.10759","6501200","瑞芳區"
"251009","008-UM","2017/06/08 21:19:27","新北市淡水區民族路33巷16-3號","121.46345","25.1359883333333","6501000","淡水區"
"251004","009-UM","2017/06/08 21:19:01","新北市石門區內阿里磅20號","121.596833333333","25.2458333333333","6501000","淡水區"
"251001","011-UM","2017/06/08 21:19:18","新北市淡水區濱海路二段200號","121.434691666667","25.1901866666667","6501000","淡水區"
"251008","181-VK","2017/06/08 21:19:24","新北市淡水區水源街二段346巷1弄1號","121.464175","25.17557","6501000","淡水區"
"251014","182-VK","2017/06/08 21:19:25","新北市淡水區六塊厝3-2號","121.450508333333","25.2405966666667","6501000","淡水區"
"251010","413-VK","2017/06/08 21:19:24","新北市淡水區中正路一段156巷51號","121.421831666667","25.180965","6501000","淡水區"
"251012","441-VK","2017/06/08 21:19:19","新北市淡水區石頭埔8號","121.452618333333","25.2345433333333","6501000","淡水區"
"251016","442-VK","2017/06/08 21:19:28","新北市淡水區前洲子20號","121.440925","25.2193616666667","6501000","淡水區"
"251005","443-VK","2017/06/08 21:19:34","新北市淡水區博愛街1號","121.446088333333","25.1703566666667","6501000","淡水區"
"251011","650-BX","2017/06/08 21:19:18","新北市淡水區新民街120巷29號","121.438846666667","25.17881","6501000","淡水區"
"251002","672-BX","2017/06/08 21:16:25","新北市淡水區學府路172巷21號","121.448246666667","25.1750283333333","6501000","淡水區"
"251003","766-UM","2017/06/08 21:19:19","新北市淡水區崁頂15-5號","121.439003333333","25.185865","6501000","淡水區"
"252007","AAC-283","2017/06/08 00:22:10","新北市三芝區埔坪里埔頭坑41號","121.504455","25.26445","6502100","三芝區"
"242013","175-VK","2017/06/08 21:19:30","新北市新莊區中和街175巷13號","121.447131666667","25.05053","6500500","新莊區"
"221021","299-VK","2017/06/08 20:49:33","新北市汐止區青山路15號","121.656183333333","25.0621333333333","6501100","汐止區"
"220070","AAC-253","2017/06/08 21:19:16","新北市八里區下罟子5-11號","121.38706","25.1422133333333","6500100","板橋區"
