"lineid","car","time","location","longitude","latitude","cityid","cityname"
"248005","653-BX","2017/06/09 07:19:19","新北市五股區明德路12巷1號","121.433238333333","25.0715966666667","6501500","五股區"
"232008","290-BY","2017/06/09 07:19:17","新北市坪林區魚堀9-13號","121.704603333333","24.906595","6502000","坪林區"
"232003","291-BY","2017/06/09 07:19:28","新北市坪林區桶盤嶼6號","121.712298333333","24.956385","6502000","坪林區"
"232015","705-BZ","2017/06/09 07:18:35","新北市坪林區黃舉皮寮4號","121.688556666667","24.9400483333333","6502000","坪林區"
"232019","758-BX","2017/06/09 07:19:16","新北市坪林區九芎坑2-2號","121.722731666667","24.9659066666667","6502000","坪林區"
"244004","248-BX","2017/06/09 07:19:38","新北市林口區南勢里71-36號","121.35742","25.078995","6501700","林口區"
"235043","352-BY","2017/06/09 07:19:33","新北市中和區和平街29-1號","121.507451666667","24.99108","6500300","中和區"
"247002","402-BY","2017/06/09 07:19:20","新北市蘆洲區光榮路116號","121.464485","25.0893533333333","6501400","蘆洲區"
"226005","5620-A6","2017/06/09 07:19:35","新北市平溪區靜安路二段123號","121.721513333333","25.023655","6502400","平溪區"
"226001","8452-VL","2017/06/09 07:19:27","新北市平溪區望古里望古坑26號","121.763536666667","25.0339566666667","6502400","平溪區"
"226003","AGD-0702","2017/06/09 07:19:31","新北市平溪區靜安路二段294巷6號","121.735613333333","25.023775","6502400","平溪區"
"223006","022-BY","2017/06/09 07:19:33","新北市石碇區碇坪路二段86號","121.68417","24.9607783333333","6501900","石碇區"
"223002","198-BX","2017/06/09 07:19:31","新北市石碇區碇格路二段15號","121.64206","24.95494","6501900","石碇區"
"223003","205-TH","2017/06/09 07:19:32","新北市石碇區蛇舌子11-2號","121.660071666667","24.970485","6501900","石碇區"
"223008","406-TH","2017/06/09 07:19:22","新北市石碇區靜安路一段315號","121.696123333333","25.0067583333333","6501900","石碇區"
"223001","437-BY","2017/06/09 07:19:17","新北市石碇區烏塗窟1-1號","121.655071666667","24.9761983333333","6501900","石碇區"
"223007","661-BX","2017/06/09 07:19:18","新北市石碇區番子坑9-2號","121.681453333333","25.0004833333333","6501900","石碇區"
"227005","282-VK","2017/06/09 07:19:27","新北市雙溪區新基里自強路5號","121.866325","25.0390616666667","6502500","雙溪區"
"236010","165-UM","2017/06/09 07:19:36","新北市土城區學府路一段101號","121.456073333333","24.987865","6501300","土城區"
"236004","339-SR","2017/06/09 07:19:20","新北市土城區南天母路111巷20號","121.448448333333","24.955645","6501300","土城區"
