"lineid","car","time","location","longitude","latitude","cityid","cityname"
"234072","AAC-211","2017/06/28 13:29:49","新北市永和區永和路二段168號","121.515486666667","25.0129783333333","6500400","永和區"
"247002","402-BY","2017/06/28 13:29:59","新北市蘆洲區民權路8-1號","121.476678333333","25.0858266666667","6501400","蘆洲區"
"237009","210-TH","2017/06/28 13:29:43","新北市三峽區民生街257號","121.370453333333","24.93485","6500900","三峽區"
"237001","159-BY","2017/06/28 13:30:00","新北市三峽區白雞149-2號","121.40007","24.905355","6500900","三峽區"
"221010","276-VK","2017/06/28 13:13:08","新北市汐止區汐萬路一段256巷3號","121.65342","25.0745716666667","6501100","汐止區"
