"lineid","car","time","location","longitude","latitude","cityid","cityname"
"234072","AAC-211","2017/06/28 13:39:49","新北市永和區永和路二段168號","121.515518333333","25.0130233333333","6500400","永和區"
"243012","267-VK","2017/06/28 13:39:47","新北市泰山區明志路三段37號","121.424896666667","25.042675","6501600","泰山區"
"247002","402-BY","2017/06/28 13:39:59","新北市蘆洲區復興路88號","121.475353333333","25.0868083333333","6501400","蘆洲區"
"237009","210-TH","2017/06/28 13:40:03","新北市三峽區文化路136號","121.370733333333","24.9362216666667","6500900","三峽區"
"237001","159-BY","2017/06/28 13:39:40","新北市三峽區白雞149-2號","121.399783333333","24.9052","6500900","三峽區"
"221010","276-VK","2017/06/28 13:13:08","新北市汐止區汐萬路一段256巷3號","121.65342","25.0745716666667","6501100","汐止區"
