"lineid","car","time","location","longitude","latitude","cityid","cityname"
"234072","AAC-211","2017/06/28 13:49:49","新北市永和區永和路二段170號","121.515383333333","25.0130683333333","6500400","永和區"
"243012","267-VK","2017/06/28 13:48:27","新北市泰山區明志路三段123巷1弄7號","121.425163333333","25.0410133333333","6501600","泰山區"
"247002","402-BY","2017/06/28 13:47:37","新北市蘆洲區民權路5號","121.476445","25.085775","6501400","蘆洲區"
"237009","210-TH","2017/06/28 13:49:43","新北市三峽區和平街37號","121.370323333333","24.9355783333333","6500900","三峽區"
"237001","159-BY","2017/06/28 13:50:00","新北市三峽區白雞39-1號","121.380698333333","24.9113766666667","6500900","三峽區"
"221010","276-VK","2017/06/28 13:13:08","新北市汐止區汐萬路一段256巷3號","121.65342","25.0745716666667","6501100","汐止區"
