"lineid","car","time","location","longitude","latitude","cityid","cityname"
"234072","AAC-211","2017/06/28 13:58:49","新北市永和區勵行街119號","121.517455","25.01189","6500400","永和區"
"243012","267-VK","2017/06/28 13:48:27","新北市泰山區明志路三段123巷1弄7號","121.425163333333","25.0410133333333","6501600","泰山區"
"247002","402-BY","2017/06/28 13:47:37","新北市蘆洲區民權路5號","121.476445","25.085775","6501400","蘆洲區"
"237009","210-TH","2017/06/28 13:59:43","新北市三峽區和平街33號","121.370325","24.9354733333333","6500900","三峽區"
"237001","159-BY","2017/06/28 14:00:00","新北市三峽區光明路69巷27號","121.376815","24.9292466666667","6500900","三峽區"
"221010","276-VK","2017/06/28 13:13:08","新北市汐止區汐萬路一段256巷3號","121.65342","25.0745716666667","6501100","汐止區"
