"lineid","car","time","location","longitude","latitude","cityid","cityname"
"234072","AAC-211","2017/06/28 14:39:49","新北市永和區福和路1號","121.526231666667","25.00964","6500400","永和區"
"243012","267-VK","2017/06/28 14:12:28","新北市泰山區明志路三段123巷1弄7號","121.425168333333","25.041035","6501600","泰山區"
"247002","402-BY","2017/06/28 14:39:57","新北市蘆洲區中正路172號","121.468413333333","25.08682","6501400","蘆洲區"
"237009","210-TH","2017/06/28 14:39:43","新北市鶯歌區文化路117巷60號","121.35897","24.9550683333333","6500900","三峽區"
"237001","159-BY","2017/06/28 14:40:00","新北市三峽區中山路459巷90-1號","121.355161666667","24.936295","6500900","三峽區"
"221010","276-VK","2017/06/28 13:13:08","新北市汐止區汐萬路一段256巷3號","121.65342","25.0745716666667","6501100","汐止區"
