"lineid","car","time","location","longitude","latitude","cityid","cityname"
"234072","AAC-211","2017/06/28 14:49:27","新北市永和區福和路1號","121.526238333333","25.0098133333333","6500400","永和區"
"243012","267-VK","2017/06/28 14:49:46","新北市泰山區明志路二段62號","121.429038333333","25.0526166666667","6501600","泰山區"
"247002","402-BY","2017/06/28 14:49:57","新北市蘆洲區三民路118號","121.471378333333","25.087195","6501400","蘆洲區"
"237009","210-TH","2017/06/28 14:49:43","新北市樹林區中山路三段214號","121.380446666667","24.967925","6500900","三峽區"
"237001","159-BY","2017/06/28 14:46:53","新北市三峽區中山路459巷163-3號","121.348843333333","24.9330833333333","6500900","三峽區"
"221010","276-VK","2017/06/28 13:13:08","新北市汐止區汐萬路一段256巷3號","121.65342","25.0745716666667","6501100","汐止區"
