"lineid","car","time","location","longitude","latitude","cityid","cityname"
"234072","AAC-211","2017/06/28 14:49:27","新北市永和區福和路1號","121.526238333333","25.0098133333333","6500400","永和區"
"224011","AGQ-8101","2017/06/28 19:18:33","新北市瑞芳區山尖路209號","121.849295","25.1113966666667","6501200","瑞芳區"
"224011","420-VK","2017/06/28 19:19:56","新北市瑞芳區崙頂路3-1號","121.847031666667","25.1046983333333","6501200","瑞芳區"
"251013","180-VK","2017/06/28 19:19:48","新北市淡水區安子內12號","121.481536666667","25.219095","6501000","淡水區"
"251015","182-VK","2017/06/28 19:19:57","新北市淡水區山子邊16巷5號","121.485906666667","25.1826","6501000","淡水區"
"237009","210-TH","2017/06/28 15:18:26","新北市三峽區中山路459巷137號","121.349858333333","24.933835","6500900","三峽區"
"237001","159-BY","2017/06/28 14:46:53","新北市三峽區中山路459巷163-3號","121.348843333333","24.9330833333333","6500900","三峽區"
"221010","276-VK","2017/06/28 13:13:08","新北市汐止區汐萬路一段256巷3號","121.65342","25.0745716666667","6501100","汐止區"
