"lineid","car","time","location","longitude","latitude","cityid","cityname"
"234074","AAC-211","2017/06/28 19:59:38","新北市永和區福和路1號","121.526255","25.009745","6500400","永和區"
"224011","420-VK","2017/06/28 19:59:36","新北市瑞芳區崙頂路3-1號","121.846986666667","25.10471","6501200","瑞芳區"
"251013","180-VK","2017/06/28 19:59:48","新北市淡水區淡金路三段254號","121.449478333333","25.206365","6501000","淡水區"
"251015","182-VK","2017/06/28 19:59:57","新北市淡水區商工路177號","121.448481666667","25.1883383333333","6501000","淡水區"
"237009","210-TH","2017/06/28 15:18:26","新北市三峽區中山路459巷137號","121.349858333333","24.933835","6500900","三峽區"
"237001","159-BY","2017/06/28 14:46:53","新北市三峽區中山路459巷163-3號","121.348843333333","24.9330833333333","6500900","三峽區"
"221010","276-VK","2017/06/28 13:13:08","新北市汐止區汐萬路一段256巷3號","121.65342","25.0745716666667","6501100","汐止區"
