"lineid","car","time","location","longitude","latitude","cityid","cityname"
"234074","AAC-211","2017/06/28 20:09:58","新北市永和區民權路3號","121.520246666667","24.998335","6500400","永和區"
"224011","420-VK","2017/06/28 20:09:56","新北市瑞芳區濱二路31號","121.832618333333","25.111585","6501200","瑞芳區"
"251013","180-VK","2017/06/28 20:09:48","新北市淡水區奎柔山路500號","121.465948333333","25.2050833333333","6501000","淡水區"
"251015","182-VK","2017/06/28 20:09:57","新北市淡水區埤島80-2號","121.449355","25.1893283333333","6501000","淡水區"
"237009","210-TH","2017/06/28 15:18:26","新北市三峽區中山路459巷137號","121.349858333333","24.933835","6500900","三峽區"
"237001","159-BY","2017/06/28 14:46:53","新北市三峽區中山路459巷163-3號","121.348843333333","24.9330833333333","6500900","三峽區"
"221010","276-VK","2017/06/28 13:13:08","新北市汐止區汐萬路一段256巷3號","121.65342","25.0745716666667","6501100","汐止區"
