"lineid","car","time","location","longitude","latitude","cityid","cityname"
"224011","420-VK","2017/06/28 20:18:17","新北市瑞芳區明燈路二段66號","121.80946","25.1075433333333","6501200","瑞芳區"
"251013","180-VK","2017/06/28 21:09:48","新北市淡水區行忠路328號","121.460495","25.1996866666667","6501000","淡水區"
"251015","182-VK","2017/06/28 21:09:57","新北市淡水區淡金路四段542巷52-2號","121.45564","25.2259383333333","6501000","淡水區"
"237009","210-TH","2017/06/28 15:18:26","新北市三峽區中山路459巷137號","121.349858333333","24.933835","6500900","三峽區"
"237001","159-BY","2017/06/28 14:46:53","新北市三峽區中山路459巷163-3號","121.348843333333","24.9330833333333","6500900","三峽區"
"221010","276-VK","2017/06/28 13:13:08","新北市汐止區汐萬路一段256巷3號","121.65342","25.0745716666667","6501100","汐止區"
