"lineid","car","time","location","longitude","latitude","cityid","cityname"
"241031","653-BX","2017/08/17 07:56:53","新北市五股區明德路8號","121.433368333333","25.0716466666667","6500200","三重區"
"232007","290-BY","2017/08/17 07:59:10","新北市坪林區九芎林28-1號","121.703336666667","24.9233566666667","6502000","坪林區"
"232001","291-BY","2017/08/17 07:59:18","新北市坪林區粗石斛4號","121.747181666667","24.9537133333333","6502000","坪林區"
"232014","705-BZ","2017/08/17 07:59:21","新北市坪林區金瓜寮24-2號","121.680293333333","24.9081083333333","6502000","坪林區"
"232017","758-BX","2017/08/17 07:50:43","新北市坪林區坪雙路一段43號","121.711525","24.9426183333333","6502000","坪林區"
"244006","080-UY","2017/08/17 07:59:27","新北市林口區粉寮路37-1號","121.401185","25.0849616666667","6501700","林口區"
"244003","248-BX","2017/08/17 07:58:31","新北市林口區寶斗厝坑67號","121.336833333333","25.1098383333333","6501700","林口區"
"244016","656-BX","2017/08/17 07:59:26","新北市林口區粉寮69號","121.405023333333","25.090895","6501700","林口區"
"244022","657-BX","2017/08/17 07:59:11","新北市林口區粉寮69號","121.405031666667","25.0908016666667","6501700","林口區"
"244012","658-BX","2017/08/17 07:59:12","新北市林口區粉寮69號","121.405073333333","25.090805","6501700","林口區"
"244010","701-TV","2017/08/17 07:59:09","新北市林口區粉寮路一段88號","121.39836","25.0805733333333","6501700","林口區"
"222006","289-BY","2017/08/17 07:42:27","新北市深坑區萬福路36-1號","121.605493333333","25.012415","6501800","深坑區"
"231069","189-VK","2017/08/17 07:59:27","新北市新店區安康路一段323-1號","121.52156","24.963755","6500600","新店區"
"231008","192-VK","2017/08/17 07:59:23","新北市新店區安康路一段355-3號","121.519666666667","24.961555","6500600","新店區"
"235001","255-BX","2017/08/17 07:59:21","新北市中和區廟美街5號","121.500833333333","25.00154","6500300","中和區"
"226005","5620-A6","2017/08/17 07:59:23","新北市平溪區嶺腳里嶺腳寮74-1號","121.747606666667","25.0325","6502400","平溪區"
"226002","8452-VL","2017/08/17 07:59:07","新北市平溪區靜安路三段355號","121.77987","25.044975","6502400","平溪區"
"226003","AGD-0702","2017/08/17 07:59:08","新北市平溪區嶺腳里嶺腳寮74號","121.747611666667","25.0322966666667","6502400","平溪區"
"223006","022-BY","2017/08/17 07:59:18","新北市石碇區八分寮47-1號","121.643096666667","25.01373","6501900","石碇區"
"223002","198-BX","2017/08/17 07:59:16","新北市石碇區北宜路五段濕水子巷2號","121.633988333333","24.95109","6501900","石碇區"
"223003","205-TH","2017/08/17 07:58:03","新北市石碇區樟空子1號","121.666653333333","24.959715","6501900","石碇區"
"223008","406-TH","2017/08/17 07:59:26","新北市石碇區靜安路一段337號","121.69883","25.0145633333333","6501900","石碇區"
"223001","437-BY","2017/08/17 07:58:12","新北市石碇區樟空子1號","121.666596666667","24.9594","6501900","石碇區"
"223004","660-BX","2017/08/17 07:59:21","新北市石碇區楓子林1-2號","121.642406666667","25.0089716666667","6501900","石碇區"
"223007","661-BX","2017/08/17 07:59:22","新北市石碇區靜安路一段337號","121.698936666667","25.0145133333333","6501900","石碇區"
"224010","AGQ-8101","2017/08/17 03:31:47","新北市瑞芳區逢甲路20-2號","121.809385","25.108705","6501200","瑞芳區"
"227007","282-VK","2017/08/17 07:59:17","新北市雙溪區牡丹里中正路60號","121.86614","25.04241","6502500","雙溪區"
"252004","249-BX","2017/08/17 07:59:09","新北市三芝區店子里菜公坑81號","121.51294","25.201965","6502100","三芝區"
"252007","AAC-283","2017/08/17 07:59:20","新北市三芝區後厝里北勢子45-33號","121.470411666667","25.2510133333333","6502100","三芝區"
"237001","159-UY","2017/08/17 07:59:15","新北市三峽區大學路45號","121.376935","24.94067","6500900","三峽區"
"236009","165-UM","2017/08/17 07:59:13","新北市土城區永豐路145號","121.466528333333","24.9835716666667","6501300","土城區"
"236003","339-SR","2017/08/17 07:59:15","新北市土城區龍泉路61號","121.422656666667","24.94313","6501300","土城區"
"242020","AAC-296","2017/08/17 07:59:09","新北市新莊區中正路136號","121.452536666667","25.0362366666667","6500500","新莊區"
"242028","986-R7","2017/08/17 07:59:20","新北市新莊區復興路二段192號","121.459231666667","25.0444333333333","6500500","新莊區"
"242047","751-BX","2017/08/17 07:59:10","新北市新莊區四維路210號","121.421511666667","25.0200716666667","6500500","新莊區"
"242057","705-TV","2017/08/17 07:59:15","新北市新莊區福營路96號","121.436743333333","25.0330416666667","6500500","新莊區"
"242024","615-BX","2017/08/17 07:59:29","新北市新莊區中港路266號","121.453323333333","25.0438333333333","6500500","新莊區"
"242022","613-BX","2017/08/17 07:59:17","新北市新莊區公園路148號","121.453111666667","25.040075","6500500","新莊區"
"242026","612-BX","2017/08/17 07:59:20","新北市新莊區思源路96號","121.459991666667","25.0458316666667","6500500","新莊區"
"242035","566-BX","2017/08/17 07:59:19","新北市新莊區建國二路1號","121.434888333333","25.0236466666667","6500500","新莊區"
"242003","442-UM","2017/08/17 07:59:26","新北市新莊區中港路280號","121.453066666667","25.044135","6500500","新莊區"
"242045","441-UM","2017/08/17 07:59:26","新北市新莊區新樹路65-6號","121.439388333333","25.0307866666667","6500500","新莊區"
"242049","440-UM","2017/08/17 07:59:17","新北市新莊區瓊林南路75號","121.43484","25.014575","6500500","新莊區"
"242030","415-TV","2017/08/17 07:59:10","新北市新莊區新泰路383號","121.443818333333","25.04378","6500500","新莊區"
"242001","413-TV","2017/08/17 07:59:14","新北市新莊區新莊路247號","121.45456","25.0350066666667","6500500","新莊區"
"242038","400-BY","2017/08/17 07:59:27","新北市新莊區新樹路138號","121.43563","25.0234616666667","6500500","新莊區"
"242059","362-BY","2017/08/17 07:59:25","新北市新莊區瓊林南路21-1號","121.437966666667","25.0203483333333","6500500","新莊區"
"242040","132-UY","2017/08/17 07:59:11","新北市新莊區新樹路115號","121.437413333333","25.02663","6500500","新莊區"
"242033","133-UY","2017/08/17 07:59:17","新北市新莊區新莊路479號","121.44901","25.033385","6500500","新莊區"
"242018","135-UY","2017/08/17 07:59:25","新北市新莊區中港路85號","121.45539","25.03909","6500500","新莊區"
"242043","172-VK","2017/08/17 07:59:20","新北市新莊區富國路80號","121.420168333333","25.0259183333333","6500500","新莊區"
"242006","173-VK","2017/08/17 07:59:23","新北市新莊區自信街37號","121.454263333333","25.048305","6500500","新莊區"
"242055","176-VK","2017/08/17 07:59:17","新北市新莊區新莊路362號","121.449646666667","25.0335116666667","6500500","新莊區"
"242010","346-TH","2017/08/17 07:59:25","新北市新莊區中港路469號","121.452338333333","25.0490516666667","6500500","新莊區"
"242012","347-TH","2017/08/17 07:59:10","新北市新莊區中誠街18號","121.451953333333","25.0481366666667","6500500","新莊區"
"242016","348-TH","2017/08/17 07:59:11","新北市新莊區中華路一段103號","121.452713333333","25.0438633333333","6500500","新莊區"
"242052","349-TH","2017/08/17 07:59:10","新北市新莊區環河路508號","121.438558333333","25.016225","6500500","新莊區"
"242014","350-TH","2017/08/17 07:59:26","新北市新莊區新泰路148號","121.447865","25.0372183333333","6500500","新莊區"
"242008","351-TH","2017/08/17 07:59:18","新北市新莊區中原路55號","121.45803","25.05416","6500500","新莊區"
"220073","282-UM","2017/08/17 07:59:21","新北市板橋區南雅南路一段51號","121.455916666667","25.0061","6500100","板橋區"
