"lineid","car","time","location","longitude","latitude","cityid","cityname"
"241031","653-BX","2017/08/17 08:09:24","新北市五股區明德路14號","121.433263333333","25.0715583333333","6500200","三重區"
"232007","290-BY","2017/08/17 08:09:10","新北市坪林區九芎林32號","121.702623333333","24.9214816666667","6502000","坪林區"
"232001","291-BY","2017/08/17 08:09:16","新北市坪林區虎寮潭1號","121.740885","24.950455","6502000","坪林區"
"232014","705-BZ","2017/08/17 08:09:21","新北市坪林區仁里9號","121.69185","24.9326416666667","6502000","坪林區"
"232017","758-BX","2017/08/17 07:50:43","新北市坪林區坪雙路一段43號","121.711525","24.9426183333333","6502000","坪林區"
"244006","080-UY","2017/08/17 08:09:06","新北市林口區湖子17-2號","121.384258333333","25.0907633333333","6501700","林口區"
"244003","248-BX","2017/08/17 08:09:11","新北市林口區頂福里8鄰68號","121.332941666667","25.1020383333333","6501700","林口區"
"244008","410-SL","2017/08/17 08:09:15","新北市林口區中北一街79號","121.385721666667","25.0886983333333","6501700","林口區"
"253003","140-BX","2017/08/17 08:06:38","新北市石門區石崩山1號","121.563738333333","25.2857633333333","6502200","石門區"
"244016","656-BX","2017/08/17 08:09:26","新北市林口區中山路270號","121.382921666667","25.0808783333333","6501700","林口區"
"244022","657-BX","2017/08/17 08:09:11","新北市林口區仁愛路一段310號","121.391986666667","25.0763483333333","6501700","林口區"
"244012","658-BX","2017/08/17 08:09:12","新北市林口區中山路256-1號","121.385405","25.0795633333333","6501700","林口區"
"244010","701-TV","2017/08/17 08:09:09","新北市林口區佳林路217號","121.383756666667","25.076635","6501700","林口區"
"244020","838-TS","2017/08/17 08:09:15","新北市林口區粉寮路二段262號","121.404838333333","25.0945516666667","6501700","林口區"
"222006","289-BY","2017/08/17 08:09:12","新北市深坑區萬福路147號","121.61103","25.01636","6501800","深坑區"
"231069","189-VK","2017/08/17 08:09:17","新北市新店區新潭路一段22巷10號","121.52256","24.9430283333333","6500600","新店區"
"231008","192-VK","2017/08/17 08:09:23","新北市新店區北新路一段86號","121.541625","24.967805","6500600","新店區"
"235001","255-BX","2017/08/17 08:09:21","新北市中和區永和路39巷8號","121.497691666667","25.0050133333333","6500300","中和區"
"226005","5620-A6","2017/08/17 08:09:23","新北市平溪區南山里南山坪15號","121.767545","25.0332983333333","6502400","平溪區"
"226002","8452-VL","2017/08/17 08:09:07","新北市平溪區十分里十分街15-1號","121.775","25.0406116666667","6502400","平溪區"
"226003","AGD-0702","2017/08/17 08:08:48","新北市平溪區嶺腳里嶺腳寮83-2號","121.750076666667","25.0351283333333","6502400","平溪區"
"223006","022-BY","2017/08/17 08:09:18","新北市石碇區楓子林30號","121.642328333333","25.0095633333333","6501900","石碇區"
"223002","198-BX","2017/08/17 08:04:22","新北市石碇區北宜路五段80號","121.646508333333","24.9517416666667","6501900","石碇區"
"223003","205-TH","2017/08/17 08:09:23","新北市石碇區北宜路五段80號","121.646398333333","24.951755","6501900","石碇區"
"223008","406-TH","2017/08/17 08:09:26","新北市石碇區蚯蚓坑1號","121.692978333333","25.0066933333333","6501900","石碇區"
"223001","437-BY","2017/08/17 08:09:12","新北市石碇區北宜路五段80號","121.646345","24.9516616666667","6501900","石碇區"
"223004","660-BX","2017/08/17 08:09:21","新北市石碇區碇坪路一段18號","121.65179","25.00386","6501900","石碇區"
"223007","661-BX","2017/08/17 08:09:22","新北市石碇區蚯蚓坑1號","121.692916666667","25.0066566666667","6501900","石碇區"
"223005","677-TV","2017/08/17 08:09:07","新北市石碇區碇坪路一段18號","121.651866666667","25.00576","6501900","石碇區"
"224010","AGQ-8101","2017/08/17 08:09:15","新北市瑞芳區九芎橋路14號","121.83215","25.0912516666667","6501200","瑞芳區"
"253001","6251-TK","2017/08/17 08:09:16","新北市石門區大溪墘2-4號","121.54841","25.28944","6502200","石門區"
"253002","637-UY","2017/08/17 08:09:11","新北市石門區老崩山35號","121.55618","25.2773466666667","6502200","石門區"
"253004","8270-PC","2017/08/17 08:09:10","新北市石門區阿里磅1號","121.589661666667","25.2910483333333","6502200","石門區"
"252004","249-BX","2017/08/17 08:09:09","新北市三芝區興華里車埕36-1號","121.504353333333","25.19374","6502100","三芝區"
"252007","AAC-283","2017/08/17 08:09:20","新北市三芝區後厝里大片頭88號","121.457841666667","25.2454983333333","6502100","三芝區"
"237001","159-UY","2017/08/17 08:09:15","新北市三峽區學成路283號","121.37614","24.94323","6500900","三峽區"
"236009","165-UM","2017/08/17 08:09:13","新北市土城區青雲路318號","121.458845","24.9771083333333","6501300","土城區"
"236003","339-SR","2017/08/17 08:09:16","新北市土城區龍泉路8號","121.409428333333","24.9496633333333","6501300","土城區"
"242020","AAC-296","2017/08/17 08:09:17","新北市新莊區中華路一段162號","121.452705","25.0415833333333","6500500","新莊區"
"242028","986-R7","2017/08/17 08:09:21","新北市新莊區復興路二段11號","121.453648333333","25.04391","6500500","新莊區"
"242047","751-BX","2017/08/17 08:09:10","新北市新莊區萬安街145號","121.420438333333","25.02174","6500500","新莊區"
"242057","705-TV","2017/08/17 08:09:15","新北市新莊區中正路692-8號","121.419891666667","25.0281983333333","6500500","新莊區"
"242024","615-BX","2017/08/17 08:09:26","新北市新莊區思源路118號","121.460055","25.0469883333333","6500500","新莊區"
"242022","613-BX","2017/08/17 08:09:17","新北市新莊區民樂街67號","121.457911666667","25.04191","6500500","新莊區"
"242026","612-BX","2017/08/17 08:09:20","新北市新莊區福壽街140號","121.457815","25.0517983333333","6500500","新莊區"
"242035","566-BX","2017/08/17 08:09:19","新北市新莊區建福路59巷42號","121.428593333333","25.02778","6500500","新莊區"
"242003","442-UM","2017/08/17 08:09:26","新北市新莊區自立街216號","121.457193333333","25.04534","6500500","新莊區"
"242045","441-UM","2017/08/17 08:09:26","新北市新莊區中正路573號","121.43472","25.0323333333333","6500500","新莊區"
"242049","440-UM","2017/08/17 08:09:17","新北市新莊區西盛街237號","121.428118333333","25.016255","6500500","新莊區"
"242030","415-TV","2017/08/17 08:09:10","新北市新莊區新泰路321巷23號","121.44368","25.041125","6500500","新莊區"
"242001","413-TV","2017/08/17 08:09:21","新北市新莊區新泰路47號","121.449536666667","25.0336833333333","6500500","新莊區"
"242038","400-BY","2017/08/17 08:09:27","新北市新莊區民全街6號","121.429028333333","25.02141","6500500","新莊區"
"242059","362-BY","2017/08/17 08:09:25","新北市新莊區瓊林南路187巷32-4號","121.434803333333","25.00899","6500500","新莊區"
"242040","132-UY","2017/08/17 08:09:11","新北市新莊區中正路514巷105弄3號","121.427871666667","25.0352816666667","6500500","新莊區"
"242033","133-UY","2017/08/17 08:09:17","新北市新莊區新莊路637號","121.445341666667","25.0328433333333","6500500","新莊區"
"242018","135-UY","2017/08/17 08:09:21","新北市新莊區中港路225號","121.454556666667","25.0425633333333","6500500","新莊區"
"242043","172-VK","2017/08/17 08:09:20","新北市新莊區富國路65巷5號","121.41978","25.0264516666667","6500500","新莊區"
"242006","173-VK","2017/08/17 08:09:23","新北市新莊區福樂街108巷38號","121.457928333333","25.04874","6500500","新莊區"
"242055","176-VK","2017/08/17 08:09:26","新北市新莊區新莊路543巷9弄23號","121.448613333333","25.0319416666667","6500500","新莊區"
"242010","346-TH","2017/08/17 08:09:25","新北市新莊區中原路197號","121.451593333333","25.05399","6500500","新莊區"
"242012","347-TH","2017/08/17 08:09:10","新北市新莊區中誠街116號","121.449486666667","25.0476716666667","6500500","新莊區"
"242016","348-TH","2017/08/17 08:09:20","新北市新莊區復興路一段149巷21弄11號","121.449706666667","25.0439933333333","6500500","新莊區"
"242052","349-TH","2017/08/17 08:09:23","新北市新莊區新樹路727號","121.431843333333","25.0018483333333","6500500","新莊區"
"242014","350-TH","2017/08/17 08:09:27","新北市新莊區新泰路406巷2弄1號","121.444391666667","25.0439166666667","6500500","新莊區"
"242008","351-TH","2017/08/17 08:09:18","新北市新莊區昌明街30巷18號","121.456773333333","25.0530566666667","6500500","新莊區"
"220073","282-UM","2017/08/17 08:09:21","新北市板橋區南雅西路一段5巷5號","121.454688333333","25.0040483333333","6500100","板橋區"
