"lineid","car","time","location","longitude","latitude","cityid","cityname"
"241031","653-BX","2017/08/17 08:29:27","新北市五股區明德路8號","121.43332","25.071575","6500200","三重區"
"232007","290-BY","2017/08/17 08:29:10","新北市坪林區九芎林32號","121.70262","24.9214733333333","6502000","坪林區"
"232001","291-BY","2017/08/17 08:29:16","新北市坪林區下坑子口6-15號","121.711541666667","24.943435","6502000","坪林區"
"232014","705-BZ","2017/08/17 08:29:18","新北市坪林區北宜路八段6號","121.7012","24.935815","6502000","坪林區"
"244006","080-UY","2017/08/17 08:29:06","新北市林口區湖子11號","121.38711","25.0894933333333","6501700","林口區"
"244003","248-BX","2017/08/17 08:29:11","新北市林口區下福147-18號","121.299891666667","25.1166166666667","6501700","林口區"
"244018","403-UM","2017/08/17 08:29:07","新北市林口區公園路223巷3號","121.373806666667","25.0747616666667","6501700","林口區"
"244008","410-SL","2017/08/17 08:29:15","新北市林口區中山路270號","121.383145","25.0810566666667","6501700","林口區"
"253003","140-BX","2017/08/17 08:29:18","新北市石門區內石門85號","121.56904","25.2650666666667","6502200","石門區"
"244016","656-BX","2017/08/17 08:29:26","新北市林口區文化二路一段226-1號","121.36956","25.0724933333333","6501700","林口區"
"244022","657-BX","2017/08/17 08:29:12","新北市林口區東明一街35巷2號","121.392318333333","25.0720333333333","6501700","林口區"
"244012","658-BX","2017/08/17 08:29:12","新北市林口區中山路255號","121.38534","25.0793816666667","6501700","林口區"
"244010","701-TV","2017/08/17 08:29:09","新北市林口區中正路79號","121.394953333333","25.0773583333333","6501700","林口區"
"244024","837-TS","2017/08/17 08:29:14","新北市林口區民族路16巷2-1號","121.364236666667","25.0739466666667","6501700","林口區"
"244020","838-TS","2017/08/17 08:29:15","新北市林口區自強一街48號","121.399331666667","25.0774533333333","6501700","林口區"
"222006","289-BY","2017/08/17 08:29:12","新北市深坑區風格街31巷36號","121.627525","25.0180133333333","6501800","深坑區"
"231069","189-VK","2017/08/17 08:29:27","新北市新店區新潭路二段140巷1號","121.512205","24.9207183333333","6500600","新店區"
"231008","192-VK","2017/08/17 08:29:23","新北市新店區新烏路140號","121.546011666667","24.9323566666667","6500600","新店區"
"235001","255-BX","2017/08/17 08:29:21","新北市中和區連城路176號","121.493023333333","24.9969983333333","6500300","中和區"
"226005","5620-A6","2017/08/17 08:29:23","新北市平溪區南山里乾坑10號","121.788445","25.0472083333333","6502400","平溪區"
"226002","8452-VL","2017/08/17 08:28:47","新北市平溪區東勢里芊蓁坑3號","121.744538333333","25.00255","6502400","平溪區"
"226003","AGD-0702","2017/08/17 08:29:08","新北市平溪區十分里十分街45號","121.774461666667","25.0407733333333","6502400","平溪區"
"223006","022-BY","2017/08/17 08:29:18","新北市深坑區昇高坑路51-1號","121.630601666667","24.9938983333333","6501900","石碇區"
"223002","198-BX","2017/08/17 08:29:13","新北市石碇區半路店3號","121.646791666667","24.9642116666667","6501900","石碇區"
"223003","205-TH","2017/08/17 08:29:23","新北市石碇區北宜路六段直潭巷6號","121.658776666667","24.9350583333333","6501900","石碇區"
"223008","406-TH","2017/08/17 08:29:26","新北市石碇區石碇子埔97-4號","121.668175","25.004585","6501900","石碇區"
"223001","437-BY","2017/08/17 08:29:12","新北市石碇區北宜路六段直潭巷6號","121.658738333333","24.934945","6501900","石碇區"
"223004","660-BX","2017/08/17 08:29:21","新北市石碇區湳窟22-1號","121.661251666667","24.9908016666667","6501900","石碇區"
"223007","661-BX","2017/08/17 08:29:22","新北市石碇區石碇子埔98-1號","121.66738","25.0063966666667","6501900","石碇區"
"223005","677-TV","2017/08/17 08:29:07","新北市石碇區碇坪路一段79號","121.660475","24.9911866666667","6501900","石碇區"
"253001","6251-TK","2017/08/17 08:29:15","新北市石門區下員坑30-7號","121.519496666667","25.2820116666667","6502200","石門區"
"253002","637-UY","2017/08/17 08:29:11","新北市石門區九芎林6-3號","121.560951666667","25.26706","6502200","石門區"
"253004","8270-PC","2017/08/17 08:29:10","新北市石門區阿里荖67號","121.60948","25.2724033333333","6502200","石門區"
"252004","249-BX","2017/08/17 08:29:09","新北市三芝區興華里車埕16號","121.502145","25.198225","6502100","三芝區"
"252007","AAC-283","2017/08/17 08:29:20","新北市三芝區蘭陽街13-1號","121.473525","25.24248","6502100","三芝區"
"237001","159-UY","2017/08/17 08:29:15","新北市三峽區大德路85號","121.377076666667","24.9432783333333","6500900","三峽區"
"236009","165-UM","2017/08/17 08:29:13","新北市土城區石門路85-2號","121.465741666667","24.9586166666667","6501300","土城區"
"236003","339-SR","2017/08/17 08:29:15","新北市土城區大暖路39-7號","121.423348333333","24.9605283333333","6501300","土城區"
"236005","498-BY","2017/08/17 08:29:12","新北市土城區中央路四段47號","121.42245","24.9615216666667","6501300","土城區"
"242020","AAC-296","2017/08/17 08:29:09","新北市新莊區建興街52-1號","121.450065","25.03805","6500500","新莊區"
"242028","986-R7","2017/08/17 08:29:20","新北市新莊區中平路110巷13號","121.445735","25.0461116666667","6500500","新莊區"
"242047","751-BX","2017/08/17 08:29:16","新北市新莊區萬安街47巷28號","121.422746666667","25.0241283333333","6500500","新莊區"
"242057","705-TV","2017/08/17 08:29:19","新北市新莊區雙鳳路134巷34號","121.41239","25.02895","6500500","新莊區"
"242024","615-BX","2017/08/17 08:29:09","新北市新莊區五權一路70號","121.458611666667","25.066635","6500500","新莊區"
"242022","613-BX","2017/08/17 08:29:26","新北市新莊區化成路350號","121.465935","25.04911","6500500","新莊區"
"242026","612-BX","2017/08/17 08:29:23","新北市新莊區幸福路56號","121.457315","25.0494766666667","6500500","新莊區"
"242035","566-BX","2017/08/17 08:29:19","新北市新莊區建福路60號","121.426718333333","25.0272583333333","6500500","新莊區"
"242003","442-UM","2017/08/17 08:29:27","新北市新莊區自由街12號","121.45588","25.0475916666667","6500500","新莊區"
"242045","441-UM","2017/08/17 08:29:22","新北市新莊區福營路165巷8號","121.43248","25.030585","6500500","新莊區"
"242049","440-UM","2017/08/17 08:29:17","新北市新莊區民本街25巷23號","121.429395","25.0194733333333","6500500","新莊區"
"242030","415-TV","2017/08/17 08:29:10","新北市新莊區新泰路277巷55號","121.443506666667","25.0401066666667","6500500","新莊區"
"242001","413-TV","2017/08/17 08:29:12","新北市新莊區新莊路167號","121.456206666667","25.0359983333333","6500500","新莊區"
"242038","400-BY","2017/08/17 08:29:07","新北市新莊區民安西路22號","121.426745","25.0213633333333","6500500","新莊區"
"242059","362-BY","2017/08/17 08:29:25","新北市新莊區新樹路168號","121.43491","25.0223383333333","6500500","新莊區"
"242040","132-UY","2017/08/17 08:29:11","新北市新莊區天祥街122號","121.414561666667","25.02978","6500500","新莊區"
"242033","133-UY","2017/08/17 08:29:23","新北市新莊區新豐街63號","121.446483333333","25.0336816666667","6500500","新莊區"
"242018","135-UY","2017/08/17 08:29:21","新北市新莊區民樂街6號","121.457566666667","25.039715","6500500","新莊區"
"242043","172-VK","2017/08/17 08:29:20","新北市新莊區雙鳳路132號","121.413201666667","25.02806","6500500","新莊區"
"242006","173-VK","2017/08/17 08:29:23","新北市新莊區自治街2號","121.453293333333","25.0478083333333","6500500","新莊區"
"242055","176-VK","2017/08/17 08:29:17","新北市新莊區豐年街122-3號","121.44642","25.029845","6500500","新莊區"
"242010","346-TH","2017/08/17 08:29:25","新北市新莊區中榮街56巷8弄1號","121.449276666667","25.053425","6500500","新莊區"
"242012","347-TH","2017/08/17 08:29:10","新北市新莊區中和街125巷1號","121.447168333333","25.0485733333333","6500500","新莊區"
"242016","348-TH","2017/08/17 08:29:17","新北市新莊區中和街60巷7號","121.448331666667","25.0448066666667","6500500","新莊區"
"242052","349-TH","2017/08/17 08:29:10","新北市新莊區新樹路412號","121.432036666667","25.0023966666667","6500500","新莊區"
"242014","350-TH","2017/08/17 08:29:23","新北市新莊區中平路132巷32號","121.446041666667","25.046675","6500500","新莊區"
"242008","351-TH","2017/08/17 08:29:18","新北市新莊區昌平街59巷34號","121.453778333333","25.0532183333333","6500500","新莊區"
"220073","282-UM","2017/08/17 08:29:01","新北市五股區中直路21號","121.421723333333","25.1117783333333","6500100","板橋區"
