"lineid","car","time","location","longitude","latitude","cityid","cityname"
"241031","653-BX","2017/08/17 08:30:12","新北市五股區明德路8號","121.433326666667","25.0715716666667","6500200","三重區"
"232007","290-BY","2017/08/17 08:38:50","新北市坪林區北宜路八段558號","121.717845","24.9091283333333","6502000","坪林區"
"244006","080-UY","2017/08/17 08:39:26","新北市林口區林口路241號","121.386718333333","25.0838066666667","6501700","林口區"
"244003","248-BX","2017/08/17 08:39:11","新北市林口區下福里99-1號","121.291111666667","25.117525","6501700","林口區"
"244018","403-UM","2017/08/17 08:39:27","新北市林口區公園路191號","121.371928333333","25.0722483333333","6501700","林口區"
"244008","410-SL","2017/08/17 08:39:14","新北市林口區佳林路37號","121.386536666667","25.081975","6501700","林口區"
"253003","140-BX","2017/08/17 08:39:18","新北市石門區內石門91號","121.566941666667","25.2699266666667","6502200","石門區"
"244016","656-BX","2017/08/17 08:39:14","新北市林口區八德路48巷37號","121.367258333333","25.0676183333333","6501700","林口區"
"244022","657-BX","2017/08/17 08:39:11","新北市林口區興林路152巷20號","121.387933333333","25.0715866666667","6501700","林口區"
"244012","658-BX","2017/08/17 08:39:12","新北市林口區中山路41號","121.394791666667","25.07837","6501700","林口區"
"244010","701-TV","2017/08/17 08:39:16","新北市林口區中正路91號","121.394448333333","25.0773183333333","6501700","林口區"
"244024","837-TS","2017/08/17 08:39:14","新北市林口區文化三路一段37號","121.360783333333","25.06681","6501700","林口區"
"244020","838-TS","2017/08/17 08:39:15","新北市林口區自強二街67號","121.399708333333","25.0767866666667","6501700","林口區"
"222006","289-BY","2017/08/17 08:39:12","新北市深坑區土庫尖路75-1號","121.6306","25.0185266666667","6501800","深坑區"
"231069","189-VK","2017/08/17 08:39:07","新北市新店區新潭路三段211號","121.504801666667","24.90441","6500600","新店區"
"231008","192-VK","2017/08/17 08:39:23","新北市新店區新烏路三段99巷4-1號","121.55277","24.9026016666667","6500600","新店區"
"235001","255-BX","2017/08/17 08:39:21","新北市中和區員山路36巷11號","121.483756666667","24.9909366666667","6500300","中和區"
"226005","5620-A6","2017/08/17 08:39:23","新北市平溪區十分里十分街166號","121.778335","25.043605","6502400","平溪區"
"226002","8452-VL","2017/08/17 08:39:07","新北市平溪區東勢里芊蓁坑32號","121.727175","24.9789366666667","6502400","平溪區"
"226003","AGD-0702","2017/08/17 08:39:08","新北市平溪區新寮里月桃寮路3-7號","121.7854","25.052315","6502400","平溪區"
"223002","198-BX","2017/08/17 08:39:21","新北市石碇區溪邊寮1號","121.65836","24.979845","6501900","石碇區"
"223003","205-TH","2017/08/17 08:39:23","新北市石碇區北宜路六段水底寮巷11-1號","121.665335","24.9447233333333","6501900","石碇區"
"223008","406-TH","2017/08/17 08:39:26","新北市石碇區十八重溪13號","121.677791666667","25.0112916666667","6501900","石碇區"
"223001","437-BY","2017/08/17 08:39:12","新北市石碇區北宜路六段水底寮巷25號","121.665931666667","24.9441383333333","6501900","石碇區"
"223004","660-BX","2017/08/17 08:39:21","新北市石碇區崩山15號","121.67424","24.9713816666667","6501900","石碇區"
"223007","661-BX","2017/08/17 08:39:22","新北市石碇區番子坑54號","121.676436666667","25.0105766666667","6501900","石碇區"
"223005","677-TV","2017/08/17 08:39:07","新北市石碇區崩山33-3號","121.677063333333","24.9655533333333","6501900","石碇區"
"253001","6251-TK","2017/08/17 08:39:15","新北市石門區白沙灣別墅38號","121.508975","25.2787916666667","6502200","石門區"
"253002","637-UY","2017/08/17 08:39:11","新北市石門區九芎林13-1號","121.565045","25.2637183333333","6502200","石門區"
"253004","8270-PC","2017/08/17 08:36:07","新北市石門區竹子湖6號","121.616156666667","25.261015","6502200","石門區"
"252004","249-BX","2017/08/17 08:38:49","新北市三芝區店子里店子72號","121.500606666667","25.205275","6502100","三芝區"
"252007","AAC-283","2017/08/17 08:39:20","新北市三芝區後厝里番子崙25號","121.484976666667","25.24311","6502100","三芝區"
"237001","159-UY","2017/08/17 08:39:15","新北市三峽區學勤路86號","121.37446","24.9457733333333","6500900","三峽區"
"236009","165-UM","2017/08/17 08:39:13","新北市土城區石門路6巷3號","121.458206666667","24.96963","6501300","土城區"
"236003","339-SR","2017/08/17 08:39:15","新北市土城區中央路三段281巷11弄3號","121.426511666667","24.9628716666667","6501300","土城區"
"236005","498-BY","2017/08/17 08:39:12","新北市土城區永和街42巷9號","121.434493333333","24.9600483333333","6501300","土城區"
"242020","AAC-296","2017/08/17 08:38:49","新北市新莊區新興街76巷12號","121.451011666667","25.0380583333333","6500500","新莊區"
"242028","986-R7","2017/08/17 08:39:20","新北市新莊區幸福路838號","121.444851666667","25.04908","6500500","新莊區"
"242047","751-BX","2017/08/17 08:39:10","新北市新莊區民安路37巷2號","121.42377","25.0267783333333","6500500","新莊區"
"242057","705-TV","2017/08/17 08:39:15","新北市新莊區新北大道七段510號","121.412306666667","25.0290733333333","6500500","新莊區"
"242024","615-BX","2017/08/17 08:39:24","新北市新莊區五工三路94巷6號","121.458555","25.0657883333333","6500500","新莊區"
"242022","613-BX","2017/08/17 08:39:17","新北市新莊區化成路290號","121.465715","25.0478866666667","6500500","新莊區"
"242026","612-BX","2017/08/17 08:39:20","新北市新莊區幸福路819號","121.445456666667","25.0490083333333","6500500","新莊區"
"242035","566-BX","2017/08/17 08:39:23","新北市新莊區後港一路32號","121.425451666667","25.026105","6500500","新莊區"
"242003","442-UM","2017/08/17 08:39:06","新北市新莊區復興路三段8號","121.460605","25.0442583333333","6500500","新莊區"
"242045","441-UM","2017/08/17 08:39:06","新北市新莊區福營路227巷13號","121.430016666667","25.030075","6500500","新莊區"
"242049","440-UM","2017/08/17 08:39:17","新北市新莊區西盛街184號","121.428126666667","25.0186166666667","6500500","新莊區"
"242030","415-TV","2017/08/17 08:39:10","新北市新莊區新泰路255巷49號","121.444185","25.0395466666667","6500500","新莊區"
"242001","413-TV","2017/08/17 08:39:18","新北市新莊區新泰路2-4號","121.44975","25.032725","6500500","新莊區"
"242038","400-BY","2017/08/17 08:39:07","新北市新莊區民安路285-8號","121.428926666667","25.0222066666667","6500500","新莊區"
"242059","362-BY","2017/08/17 08:39:25","新北市新莊區新樹路207-7號","121.435805","25.023825","6500500","新莊區"
"242040","132-UY","2017/08/17 08:39:12","新北市新莊區天祥街71巷11號","121.41582","25.0288983333333","6500500","新莊區"
"242033","133-UY","2017/08/17 08:39:17","新北市新莊區景德路233號","121.448803333333","25.0336633333333","6500500","新莊區"
"242018","135-UY","2017/08/17 08:39:21","新北市新莊區中華路一段136巷28號","121.453556666667","25.04124","6500500","新莊區"
"242043","172-VK","2017/08/17 08:39:20","新北市新莊區天泉二街24巷1號","121.41458","25.0253633333333","6500500","新莊區"
"242006","173-VK","2017/08/17 08:39:23","新北市新莊區中央路291號","121.452246666667","25.05803","6500500","新莊區"
"242055","176-VK","2017/08/17 08:39:22","新北市新莊區豐年街豐2巷27號","121.447576666667","25.0309033333333","6500500","新莊區"
"242010","346-TH","2017/08/17 08:39:07","新北市新莊區中港路583號","121.451111666667","25.0523683333333","6500500","新莊區"
"242012","347-TH","2017/08/17 08:39:25","新北市新莊區中泰街62巷2號","121.450256666667","25.0469966666667","6500500","新莊區"
"242016","348-TH","2017/08/17 08:39:12","新北市新莊區中華路二段3巷18號","121.45325","25.0462166666667","6500500","新莊區"
"242052","349-TH","2017/08/17 08:39:16","新北市新莊區民安西路411號","121.430663333333","25.0088233333333","6500500","新莊區"
"242014","350-TH","2017/08/17 08:39:18","新北市新莊區中平路184巷10弄12號","121.445548333333","25.0481766666667","6500500","新莊區"
"242008","351-TH","2017/08/17 08:39:18","新北市新莊區昌隆街9號","121.453975","25.0509716666667","6500500","新莊區"
"220073","282-UM","2017/08/17 08:39:21","新北市林口區太平里180號","121.367181666667","25.135155","6500100","板橋區"
