"lineid","car","time","location","longitude","latitude","cityid","cityname"
"241031","653-BX","2017/08/17 09:29:09","新北市五股區登林路貿商巷1弄2號","121.42963","25.0698966666667","6500200","三重區"
"232007","290-BY","2017/08/17 08:48:09","新北市坪林區北宜路八段558號","121.718185","24.9093116666667","6502000","坪林區"
"244006","080-UY","2017/08/17 09:29:06","新北市林口區中湖62號","121.385011666667","25.1006816666667","6501700","林口區"
"244018","403-UM","2017/08/17 09:29:07","新北市林口區文化一路一段120號","121.374165","25.072015","6501700","林口區"
"244008","410-SL","2017/08/17 09:29:14","新北市林口區竹林路346巷18號","121.392738333333","25.08332","6501700","林口區"
"253003","140-BX","2017/08/17 09:29:18","新北市石門區內石門67-3號","121.576396666667","25.25813","6502200","石門區"
"244022","657-BX","2017/08/17 09:29:11","新北市林口區文化二路二段72號","121.378333333333","25.0805183333333","6501700","林口區"
"244012","658-BX","2017/08/17 09:29:12","新北市林口區麗園一街6巷7-2號","121.37527","25.0708","6501700","林口區"
"244010","701-TV","2017/08/17 09:29:17","新北市林口區中山路97巷20號","121.389541666667","25.078065","6501700","林口區"
"244024","837-TS","2017/08/17 09:29:14","新北市林口區文化三路一段447巷29號","121.367773333333","25.0750633333333","6501700","林口區"
"222006","289-BY","2017/08/17 09:29:19","新北市深坑區文山路一段28-1號","121.631053333333","25.0058316666667","6501800","深坑區"
"231069","189-VK","2017/08/17 09:29:07","新北市新店區新潭路三段256號","121.508171666667","24.903975","6500600","新店區"
"231008","192-VK","2017/08/17 09:29:24","新北市新店區廣興路96-1號","121.538191666667","24.912885","6500600","新店區"
"235031","255-BX","2017/08/17 09:27:42","新北市中和區員山路36巷13號","121.484391666667","24.9913333333333","6500300","中和區"
"223008","406-TH","2017/08/17 09:29:06","新北市石碇區光明路13號","121.679963333333","25.0336166666667","6501900","石碇區"
"223004","660-BX","2017/08/17 09:29:21","新北市石碇區碇坪路二段26號","121.688233333333","24.974455","6501900","石碇區"
"223007","661-BX","2017/08/17 09:29:22","新北市石碇區光明路15號","121.680178333333","25.03374","6501900","石碇區"
"223005","677-TV","2017/08/17 09:29:07","新北市石碇區大崙16-2號","121.690843333333","24.9784133333333","6501900","石碇區"
"253001","6251-TK","2017/08/17 09:29:15","新北市石門區八甲16號","121.525211666667","25.280475","6502200","石門區"
"253002","637-UY","2017/08/17 09:29:11","新北市石門區七股5號","121.54737","25.26957","6502200","石門區"
"253004","8270-PC","2017/08/17 09:29:21","新北市石門區坪林21號","121.5932","25.26869","6502200","石門區"
"252004","249-BX","2017/08/17 09:29:09","新北市三芝區店子里店子31-1號","121.505615","25.2082516666667","6502100","三芝區"
"252007","AAC-283","2017/08/17 09:29:20","新北市三芝區新庄里新庄子95-29號","121.511451666667","25.2721933333333","6502100","三芝區"
"236009","165-UM","2017/08/17 09:29:13","新北市土城區民安街7號","121.421208333333","24.9650716666667","6501300","土城區"
"236005","498-BY","2017/08/17 09:29:17","新北市土城區承天路71巷4弄20號","121.441888333333","24.96332","6501300","土城區"
"242020","AAC-296","2017/08/17 09:29:09","新北市新莊區公園路124號","121.45173","25.04003","6500500","新莊區"
"242028","986-R7","2017/08/17 09:29:19","新北市新莊區昌隆街31號","121.454783333333","25.0510833333333","6500500","新莊區"
"242047","751-BX","2017/08/17 09:29:19","新北市新莊區龍安路228號","121.420468333333","25.0198083333333","6500500","新莊區"
"242057","705-TV","2017/08/17 09:29:15","新北市新莊區龍安路266巷34號","121.42153","25.0186233333333","6500500","新莊區"
"242022","613-BX","2017/08/17 09:29:17","新北市新莊區思源路63號","121.45993","25.040375","6500500","新莊區"
"242035","566-BX","2017/08/17 09:29:19","新北市新莊區後港一路76巷10弄4號","121.427065","25.0260333333333","6500500","新莊區"
"242003","442-UM","2017/08/17 09:29:06","新北市新莊區頭前路15巷9號","121.467786666667","25.051685","6500500","新莊區"
"242045","441-UM","2017/08/17 09:29:06","新北市新莊區中正路881-16號","121.41753","25.0246733333333","6500500","新莊區"
"242030","415-TV","2017/08/17 09:29:10","新北市新莊區義豐街23號","121.441053333333","25.0351133333333","6500500","新莊區"
"242001","413-TV","2017/08/17 09:29:12","新北市新莊區中港路五守新村16巷2號","121.454821666667","25.0388866666667","6500500","新莊區"
"242038","400-BY","2017/08/17 09:29:23","新北市新莊區新樹路168號","121.43473","25.02239","6500500","新莊區"
"242059","362-BY","2017/08/17 09:29:22","新北市新莊區新樹路178號","121.434356666667","25.0213533333333","6500500","新莊區"
"242040","132-UY","2017/08/17 09:29:12","新北市新莊區天祥街19巷3號","121.417035","25.0278383333333","6500500","新莊區"
"242033","133-UY","2017/08/17 09:29:17","新北市新莊區中正路299號","121.448415","25.0352266666667","6500500","新莊區"
"242043","172-VK","2017/08/17 09:29:20","新北市新莊區中正路新建巷7號","121.413941666667","25.0225983333333","6500500","新莊區"
"242055","176-VK","2017/08/17 09:29:17","新北市新莊區瓊泰路136號","121.443278333333","25.0319616666667","6500500","新莊區"
"242052","349-TH","2017/08/17 09:29:10","新北市新莊區西盛街343號","121.428043333333","25.0141283333333","6500500","新莊區"
"241031","661-UM","2017/08/17 09:29:06","新北市鶯歌區二甲路12-2號","121.345568333333","24.9348666666667","6500200","三重區"
