"lineid","car","time","location","longitude","latitude","cityid","cityname"
"232007","290-BY","2017/08/17 08:48:09","新北市坪林區北宜路八段558號","121.718185","24.9093116666667","6502000","坪林區"
"222006","289-BY","2017/08/17 10:59:19","新北市深坑區文山路一段64號","121.623361666667","25.00044","6501800","深坑區"
"231069","189-VK","2017/08/17 10:59:07","新北市新店區新潭路一段160巷17號","121.529636666667","24.9316666666667","6500600","新店區"
"231008","192-VK","2017/08/17 10:59:03","新北市新店區新烏路二段300號","121.548483333333","24.912955","6500600","新店區"
"235031","255-BX","2017/08/17 09:27:42","新北市中和區員山路36巷13號","121.484391666667","24.9913333333333","6500300","中和區"
