"lineid","car","time","location","longitude","latitude","cityid","cityname"
"234044","148-BY","2017/08/17 13:17:13","新北市永和區秀朗路二段148巷12弄15號","121.524721666667","25.0008316666667","6500400","永和區"
"234012","149-BY","2017/08/17 13:09:03","新北市永和區保福路二段6號","121.510968333333","25.0110466666667","6500400","永和區"
"234005","207-UY","2017/08/17 13:10:30","新北市永和區中山路一段177號","121.509356666667","25.0088483333333","6500400","永和區"
"234078","298-R6","2017/08/17 13:09:43","新北市永和區福和路57巷14弄3號","121.522573333333","25.007165","6500400","永和區"
"234036","336-UY","2017/08/17 13:11:41","新北市永和區民樂街59巷1號","121.527803333333","24.9982833333333","6500400","永和區"
"234062","337-UY","2017/08/17 13:12:03","新北市永和區永元路95號","121.522271666667","25.0018233333333","6500400","永和區"
"234084","338-UY","2017/08/17 13:14:54","新北市永和區永貞路150號","121.517906666667","25.0044266666667","6500400","永和區"
"234052","553-UM","2017/08/17 13:10:01","新北市永和區中興街135號","121.518571666667","25.0124716666667","6500400","永和區"
"234015","745-BX","2017/08/17 13:12:07","新北市永和區文化路90巷17號","121.513723333333","25.0161816666667","6500400","永和區"
"234028","746-BX","2017/08/17 13:09:52","新北市永和區厚德街44號","121.525123333333","24.9987283333333","6500400","永和區"
"234060","AAD-866","2017/08/17 13:13:15","新北市永和區秀朗路一段90巷4號","121.515901666667","25.0050316666667","6500400","永和區"
"234068","847-RS","2017/08/17 13:13:48","新北市永和區豫溪街107號","121.518873333333","25.0101116666667","6500400","永和區"
"234040","862-TW","2017/08/17 13:17:24","新北市永和區水源街45巷1號","121.509583333333","25.00418","6500400","永和區"
"234048","863-TW","2017/08/17 13:14:36","新北市永和區保福路二段103號","121.510378333333","25.01327","6500400","永和區"
"234025","9371-KE","2017/08/17 13:16:29","新北市永和區豫溪街28巷11號","121.515211666667","25.0093383333333","6500400","永和區"
"234010","9373-KE","2017/08/17 13:14:45","新北市永和區文化路126巷10弄2號","121.513101666667","25.0158416666667","6500400","永和區"
"248013","025-BX","2017/08/17 13:13:11","新北市五股區成泰路一段189巷29號","121.433491666667","25.0762666666667","6501500","五股區"
"248005","077-UY","2017/08/17 13:08:07","新北市五股區中興路二段95號","121.460371666667","25.0774583333333","6501500","五股區"
"248007","095-VK","2017/08/17 13:17:38","新北市五股區更洲路32巷8弄13-1號","121.459301666667","25.0794866666667","6501500","五股區"
"248017","225-UY","2017/08/17 13:18:22","新北市五股區御史路120-1號","121.437061666667","25.09663","6501500","五股區"
"248011","247-BX","2017/08/17 13:15:26","新北市五股區西雲路2號","121.442596666667","25.0897533333333","6501500","五股區"
"248015","261-SL","2017/08/17 13:15:23","新北市五股區成泰路三段221巷20號","121.445665","25.0934966666667","6501500","五股區"
"248009","272-BY","2017/08/17 13:15:19","新北市五股區成泰路一段189巷22-2號","121.433818333333","25.0770366666667","6501500","五股區"
"248003","677-BX","2017/08/17 13:15:44","新北市五股區成泰路二段156號","121.438308333333","25.084155","6501500","五股區"
"248001","678-BX","2017/08/17 13:15:55","新北市五股區西雲路18號","121.443158333333","25.0903566666667","6501500","五股區"
"234022","9380-KE","2017/08/17 13:12:59","新北市永和區中興街10巷27號","121.516226666667","25.011085","6500400","永和區"
"234076","969-R7","2017/08/17 13:13:23","新北市永和區民有街1號","121.515785","24.997275","6500400","永和區"
"234072","AAC-211","2017/08/17 13:14:09","新北市永和區竹林路98號","121.519565","25.0121466666667","6500400","永和區"
"234066","AAC-212","2017/08/17 13:11:04","新北市永和區保平路22號","121.512358333333","25.0074833333333","6500400","永和區"
"234001","AAC-295","2017/08/17 13:13:47","新北市永和區和平街56號","121.512365","25.0099316666667","6500400","永和區"
"232007","290-BY","2017/08/17 08:48:09","新北市坪林區北宜路八段558號","121.718185","24.9093116666667","6502000","坪林區"
"244003","248-BX","2017/08/17 13:16:31","新北市林口區嘉溪雅坑6號","121.341918333333","25.103735","6501700","林口區"
"243005","AAD-798","2017/08/17 13:17:16","新北市泰山區南林路99巷1-1號","121.415466666667","25.0511416666667","6501600","泰山區"
"243007","380-SR","2017/08/17 12:07:58","新北市泰山區犁頭窠3-1號","121.422396666667","25.0604033333333","6501600","泰山區"
"243008","680-BX","2017/08/17 13:18:14","新北市泰山區黎明路31號","121.421756666667","25.06062","6501600","泰山區"
"231002","002-UM","2017/08/17 13:18:13","新北市新店區安華路28-1號","121.51958","24.9608933333333","6500600","新店區"
"231028","046-UY","2017/08/17 13:17:24","新北市新店區安華路28-1號","121.519516666667","24.960795","6500600","新店區"
"231030","047-UY","2017/08/17 13:16:05","新北市新店區安忠路57巷11弄2號","121.51389","24.9575866666667","6500600","新店區"
"231029","106-UY","2017/08/17 13:14:29","新北市新店區安華路28-1號","121.519588333333","24.9608266666667","6500600","新店區"
"231018","107-UY","2017/08/17 13:17:24","新北市新店區安華路8號","121.519946666667","24.9625216666667","6500600","新店區"
"231011","108-UY","2017/08/17 13:18:19","新北市新店區安康路一段164-1號","121.52599","24.963015","6500600","新店區"
"231021","187-VK","2017/08/17 13:16:44","新北市新店區安康路一段275-2號","121.523885","24.9634833333333","6500600","新店區"
"231007","189-VK","2017/08/17 12:11:32","新北市新店區安華路28-1號","121.519595","24.9610916666667","6500600","新店區"
"231026","256-BX","2017/08/17 13:16:08","新北市新店區安華路28-1號","121.51989","24.9611166666667","6500600","新店區"
"231010","278-BY","2017/08/17 13:16:21","新北市新店區安康路一段355號","121.520036666667","24.963655","6500600","新店區"
"231017","AAD-862","2017/08/17 13:17:01","新北市新店區安華路28-1號","121.519771666667","24.96123","6500600","新店區"
"231027","3712-VJ","2017/08/17 13:17:17","新北市新店區安康路一段3-1號","121.534448333333","24.9606833333333","6500600","新店區"
"231024","3713-VJ","2017/08/17 13:15:46","新北市新店區安華路1-1號","121.519311666667","24.9604516666667","6500600","新店區"
"231025","4716-K9","2017/08/17 13:16:16","新北市新店區安華路3號","121.51921","24.959705","6500600","新店區"
"231038","4715-K9","2017/08/17 13:18:06","新北市新店區安華路28-1號","121.519461666667","24.960595","6500600","新店區"
"231036","512-UM","2017/08/17 13:15:44","新北市新店區安華路1-1號","121.519475","24.9603216666667","6500600","新店區"
"231023","513-UM","2017/08/17 13:15:23","新北市新店區安康路一段355-3號","121.519768333333","24.9618583333333","6500600","新店區"
"231035","515-UM","2017/08/17 13:17:15","新北市新店區安華路28-1號","121.519658333333","24.961335","6500600","新店區"
"231003","616-UM","2017/08/17 13:16:24","新北市新店區安康路一段355號","121.519801666667","24.9631033333333","6500600","新店區"
"231001","619-UM","2017/08/17 13:17:09","新北市新店區安華路28-1號","121.519571666667","24.9608266666667","6500600","新店區"
"231034","645-TV","2017/08/17 13:17:39","新北市新店區安華路1-1號","121.519336666667","24.9604716666667","6500600","新店區"
"231013","719-UM","2017/08/17 13:16:35","新北市新店區安康路一段355-3號","121.519765","24.96212","6500600","新店區"
"231031","720-UM","2017/08/17 13:16:26","新北市新店區安華路28-1號","121.51934","24.9612383333333","6500600","新店區"
"231005","897-TW","2017/08/17 13:17:16","新北市新店區安華路28-1號","121.519616666667","24.9607683333333","6500600","新店區"
"231006","898-TW","2017/08/17 13:14:43","新北市新店區安華路28-1號","121.519368333333","24.9609","6500600","新店區"
"231004","899-TW","2017/08/17 03:33:53","新北市新店區安華路3號","121.5192","24.9596433333333","6500600","新店區"
"231037","AKT-0513","2017/08/17 13:17:23","新北市新店區薏仁坑路6號","121.500358333333","24.9579583333333","6500600","新店區"
"235028","005-UY","2017/08/17 13:18:01","新北市中和區中正路154號","121.498706666667","24.9938833333333","6500300","中和區"
"235027","006-UY","2017/08/17 13:17:04","新北市中和區員山路36巷16-3號","121.4851","24.9913183333333","6500300","中和區"
"235020","096-UM","2017/08/17 13:17:41","新北市中和區員山路36巷13號","121.484421666667","24.9912283333333","6500300","中和區"
"235039","097-UM","2017/08/17 13:12:50","新北市中和區錦和路350-1號","121.490776666667","24.9936583333333","6500300","中和區"
"235029","098-UM","2017/08/17 13:11:52","新北市中和區橋和路288號","121.49662","25.0069766666667","6500300","中和區"
"235004","150-BY","2017/08/17 13:18:07","新北市中和區中正路305號","121.492263333333","24.9936783333333","6500300","中和區"
"235022","151-BY","2017/08/17 13:18:03","新北市中和區圓通路367巷58號","121.492211666667","24.9846833333333","6500300","中和區"
"235019","183-VK","2017/08/17 13:18:35","新北市中和區員山路36巷16-3號","121.485043333333","24.991405","6500300","中和區"
"235002","185-VK","2017/08/17 13:15:31","新北市中和區景平路116號","121.51947","24.9918166666667","6500300","中和區"
"235031","255-BX","2017/08/17 13:15:09","新北市中和區中正路849巷1號","121.484596666667","25.0027133333333","6500300","中和區"
"235007","352-BY","2017/08/17 13:17:49","新北市中和區中正路215號","121.496636666667","24.9937166666667","6500300","中和區"
"235015","376-QA","2017/08/17 13:17:07","新北市中和區信義街82號","121.511661666667","24.9878716666667","6500300","中和區"
"235032","377-QA","2017/08/17 13:02:42","新北市中和區員山路36巷16-3號","121.485105","24.9910216666667","6500300","中和區"
"235025","378-QA","2017/08/17 13:15:54","新北市中和區莒光路213號","121.469005","24.994705","6500300","中和區"
"235014","4979-A6","2017/08/17 13:09:17","新北市中和區中正路523號","121.488133333333","24.99381","6500300","中和區"
"235033","4980-A6","2017/08/17 13:14:00","新北市中和區圓通路299巷48弄1號","121.49566","24.99108","6500300","中和區"
"235006","551-UM","2017/08/17 13:13:28","新北市中和區景平路159巷31號","121.512985","24.9911866666667","6500300","中和區"
"235009","565-BX","2017/08/17 13:17:19","新北市中和區錦和路350-1號","121.490376666667","24.9935583333333","6500300","中和區"
"235018","640-BX","2017/08/17 13:18:27","新北市中和區民德路95號","121.468931666667","25.00111","6500300","中和區"
"235011","732-UM","2017/08/17 13:16:01","新北市中和區中正路637巷60弄61號","121.48544","24.9925866666667","6500300","中和區"
"235010","733-UM","2017/08/17 13:18:06","新北市中和區員山路36巷13號","121.484135","24.990775","6500300","中和區"
"235026","800-TS","2017/08/17 13:18:01","新北市中和區景平路999巷2號","121.495111666667","25.0064266666667","6500300","中和區"
"235005","802-TS","2017/08/17 13:18:03","新北市中和區景安路66號","121.505846666667","24.9967383333333","6500300","中和區"
"235016","805-TS","2017/08/17 13:17:31","新北市中和區中興街169號","121.49996","24.9904783333333","6500300","中和區"
"235012","896-TW","2017/08/17 13:14:51","新北市中和區員山路36巷16-3號","121.484966666667","24.991825","6500300","中和區"
"235017","900-TW","2017/08/17 13:15:33","新北市中和區員山路36巷13號","121.48418","24.9906983333333","6500300","中和區"
"235035","911-UM","2017/08/17 13:14:03","新北市中和區立德街200巷23號","121.48535","25.0099166666667","6500300","中和區"
"235001","AAC-213","2017/08/17 13:14:43","新北市中和區景平路296號","121.51278","24.99248","6500300","中和區"
"220016","013-TV","2017/08/17 13:17:02","新北市板橋區民生路二段22號","121.473003333333","25.0165966666667","6500100","板橋區"
"228005","097-TW","2017/08/17 13:15:45","新北市貢寮區仁理村仁和路19號","121.923175","25.0536083333333","6502600","貢寮區"
"228004","212-TW","2017/08/17 13:11:33","新北市貢寮區吉林里內寮街65-5號","121.891685","24.9775683333333","6502600","貢寮區"
"208004","AAC-292","2017/08/17 13:15:38","新北市金山區環金路353號","121.630045","25.2235216666667","6502700","金山區"
"207001","662-BX","2017/08/17 13:14:58","新北市萬里區龜吼里美崙路33號","121.686725","25.184455","6502800","萬里區"
"252005","AAC-283","2017/08/17 13:11:57","新北市三芝區八賢里八連溪23-5號","121.511163333333","25.240625","6502100","三芝區"
"236005","498-BY","2017/08/17 13:14:40","新北市土城區亞洲路108巷1弄38號","121.432893333333","24.97159","6501300","土城區"
"241031","308-TH","2017/08/17 13:14:36","新北市樹林區東豐街49巷22弄1號","121.415031666667","24.9746383333333","6500200","三重區"
"221032","280-BY","2017/08/17 13:17:50","新北市汐止區大同路二段184巷3號","121.653875","25.06397","6501100","汐止區"
"221002","707-TV","2017/08/17 13:17:20","新北市汐止區康寧街61巷50弄8號","121.620501666667","25.067425","6501100","汐止區"
"220030","282-UM","2017/08/17 13:18:01","新北市板橋區華東街1-10號","121.4487","24.994955","6500100","板橋區"
