"lineid","car","time","location","longitude","latitude","cityid","cityname"
"234044","148-BY","2017/08/17 13:58:13","新北市永和區永利路123號","121.524073333333","25.00272","6500400","永和區"
"234012","149-BY","2017/08/17 13:34:23","新北市永和區中山路一段184巷9弄1號","121.508513333333","25.00924","6500400","永和區"
"234005","207-UY","2017/08/17 13:33:10","新北市永和區中山路一段177號","121.509303333333","25.0090016666667","6500400","永和區"
"234078","298-R6","2017/08/17 13:25:03","新北市永和區環河東路三段60號","121.526898333333","25.0058483333333","6500400","永和區"
"234036","336-UY","2017/08/17 13:25:41","新北市永和區民樂街28號","121.527448333333","25.0015283333333","6500400","永和區"
"234062","337-UY","2017/08/17 13:25:23","新北市永和區秀朗路二段24巷21號","121.520518333333","25.0020333333333","6500400","永和區"
"234084","338-UY","2017/08/17 13:34:54","新北市永和區林森路100號","121.522888333333","25.0034166666667","6500400","永和區"
"234052","553-UM","2017/08/17 13:22:41","新北市永和區永和路二段116號","121.515433333333","25.0121066666667","6500400","永和區"
"234015","745-BX","2017/08/17 13:28:08","新北市永和區環河西路一段87-1號","121.512506666667","25.01792","6500400","永和區"
"234028","746-BX","2017/08/17 13:26:12","新北市永和區民權路1巷8號","121.520688333333","24.99834","6500400","永和區"
"234060","AAD-866","2017/08/17 13:31:55","新北市永和區永貞路176號","121.516616666667","25.0042816666667","6500400","永和區"
"234068","847-RS","2017/08/17 13:30:28","新北市永和區竹林路140號","121.520033333333","25.0109966666667","6500400","永和區"
"234040","862-TW","2017/08/17 13:25:44","新北市永和區永貞路326號","121.511403333333","25.0052566666667","6500400","永和區"
"234048","863-TW","2017/08/17 13:38:56","新北市永和區保安路57號","121.509431666667","25.0156283333333","6500400","永和區"
"234025","9371-KE","2017/08/17 13:40:10","新北市永和區永平路296號","121.507368333333","25.012175","6500400","永和區"
"234010","9373-KE","2017/08/17 13:36:45","新北市永和區保福路二段14-1號","121.510905","25.0113833333333","6500400","永和區"
"248013","025-BX","2017/08/17 13:50:51","新北市五股區民義路一段107巷32號","121.432381666667","25.08443","6501500","五股區"
"248005","077-UY","2017/08/17 13:29:27","新北市五股區四維路25號","121.467203333333","25.07061","6501500","五股區"
"248007","095-VK","2017/08/17 13:41:18","新北市五股區中興路一段151巷1弄2號","121.464966666667","25.072965","6501500","五股區"
"248017","225-UY","2017/08/17 13:47:02","新北市五股區民義路二段48巷5-10號","121.413961666667","25.1032766666667","6501500","五股區"
"248011","247-BX","2017/08/17 13:38:26","新北市五股區御史路80號","121.440938333333","25.0947766666667","6501500","五股區"
"248015","261-SL","2017/08/17 13:32:43","新北市五股區凌雲路一段133巷26號","121.449061666667","25.10137","6501500","五股區"
"248009","272-BY","2017/08/17 13:36:19","新北市五股區水碓一路1號","121.43293","25.0727283333333","6501500","五股區"
"248003","677-BX","2017/08/17 13:33:44","新北市五股區民義路一段206號","121.430331666667","25.0890433333333","6501500","五股區"
"248001","678-BX","2017/08/17 13:35:35","新北市五股區西雲路201號","121.448365","25.0964083333333","6501500","五股區"
"234022","9380-KE","2017/08/17 13:27:19","新北市永和區竹林路91巷37號","121.520885","25.0125783333333","6500400","永和區"
"234076","969-R7","2017/08/17 13:38:44","新北市永和區得和路104巷16號","121.517883333333","24.999555","6500400","永和區"
"234072","AAC-211","2017/08/17 13:33:09","新北市永和區福和路72號","121.523193333333","25.0080033333333","6500400","永和區"
"234066","AAC-212","2017/08/17 13:26:43","新北市永和區保平路52號","121.51136","25.0070966666667","6500400","永和區"
"234001","AAC-295","2017/08/17 13:37:08","新北市永和區秀朗路一段42號","121.514648333333","25.0066266666667","6500400","永和區"
"232007","290-BY","2017/08/17 08:48:09","新北市坪林區北宜路八段558號","121.718185","24.9093116666667","6502000","坪林區"
"244003","248-BX","2017/08/17 13:42:31","新北市林口區瑞樹坑60-2號","121.347245","25.1280416666667","6501700","林口區"
"243005","AAD-798","2017/08/17 13:57:36","新北市泰山區明志路三段206巷1號","121.423323333333","25.037925","6501600","泰山區"
"243007","380-SR","2017/08/17 13:51:00","新北市泰山區美寧街54號","121.430488333333","25.06444","6501600","泰山區"
"243002","548-UM","2017/08/17 13:55:10","新北市泰山區辭修路24號","121.428991666667","25.0580933333333","6501600","泰山區"
"243004","646-TV","2017/08/17 13:54:43","新北市泰山區泰林路二段73巷33號","121.43431","25.05782","6501600","泰山區"
"243008","680-BX","2017/08/17 13:56:34","新北市泰山區明志路二段152-3號","121.427451666667","25.0505133333333","6501600","泰山區"
"231002","002-UM","2017/08/17 13:54:33","新北市新店區溪園路205號","121.527215","24.98476","6500600","新店區"
"231028","046-UY","2017/08/17 13:43:44","新北市新店區安和路三段35-2號","121.517055","24.9804533333333","6500600","新店區"
"231030","047-UY","2017/08/17 13:41:25","新北市新店區安康路一段77號","121.529986666667","24.961165","6500600","新店區"
"231029","106-UY","2017/08/17 13:45:49","新北市新店區安康路二段163號","121.510006666667","24.9593666666667","6500600","新店區"
"231018","107-UY","2017/08/17 13:38:04","新北市新店區中央路13號","121.533418333333","24.978385","6500600","新店區"
"231011","108-UY","2017/08/17 13:42:59","新北市新店區德正街27巷29弄28號","121.545785","24.9722816666667","6500600","新店區"
"231021","187-VK","2017/08/17 13:46:04","新北市新店區新烏路一段130號","121.544621666667","24.934195","6500600","新店區"
"231007","189-VK","2017/08/17 12:11:32","新北市新店區安華路28-1號","121.519595","24.9610916666667","6500600","新店區"
"231026","256-BX","2017/08/17 13:50:08","新北市新店區三民路84巷12號","121.53491","24.9731516666667","6500600","新店區"
"231010","278-BY","2017/08/17 13:37:01","新北市新店區平等街48巷23號","121.535091666667","24.9734583333333","6500600","新店區"
"231017","AAD-862","2017/08/17 13:50:01","新北市新店區竹林路75號","121.55374","24.951135","6500600","新店區"
"231027","3712-VJ","2017/08/17 13:51:56","新北市新店區北宜路一段7號","121.538413333333","24.9583183333333","6500600","新店區"
"231024","3713-VJ","2017/08/17 13:47:46","新北市新店區新生街13巷40號","121.538883333333","24.966865","6500600","新店區"
"231025","4716-K9","2017/08/17 13:57:35","新北市新店區中央路7號","121.533463333333","24.9786016666667","6500600","新店區"
"231038","4715-K9","2017/08/17 13:51:26","新北市新店區安康路一段291巷32-1號","121.522348333333","24.962505","6500600","新店區"
"231036","512-UM","2017/08/17 13:49:04","新北市新店區安祥路110巷17弄1號","121.473905","24.955945","6500600","新店區"
"231023","513-UM","2017/08/17 13:50:23","新北市新店區新店後街88號","121.537968333333","24.95478","6500600","新店區"
"231035","515-UM","2017/08/17 13:40:14","新北市新店區安忠路79號","121.511163333333","24.9571716666667","6500600","新店區"
"231003","616-UM","2017/08/17 13:48:44","新北市新店區中興路一段158號","121.542471666667","24.963975","6500600","新店區"
"231001","619-UM","2017/08/17 13:43:09","新北市新店區三民路118號","121.534456666667","24.9743883333333","6500600","新店區"
"231034","645-TV","2017/08/17 13:44:39","新北市新店區達觀路12號","121.504891666667","24.9405783333333","6500600","新店區"
"231013","719-UM","2017/08/17 13:45:16","新北市新店區建國路218-2號","121.538003333333","24.9812166666667","6500600","新店區"
"231031","720-UM","2017/08/17 13:53:06","新北市新店區莒光路44巷21弄11-3號","121.518508333333","24.9520966666667","6500600","新店區"
"231005","897-TW","2017/08/17 13:46:36","新北市新店區寶中路99號","121.548776666667","24.9804833333333","6500600","新店區"
"231006","898-TW","2017/08/17 13:43:23","新北市新店區北宜路一段118號","121.539178333333","24.95513","6500600","新店區"
"231004","899-TW","2017/08/17 13:49:17","新北市新店區中興路三段1-20號","121.546711666667","24.9760516666667","6500600","新店區"
"231037","AKT-0513","2017/08/17 13:53:03","新北市新店區安康路三段207巷28號","121.488328333333","24.9506233333333","6500600","新店區"
"235030","003-UY","2017/08/17 13:53:23","新北市中和區中山路二段131巷21號","121.5035","25.00248","6500300","中和區"
"235028","005-UY","2017/08/17 13:52:21","新北市中和區泰和街40號","121.499191666667","24.999905","6500300","中和區"
"235027","006-UY","2017/08/17 13:51:04","新北市中和區錦和路196巷6號","121.48979","24.9949933333333","6500300","中和區"
"235020","096-UM","2017/08/17 13:47:21","新北市中和區中正路1196號","121.480493333333","25.0104383333333","6500300","中和區"
"235003","097-UM","2017/08/17 13:48:30","新北市中和區大勇街29巷23弄1號","121.51542","24.9946466666667","6500300","中和區"
"235029","098-UM","2017/08/17 13:46:11","新北市中和區中山路二段2巷59號","121.501661666667","25.0073066666667","6500300","中和區"
"235004","150-BY","2017/08/17 13:54:07","新北市中和區安平路82號","121.511148333333","24.996785","6500300","中和區"
"235022","151-BY","2017/08/17 13:50:42","新北市中和區連城路506號","121.477345","24.9923466666667","6500300","中和區"
"235019","183-VK","2017/08/17 13:52:35","新北市中和區德光路79號","121.469366666667","25.003725","6500300","中和區"
"235002","185-VK","2017/08/17 13:56:11","新北市中和區大勇街43巷6號","121.517581666667","24.9948016666667","6500300","中和區"
"235013","186-VK","2017/08/17 13:42:18","新北市中和區景平路504巷2號","121.503946666667","24.9937","6500300","中和區"
"235031","255-BX","2017/08/17 13:55:09","新北市中和區新生街186巷1弄28號","121.483388333333","24.9985366666667","6500300","中和區"
"235044","293-VK","2017/08/17 13:49:19","新北市中和區復興路280巷13號","121.502201666667","24.9912983333333","6500300","中和區"
"235072","301-VK","2017/08/17 13:42:12","新北市中和區連城路45號","121.498158333333","25.00188","6500300","中和區"
"235007","352-BY","2017/08/17 13:50:49","新北市中和區成功路86號","121.52588","24.9914733333333","6500300","中和區"
"235015","376-QA","2017/08/17 13:50:27","新北市中和區華新街98號","121.508591666667","24.9828916666667","6500300","中和區"
"235032","377-QA","2017/08/17 13:57:22","新北市中和區圓通路293-1號","121.495041666667","24.9926533333333","6500300","中和區"
"235025","378-QA","2017/08/17 13:38:14","新北市中和區民享街92巷25號","121.473368333333","24.9994733333333","6500300","中和區"
"235014","4979-A6","2017/08/17 13:36:01","新北市中和區景新街496巷30弄36號","121.51249","24.985665","6500300","中和區"
"235033","4980-A6","2017/08/17 13:52:40","新北市中和區圓通路108號","121.499373333333","24.996565","6500300","中和區"
"235006","551-UM","2017/08/17 13:45:08","新北市中和區成功路27號","121.52634","24.99344","6500300","中和區"
"235034","558-UM","2017/08/17 13:52:36","新北市中和區景新街142巷3號","121.505103333333","24.997545","6500300","中和區"
"235009","565-BX","2017/08/17 13:43:59","新北市中和區南山路236巷34-9號","121.504531666667","24.98821","6500300","中和區"
"235018","640-BX","2017/08/17 13:52:27","新北市中和區民享街66號","121.474145","25.0019033333333","6500300","中和區"
"235024","647-TV","2017/08/17 13:42:17","新北市中和區員山路495號","121.479915","25.005695","6500300","中和區"
"235011","732-UM","2017/08/17 13:46:21","新北市中和區興南路二段107號","121.505863333333","24.98448","6500300","中和區"
"235010","733-UM","2017/08/17 13:56:26","新北市中和區興南路一段134巷12弄8號","121.509538333333","24.98872","6500300","中和區"
"235026","800-TS","2017/08/17 13:51:41","新北市中和區中山路二段340巷15號","121.493528333333","25.00303","6500300","中和區"
"235021","801-TS","2017/08/17 13:39:40","新北市中和區民安街42巷24號","121.479608333333","25.0008233333333","6500300","中和區"
"235005","802-TS","2017/08/17 13:53:03","新北市永和區中和路603號","121.512458333333","25.0042833333333","6500300","中和區"
"235016","805-TS","2017/08/17 13:48:11","新北市中和區興南路三段60號","121.493373333333","24.97521","6500300","中和區"
"235012","896-TW","2017/08/17 13:49:31","新北市中和區南山路176-6號","121.505255","24.99096","6500300","中和區"
"235017","900-TW","2017/08/17 13:47:54","新北市中和區華福街3號","121.465221666667","24.9969983333333","6500300","中和區"
"235035","911-UM","2017/08/17 13:43:03","新北市中和區立德街13-9號","121.489673333333","25.006605","6500300","中和區"
"235001","AAC-213","2017/08/17 13:39:23","新北市中和區景平路111巷8號","121.516566666667","24.9911083333333","6500300","中和區"
"235023","AAC-215","2017/08/17 13:51:16","新北市中和區圓通路385號","121.49017","24.9892966666667","6500300","中和區"
"220016","013-TV","2017/08/17 13:57:02","新北市板橋區三民路一段31巷65號","121.481101666667","25.02304","6500100","板橋區"
"220020","015-TV","2017/08/17 13:43:27","新北市板橋區大觀路三段56號","121.433428333333","24.99538","6500100","板橋區"
"220013","072-UY","2017/08/17 13:55:39","新北市板橋區長安街210-1號","121.474573333333","25.0119183333333","6500100","板橋區"
"220034","073-UY","2017/08/17 13:46:18","新北市板橋區南雅西路二段182號","121.451628333333","25.0140916666667","6500100","板橋區"
"220105","075-UY","2017/08/17 13:57:07","新北市板橋區民生路二段216號","121.469281666667","25.02156","6500100","板橋區"
"220069","AAD-861","2017/08/17 13:55:59","新北市板橋區館前西路5號","121.459125","25.00698","6500100","板橋區"
"220051","120-SR","2017/08/17 13:55:48","新北市板橋區民生路二段89-6號","121.470676666667","25.0192983333333","6500100","板橋區"
"247019","893-R6","2017/08/17 13:51:46","新北市蘆洲區民族路422巷48弄28號","121.474751666667","25.0930466666667","6501400","蘆洲區"
"247009","546-UM","2017/08/17 13:57:06","新北市蘆洲區中興街52號","121.481721666667","25.0874033333333","6501400","蘆洲區"
"247017","500-BY","2017/08/17 13:51:40","新北市蘆洲區民族路253號","121.476678333333","25.0903283333333","6501400","蘆洲區"
"247007","339-TH","2017/08/17 13:51:03","新北市蘆洲區集賢路320號","121.481501666667","25.0849466666667","6501400","蘆洲區"
"247001","336-TH","2017/08/17 13:56:20","新北市蘆洲區永平街32巷22弄1號","121.459816666667","25.092495","6501400","蘆洲區"
"247005","335-TH","2017/08/17 13:58:22","新北市蘆洲區中山一路312號","121.469245","25.0771666666667","6501400","蘆洲區"
"247013","057-VK","2017/08/17 13:53:17","新北市蘆洲區中正路123號","121.469581666667","25.0843283333333","6501400","蘆洲區"
"247003","056-VK","2017/08/17 13:50:58","新北市蘆洲區長安街108巷21號","121.461801666667","25.0823116666667","6501400","蘆洲區"
"247015","001-UY","2017/08/17 13:56:36","新北市蘆洲區光華路27號","121.46936","25.08305","6501400","蘆洲區"
"228005","097-TW","2017/08/17 13:41:45","新北市貢寮區美豐里土地公嶺2號","121.8955","25.0571116666667","6502600","貢寮區"
"228004","212-TW","2017/08/17 13:33:33","新北市貢寮區龍崗里石壁坑街24-1號","121.912313333333","24.99878","6502600","貢寮區"
"208004","AAC-292","2017/08/17 13:34:58","新北市金山區南勢湖70-2號","121.615365","25.215835","6502700","金山區"
"207001","662-BX","2017/08/17 13:26:37","新北市萬里區龜吼里玉田路43號","121.681056666667","25.1886033333333","6502800","萬里區"
"252005","AAC-283","2017/08/17 13:46:10","新北市三芝區圓山里內柑宅25-1號","121.53668","25.22394","6502100","三芝區"
"236066","105-UM","2017/08/17 13:58:30","新北市土城區城林路6巷80號","121.438118333333","24.9796133333333","6501300","土城區"
"236040","107-UM","2017/08/17 13:53:22","新北市土城區中央路二段126號","121.442","24.9776583333333","6501300","土城區"
"236076","166-UM","2017/08/17 13:55:44","新北市土城區永寧路35號","121.43004","24.9620466666667","6501300","土城區"
"236028","253-BX","2017/08/17 13:57:28","新北市土城區城林路6巷80號","121.438388333333","24.9797366666667","6501300","土城區"
"236024","269-VK","2017/08/17 13:52:46","新北市土城區承天路18號","121.43942","24.963485","6501300","土城區"
"236012","270-VK","2017/08/17 13:56:52","新北市土城區中央路二段276-1號","121.440861666667","24.9742766666667","6501300","土城區"
"236033","271-VK","2017/08/17 13:57:52","新北市土城區員福街50號","121.44043","24.9791183333333","6501300","土城區"
"236018","401-BY","2017/08/17 13:56:20","新北市土城區城林路6巷80號","121.438605","24.9797233333333","6501300","土城區"
"236005","498-BY","2017/08/17 13:37:00","新北市土城區慶祥街46號","121.436861666667","24.97434","6501300","土城區"
"236056","912-UM","2017/08/17 13:50:15","新北市土城區城林路6巷80號","121.438331666667","24.9797566666667","6501300","土城區"
"236047","913-UM","2017/08/17 13:56:23","新北市土城區城林路6巷80號","121.438351666667","24.97978","6501300","土城區"
"236060","915-UM","2017/08/17 13:53:21","新北市土城區城林路6巷80號","121.438351666667","24.9797833333333","6501300","土城區"
"236052","AAC-216","2017/08/17 13:56:25","新北市土城區城林路6巷80號","121.438386666667","24.9798066666667","6501300","土城區"
"220027","145-BY","2017/08/17 13:47:32","新北市板橋區中正路69號","121.456358333333","25.0140366666667","6500100","板橋區"
"220042","146-RM","2017/08/17 13:55:28","新北市板橋區民生路二段120號","121.470405","25.0195983333333","6500100","板橋區"
"220028","200-UY","2017/08/17 13:47:04","新北市板橋區大觀路二段265巷76弄6號","121.442191666667","24.9966166666667","6500100","板橋區"
"220050","245-BX","2017/08/17 02:37:17","新北市板橋區民生路二段89-6號","121.470591666667","25.0190366666667","6500100","板橋區"
"220043","267-BY","2017/08/17 13:57:19","新北市板橋區文化路一段360號","121.46831","25.023585","6500100","板橋區"
"220004","276-BY","2017/08/17 13:45:04","新北市板橋區四川路二段79號","121.453023333333","24.9951366666667","6500100","板橋區"
"220030","282-UM","2017/08/17 13:45:41","新北市板橋區篤行路二段99號","121.43159","24.991455","6500100","板橋區"
"220019","283-VK","2017/08/17 13:57:43","新北市板橋區區運路31號","121.466113333333","25.010245","6500100","板橋區"
"220001","285-VK","2017/08/17 13:53:19","新北市板橋區民生路二段80號","121.471796666667","25.01838","6500100","板橋區"
"220031","286-VK","2017/08/17 13:48:57","新北市板橋區大觀路二段22巷1號","121.446316666667","25.0032666666667","6500100","板橋區"
"220029","287-VK","2017/08/17 13:50:59","新北市板橋區南雅西路二段2-1號","121.45316","25.008755","6500100","板橋區"
"220039","288-VK","2017/08/17 13:58:11","新北市板橋區民生路二段198號","121.469768333333","25.0208283333333","6500100","板橋區"
"220009","293-UM","2017/08/17 13:55:01","新北市板橋區太和街4巷9號","121.474158333333","25.019925","6500100","板橋區"
"220003","295-UM","2017/08/17 13:54:40","新北市板橋區觀光街2-4號","121.472306666667","25.015605","6500100","板橋區"
"220032","296-UM","2017/08/17 13:44:14","新北市板橋區大觀路二段142號","121.442773333333","24.999085","6500100","板橋區"
"220023","297-UM","2017/08/17 13:52:19","新北市板橋區南雅西路一段174巷14號","121.453051666667","25.007575","6500100","板橋區"
"220047","299-UM","2017/08/17 13:56:13","新北市板橋區民生路二段120號","121.470395","25.0196716666667","6500100","板橋區"
"220010","305-R5","2017/08/17 13:55:44","新北市板橋區觀光街2-1號","121.47242","25.0154583333333","6500100","板橋區"
"220041","307-R5","2017/08/17 13:54:15","新北市板橋區民生路二段120號","121.470486666667","25.0196116666667","6500100","板橋區"
"220064","486-VK","2017/08/17 13:52:00","新北市板橋區中山路二段37號","121.473173333333","25.0157683333333","6500100","板橋區"
"220038","487-VK","2017/08/17 13:57:23","新北市板橋區民生路二段120號","121.470871666667","25.0193533333333","6500100","板橋區"
"220037","491-VK","2017/08/17 13:49:22","新北市板橋區民生路二段161巷1號","121.470173333333","25.0198483333333","6500100","板橋區"
"220104","560-BX","2017/08/17 13:45:37","新北市板橋區南雅西路二段301巷6-2號","121.451833333333","25.01586","6500100","板橋區"
"220011","609-BX","2017/08/17 13:53:04","新北市板橋區中山路二段50-2號","121.473426666667","25.0152683333333","6500100","板橋區"
"220040","637-BX","2017/08/17 13:54:44","新北市板橋區民生路二段120號","121.470305","25.0200183333333","6500100","板橋區"
"220005","686-BX","2017/08/17 13:56:55","新北市板橋區中山路一段156-3號","121.465343333333","25.0118083333333","6500100","板橋區"
"220025","687-BX","2017/08/17 13:42:00","新北市板橋區大觀路三段212巷70號","121.429798333333","24.9935416666667","6500100","板橋區"
"220002","741-BX","2017/08/17 13:54:46","新北市板橋區漢生東路268-3號","121.468463333333","25.013195","6500100","板橋區"
"220014","829-TW","2017/08/17 13:51:56","新北市板橋區三民路二段正隆巷42號","121.477038333333","25.013845","6500100","板橋區"
"220045","831-TW","2017/08/17 01:29:24","新北市板橋區民生路二段89-6號","121.47075","25.01902","6500100","板橋區"
"220022","895-R6","2017/08/17 13:41:05","新北市板橋區南雅南路一段8號","121.455925","25.006305","6500100","板橋區"
"220021","985-R7","2017/08/17 13:52:05","新北市板橋區館前西路122號","121.456566666667","25.0077483333333","6500100","板橋區"
"220046","AAC-210","2017/08/17 13:56:04","新北市板橋區民生路二段120號","121.470603333333","25.01941","6500100","板橋區"
"220018","AAC-253","2017/08/17 13:56:05","新北市板橋區中山路一段161號","121.46571","25.0121283333333","6500100","板橋區"
