"lineid","car","time","location","longitude","latitude","cityid","cityname"
"249002","305-UY","2017/08/17 16:28:46","新北市八里區忠孝路393號","121.416016666667","25.1610583333333","6502300","八里區"
"248005","077-UY","2017/08/17 13:58:51","新北市五股區中興路二段83巷26-6號","121.46011","25.0751066666667","6501500","五股區"
"234067","AAC-212","2017/08/17 16:17:19","新北市永和區福和路1號","121.526315","25.0096716666667","6500400","永和區"
"232007","290-BY","2017/08/17 08:48:09","新北市坪林區北宜路八段558號","121.718185","24.9093116666667","6502000","坪林區"
"243012","646-TV","2017/08/17 15:43:37","新北市泰山區黎明路25號","121.421928333333","25.0607683333333","6501600","泰山區"
"243016","680-BX","2017/08/17 15:49:51","新北市泰山區黎明路25號","121.421986666667","25.0606633333333","6501600","泰山區"
"231007","189-VK","2017/08/17 12:11:32","新北市新店區安華路28-1號","121.519595","24.9610916666667","6500600","新店區"
"231046","278-BY","2017/08/17 16:28:59","新北市新店區灣潭路3-2號","121.538273333333","24.9507866666667","6500600","新店區"
"241011","013-R5","2017/08/17 16:28:53","新北市三重區龍濱路168-1號","121.501326666667","25.07267","6500200","三重區"
"241028","022-UY","2017/08/17 16:28:54","新北市三重區重安街140號","121.495373333333","25.0549566666667","6500200","三重區"
"241009","060-VK","2017/08/17 16:28:52","新北市三重區三和路四段203巷163號","121.485635","25.08031","6500200","三重區"
"241031","061-VK","2017/08/17 16:28:52","新北市三重區重陽路一段49號","121.48672","25.058195","6500200","三重區"
"241015","062-VK","2017/08/17 16:28:54","新北市三重區信義街79號","121.50179","25.0650883333333","6500200","三重區"
"241017","063-VK","2017/08/17 16:28:51","新北市三重區大同北路91號","121.494801666667","25.06362","6500200","三重區"
"241024","065-VK","2017/08/17 16:28:52","新北市三重區中正北路257號","121.47545","25.071015","6500200","三重區"
"241026","066-VK","2017/08/17 16:28:54","新北市三重區文化南路48號","121.500446666667","25.0596466666667","6500200","三重區"
"241002","090-VK","2017/08/17 16:28:57","新北市三重區五華街7巷30號","121.495975","25.0805783333333","6500200","三重區"
"241003","091-VK","2017/08/17 16:28:58","新北市三重區仁義街220巷22號","121.494486666667","25.08361","6500200","三重區"
"241006","156-TC","2017/08/17 16:28:51","新北市三重區力行路二段184號","121.483323333333","25.0773583333333","6500200","三重區"
"241005","262-UM","2017/08/17 16:28:53","新北市三重區溪尾街300-2號","121.487513333333","25.0836566666667","6500200","三重區"
"241008","265-UM","2017/08/17 16:28:43","新北市三重區永福街122-2號","121.479076666667","25.0753266666667","6500200","三重區"
"241016","266-UM","2017/08/17 16:28:56","新北市三重區大智街21號","121.49426","25.0657416666667","6500200","三重區"
"241022","267-UM","2017/08/17 16:29:01","新北市三重區新北大道一段76號","121.486253333333","25.0616433333333","6500200","三重區"
"241018","268-UM","2017/08/17 16:28:54","新北市三重區重陽路四段77號","121.492536666667","25.0708066666667","6500200","三重區"
"241032","269-UM","2017/08/17 16:28:42","新北市三重區三陽路100巷3弄13號","121.48301","25.05818","6500200","三重區"
"241013","270-UM","2017/08/17 16:28:51","新北市三重區龍門路148號","121.498438333333","25.0732416666667","6500200","三重區"
"241007","398-BY","2017/08/17 16:28:56","新北市三重區溪尾街174號","121.488453333333","25.080515","6500200","三重區"
"241020","412-TH","2017/08/17 16:28:56","新北市三重區車路頭街37巷2號","121.483901666667","25.0717583333333","6500200","三重區"
"241004","475-VK","2017/08/17 16:28:55","新北市三重區自強路五段5號","121.49229","25.0803266666667","6500200","三重區"
"241019","478-VK","2017/08/17 16:28:59","新北市三重區重陽路三段97號","121.490346666667","25.0679133333333","6500200","三重區"
"241030","480-VK","2017/08/17 16:28:54","新北市三重區重新路四段121號","121.484443333333","25.05236","6500200","三重區"
"241014","543-UM","2017/08/17 16:28:54","新北市三重區河邊北街82號","121.504275","25.0689633333333","6500200","三重區"
"241023","545-UM","2017/08/17 16:28:58","新北市三重區忠孝路三段50巷82號","121.483028333333","25.0645233333333","6500200","三重區"
"241001","547-UM","2017/08/17 16:28:55","新北市三重區仁政街153號","121.491536666667","25.07919","6500200","三重區"
"241025","887-TS","2017/08/17 16:28:52","新北市三重區中正北路560巷100弄2號","121.47257","25.0682333333333","6500200","三重區"
"241012","941-UM","2017/08/17 16:28:45","新北市三重區河邊北街371號","121.501873333333","25.0761733333333","6500200","三重區"
"241029","942-UM","2017/08/17 16:28:55","新北市三重區集美街126巷2號","121.489126666667","25.0536066666667","6500200","三重區"
"241033","AAC-255","2017/08/17 16:29:01","新北市三重區重新路五段317巷1弄2號","121.477423333333","25.04927","6500200","三重區"
"235049","186-VK","2017/08/17 16:28:58","新北市中和區員山路36巷16-2號","121.485365","24.991355","6500300","中和區"
"235034","558-UM","2017/08/17 16:28:56","新北市八里區下罟子8-7號","121.384215","25.14107","6500300","中和區"
"235026","800-TS","2017/08/17 16:29:01","新北市中和區建八路131號","121.4899","24.9987166666667","6500300","中和區"
"247007","339-TH","2017/08/17 16:28:59","新北市五股區中興路三段5號","121.449445","25.07987","6501400","蘆洲區"
"247002","336-TH","2017/08/17 16:28:50","新北市五股區中興路三段2巷10號","121.44931","25.08103","6501400","蘆洲區"
"224008","275-VK","2017/08/17 16:28:58","新北市瑞芳區逢甲路20-1號","121.809373333333","25.108405","6501200","瑞芳區"
"224007","273-VK","2017/08/17 16:29:03","新北市瑞芳區瑞竹路36巷23號","121.764263333333","25.10408","6501200","瑞芳區"
"224005","271-BY","2017/08/17 16:28:51","新北市瑞芳區瑞濱路123-3號","121.820611666667","25.11908","6501200","瑞芳區"
"227004","642-TC","2017/08/17 16:28:55","新北市雙溪區上林里內平林120-1號","121.82503","25.0265033333333","6502500","雙溪區"
"227010","400-TW","2017/08/17 16:28:45","新北市雙溪區三港里雙澳路2號","121.86913","25.0465916666667","6502500","雙溪區"
"251008","181-VK","2017/08/17 16:28:57","新北市淡水區民生路54號","121.461895","25.137985","6501000","淡水區"
"251014","182-VK","2017/08/17 16:28:52","新北市淡水區新市一路一段285號","121.4347","25.1863516666667","6501000","淡水區"
"251016","442-VK","2017/08/17 16:28:59","新北市淡水區新春街76號","121.438493333333","25.1814833333333","6501000","淡水區"
"252006","073-UM","2017/08/17 16:20:17","新北市三芝區埔坪里埔頭坑41號","121.50446","25.26448","6502100","三芝區"
"252002","178-VK","2017/08/17 16:28:59","新北市三芝區忠孝街15號","121.506031666667","25.25523","6502100","三芝區"
"237012","275-BY","2017/08/17 15:33:38","新北市三峽區中山路459巷137號","121.349901666667","24.9339383333333","6500900","三峽區"
"236040","107-UM","2017/08/17 16:28:42","新北市土城區城林路6巷80號","121.438465","24.97979","6501300","土城區"
"236074","166-UM","2017/08/17 16:25:44","新北市樹林區中山路三段210-2號","121.380771666667","24.9673133333333","6501300","土城區"
"236056","912-UM","2017/08/17 16:28:55","新北市樹林區環河路600號","121.404665","24.969025","6501300","土城區"
"236060","915-UM","2017/08/17 16:29:00","新北市土城區勝利街10巷4號","121.428551666667","24.9701233333333","6501300","土城區"
"242003","442-UM","2017/08/17 14:58:37","新北市新莊區新泰路255巷83號","121.442031666667","25.0389266666667","6500500","新莊區"
"238010","601-UM","2017/08/17 16:28:49","新北市樹林區中正路755號","121.410428333333","25.0152666666667","6500700","樹林區"
"238006","599-UM","2017/08/17 16:28:49","新北市樹林區東華街73號","121.415648333333","24.9808516666667","6500700","樹林區"
"238009","312-TH","2017/08/17 16:29:03","新北市樹林區八德街263-1號","121.419298333333","24.9738166666667","6500700","樹林區"
"238004","283-BY","2017/08/17 16:28:53","新北市樹林區中正路433-1號","121.414885","25.0080516666667","6500700","樹林區"
"238001","282-BY","2017/08/17 16:28:57","新北市樹林區大慶街99-1號","121.427653333333","24.9997333333333","6500700","樹林區"
"238007","268-VK","2017/08/17 14:42:33","新北市樹林區中山路三段198號","121.386976666667","24.9690666666667","6500700","樹林區"
"220043","267-BY","2017/08/17 16:28:43","新北市板橋區新海路186號","121.460793333333","25.0234283333333","6500100","板橋區"
"220037","491-VK","2017/08/17 16:27:02","新北市八里區荖阡坑路34號","121.402656666667","25.128235","6500100","板橋區"
"220104","560-BX","2017/08/17 16:22:59","新北市板橋區華東街1-10號","121.448231666667","24.9950266666667","6500100","板橋區"
"220040","637-BX","2017/08/17 16:28:44","新北市板橋區中山路二段320號","121.48084","25.01945","6500100","板橋區"
"220018","AAC-253","2017/08/17 16:28:45","新北市林口區太平里180號","121.3672","25.1351","6500100","板橋區"
