"lineid","car","time","location","longitude","latitude","cityid","cityname"
"249005","172-UM","2017/08/17 17:28:40","新北市八里區荖阡里36-1號","121.408186666667","25.125965","6502300","八里區"
"249001","173-UM","2017/08/17 17:28:56","新北市八里區大崁腳41-6號","121.423891666667","25.15887","6502300","八里區"
"249004","303-UY","2017/08/17 17:28:42","新北市八里區民有街28號","121.415826666667","25.15673","6502300","八里區"
"249002","305-UY","2017/08/17 17:28:50","新北市八里區龍形五街15號","121.450196666667","25.13348","6502300","八里區"
"249003","593-UM","2017/08/17 17:28:47","新北市八里區中山路二段315號","121.400616666667","25.147805","6502300","八里區"
"248005","077-UY","2017/08/17 13:58:51","新北市五股區中興路二段83巷26-6號","121.46011","25.0751066666667","6501500","五股區"
"234067","AAC-212","2017/08/17 16:17:19","新北市永和區福和路1號","121.526315","25.0096716666667","6500400","永和區"
"232007","290-BY","2017/08/17 08:48:09","新北市坪林區北宜路八段558號","121.718185","24.9093116666667","6502000","坪林區"
"244007","080-UY","2017/08/17 17:28:41","新北市林口區湖子17-3號","121.385108333333","25.0911833333333","6501700","林口區"
"244019","403-UM","2017/08/17 17:28:43","新北市林口區仁愛路二段239號","121.375126666667","25.0763916666667","6501700","林口區"
"244009","410-SL","2017/08/17 17:28:57","新北市林口區文化北路二段550巷20弄37號","121.378","25.091365","6501700","林口區"
"244017","656-BX","2017/08/17 17:28:46","新北市林口區粉寮路二段27號","121.400736666667","25.0844716666667","6501700","林口區"
"244023","657-BX","2017/08/17 17:28:54","新北市林口區隆林街15號","121.38893","25.075375","6501700","林口區"
"244013","658-BX","2017/08/17 17:28:54","新北市林口區粉寮路一段149-4號","121.399291666667","25.08145","6501700","林口區"
"244011","701-TV","2017/08/17 17:28:47","新北市林口區仁愛路一段398號","121.387088333333","25.0767233333333","6501700","林口區"
"244025","837-TS","2017/08/17 17:28:54","新北市林口區民族路157號","121.366988333333","25.0764566666667","6501700","林口區"
"244021","838-TS","2017/08/17 17:28:47","新北市林口區粉寮路二段227-1號","121.403766666667","25.09077","6501700","林口區"
"243016","680-BX","2017/08/17 15:49:51","新北市泰山區黎明路25號","121.421986666667","25.0606633333333","6501600","泰山區"
"231007","189-VK","2017/08/17 12:11:32","新北市新店區安華路28-1號","121.519595","24.9610916666667","6500600","新店區"
"231046","278-BY","2017/08/17 17:28:39","新北市新店區直潭路92號","121.530888333333","24.9375716666667","6500600","新店區"
"241011","013-R5","2017/08/17 17:28:53","新北市三重區介壽路39巷177號","121.502356666667","25.0705783333333","6500200","三重區"
"241009","060-VK","2017/08/17 17:28:52","新北市三重區車路頭街135號","121.484168333333","25.075865","6500200","三重區"
"241015","062-VK","2017/08/17 17:28:54","新北市三重區開元街1號","121.503518333333","25.0664583333333","6500200","三重區"
"241017","063-VK","2017/08/17 17:28:52","新北市三重區大同北路44巷25號","121.494448333333","25.063045","6500200","三重區"
"241024","065-VK","2017/08/17 17:28:52","新北市三重區大勇街82巷15弄5號","121.479918333333","25.071785","6500200","三重區"
"241026","066-VK","2017/08/17 17:28:54","新北市三重區文化南路42號","121.500328333333","25.06027","6500200","三重區"
"241002","090-VK","2017/08/17 17:28:57","新北市三重區五華街141巷58號","121.493548333333","25.08682","6500200","三重區"
"241003","091-VK","2017/08/17 17:28:58","新北市三重區富福街1號","121.489935","25.08311","6500200","三重區"
"241005","262-UM","2017/08/17 17:28:53","新北市蘆洲區重陽一街5號","121.481405","25.08116","6500200","三重區"
"241008","265-UM","2017/08/17 17:28:43","新北市三重區車路頭街139巷14號","121.484321666667","25.07621","6500200","三重區"
"241016","266-UM","2017/08/17 17:28:56","新北市三重區大同北路54巷1號","121.494301666667","25.0635733333333","6500200","三重區"
"241022","267-UM","2017/08/17 17:28:41","新北市三重區新北大道一段7號","121.489523333333","25.06132","6500200","三重區"
"241018","268-UM","2017/08/17 17:28:54","新北市三重區大同北路60巷24號","121.49361","25.0637033333333","6500200","三重區"
"241032","269-UM","2017/08/17 17:28:42","新北市三重區名源街20號","121.481946666667","25.0605","6500200","三重區"
"241013","270-UM","2017/08/17 17:28:51","新北市三重區仁愛街94號","121.495276666667","25.0738166666667","6500200","三重區"
"241007","398-BY","2017/08/17 17:28:56","新北市三重區三和路四段145巷108號","121.487121666667","25.0790833333333","6500200","三重區"
"241020","412-TH","2017/08/17 17:28:56","新北市三重區忠孝路一段133號","121.48847","25.071835","6500200","三重區"
"241019","478-VK","2017/08/17 17:28:38","新北市三重區自強路二段36號","121.489195","25.0694633333333","6500200","三重區"
"241030","480-VK","2017/08/17 17:28:54","新北市三重區集美街117號","121.490018333333","25.0529283333333","6500200","三重區"
"241014","543-UM","2017/08/17 17:28:54","新北市三重區長壽街48號","121.50049","25.0681983333333","6500200","三重區"
"241023","545-UM","2017/08/17 17:28:58","新北市三重區三民街146巷3弄2號","121.481638333333","25.0645883333333","6500200","三重區"
"241024","743-BX","2017/08/17 17:28:52","新北市三重區國道路一段58巷20號","121.481276666667","25.072115","6500200","三重區"
"241025","887-TS","2017/08/17 17:28:52","新北市三重區中正北路189號","121.477388333333","25.0696733333333","6500200","三重區"
"241012","941-UM","2017/08/17 17:28:57","新北市三重區仁興街28巷42號","121.498441666667","25.074915","6500200","三重區"
"241033","AAC-255","2017/08/17 17:29:01","新北市三重區興德路133號","121.470206666667","25.0529016666667","6500200","三重區"
"235013","186-VK","2017/08/17 16:33:11","新北市中和區員山路36巷13號","121.484191666667","24.9908533333333","6500300","中和區"
"235067","255-BX","2017/08/17 16:36:03","新北市中和區員山路36巷13號","121.484338333333","24.9912766666667","6500300","中和區"
"235061","378-QA","2017/08/17 15:34:41","新北市中和區員山路36巷13號","121.484201666667","24.9912766666667","6500300","中和區"
"235034","558-UM","2017/08/17 17:01:37","新北市中和區員山路36巷16-2號","121.48531","24.9914466666667","6500300","中和區"
"235062","800-TS","2017/08/17 17:25:32","新北市中和區員山路36巷16-3號","121.485038333333","24.99139","6500300","中和區"
"247020","893-R6","2017/08/17 17:28:42","新北市蘆洲區仁愛街102-7號","121.469851666667","25.0948633333333","6501400","蘆洲區"
"247010","546-UM","2017/08/17 17:28:59","新北市蘆洲區鷺江街12號","121.479371666667","25.0828133333333","6501400","蘆洲區"
"247018","500-BY","2017/08/17 17:28:48","新北市蘆洲區民義街20號","121.471375","25.0884683333333","6501400","蘆洲區"
"247008","339-TH","2017/08/17 17:28:59","新北市蘆洲區信義路34巷115號","121.475581666667","25.07705","6501400","蘆洲區"
"247024","337-TH","2017/08/17 17:28:45","新北市蘆洲區長興路296-6號","121.460431666667","25.08993","6501400","蘆洲區"
"247002","336-TH","2017/08/17 17:28:50","新北市蘆洲區永樂街38巷69號","121.458581666667","25.0904833333333","6501400","蘆洲區"
"247006","335-TH","2017/08/17 17:28:56","新北市蘆洲區長安街46巷21號","121.463951666667","25.0802333333333","6501400","蘆洲區"
"247014","057-VK","2017/08/17 17:28:58","新北市蘆洲區三民路38-1號","121.47553","25.0830066666667","6501400","蘆洲區"
"247004","056-VK","2017/08/17 17:28:39","新北市蘆洲區長安街233巷32號","121.458181666667","25.0824316666667","6501400","蘆洲區"
"247022","053-VK","2017/08/17 17:28:48","新北市蘆洲區中正路314號","121.464591666667","25.091035","6501400","蘆洲區"
"247012","007-UY","2017/08/17 17:28:44","新北市蘆洲區民族路80號","121.47771","25.0848483333333","6501400","蘆洲區"
"247016","001-UY","2017/08/17 17:28:47","新北市蘆洲區光華路70巷2號","121.467993333333","25.0830333333333","6501400","蘆洲區"
"228003","097-TW","2017/08/17 17:28:58","新北市貢寮區仁理村研海街62-2號","121.925745","25.0442883333333","6502600","貢寮區"
"228001","212-TW","2017/08/17 17:29:00","新北市貢寮區仁理村仁愛路39號","121.924976666667","25.0532866666667","6502600","貢寮區"
"228002","585-TW","2017/08/17 17:28:50","新北市貢寮區福隆里興隆街36號","121.941596666667","25.0170366666667","6502600","貢寮區"
"224010","AGQ-8101","2017/08/17 09:03:35","新北市瑞芳區民權街3-1號","121.809391666667","25.108195","6501200","瑞芳區"
"224006","676-BX","2017/08/17 17:28:42","新北市瑞芳區傑魚坑路173-2號","121.789496666667","25.109295","6501200","瑞芳區"
"224009","285-BY","2017/08/17 17:28:56","新北市瑞芳區汽車路50-2號","121.845815","25.1111266666667","6501200","瑞芳區"
"224008","275-VK","2017/08/17 17:28:58","新北市瑞芳區九芎橋路8號","121.83243","25.0901933333333","6501200","瑞芳區"
"224005","271-BY","2017/08/17 17:28:51","新北市瑞芳區明里路18號","121.871056666667","25.123145","6501200","瑞芳區"
"227004","642-TC","2017/08/17 17:28:55","新北市雙溪區平林里外平林62號","121.844423333333","25.03425","6502500","雙溪區"
"227010","400-TW","2017/08/17 17:28:45","新北市雙溪區三貂里政光路10號","121.851495","25.0721366666667","6502500","雙溪區"
"251009","008-UM","2017/08/17 17:29:00","新北市淡水區新生街88號","121.439531666667","25.1747183333333","6501000","淡水區"
"251004","009-UM","2017/08/17 17:28:41","新北市淡水區中正東路二段88巷15號","121.459038333333","25.150565","6501000","淡水區"
"251007","179-VK","2017/08/17 17:28:52","新北市淡水區民生路60號","121.462073333333","25.1379416666667","6501000","淡水區"
"251008","181-VK","2017/08/17 17:28:57","新北市淡水區大同路120巷16號","121.46308","25.1396783333333","6501000","淡水區"
"251014","182-VK","2017/08/17 17:28:52","新北市淡水區公埔子20-6號","121.469186666667","25.2277233333333","6501000","淡水區"
"251010","413-VK","2017/08/17 17:28:45","新北市淡水區中正路二段206號","121.426275","25.1890433333333","6501000","淡水區"
"251012","441-VK","2017/08/17 17:28:42","新北市淡水區北新路92號","121.446856666667","25.1784283333333","6501000","淡水區"
"251016","442-VK","2017/08/17 17:28:38","新北市淡水區社厝坑8-1號","121.469153333333","25.1914933333333","6501000","淡水區"
"251005","443-VK","2017/08/17 17:28:47","新北市淡水區鄧公路23巷2號","121.451005","25.1701983333333","6501000","淡水區"
"251001","559-UM","2017/08/17 17:28:44","新北市淡水區民權路92巷35-1號","121.462178333333","25.1267433333333","6501000","淡水區"
"251006","561-UM","2017/08/17 17:28:43","新北市淡水區大仁街5號","121.442211666667","25.1748416666667","6501000","淡水區"
"251011","650-BX","2017/08/17 17:28:51","新北市淡水區坪頂路718號","121.48254","25.158495","6501000","淡水區"
"251002","672-BX","2017/08/17 17:28:51","新北市淡水區中正路一段130號","121.422723333333","25.1786633333333","6501000","淡水區"
"251003","766-UM","2017/08/17 17:28:44","新北市淡水區中山路157號","121.440703333333","25.172855","6501000","淡水區"
"207003","550-UM","2017/08/17 17:28:49","新北市萬里區龜吼里日光路6巷16號","121.683551666667","25.1863116666667","6502800","萬里區"
"207004","225-TW","2017/08/17 17:28:46","新北市萬里區萬里里景美路18號","121.686136666667","25.1730583333333","6502800","萬里區"
"252006","073-UM","2017/08/17 16:20:17","新北市三芝區埔坪里埔頭坑41號","121.50446","25.26448","6502100","三芝區"
"252002","178-VK","2017/08/17 17:28:59","新北市三芝區忠孝街1-14號","121.505543333333","25.2539583333333","6502100","三芝區"
"252001","292-VK","2017/08/17 17:28:54","新北市三芝區淡金路一段3號","121.498083333333","25.2596666666667","6502100","三芝區"
"237012","275-BY","2017/08/17 17:28:50","新北市三峽區中山路459巷137號","121.349858333333","24.9340316666667","6500900","三峽區"
"237011","572-TV","2017/08/17 17:28:53","新北市三峽區中山路459巷163-3號","121.34876","24.93305","6500900","三峽區"
"237016","649-BX","2017/08/17 17:28:52","新北市三峽區中山路459巷163-3號","121.348563333333","24.932945","6500900","三峽區"
"242021","AAC-296","2017/08/17 17:28:52","新北市新莊區中港路7號","121.454836666667","25.037035","6500500","新莊區"
"242029","986-R7","2017/08/17 17:28:52","新北市新莊區復興路二段194號","121.459321666667","25.044355","6500500","新莊區"
"242048","751-BX","2017/08/17 17:28:52","新北市新莊區四維路210號","121.421466666667","25.0201033333333","6500500","新莊區"
"242058","705-TV","2017/08/17 17:28:48","新北市新莊區中正路499號","121.44067","25.033645","6500500","新莊區"
"242025","615-BX","2017/08/17 17:28:52","新北市新莊區中港路276號","121.453266666667","25.04412","6500500","新莊區"
"242023","613-BX","2017/08/17 17:28:40","新北市新莊區公園路35號","121.453061666667","25.0401433333333","6500500","新莊區"
"242027","612-BX","2017/08/17 17:28:47","新北市新莊區思源路46-1號","121.460175","25.0437066666667","6500500","新莊區"
"242036","566-BX","2017/08/17 17:28:41","新北市新莊區建國二路5-3號","121.43485","25.023675","6500500","新莊區"
"242042","497-BY","2017/08/17 17:28:49","新北市新莊區新樹路115號","121.4374","25.026635","6500500","新莊區"
"242004","442-UM","2017/08/17 17:28:48","新北市新莊區中港路293號","121.452885","25.0441983333333","6500500","新莊區"
"242046","441-UM","2017/08/17 17:29:00","新北市新莊區新樹路67巷8號","121.439706666667","25.0300166666667","6500500","新莊區"
"242051","440-UM","2017/08/17 17:28:46","新北市新莊區瓊林南路71-9號","121.43535","25.01603","6500500","新莊區"
"242031","415-TV","2017/08/17 17:28:55","新北市新莊區新泰路401巷5號","121.443208333333","25.0439983333333","6500500","新莊區"
"242002","413-TV","2017/08/17 17:28:56","新北市新莊區思明街1號","121.455355","25.03547","6500500","新莊區"
"242039","400-BY","2017/08/17 17:28:57","新北市新莊區民安路278號","121.427738333333","25.021475","6500500","新莊區"
"242061","362-BY","2017/08/17 17:28:41","新北市新莊區瓊林路190-2號","121.439488333333","25.0209433333333","6500500","新莊區"
"242034","133-UY","2017/08/17 17:28:50","新北市新莊區新莊路374號","121.449275","25.0335466666667","6500500","新莊區"
"242019","135-UY","2017/08/17 17:28:42","新北市新莊區中港路61號","121.455355","25.0384533333333","6500500","新莊區"
"242044","172-VK","2017/08/17 17:28:51","新北市新莊區富國路89號","121.420565","25.025785","6500500","新莊區"
"242007","173-VK","2017/08/17 17:28:57","新北市新莊區中華路二段46號","121.454148333333","25.0456883333333","6500500","新莊區"
"242013","175-VK","2017/08/17 17:28:57","新北市新莊區中誠街16巷2號","121.452003333333","25.048295","6500500","新莊區"
"242056","176-VK","2017/08/17 17:28:50","新北市新莊區新莊路364號","121.449508333333","25.03358","6500500","新莊區"
"242011","346-TH","2017/08/17 17:28:48","新北市新莊區中華路二段87號","121.452445","25.0491216666667","6500500","新莊區"
"242017","348-TH","2017/08/17 17:29:01","新北市新莊區中港路287號","121.45276","25.0439416666667","6500500","新莊區"
"242053","349-TH","2017/08/17 17:28:45","新北市新莊區瓊林南路305巷35號","121.435955","25.0053716666667","6500500","新莊區"
"242015","350-TH","2017/08/17 17:28:47","新北市新莊區新泰路157號","121.447778333333","25.03686","6500500","新莊區"
"242009","351-TH","2017/08/17 17:28:45","新北市新莊區中原路139號","121.454585","25.0543016666667","6500500","新莊區"
"238015","755-BX","2017/08/17 17:28:54","新北市樹林區大安路267號","121.418971666667","24.993695","6500700","樹林區"
"238023","601-UM","2017/08/17 17:28:49","新北市樹林區中正路433號","121.41484","25.0085466666667","6500700","樹林區"
"238019","599-UM","2017/08/17 17:28:49","新北市樹林區太平路1-3號","121.418546666667","24.9847583333333","6500700","樹林區"
"238018","571-TV","2017/08/17 17:28:53","新北市樹林區鎮前街269巷15號","121.420116666667","24.9853516666667","6500700","樹林區"
"238024","5061-A6","2017/08/17 17:28:47","新北市樹林區樹新路79巷26號","121.427138333333","24.9955466666667","6500700","樹林區"
"238022","312-TH","2017/08/17 17:28:44","新北市樹林區和平街21號","121.422165","24.98147","6500700","樹林區"
"238021","311-TH","2017/08/17 16:38:21","新北市樹林區西圳街一段203巷7號","121.393246666667","24.9598416666667","6500700","樹林區"
"238025","303-VK","2017/08/17 17:28:59","新北市樹林區保安街一段262號","121.41974","24.99689","6500700","樹林區"
"238017","283-BY","2017/08/17 17:28:53","新北市樹林區光武街34號","121.416658333333","25.0065583333333","6500700","樹林區"
"238014","282-BY","2017/08/17 17:28:57","新北市樹林區長壽街70巷35弄9號","121.421358333333","24.9951533333333","6500700","樹林區"
"238020","268-VK","2017/08/17 14:42:33","新北市樹林區中山路三段198號","121.386976666667","24.9690666666667","6500700","樹林區"
"238026","172-UY","2017/08/17 17:28:50","新北市樹林區味王街46巷11號","121.403696666667","24.9737033333333","6500700","樹林區"
"238016","169-UY","2017/08/17 17:28:57","新北市樹林區中山路一段80號","121.42346","24.9915766666667","6500700","樹林區"
"239007","AAC-297","2017/08/17 17:28:47","新北市鶯歌區中正一路62巷40號","121.354066666667","24.9553983333333","6500800","鶯歌區"
"239006","891-R6","2017/08/17 17:28:56","新北市鶯歌區福安街7巷24弄25號","121.33462","24.965895","6500800","鶯歌區"
"239008","527-UM","2017/08/17 17:28:51","新北市鶯歌區大湖路718號","121.332806666667","24.97652","6500800","鶯歌區"
"239005","526-UM","2017/08/17 17:28:52","桃園市八德區桃鶯路122號","121.328223333333","24.96999","6500800","鶯歌區"
"239001","417-VK","2017/08/17 17:28:56","新北市鶯歌區中正三路70號","121.33862","24.941315","6500800","鶯歌區"
"239003","360-BY","2017/08/17 17:28:52","新北市鶯歌區德昌街68號","121.333043333333","24.9598966666667","6500800","鶯歌區"
"239002","359-BY","2017/08/17 17:28:53","新北市鶯歌區國慶街82號","121.35025","24.9546083333333","6500800","鶯歌區"
"239004","193-VK","2017/08/17 17:28:46","新北市鶯歌區文化路479號","121.353531666667","24.9489133333333","6500800","鶯歌區"
"220104","560-BX","2017/08/17 16:22:59","新北市板橋區華東街1-10號","121.448231666667","24.9950266666667","6500100","板橋區"
"220018","AAC-253","2017/08/17 17:07:09","新北市板橋區民生路二段22號","121.472775","25.0166266666667","6500100","板橋區"
