"lineid","car","time","location","longitude","latitude","cityid","cityname"
"234007","207-UY","2017/08/17 18:18:55","新北市永和區仁愛路309號","121.50333","25.007835","6500400","永和區"
"234070","847-RS","2017/08/17 18:18:44","新北市永和區福和路1號","121.526393333333","25.0094566666667","6500400","永和區"
"234026","9371-KE","2017/08/17 18:18:43","新北市永和區豫溪街42巷16號","121.515368333333","25.009115","6500400","永和區"
"234011","9373-KE","2017/08/17 18:18:39","新北市永和區保福路二段158巷1號","121.509143333333","25.015085","6500400","永和區"
"249005","172-UM","2017/08/17 18:18:20","新北市八里區荖阡坑路15號","121.401321666667","25.1400716666667","6502300","八里區"
"249001","173-UM","2017/08/17 18:18:36","新北市八里區龍米路一段282號","121.451581666667","25.1294433333333","6502300","八里區"
"249004","303-UY","2017/08/17 18:18:42","新北市八里區觀海大道36號","121.430325","25.1604283333333","6502300","八里區"
"249002","305-UY","2017/08/17 18:18:46","新北市八里區龍形二街20號","121.450595","25.132785","6502300","八里區"
"249003","593-UM","2017/08/17 18:18:47","新北市八里區中華路二段341-1號","121.400145","25.1453433333333","6502300","八里區"
"248014","025-BX","2017/08/17 18:18:54","新北市五股區自強路19巷5-1號","121.434623333333","25.073825","6501500","五股區"
"248016","026-BX","2017/08/17 18:18:39","新北市五股區成泰路三段477巷18號","121.44986","25.09892","6501500","五股區"
"248006","077-UY","2017/08/17 18:18:56","新北市五股區中興路一段181號","121.464315","25.073845","6501500","五股區"
"248008","095-VK","2017/08/17 18:18:53","新北市五股區更洲路32巷8弄14號","121.459258333333","25.0796233333333","6501500","五股區"
"248020","225-UY","2017/08/17 18:18:50","新北市五股區孝義路44-1號","121.45438","25.1103483333333","6501500","五股區"
"248012","247-BX","2017/08/17 18:18:56","新北市五股區御史路1巷101弄2號","121.441016666667","25.09123","6501500","五股區"
"248010","272-BY","2017/08/17 18:18:50","新北市五股區成泰路一段139巷1弄1號","121.435238333333","25.0728866666667","6501500","五股區"
"248004","677-BX","2017/08/17 18:18:41","新北市五股區成泰路二段119號","121.438533333333","25.0846433333333","6501500","五股區"
"248002","678-BX","2017/08/17 18:18:40","新北市五股區西雲路66號","121.443603333333","25.091655","6501500","五股區"
"234067","AAC-212","2017/08/17 18:18:58","新北市永和區福和路1號","121.526376666667","25.0096016666667","6500400","永和區"
"232007","290-BY","2017/08/17 08:48:09","新北市坪林區北宜路八段558號","121.718185","24.9093116666667","6502000","坪林區"
"232011","375-UM","2017/08/17 18:18:44","新北市坪林區坪雙路一段43號","121.71177","24.9424866666667","6502000","坪林區"
"244007","080-UY","2017/08/17 18:18:41","新北市林口區中山路202-1號","121.387758333333","25.0791666666667","6501700","林口區"
"244019","403-UM","2017/08/17 18:18:43","新北市林口區文化一路一段36號","121.370895","25.0692583333333","6501700","林口區"
"244009","410-SL","2017/08/17 18:18:57","新北市林口區中山路262-1號","121.384743333333","25.0799583333333","6501700","林口區"
"244017","656-BX","2017/08/17 18:18:46","新北市林口區八德路48巷76號","121.367191666667","25.0674266666667","6501700","林口區"
"244023","657-BX","2017/08/17 18:18:54","新北市林口區仁愛路二段13號","121.385831666667","25.0761983333333","6501700","林口區"
"244013","658-BX","2017/08/17 18:18:54","新北市林口區中山路160巷2號","121.390708333333","25.0791466666667","6501700","林口區"
"244011","701-TV","2017/08/17 18:18:47","新北市林口區新寮1-65號","121.392753333333","25.0764616666667","6501700","林口區"
"244025","837-TS","2017/08/17 18:18:54","新北市林口區南勢二街62號","121.355768333333","25.0694783333333","6501700","林口區"
"244021","838-TS","2017/08/17 18:18:46","新北市林口區自強一街54號","121.399486666667","25.0773266666667","6501700","林口區"
"243013","AAD-798","2017/08/17 18:18:57","新北市泰山區南林路89-4號","121.415468333333","25.0511933333333","6501600","泰山區"
"243016","680-BX","2017/08/17 18:18:20","新北市泰山區犁頭窠3-1號","121.422576666667","25.0605516666667","6501600","泰山區"
"222003","436-BY","2017/08/17 18:18:49","新北市深坑區文山路一段64號","121.623571666667","25.0005383333333","6501800","深坑區"
"222002","659-BX","2017/08/17 18:18:52","新北市深坑區文山路一段62巷25號","121.621785","25.00086","6501800","深坑區"
"222001","696-SL","2017/08/17 18:18:56","新北市深坑區北深路二段51號","121.618971666667","25.0040866666667","6501800","深坑區"
"231041","002-UM","2017/08/17 18:18:40","新北市新店區安華路28-1號","121.519898333333","24.96084","6500600","新店區"
"231059","046-UY","2017/08/17 18:18:53","新北市新店區安華路28-1號","121.519565","24.9607916666667","6500600","新店區"
"231061","047-UY","2017/08/17 18:18:48","新北市新店區安華路28-1號","121.519206666667","24.96088","6500600","新店區"
"231060","106-UY","2017/08/17 18:18:41","新北市新店區安華路28-1號","121.519733333333","24.96074","6500600","新店區"
"231051","107-UY","2017/08/17 18:18:59","新北市新店區安華路28-1號","121.519286666667","24.96137","6500600","新店區"
"231047","108-UY","2017/08/17 16:30:06","新北市新店區安華路28-1號","121.519403333333","24.9611716666667","6500600","新店區"
"231052","187-VK","2017/08/17 18:18:54","新北市新店區安康路一段226號","121.523585","24.9635533333333","6500600","新店區"
"231064","188-VK","2017/08/17 02:19:22","新北市新店區安華路28-1號","121.519355","24.961275","6500600","新店區"
"231007","189-VK","2017/08/17 12:11:32","新北市新店區安華路28-1號","121.519595","24.9610916666667","6500600","新店區"
"231057","256-BX","2017/08/17 18:18:53","新北市新店區安華路28-1號","121.519766666667","24.9610533333333","6500600","新店區"
"231046","278-BY","2017/08/17 18:18:39","新北市新店區直潭七街60號","121.532271666667","24.9398233333333","6500600","新店區"
"231050","AAD-862","2017/08/17 16:33:29","新北市新店區安華路28-1號","121.519708333333","24.9612066666667","6500600","新店區"
"231058","3712-VJ","2017/08/17 18:18:38","新北市新店區環河路29巷1號","121.536156666667","24.9611316666667","6500600","新店區"
"231055","3713-VJ","2017/08/17 18:18:39","新北市新店區安康路一段89號","121.529201666667","24.9614716666667","6500600","新店區"
"231056","4716-K9","2017/08/17 18:18:59","新北市新店區中央路81號","121.532298333333","24.9765833333333","6500600","新店區"
"231067","4772-VM","2017/08/17 18:18:50","新北市新店區安華路3號","121.51904","24.9604466666667","6500600","新店區"
"231065","512-UM","2017/08/17 16:09:29","新北市新店區安華路28-1號","121.519063333333","24.9612016666667","6500600","新店區"
"231054","513-UM","2017/08/17 16:23:29","新北市新店區安華路28-1號","121.519591666667","24.9611383333333","6500600","新店區"
"231042","616-UM","2017/08/17 18:18:56","新北市新店區安華路1-1號","121.51943","24.9603966666667","6500600","新店區"
"231040","619-UM","2017/08/17 18:18:37","新北市新店區安華路28-1號","121.519388333333","24.9610066666667","6500600","新店區"
"231063","645-TV","2017/08/17 18:18:38","新北市新店區安華路28-1號","121.519166666667","24.9605883333333","6500600","新店區"
"231049","719-UM","2017/08/17 16:32:32","新北市新店區安華路28-1號","121.519486666667","24.9612466666667","6500600","新店區"
"231062","720-UM","2017/08/17 18:18:44","新北市新店區安華路28-1號","121.519193333333","24.96107","6500600","新店區"
"231044","897-TW","2017/08/17 18:18:41","新北市新店區安華路28-1號","121.519816666667","24.9608883333333","6500600","新店區"
"231045","898-TW","2017/08/17 18:18:56","新北市新店區安華路28-1號","121.519248333333","24.9609966666667","6500600","新店區"
"241033","AAC-255","2017/08/17 18:18:41","新北市三重區中興北街42巷20號","121.468953333333","25.0492533333333","6500200","三重區"
"235066","003-UY","2017/08/17 18:18:57","新北市中和區中山路二段195號","121.499933333333","25.00261","6500300","中和區"
"235064","005-UY","2017/08/17 18:18:44","新北市中和區中正路224號","121.496266666667","24.9939316666667","6500300","中和區"
"235063","006-UY","2017/08/17 18:18:43","新北市中和區中正路545巷1號","121.487595","24.9935283333333","6500300","中和區"
"235056","096-UM","2017/08/17 18:18:52","新北市中和區中山路二段479號","121.483078333333","25.0048266666667","6500300","中和區"
"235039","097-UM","2017/08/17 18:18:44","新北市中和區中正路271-1號","121.495793333333","24.9936266666667","6500300","中和區"
"235065","098-UM","2017/08/17 18:18:41","新北市中和區莊敬路49巷18號","121.501621666667","25.0060966666667","6500300","中和區"
"235040","150-BY","2017/08/17 18:18:48","新北市中和區和城路一段271巷1號","121.48554","24.9919083333333","6500300","中和區"
"235058","151-BY","2017/08/17 18:18:47","新北市中和區圓通路367巷21-1號","121.492511666667","24.9864716666667","6500300","中和區"
"235055","183-VK","2017/08/17 18:18:43","新北市中和區員山路36巷16-3號","121.48513","24.991485","6500300","中和區"
"235038","185-VK","2017/08/17 18:18:50","新北市中和區大智街57號","121.521083333333","24.99206","6500300","中和區"
"235049","186-VK","2017/08/17 18:18:46","新北市中和區中正路637巷60弄61號","121.485493333333","24.992585","6500300","中和區"
"235067","255-BX","2017/08/17 18:18:36","新北市中和區和城路一段271巷1號","121.485416666667","24.9918933333333","6500300","中和區"
"235072","301-VK","2017/08/17 18:18:51","新北市中和區中正路637巷52弄1號","121.485498333333","24.9934166666667","6500300","中和區"
"235043","352-BY","2017/08/17 18:18:56","新北市中和區景平路373號","121.504183333333","24.9932683333333","6500300","中和區"
"235051","376-QA","2017/08/17 18:18:52","新北市中和區信義街36號","121.511145","24.9889883333333","6500300","中和區"
"235068","377-QA","2017/08/17 18:18:53","新北市中和區員山路36巷16-3號","121.48516","24.9910116666667","6500300","中和區"
"235061","378-QA","2017/08/17 18:18:22","新北市中和區民德路204號","121.468333333333","24.99851","6500300","中和區"
"235050","4979-A6","2017/08/17 18:18:53","新北市中和區捷運路61巷12號","121.508796666667","24.9893933333333","6500300","中和區"
"235069","4980-A6","2017/08/17 18:18:50","新北市中和區連城路145號","121.495741666667","24.9985716666667","6500300","中和區"
"235042","551-UM","2017/08/17 18:18:50","新北市中和區景平路131號","121.514856666667","24.992065","6500300","中和區"
"235070","558-UM","2017/08/17 18:18:52","新北市中和區中正路527號","121.487788333333","24.9934833333333","6500300","中和區"
"235045","565-BX","2017/08/17 18:18:43","新北市中和區中正路19號","121.502983333333","24.9934866666667","6500300","中和區"
"235054","640-BX","2017/08/17 18:18:39","新北市中和區莒光路203號","121.472506666667","24.9988566666667","6500300","中和區"
"235047","732-UM","2017/08/17 18:18:41","新北市中和區中正路169號","121.498136666667","24.99363","6500300","中和區"
"235046","733-UM","2017/08/17 18:18:42","新北市中和區錦和路105號","121.490161666667","24.9953016666667","6500300","中和區"
"235062","800-TS","2017/08/17 18:18:40","新北市中和區景平路784-1號","121.495835","25.0056616666667","6500300","中和區"
"235057","801-TS","2017/08/17 18:18:49","新北市中和區連城路378號","121.480921666667","24.9950633333333","6500300","中和區"
"235052","805-TS","2017/08/17 18:18:37","新北市中和區南山路300號","121.507923333333","24.9870366666667","6500300","中和區"
"235048","896-TW","2017/08/17 18:18:45","新北市中和區中正路637巷52弄1號","121.485466666667","24.99332","6500300","中和區"
"235053","900-TW","2017/08/17 18:18:45","新北市中和區員山路36巷16-3號","121.484786666667","24.9913083333333","6500300","中和區"
"235037","AAC-213","2017/08/17 18:18:47","新北市中和區景平路149號","121.51383","24.9921833333333","6500300","中和區"
"226004","312-R5","2017/08/17 18:18:45","新北市平溪區薯榔里一坑路80-1號","121.709698333333","25.0228116666667","6502400","平溪區"
"228003","097-TW","2017/08/17 18:18:58","新北市貢寮區真理里美艷山街53-2號","121.923288333333","25.069275","6502600","貢寮區"
"228001","212-TW","2017/08/17 18:18:40","新北市貢寮區真理里新港街26巷55弄2-1號","121.927381666667","25.052835","6502600","貢寮區"
"228002","585-TW","2017/08/17 18:18:50","新北市貢寮區福連里馬崗街1號","121.9982","25.01589","6502600","貢寮區"
"224006","676-BX","2017/08/17 18:18:42","新北市瑞芳區民權街3-2號","121.808116666667","25.107495","6501200","瑞芳區"
"224002","639-TC","2017/08/17 18:18:43","新北市瑞芳區三爪子坑路117號","121.810515","25.1070866666667","6501200","瑞芳區"
"224011","420-VK","2017/08/17 18:18:47","新北市瑞芳區輕便路30號","121.846178333333","25.1108383333333","6501200","瑞芳區"
"224009","285-BY","2017/08/17 18:18:56","新北市瑞芳區金光路103號","121.854425","25.10649","6501200","瑞芳區"
"224008","275-VK","2017/08/17 18:18:58","新北市瑞芳區逢甲路37-1號","121.80891","25.10893","6501200","瑞芳區"
"224007","273-VK","2017/08/17 18:18:46","新北市瑞芳區大埔路59號","121.764385","25.1019583333333","6501200","瑞芳區"
"224005","271-BY","2017/08/17 18:18:56","新北市瑞芳區建基路二段112-2號","121.811565","25.1326216666667","6501200","瑞芳區"
"227004","642-TC","2017/08/17 18:18:44","新北市雙溪區新基里新基北街72-1號","121.869585","25.0392566666667","6502500","雙溪區"
"227010","400-TW","2017/08/17 18:18:50","新北市雙溪區牡丹里牡丹73號","121.851718333333","25.05936","6502500","雙溪區"
"253006","032-BX","2017/08/17 18:18:50","新北市石門區老梅路95號","121.546675","25.289215","6502200","石門區"
"253005","295-VK","2017/08/17 18:18:44","新北市石門區中央路37-1號","121.568035","25.294715","6502200","石門區"
"208002","742-BX","2017/08/17 18:18:54","新北市金山區清泉里清水路16巷12號","121.63324","25.2304633333333","6502700","金山區"
"208003","665-BX","2017/08/17 18:18:40","新北市金山區民生路196號","121.645451666667","25.2218183333333","6502700","金山區"
"208001","761-BX","2017/08/17 18:18:54","新北市金山區自強路21號","121.640413333333","25.2163533333333","6502700","金山區"
"251004","009-UM","2017/08/17 18:18:56","新北市淡水區民族路35號","121.462371666667","25.1356633333333","6501000","淡水區"
"251008","181-VK","2017/08/17 18:18:57","新北市淡水區淡金路137號","121.457473333333","25.1644116666667","6501000","淡水區"
"251014","182-VK","2017/08/17 18:18:52","新北市淡水區崙頂16-3號","121.487993333333","25.2218766666667","6501000","淡水區"
"251010","413-VK","2017/08/17 18:18:45","新北市淡水區淡海路196號","121.420251666667","25.1853683333333","6501000","淡水區"
"251012","441-VK","2017/08/17 18:18:42","新北市淡水區北新路二段77-5號","121.480498333333","25.1855566666667","6501000","淡水區"
"251016","442-VK","2017/08/17 18:18:38","新北市淡水區淡金路三段70巷1號","121.448261666667","25.2006583333333","6501000","淡水區"
"251005","443-VK","2017/08/17 18:18:47","新北市淡水區水源街一段122巷40號","121.446996666667","25.1705666666667","6501000","淡水區"
"251001","559-UM","2017/08/17 18:18:47","新北市淡水區自立路1巷29號","121.462211666667","25.1292783333333","6501000","淡水區"
"251006","561-UM","2017/08/17 18:18:43","新北市淡水區新民街21號","121.439396666667","25.1755133333333","6501000","淡水區"
"251011","650-BX","2017/08/17 18:18:50","新北市淡水區坪頂路55號","121.458531666667","25.162715","6501000","淡水區"
"251002","672-BX","2017/08/17 18:18:51","新北市淡水區中正東路一段55號","121.452638333333","25.1626516666667","6501000","淡水區"
"251003","766-UM","2017/08/17 18:18:43","新北市淡水區北新路135號","121.44936","25.1788316666667","6501000","淡水區"
"207003","550-UM","2017/08/17 18:18:49","新北市萬里區野柳里港東路24號","121.68753","25.2037166666667","6502800","萬里區"
"207004","225-TW","2017/08/17 18:18:46","新北市萬里區中幅里中福路125號","121.676078333333","25.1659283333333","6502800","萬里區"
"252006","073-UM","2017/08/17 16:20:17","新北市三芝區埔坪里埔頭坑41號","121.50446","25.26448","6502100","三芝區"
"252002","178-VK","2017/08/17 18:18:39","新北市三芝區中山路二段41號","121.50297","25.2550933333333","6502100","三芝區"
"252003","249-BX","2017/08/17 18:18:40","新北市三芝區古庄里四棧橋39號","121.482406666667","25.2637816666667","6502100","三芝區"
"252001","292-VK","2017/08/17 18:18:54","新北市三芝區中興街二段2號","121.498341666667","25.256725","6502100","三芝區"
"237004","078-UY","2017/08/17 18:18:28","新北市三峽區大埔路323號","121.369201666667","24.8991766666667","6500900","三峽區"
"237007","153-BY","2017/08/17 18:18:51","新北市三峽區中正路二段377號","121.365176666667","24.90841","6500900","三峽區"
"237009","210-TH","2017/08/17 18:18:43","新北市三峽區大仁路2號","121.366831666667","24.937695","6500900","三峽區"
"237013","252-BX","2017/08/17 18:18:42","新北市三峽區永安街46-2號","121.376706666667","24.9305083333333","6500900","三峽區"
"237012","275-BY","2017/08/17 18:18:50","新北市三峽區民生街1巷5-9號","121.378645","24.9359866666667","6500900","三峽區"
"237008","302-VK","2017/08/17 18:18:44","新北市三峽區白雞47號","121.38278","24.912335","6500900","三峽區"
"237014","433-BY","2017/08/17 18:18:46","新北市三峽區復興路110巷1弄11號","121.37244","24.9382183333333","6500900","三峽區"
"237006","5529-G3","2017/08/17 18:18:41","新北市三峽區溪東路240號","121.408366666667","24.9316933333333","6500900","三峽區"
"237011","572-TV","2017/08/17 18:18:53","新北市三峽區溪東路182號","121.406951666667","24.9324316666667","6500900","三峽區"
"237016","649-BX","2017/08/17 18:18:52","新北市三峽區紫微路19-1號","121.424285","24.920775","6500900","三峽區"
"237010","706-TV","2017/08/17 18:18:44","新北市三峽區民族街90號","121.36955","24.929635","6500900","三峽區"
"237005","AKY-6261","2017/08/17 18:18:41","新北市三峽區秀川街26巷3號","121.371466666667","24.934265","6500900","三峽區"
"236071","105-UM","2017/08/17 18:18:49","新北市土城區明德路一段128巷19號","121.462981666667","24.9787666666667","6501300","土城區"
"236042","107-UM","2017/08/17 18:18:49","新北市土城區裕生路21巷2弄1號","121.448596666667","24.9871633333333","6501300","土城區"
"236078","166-UM","2017/08/17 18:18:52","新北市土城區永安街115巷24號","121.428985","24.963075","6501300","土城區"
"236030","253-BX","2017/08/17 18:18:56","新北市土城區中央路二段180巷15號","121.440978333333","24.9765733333333","6501300","土城區"
"236026","269-VK","2017/08/17 18:18:44","新北市土城區承天路18號","121.439531666667","24.9634516666667","6501300","土城區"
"236014","270-VK","2017/08/17 18:18:44","新北市土城區立清街69號","121.460316666667","24.9872916666667","6501300","土城區"
"236037","271-VK","2017/08/17 18:18:56","新北市土城區青雲路483巷9號","121.459385","24.9735933333333","6501300","土城區"
"236021","401-BY","2017/08/17 18:18:54","新北市土城區延吉街349號","121.464685","24.9840833333333","6501300","土城區"
"236058","912-UM","2017/08/17 18:18:40","新北市土城區中央路四段199號","121.414668333333","24.956435","6501300","土城區"
"236051","913-UM","2017/08/17 18:18:51","新北市土城區明德路一段369號","121.455618333333","24.9778916666667","6501300","土城區"
"236062","915-UM","2017/08/17 18:18:49","新北市土城區金城路三段253號","121.471725","24.9899566666667","6501300","土城區"
"236053","AAC-216","2017/08/17 18:18:53","新北市土城區中華路二段98號","121.438038333333","24.97446","6501300","土城區"
"242021","AAC-296","2017/08/17 18:18:52","新北市新莊區新興街33號","121.450695","25.0375216666667","6500500","新莊區"
"242029","986-R7","2017/08/17 18:18:52","新北市新莊區中平路181號","121.444681666667","25.0490833333333","6500500","新莊區"
"242048","751-BX","2017/08/17 18:18:52","新北市新莊區龍安路249巷1號","121.418995","25.0204983333333","6500500","新莊區"
"242058","705-TV","2017/08/17 18:18:48","新北市新莊區新北大道七段770號","121.41279","25.0250933333333","6500500","新莊區"
"242025","615-BX","2017/08/17 18:18:52","新北市新莊區五工三路95號","121.458158333333","25.065485","6500500","新莊區"
"242027","612-BX","2017/08/17 18:18:47","新北市新莊區幸福路819號","121.445488333333","25.0489916666667","6500500","新莊區"
"242036","566-BX","2017/08/17 18:18:41","新北市新莊區後港一路51號","121.426008333333","25.0264616666667","6500500","新莊區"
"242042","497-BY","2017/08/17 18:18:49","新北市新莊區雙鳳路119號","121.413483333333","25.0280566666667","6500500","新莊區"
"242046","441-UM","2017/08/17 18:18:40","新北市新莊區中正路829巷22弄33號","121.42093","25.0267783333333","6500500","新莊區"
"242051","440-UM","2017/08/17 18:18:46","新北市新莊區民安西路72號","121.42726","25.0199883333333","6500500","新莊區"
"242031","415-TV","2017/08/17 18:18:55","新北市新莊區新泰路255巷68號","121.443416666667","25.0395183333333","6500500","新莊區"
"242002","413-TV","2017/08/17 18:18:56","新北市新莊區環漢路二段385號","121.451163333333","25.0326516666667","6500500","新莊區"
"242061","362-BY","2017/08/17 18:18:55","新北市新莊區新樹路69-34號","121.438131666667","25.028865","6500500","新莊區"
"242034","133-UY","2017/08/17 18:18:50","新北市新莊區新泰路61號","121.449513333333","25.034135","6500500","新莊區"
"242044","172-VK","2017/08/17 18:18:57","新北市新莊區鳳山街52號","121.41427","25.0257333333333","6500500","新莊區"
"242007","173-VK","2017/08/17 18:18:37","新北市新莊區中華路二段82號","121.453793333333","25.04685","6500500","新莊區"
"242056","176-VK","2017/08/17 18:18:50","新北市新莊區瓊林路59-17號","121.442245","25.025015","6500500","新莊區"
"242011","346-TH","2017/08/17 18:18:58","新北市新莊區中港路591巷17號","121.450268333333","25.0524083333333","6500500","新莊區"
"242017","348-TH","2017/08/17 18:18:41","新北市新莊區中華路一段6號","121.452055","25.0365583333333","6500500","新莊區"
"242053","349-TH","2017/08/17 18:18:45","新北市新莊區民安西路394號","121.428501666667","25.0102966666667","6500500","新莊區"
"242015","350-TH","2017/08/17 18:18:52","新北市新莊區中和街112號","121.447618333333","25.04729","6500500","新莊區"
"242009","351-TH","2017/08/17 18:18:45","新北市新莊區中平路82巷7號","121.445231666667","25.0448683333333","6500500","新莊區"
"238015","755-BX","2017/08/17 18:18:54","新北市樹林區文化街112巷27號","121.417176666667","24.9904483333333","6500700","樹林區"
"238023","601-UM","2017/08/17 18:18:49","新北市樹林區三福街67巷4號","121.407726666667","25.0158916666667","6500700","樹林區"
"238019","599-UM","2017/08/17 18:18:49","新北市樹林區中華路229號","121.418753333333","24.9808433333333","6500700","樹林區"
"238018","571-TV","2017/08/17 18:18:53","新北市樹林區博愛一街6號","121.425285","24.9910416666667","6500700","樹林區"
"238021","311-TH","2017/08/17 18:18:38","新北市樹林區柑園街二段18號","121.387985","24.95584","6500700","樹林區"
"238025","303-VK","2017/08/17 18:18:39","新北市樹林區保安街一段287-5號","121.41889","24.9973483333333","6500700","樹林區"
"238017","283-BY","2017/08/17 18:18:53","新北市樹林區中正路665號","121.41223","25.0131566666667","6500700","樹林區"
"238014","282-BY","2017/08/17 18:18:57","新北市樹林區潭興街107巷21弄1號","121.424103333333","24.9988583333333","6500700","樹林區"
"238020","268-VK","2017/08/17 14:42:33","新北市樹林區中山路三段198號","121.386976666667","24.9690666666667","6500700","樹林區"
"238026","172-UY","2017/08/17 18:18:50","新北市樹林區佳園路一段80巷2號","121.393253333333","24.96971","6500700","樹林區"
"238016","169-UY","2017/08/17 18:18:57","新北市樹林區文化街28號","121.419361666667","24.9877316666667","6500700","樹林區"
"239007","AAC-297","2017/08/17 18:18:47","新北市鶯歌區尖山埔路72號","121.34828","24.951015","6500800","鶯歌區"
"239006","891-R6","2017/08/17 18:18:37","新北市鶯歌區德昌街140巷36號","121.332405","24.9618983333333","6500800","鶯歌區"
"239008","527-UM","2017/08/17 18:18:51","新北市鶯歌區國際一路14號","121.336215","24.976555","6500800","鶯歌區"
"239005","526-UM","2017/08/17 18:18:52","新北市鶯歌區鳳七路101巷8號","121.329576666667","24.9704766666667","6500800","鶯歌區"
"239001","417-VK","2017/08/17 18:18:56","新北市鶯歌區國中街108號","121.340168333333","24.9402983333333","6500800","鶯歌區"
"239003","360-BY","2017/08/17 18:18:51","新北市鶯歌區福安街58號","121.335588333333","24.965195","6500800","鶯歌區"
"239002","359-BY","2017/08/17 18:18:53","新北市鶯歌區中正一路60號","121.352388333333","24.9540033333333","6500800","鶯歌區"
"221008","489-VK","2017/08/17 18:18:51","新北市汐止區康寧街706-1號","121.638148333333","25.0727666666667","6501100","汐止區"
"221036","130-UY","2017/08/17 18:18:38","新北市汐止區長安路18號","121.66766","25.0777916666667","6501100","汐止區"
"221015","131-UY","2017/08/17 18:18:53","新北市汐止區鄉長路二段23巷16號","121.66761","25.0830366666667","6501100","汐止區"
"221010","269-BY","2017/08/17 18:18:50","新北市汐止區汐萬路二段256號","121.645931666667","25.0892633333333","6501100","汐止區"
"221031","277-VK","2017/08/17 18:18:46","新北市汐止區中興路163號","121.631023333333","25.0662466666667","6501100","汐止區"
"221012","278-VK","2017/08/17 18:18:49","新北市汐止區保長路35巷15弄5號","121.673045","25.0802883333333","6501100","汐止區"
"221023","279-VK","2017/08/17 18:18:47","新北市汐止區中興路244號","121.62947","25.0681666666667","6501100","汐止區"
"221032","280-BY","2017/08/17 18:18:55","新北市汐止區民權街二段109巷34號","121.619946666667","25.0461966666667","6501100","汐止區"
"221027","281-BY","2017/08/17 18:18:39","新北市汐止區和平街6巷5弄2號","121.663576666667","25.0718183333333","6501100","汐止區"
"221038","297-VK","2017/08/17 18:18:47","新北市汐止區仁愛路197號","121.664611666667","25.0657266666667","6501100","汐止區"
"221029","298-VK","2017/08/17 18:18:52","新北市汐止區汐萬路一段312號","121.650336666667","25.0754716666667","6501100","汐止區"
"221021","299-VK","2017/08/17 18:18:46","新北市汐止區龍安路202巷52號","121.65292","25.06381","6501100","汐止區"
"221035","622-UM","2017/08/17 18:18:52","新北市汐止區大同路二段183號","121.652173333333","25.0642366666667","6501100","汐止區"
"221025","623-UM","2017/08/17 18:18:39","新北市汐止區勤進路12巷42號","121.659111666667","25.0628316666667","6501100","汐止區"
"221033","647-BX","2017/08/17 18:18:40","新北市汐止區宜興街33巷1號","121.621958333333","25.0420883333333","6501100","汐止區"
"221002","707-TV","2017/08/17 18:18:47","新北市汐止區福德一路213巷35號","121.635861666667","25.0647933333333","6501100","汐止區"
"221018","753-BX","2017/08/17 18:18:56","新北市汐止區茄苳路72巷9號","121.666616666667","25.0702133333333","6501100","汐止區"
"220104","560-BX","2017/08/17 16:22:59","新北市板橋區華東街1-10號","121.448231666667","24.9950266666667","6500100","板橋區"
"220018","AAC-253","2017/08/17 17:07:09","新北市板橋區民生路二段22號","121.472775","25.0166266666667","6500100","板橋區"
