"lineid","car","time","location","longitude","latitude","cityid","cityname"
"234046","148-BY","2017/08/17 18:48:55","新北市永和區秀朗路二段126巷30號","121.524663333333","25.0008966666667","6500400","永和區"
"234013","149-BY","2017/08/17 18:48:58","新北市永和區保福路二段131號","121.50972","25.013925","6500400","永和區"
"234007","207-UY","2017/08/17 18:48:54","新北市永和區永和路二段192號","121.51557","25.0136466666667","6500400","永和區"
"234081","298-R6","2017/08/17 18:48:51","新北市永和區永利路108號","121.521225","25.0033966666667","6500400","永和區"
"234038","336-UY","2017/08/17 18:48:47","新北市永和區成功路二段213號","121.526593333333","24.99581","6500400","永和區"
"234064","337-UY","2017/08/17 18:48:43","新北市永和區環河東路二段92號","121.524446666667","25.010615","6500400","永和區"
"234086","338-UY","2017/08/17 18:48:41","新北市永和區中正路3-1號","121.513946666667","24.9955266666667","6500400","永和區"
"234054","553-UM","2017/08/17 18:48:49","新北市永和區竹林路64號","121.518255","25.01349","6500400","永和區"
"234017","745-BX","2017/08/17 18:48:42","新北市永和區永和路二段405巷3號","121.51529","25.0172383333333","6500400","永和區"
"234030","746-BX","2017/08/17 18:48:50","新北市永和區得和路355號","121.524333333333","24.9994966666667","6500400","永和區"
"234061","AAD-866","2017/08/17 18:48:57","新北市永和區福和路309巷1號","121.51634","25.0070833333333","6500400","永和區"
"234070","847-RS","2017/08/17 18:48:44","新北市永和區竹林路96巷11號","121.519095","25.0120566666667","6500400","永和區"
"234042","862-TW","2017/08/17 18:48:48","新北市永和區永貞路308號","121.511871666667","25.0048666666667","6500400","永和區"
"234050","863-TW","2017/08/17 18:48:54","新北市永和區保安路2號","121.510816666667","25.0174966666667","6500400","永和區"
"234026","9371-KE","2017/08/17 18:48:43","新北市永和區自由街56號","121.513731666667","25.0059433333333","6500400","永和區"
"234011","9373-KE","2017/08/17 18:48:39","新北市永和區文化路122號","121.513138333333","25.01533","6500400","永和區"
"249005","172-UM","2017/08/17 18:48:56","新北市八里區長道坑16-3號","121.39597","25.11546","6502300","八里區"
"249001","173-UM","2017/08/17 18:48:56","新北市八里區龍米路二段16號","121.448943333333","25.1391333333333","6502300","八里區"
"248016","026-BX","2017/08/17 18:48:59","新北市五股區凌雲路一段83巷44號","121.449038333333","25.1012566666667","6501500","五股區"
"248006","077-UY","2017/08/17 18:48:56","新北市五股區中興路一段171巷71號","121.464493333333","25.071255","6501500","五股區"
"248008","095-VK","2017/08/17 18:48:53","新北市五股區中興路一段151巷13號","121.465216666667","25.072615","6501500","五股區"
"248020","225-UY","2017/08/17 18:48:50","新北市五股區凌雲路三段35-1號","121.430675","25.117145","6501500","五股區"
"248012","247-BX","2017/08/17 18:48:56","新北市五股區成泰路二段147巷6號","121.437706666667","25.0891266666667","6501500","五股區"
"248010","272-BY","2017/08/17 18:48:51","新北市五股區水碓九路55號","121.429281666667","25.07227","6501500","五股區"
"248004","677-BX","2017/08/17 18:48:59","新北市五股區民義路二段46-6號","121.413576666667","25.1017033333333","6501500","五股區"
"248002","678-BX","2017/08/17 18:49:00","新北市五股區成洲三路2號","121.450731666667","25.0990316666667","6501500","五股區"
"234023","9380-KE","2017/08/17 18:48:47","新北市永和區竹林路119巷45號","121.521855","25.0118616666667","6500400","永和區"
"234077","969-R7","2017/08/17 18:48:46","新北市永和區中正路42巷14號","121.513513333333","24.9940733333333","6500400","永和區"
"234074","AAC-211","2017/08/17 18:48:55","新北市永和區福和路1號","121.526635","25.0098283333333","6500400","永和區"
"234067","AAC-212","2017/08/17 18:48:58","新北市永和區中和路625號","121.512996666667","25.00487","6500400","永和區"
"234003","AAC-295","2017/08/17 18:48:55","新北市永和區中正路620號","121.516916666667","25.0078683333333","6500400","永和區"
"232007","290-BY","2017/08/17 08:48:09","新北市坪林區北宜路八段558號","121.718185","24.9093116666667","6502000","坪林區"
"232011","375-UM","2017/08/17 18:48:44","新北市坪林區坪雙路一段43號","121.711806666667","24.9425016666667","6502000","坪林區"
"244007","080-UY","2017/08/17 18:48:41","新北市林口區太平嶺2-3號","121.377571666667","25.11257","6501700","林口區"
"244019","403-UM","2017/08/17 18:48:43","新北市林口區忠孝路584號","121.375428333333","25.068235","6501700","林口區"
"244009","410-SL","2017/08/17 18:48:57","新北市林口區竹林路320巷3號","121.39114","25.0823783333333","6501700","林口區"
"244017","656-BX","2017/08/17 18:48:46","新北市林口區文化二路一段20巷51號","121.365305","25.0665433333333","6501700","林口區"
"244023","657-BX","2017/08/17 18:48:54","新北市林口區文化三路二段211巷95-1號","121.375495","25.0845733333333","6501700","林口區"
"244013","658-BX","2017/08/17 18:48:54","新北市林口區文化一路二段92號","121.38192","25.0786533333333","6501700","林口區"
"244011","701-TV","2017/08/17 18:48:47","新北市林口區中正路6號","121.396453333333","25.0774383333333","6501700","林口區"
"244025","837-TS","2017/08/17 18:48:56","新北市林口區南勢里57-3號","121.359891666667","25.0775683333333","6501700","林口區"
"243013","AAD-798","2017/08/17 18:48:57","新北市泰山區明志路三段206巷3號","121.423303333333","25.0379566666667","6501600","泰山區"
"243015","380-SR","2017/08/17 18:48:53","新北市泰山區憲訓路36號","121.429143333333","25.06511","6501600","泰山區"
"243010","548-UM","2017/08/17 18:48:55","新北市泰山區明志路二段6號","121.43012","25.0538766666667","6501600","泰山區"
"243016","680-BX","2017/08/17 18:49:00","新北市泰山區明志路二段131號","121.427733333333","25.050845","6501600","泰山區"
"222003","436-BY","2017/08/17 18:48:49","新北市深坑區翠谷街17巷42弄2號","121.625368333333","25.0101283333333","6501800","深坑區"
"222002","659-BX","2017/08/17 18:48:52","新北市深坑區文山路一段69號","121.626995","25.00188","6501800","深坑區"
"222001","696-SL","2017/08/17 18:48:55","新北市深坑區松柏街42號","121.638726666667","25.011575","6501800","深坑區"
"231041","002-UM","2017/08/17 18:49:00","新北市新店區安華路28-1號","121.519681666667","24.96077","6500600","新店區"
"231059","046-UY","2017/08/17 18:48:53","新北市新店區安華路28-1號","121.519515","24.9607966666667","6500600","新店區"
"231061","047-UY","2017/08/17 18:48:48","新北市新店區安忠路102巷1號","121.510843333333","24.9562233333333","6500600","新店區"
"231060","106-UY","2017/08/17 18:48:41","新北市新店區安華路28-1號","121.519828333333","24.9607816666667","6500600","新店區"
"231051","107-UY","2017/08/17 18:48:39","新北市新店區中央路107號","121.530981666667","24.97478","6500600","新店區"
"231047","108-UY","2017/08/17 18:48:39","新北市新店區德正街21巷2號","121.543956666667","24.9720716666667","6500600","新店區"
"231064","110-UY","2017/08/17 18:48:51","新北市新店區安華路28-1號","121.519283333333","24.9611883333333","6500600","新店區"
"231052","187-VK","2017/08/17 18:49:00","新北市新店區新烏路一段105巷6號","121.545973333333","24.9409683333333","6500600","新店區"
"231007","189-VK","2017/08/17 12:11:32","新北市新店區安華路28-1號","121.519595","24.9610916666667","6500600","新店區"
"231046","278-BY","2017/08/17 18:48:59","新北市新店區直潭路43號","121.53357","24.9425766666667","6500600","新店區"
"231050","AAD-862","2017/08/17 18:48:42","新北市新店區安康路一段203號","121.526078333333","24.9629266666667","6500600","新店區"
"231058","3712-VJ","2017/08/17 18:48:57","新北市新店區北宜路一段105巷2號","121.53963","24.9554633333333","6500600","新店區"
"231055","3713-VJ","2017/08/17 18:48:59","新北市新店區新生街13巷40號","121.538881666667","24.966895","6500600","新店區"
"231056","4716-K9","2017/08/17 18:48:59","新北市新店區大豐路68巷15號","121.538493333333","24.9803116666667","6500600","新店區"
"231067","4772-VM","2017/08/17 18:48:50","新北市新店區安康路一段76巷41號","121.528443333333","24.9636","6500600","新店區"
"231065","512-UM","2017/08/17 18:48:51","新北市新店區車子路10-4號","121.504846666667","24.95453","6500600","新店區"
"231054","513-UM","2017/08/17 18:48:42","新北市新店區安康路一段17號","121.533041666667","24.960355","6500600","新店區"
"231042","616-UM","2017/08/17 18:48:56","新北市新店區北新路一段88巷1號","121.541633333333","24.9678316666667","6500600","新店區"
"231040","619-UM","2017/08/17 18:48:57","新北市新店區環河路29巷1號","121.536981666667","24.9613633333333","6500600","新店區"
"231063","645-TV","2017/08/17 18:48:58","新北市新店區車子路14號","121.504715","24.953885","6500600","新店區"
"231049","719-UM","2017/08/17 18:48:56","新北市新店區中正路454-5號","121.534503333333","24.9790266666667","6500600","新店區"
"231062","720-UM","2017/08/17 18:48:44","新北市新店區安華路16號","121.517361666667","24.958065","6500600","新店區"
"231044","897-TW","2017/08/17 18:48:41","新北市新店區寶中路49-1號","121.54628","24.97964","6500600","新店區"
"231045","898-TW","2017/08/17 18:48:56","新北市新店區安康路一段355號","121.519818333333","24.9629433333333","6500600","新店區"
"231043","899-TW","2017/08/17 18:48:43","新北市新店區安康路一段148號","121.526371666667","24.96289","6500600","新店區"
"231066","AKT-0513","2017/08/17 18:48:44","新北市新店區安豐路22巷7號","121.501028333333","24.9547983333333","6500600","新店區"
"235066","003-UY","2017/08/17 18:48:57","新北市中和區水源路31號","121.504115","25.0035666666667","6500300","中和區"
"235064","005-UY","2017/08/17 18:48:44","新北市中和區連城路87號","121.496698333333","25.0002066666667","6500300","中和區"
"235063","006-UY","2017/08/17 18:48:43","新北市中和區連城路331號","121.488746666667","24.9960866666667","6500300","中和區"
"235056","096-UM","2017/08/17 18:48:52","新北市板橋區三民路二段220巷19號","121.477908333333","25.011525","6500300","中和區"
"235039","097-UM","2017/08/17 18:48:44","新北市中和區安樂路143巷7號","121.514078333333","24.9970516666667","6500300","中和區"
"235065","098-UM","2017/08/17 18:48:41","新北市中和區中山路二段2巷45弄44號","121.501758333333","25.0062966666667","6500300","中和區"
"235040","150-BY","2017/08/17 18:48:48","新北市中和區安平路36巷5號","121.510291666667","24.9948266666667","6500300","中和區"
"235058","151-BY","2017/08/17 18:48:47","新北市中和區連城路559號","121.479955","24.994675","6500300","中和區"
"235055","183-VK","2017/08/17 18:48:43","新北市板橋區民族路276巷1弄20號","121.470283333333","25.0063516666667","6500300","中和區"
"235038","185-VK","2017/08/17 18:48:50","新北市中和區大勇街76號","121.518155","24.9947783333333","6500300","中和區"
"235049","186-VK","2017/08/17 18:48:46","新北市中和區景安路120巷3號","121.505243333333","24.994675","6500300","中和區"
"235067","255-BX","2017/08/17 18:48:56","新北市中和區中正路877巷2-2號","121.48422","25.0040016666667","6500300","中和區"
"235044","293-VK","2017/08/17 18:48:58","新北市中和區復興路280巷18弄6號","121.502316666667","24.991555","6500300","中和區"
"235072","301-VK","2017/08/17 18:48:51","新北市中和區中山路二段134-5號","121.502195","25.003295","6500300","中和區"
"235043","352-BY","2017/08/17 18:38:36","新北市中和區景平路137號","121.514571666667","24.9920616666667","6500300","中和區"
"235051","376-QA","2017/08/17 18:48:52","新北市中和區華新街109巷11弄3-10號","121.508841666667","24.9796816666667","6500300","中和區"
"235068","377-QA","2017/08/17 18:48:53","新北市中和區中正路167巷13號","121.498163333333","24.9929866666667","6500300","中和區"
"235061","378-QA","2017/08/17 18:48:42","新北市中和區民享街54巷14號","121.47325","25.0024233333333","6500300","中和區"
"235050","4979-A6","2017/08/17 18:48:53","新北市中和區忠孝街62巷32號","121.512941666667","24.9834566666667","6500300","中和區"
"235069","4980-A6","2017/08/17 18:48:50","新北市中和區南山路81巷8弄12號","121.502566666667","24.997745","6500300","中和區"
"235042","551-UM","2017/08/17 18:48:50","新北市中和區秀朗路三段135巷7弄7號","121.525641666667","24.991955","6500300","中和區"
"235070","558-UM","2017/08/17 18:48:12","新北市中和區南華路1巷7號","121.501845","24.9956366666667","6500300","中和區"
"235045","565-BX","2017/08/17 18:48:43","新北市中和區南山路208巷1弄11號","121.506503333333","24.9898916666667","6500300","中和區"
"235054","640-BX","2017/08/17 18:48:39","新北市中和區民享街43號","121.47403","25.0029366666667","6500300","中和區"
"235060","647-TV","2017/08/17 18:48:56","新北市中和區中山路三段142號","121.473856666667","25.0062116666667","6500300","中和區"
"235047","732-UM","2017/08/17 18:48:41","新北市中和區興南路二段34巷71號","121.504956666667","24.9850083333333","6500300","中和區"
"235046","733-UM","2017/08/17 18:48:42","新北市中和區仁愛街57號","121.511363333333","24.9878883333333","6500300","中和區"
"235062","800-TS","2017/08/17 18:48:57","新北市中和區中山路二段299號","121.495331666667","25.0021116666667","6500300","中和區"
"235057","801-TS","2017/08/17 18:48:49","新北市中和區民安街22巷12-5號","121.479905","25.0012416666667","6500300","中和區"
"235041","802-TS","2017/08/17 18:48:50","新北市中和區宜安路135號","121.5096","24.9984483333333","6500300","中和區"
"235052","805-TS","2017/08/17 18:48:57","新北市中和區興南路二段399巷38號","121.499298333333","24.9788416666667","6500300","中和區"
"235048","896-TW","2017/08/17 18:48:45","新北市中和區南山路300號","121.5079","24.9871466666667","6500300","中和區"
"235053","900-TW","2017/08/17 18:48:45","新北市中和區華福街26號","121.46597","24.9967","6500300","中和區"
"235037","AAC-213","2017/08/17 18:48:47","新北市中和區秀朗路三段175巷1號","121.52477","24.9914233333333","6500300","中和區"
"235059","AAC-215","2017/08/17 18:48:51","新北市中和區圓通路389號","121.490145","24.989205","6500300","中和區"
"220068","013-TV","2017/08/17 18:48:51","新北市板橋區民生路二段15-1號","121.47275","25.016055","6500100","板橋區"
"220072","015-TV","2017/08/17 18:49:01","新北市板橋區金門街31巷24號","121.434171666667","24.993855","6500100","板橋區"
"220065","072-UY","2017/08/17 18:48:48","新北市板橋區民生路二段15-1號","121.472703333333","25.016475","6500100","板橋區"
"220086","073-UY","2017/08/17 18:48:43","新北市板橋區南雅西路二段180巷2號","121.45178","25.0140233333333","6500100","板橋區"
"220106","075-UY","2017/08/17 18:48:52","新北市板橋區民生路二段216號","121.469116666667","25.0213866666667","6500100","板橋區"
"220069","AAD-861","2017/08/17 16:58:38","新北市板橋區民生路二段36-1號","121.472511666667","25.0166033333333","6500100","板橋區"
"220102","120-SR","2017/08/17 18:48:48","新北市板橋區民生路二段120號","121.47049","25.0196933333333","6500100","板橋區"
"226004","312-R5","2017/08/17 18:46:05","新北市平溪區平溪里三坑路1號","121.738271666667","25.0280483333333","6502400","平溪區"
"228003","097-TW","2017/08/17 18:48:56","新北市貢寮區和美里龍洞街56號","121.912153333333","25.11378","6502600","貢寮區"
"228001","212-TW","2017/08/17 18:48:40","新北市貢寮區仁理村研海街12-1號","121.92375","25.0516433333333","6502600","貢寮區"
"228002","585-TW","2017/08/17 18:48:50","新北市貢寮區福隆里東興街6-11號","121.95078","25.0210766666667","6502600","貢寮區"
"224006","676-BX","2017/08/17 18:48:42","新北市瑞芳區中山路17號","121.804955","25.1077033333333","6501200","瑞芳區"
"224011","420-VK","2017/08/17 18:48:47","新北市瑞芳區崙頂路1-6號","121.847056666667","25.1047633333333","6501200","瑞芳區"
"224009","285-BY","2017/08/17 18:48:56","新北市瑞芳區祈堂路2號","121.859753333333","25.1116283333333","6501200","瑞芳區"
"224008","275-VK","2017/08/17 18:48:58","新北市瑞芳區逢甲路323號","121.801116666667","25.111815","6501200","瑞芳區"
"224007","273-VK","2017/08/17 18:48:58","新北市瑞芳區大埔路188-1號","121.761498333333","25.1011","6501200","瑞芳區"
"224005","271-BY","2017/08/17 18:48:51","新北市瑞芳區建基路一段1號","121.819733333333","25.1210133333333","6501200","瑞芳區"
"227004","642-TC","2017/08/17 18:48:44","新北市雙溪區平林里梅竹蹊23號","121.861638333333","25.0359833333333","6502500","雙溪區"
"227010","400-TW","2017/08/17 18:48:50","新北市雙溪區牡丹里聖南15號","121.859763333333","25.0514666666667","6502500","雙溪區"
"253006","032-BX","2017/08/17 18:48:50","新北市石門區下員坑16號","121.510665","25.2838783333333","6502200","石門區"
"253005","295-VK","2017/08/17 18:48:44","新北市石門區中山路28-3號","121.565775","25.2898533333333","6502200","石門區"
"208002","742-BX","2017/08/17 18:48:54","新北市金山區信義路61號","121.635721666667","25.218905","6502700","金山區"
"208003","665-BX","2017/08/17 18:48:40","新北市金山區中山路393號","121.633406666667","25.2251933333333","6502700","金山區"
"208001","761-BX","2017/08/17 18:48:45","新北市金山區文化三路66巷2弄1號","121.634308333333","25.2257033333333","6502700","金山區"
"251014","182-VK","2017/08/17 18:48:52","新北市淡水區南平17-3號","121.489575","25.22089","6501000","淡水區"
"251010","413-VK","2017/08/17 18:48:45","新北市淡水區沙崙路15號","121.42121","25.1812866666667","6501000","淡水區"
"251012","441-VK","2017/08/17 18:48:42","新北市淡水區中山北路一段156號","121.444105","25.1778566666667","6501000","淡水區"
"251016","442-VK","2017/08/17 18:48:59","新北市淡水區下圭柔山76號","121.443028333333","25.2053233333333","6501000","淡水區"
"251001","559-UM","2017/08/17 18:48:56","新北市淡水區自強路108-17號","121.461695","25.1309733333333","6501000","淡水區"
"251011","650-BX","2017/08/17 18:48:51","新北市淡水區鄧公路19-1號","121.450685","25.16983","6501000","淡水區"
"251002","672-BX","2017/08/17 18:48:51","新北市淡水區學府路71號","121.448461666667","25.169785","6501000","淡水區"
"251003","766-UM","2017/08/17 18:48:52","新北市淡水區中山北路一段151號","121.442963333333","25.1774116666667","6501000","淡水區"
"207003","550-UM","2017/08/17 18:48:49","新北市萬里區大鵬里頂社24-5號","121.658038333333","25.2091766666667","6502800","萬里區"
"207004","225-TW","2017/08/17 18:48:46","新北市萬里區萬里里獅頭路23號","121.693228333333","25.1782766666667","6502800","萬里區"
"252006","073-UM","2017/08/17 16:20:17","新北市三芝區埔坪里埔頭坑41號","121.50446","25.26448","6502100","三芝區"
"252002","178-VK","2017/08/17 18:48:59","新北市三芝區中正路一段67號","121.50405","25.2572016666667","6502100","三芝區"
"252003","249-BX","2017/08/17 18:48:40","新北市三芝區後厝里大片頭105-1號","121.458126666667","25.2417716666667","6502100","三芝區"
"252001","292-VK","2017/08/17 18:48:54","新北市三芝區中正路三段9號","121.502988333333","25.2539366666667","6502100","三芝區"
"237004","078-UY","2017/08/17 18:48:48","新北市三峽區插角82號","121.406155","24.87091","6500900","三峽區"
"237007","153-BY","2017/08/17 18:48:51","新北市三峽區柑樹路6巷11號","121.362348333333","24.9048383333333","6500900","三峽區"
"237009","210-TH","2017/08/17 18:48:42","新北市三峽區民權街167號","121.368036666667","24.9302666666667","6500900","三峽區"
"237013","252-BX","2017/08/17 18:48:42","新北市三峽區光明路69巷25號","121.376761666667","24.9292283333333","6500900","三峽區"
"237012","275-BY","2017/08/17 18:48:50","新北市三峽區三樹路358號","121.383996666667","24.9433383333333","6500900","三峽區"
"237008","302-VK","2017/08/17 18:48:44","新北市三峽區白雞67號","121.397065","24.9115016666667","6500900","三峽區"
"237014","433-BY","2017/08/17 18:48:46","新北市三峽區復興路480巷32-2號","121.359941666667","24.9398716666667","6500900","三峽區"
"237006","5529-G3","2017/08/17 18:48:41","新北市三峽區溪東路233巷4弄19號","121.407255","24.933785","6500900","三峽區"
"237011","572-TV","2017/08/17 18:48:53","新北市三峽區介壽路三段245號","121.407885","24.9494516666667","6500900","三峽區"
"237016","649-BX","2017/08/17 18:48:52","新北市三峽區建安65號","121.447278333333","24.9268666666667","6500900","三峽區"
"237010","706-TV","2017/08/17 18:49:01","新北市三峽區復興路323號","121.364793333333","24.938805","6500900","三峽區"
"237005","AKY-6261","2017/08/17 18:49:01","新北市三峽區新興街25號","121.37277","24.9353166666667","6500900","三峽區"
"236071","105-UM","2017/08/17 18:48:49","新北市土城區明德路一段1號","121.464818333333","24.9857633333333","6501300","土城區"
"236042","107-UM","2017/08/17 18:48:49","新北市土城區裕民路92巷25弄6號","121.449703333333","24.9858383333333","6501300","土城區"
"236078","166-UM","2017/08/17 18:48:52","新北市土城區中央路四段125巷13-2號","121.416868333333","24.95697","6501300","土城區"
"236030","253-BX","2017/08/17 18:48:56","新北市土城區中央路二段326號","121.440076666667","24.9724816666667","6501300","土城區"
"236026","269-VK","2017/08/17 18:48:44","新北市土城區農豐街12-1號","121.442466666667","24.9739016666667","6501300","土城區"
"236014","270-VK","2017/08/17 18:48:59","新北市土城區清水路235巷1弄2號","121.461155","24.983035","6501300","土城區"
"236037","271-VK","2017/08/17 18:48:56","新北市土城區明德路一段238號","121.460213333333","24.9772816666667","6501300","土城區"
"236021","401-BY","2017/08/17 18:48:59","新北市土城區延安街35巷1號","121.467946666667","24.98444","6501300","土城區"
"236058","912-UM","2017/08/17 18:48:47","新北市土城區中央路三段155號","121.432068333333","24.9653833333333","6501300","土城區"
"236051","913-UM","2017/08/17 18:48:45","新北市土城區廣福街68巷18弄1號","121.459475","24.9904933333333","6501300","土城區"
"236062","915-UM","2017/08/17 18:48:50","新北市土城區金城路三段207巷6弄13號","121.470716666667","24.9902583333333","6501300","土城區"
"236053","AAC-216","2017/08/17 18:48:53","新北市土城區裕民路96號","121.450446666667","24.98695","6501300","土城區"
"242029","986-R7","2017/08/17 18:31:00","新北市新莊區新泰路357巷3弄57號","121.442211666667","25.0392433333333","6500500","新莊區"
"242042","497-BY","2017/08/17 18:48:49","新北市泰山區中山路二段841巷1號","121.426638333333","25.0362816666667","6500500","新莊區"
"242061","362-BY","2017/08/17 18:48:41","新北市新莊區新莊路670號","121.441518333333","25.0328666666667","6500500","新莊區"
"242044","172-VK","2017/08/17 18:48:48","新北市泰山區泰林路一段1巷9號","121.439678333333","25.0469383333333","6500500","新莊區"
"238023","601-UM","2017/08/17 18:48:49","新北市樹林區三福街114號","121.406458333333","25.0163266666667","6500700","樹林區"
"238019","599-UM","2017/08/17 18:48:49","新北市樹林區東榮街147巷27弄1號","121.414703333333","24.9806933333333","6500700","樹林區"
"238018","571-TV","2017/08/17 18:49:01","新北市樹林區鎮前街42-1號","121.425886666667","24.992675","6500700","樹林區"
"238024","5061-A6","2017/08/17 18:48:47","新北市樹林區太順街49巷5號","121.418126666667","24.97889","6500700","樹林區"
"238022","312-TH","2017/08/17 18:48:43","新北市樹林區中華路379巷37號","121.41401","24.9773566666667","6500700","樹林區"
"238025","303-VK","2017/08/17 18:48:59","新北市樹林區中山路三段24號","121.395491666667","24.9729866666667","6500700","樹林區"
"238020","268-VK","2017/08/17 14:42:33","新北市樹林區中山路三段198號","121.386976666667","24.9690666666667","6500700","樹林區"
"238026","172-UY","2017/08/17 18:48:50","新北市樹林區信和街140號","121.386663333333","24.9747616666667","6500700","樹林區"
"238016","169-UY","2017/08/17 18:48:57","新北市樹林區文化街26號","121.419436666667","24.9876616666667","6500700","樹林區"
"239007","AAC-297","2017/08/17 18:48:47","新北市鶯歌區中正一路建德巷38號","121.364523333333","24.957825","6500800","鶯歌區"
"239008","527-UM","2017/08/17 18:48:51","新北市鶯歌區晨曦街3號","121.336518333333","24.9761766666667","6500800","鶯歌區"
"239005","526-UM","2017/08/17 18:48:52","新北市鶯歌區鳳吉二街22號","121.32582","24.9732483333333","6500800","鶯歌區"
"239001","417-VK","2017/08/17 18:48:56","新北市鶯歌區鶯桃路7號","121.343966666667","24.9503666666667","6500800","鶯歌區"
"239003","360-BY","2017/08/17 18:48:51","新北市鶯歌區鶯桃路526號","121.331686666667","24.96694","6500800","鶯歌區"
"239004","193-VK","2017/08/17 18:48:46","新北市鶯歌區尖山路320號","121.340558333333","24.943245","6500800","鶯歌區"
"221008","489-VK","2017/08/17 18:48:47","新北市汐止區康寧街901號","121.651433333333","25.0750433333333","6501100","汐止區"
"221036","130-UY","2017/08/17 18:48:38","新北市汐止區忠孝東路338號","121.665143333333","25.069485","6501100","汐止區"
"221015","131-UY","2017/08/17 18:48:53","新北市汐止區鄉長路一段43號","121.665481666667","25.0750483333333","6501100","汐止區"
"221010","269-BY","2017/08/17 18:48:50","新北市汐止區夢湖路2巷5號","121.642371666667","25.106665","6501100","汐止區"
"221031","277-VK","2017/08/17 18:48:46","新北市汐止區福德一路272巷14號","121.631988333333","25.0642683333333","6501100","汐止區"
"221012","278-VK","2017/08/17 18:48:49","新北市汐止區康寧街901號","121.650818333333","25.07526","6501100","汐止區"
"221023","279-VK","2017/08/17 18:48:47","新北市汐止區汐萬路一段256巷3號","121.65332","25.0746383333333","6501100","汐止區"
"221032","280-BY","2017/08/17 18:48:55","新北市汐止區橫科路121巷52弄3號","121.622496666667","25.0508866666667","6501100","汐止區"
"221027","281-BY","2017/08/17 18:49:00","新北市汐止區汐萬路一段256巷3號","121.652538333333","25.0745433333333","6501100","汐止區"
"221038","297-VK","2017/08/17 18:48:58","新北市汐止區汐萬路一段256巷3號","121.653453333333","25.0748166666667","6501100","汐止區"
"221029","298-VK","2017/08/17 18:48:52","新北市汐止區工建路40號","121.64146","25.0630183333333","6501100","汐止區"
"221021","299-VK","2017/08/17 18:48:45","新北市汐止區新台五路一段158號","121.654191666667","25.06237","6501100","汐止區"
"221035","622-UM","2017/08/17 18:48:52","新北市汐止區汐萬路一段20號","121.656003333333","25.067495","6501100","汐止區"
"221025","623-UM","2017/08/17 18:48:59","新北市汐止區仁愛路34號","121.660438333333","25.0628216666667","6501100","汐止區"
"221033","647-BX","2017/08/17 18:48:59","新北市汐止區南勢街1巷1號","121.627011666667","25.037415","6501100","汐止區"
"221002","707-TV","2017/08/17 18:48:47","新北市汐止區大同路一段161號","121.632635","25.05662","6501100","汐止區"
"221018","753-BX","2017/08/17 18:48:56","新北市汐止區茄苳路277號","121.672408333333","25.0678983333333","6501100","汐止區"
"220079","145-BY","2017/08/17 18:48:48","新北市板橋區民權路202巷7弄9號","121.459666666667","25.01482","6500100","板橋區"
"220080","200-UY","2017/08/17 18:48:50","新北市板橋區大觀路二段265巷128號","121.442306666667","24.9962783333333","6500100","板橋區"
"220101","245-BX","2017/08/17 16:47:31","新北市板橋區民生路二段89-6號","121.470661666667","25.01878","6500100","板橋區"
"220103","257-TC","2017/08/17 18:48:54","新北市板橋區民生路二段120號","121.4704","25.01966","6500100","板橋區"
"220094","267-BY","2017/08/17 16:43:25","新北市板橋區民生路二段161巷1號","121.470188333333","25.0200933333333","6500100","板橋區"
"220056","276-BY","2017/08/17 18:48:57","新北市土城區四川路7號","121.455625","24.9960283333333","6500100","板橋區"
"220082","282-UM","2017/08/17 18:48:53","新北市板橋區篤行路二段135號","121.430273333333","24.9891033333333","6500100","板橋區"
"220071","283-VK","2017/08/17 18:48:57","新北市板橋區民生路二段36-1號","121.47243","25.0167366666667","6500100","板橋區"
"220053","285-VK","2017/08/17 18:48:43","新北市板橋區民生路二段15-1號","121.472668333333","25.01629","6500100","板橋區"
"220083","286-VK","2017/08/17 18:48:52","新北市板橋區大觀路二段22巷21號","121.445511666667","25.003475","6500100","板橋區"
"220081","287-VK","2017/08/17 18:48:50","新北市板橋區大觀路一段28巷98號","121.450588333333","25.011015","6500100","板橋區"
"220090","288-VK","2017/08/17 18:48:56","新北市板橋區民生路二段227號","121.468705","25.0211583333333","6500100","板橋區"
"220061","293-UM","2017/08/17 18:48:47","新北市板橋區民生路二段36-1號","121.472425","25.0167483333333","6500100","板橋區"
"220055","295-UM","2017/08/17 16:49:07","新北市板橋區民生路二段22號","121.472928333333","25.0167016666667","6500100","板橋區"
"220084","296-UM","2017/08/17 18:49:00","新北市板橋區大觀路二段148巷31號","121.441841666667","25.0003833333333","6500100","板橋區"
"220075","297-UM","2017/08/17 18:48:52","新北市板橋區大觀路一段28巷106-3號","121.451155","25.01073","6500100","板橋區"
"220098","299-UM","2017/08/17 18:48:54","新北市板橋區民生路二段161巷1號","121.470003333333","25.0199583333333","6500100","板橋區"
"220062","305-R5","2017/08/17 18:49:00","新北市板橋區民生路二段36-1號","121.4726","25.0165966666667","6500100","板橋區"
"220092","307-R5","2017/08/17 16:37:16","新北市板橋區民生路二段120號","121.470696666667","25.0197916666667","6500100","板橋區"
"220064","486-VK","2017/08/17 16:54:32","新北市板橋區民生路二段22號","121.47288","25.0166483333333","6500100","板橋區"
"220089","487-VK","2017/08/17 16:57:48","新北市板橋區民生路二段120號","121.470485","25.0195916666667","6500100","板橋區"
"220088","491-VK","2017/08/17 18:48:43","新北市板橋區民生路二段161巷3號","121.470113333333","25.0198033333333","6500100","板橋區"
"220035","560-BX","2017/08/17 18:48:46","新北市板橋區中正路275巷59-4號","121.452983333333","25.0179916666667","6500100","板橋區"
"220063","609-BX","2017/08/17 16:57:45","新北市板橋區民生路二段36-1號","121.472405","25.0165283333333","6500100","板橋區"
"220091","637-BX","2017/08/17 18:48:48","新北市板橋區民生路二段161巷1號","121.470195","25.0201433333333","6500100","板橋區"
"220057","686-BX","2017/08/17 18:48:46","新北市板橋區民生路二段36-1號","121.472528333333","25.0166516666667","6500100","板橋區"
"220077","687-BX","2017/08/17 18:49:00","新北市板橋區大觀路二段174巷170號","121.44196","25.003415","6500100","板橋區"
"220054","741-BX","2017/08/17 18:48:56","新北市板橋區民生路二段56-1號","121.47232","25.0169966666667","6500100","板橋區"
"220067","829-TW","2017/08/17 18:48:58","新北市板橋區民生路二段17號","121.472433333333","25.0164983333333","6500100","板橋區"
"220096","831-TW","2017/08/17 16:48:32","新北市板橋區民生路二段120號","121.470401666667","25.0198216666667","6500100","板橋區"
"220074","895-R6","2017/08/17 18:48:56","新北市板橋區南門街70號","121.456736666667","25.007775","6500100","板橋區"
"220073","985-R7","2017/08/17 18:48:58","新北市板橋區館前西路92號","121.457343333333","25.00725","6500100","板橋區"
"220097","AAC-210","2017/08/17 16:59:53","新北市板橋區民生路二段120號","121.470398333333","25.019865","6500100","板橋區"
"220070","AAC-253","2017/08/17 18:48:56","新北市板橋區民生路二段36-1號","121.472603333333","25.016535","6500100","板橋區"
