"lineid","car","time","location","longitude","latitude","cityid","cityname"
"234046","148-BY","2017/08/17 19:29:15","新北市永和區秀朗路二段153號","121.524956666667","25.0015966666667","6500400","永和區"
"234013","149-BY","2017/08/17 19:29:11","新北市永和區中山路一段98-2號","121.511623333333","25.0108383333333","6500400","永和區"
"234007","207-UY","2017/08/17 19:29:15","新北市永和區自強街2號","121.514031666667","25.0080016666667","6500400","永和區"
"234081","298-R6","2017/08/17 19:29:12","新北市永和區環河東路三段12號","121.525725","25.008105","6500400","永和區"
"234038","336-UY","2017/08/17 19:29:04","新北市永和區民樂街20號","121.527395","25.0019033333333","6500400","永和區"
"234064","337-UY","2017/08/17 19:29:04","新北市永和區中正路368巷1弄88號","121.520561666667","25.000675","6500400","永和區"
"234086","338-UY","2017/08/17 19:29:01","新北市永和區林森路74號","121.523603333333","25.0039333333333","6500400","永和區"
"234054","553-UM","2017/08/17 19:29:09","新北市永和區復興街11號","121.51597","25.0129583333333","6500400","永和區"
"234017","745-BX","2017/08/17 19:29:11","新北市永和區環河西路一段13號","121.514565","25.017875","6500400","永和區"
"234030","746-BX","2017/08/17 19:29:15","新北市永和區民生路59號","121.522676666667","24.9975066666667","6500400","永和區"
"234061","AAD-866","2017/08/17 19:29:17","新北市永和區中正路513號","121.517","25.0072066666667","6500400","永和區"
"234070","847-RS","2017/08/17 19:29:03","新北市永和區警光街4號","121.520045","25.0096666666667","6500400","永和區"
"234042","862-TW","2017/08/17 19:29:08","新北市永和區中和路519巷2號","121.510988333333","25.002915","6500400","永和區"
"234050","863-TW","2017/08/17 19:29:15","新北市永和區保福路二段139號","121.509715","25.0140716666667","6500400","永和區"
"234026","9371-KE","2017/08/17 19:29:03","新北市永和區安樂路104巷1號","121.514503333333","24.999695","6500400","永和區"
"234011","9373-KE","2017/08/17 19:29:19","新北市永和區保福路二段163巷13弄3號","121.509196666667","25.01438","6500400","永和區"
"249002","305-UY","2017/08/17 19:29:06","新北市八里區頂寮二街138號","121.449346666667","25.12939","6502300","八里區"
"249003","593-UM","2017/08/17 19:29:16","新北市八里區商港六路23號","121.396651666667","25.1485883333333","6502300","八里區"
"248014","025-BX","2017/08/17 19:29:02","新北市五股區民義路一段198號","121.432478333333","25.08816","6501500","五股區"
"248008","095-VK","2017/08/17 19:29:13","新北市五股區中興路二段31號","121.46256","25.075105","6501500","五股區"
"248020","225-UY","2017/08/17 19:29:15","新北市五股區凌雲路三段41號","121.429603333333","25.1182483333333","6501500","五股區"
"248012","247-BX","2017/08/17 19:29:16","新北市五股區中興路四段48巷16號","121.438521666667","25.0834366666667","6501500","五股區"
"248010","272-BY","2017/08/17 19:29:02","新北市五股區水碓一路23號","121.430618333333","25.0712833333333","6501500","五股區"
"248004","677-BX","2017/08/17 19:29:21","新北市五股區五福路43號","121.433168333333","25.0894316666667","6501500","五股區"
"248002","678-BX","2017/08/17 19:29:20","新北市五股區凌雲路一段158巷14-1號","121.447821666667","25.103475","6501500","五股區"
"234023","9380-KE","2017/08/17 19:29:13","新北市永和區環河東路2段6-1號","121.521838333333","25.0132933333333","6500400","永和區"
"234077","969-R7","2017/08/17 19:29:06","新北市永和區民族街43巷8號","121.518893333333","24.9983316666667","6500400","永和區"
"234074","AAC-211","2017/08/17 19:29:15","新北市永和區永和路二段254號","121.516243333333","25.0148783333333","6500400","永和區"
"234067","AAC-212","2017/08/17 19:29:18","新北市永和區保平路174巷34號","121.510171666667","25.0075183333333","6500400","永和區"
"234003","AAC-295","2017/08/17 19:29:08","新北市永和區永和路一段156-1號","121.514196666667","25.00848","6500400","永和區"
"232007","290-BY","2017/08/17 08:48:09","新北市坪林區北宜路八段558號","121.718185","24.9093116666667","6502000","坪林區"
"244019","403-UM","2017/08/17 19:29:03","新北市林口區麗園二街42巷8號","121.381968333333","25.0671416666667","6501700","林口區"
"244023","657-BX","2017/08/17 19:29:14","新北市林口區仁愛路二段636號","121.370983333333","25.0795","6501700","林口區"
"244011","701-TV","2017/08/17 19:29:07","新北市林口區嘉寶里45號","121.33937","25.1095133333333","6501700","林口區"
"243013","AAD-798","2017/08/17 19:29:17","新北市泰山區明志路三段145巷61號","121.427323333333","25.03908","6501600","泰山區"
"243009","297-R6","2017/08/17 19:29:19","新北市五股區成泰路一段7巷38號","121.432636666667","25.0671033333333","6501600","泰山區"
"243015","380-SR","2017/08/17 19:29:12","新北市泰山區明志路二段37號","121.429793333333","25.0529866666667","6501600","泰山區"
"243014","421-VK","2017/08/17 19:29:19","新北市泰山區仁愛路57號","121.432808333333","25.055295","6501600","泰山區"
"243010","548-UM","2017/08/17 19:29:15","新北市泰山區民生路17巷36號","121.429448333333","25.0515983333333","6501600","泰山區"
"243011","549-UM","2017/08/17 19:29:06","新北市泰山區貴子路67巷28號","121.431193333333","25.041125","6501600","泰山區"
"243012","646-TV","2017/08/17 19:29:17","新北市泰山區仁愛路6巷5弄1號","121.431075","25.0538683333333","6501600","泰山區"
"243016","680-BX","2017/08/17 19:29:20","新北市泰山區明志路三段222號","121.421406666667","25.03594","6501600","泰山區"
"222003","436-BY","2017/08/17 19:29:09","新北市深坑區深南路88巷1號","121.620981666667","25.0117366666667","6501800","深坑區"
"222002","659-BX","2017/08/17 19:29:12","新北市深坑區北深路一段177號","121.632561666667","25.01089","6501800","深坑區"
"222001","696-SL","2017/08/17 19:29:16","新北市深坑區北深路二段134號","121.615876666667","25.0029016666667","6501800","深坑區"
"231041","002-UM","2017/08/17 19:29:00","新北市新店區中正路607號","121.533858333333","24.988505","6500600","新店區"
"231059","046-UY","2017/08/17 19:29:13","新北市新店區安和路三段112號","121.517138333333","24.9854666666667","6500600","新店區"
"231061","047-UY","2017/08/17 19:29:08","新北市新店區安和路一段1號","121.516615","24.9638133333333","6500600","新店區"
"231060","106-UY","2017/08/17 19:29:21","新北市新店區安和路一段15號","121.516843333333","24.964255","6500600","新店區"
"231051","107-UY","2017/08/17 19:29:19","新北市新店區中央五街18號","121.529506666667","24.97433","6500600","新店區"
"231047","108-UY","2017/08/17 19:29:19","新北市新店區五峰路157號","121.54482","24.9655883333333","6500600","新店區"
"231064","110-UY","2017/08/17 19:29:11","新北市新店區安忠路36號","121.513921666667","24.9605666666667","6500600","新店區"
"231052","187-VK","2017/08/17 19:29:14","新北市新店區屈尺路72號","121.546905","24.9226783333333","6500600","新店區"
"231007","189-VK","2017/08/17 12:11:32","新北市新店區安華路28-1號","121.519595","24.9610916666667","6500600","新店區"
"231057","256-BX","2017/08/17 19:29:06","新北市新店區花園一路三段57號","121.549661666667","24.932985","6500600","新店區"
"231050","AAD-862","2017/08/17 19:29:02","新北市新店區秀水路36號","121.555035","24.9554316666667","6500600","新店區"
"231058","3712-VJ","2017/08/17 19:29:17","新北市新店區北新路二段226號","121.542928333333","24.977345","6500600","新店區"
"231065","512-UM","2017/08/17 19:29:11","新北市新店區安祥路109巷3弄54號","121.477085","24.9607666666667","6500600","新店區"
"231054","513-UM","2017/08/17 19:29:02","新北市新店區文中路40號","121.539761666667","24.9565316666667","6500600","新店區"
"231042","616-UM","2017/08/17 19:29:16","新北市新店區中興路一段102號","121.540541666667","24.9608833333333","6500600","新店區"
"231040","619-UM","2017/08/17 19:29:17","新北市新店區中華路12-1號","121.540691666667","24.9675166666667","6500600","新店區"
"231063","645-TV","2017/08/17 19:29:18","新北市新店區達觀路14巷2號","121.50353","24.9413316666667","6500600","新店區"
"231049","719-UM","2017/08/17 19:29:16","新北市新店區北新路三段105巷11號","121.540726666667","24.9818933333333","6500600","新店區"
"231062","720-UM","2017/08/17 19:29:03","新北市新店區莒光路59號","121.523421666667","24.9588666666667","6500600","新店區"
"231044","897-TW","2017/08/17 19:29:21","新北市新店區中興路三段141號","121.544515","24.9798133333333","6500600","新店區"
"231045","898-TW","2017/08/17 19:29:15","新北市新店區北宜路二段205號","121.553045","24.9534816666667","6500600","新店區"
"231043","899-TW","2017/08/17 19:29:03","新北市新店區北新路二段193號","121.542646666667","24.9781483333333","6500600","新店區"
"231066","AKT-0513","2017/08/17 19:29:04","新北市新店區安康路三段165巷5號","121.489683333333","24.9513166666667","6500600","新店區"
"241028","022-UY","2017/08/17 19:29:04","新北市三重區中寮街66號","121.493025","25.058385","6500200","三重區"
"241009","060-VK","2017/08/17 19:29:12","新北市三重區溪尾街242巷50號","121.486503333333","25.081505","6500200","三重區"
"241031","061-VK","2017/08/17 19:29:12","新北市三重區集美街20號","121.488315","25.054905","6500200","三重區"
"241017","063-VK","2017/08/17 19:29:10","新北市三重區新北大道一段6號","121.488905","25.061735","6500200","三重區"
"241026","066-VK","2017/08/17 19:29:14","新北市三重區文化南路47巷19號","121.499465","25.0611583333333","6500200","三重區"
"241006","156-TC","2017/08/17 19:29:11","新北市三重區三和路四段322號","121.483995","25.0779416666667","6500200","三重區"
"241008","265-UM","2017/08/17 19:29:15","新北市三重區永福街135巷30號","121.47754","25.0771183333333","6500200","三重區"
"241022","267-UM","2017/08/17 19:29:05","新北市三重區三民街141-1號","121.484593333333","25.0639566666667","6500200","三重區"
"241032","269-UM","2017/08/17 19:29:20","新北市三重區三陽路25號","121.485568333333","25.0588416666667","6500200","三重區"
"241007","398-BY","2017/08/17 19:29:16","新北市三重區溪尾街152號","121.488875","25.079915","6500200","三重區"
"241020","412-TH","2017/08/17 19:29:13","新北市三重區三和路四段44巷29號","121.489218333333","25.0739883333333","6500200","三重區"
"241035","462-BY","2017/08/17 19:29:08","新北市三重區信義西街1巷3號","121.498085","25.06491","6500200","三重區"
"241030","480-VK","2017/08/17 19:29:14","新北市三重區成功路41巷21號","121.490515","25.0518466666667","6500200","三重區"
"241025","887-TS","2017/08/17 19:29:12","新北市三重區中正北路380巷31號","121.476026666667","25.06857","6500200","三重區"
"241029","942-UM","2017/08/17 19:29:02","新北市三重區環河南路220-8號","121.493216666667","25.0524533333333","6500200","三重區"
"235066","003-UY","2017/08/17 19:29:17","新北市中和區中和路157號","121.502703333333","24.9998216666667","6500300","中和區"
"235064","005-UY","2017/08/17 19:29:04","新北市中和區南山路17號","121.502123333333","24.999115","6500300","中和區"
"235063","006-UY","2017/08/17 19:29:02","新北市中和區連勝街115號","121.495015","24.995165","6500300","中和區"
"235056","096-UM","2017/08/17 19:29:12","新北市中和區中山路三段8號","121.479488333333","25.0060483333333","6500300","中和區"
"235039","097-UM","2017/08/17 19:29:04","新北市中和區秀峰街81巷1號","121.521623333333","24.990145","6500300","中和區"
"235065","098-UM","2017/08/17 19:29:01","新北市中和區中山路二段2巷3弄4號","121.504663333333","25.0060166666667","6500300","中和區"
"235040","150-BY","2017/08/17 19:29:08","新北市中和區保健路46巷26弄4號","121.508346666667","24.9953633333333","6500300","中和區"
"235058","151-BY","2017/08/17 19:29:07","新北市中和區員山路36巷16-2號","121.485236666667","24.9916233333333","6500300","中和區"
"235055","183-VK","2017/08/17 19:29:03","新北市中和區莒光路84巷12號","121.471878333333","25.002165","6500300","中和區"
"235038","185-VK","2017/08/17 19:29:10","新北市中和區大仁街20巷33號","121.518781666667","24.9932666666667","6500300","中和區"
"235049","186-VK","2017/08/17 19:29:06","新北市中和區景新街279號","121.509506666667","24.993495","6500300","中和區"
"235067","255-BX","2017/08/17 19:29:16","新北市中和區中正路729號","121.48508","24.999065","6500300","中和區"
"235044","293-VK","2017/08/17 19:29:18","新北市中和區復興路308號","121.501186666667","24.9903166666667","6500300","中和區"
"235072","301-VK","2017/08/17 19:29:10","新北市中和區連城路263巷8弄7號","121.491785","24.99522","6500300","中和區"
"235043","352-BY","2017/08/17 19:29:16","新北市中和區南山路82號","121.50268","24.9951316666667","6500300","中和區"
"235051","376-QA","2017/08/17 19:29:12","新北市中和區景平路392-2號","121.510318333333","24.99296","6500300","中和區"
"235068","377-QA","2017/08/17 19:29:13","新北市中和區連勝街57巷20號","121.497958333333","24.9964383333333","6500300","中和區"
"235061","378-QA","2017/08/17 19:29:01","新北市中和區民利街61巷13號","121.478786666667","24.9982733333333","6500300","中和區"
"235050","4979-A6","2017/08/17 19:28:33","新北市中和區中正路406號","121.492535","24.99418","6500300","中和區"
"235069","4980-A6","2017/08/17 19:29:10","新北市中和區中山路二段361號","121.488","25.0046816666667","6500300","中和區"
"235042","551-UM","2017/08/17 19:29:10","新北市中和區安樂路143巷2弄5號","121.514011666667","24.9977566666667","6500300","中和區"
"235070","558-UM","2017/08/17 19:14:52","新北市中和區中和路107號","121.501626666667","25.000495","6500300","中和區"
"235045","565-BX","2017/08/17 19:29:03","新北市中和區景新街423巷33弄6號","121.51383","24.9899933333333","6500300","中和區"
"235054","640-BX","2017/08/17 19:29:18","新北市中和區國光街109巷19號","121.469613333333","24.9997233333333","6500300","中和區"
"235060","647-TV","2017/08/17 19:29:11","新北市中和區新生街114巷3號","121.483298333333","25.0023333333333","6500300","中和區"
"235047","732-UM","2017/08/17 19:29:01","新北市中和區景平路241巷27號","121.508855","24.9923266666667","6500300","中和區"
"235046","733-UM","2017/08/17 19:29:22","新北市中和區忠孝街37巷30號","121.510846666667","24.9842416666667","6500300","中和區"
"235057","801-TS","2017/08/17 19:29:09","新北市中和區員山路423巷12弄1號","121.480463333333","25.0032183333333","6500300","中和區"
"235041","802-TS","2017/08/17 19:29:10","新北市中和區景安路2號","121.507836666667","24.9991516666667","6500300","中和區"
"235052","805-TS","2017/08/17 19:29:17","新北市中和區華新街143巷61號","121.506305","24.9794566666667","6500300","中和區"
"235048","896-TW","2017/08/17 19:29:05","新北市中和區忠孝街137號","121.512818333333","24.988245","6500300","中和區"
"235053","900-TW","2017/08/17 19:29:08","新北市中和區華安街17巷6-1號","121.466893333333","24.9982133333333","6500300","中和區"
"235071","911-UM","2017/08/17 19:29:17","新北市中和區中正路637巷18弄1號","121.484781666667","24.9950533333333","6500300","中和區"
"235037","AAC-213","2017/08/17 19:29:07","新北市中和區秀朗路三段10巷14弄108號","121.522988333333","24.9966783333333","6500300","中和區"
"235059","AAC-215","2017/08/17 19:29:11","新北市中和區圓通路252巷18弄1號","121.492401666667","24.9925983333333","6500300","中和區"
"220068","013-TV","2017/08/17 19:29:11","新北市板橋區翠華街6巷99號","121.482178333333","25.0254583333333","6500100","板橋區"
"220072","015-TV","2017/08/17 19:29:18","新北市板橋區金門街335號","121.429365","24.9856366666667","6500100","板橋區"
"220065","072-UY","2017/08/17 19:29:12","新北市板橋區國泰街75巷39-2號","121.468073333333","25.00528","6500100","板橋區"
"220086","073-UY","2017/08/17 19:29:03","新北市板橋區國光路31巷17號","121.456735","25.0184733333333","6500100","板橋區"
"220106","075-UY","2017/08/17 19:29:12","新北市板橋區江寧路三段87巷2弄38號","121.473165","25.0332933333333","6500100","板橋區"
"220069","AAD-861","2017/08/17 19:29:19","新北市板橋區華興街29號","121.458403333333","25.0045616666667","6500100","板橋區"
"220102","120-SR","2017/08/17 19:29:08","新北市板橋區松柏街4號","121.47412","25.02927","6500100","板橋區"
"247014","057-VK","2017/08/17 19:29:13","新北市蘆洲區復興路7號","121.471961666667","25.0852683333333","6501400","蘆洲區"
"247004","056-VK","2017/08/17 19:29:03","新北市蘆洲區長安街239號","121.459286666667","25.0830566666667","6501400","蘆洲區"
"226004","312-R5","2017/08/17 19:29:05","新北市平溪區靜安路三段386號","121.78134","25.0468483333333","6502400","平溪區"
"228003","097-TW","2017/08/17 19:29:18","新北市貢寮區和美里和美街33號","121.913818333333","25.0830583333333","6502600","貢寮區"
"228001","212-TW","2017/08/17 19:29:20","新北市貢寮區真理里大澳街48號","121.925118333333","25.056425","6502600","貢寮區"
"228002","585-TW","2017/08/17 19:29:10","新北市貢寮區龍門里龍門街69號","121.930948333333","25.0265483333333","6502600","貢寮區"
"224010","AGQ-8101","2017/08/17 19:25:03","新北市瑞芳區街頂巷103號","121.84417","25.108035","6501200","瑞芳區"
"224006","676-BX","2017/08/17 19:29:02","新北市瑞芳區三爪子坑路192號","121.8064","25.1052333333333","6501200","瑞芳區"
"224011","420-VK","2017/08/17 19:29:06","新北市瑞芳區崙頂路3-1號","121.846951666667","25.1046816666667","6501200","瑞芳區"
"227004","642-TC","2017/08/17 19:29:04","新北市雙溪區雙溪里光復街18號","121.865131666667","25.0354466666667","6502500","雙溪區"
"227010","400-TW","2017/08/17 19:29:10","新北市雙溪區新基里新基北街43號","121.868226666667","25.0397133333333","6502500","雙溪區"
"253006","032-BX","2017/08/17 19:29:10","新北市石門區楓林28-2號","121.542043333333","25.2889733333333","6502200","石門區"
"253005","295-VK","2017/08/17 19:29:04","新北市石門區小坑9號","121.594676666667","25.2871716666667","6502200","石門區"
"208002","742-BX","2017/08/17 19:29:14","新北市金山區仁愛路78巷2號","121.634655","25.22152","6502700","金山區"
"208003","665-BX","2017/08/17 19:29:00","新北市金山區中山路263巷8號","121.636386666667","25.2217416666667","6502700","金山區"
"208001","761-BX","2017/08/17 19:29:05","新北市金山區南勢54號","121.628488333333","25.2207666666667","6502700","金山區"
"251009","008-UM","2017/08/17 19:11:00","新北市淡水區中山路129巷23號","121.441711666667","25.170345","6501000","淡水區"
"251007","179-VK","2017/08/17 19:29:12","新北市淡水區淡金路59號","121.455731666667","25.1613683333333","6501000","淡水區"
"251014","182-VK","2017/08/17 19:29:12","新北市淡水區小中寮19-7號","121.484753333333","25.2296566666667","6501000","淡水區"
"251010","413-VK","2017/08/17 19:29:05","新北市淡水區中正路二段138號","121.421463333333","25.187315","6501000","淡水區"
"251016","442-VK","2017/08/17 19:29:18","新北市淡水區下圭柔山119-51號","121.450808333333","25.2083983333333","6501000","淡水區"
"251005","443-VK","2017/08/17 19:29:07","新北市淡水區水源街一段29號","121.443215","25.17247","6501000","淡水區"
"251001","559-UM","2017/08/17 19:29:03","新北市淡水區民權路177-5號","121.45972","25.135075","6501000","淡水區"
"251006","561-UM","2017/08/17 19:29:03","新北市淡水區大義街40號","121.442001666667","25.17836","6501000","淡水區"
"251011","650-BX","2017/08/17 19:29:10","新北市淡水區中正東路二段143巷2弄1號","121.460623333333","25.1475433333333","6501000","淡水區"
"251003","766-UM","2017/08/17 19:29:03","新北市淡水區中山北路二段6號","121.444568333333","25.1831716666667","6501000","淡水區"
"207003","550-UM","2017/08/17 19:29:19","新北市萬里區大鵬里萬里加投197-2號","121.644011666667","25.215075","6502800","萬里區"
"207004","225-TW","2017/08/17 19:29:06","新北市萬里區萬里里瑪鋉路61號","121.688083333333","25.17615","6502800","萬里區"
"252006","073-UM","2017/08/17 16:20:17","新北市三芝區埔坪里埔頭坑41號","121.50446","25.26448","6502100","三芝區"
"252002","178-VK","2017/08/17 19:29:19","新北市三芝區淡金路二段18-1號","121.502703333333","25.2595033333333","6502100","三芝區"
"252001","292-VK","2017/08/17 19:29:14","新北市三芝區長勤街37巷15號","121.501143333333","25.2551783333333","6502100","三芝區"
"237004","078-UY","2017/08/17 19:29:08","新北市三峽區有木206號","121.439105","24.8514983333333","6500900","三峽區"
"237007","153-BY","2017/08/17 19:29:10","新北市三峽區二鬮路178號","121.359086666667","24.9068183333333","6500900","三峽區"
"237009","210-TH","2017/08/17 19:29:03","新北市三峽區中山路31號","121.368461666667","24.9344366666667","6500900","三峽區"
"237013","252-BX","2017/08/17 19:29:22","新北市三峽區介壽路一段251號","121.379511666667","24.93023","6500900","三峽區"
"237012","275-BY","2017/08/17 19:29:09","新北市三峽區三樹路222巷254弄15號","121.392165","24.9440583333333","6500900","三峽區"
"237008","302-VK","2017/08/17 19:29:04","新北市三峽區光明路106巷2號","121.376523333333","24.9274583333333","6500900","三峽區"
"237014","433-BY","2017/08/17 19:29:06","新北市三峽區中山路122號","121.365635","24.93597","6500900","三峽區"
"237006","5529-G3","2017/08/17 19:29:00","新北市三峽區中正路一段336巷15弄2號","121.369933333333","24.9249333333333","6500900","三峽區"
"237011","572-TV","2017/08/17 19:29:13","新北市三峽區中園街237-1號","121.36709","24.919415","6500900","三峽區"
"237016","649-BX","2017/08/17 19:29:12","新北市三峽區安坑48-1號","121.458516666667","24.93227","6500900","三峽區"
"237010","706-TV","2017/08/17 19:29:01","新北市三峽區復興路45號","121.37341","24.9368083333333","6500900","三峽區"
"237005","AKY-6261","2017/08/17 19:29:21","新北市三峽區復興路367巷1弄2號","121.363843333333","24.9381766666667","6500900","三峽區"
"236071","105-UM","2017/08/17 19:29:09","新北市土城區學成路38號","121.45252","24.9874383333333","6501300","土城區"
"236078","166-UM","2017/08/17 19:29:12","新北市土城區中央路四段183號","121.414975","24.956745","6501300","土城區"
"236026","269-VK","2017/08/17 19:29:04","新北市土城區中央路二段61巷22號","121.443153333333","24.9787533333333","6501300","土城區"
"236014","270-VK","2017/08/17 19:29:03","新北市土城區廣興街9號","121.45644","24.991555","6501300","土城區"
"236021","401-BY","2017/08/17 19:29:14","新北市土城區峰廷街3號","121.469123333333","24.98734","6501300","土城區"
"236058","912-UM","2017/08/17 19:29:20","新北市土城區光明街4號","121.441788333333","24.97449","6501300","土城區"
"236051","913-UM","2017/08/17 19:29:09","新北市土城區清水路173號","121.45939","24.9814583333333","6501300","土城區"
"242029","986-R7","2017/08/17 18:31:00","新北市新莊區新泰路357巷3弄57號","121.442211666667","25.0392433333333","6500500","新莊區"
"242007","173-VK","2017/08/17 19:29:17","新北市新莊區福壽街336號","121.457783333333","25.05829","6500500","新莊區"
"238015","755-BX","2017/08/17 19:29:14","新北市樹林區復興路253號","121.419523333333","24.9902816666667","6500700","樹林區"
"238023","601-UM","2017/08/17 19:29:08","新北市樹林區三興路35號","121.396145","25.0146766666667","6500700","樹林區"
"238019","599-UM","2017/08/17 19:29:09","新北市樹林區東榮街7號","121.418058333333","24.98359","6500700","樹林區"
"238018","571-TV","2017/08/17 19:29:13","新北市樹林區中華路147號","121.421358333333","24.9822216666667","6500700","樹林區"
"238024","5061-A6","2017/08/17 19:29:07","新北市樹林區福德街47號","121.399545","24.9748433333333","6500700","樹林區"
"238022","312-TH","2017/08/17 19:29:03","新北市樹林區名園街45號","121.419668333333","24.9787166666667","6500700","樹林區"
"238021","311-TH","2017/08/17 19:29:18","新北市樹林區柑園街二段372巷3號","121.369641666667","24.9501866666667","6500700","樹林區"
"238025","303-VK","2017/08/17 19:28:59","新北市樹林區中山路一段185-1號","121.421365","24.9878716666667","6500700","樹林區"
"238017","283-BY","2017/08/17 19:29:12","新北市樹林區光興街157巷2號","121.407843333333","25.004135","6500700","樹林區"
"238014","282-BY","2017/08/17 19:29:17","新北市樹林區保安二街12號","121.42486","24.9939483333333","6500700","樹林區"
"238020","268-VK","2017/08/17 14:42:33","新北市樹林區中山路三段198號","121.386976666667","24.9690666666667","6500700","樹林區"
"238026","172-UY","2017/08/17 19:29:10","新北市樹林區佳園路三段6號","121.388221666667","24.9551866666667","6500700","樹林區"
"238016","169-UY","2017/08/17 19:29:17","新北市樹林區復興路420號","121.414196666667","24.984635","6500700","樹林區"
"239007","AAC-297","2017/08/17 19:29:06","新北市鶯歌區大湖路70號","121.342651666667","24.96242","6500800","鶯歌區"
"239006","891-R6","2017/08/17 19:29:16","新北市鶯歌區建國路512巷37號","121.339428333333","24.951205","6500800","鶯歌區"
"239005","526-UM","2017/08/17 19:29:12","新北市鶯歌區中湖街315巷1號","121.346291666667","24.9780583333333","6500800","鶯歌區"
"239001","417-VK","2017/08/17 19:29:16","新北市鶯歌區鶯桃路40號","121.341525","24.9527716666667","6500800","鶯歌區"
"239003","360-BY","2017/08/17 19:29:12","新北市鶯歌區中正一路303-1號","121.356065","24.9570166666667","6500800","鶯歌區"
"239004","193-VK","2017/08/17 19:29:06","新北市鶯歌區鶯華新村42號","121.33047","24.9340833333333","6500800","鶯歌區"
"221008","489-VK","2017/08/17 19:29:07","新北市汐止區康寧街165號","121.62237","25.0666633333333","6501100","汐止區"
"221036","130-UY","2017/08/17 19:29:18","新北市汐止區汐萬路一段256巷1號","121.651756666667","25.07487","6501100","汐止區"
"221015","131-UY","2017/08/17 19:29:13","新北市汐止區康寧街901號","121.651371666667","25.0749883333333","6501100","汐止區"
"221010","269-BY","2017/08/17 19:29:10","新北市汐止區康寧街901號","121.651496666667","25.075","6501100","汐止區"
"221031","277-VK","2017/08/17 19:29:06","新北市汐止區連峰街1巷5號","121.64589","25.0760033333333","6501100","汐止區"
"221012","278-VK","2017/08/17 19:28:29","新北市汐止區保長路102號","121.676011666667","25.0775966666667","6501100","汐止區"
"221023","279-VK","2017/08/17 19:29:06","新北市汐止區康寧街815巷3號","121.641046666667","25.07503","6501100","汐止區"
"221027","281-BY","2017/08/17 19:29:15","新北市汐止區大同路二段350號","121.656836666667","25.066995","6501100","汐止區"
"221038","297-VK","2017/08/17 19:29:18","新北市汐止區汐萬路一段312號","121.650361666667","25.07496","6501100","汐止區"
"221029","298-VK","2017/08/17 19:29:12","新北市汐止區康寧街901號","121.651545","25.075015","6501100","汐止區"
"221021","299-VK","2017/08/17 19:29:05","新北市汐止區康寧街901號","121.651378333333","25.0750783333333","6501100","汐止區"
"221025","623-UM","2017/08/17 19:29:19","新北市汐止區新台五路二段36號","121.66083","25.0653416666667","6501100","汐止區"
"221033","647-BX","2017/08/17 19:29:19","新北市汐止區南勢街1巷1號","121.627045","25.0374066666667","6501100","汐止區"
"221002","707-TV","2017/08/17 19:29:07","新北市汐止區大同路一段337巷17弄1號","121.637395","25.0598416666667","6501100","汐止區"
"221018","753-BX","2017/08/17 19:29:16","新北市汐止區康寧街901號","121.651683333333","25.0748883333333","6501100","汐止區"
"220079","145-BY","2017/08/17 19:29:08","新北市板橋區復興街27號","121.458038333333","25.017485","6500100","板橋區"
"220080","200-UY","2017/08/17 19:29:16","新北市板橋區大觀路二段19巷44號","121.44806","25.0030816666667","6500100","板橋區"
"220101","245-BX","2017/08/17 19:29:05","新北市板橋區莊敬路208巷4弄1號","121.471523333333","25.0210283333333","6500100","板橋區"
"220103","257-TC","2017/08/17 19:29:14","新北市板橋區文化路一段339號","121.466716666667","25.02069","6500100","板橋區"
"220094","267-BY","2017/08/17 19:29:09","新北市板橋區吳鳳路17巷10-2號","121.467591666667","25.0301466666667","6500100","板橋區"
"220056","276-BY","2017/08/17 19:29:17","新北市板橋區信義路1巷26弄44號","121.459061666667","24.99666","6500100","板橋區"
"220082","282-UM","2017/08/17 19:29:13","新北市板橋區溪城路85號","121.426866666667","24.9835066666667","6500100","板橋區"
"220071","283-VK","2017/08/17 19:29:17","新北市板橋區重慶路247-3號","121.46323","25.0003333333333","6500100","板橋區"
"220053","285-VK","2017/08/17 19:29:03","新北市板橋區永豐街211號","121.476651666667","25.0211116666667","6500100","板橋區"
"220083","286-VK","2017/08/17 19:29:12","新北市板橋區龍興街73巷9號","121.443381666667","25.002295","6500100","板橋區"
"220081","287-VK","2017/08/17 19:18:50","新北市板橋區南雅西路二段65號","121.452838333333","25.0096966666667","6500100","板橋區"
"220090","288-VK","2017/08/17 19:29:17","新北市板橋區裕民街87-4號","121.460411666667","25.0280516666667","6500100","板橋區"
"220061","293-UM","2017/08/17 19:29:07","新北市板橋區中山路二段363號","121.479811666667","25.01911","6500100","板橋區"
"220055","295-UM","2017/08/17 19:29:02","新北市板橋區實踐路195號","121.464458333333","25.0031","6500100","板橋區"
"220084","296-UM","2017/08/17 19:29:19","新北市板橋區滿平街136巷1弄1號","121.428681666667","24.9879916666667","6500100","板橋區"
"220075","297-UM","2017/08/17 19:29:12","新北市板橋區中正路289巷3號","121.45515","25.0191616666667","6500100","板橋區"
"220098","299-UM","2017/08/17 19:29:13","新北市板橋區四維路266巷5弄16號","121.463608333333","25.028965","6500100","板橋區"
"220062","305-R5","2017/08/17 19:29:05","新北市板橋區三民路二段153巷36弄2號","121.48111","25.0141716666667","6500100","板橋區"
"220092","307-R5","2017/08/17 19:29:11","新北市板橋區光武街4巷1號","121.46816","25.025285","6500100","板橋區"
"220064","486-VK","2017/08/17 19:29:10","新北市板橋區中山路一段72號","121.461643333333","25.0100283333333","6500100","板橋區"
"220089","487-VK","2017/08/17 19:29:15","新北市板橋區文化路一段135號","121.46214","25.0152333333333","6500100","板橋區"
"220088","491-VK","2017/08/17 19:29:04","新北市板橋區雙十路二段20號","121.476316666667","25.02696","6500100","板橋區"
"220035","560-BX","2017/08/17 19:29:07","新北市板橋區中正路433巷1弄8-3號","121.453641666667","25.023075","6500100","板橋區"
"220063","609-BX","2017/08/17 19:29:20","新北市板橋區萬安街92號","121.483865","25.0239483333333","6500100","板橋區"
"220091","637-BX","2017/08/17 19:29:08","新北市板橋區文聖街149巷16號","121.47928","25.0282883333333","6500100","板橋區"
"220057","686-BX","2017/08/17 19:29:06","新北市板橋區和平路153號","121.463385","24.9956233333333","6500100","板橋區"
"220077","687-BX","2017/08/17 19:29:20","新北市板橋區僑中二街108巷1號","121.445848333333","25.00712","6500100","板橋區"
"220093","689-BX","2017/08/17 19:29:01","新北市板橋區新海路8號","121.462586666667","25.020865","6500100","板橋區"
"220054","741-BX","2017/08/17 19:29:20","新北市板橋區光明街132號","121.463643333333","25.00306","6500100","板橋區"
"220067","829-TW","2017/08/17 19:29:18","新北市板橋區漢生東路313巷30號","121.472986666667","25.00845","6500100","板橋區"
"220096","831-TW","2017/08/17 19:29:04","新北市板橋區大同街23號","121.47755","25.0270316666667","6500100","板橋區"
"220074","895-R6","2017/08/17 19:29:06","新北市板橋區中正路自強新村29號","121.454835","25.01402","6500100","板橋區"
"220073","985-R7","2017/08/17 19:29:11","新北市板橋區瑞安街17號","121.455148333333","25.0231583333333","6500100","板橋區"
"220097","AAC-210","2017/08/17 19:29:12","新北市板橋區幸福路60巷81號","121.459701666667","25.0219816666667","6500100","板橋區"
"220070","AAC-253","2017/08/17 19:29:17","新北市板橋區忠孝路191號","121.464548333333","25.0026033333333","6500100","板橋區"
