"lineid","car","time","location","longitude","latitude","cityid","cityname"
"234046","148-BY","2017/08/17 19:38:55","新北市永和區秀朗路二段84號","121.52334","25.0017","6500400","永和區"
"234013","149-BY","2017/08/17 19:38:51","新北市永和區永平路246號","121.508663333333","25.01104","6500400","永和區"
"234007","207-UY","2017/08/17 19:38:55","新北市中和區中和路416號","121.511576666667","25.00313","6500400","永和區"
"234081","298-R6","2017/08/17 19:38:51","新北市永和區林森路20巷1號","121.526045","25.0053783333333","6500400","永和區"
"234038","336-UY","2017/08/17 19:38:48","新北市永和區環河東路四段32號","121.528541666667","24.9992033333333","6500400","永和區"
"234064","337-UY","2017/08/17 19:38:43","新北市永和區秀朗路一段192巷6弄14號","121.519095","25.0022966666667","6500400","永和區"
"234086","338-UY","2017/08/17 19:38:41","新北市永和區永亨路165巷1-4號","121.526111666667","25.0041883333333","6500400","永和區"
"234054","553-UM","2017/08/17 19:38:49","新北市永和區竹林路39巷10號","121.518361666667","25.0144266666667","6500400","永和區"
"234017","745-BX","2017/08/17 19:38:38","新北市永和區忠孝街26巷8號","121.515371666667","25.0167933333333","6500400","永和區"
"234030","746-BX","2017/08/17 19:38:49","新北市永和區四維街89巷2弄1號","121.524423333333","24.9977166666667","6500400","永和區"
"234061","AAD-866","2017/08/17 19:38:57","新北市永和區永貞路218號","121.515088333333","25.0039583333333","6500400","永和區"
"234070","847-RS","2017/08/17 19:38:44","新北市永和區永和路二段239-1號","121.51574","25.0145816666667","6500400","永和區"
"234042","862-TW","2017/08/17 19:38:48","新北市永和區中和路597巷4號","121.512263333333","25.00451","6500400","永和區"
"234050","863-TW","2017/08/17 19:38:54","新北市永和區環河西路一段113號","121.51091","25.0172233333333","6500400","永和區"
"234026","9371-KE","2017/08/17 19:38:42","新北市永和區中和路501巷9號","121.510471666667","25.00276","6500400","永和區"
"249004","303-UY","2017/08/17 19:38:48","新北市八里區仁愛路35號","121.413523333333","25.1606066666667","6502300","八里區"
"249002","305-UY","2017/08/17 19:38:46","新北市八里區頂寮二街33-1號","121.450331666667","25.12513","6502300","八里區"
"249003","593-UM","2017/08/17 19:38:56","新北市八里區中華路二段508-1號","121.399511666667","25.145595","6502300","八里區"
"248014","025-BX","2017/08/17 19:38:42","新北市五股區民義路一段174號","121.43291","25.0878","6501500","五股區"
"248016","026-BX","2017/08/17 19:38:52","新北市五股區成泰路三段544-18號","121.452743333333","25.1035033333333","6501500","五股區"
"248008","095-VK","2017/08/17 19:38:53","新北市五股區四維路153號","121.46767","25.0745083333333","6501500","五股區"
"248020","225-UY","2017/08/17 19:38:55","新北市五股區中直路19-2號","121.423385","25.112005","6501500","五股區"
"248012","247-BX","2017/08/17 19:38:56","新北市五股區民義路一段48號","121.436951666667","25.0847916666667","6501500","五股區"
"248010","272-BY","2017/08/17 19:38:42","新北市五股區自強路90巷2號","121.432108333333","25.0726716666667","6501500","五股區"
"248004","677-BX","2017/08/17 19:38:41","新北市五股區成泰路二段129號","121.438691666667","25.0848516666667","6501500","五股區"
"248002","678-BX","2017/08/17 19:38:35","新北市五股區成泰路三段577巷60號","121.450451666667","25.1033466666667","6501500","五股區"
"234077","969-R7","2017/08/17 19:38:46","新北市永和區民權路29巷19號","121.521035","24.9980366666667","6500400","永和區"
"234074","AAC-211","2017/08/17 19:38:55","新北市永和區竹林路225巷42號","121.522073333333","25.0086166666667","6500400","永和區"
"234067","AAC-212","2017/08/17 19:38:38","新北市永和區中山路一段201號","121.508955","25.00871","6500400","永和區"
"234003","AAC-295","2017/08/17 19:38:55","新北市永和區自由街8號","121.514745","25.0069133333333","6500400","永和區"
"232007","290-BY","2017/08/17 08:48:09","新北市坪林區北宜路八段558號","121.718185","24.9093116666667","6502000","坪林區"
"244019","403-UM","2017/08/17 19:38:42","新北市林口區麗園二街1巷4-2號","121.377516666667","25.070035","6501700","林口區"
"244011","701-TV","2017/08/17 19:38:47","新北市林口區太平里180號","121.367998333333","25.133875","6501700","林口區"
"243013","AAD-798","2017/08/17 19:38:57","新北市泰山區應化街7號","121.424005","25.0437483333333","6501600","泰山區"
"243009","297-R6","2017/08/17 19:38:39","新北市泰山區美寧街60號","121.430948333333","25.06464","6501600","泰山區"
"243015","380-SR","2017/08/17 19:38:53","新北市泰山區民權街15號","121.428388333333","25.0509066666667","6501600","泰山區"
"243014","421-VK","2017/08/17 19:38:39","新北市泰山區泰林路二段33-7號","121.435238333333","25.0564483333333","6501600","泰山區"
"243010","548-UM","2017/08/17 19:38:55","新北市泰山區明志路二段7巷20號","121.430841666667","25.0532616666667","6501600","泰山區"
"243011","549-UM","2017/08/17 19:38:46","新北市泰山區明志路三段204巷10弄1號","121.423303333333","25.0384033333333","6501600","泰山區"
"243012","646-TV","2017/08/17 19:38:56","新北市泰山區仁武街21號","121.433576666667","25.05459","6501600","泰山區"
"243016","680-BX","2017/08/17 19:38:40","新北市泰山區新北大道七段18號","121.42042","25.03222","6501600","泰山區"
"222003","436-BY","2017/08/17 19:34:30","新北市深坑區深南路51-1號","121.621178333333","25.0100066666667","6501800","深坑區"
"222002","659-BX","2017/08/17 19:38:52","新北市深坑區北深路一段177號","121.632588333333","25.0108816666667","6501800","深坑區"
"222001","696-SL","2017/08/17 19:38:55","新北市深坑區北深路二段200號","121.613005","25.0015983333333","6501800","深坑區"
"231041","002-UM","2017/08/17 19:38:40","新北市新店區中正路485號","121.533753333333","24.9818633333333","6500600","新店區"
"231059","046-UY","2017/08/17 19:38:53","新北市新店區安和路二段231號","121.517116666667","24.9762183333333","6500600","新店區"
"231061","047-UY","2017/08/17 19:38:48","新北市新店區安民街125號","121.516343333333","24.9687316666667","6500600","新店區"
"231060","106-UY","2017/08/17 19:38:41","新北市新店區安康路二段160號","121.512348333333","24.9607216666667","6500600","新店區"
"231051","107-UY","2017/08/17 19:38:38","新北市新店區中央四街68號","121.526863333333","24.9754316666667","6500600","新店區"
"231047","108-UY","2017/08/17 19:38:39","新北市新店區五峰路63巷8弄18號","121.547211666667","24.9693116666667","6500600","新店區"
"231064","110-UY","2017/08/17 19:38:51","新北市新店區安和路一段52巷2號","121.517625","24.9661816666667","6500600","新店區"
"231052","187-VK","2017/08/17 19:38:54","新北市新店區新烏路二段392號","121.551478333333","24.9092816666667","6500600","新店區"
"231007","189-VK","2017/08/17 12:11:32","新北市新店區安華路28-1號","121.519595","24.9610916666667","6500600","新店區"
"231057","256-BX","2017/08/17 19:38:46","新北市新店區橘園一路11號","121.547988333333","24.9340216666667","6500600","新店區"
"231046","278-BY","2017/08/17 19:38:46","新北市新店區中正路329巷1弄2號","121.535588333333","24.97488","6500600","新店區"
"231050","AAD-862","2017/08/17 19:38:42","新北市新店區郵政路1號","121.557581666667","24.9524766666667","6500600","新店區"
"231058","3712-VJ","2017/08/17 19:38:57","新北市新店區寶橋路85巷5弄3號","121.545675","24.97592","6500600","新店區"
"231067","4772-VM","2017/08/17 19:38:50","新北市新店區安康路一段351-1號","121.519426666667","24.9639116666667","6500600","新店區"
"231065","512-UM","2017/08/17 19:38:51","新北市新店區安祥路109巷11號","121.475871666667","24.958975","6500600","新店區"
"231054","513-UM","2017/08/17 19:38:42","新北市新店區文中路31號","121.538848333333","24.95704","6500600","新店區"
"231042","616-UM","2017/08/17 19:38:55","新北市新店區中興路一段216號","121.543848333333","24.965805","6500600","新店區"
"231040","619-UM","2017/08/17 19:38:57","新北市新店區北新路一段96巷23號","121.542891666667","24.9688383333333","6500600","新店區"
"231063","645-TV","2017/08/17 19:38:38","新北市新店區達觀路41號","121.502476666667","24.938435","6500600","新店區"
"231049","719-UM","2017/08/17 19:38:56","新北市新店區大豐路43號","121.540248333333","24.9798366666667","6500600","新店區"
"231062","720-UM","2017/08/17 19:38:43","新北市新店區合作路5號","121.533481666667","24.9577766666667","6500600","新店區"
"231044","897-TW","2017/08/17 19:38:41","新北市新店區北新路三段150號","121.541431666667","24.9824683333333","6500600","新店區"
"231045","898-TW","2017/08/17 19:38:56","新北市新店區北宜路二段108-1號","121.555791666667","24.9536416666667","6500600","新店區"
"231043","899-TW","2017/08/17 19:38:43","新北市新店區北新路二段98號","121.54302","24.97331","6500600","新店區"
"231066","AKT-0513","2017/08/17 19:38:44","新北市新店區安康路二段341巷50號","121.496653333333","24.9543283333333","6500600","新店區"
"241011","013-R5","2017/08/17 19:38:53","新北市三重區秀江街202號","121.497528333333","25.0715983333333","6500200","三重區"
"241028","022-UY","2017/08/17 19:38:44","新北市三重區中正南路165號","121.49381","25.0558983333333","6500200","三重區"
"241009","060-VK","2017/08/17 19:38:52","新北市三重區永安北路一段121號","121.480441666667","25.079795","6500200","三重區"
"241031","061-VK","2017/08/17 19:38:51","新北市三重區重新路四段244巷32號","121.486908333333","25.0536316666667","6500200","三重區"
"241015","062-VK","2017/08/17 19:38:56","新北市三重區福德北路20號","121.502293333333","25.0645716666667","6500200","三重區"
"241017","063-VK","2017/08/17 19:38:50","新北市三重區大同北路223號","121.491381666667","25.0661916666667","6500200","三重區"
"241026","066-VK","2017/08/17 19:38:54","新北市三重區光興街59號","121.498851666667","25.0602066666667","6500200","三重區"
"241006","156-TC","2017/08/17 19:38:51","新北市三重區車路頭街78號","121.484348333333","25.07404","6500200","三重區"
"241008","265-UM","2017/08/17 19:38:55","新北市三重區永福街74號","121.47891","25.0767366666667","6500200","三重區"
"241022","267-UM","2017/08/17 19:38:49","新北市三重區三民街175巷4號","121.4836","25.06542","6500200","三重區"
"241032","269-UM","2017/08/17 19:38:49","新北市三重區三陽路115號","121.483571666667","25.0588983333333","6500200","三重區"
"241013","270-UM","2017/08/17 19:38:40","新北市三重區仁愛街119號","121.495388333333","25.0745133333333","6500200","三重區"
"241007","398-BY","2017/08/17 19:38:56","新北市三重區溪尾街126巷76號","121.487903333333","25.0787966666667","6500200","三重區"
"241020","412-TH","2017/08/17 19:38:56","新北市三重區大智街195號","121.489393333333","25.0734683333333","6500200","三重區"
"241035","462-BY","2017/08/17 19:38:48","新北市三重區正義北路99號","121.496981666667","25.065385","6500200","三重區"
"241019","478-VK","2017/08/17 19:38:38","新北市三重區六張街194巷1弄13號","121.488105","25.068195","6500200","三重區"
"241030","480-VK","2017/08/17 19:38:54","新北市三重區新興路28巷9號","121.491723333333","25.0529783333333","6500200","三重區"
"241014","543-UM","2017/08/17 19:38:54","新北市三重區河邊北街84-1號","121.504193333333","25.0693516666667","6500200","三重區"
"241023","545-UM","2017/08/17 19:38:58","新北市三重區忠孝路三段99巷20號","121.479508333333","25.064195","6500200","三重區"
"241001","547-UM","2017/08/17 19:38:48","新北市三重區仁愛街315巷1號","121.492776666667","25.0793316666667","6500200","三重區"
"241025","887-TS","2017/08/17 19:38:52","新北市三重區頂崁街201巷1號","121.477411666667","25.0669066666667","6500200","三重區"
"241012","941-UM","2017/08/17 19:38:44","新北市三重區河邊北街256巷11號","121.501306666667","25.0761966666667","6500200","三重區"
"241029","942-UM","2017/08/17 19:38:42","新北市三重區同安街137號","121.493331666667","25.05607","6500200","三重區"
"235066","003-UY","2017/08/17 19:38:57","新北市中和區景新街164號","121.505811666667","24.9971033333333","6500300","中和區"
"235064","005-UY","2017/08/17 19:38:44","新北市中和區南山路131-1號","121.50233","24.9966366666667","6500300","中和區"
"235063","006-UY","2017/08/17 19:38:42","新北市中和區連城路203巷10弄9號","121.494906666667","24.9970083333333","6500300","中和區"
"235056","096-UM","2017/08/17 19:38:52","新北市中和區員山路581巷2弄7-2號","121.477806666667","25.00973","6500300","中和區"
"235039","097-UM","2017/08/17 19:38:44","新北市中和區秀峰街119巷8弄9號","121.519053333333","24.9898916666667","6500300","中和區"
"235065","098-UM","2017/08/17 19:38:41","新北市中和區中山路二段2巷13弄37號","121.502558333333","25.006505","6500300","中和區"
"235040","150-BY","2017/08/17 19:38:48","新北市中和區宜安路78號","121.511116666667","24.9973266666667","6500300","中和區"
"235058","151-BY","2017/08/17 19:38:46","新北市中和區員山路124巷2號","121.48148","24.9958933333333","6500300","中和區"
"235055","183-VK","2017/08/17 19:38:43","新北市中和區民享街86巷29號","121.472921666667","25.0004016666667","6500300","中和區"
"235038","185-VK","2017/08/17 19:38:49","新北市中和區自強路50號","121.520135","24.9948533333333","6500300","中和區"
"235049","186-VK","2017/08/17 19:38:46","新北市中和區景新街273巷20號","121.510298333333","24.9939616666667","6500300","中和區"
"235067","255-BX","2017/08/17 19:38:56","新北市中和區新生街242巷11弄8號","121.482895","24.9974433333333","6500300","中和區"
"235044","293-VK","2017/08/17 19:38:38","新北市中和區捷運路102號","121.505576666667","24.991485","6500300","中和區"
"235072","301-VK","2017/08/17 19:38:50","新北市中和區錦和路91-1號","121.490108333333","24.99571","6500300","中和區"
"235043","352-BY","2017/08/17 19:38:56","新北市中和區安和路9號","121.511501666667","24.9936266666667","6500300","中和區"
"235051","376-QA","2017/08/17 19:38:52","新北市中和區景平路383-5號","121.503055","24.9939716666667","6500300","中和區"
"235068","377-QA","2017/08/17 19:38:53","新北市中和區景平路624號","121.500501666667","24.997575","6500300","中和區"
"235061","378-QA","2017/08/17 19:38:42","新北市中和區民安街15號","121.480611666667","25.0007333333333","6500300","中和區"
"235050","4979-A6","2017/08/17 19:38:53","新北市中和區中正路273-2號","121.495556666667","24.9935583333333","6500300","中和區"
"235042","551-UM","2017/08/17 19:38:50","新北市中和區中和路262巷49號","121.510123333333","25.0000166666667","6500300","中和區"
"235070","558-UM","2017/08/17 19:36:31","新北市中和區景平路632-8號","121.499725","24.9987066666667","6500300","中和區"
"235045","565-BX","2017/08/17 19:38:43","新北市中和區景德街130號","121.514373333333","24.9910316666667","6500300","中和區"
"235054","640-BX","2017/08/17 19:38:58","新北市中和區國光街112巷24弄1-3號","121.470441666667","25.002395","6500300","中和區"
"235060","647-TV","2017/08/17 19:38:50","新北市中和區中山路二段523巷56號","121.482243333333","25.0029966666667","6500300","中和區"
"235047","732-UM","2017/08/17 19:38:41","新北市中和區景平路259巷37號","121.506548333333","24.9927666666667","6500300","中和區"
"235046","733-UM","2017/08/17 19:38:42","新北市中和區忠孝街88號","121.511626666667","24.9843483333333","6500300","中和區"
"235057","801-TS","2017/08/17 19:38:49","新北市中和區中山路三段2號","121.479881666667","25.0061533333333","6500300","中和區"
"235041","802-TS","2017/08/17 19:38:50","新北市中和區中和路320號","121.509685","25.0005533333333","6500300","中和區"
"235052","805-TS","2017/08/17 19:38:57","新北市中和區華新街143巷70號","121.50635","24.97919","6500300","中和區"
"235048","896-TW","2017/08/17 19:38:45","新北市中和區忠孝街80號","121.512156666667","24.9843216666667","6500300","中和區"
"235053","900-TW","2017/08/17 19:38:45","新北市中和區華順街30巷5號","121.467225","24.99906","6500300","中和區"
"235071","911-UM","2017/08/17 19:38:57","新北市中和區新生街114巷1號","121.483491666667","25.0024533333333","6500300","中和區"
"235037","AAC-213","2017/08/17 19:38:47","新北市永和區成功路二段193號","121.526626666667","24.99646","6500300","中和區"
"235059","AAC-215","2017/08/17 19:38:51","新北市中和區錦和路203巷9號","121.491225","24.99059","6500300","中和區"
"220068","013-TV","2017/08/17 19:38:51","新北市板橋區中山路二段531巷17弄1號","121.482798333333","25.02216","6500100","板橋區"
"220072","015-TV","2017/08/17 19:38:57","新北市板橋區金門街222號","121.430986666667","24.987975","6500100","板橋區"
"220065","072-UY","2017/08/17 19:38:48","新北市板橋區國泰街38巷3弄18號","121.468141666667","25.0067133333333","6500100","板橋區"
"220086","073-UY","2017/08/17 19:38:43","新北市板橋區中正路236巷77號","121.4591","25.0196116666667","6500100","板橋區"
"220106","075-UY","2017/08/17 19:38:52","新北市板橋區江寧路三段53號","121.47177","25.0320633333333","6500100","板橋區"
"220069","AAD-861","2017/08/17 19:38:44","新北市板橋區大明街20巷29弄19號","121.457805","25.0034666666667","6500100","板橋區"
"220102","120-SR","2017/08/17 19:38:48","新北市板橋區文化路二段410巷40號","121.47459","25.0305133333333","6500100","板橋區"
"247008","339-TH","2017/08/17 19:38:40","新北市蘆洲區中山一路138號","121.476245","25.081655","6501400","蘆洲區"
"247002","336-TH","2017/08/17 19:38:52","新北市蘆洲區三民路593-1號","121.461018333333","25.093605","6501400","蘆洲區"
"247014","057-VK","2017/08/17 19:38:54","新北市蘆洲區中正路102號","121.469686666667","25.0843533333333","6501400","蘆洲區"
"247004","056-VK","2017/08/17 19:38:43","新北市蘆洲區長安街98巷15號","121.462785","25.08176","6501400","蘆洲區"
"226004","312-R5","2017/08/17 19:38:45","新北市平溪區十分里十分街86號","121.776516666667","25.0423616666667","6502400","平溪區"
"228003","097-TW","2017/08/17 19:38:58","新北市貢寮區真理里美艷山街15-3號","121.92371","25.0680066666667","6502600","貢寮區"
"228001","212-TW","2017/08/17 19:38:40","新北市貢寮區真理里延平街61號","121.924625","25.0556833333333","6502600","貢寮區"
"224010","AGQ-8101","2017/08/17 19:36:37","新北市瑞芳區輕便路264號","121.844651666667","25.10881","6501200","瑞芳區"
"224002","639-TC","2017/08/17 19:38:46","新北市瑞芳區民享新村13號","121.816603333333","25.1057816666667","6501200","瑞芳區"
"224011","420-VK","2017/08/17 19:38:46","新北市瑞芳區崙頂路3-1號","121.847031666667","25.1047066666667","6501200","瑞芳區"
"227004","642-TC","2017/08/17 19:38:44","新北市雙溪區雙溪里勝利街14-1號","121.865521666667","25.0357516666667","6502500","雙溪區"
"227010","400-TW","2017/08/17 19:38:50","新北市雙溪區新基里新基北街18號","121.867165","25.0385216666667","6502500","雙溪區"
"253006","032-BX","2017/08/17 19:38:50","新北市石門區小坑9號","121.593723333333","25.2879683333333","6502200","石門區"
"208002","742-BX","2017/08/17 19:38:56","新北市金山區四維路23號","121.635155","25.2227783333333","6502700","金山區"
"208003","665-BX","2017/08/17 19:38:42","新北市金山區忠孝一路28號","121.638285","25.2198233333333","6502700","金山區"
"208001","761-BX","2017/08/17 19:38:43","新北市金山區重和里六股林口13號","121.605111666667","25.22188","6502700","金山區"
"251009","008-UM","2017/08/17 19:11:00","新北市淡水區中山路129巷23號","121.441711666667","25.170345","6501000","淡水區"
"251007","179-VK","2017/08/17 19:38:52","新北市淡水區中正東路一段3巷21號","121.451761666667","25.1662383333333","6501000","淡水區"
"251008","181-VK","2017/08/17 19:38:56","新北市淡水區中正路382號","121.428751666667","25.1756633333333","6501000","淡水區"
"251014","182-VK","2017/08/17 19:38:52","新北市淡水區桂竹圍4-2號","121.474543333333","25.2318666666667","6501000","淡水區"
"251010","413-VK","2017/08/17 19:38:45","新北市淡水區新市三路一段336號","121.429966666667","25.1953366666667","6501000","淡水區"
"251016","442-VK","2017/08/17 19:38:38","新北市淡水區下圭柔山119-51號","121.450803333333","25.2084133333333","6501000","淡水區"
"251005","443-VK","2017/08/17 19:38:47","新北市淡水區水源街一段71巷18號","121.444286666667","25.172965","6501000","淡水區"
"251001","559-UM","2017/08/17 19:38:44","新北市淡水區民權路79號","121.45982","25.1384466666667","6501000","淡水區"
"251006","561-UM","2017/08/17 19:38:43","新北市淡水區中山北路一段207巷72號","121.4415","25.179275","6501000","淡水區"
"251011","650-BX","2017/08/17 19:38:50","新北市淡水區八勢路22巷3號","121.461358333333","25.15394","6501000","淡水區"
"207003","550-UM","2017/08/17 19:38:49","新北市萬里區大鵬里下社26號","121.648766666667","25.2173333333333","6502800","萬里區"
"207004","225-TW","2017/08/17 19:38:46","新北市萬里區萬里里瑪鋉路85-2號","121.688661666667","25.1771733333333","6502800","萬里區"
"252006","073-UM","2017/08/17 16:20:17","新北市三芝區埔坪里埔頭坑41號","121.50446","25.26448","6502100","三芝區"
"252002","178-VK","2017/08/17 19:38:39","新北市三芝區淡金路二段39號","121.503133333333","25.2599733333333","6502100","三芝區"
"252001","292-VK","2017/08/17 19:38:54","新北市三芝區公正街9號","121.499781666667","25.2575166666667","6502100","三芝區"
"237004","078-UY","2017/08/17 19:38:48","新北市三峽區插角217-1號","121.414865","24.868445","6500900","三峽區"
"237007","153-BY","2017/08/17 19:38:50","新北市三峽區二鬮路178號","121.359098333333","24.906815","6500900","三峽區"
"237009","210-TH","2017/08/17 19:38:43","新北市三峽區中園街33號","121.368326666667","24.9264983333333","6500900","三峽區"
"237013","252-BX","2017/08/17 19:38:42","新北市三峽區介壽路一段530號","121.386595","24.9330516666667","6500900","三峽區"
"237012","275-BY","2017/08/17 19:38:50","新北市三峽區三樹路98巷169號","121.38444","24.9392766666667","6500900","三峽區"
"237008","302-VK","2017/08/17 19:38:44","新北市三峽區永安街183號","121.373183333333","24.92678","6500900","三峽區"
"237014","433-BY","2017/08/17 19:38:46","新北市三峽區中園街191號","121.367076666667","24.9211583333333","6500900","三峽區"
"237006","5529-G3","2017/08/17 19:38:40","新北市三峽區中正路一段336巷15弄2號","121.369936666667","24.9249366666667","6500900","三峽區"
"237016","649-BX","2017/08/17 19:38:52","新北市三峽區成福路259號","121.427911666667","24.9234783333333","6500900","三峽區"
"237010","706-TV","2017/08/17 19:38:41","新北市三峽區復興路105號","121.371898333333","24.9379583333333","6500900","三峽區"
"237005","AKY-6261","2017/08/17 19:38:41","新北市三峽區中山路219巷1號","121.363236666667","24.9366316666667","6500900","三峽區"
"236071","105-UM","2017/08/17 19:38:49","新北市土城區裕民路185巷36弄10號","121.454361666667","24.98455","6501300","土城區"
"236042","107-UM","2017/08/17 19:38:48","新北市土城區學士路31號","121.453003333333","24.9823216666667","6501300","土城區"
"236078","166-UM","2017/08/17 19:38:52","新北市土城區中州路27巷15號","121.413448333333","24.957475","6501300","土城區"
"236030","253-BX","2017/08/17 19:38:56","新北市土城區福祥街20號","121.440915","24.9800166666667","6501300","土城區"
"236026","269-VK","2017/08/17 19:38:44","新北市土城區中央路二段61巷22號","121.443271666667","24.9788016666667","6501300","土城區"
"236037","271-VK","2017/08/17 19:38:56","新北市土城區清水路98巷3弄45號","121.458518333333","24.9809116666667","6501300","土城區"
"236021","401-BY","2017/08/17 19:38:54","新北市土城區峰廷街3號","121.469125","24.98733","6501300","土城區"
"236051","913-UM","2017/08/17 19:38:45","新北市土城區明德路一段45號","121.465205","24.985215","6501300","土城區"
"236062","915-UM","2017/08/17 19:38:52","新北市土城區延平街24號","121.468218333333","24.9913883333333","6501300","土城區"
"236053","AAC-216","2017/08/17 19:38:53","新北市土城區學府路一段217號","121.45142","24.984375","6501300","土城區"
"242029","986-R7","2017/08/17 18:31:00","新北市新莊區新泰路357巷3弄57號","121.442211666667","25.0392433333333","6500500","新莊區"
"242023","613-BX","2017/08/17 19:38:39","新北市新莊區新泰路421-9號","121.442396666667","25.0447983333333","6500500","新莊區"
"242004","442-UM","2017/08/17 19:38:47","新北市新莊區化成路13號","121.464981666667","25.043365","6500500","新莊區"
"242031","415-TV","2017/08/17 19:38:46","新北市新莊區新泰路209號","121.44581","25.0387283333333","6500500","新莊區"
"242034","133-UY","2017/08/17 19:38:50","新北市新莊區仁愛街12號","121.44424","25.0352766666667","6500500","新莊區"
"242007","173-VK","2017/08/17 19:38:57","新北市新莊區福壽街336號","121.457801666667","25.05829","6500500","新莊區"
"242013","175-VK","2017/08/17 19:38:37","新北市新莊區中誠街147巷7號","121.448868333333","25.04701","6500500","新莊區"
"242017","348-TH","2017/08/17 19:38:47","新北市新莊區新泰路255巷83號","121.44239","25.03865","6500500","新莊區"
"242015","350-TH","2017/08/17 19:38:46","新北市新莊區新泰路413巷25號","121.442393333333","25.0442733333333","6500500","新莊區"
"238015","755-BX","2017/08/17 19:38:54","新北市樹林區日新街117號","121.421301666667","24.9896383333333","6500700","樹林區"
"238023","601-UM","2017/08/17 19:38:49","新北市樹林區三福街25號","121.40862","25.01668","6500700","樹林區"
"238018","571-TV","2017/08/17 19:38:53","新北市樹林區八德街236號","121.412843333333","24.9705433333333","6500700","樹林區"
"238024","5061-A6","2017/08/17 19:38:58","新北市樹林區山佳街19號","121.39379","24.972795","6500700","樹林區"
"238022","312-TH","2017/08/17 19:38:43","新北市樹林區名園街78巷4號","121.419981666667","24.9777166666667","6500700","樹林區"
"238021","311-TH","2017/08/17 19:38:58","新北市樹林區學府路600號","121.383285","24.9511433333333","6500700","樹林區"
"238025","303-VK","2017/08/17 19:38:39","新北市樹林區中山路一段85號","121.423545","24.991385","6500700","樹林區"
"238017","283-BY","2017/08/17 19:38:52","新北市樹林區光興街18號","121.412348333333","25.0028616666667","6500700","樹林區"
"238014","282-BY","2017/08/17 19:38:57","新北市樹林區保安二街64巷25號","121.424468333333","24.9965866666667","6500700","樹林區"
"238020","268-VK","2017/08/17 14:42:33","新北市樹林區中山路三段198號","121.386976666667","24.9690666666667","6500700","樹林區"
"238026","172-UY","2017/08/17 19:38:50","新北市樹林區佳園路三段23號","121.388276666667","24.95472","6500700","樹林區"
"238016","169-UY","2017/08/17 19:38:57","新北市樹林區東和街22-1號","121.403668333333","24.98098","6500700","樹林區"
"239007","AAC-297","2017/08/17 19:38:47","新北市鶯歌區大湖路326巷27號","121.346195","24.9701783333333","6500800","鶯歌區"
"239006","891-R6","2017/08/17 19:38:56","新北市鶯歌區鶯桃路35號","121.343121666667","24.95052","6500800","鶯歌區"
"239004","193-VK","2017/08/17 19:38:45","新北市鶯歌區鶯華新村1號","121.329923333333","24.93504","6500800","鶯歌區"
"221008","489-VK","2017/08/17 19:39:00","新北市汐止區康寧街141巷20弄1號","121.621466666667","25.0678","6501100","汐止區"
"221036","130-UY","2017/08/17 19:38:58","新北市汐止區汐萬路一段256巷1號","121.651753333333","25.074905","6501100","汐止區"
"221015","131-UY","2017/08/17 19:38:53","新北市汐止區康寧街901號","121.65145","25.0749783333333","6501100","汐止區"
"221010","269-BY","2017/08/17 19:38:50","新北市汐止區汐萬路一段418巷3號","121.649705","25.0784483333333","6501100","汐止區"
"221031","277-VK","2017/08/17 19:38:46","新北市汐止區福德三路127號","121.633591666667","25.067575","6501100","汐止區"
"221012","278-VK","2017/08/17 19:38:49","新北市汐止區大同路三段334號","121.679608333333","25.0709333333333","6501100","汐止區"
"221023","279-VK","2017/08/17 19:38:52","新北市汐止區明峰街190號","121.628203333333","25.0697716666667","6501100","汐止區"
"221032","280-BY","2017/08/17 19:38:55","新北市汐止區新台五路一段78號","121.646991666667","25.06101","6501100","汐止區"
"221027","281-BY","2017/08/17 19:38:53","新北市汐止區忠孝東路9號","121.658313333333","25.06598","6501100","汐止區"
"221038","297-VK","2017/08/17 19:38:58","新北市汐止區忠孝東路234號","121.662418333333","25.0669466666667","6501100","汐止區"
"221029","298-VK","2017/08/17 19:38:52","新北市汐止區康寧街901號","121.651476666667","25.0750016666667","6501100","汐止區"
"221021","299-VK","2017/08/17 19:38:45","新北市汐止區大同路二段175號","121.651698333333","25.0642866666667","6501100","汐止區"
"221025","623-UM","2017/08/17 19:38:39","新北市汐止區福安街20巷15號","121.662305","25.0647233333333","6501100","汐止區"
"221033","647-BX","2017/08/17 19:38:39","新北市汐止區南勢街1巷1號","121.627068333333","25.0374183333333","6501100","汐止區"
"221002","707-TV","2017/08/17 19:38:47","新北市汐止區大同路一段219巷27號","121.63329","25.0583966666667","6501100","汐止區"
"221018","753-BX","2017/08/17 19:38:56","新北市汐止區康寧街901號","121.651681666667","25.0749416666667","6501100","汐止區"
"220079","145-BY","2017/08/17 19:38:56","新北市板橋區建國街52號","121.458795","25.0169266666667","6500100","板橋區"
"220080","200-UY","2017/08/17 19:38:50","新北市板橋區大觀路二段37巷87-1號","121.450386666667","25.002275","6500100","板橋區"
"220101","245-BX","2017/08/17 19:38:45","新北市板橋區莊敬路263巷22號","121.47311","25.02187","6500100","板橋區"
"220103","257-TC","2017/08/17 19:38:54","新北市板橋區文化路一段357號","121.466855","25.021065","6500100","板橋區"
"220094","267-BY","2017/08/17 19:38:49","新北市板橋區銘傳街35號","121.468586666667","25.0310283333333","6500100","板橋區"
"220056","276-BY","2017/08/17 19:38:52","新北市板橋區四川路二段47巷3弄1號","121.454206666667","24.99471","6500100","板橋區"
"220082","282-UM","2017/08/17 19:38:55","新北市板橋區金門街81號","121.433178333333","24.9926133333333","6500100","板橋區"
"220071","283-VK","2017/08/17 19:38:57","新北市板橋區忠孝路48巷9弄19號","121.462093333333","25.0004233333333","6500100","板橋區"
"220053","285-VK","2017/08/17 19:38:45","新北市板橋區中山路二段148巷29號","121.477235","25.0162466666667","6500100","板橋區"
"220083","286-VK","2017/08/17 19:38:52","新北市板橋區龍興街71巷30號","121.442481666667","25.0024116666667","6500100","板橋區"
"220081","287-VK","2017/08/17 19:34:30","新北市板橋區大觀路一段29巷131弄136號","121.451771666667","25.003915","6500100","板橋區"
"220090","288-VK","2017/08/17 19:38:59","新北市板橋區長江路一段48巷13號","121.45929","25.0283283333333","6500100","板橋區"
"220061","293-UM","2017/08/17 19:38:47","新北市板橋區成功路6巷5號","121.475776666667","25.01701","6500100","板橋區"
"220055","295-UM","2017/08/17 19:38:42","新北市板橋區重慶路308巷4號","121.46345","24.9979966666667","6500100","板橋區"
"220084","296-UM","2017/08/17 19:38:39","新北市板橋區滿平街84巷100弄5號","121.426291666667","24.98639","6500100","板橋區"
"220075","297-UM","2017/08/17 19:38:52","新北市板橋區南雅西路二段301巷50弄12號","121.452366666667","25.017035","6500100","板橋區"
"220098","299-UM","2017/08/17 19:38:53","新北市板橋區四維路269巷27號","121.462128333333","25.0278166666667","6500100","板橋區"
"220062","305-R5","2017/08/17 19:38:53","新北市板橋區三民路二段123巷1號","121.479546666667","25.015635","6500100","板橋區"
"220092","307-R5","2017/08/17 19:38:46","新北市板橋區文化路一段387巷10號","121.466633333333","25.0220633333333","6500100","板橋區"
"220064","486-VK","2017/08/17 19:38:53","新北市板橋區中山路一段53號","121.460963333333","25.0093466666667","6500100","板橋區"
"220089","487-VK","2017/08/17 19:38:55","新北市板橋區英士路76號","121.460191666667","25.024285","6500100","板橋區"
"220088","491-VK","2017/08/17 19:38:46","新北市板橋區文化路二段410巷2號","121.473816666667","25.0315416666667","6500100","板橋區"
"220035","560-BX","2017/08/17 19:38:46","新北市板橋區中正路411號","121.454015","25.0226","6500100","板橋區"
"220063","609-BX","2017/08/17 19:38:40","新北市板橋區中山路二段563號","121.484291666667","25.02186","6500100","板橋區"
"220091","637-BX","2017/08/17 19:38:48","新北市板橋區懷德街181巷22號","121.480346666667","25.0302483333333","6500100","板橋區"
"220057","686-BX","2017/08/17 19:38:46","新北市中和區和平路250號","121.464696666667","24.9970466666667","6500100","板橋區"
"220077","687-BX","2017/08/17 19:38:40","新北市板橋區僑中二街116巷1號","121.445665","25.0062116666667","6500100","板橋區"
"220093","689-BX","2017/08/17 19:38:42","新北市板橋區新海路405號","121.458515","25.0268466666667","6500100","板橋區"
"220054","741-BX","2017/08/17 19:38:56","新北市板橋區忠孝路203號","121.465166666667","25.002715","6500100","板橋區"
"220067","829-TW","2017/08/17 19:38:58","新北市板橋區長安街251巷2號","121.472615","25.0102466666667","6500100","板橋區"
"220096","831-TW","2017/08/17 19:38:44","新北市板橋區民生路二段226巷6弄2號","121.46958","25.0216166666667","6500100","板橋區"
"220074","895-R6","2017/08/17 19:38:51","新北市板橋區中正路1巷16弄2號","121.455065","25.0119283333333","6500100","板橋區"
"220073","985-R7","2017/08/17 19:38:51","新北市板橋區國光路49巷17號","121.458991666667","25.0187966666667","6500100","板橋區"
"220097","AAC-210","2017/08/17 19:38:52","新北市板橋區新海路36號","121.462125","25.021295","6500100","板橋區"
"220070","AAC-253","2017/08/17 19:38:56","新北市板橋區四川路一段89號","121.459725","25.00562","6500100","板橋區"
