"lineid","car","time","location","longitude","latitude","cityid","cityname"
"232007","290-BY","2017/08/17 08:48:09","新北市坪林區北宜路八段558號","121.718185","24.9093116666667","6502000","坪林區"
"231059","046-UY","2017/08/17 21:08:33","新北市新店區僑義路28號","121.500631666667","24.9498333333333","6500600","新店區"
"231061","047-UY","2017/08/17 21:08:48","新北市新店區永平街51巷1號","121.516166666667","24.9840166666667","6500600","新店區"
"231060","106-UY","2017/08/17 21:08:41","新北市新店區安康路三段45號","121.49278","24.9527266666667","6500600","新店區"
"231051","107-UY","2017/08/17 21:08:38","新北市新店區中正路663巷7弄15號","121.5329","24.9901266666667","6500600","新店區"
"231047","108-UY","2017/08/17 21:08:39","新北市新店區文化路32號","121.543908333333","24.9800616666667","6500600","新店區"
"231064","110-UY","2017/08/17 21:08:31","新北市新店區吉安街21號","121.516215","24.965915","6500600","新店區"
"231007","189-VK","2017/08/17 12:11:32","新北市新店區安華路28-1號","121.519595","24.9610916666667","6500600","新店區"
"231050","AAD-862","2017/08/17 21:08:42","新北市新店區三民路75巷6-1號","121.535546666667","24.97086","6500600","新店區"
"231067","4772-VM","2017/08/17 21:08:30","新北市新店區安德街148巷42號","121.507656666667","24.9608583333333","6500600","新店區"
"231065","512-UM","2017/08/17 21:08:51","新北市新店區安祥路69巷54弄28號","121.482728333333","24.9587066666667","6500600","新店區"
"231054","513-UM","2017/08/17 21:08:41","新北市新店區大新街7巷38號","121.544333333333","24.9677033333333","6500600","新店區"
"231042","616-UM","2017/08/17 21:08:35","新北市新店區寶興路60巷3號","121.549905","24.9718933333333","6500600","新店區"
"231040","619-UM","2017/08/17 21:08:36","新北市新店區北新路一段100號","121.542105","24.9693966666667","6500600","新店區"
"231063","645-TV","2017/08/17 21:08:38","新北市新店區玫瑰路58巷1號","121.495423333333","24.9465433333333","6500600","新店區"
"231062","720-UM","2017/08/17 21:08:43","新北市新店區雙城路41巷1號","121.492406666667","24.94899","6500600","新店區"
"231045","898-TW","2017/08/17 21:08:35","新北市土城區龍泉路349巷2號","121.408123333333","24.95026","6500600","新店區"
"241011","013-R5","2017/08/17 21:08:43","新北市三重區秀江街109號","121.499881666667","25.072265","6500200","三重區"
"241028","022-UY","2017/08/17 21:08:44","新北市三重區正義南路60-1號","121.498368333333","25.0605733333333","6500200","三重區"
"241009","060-VK","2017/08/17 21:08:32","新北市三重區忠孝路二段124號","121.483036666667","25.06884","6500200","三重區"
"241031","061-VK","2017/08/17 21:08:32","新北市三重區重新路五段426號","121.475268333333","25.0475233333333","6500200","三重區"
"241015","062-VK","2017/08/17 21:08:36","新北市三重區福德北路46號","121.502051666667","25.065515","6500200","三重區"
"241017","063-VK","2017/08/17 21:08:30","新北市三重區國隆路30號","121.492301666667","25.0643983333333","6500200","三重區"
"241024","065-VK","2017/08/17 21:08:27","新北市三重區大勇街49號","121.481328333333","25.0719433333333","6500200","三重區"
"241026","066-VK","2017/08/17 21:08:34","新北市三重區文化南路42號","121.500436666667","25.06026","6500200","三重區"
"241002","090-VK","2017/08/17 21:08:37","新北市三重區五華街12號","121.49496","25.0801166666667","6500200","三重區"
"241003","091-VK","2017/08/17 21:08:36","新北市三重區仁義街250號","121.493821666667","25.0859533333333","6500200","三重區"
"241006","156-TC","2017/08/17 21:08:31","新北市三重區中正北路105號","121.489428333333","25.0633016666667","6500200","三重區"
"241005","262-UM","2017/08/17 21:08:33","新北市三重區三信路182號","121.488075","25.0861983333333","6500200","三重區"
"241008","265-UM","2017/08/17 21:08:35","新北市三重區三和路三段82號","121.494613333333","25.0718183333333","6500200","三重區"
"241016","266-UM","2017/08/17 21:08:36","新北市三重區信義西街138號","121.49544","25.0644416666667","6500200","三重區"
"241022","267-UM","2017/08/17 21:08:45","新北市三重區中正北路64巷24號","121.486135","25.063755","6500200","三重區"
"241018","268-UM","2017/08/17 21:08:48","新北市三重區正義北路340號","121.4943","25.070785","6500200","三重區"
"241032","269-UM","2017/08/17 21:08:40","新北市三重區光復路二段168-2號","121.47211","25.0615616666667","6500200","三重區"
"241013","270-UM","2017/08/17 21:08:40","新北市三重區仁賢街12-1號","121.495658333333","25.0748666666667","6500200","三重區"
"241007","398-BY","2017/08/17 21:08:36","新北市三重區三和路四段145巷85號","121.486378333333","25.078785","6500200","三重區"
"241020","412-TH","2017/08/17 21:08:36","新北市三重區忠孝路二段31號","121.48599","25.0710916666667","6500200","三重區"
"241004","475-VK","2017/08/17 21:08:29","新北市三重區仁愛街423-1號","121.490398333333","25.0814816666667","6500200","三重區"
"241019","478-VK","2017/08/17 21:08:38","新北市三重區三張街119號","121.487771666667","25.07006","6500200","三重區"
"241030","480-VK","2017/08/17 21:08:33","新北市三重區重新路五段324號","121.47759","25.0484716666667","6500200","三重區"
"241014","543-UM","2017/08/17 21:08:34","新北市三重區長安街82-1號","121.50138","25.0676883333333","6500200","三重區"
"241023","545-UM","2017/08/17 21:08:38","新北市三重區忠孝路三段50巷41弄66號","121.482273333333","25.06382","6500200","三重區"
"241001","547-UM","2017/08/17 21:08:48","新北市三重區自強路三段87巷6號","121.487815","25.074885","6500200","三重區"
"241025","887-TS","2017/08/17 21:08:32","新北市三重區新北大道一段8號","121.488656666667","25.0614766666667","6500200","三重區"
"241012","941-UM","2017/08/17 21:08:44","新北市三重區仁信街29號","121.50124","25.075565","6500200","三重區"
"241029","942-UM","2017/08/17 21:08:42","新北市三重區正義南路107號","121.498168333333","25.0585716666667","6500200","三重區"
"241033","AAC-255","2017/08/17 21:08:48","新北市三重區中興北街289號","121.469063333333","25.06258","6500200","三重區"
"235026","800-TS","2017/08/17 20:51:41","新北市中和區員山路36巷16-3號","121.484796666667","24.991735","6500300","中和區"
"247020","893-R6","2017/08/17 21:08:39","新北市蘆洲區民族路436巷24號","121.47278","25.0929716666667","6501400","蘆洲區"
"247010","546-UM","2017/08/17 21:08:38","新北市蘆洲區鷺江街48號","121.477203333333","25.0832066666667","6501400","蘆洲區"
"247018","500-BY","2017/08/17 21:08:47","新北市蘆洲區民族路408巷14號","121.474983333333","25.091955","6501400","蘆洲區"
"247008","339-TH","2017/08/17 21:08:40","新北市蘆洲區民生街74號","121.472825","25.0790233333333","6501400","蘆洲區"
"247024","337-TH","2017/08/17 21:08:40","新北市蘆洲區長興路52號","121.463693333333","25.0837433333333","6501400","蘆洲區"
"247002","336-TH","2017/08/17 21:08:32","新北市蘆洲區永平街20號","121.459156666667","25.0906666666667","6501400","蘆洲區"
"247006","335-TH","2017/08/17 21:08:35","新北市蘆洲區永安南路二段16巷18號","121.467998333333","25.077875","6501400","蘆洲區"
"247014","057-VK","2017/08/17 21:08:33","新北市蘆洲區復興路30-7號","121.472775","25.0845733333333","6501400","蘆洲區"
"247004","056-VK","2017/08/17 21:08:43","新北市蘆洲區永安南路二段320號","121.45705","25.08266","6501400","蘆洲區"
"247012","007-UY","2017/08/17 21:08:47","新北市蘆洲區三民路86號","121.474826666667","25.0843566666667","6501400","蘆洲區"
"247022","002-UY","2017/08/17 21:08:40","新北市蘆洲區中正路263巷2號","121.467341666667","25.0873933333333","6501400","蘆洲區"
"247016","001-UY","2017/08/17 21:08:30","新北市蘆洲區和平路138號","121.46687","25.0807216666667","6501400","蘆洲區"
"224011","420-VK","2017/08/17 20:33:32","新北市瑞芳區明燈路二段66號","121.809381666667","25.1076016666667","6501200","瑞芳區"
"251014","182-VK","2017/08/17 21:08:32","新北市淡水區溪口1-3號","121.44849","25.2375666666667","6501000","淡水區"
"251010","413-VK","2017/08/17 21:08:45","新北市淡水區中正路一段63巷1弄2號","121.423511666667","25.1774466666667","6501000","淡水區"
"251012","441-VK","2017/08/17 21:08:41","新北市淡水區六塊厝15號","121.452978333333","25.24094","6501000","淡水區"
"251016","442-VK","2017/08/17 21:08:38","新北市淡水區牛埔子1-5號","121.445633333333","25.2200116666667","6501000","淡水區"
"251005","443-VK","2017/08/17 21:08:47","新北市淡水區學府路88號","121.449183333333","25.1710516666667","6501000","淡水區"
"251001","559-UM","2017/08/17 21:08:43","新北市淡水區新市一路三段101巷16弄3號","121.446691666667","25.18384","6501000","淡水區"
"251011","650-BX","2017/08/17 21:08:30","新北市淡水區新民街222巷16弄10號","121.436895","25.1801083333333","6501000","淡水區"
"251002","672-BX","2017/08/17 21:08:44","新北市淡水區水源街一段160號","121.448958333333","25.1711233333333","6501000","淡水區"
"251003","766-UM","2017/08/17 21:08:43","新北市淡水區新春街103-10號","121.44058","25.1818066666667","6501000","淡水區"
"252006","073-UM","2017/08/17 16:20:17","新北市三芝區埔坪里埔頭坑41號","121.50446","25.26448","6502100","三芝區"
"221029","298-VK","2017/08/17 21:08:32","新北市汐止區康寧街901號","121.65164","25.0748633333333","6501100","汐止區"
"220070","AAC-253","2017/08/17 21:08:36","新北市八里區中山路三段409號","121.368388333333","25.1349416666667","6500100","板橋區"
