"lineid","car","time","location","longitude","latitude","cityid","cityname"
"241031","653-BX","2017/08/18 06:39:12","新北市五股區中興路二段83巷26-6號","121.459815","25.0752766666667","6500200","三重區"
"232008","290-BY","2017/08/18 06:39:22","新北市坪林區北宜路八段558號","121.717963333333","24.9096866666667","6502000","坪林區"
"232003","291-BY","2017/08/18 06:39:27","新北市坪林區北宜路八段553號","121.717075","24.9109116666667","6502000","坪林區"
"232013","705-BZ","2017/08/18 06:39:23","新北市坪林區北宜路八段558號","121.7184","24.908835","6502000","坪林區"
"232019","758-BX","2017/08/18 06:39:21","新北市坪林區北宜路八段438號","121.707555","24.924455","6502000","坪林區"
"223006","022-BY","2017/08/18 06:39:25","新北市石碇區石崁10號","121.654921666667","24.9959066666667","6501900","石碇區"
"223002","198-BX","2017/08/18 06:39:10","新北市石碇區小粗坑(潭邊里)2號","121.671078333333","24.9824733333333","6501900","石碇區"
"223003","205-TH","2017/08/18 06:39:15","新北市石碇區湳窟22-1號","121.66129","24.990835","6501900","石碇區"
"223008","406-TH","2017/08/18 06:39:11","新北市石碇區小粗坑(潭邊里)15-3號","121.679551666667","24.980245","6501900","石碇區"
"223004","660-BX","2017/08/18 03:28:55","新北市石碇區小粗坑(潭邊里)9-2號","121.67872","24.9855533333333","6501900","石碇區"
"227005","282-VK","2017/08/18 06:39:06","新北市雙溪區牡丹里聖南15號","121.859736666667","25.0514966666667","6502500","雙溪區"
"252006","073-UM","2017/08/18 06:39:09","新北市三芝區中山路二段50號","121.503138333333","25.2543616666667","6502100","三芝區"
