"lineid","car","time","location","longitude","latitude","cityid","cityname"
"241031","653-BX","2017/08/18 07:09:12","新北市五股區成泰路一段104號","121.43583","25.0716466666667","6500200","三重區"
"232008","290-BY","2017/08/18 07:09:13","新北市坪林區魚堀8-5號","121.708871666667","24.907065","6502000","坪林區"
"232003","291-BY","2017/08/18 07:09:21","新北市坪林區大粗坑28號","121.706786666667","24.96387","6502000","坪林區"
"232015","705-BZ","2017/08/18 07:09:24","新北市坪林區黃舉皮寮5號","121.690616666667","24.93756","6502000","坪林區"
"232019","758-BX","2017/08/18 07:09:21","新北市坪林區九芎坑3-5號","121.725995","24.964425","6502000","坪林區"
"244004","248-BX","2017/08/18 07:09:23","新北市林口區湖南里10鄰85號","121.369098333333","25.0835883333333","6501700","林口區"
"222005","289-BY","2017/08/18 07:09:10","新北市深坑區萬福路36-1號","121.605326666667","25.0122466666667","6501800","深坑區"
"220072","015-TV","2017/08/18 07:06:31","新北市板橋區國光路51號","121.458083333333","25.017965","6500100","板橋區"
"226005","5620-A6","2017/08/18 07:09:19","新北市平溪區菁桐里菁桐街165號","121.722973333333","25.023605","6502400","平溪區"
"226001","8452-VL","2017/08/18 07:09:16","新北市平溪區靜安路二段441號","121.740075","25.0250316666667","6502400","平溪區"
"226003","AGD-0702","2017/08/18 07:09:19","新北市平溪區菁桐里菁桐街165號","121.72297","25.02352","6502400","平溪區"
"223006","022-BY","2017/08/18 07:09:25","新北市石碇區崩山12-1號","121.674345","24.972865","6501900","石碇區"
"223002","198-BX","2017/08/18 07:09:10","新北市石碇區半路店1-1號","121.648351666667","24.9698783333333","6501900","石碇區"
"223003","205-TH","2017/08/18 07:08:15","新北市石碇區蓬菜寮11-2號","121.650115","24.973295","6501900","石碇區"
"223008","406-TH","2017/08/18 07:09:11","新北市石碇區十八重溪45號","121.675603333333","25.0124616666667","6501900","石碇區"
"223001","437-BY","2017/08/18 07:09:13","新北市石碇區中楒子腳1號","121.646975","24.9715366666667","6501900","石碇區"
"223004","660-BX","2017/08/18 07:09:18","新北市石碇區碇坪路一段10號","121.651683333333","25.0059833333333","6501900","石碇區"
"223007","661-BX","2017/08/18 07:09:15","新北市石碇區十八重溪27號","121.675915","25.0121633333333","6501900","石碇區"
"223005","677-TV","2017/08/18 07:09:18","新北市石碇區碇坪路一段18號","121.651643333333","25.005855","6501900","石碇區"
"227005","282-VK","2017/08/18 07:09:06","新北市雙溪區新基里自強路5號","121.866331666667","25.0390766666667","6502500","雙溪區"
"252006","073-UM","2017/08/18 07:09:09","新北市三芝區中正路三段3號","121.503075","25.25431","6502100","三芝區"
"236004","339-SR","2017/08/18 07:09:25","新北市土城區永平街51號","121.42783","24.9592116666667","6501300","土城區"
