"lineid","car","time","location","longitude","latitude","cityid","cityname"
"241031","653-BX","2017/08/18 07:19:20","新北市五股區明德路8號","121.433331666667","25.0716166666667","6500200","三重區"
"232008","290-BY","2017/08/18 07:19:13","新北市坪林區魚堀9-13號","121.70461","24.906575","6502000","坪林區"
"232003","291-BY","2017/08/18 07:19:07","新北市坪林區坪雙路一段82號","121.717573333333","24.9448083333333","6502000","坪林區"
"232015","705-BZ","2017/08/18 07:19:04","新北市坪林區黃舉皮寮4-5號","121.688406666667","24.9417833333333","6502000","坪林區"
"232019","758-BX","2017/08/18 07:19:21","新北市坪林區樟空子9-1號","121.72464","24.9726183333333","6502000","坪林區"
"244004","248-BX","2017/08/18 07:19:23","新北市林口區忠福路352號","121.356293333333","25.0793916666667","6501700","林口區"
"222005","289-BY","2017/08/18 07:09:44","新北市深坑區萬福路36-1號","121.605471666667","25.0123316666667","6501800","深坑區"
"220072","015-TV","2017/08/18 07:06:31","新北市板橋區國光路51號","121.458083333333","25.017965","6500100","板橋區"
"226005","5620-A6","2017/08/18 07:19:19","新北市平溪區靜安路二段141號","121.722586666667","25.023195","6502400","平溪區"
"226001","8452-VL","2017/08/18 07:19:16","新北市平溪區南山里南山坪11-2號","121.76492","25.0322016666667","6502400","平溪區"
"226003","AGD-0702","2017/08/18 07:19:19","新北市平溪區靜安路二段202號","121.723701666667","25.021945","6502400","平溪區"
"223006","022-BY","2017/08/18 07:19:05","新北市石碇區碇坪路二段56號","121.682978333333","24.9698816666667","6501900","石碇區"
"223002","198-BX","2017/08/18 07:19:10","新北市石碇區碇格路二段4號","121.646866666667","24.95654","6501900","石碇區"
"223003","205-TH","2017/08/18 07:08:15","新北市石碇區蓬菜寮11-2號","121.650115","24.973295","6501900","石碇區"
"223008","406-TH","2017/08/18 07:19:11","新北市石碇區靜安路一段337號","121.699013333333","25.0137783333333","6501900","石碇區"
"223001","437-BY","2017/08/18 07:19:13","新北市石碇區中楒子腳1-2號","121.645268333333","24.97063","6501900","石碇區"
"223004","660-BX","2017/08/18 07:19:18","新北市石碇區新興坑12-1號","121.653721666667","25.0187116666667","6501900","石碇區"
"223007","661-BX","2017/08/18 07:19:15","新北市石碇區番子坑9-2號","121.683221666667","25.0001716666667","6501900","石碇區"
"223005","677-TV","2017/08/18 07:19:18","新北市石碇區新興坑8-2號","121.653593333333","25.0181466666667","6501900","石碇區"
"227005","282-VK","2017/08/18 07:19:26","新北市雙溪區新基里自強路5號","121.86634","25.0390366666667","6502500","雙溪區"
"252006","073-UM","2017/08/18 07:19:09","新北市三芝區中山路二段50號","121.503255","25.25436","6502100","三芝區"
"236004","339-SR","2017/08/18 07:19:05","新北市土城區承天路47號","121.438715","24.9638716666667","6501300","土城區"
