"lineid","car","time","location","longitude","latitude","cityid","cityname"
"244025","837-TS","2017/11/23 10:44:47","新北市林口區粉寮路二段160巷28號","121.405193333333","25.0907566666667","6501700","林口區"
"243008","680-BX","2017/11/23 09:24:03","新北市泰山區黎明路25號","121.422083333333","25.0606283333333","6501600","泰山區"
"231069","188-VK","2017/11/23 10:59:52","新北市新店區新潭路二段24號","121.52693","24.9262033333333","6500600","新店區"
"231008","192-VK","2017/11/23 10:59:48","新北市新店區松林路83號","121.548168333333","24.9080116666667","6500600","新店區"
"242001","281-VK","2017/11/23 08:20:08","新北市新莊區環河路636-7號","121.437341666667","25.011275","6500500","新莊區"
