"lineid","car","time","location","longitude","latitude","cityid","cityname"
"234044","148-BY","2017/11/23 12:59:59","新北市永和區得和路373巷29號","121.525053333333","25.0003216666667","6500400","永和區"
"234012","149-BY","2017/11/23 12:59:36","新北市永和區信義路14-1號","121.514226666667","25.01214","6500400","永和區"
"234005","207-UY","2017/11/23 12:59:50","新北市永和區中山路一段7號","121.514225","25.0101783333333","6500400","永和區"
"234078","298-R6","2017/11/23 12:59:59","新北市永和區永貞路19號","121.52097","25.0070716666667","6500400","永和區"
"234036","336-UY","2017/11/23 12:59:44","新北市永和區成功路二段203號","121.526553333333","24.9959916666667","6500400","永和區"
"234062","337-UY","2017/11/23 12:59:53","新北市永和區秀朗路一段166號","121.518528333333","25.00333","6500400","永和區"
"234084","338-UY","2017/11/23 12:59:45","新北市永和區永寧街129巷4號","121.518141666667","25.00532","6500400","永和區"
"234068","552-UM","2017/11/23 12:59:41","新北市永和區中興街80號","121.517995","25.0115966666667","6500400","永和區"
"234052","553-UM","2017/11/23 12:59:56","新北市永和區竹林路66巷2號","121.518318333333","25.0133116666667","6500400","永和區"
"234015","745-BX","2017/11/23 12:59:45","新北市永和區永和路二段297號","121.516016666667","25.0160633333333","6500400","永和區"
"234028","746-BX","2017/11/23 12:59:52","新北市永和區四維街67號","121.525721666667","24.9979716666667","6500400","永和區"
"234060","AAD-866","2017/11/23 12:59:57","新北市永和區福和路305號","121.5163","25.0070966666667","6500400","永和區"
"234040","862-TW","2017/11/23 12:59:57","新北市永和區永貞路267號","121.511886666667","25.004725","6500400","永和區"
"234048","863-TW","2017/11/23 12:59:51","新北市永和區文化路194號","121.510735","25.0162416666667","6500400","永和區"
"234025","9381-KE","2017/11/23 12:59:58","新北市永和區水源街2巷24號","121.512093333333","25.005695","6500400","永和區"
"234010","9373-KE","2017/11/23 12:59:51","新北市永和區仁愛路40巷9弄3號","121.513838333333","25.0139766666667","6500400","永和區"
"248013","025-BX","2017/11/23 12:59:56","新北市五股區中興路二段161號","121.45776","25.077195","6501500","五股區"
"248015","026-BX","2017/11/23 12:59:42","","121.460018333333","25.0752583333333","6501500","五股區"
"248005","077-UY","2017/11/23 12:59:39","新北市五股區中興路二段83巷26-6號","121.460118333333","25.0750883333333","6501500","五股區"
"248017","225-UY","2017/11/23 12:59:43","","121.460096666667","25.0752333333333","6501500","五股區"
"248009","272-BY","2017/11/23 12:59:52","新北市五股區中興路二段83巷26-6號","121.46009","25.075095","6501500","五股區"
"248003","677-BX","2017/11/23 12:59:52","新北市五股區中興路二段83巷26-6號","121.45976","25.0747883333333","6501500","五股區"
"234022","9380-KE","2017/11/23 12:59:53","新北市永和區竹林路75巷9號","121.519445","25.0135233333333","6500400","永和區"
"234076","969-R7","2017/11/23 12:59:54","新北市永和區民享街6號","121.515123333333","24.995485","6500400","永和區"
"234072","AAC-211","2017/11/23 12:59:43","新北市永和區豫溪街217巷27號","121.524293333333","25.0101266666667","6500400","永和區"
"234066","AAC-212","2017/11/23 12:59:40","新北市永和區中和路625號","121.513013333333","25.0050283333333","6500400","永和區"
"234001","AAC-295","2017/11/23 12:59:47","新北市永和區永平路28號","121.51321","25.008815","6500400","永和區"
"244003","248-BX","2017/11/23 12:59:35","新北市林口區粉寮路一段77號","121.396871666667","25.078835","6501700","林口區"
"244025","837-TS","2017/11/23 10:44:47","新北市林口區粉寮路二段160巷28號","121.405193333333","25.0907566666667","6501700","林口區"
"243001","297-R6","2017/11/23 12:49:00","新北市泰山區黎明路35號","121.42178","25.0603583333333","6501600","泰山區"
"243007","380-SR","2017/11/23 03:19:33","新北市泰山區犁頭窠3-1號","121.422171666667","25.0605416666667","6501600","泰山區"
"243002","KEA-2215","2017/11/23 12:50:00","新北市泰山區犁頭窠3-1號","121.421891666667","25.0603816666667","6501600","泰山區"
"243005","646-TV","2017/11/23 12:35:47","新北市泰山區犁頭窠3-1號","121.421896666667","25.060545","6501600","泰山區"
"243008","680-BX","2017/11/23 09:24:03","新北市泰山區黎明路25號","121.422083333333","25.0606283333333","6501600","泰山區"
"231002","002-UM","2017/11/23 12:59:53","新北市新店區安華路28-1號","121.519711666667","24.9608366666667","6500600","新店區"
"231028","046-UY","2017/11/23 12:59:49","新北市新店區安華路28-1號","121.519473333333","24.9609416666667","6500600","新店區"
"231030","047-UY","2017/11/23 12:59:39","","121.519086666667","24.9609133333333","6500600","新店區"
"231029","106-UY","2017/11/23 12:59:54","新北市新店區安華路28-1號","121.519483333333","24.9609316666667","6500600","新店區"
"231018","107-UY","2017/11/23 12:59:40","新北市新店區安華路28-1號","121.519448333333","24.9613066666667","6500600","新店區"
"231011","108-UY","2017/11/22 04:23:18","新北市新店區安華路28-1號","121.519396666667","24.9609883333333","6500600","新店區"
"231021","187-VK","2017/11/23 12:59:48","新北市新店區安華路28-1號","121.519521666667","24.961185","6500600","新店區"
"231017","KEA-2219","2017/11/23 12:59:39","新北市新店區安華路28-1號","121.519783333333","24.9612283333333","6500600","新店區"
"231010","278-BY","2017/11/23 10:44:47","新北市新店區安華路28-1號","121.519775","24.96113","6500600","新店區"
"231027","3712-VJ","2017/11/23 12:59:51","新北市新店區安華路28-1號","121.519263333333","24.9605716666667","6500600","新店區"
"231025","3713-VJ","2017/11/23 12:59:51","新北市新店區安華路30巷1號","121.519465","24.959705","6500600","新店區"
"231024","4716-K9","2017/11/23 12:59:52","新北市新店區安華路28-1號","121.519565","24.9610416666667","6500600","新店區"
"231038","4715-K9","2017/11/23 12:59:40","新北市新店區安華路28-1號","121.519413333333","24.9605816666667","6500600","新店區"
"231036","512-UM","2017/11/23 03:07:08","新北市新店區安華路28-1號","121.519456666667","24.9613216666667","6500600","新店區"
"231023","513-UM","2017/11/23 12:59:49","新北市新店區安華路28-1號","121.519693333333","24.9611766666667","6500600","新店區"
"231035","515-UM","2017/11/23 00:07:26","新北市新店區安華路28-1號","121.519543333333","24.96126","6500600","新店區"
"231001","619-UM","2017/11/23 12:59:40","新北市新店區安華路28-1號","121.519493333333","24.96091","6500600","新店區"
"231034","645-TV","2017/11/23 12:59:54","新北市新店區安華路28-1號","121.519318333333","24.960695","6500600","新店區"
"231013","719-UM","2017/11/23 12:59:45","新北市新店區安華路28-1號","121.519418333333","24.9613133333333","6500600","新店區"
"231031","720-UM","2017/11/23 12:59:38","","121.519185","24.961185","6500600","新店區"
"231005","897-TW","2017/11/23 12:59:41","新北市新店區安華路28-1號","121.519508333333","24.9607116666667","6500600","新店區"
"231006","898-TW","2017/11/23 12:59:46","新北市新店區安華路28-1號","121.519403333333","24.9608633333333","6500600","新店區"
"231004","899-TW","2017/11/23 03:17:58","","121.518846666667","24.9610266666667","6500600","新店區"
"231037","AKT-0513","2017/11/23 12:59:39","新北市新店區安華路1-1號","121.51957","24.9605016666667","6500600","新店區"
"235027","006-UY","2017/11/23 12:59:41","","121.485106666667","24.991305","6500300","中和區"
"235029","098-UM","2017/11/23 12:59:40","新北市中和區錦和路216號","121.490463333333","24.99426","6500300","中和區"
"235004","150-BY","2017/11/23 01:26:55","新北市中和區和城路一段271巷1號","121.485526666667","24.9916783333333","6500300","中和區"
"235022","151-BY","2017/11/23 12:59:54","新北市中和區錦和路350-1號","121.490361666667","24.993495","6500300","中和區"
"235002","185-VK","2017/11/23 12:59:52","新北市中和區秀朗路三段10巷14弄24-3號","121.525096666667","24.9971216666667","6500300","中和區"
"235031","255-BX","2017/11/23 12:59:40","","121.484291666667","25.004615","6500300","中和區"
"235036","301-VK","2017/11/23 12:59:42","新北市中和區員山路36巷13號","121.483985","24.9910133333333","6500300","中和區"
"235032","377-QA","2017/11/23 02:24:05","新北市中和區員山路36巷16-3號","121.485105","24.99111","6500300","中和區"
"235025","378-QA","2017/11/23 04:00:43","新北市中和區員山路36巷13號","121.48433","24.99147","6500300","中和區"
"235035","269-TV","2017/11/23 12:59:42","","121.48964","25.00524","6500300","中和區"
"235033","4980-A6","2017/11/23 12:59:45","新北市中和區員山路36巷16-2號","121.485275","24.9913866666667","6500300","中和區"
"235018","640-BX","2017/11/23 12:59:46","新北市中和區員山路36巷16-3號","121.484945","24.9918033333333","6500300","中和區"
"235005","802-TS","2017/11/23 12:59:44","","121.484216666667","24.990685","6500300","中和區"
"235012","896-TW","2017/11/23 12:59:49","新北市中和區員山路36巷16-3號","121.485","24.9918116666667","6500300","中和區"
"235028","911-UM","2017/11/23 02:14:41","","121.484788333333","24.99164","6500300","中和區"
"235001","AAC-213","2017/11/23 12:59:52","新北市中和區錦和路350-1號","121.490435","24.9935666666667","6500300","中和區"
"228005","097-TW","2017/11/23 12:59:55","新北市貢寮區福隆里興隆街100巷7號","121.935451666667","25.0182983333333","6502600","貢寮區"
"228004","212-TW","2017/11/23 12:59:51","新北市貢寮區吉林里內寮街57號","121.886666666667","24.9869916666667","6502600","貢寮區"
"227004","400-TW","2017/11/23 11:49:40","","121.85086","25.0631016666667","6502500","雙溪區"
"208004","AAC-292","2017/11/23 12:59:50","新北市金山區磺港里磺港路328號","121.64749","25.229595","6502700","金山區"
"207002","749-BX","2017/11/23 12:59:33","新北市萬里區雙興里大坪路39號","121.625588333333","25.1713583333333","6502800","萬里區"
"252005","073-UM","2017/11/23 12:59:43","新北市三芝區埔坪里埔頭坑43號","121.5046","25.2617633333333","6502100","三芝區"
"207001","662-BX","2017/11/23 12:59:55","新北市萬里區萬里里獅頭路23號","121.69351","25.1781766666667","6502800","萬里區"
"236005","498-BY","2017/11/23 12:59:50","新北市土城區亞洲路30號","121.436123333333","24.9741766666667","6501300","土城區"
"238021","KEA-2217","2017/11/23 12:59:41","新北市樹林區八德街652號","121.39641","24.969145","6500700","樹林區"
"221012","276-VK","2017/11/23 12:59:49","新北市汐止區大同路二段519號","121.661561666667","25.06896","6501100","汐止區"
"221032","280-BY","2017/11/23 12:59:43","新北市汐止區大同路二段364號","121.657451666667","25.067235","6501100","汐止區"
"242001","281-VK","2017/11/23 12:59:46","新北市新莊區環河路636-7號","121.437328333333","25.0112833333333","6500500","新莊區"
