"lineid","car","time","location","longitude","latitude","cityid","cityname"
"234044","148-BY","2017/11/23 13:19:39","新北市永和區得和路375號","121.524676666667","24.9993633333333","6500400","永和區"
"234012","149-BY","2017/11/23 13:19:48","新北市永和區信義路57號","121.512936666667","25.01258","6500400","永和區"
"234005","207-UY","2017/11/23 13:19:50","新北市永和區中山路一段331號","121.506213333333","25.0062633333333","6500400","永和區"
"234078","298-R6","2017/11/23 13:19:39","新北市永和區林森路10巷18弄1號","121.52579","25.0064016666667","6500400","永和區"
"234036","336-UY","2017/11/23 13:19:44","新北市永和區民樂街55巷2號","121.527491666667","24.9984533333333","6500400","永和區"
"234062","337-UY","2017/11/23 13:19:53","新北市永和區得和路243巷28弄21號","121.52139","25.0011016666667","6500400","永和區"
"234084","338-UY","2017/11/23 13:19:48","新北市永和區永利路39號","121.518823333333","25.0056","6500400","永和區"
"234068","552-UM","2017/11/23 13:19:41","新北市永和區豫溪街69號","121.517705","25.00999","6500400","永和區"
"234052","553-UM","2017/11/23 13:19:56","新北市永和區中興街37號","121.516245","25.0118166666667","6500400","永和區"
"234015","745-BX","2017/11/23 13:19:45","新北市永和區文化路144巷31弄7號","121.512055","25.0168266666667","6500400","永和區"
"234028","746-BX","2017/11/23 13:19:51","新北市永和區厚德街46號","121.525058333333","24.9987483333333","6500400","永和區"
"234060","AAD-866","2017/11/23 13:19:57","新北市永和區中正路381號","121.517113333333","25.0036316666667","6500400","永和區"
"234040","862-TW","2017/11/23 13:19:54","新北市永和區保平路151巷2弄6-3號","121.509595","25.0052633333333","6500400","永和區"
"234048","863-TW","2017/11/23 13:19:51","新北市永和區仁愛路138號","121.51117","25.01354","6500400","永和區"
"234025","9381-KE","2017/11/23 13:19:57","新北市永和區豫溪街42巷24號","121.515316666667","25.0088833333333","6500400","永和區"
"234010","9373-KE","2017/11/23 13:19:51","新北市永和區忠孝街34巷18號","121.514485","25.0168533333333","6500400","永和區"
"248013","025-BX","2017/11/23 13:19:56","新北市五股區自強路21號","121.434298333333","25.0740566666667","6501500","五股區"
"248015","026-BX","2017/11/23 13:19:42","新北市五股區成泰路三段477巷18號","121.449923333333","25.0988916666667","6501500","五股區"
"248005","077-UY","2017/11/23 13:19:48","新北市五股區中興路一段152號","121.464538333333","25.073875","6501500","五股區"
"248007","095-VK","2017/11/23 13:19:48","新北市五股區更洲路32巷8弄17號","121.45929","25.0796233333333","6501500","五股區"
"248017","225-UY","2017/11/23 13:19:43","新北市五股區御史路205-1號","121.431378333333","25.100515","6501500","五股區"
"248011","247-BX","2017/11/23 13:19:52","新北市五股區御史路1巷101弄2號","121.440905","25.0911983333333","6501500","五股區"
"248009","272-BY","2017/11/23 13:19:52","新北市五股區成泰路一段139巷2弄2號","121.435098333333","25.0729433333333","6501500","五股區"
"248003","677-BX","2017/11/23 13:19:52","新北市五股區成泰路二段195巷5號","121.440165","25.08726","6501500","五股區"
"248001","678-BX","2017/11/23 13:19:51","新北市五股區西雲路66號","121.44369","25.0915983333333","6501500","五股區"
"234022","9380-KE","2017/11/23 13:19:53","新北市永和區竹林路95號","121.519676666667","25.0121016666667","6500400","永和區"
"234076","969-R7","2017/11/23 13:19:54","新北市永和區民有街100號","121.517536666667","24.9957833333333","6500400","永和區"
"234072","AAC-211","2017/11/23 13:19:42","新北市永和區復興街87號","121.517616666667","25.014125","6500400","永和區"
"234066","AAC-212","2017/11/23 13:19:40","新北市永和區保平路50巷3號","121.511206666667","25.0072383333333","6500400","永和區"
"234001","AAC-295","2017/11/23 13:19:47","新北市永和區保福路一段88號","121.512238333333","25.0103566666667","6500400","永和區"
"244003","248-BX","2017/11/23 13:19:55","新北市林口區寶斗厝坑39號","121.335061666667","25.119165","6501700","林口區"
"244025","837-TS","2017/11/23 10:44:47","新北市林口區粉寮路二段160巷28號","121.405193333333","25.0907566666667","6501700","林口區"
"243001","297-R6","2017/11/23 12:49:00","新北市泰山區黎明路35號","121.42178","25.0603583333333","6501600","泰山區"
"243007","380-SR","2017/11/23 03:19:33","新北市泰山區犁頭窠3-1號","121.422171666667","25.0605416666667","6501600","泰山區"
"243002","KEA-2215","2017/11/23 12:50:00","新北市泰山區犁頭窠3-1號","121.421891666667","25.0603816666667","6501600","泰山區"
"243005","646-TV","2017/11/23 13:19:40","新北市泰山區南林路99巷1-1號","121.415356666667","25.0511016666667","6501600","泰山區"
"243008","680-BX","2017/11/23 09:24:03","新北市泰山區黎明路25號","121.422083333333","25.0606283333333","6501600","泰山區"
"231002","002-UM","2017/11/23 13:19:53","新北市新店區安華路28-1號","121.519828333333","24.960825","6500600","新店區"
"231028","046-UY","2017/11/23 13:19:49","新北市新店區安華路28-1號","121.519683333333","24.96093","6500600","新店區"
"231030","047-UY","2017/11/23 13:19:39","新北市新店區安華路28-1號","121.519165","24.9608866666667","6500600","新店區"
"231029","106-UY","2017/11/23 13:19:54","新北市新店區安華路28-1號","121.519738333333","24.960935","6500600","新店區"
"231018","107-UY","2017/11/23 13:19:40","新北市新店區秀山路43號","121.531548333333","24.9608283333333","6500600","新店區"
"231011","108-UY","2017/11/23 13:19:49","新北市新店區安康路一段85號","121.529516666667","24.9614216666667","6500600","新店區"
"231021","187-VK","2017/11/23 13:19:48","新北市新店區秀山路14號","121.532688333333","24.9602716666667","6500600","新店區"
"231017","KEA-2219","2017/11/23 13:19:40","新北市新店區安康路一段118號","121.527071666667","24.9626766666667","6500600","新店區"
"231026","256-BX","2017/11/23 13:19:38","新北市新店區安華路28-1號","121.51972","24.96125","6500600","新店區"
"231010","278-BY","2017/11/23 13:19:51","新北市新店區安康路一段3-1號","121.534806666667","24.9607766666667","6500600","新店區"
"231027","3712-VJ","2017/11/23 13:19:51","新北市新店區安康路一段48號","121.530533333333","24.9610683333333","6500600","新店區"
"231025","3713-VJ","2017/11/23 13:19:51","新北市新店區中央五街26號","121.529133333333","24.9746316666667","6500600","新店區"
"231024","4716-K9","2017/11/23 13:19:52","新北市新店區環河路29巷1號","121.536223333333","24.961185","6500600","新店區"
"231038","4715-K9","2017/11/23 13:19:40","新北市新店區安華路28-1號","121.519348333333","24.9605716666667","6500600","新店區"
"231036","512-UM","2017/11/23 13:18:19","","121.501795","24.9574083333333","6500600","新店區"
"231023","513-UM","2017/11/23 13:19:49","新北市新店區安康路一段3-1號","121.535121666667","24.960855","6500600","新店區"
"231035","515-UM","2017/11/23 00:07:26","新北市新店區安華路28-1號","121.519543333333","24.96126","6500600","新店區"
"231003","616-UM","2017/11/23 13:19:45","新北市新店區安華路28-1號","121.51966","24.9606616666667","6500600","新店區"
"231001","619-UM","2017/11/23 13:19:40","","121.519666666667","24.9609633333333","6500600","新店區"
"231034","645-TV","2017/11/23 13:19:54","新北市新店區安華路28-1號","121.519363333333","24.9607316666667","6500600","新店區"
"231013","719-UM","2017/11/23 13:19:45","新北市新店區安康路一段128號","121.526808333333","24.9627933333333","6500600","新店區"
"231031","720-UM","2017/11/23 13:19:38","","121.510141666667","24.955475","6500600","新店區"
"231005","897-TW","2017/11/23 13:19:41","新北市新店區安華路28-1號","121.519675","24.9608366666667","6500600","新店區"
"231006","898-TW","2017/11/23 13:19:47","新北市新店區安華路28-1號","121.519353333333","24.9609583333333","6500600","新店區"
"231004","899-TW","2017/11/23 03:17:58","","121.518846666667","24.9610266666667","6500600","新店區"
"231037","AKT-0513","2017/11/23 13:19:39","新北市新店區安豐路49號","121.500193333333","24.9540783333333","6500600","新店區"
"235030","003-UY","2017/11/23 13:19:37","新北市中和區中山路二段64巷14弄2號","121.503435","25.0054766666667","6500300","中和區"
"235027","006-UY","2017/11/23 13:19:44","新北市中和區中正路589巷15號","121.485695","24.9936383333333","6500300","中和區"
"235020","096-UM","2017/11/23 13:19:40","新北市中和區建八路1號","121.48544","24.99853","6500300","中和區"
"235003","097-UM","2017/11/23 13:19:49","新北市中和區景安路117號","121.505841666667","24.9963616666667","6500300","中和區"
"235029","098-UM","2017/11/23 13:19:40","新北市中和區莊敬路49巷20弄22號","121.50275","25.0058633333333","6500300","中和區"
"235004","150-BY","2017/11/23 13:18:45","新北市中和區中正路46號","121.502168333333","24.993625","6500300","中和區"
"235022","151-BY","2017/11/23 13:19:54","新北市中和區圓通路369巷36弄10號","121.490101666667","24.9843866666667","6500300","中和區"
"235002","185-VK","2017/11/23 13:19:52","新北市中和區自立路48號","121.523031666667","24.9922","6500300","中和區"
"235031","255-BX","2017/11/23 13:19:40","新北市中和區民樂路81號","121.484736666667","25.0013016666667","6500300","中和區"
"235036","301-VK","2017/11/23 13:19:42","新北市中和區錦和路107號","121.490166666667","24.9952316666667","6500300","中和區"
"235007","352-BY","2017/11/23 13:19:50","新北市中和區中正路2-1號","121.503093333333","24.993535","6500300","中和區"
"235032","377-QA","2017/11/23 02:24:05","新北市中和區員山路36巷16-3號","121.485105","24.99111","6500300","中和區"
"235025","378-QA","2017/11/23 04:00:43","新北市中和區員山路36巷13號","121.48433","24.99147","6500300","中和區"
"235035","269-TV","2017/11/23 13:19:42","新北市中和區永和路458巷2弄1號","121.484023333333","25.012265","6500300","中和區"
"235014","4979-A6","2017/11/23 13:19:49","新北市中和區興南路一段55-2號","121.510686666667","24.9900783333333","6500300","中和區"
"235033","4980-A6","2017/11/23 13:19:44","新北市中和區連城路127巷13號","121.496655","24.9984316666667","6500300","中和區"
"235006","551-UM","2017/11/23 13:19:42","新北市中和區景平路155號","121.513326666667","24.9923766666667","6500300","中和區"
"235009","565-BX","2017/11/23 13:19:48","新北市中和區中正路271號","121.495836666667","24.9937583333333","6500300","中和區"
"235018","640-BX","2017/11/23 13:19:45","新北市中和區國光街112巷1弄5號","121.469433333333","25.00109","6500300","中和區"
"235011","732-UM","2017/11/23 13:19:40","新北市中和區建八路134號","121.48935","24.998565","6500300","中和區"
"235026","800-TS","2017/11/23 13:19:52","新北市中和區景平路999巷12號","121.495023333333","25.0063966666667","6500300","中和區"
"235021","801-TS","2017/11/23 13:19:40","","121.484971666667","24.9916616666667","6500300","中和區"
"235005","802-TS","2017/11/23 13:19:44","新北市中和區景安路46號","121.506943333333","24.9980183333333","6500300","中和區"
"235012","896-TW","2017/11/23 13:19:49","新北市中和區員山路36巷16-2號","121.48535","24.99157","6500300","中和區"
"235017","900-TW","2017/11/23 13:19:51","新北市中和區中正路637巷52弄1號","121.485436666667","24.993605","6500300","中和區"
"235028","911-UM","2017/11/23 13:19:45","新北市中和區中正路130號","121.49952","24.99385","6500300","中和區"
"235001","157-BY","2017/11/23 13:19:58","新北市中和區景新街418巷20弄14號","121.511706666667","24.98816","6500300","中和區"
"235001","AAC-213","2017/11/23 13:19:52","新北市中和區景德街53號","121.517661666667","24.9914016666667","6500300","中和區"
"235023","AAC-215","2017/11/23 13:19:53","新北市中和區員山路36巷16-3號","121.484975","24.991255","6500300","中和區"
"228005","097-TW","2017/11/23 13:19:55","新北市貢寮區美豐里丹裡街18-1號","121.912696666667","25.0572233333333","6502600","貢寮區"
"228004","212-TW","2017/11/23 13:19:50","新北市貢寮區龍崗里石壁坑街17-6號","121.907521666667","24.9863666666667","6502600","貢寮區"
"227004","400-TW","2017/11/23 11:49:40","","121.85086","25.0631016666667","6502500","雙溪區"
"208004","AAC-292","2017/11/23 13:19:51","新北市金山區南勢湖92號","121.605773333333","25.2093666666667","6502700","金山區"
"207002","749-BX","2017/11/23 13:19:53","新北市萬里區崁腳里崁腳路166號","121.645033333333","25.15585","6502800","萬里區"
"252005","073-UM","2017/11/23 13:19:43","新北市三芝區福德里土地公埔67-3號","121.519905","25.22778","6502100","三芝區"
"207001","662-BX","2017/11/23 13:19:55","新北市萬里區龜吼里玉田路87號","121.680511666667","25.1929183333333","6502800","萬里區"
"236005","498-BY","2017/11/23 13:19:50","新北市土城區亞洲路9號","121.434451666667","24.9722766666667","6501300","土城區"
"238021","KEA-2217","2017/11/23 13:17:07","新北市樹林區八德街395號","121.415536666667","24.9716683333333","6500700","樹林區"
"221012","276-VK","2017/11/23 13:19:04","新北市汐止區汐萬路一段256巷3號","121.653446666667","25.0746266666667","6501100","汐止區"
"221032","280-BY","2017/11/23 13:19:43","新北市汐止區復興路23號","121.656203333333","25.0651616666667","6501100","汐止區"
"242001","281-VK","2017/11/23 13:19:46","新北市新莊區豐年街84號","121.446455","25.0311283333333","6500500","新莊區"
