"lineid","car","time","location","longitude","latitude","cityid","cityname"
"234044","148-BY","2017/11/23 14:09:53","新北市永和區得和路338號","121.52355","24.99938","6500400","永和區"
"234012","149-BY","2017/11/23 14:09:36","新北市永和區永貞路435號","121.506868333333","25.0098683333333","6500400","永和區"
"234005","207-UY","2017/11/23 14:09:50","新北市中和區南工路6號","121.505456666667","25.0002566666667","6500400","永和區"
"234078","298-R6","2017/11/23 14:09:51","新北市永和區永亨路105巷4號","121.523563333333","25.0050333333333","6500400","永和區"
"234036","336-UY","2017/11/23 14:09:44","新北市永和區成功路一段45號","121.527175","25.0041583333333","6500400","永和區"
"234062","337-UY","2017/11/23 14:09:33","新北市永和區永利路146號","121.522276666667","25.0027316666667","6500400","永和區"
"234084","338-UY","2017/11/23 14:09:51","新北市永和區中正路618-1號","121.516925","25.0077366666667","6500400","永和區"
"234068","552-UM","2017/11/23 14:09:41","新北市永和區中正路632號","121.517053333333","25.0080933333333","6500400","永和區"
"234052","553-UM","2017/11/23 14:09:56","新北市永和區博愛街47巷1號","121.519438333333","25.0159666666667","6500400","永和區"
"234015","745-BX","2017/11/23 14:09:45","新北市永和區仁愛路17號","121.514651666667","25.013395","6500400","永和區"
"234028","746-BX","2017/11/23 14:09:51","新北市永和區民權路51號","121.520018333333","24.9971083333333","6500400","永和區"
"234060","AAD-866","2017/11/23 14:09:57","新北市永和區安樂路100巷21弄1號","121.51475","24.9990716666667","6500400","永和區"
"234040","862-TW","2017/11/23 14:09:53","新北市永和區雙和街24號","121.508928333333","25.0023133333333","6500400","永和區"
"234048","863-TW","2017/11/23 14:09:51","新北市永和區環河西路二段151號","121.505631666667","25.0139066666667","6500400","永和區"
"234025","9381-KE","2017/11/23 14:09:37","新北市永和區安樂路272巷7弄1號","121.514788333333","25.0042316666667","6500400","永和區"
"234010","9373-KE","2017/11/23 14:09:51","新北市永和區仁愛路352巷140號","121.499825","25.0088533333333","6500400","永和區"
"248015","026-BX","2017/11/23 14:09:42","新北市五股區成泰路三段543巷56號","121.449585","25.1031316666667","6501500","五股區"
"248007","095-VK","2017/11/23 14:09:48","新北市五股區中興路一段118巷14號","121.466023333333","25.0741416666667","6501500","五股區"
"248017","225-UY","2017/11/23 14:09:43","新北市五股區民義路一段255-6號","121.426096666667","25.09143","6501500","五股區"
"248011","247-BX","2017/11/23 14:09:52","新北市五股區工商路18巷23弄10號","121.44023","25.08423","6501500","五股區"
"248009","272-BY","2017/11/23 14:09:52","新北市五股區水碓一路23號","121.430611666667","25.0712766666667","6501500","五股區"
"248003","677-BX","2017/11/23 14:09:52","新北市五股區民義路一段185-4號","121.431863333333","25.088435","6501500","五股區"
"248001","678-BX","2017/11/23 14:09:51","新北市五股區成泰路三段577巷25號","121.451375","25.102915","6501500","五股區"
"234022","9380-KE","2017/11/23 14:09:53","新北市永和區博愛街32巷18號","121.518775","25.0152183333333","6500400","永和區"
"234076","969-R7","2017/11/23 14:09:54","新北市永和區民族街67巷18號","121.519493333333","24.99709","6500400","永和區"
"234072","AAC-211","2017/11/23 14:09:42","新北市永和區竹林路201巷35號","121.522201666667","25.0096333333333","6500400","永和區"
"234066","AAC-212","2017/11/23 14:09:40","新北市永和區保平路236巷1弄2號","121.508903333333","25.0058333333333","6500400","永和區"
"234001","AAC-295","2017/11/23 14:09:47","新北市永和區中正路605號","121.516505","25.0096183333333","6500400","永和區"
"244003","248-BX","2017/11/23 14:09:35","新北市林口區嘉寶里22號","121.339671666667","25.108445","6501700","林口區"
"244025","837-TS","2017/11/23 10:44:47","新北市林口區粉寮路二段160巷28號","121.405193333333","25.0907566666667","6501700","林口區"
"243003","267-VK","2017/11/23 14:09:58","新北市泰山區明志路二段329號","121.425695","25.04489","6501600","泰山區"
"243004","AAD-798","2017/11/23 14:09:53","新北市泰山區明志路一段412號","121.430791666667","25.0568533333333","6501600","泰山區"
"243001","297-R6","2017/11/23 14:09:42","新北市泰山區文化街1巷1號","121.433775","25.0639933333333","6501600","泰山區"
"243007","380-SR","2017/11/23 14:09:51","新北市泰山區明志路一段431號","121.430678333333","25.05645","6501600","泰山區"
"243006","421-VK","2017/11/23 14:09:52","新北市泰山區泰林路二段480號","121.425025","25.0640366666667","6501600","泰山區"
"243002","KEA-2215","2017/11/23 14:09:51","新北市泰山區明志路一段483巷1弄2號","121.431173333333","25.0552983333333","6501600","泰山區"
"243005","646-TV","2017/11/23 14:09:40","新北市泰山區台麗街16巷12號","121.424323333333","25.0376116666667","6501600","泰山區"
"243008","680-BX","2017/11/23 14:09:48","新北市泰山區明志路二段398號","121.425155","25.0441216666667","6501600","泰山區"
"231002","002-UM","2017/11/23 14:09:53","新北市新店區中正路542-10號","121.533643333333","24.9849416666667","6500600","新店區"
"231028","046-UY","2017/11/23 14:09:49","新北市新店區安和路二段223巷2號","121.517288333333","24.975935","6500600","新店區"
"231030","047-UY","2017/11/23 14:09:39","新北市新店區安民街65巷21-2號","121.51509","24.9675216666667","6500600","新店區"
"231029","106-UY","2017/11/23 14:09:54","新北市新店區安康路二段159巷7號","121.510491666667","24.95924","6500600","新店區"
"231018","107-UY","2017/11/23 14:09:40","新北市新店區中央五街16號","121.529565","24.9743316666667","6500600","新店區"
"231011","108-UY","2017/11/23 14:09:44","新北市新店區五峰路63巷8弄23號","121.547411666667","24.9693416666667","6500600","新店區"
"231021","187-VK","2017/11/23 14:09:48","新北市新店區新烏路二段300號","121.548175","24.9140216666667","6500600","新店區"
"231017","KEA-2219","2017/11/23 14:09:39","新北市新店區北宜路二段382號","121.564395","24.9532666666667","6500600","新店區"
"231027","3712-VJ","2017/11/23 14:09:51","新北市新店區光明街138巷13弄7號","121.540233333333","24.9614716666667","6500600","新店區"
"231025","3713-VJ","2017/11/23 14:09:51","新北市新店區中正路328巷40號","121.538158333333","24.9763466666667","6500600","新店區"
"231038","4715-K9","2017/11/23 14:09:40","新北市新店區溪洲路121號","121.531215","24.9628016666667","6500600","新店區"
"231036","512-UM","2017/11/23 14:09:43","新北市新店區安祥路109巷3弄104號","121.479231666667","24.9605466666667","6500600","新店區"
"231023","513-UM","2017/11/23 14:09:49","新北市新店區文中路28號","121.538491666667","24.9569666666667","6500600","新店區"
"231035","515-UM","2017/11/23 14:09:47","新北市新店區安和路一段52巷2-1號","121.517655","24.9664283333333","6500600","新店區"
"231003","616-UM","2017/11/23 14:09:45","新北市新店區中興路一段148號","121.542471666667","24.963795","6500600","新店區"
"231001","619-UM","2017/11/23 14:09:40","新北市新店區三民路20巷2號","121.53762","24.9705916666667","6500600","新店區"
"231034","645-TV","2017/11/23 14:09:54","新北市新店區黎明路3號","121.503545","24.9524583333333","6500600","新店區"
"231013","719-UM","2017/11/23 14:09:45","新北市新店區北新路三段65巷34弄18號","121.54007","24.9816333333333","6500600","新店區"
"231031","720-UM","2017/11/23 14:09:38","新北市新店區永業路51巷2號","121.531885","24.9546833333333","6500600","新店區"
"231005","897-TW","2017/11/23 14:09:44","新北市新店區中興路三段313號","121.541823333333","24.9860766666667","6500600","新店區"
"231006","898-TW","2017/11/23 14:09:46","新北市新店區北宜路二段126號","121.556821666667","24.9538666666667","6500600","新店區"
"231004","899-TW","2017/11/23 14:09:48","新北市新店區北新路二段214號","121.542868333333","24.97689","6500600","新店區"
"231037","AKT-0513","2017/11/23 14:09:39","新北市新店區車子路1號","121.504565","24.95677","6500600","新店區"
"235030","003-UY","2017/11/23 14:09:37","新北市中和區光華街62號","121.50553","25.00369","6500300","中和區"
"235027","006-UY","2017/11/23 14:09:41","新北市中和區連城路249號","121.492798333333","24.996715","6500300","中和區"
"235020","096-UM","2017/11/23 14:09:40","新北市中和區員山路575號","121.479425","25.0079366666667","6500300","中和區"
"235003","097-UM","2017/11/23 14:09:49","新北市中和區景平路3號","121.523675","24.9902683333333","6500300","中和區"
"235029","098-UM","2017/11/23 14:09:40","新北市中和區中山路二段64巷7弄27號","121.502681666667","25.0045416666667","6500300","中和區"
"235004","150-BY","2017/11/23 14:09:34","新北市中和區宜安路121號","121.509943333333","24.99778","6500300","中和區"
"235022","151-BY","2017/11/23 14:09:54","新北市中和區連城路525-8號","121.48096","24.9949483333333","6500300","中和區"
"235019","183-VK","2017/11/23 14:09:40","新北市中和區德光路113號","121.468121666667","25.0032766666667","6500300","中和區"
"235002","185-VK","2017/11/23 14:09:52","新北市中和區大仁街10巷27弄3號","121.519163333333","24.9926933333333","6500300","中和區"
"235013","186-VK","2017/11/23 14:09:39","新北市中和區南華路46號","121.503951666667","24.9964633333333","6500300","中和區"
"235031","255-BX","2017/11/23 14:09:39","新北市中和區新生街168號","121.483685","25.0001433333333","6500300","中和區"
"235008","293-VK","2017/11/23 14:09:39","新北市中和區復興路348號","121.500095","24.9904066666667","6500300","中和區"
"235036","301-VK","2017/11/23 14:09:42","新北市中和區中山路二段172號","121.501163333333","25.0028816666667","6500300","中和區"
"235007","352-BY","2017/11/23 14:09:50","新北市中和區景平路116號","121.51942","24.9915983333333","6500300","中和區"
"235032","377-QA","2017/11/23 14:09:52","新北市中和區連勝街36號","121.498043333333","24.9977516666667","6500300","中和區"
"235025","378-QA","2017/11/23 14:09:48","新北市中和區員山路394巷12弄1號","121.481306666667","25.0043066666667","6500300","中和區"
"235035","269-TV","2017/11/23 14:09:42","新北市中和區立德街98巷109號","121.488786666667","25.008155","6500300","中和區"
"235014","4979-A6","2017/11/23 14:09:49","新北市中和區景安路208巷23號","121.502461666667","24.9919266666667","6500300","中和區"
"235033","4980-A6","2017/11/23 14:09:44","新北市中和區福美路267號","121.49829","25.00513","6500300","中和區"
"235006","551-UM","2017/11/23 14:09:42","新北市中和區自立路109號","121.522228333333","24.9946033333333","6500300","中和區"
"235034","558-UM","2017/11/23 14:09:49","新北市中和區安和路163號","121.506246666667","24.9974816666667","6500300","中和區"
"235009","565-BX","2017/11/23 14:09:50","新北市中和區景新街467巷38弄8號","121.51514","24.9885883333333","6500300","中和區"
"235018","640-BX","2017/11/23 14:09:46","新北市中和區國光街8巷1號","121.47161","25.0002133333333","6500300","中和區"
"235024","647-TV","2017/11/23 14:09:46","新北市中和區民治街25巷1號","121.475443333333","25.00186","6500300","中和區"
"235011","732-UM","2017/11/23 14:09:40","新北市中和區和平街38巷28號","121.509673333333","24.991295","6500300","中和區"
"235010","733-UM","2017/11/23 14:09:52","新北市中和區忠孝街1巷7號","121.508666666667","24.98351","6500300","中和區"
"235026","800-TS","2017/11/23 14:09:52","新北市中和區中山路二段378號","121.491186666667","25.0035933333333","6500300","中和區"
"235021","801-TS","2017/11/23 14:09:40","新北市中和區民利街58巷5弄11號","121.478226666667","24.9990733333333","6500300","中和區"
"235005","802-TS","2017/11/23 14:09:44","新北市中和區中安街178巷3弄4號","121.510543333333","24.9989883333333","6500300","中和區"
"235012","896-TW","2017/11/23 14:09:49","新北市中和區華新街109巷11弄3-1號","121.508696666667","24.9793533333333","6500300","中和區"
"235017","900-TW","2017/11/23 14:09:51","新北市中和區華福街88號","121.46761","24.9964316666667","6500300","中和區"
"235028","911-UM","2017/11/23 14:09:44","新北市中和區泰和街44巷29號","121.498103333333","25.0010816666667","6500300","中和區"
"235001","157-BY","2017/11/23 14:09:38","新北市中和區興南路一段85巷39號","121.51051","24.98808","6500300","中和區"
"235001","AAC-213","2017/11/23 14:09:53","新北市中和區秀朗路三段60巷38號","121.52507","24.99494","6500300","中和區"
"235023","AAC-215","2017/11/23 14:09:53","新北市中和區圓通路294巷17-5號","121.488613333333","24.990395","6500300","中和區"
"220016","013-TV","2017/11/23 13:26:57","新北市板橋區民生路二段120號","121.47061","25.0202183333333","6500100","板橋區"
"220013","072-UY","2017/11/23 14:09:54","新北市板橋區民族路151巷28號","121.469095","25.00824","6500100","板橋區"
"220034","073-UY","2017/11/23 14:09:52","新北市板橋區中正路236巷88號","121.458378333333","25.019445","6500100","板橋區"
"220105","075-UY","2017/11/23 14:09:52","新北市板橋區雙十路三段9號","121.471506666667","25.030065","6500100","板橋區"
"220017","AAD-861","2017/11/23 14:09:59","新北市板橋區貴興路7號","121.457778333333","25.004355","6500100","板橋區"
"220051","120-SR","2017/11/23 14:09:51","新北市板橋區田單街49巷1弄9號","121.482755","25.0285983333333","6500100","板橋區"
"247021","893-R6","2017/11/23 14:09:29","新北市蘆洲區三民路169號","121.47115","25.0871633333333","6501400","蘆洲區"
"247011","546-UM","2017/11/23 14:09:47","新北市蘆洲區信義路337號","121.477688333333","25.0869866666667","6501400","蘆洲區"
"247019","500-BY","2017/11/23 14:09:53","新北市蘆洲區民族路422巷15弄23號","121.473061666667","25.0929883333333","6501400","蘆洲區"
"247007","341-TH","2017/11/23 14:09:47","新北市三重區永安北路一段3巷2號","121.475861666667","25.0743066666667","6501400","蘆洲區"
"247009","339-TH","2017/11/23 14:09:56","新北市蘆洲區三民路38-1號","121.475541666667","25.0831683333333","6501400","蘆洲區"
"247001","337-TH","2017/11/23 14:09:52","新北市蘆洲區永平街41號","121.458178333333","25.0911166666667","6501400","蘆洲區"
"247003","335-TH","2017/11/23 14:09:39","新北市蘆洲區長安街150號","121.459913333333","25.0822416666667","6501400","蘆洲區"
"247015","057-VK","2017/11/23 14:09:32","新北市蘆洲區中正路185巷13弄1號","121.467855","25.08485","6501400","蘆洲區"
"247005","056-VK","2017/11/23 14:09:50","新北市蘆洲區九芎街15巷8號","121.467955","25.0780183333333","6501400","蘆洲區"
"247013","007-UY","2017/11/23 14:09:39","新北市蘆洲區保和街50-5號","121.46978","25.086315","6501400","蘆洲區"
"247023","002-UY","2017/11/23 14:09:46","新北市蘆洲區光榮路116號","121.464458333333","25.0894033333333","6501400","蘆洲區"
"247017","001-UY","2017/11/23 14:09:47","新北市蘆洲區復興路105巷9號","121.476368333333","25.0882583333333","6501400","蘆洲區"
"228005","097-TW","2017/11/23 14:09:54","新北市貢寮區美豐里雞母嶺街52-1號","121.889373333333","25.0681083333333","6502600","貢寮區"
"228004","212-TW","2017/11/23 14:09:50","新北市貢寮區雙玉里下雙溪街8號","121.916233333333","25.0138666666667","6502600","貢寮區"
"227004","400-TW","2017/11/23 11:49:40","","121.85086","25.0631016666667","6502500","雙溪區"
"208004","AAC-292","2017/11/23 14:09:50","新北市金山區六股里下六股65號","121.61441","25.2236433333333","6502700","金山區"
"207002","749-BX","2017/11/23 14:09:53","新北市萬里區溪底里瑞泉路13號","121.604431666667","25.1452616666667","6502800","萬里區"
"252005","073-UM","2017/11/23 14:08:23","新北市三芝區橫山里橫山31-1號","121.544055","25.2581383333333","6502100","三芝區"
"207001","662-BX","2017/11/23 14:09:35","新北市萬里區磺潭里清水18號","121.637701666667","25.1976166666667","6502800","萬里區"
"236066","105-UM","2017/11/23 14:09:53","新北市土城區金城路一段88巷24號","121.445843333333","24.9730366666667","6501300","土城區"
"236040","107-UM","2017/11/23 14:09:48","新北市土城區裕生路61號","121.447638333333","24.9861433333333","6501300","土城區"
"236028","253-BX","2017/11/23 14:09:34","新北市土城區城林路6巷80號","121.438401666667","24.9797583333333","6501300","土城區"
"236024","269-VK","2017/11/23 14:09:53","新北市土城區承天路18號","121.439518333333","24.96344","6501300","土城區"
"236012","270-VK","2017/11/23 14:09:48","新北市土城區學府路一段21-1號","121.458616666667","24.9884566666667","6501300","土城區"
"236033","271-VK","2017/11/23 14:09:53","新北市土城區明德路一段355-5號","121.456905","24.977555","6501300","土城區"
"236018","401-BY","2017/11/23 14:09:44","新北市土城區員福街50號","121.440591666667","24.9790383333333","6501300","土城區"
"236005","498-BY","2017/11/23 14:09:40","新北市土城區中央路一段29號","121.448245","24.9907966666667","6501300","土城區"
"236076","752-BX","2017/11/23 14:09:52","新北市土城區永和街5號","121.434643333333","24.965115","6501300","土城區"
"236056","912-UM","2017/11/23 14:09:48","新北市土城區中央路四段38號","121.420813333333","24.9608083333333","6501300","土城區"
"236047","913-UM","2017/11/23 14:09:49","新北市土城區明德路一段365-1號","121.453561666667","24.9790433333333","6501300","土城區"
"236060","915-UM","2017/11/23 14:09:49","新北市土城區金城路二段251號","121.463361666667","24.98569","6501300","土城區"
"236052","AAC-216","2017/11/23 14:09:39","新北市土城區中華路二段80號","121.43869","24.9758083333333","6501300","土城區"
"221012","276-VK","2017/11/23 13:19:04","新北市汐止區汐萬路一段256巷3號","121.653446666667","25.0746266666667","6501100","汐止區"
"220027","145-BY","2017/11/23 14:09:56","新北市板橋區公館街27號","121.46108","25.015385","6500100","板橋區"
"220028","200-UY","2017/11/23 14:09:40","新北市板橋區大觀路二段37巷302號","121.45028","25.0020866666667","6500100","板橋區"
"220030","610-BX","2017/11/23 14:09:45","新北市板橋區大觀路三段261號","121.429208333333","24.9921183333333","6500100","板橋區"
"220050","245-BX","2017/11/23 14:09:48","新北市板橋區萬板路65號","121.471753333333","25.0220916666667","6500100","板橋區"
"220040","267-BY","2017/11/23 14:09:58","新北市板橋區縣民大道247巷80號","121.48219","25.026925","6500100","板橋區"
"220004","276-BY","2017/11/23 14:09:50","新北市板橋區信義路110巷9號","121.457888333333","24.9921233333333","6500100","板橋區"
"220020","277-BY","2017/11/23 14:09:53","新北市板橋區金門街222號","121.430985","24.987995","6500100","板橋區"
"220043","283-UM","2017/11/23 14:09:53","新北市板橋區光武街102號","121.465913333333","25.0289","6500100","板橋區"
"220019","283-VK","2017/11/23 14:09:52","新北市板橋區重慶路337號","121.46402","24.9981716666667","6500100","板橋區"
"220001","285-VK","2017/11/23 14:09:49","新北市板橋區懷仁街34巷20號","121.475886666667","25.0191133333333","6500100","板橋區"
"220031","286-VK","2017/11/23 14:09:52","新北市板橋區大觀路二段174巷173弄2號","121.4418","25.00372","6500100","板橋區"
"220029","287-VK","2017/11/23 14:09:55","新北市板橋區南雅西路一段59號","121.45359","25.0051383333333","6500100","板橋區"
"220039","288-VK","2017/11/23 14:09:50","新北市板橋區四維路291巷3號","121.46162","25.0282983333333","6500100","板橋區"
"220009","293-UM","2017/11/23 14:09:56","新北市板橋區中山路二段248號","121.478681666667","25.0182766666667","6500100","板橋區"
"220032","296-UM","2017/11/23 14:09:55","新北市板橋區溪崑一街21巷7號","121.431163333333","24.9917333333333","6500100","板橋區"
"220023","297-UM","2017/11/23 14:09:46","新北市板橋區中正路101號","121.45624","25.0147433333333","6500100","板橋區"
"242001","281-VK","2017/11/23 14:09:46","新北市新莊區新興街35號","121.450723333333","25.0377083333333","6500500","新莊區"
"220010","305-R5","2017/11/23 14:09:56","新北市板橋區三民路二段245巷69弄30-2號","121.481133333333","25.01344","6500100","板橋區"
"220041","307-R5","2017/11/23 14:09:51","新北市板橋區文化路二段225巷60弄32號","121.469206666667","25.0292133333333","6500100","板橋區"
"220047","317-R6","2017/11/23 14:09:54","新北市板橋區自由路51巷12號","121.46495","25.0234416666667","6500100","板橋區"
"220012","486-VK","2017/11/23 14:09:08","新北市板橋區長安街331巷26弄2號","121.474123333333","25.0127183333333","6500100","板橋區"
"220038","487-VK","2017/11/23 14:09:50","新北市板橋區文化路二段476號","121.475228333333","25.0327966666667","6500100","板橋區"
"220037","491-VK","2017/11/23 14:09:28","新北市板橋區文化路二段182巷9弄7號","121.472538333333","25.0269133333333","6500100","板橋區"
"220104","560-BX","2017/11/23 14:09:53","新北市板橋區中正路401-1號","121.45396","25.0222066666667","6500100","板橋區"
"220052","561-BX","2017/11/23 14:09:52","新北市板橋區文化路一段188巷11弄54號","121.469063333333","25.0188583333333","6500100","板橋區"
"220011","609-BX","2017/11/23 14:09:51","新北市板橋區中山路二段319號","121.479005","25.0185616666667","6500100","板橋區"
"220005","686-BX","2017/11/23 14:09:45","新北市板橋區館前東路53號","121.461288333333","25.0074366666667","6500100","板橋區"
"220025","687-BX","2017/11/23 14:09:56","新北市板橋區龍興街56號","121.443326666667","25.00131","6500100","板橋區"
"220042","689-BX","2017/11/23 14:09:51","新北市板橋區民生路三段243號","121.464786666667","25.0289116666667","6500100","板橋區"
"220002","741-BX","2017/11/23 14:09:54","新北市板橋區實踐路46號","121.463636666667","25.0065916666667","6500100","板橋區"
"220003","827-TW","2017/11/23 14:09:47","新北市板橋區民族路53號","121.463573333333","25.0093783333333","6500100","板橋區"
"220014","829-TW","2017/11/23 14:09:50","新北市板橋區民享街116巷2弄15號","121.477276666667","25.01537","6500100","板橋區"
"220045","831-TW","2017/11/23 14:09:56","新北市板橋區雙十路二段47巷17號","121.475646666667","25.025765","6500100","板橋區"
"220022","895-R6","2017/11/23 14:09:40","新北市板橋區西門街59號","121.454553333333","25.0092366666667","6500100","板橋區"
"220021","985-R7","2017/11/23 14:09:47","新北市板橋區中正路146號","121.457008333333","25.0161616666667","6500100","板橋區"
"220046","AAC-210","2017/11/23 14:09:38","新北市板橋區新海路135巷4號","121.459896666667","25.0229166666667","6500100","板橋區"
"220018","AAC-253","2017/11/23 14:09:41","新北市板橋區四川路一段285號","121.459241666667","25.0015333333333","6500100","板橋區"
