"lineid","car","time","location","longitude","latitude","cityid","cityname"
"234010","9373-KE","2017/11/23 15:49:46","新北市永和區福和路1號","121.52563","25.00926","6500400","永和區"
"249005","172-UM","2017/11/23 16:59:51","新北市八里區渡船頭3-7號","121.434435","25.1534566666667","6502300","八里區"
"249001","173-UM","2017/11/23 16:59:46","新北市八里區商港路48號","121.394625","25.14463","6502300","八里區"
"249004","303-UY","2017/11/23 16:59:40","新北市八里區挖子尾街38號","121.415651666667","25.1657083333333","6502300","八里區"
"249002","305-UY","2017/11/23 16:59:42","新北市八里區牛寮埔10號","121.43321","25.1423666666667","6502300","八里區"
"249003","593-UM","2017/11/23 16:59:50","新北市八里區中山路二段301號","121.401051666667","25.1481366666667","6502300","八里區"
"244013","069-UM","2017/11/23 16:59:40","新北市林口區粉寮69號","121.40503","25.0908516666667","6501700","林口區"
"244007","080-UY","2017/11/23 16:59:50","新北市林口區台電新村33號","121.386335","25.086555","6501700","林口區"
"244023","483-VK","2017/11/23 16:59:47","新北市林口區粉寮69號","121.405041666667","25.0907766666667","6501700","林口區"
"244009","656-BX","2017/11/23 16:59:43","新北市林口區粉寮69號","121.405061666667","25.0908566666667","6501700","林口區"
"244025","837-TS","2017/11/23 16:47:22","新北市林口區粉寮路二段160巷28號","121.405185","25.090805","6501700","林口區"
"244021","838-TS","2017/11/23 16:59:54","新北市林口區粉寮69號","121.404821666667","25.090855","6501700","林口區"
"243009","297-R6","2017/11/23 16:00:23","新北市泰山區黎明路25號","121.421895","25.06092","6501600","泰山區"
"243016","680-BX","2017/11/23 15:51:53","新北市泰山區黎明路25號","121.421943333333","25.06063","6501600","泰山區"
"231046","278-BY","2017/11/23 16:59:53","新北市新店區華城路77巷6號","121.524496666667","24.945895","6500600","新店區"
"241011","013-R5","2017/11/23 16:59:37","新北市三重區仁愛街55巷11號","121.498635","25.0726683333333","6500200","三重區"
"241028","022-UY","2017/11/23 16:59:41","新北市三重區中正南路50號","121.494041666667","25.05993","6500200","三重區"
"241008","059-VK","2017/11/23 16:59:50","新北市三重區永福街179巷42號","121.477393333333","25.0747833333333","6500200","三重區"
"241009","060-VK","2017/11/23 16:59:38","新北市三重區仁美街107號","121.48586","25.0808366666667","6500200","三重區"
"241031","061-VK","2017/11/23 16:59:55","新北市三重區三寧街22號","121.489401666667","25.05999","6500200","三重區"
"241015","062-VK","2017/11/23 16:59:37","新北市三重區三和路二段1-4號","121.501555","25.0666433333333","6500200","三重區"
"241017","063-VK","2017/11/23 16:59:46","新北市三重區國隆路14號","121.49301","25.06383","6500200","三重區"
"241024","065-VK","2017/11/23 16:59:48","新北市三重區大勇街82巷26弄29號","121.47854","25.0720816666667","6500200","三重區"
"241026","066-VK","2017/11/23 16:59:42","新北市三重區文化南路42號","121.5005","25.060335","6500200","三重區"
"241002","090-VK","2017/11/23 16:59:50","新北市三重區仁義街143巷100號","121.498916666667","25.0816","6500200","三重區"
"241003","091-VK","2017/11/23 16:59:49","新北市三重區集賢路87-1號","121.493741666667","25.0868683333333","6500200","三重區"
"241022","156-TC","2017/11/23 16:59:54","新北市三重區貴陽街20號","121.484311666667","25.06214","6500200","三重區"
"241005","262-UM","2017/11/23 16:59:53","新北市三重區仁華街106號","121.485308333333","25.0832183333333","6500200","三重區"
"241019","265-UM","2017/11/23 16:59:52","新北市三重區自強路二段74巷17號","121.488066666667","25.0699833333333","6500200","三重區"
"241016","266-UM","2017/11/23 16:59:55","新北市三重區信義西街138號","121.495455","25.0643683333333","6500200","三重區"
"241018","268-UM","2017/11/23 16:59:55","新北市三重區六張街90巷8號","121.493061666667","25.06964","6500200","三重區"
"241032","269-UM","2017/11/23 16:59:42","新北市三重區重陽路一段120巷17號","121.48597","25.060135","6500200","三重區"
"241013","270-UM","2017/11/23 16:59:43","新北市三重區仁和街75號","121.49753","25.07404","6500200","三重區"
"241025","271-UM","2017/11/23 16:59:40","新北市三重區中正北路508巷5號","121.472661666667","25.071405","6500200","三重區"
"241007","398-BY","2017/11/23 16:59:39","新北市三重區三和路四段145巷211號","121.488758333333","25.0793616666667","6500200","三重區"
"241020","413-TH","2017/11/23 16:59:52","新北市三重區後竹圍街175巷27號","121.485665","25.0729033333333","6500200","三重區"
"241004","475-VK","2017/11/23 16:59:45","新北市三重區五華街92巷10號","121.49231","25.082005","6500200","三重區"
"241030","480-VK","2017/11/23 16:59:45","新北市三重區昌隆街50號","121.491361666667","25.0514683333333","6500200","三重區"
"241014","543-UM","2017/11/23 16:59:55","新北市三重區三和路二段173巷149號","121.501243333333","25.0708133333333","6500200","三重區"
"241023","545-UM","2017/11/23 16:59:41","新北市三重區忠孝路三段99巷4號","121.480178333333","25.06432","6500200","三重區"
"241001","547-UM","2017/11/23 16:59:57","新北市三重區仁愛街192巷15號","121.493581666667","25.0769483333333","6500200","三重區"
"241006","AAD-863","2017/11/23 16:59:41","新北市三重區車路頭街117巷37號","121.485276666667","25.0755916666667","6500200","三重區"
"241012","941-UM","2017/11/23 16:59:42","新北市三重區仁和街132號","121.500328333333","25.07494","6500200","三重區"
"241029","942-UM","2017/11/23 16:59:43","新北市三重區重安街111號","121.494573333333","25.054965","6500200","三重區"
"241033","AAC-255","2017/11/23 16:59:57","新北市三重區中興北街275號","121.469078333333","25.0607633333333","6500200","三重區"
"235064","911-UM","2017/11/23 15:44:45","新北市中和區員山路36巷16-3號","121.485033333333","24.9914783333333","6500300","中和區"
"247020","500-BY","2017/11/23 16:59:51","新北市蘆洲區民族路422巷35-1號","121.473581666667","25.09375","6501400","蘆洲區"
"247008","341-TH","2017/11/23 16:59:57","新北市蘆洲區信義路59巷2號","121.475375","25.0801966666667","6501400","蘆洲區"
"247010","339-TH","2017/11/23 16:59:49","新北市蘆洲區信義路158號","121.479418333333","25.08363","6501400","蘆洲區"
"247002","337-TH","2017/11/23 16:59:40","新北市蘆洲區永平街22號","121.459115","25.0907716666667","6501400","蘆洲區"
"247004","335-TH","2017/11/23 16:59:47","新北市蘆洲區永安南路二段256號","121.459723333333","25.0804333333333","6501400","蘆洲區"
"247016","057-VK","2017/11/23 16:59:46","新北市蘆洲區正和街3號","121.47039","25.0827833333333","6501400","蘆洲區"
"247006","056-VK","2017/11/23 16:59:50","新北市蘆洲區長安街111巷32弄2號","121.460358333333","25.0801483333333","6501400","蘆洲區"
"247014","007-UY","2017/11/23 16:59:54","新北市蘆洲區中山二路36巷19號","121.474108333333","25.0828516666667","6501400","蘆洲區"
"247024","002-UY","2017/11/23 16:59:53","新北市蘆洲區長興路202號","121.460583333333","25.0874933333333","6501400","蘆洲區"
"247018","001-UY","2017/11/23 16:59:36","新北市蘆洲區民族路306號","121.477531666667","25.0900533333333","6501400","蘆洲區"
"228003","097-TW","2017/11/23 16:59:56","新北市貢寮區福隆里興隆街23號","121.9427","25.0165416666667","6502600","貢寮區"
"228001","212-TW","2017/11/23 16:59:50","新北市貢寮區貢寮里朝陽街2號","121.912801666667","25.0216566666667","6502600","貢寮區"
"228002","585-TW","2017/11/23 16:59:36","新北市貢寮區貢寮里朝陽街14號","121.911588333333","25.0213683333333","6502600","貢寮區"
"224010","AGQ-8101","2017/11/23 09:08:13","新北市瑞芳區明燈路二段44-1號","121.80953","25.10829","6501200","瑞芳區"
"224006","676-BX","2017/11/23 16:59:41","新北市瑞芳區大寮路356-1號","121.784583333333","25.10333","6501200","瑞芳區"
"224009","285-BY","2017/11/23 16:59:25","新北市瑞芳區濱二路23號","121.836213333333","25.1129383333333","6501200","瑞芳區"
"224008","275-VK","2017/11/23 16:59:51","新北市瑞芳區九芎橋路65-1號","121.833181666667","25.0958783333333","6501200","瑞芳區"
"224007","273-VK","2017/11/23 16:59:43","新北市瑞芳區瑞竹路46號","121.763593333333","25.1033883333333","6501200","瑞芳區"
"224005","271-BY","2017/11/23 16:59:46","新北市瑞芳區哩咾路1號","121.878756666667","25.122465","6501200","瑞芳區"
"227010","642-TC","2017/11/23 16:59:41","新北市雙溪區牡丹里聖南21號","121.858835","25.0528133333333","6502500","雙溪區"
"227004","400-TW","2017/11/23 16:59:40","新北市雙溪區長源里柑腳41-1號","121.803056666667","25.0130583333333","6502500","雙溪區"
"251009","008-UM","2017/11/23 16:59:42","新北市淡水區中正路一段122號","121.422873333333","25.1785483333333","6501000","淡水區"
"251005","010-UM","2017/11/23 16:59:49","新北市淡水區中正路一段112號","121.423703333333","25.1780366666667","6501000","淡水區"
"251007","179-VK","2017/11/23 16:59:39","新北市淡水區文化路61號","121.438483333333","25.1728316666667","6501000","淡水區"
"251008","181-VK","2017/11/23 16:59:41","新北市淡水區樹梅坑9號","121.472816666667","25.1427266666667","6501000","淡水區"
"251014","182-VK","2017/11/23 16:59:40","新北市淡水區淡金路四段472巷24號","121.453008333333","25.223985","6501000","淡水區"
"251010","413-VK","2017/11/23 16:59:53","新北市淡水區中正路一段22巷100號","121.426836666667","25.18592","6501000","淡水區"
"251012","441-VK","2017/11/23 16:59:40","新北市淡水區中正路二段30號","121.419731666667","25.182055","6501000","淡水區"
"251016","442-VK","2017/11/23 16:59:43","新北市淡水區瓦坑6-1號","121.477631666667","25.1809866666667","6501000","淡水區"
"251011","650-BX","2017/11/23 16:59:50","新北市淡水區中山路50號","121.443991666667","25.1703","6501000","淡水區"
"252002","178-VK","2017/11/23 16:59:53","新北市三芝區忠孝街171號","121.505453333333","25.2613816666667","6502100","三芝區"
"252001","292-VK","2017/11/23 16:59:56","新北市三芝區淡金路二段43號","121.503423333333","25.2604083333333","6502100","三芝區"
"242031","AAC-296","2017/11/23 11:00:20","新北市新莊區新泰路357巷3弄57號","121.442305","25.0395716666667","6500500","新莊區"
"242027","705-TV","2017/11/23 16:59:54","新北市新莊區新泰路357巷3弄57號","121.442185","25.0393183333333","6500500","新莊區"
"242023","613-BX","2017/11/23 16:59:42","新北市新莊區新泰路357巷3弄57號","121.442128333333","25.0392283333333","6500500","新莊區"
"242039","566-BX","2017/11/23 16:59:41","新北市新莊區新泰路255巷83號","121.44212","25.0390783333333","6500500","新莊區"
"242048","441-UM","2017/11/23 16:59:52","新北市新莊區三和路12-21號","121.44214","25.0383816666667","6500500","新莊區"
"242034","415-TV","2017/11/23 16:59:55","新北市新莊區新泰路357巷3弄57號","121.442131666667","25.039275","6500500","新莊區"
"242061","362-BY","2017/11/23 16:59:43","新北市新莊區新泰路255巷83號","121.442235","25.038755","6500500","新莊區"
"242036","133-UY","2017/11/23 16:59:53","新北市新莊區新泰路255巷83號","121.442075","25.0388716666667","6500500","新莊區"
"242046","172-VK","2017/11/23 16:54:54","新北市新莊區三和路12-21號","121.44189","25.0381966666667","6500500","新莊區"
"242015","175-VK","2017/11/23 16:59:55","新北市新莊區三和路12-21號","121.442078333333","25.03867","6500500","新莊區"
"242002","176-VK","2017/11/23 16:59:37","新北市新莊區三和路12-21號","121.44206","25.0386716666667","6500500","新莊區"
"242013","346-TH","2017/11/23 15:20:59","新北市新莊區三和路12-14號","121.441933333333","25.0372816666667","6500500","新莊區"
"242019","348-TH","2017/11/23 16:59:54","新北市新莊區新泰路357巷3弄57號","121.44216","25.0396866666667","6500500","新莊區"
"242051","350-TH","2017/11/23 16:59:41","新北市新莊區新泰路255巷83號","121.442078333333","25.0388933333333","6500500","新莊區"
"242011","351-TH","2017/11/23 16:59:41","新北市新莊區新泰路357巷3弄57號","121.442045","25.0395783333333","6500500","新莊區"
"238023","601-UM","2017/11/23 16:59:41","新北市樹林區東和街7號","121.403776666667","24.9789116666667","6500700","樹林區"
"238019","599-UM","2017/11/23 16:59:54","新北市樹林區育德街78-1號","121.387668333333","24.9681633333333","6500700","樹林區"
"238012","303-VK","2017/11/23 16:59:43","新北市樹林區中正路22-1號","121.427806666667","24.999315","6500700","樹林區"
"238004","283-BY","2017/11/23 16:59:44","新北市樹林區光武街7-3號","121.415785","25.00535","6500700","樹林區"
"238001","282-BY","2017/11/23 16:59:45","新北市樹林區大慶街99-1號","121.427618333333","24.99992","6500700","樹林區"
"239007","AAC-297","2017/11/23 16:59:58","新北市鶯歌區文化路324巷42號","121.350628333333","24.94358","6500800","鶯歌區"
"239006","891-R6","2017/11/23 16:59:52","新北市鶯歌區二甲路2-1號","121.340361666667","24.93692","6500800","鶯歌區"
"239008","527-UM","2017/11/23 16:59:49","新北市鶯歌區尖山路101巷10號","121.347211666667","24.9425416666667","6500800","鶯歌區"
"239005","526-UM","2017/11/23 16:59:54","新北市鶯歌區文化路667號","121.35295","24.9465183333333","6500800","鶯歌區"
"239001","417-VK","2017/11/23 16:59:57","新北市鶯歌區環河路159號","121.34639","24.9381716666667","6500800","鶯歌區"
"239003","360-BY","2017/11/23 16:59:23","新北市鶯歌區文化路324巷42號","121.350758333333","24.9437566666667","6500800","鶯歌區"
"239002","359-BY","2017/11/23 16:59:48","新北市鶯歌區文化路667號","121.352956666667","24.94626","6500800","鶯歌區"
"221012","276-VK","2017/11/23 13:19:04","新北市汐止區汐萬路一段256巷3號","121.653446666667","25.0746266666667","6501100","汐止區"
"242001","281-VK","2017/11/23 16:04:16","新北市新莊區環河路636-7號","121.437275","25.0112983333333","6500500","新莊區"
"220010","305-R5","2017/11/23 16:26:51","新北市板橋區民生路二段120號","121.470458333333","25.019725","6500100","板橋區"
