"lineid","car","time","location","longitude","latitude","cityid","cityname"
"234046","148-BY","2017/11/23 18:49:51","新北市永和區秀朗路二段155號","121.525106666667","25.0015916666667","6500400","永和區"
"234013","149-BY","2017/11/23 18:49:58","新北市永和區仁愛路202巷38號","121.508796666667","25.013205","6500400","永和區"
"234007","207-UY","2017/11/23 18:49:51","新北市永和區文化路2號","121.515675","25.0150033333333","6500400","永和區"
"234081","298-R6","2017/11/23 18:49:51","新北市永和區永亨路98號","121.522978333333","25.0046933333333","6500400","永和區"
"234038","336-UY","2017/11/23 18:49:54","新北市永和區環河東路三段38號","121.526573333333","25.006705","6500400","永和區"
"234064","337-UY","2017/11/23 18:49:38","新北市永和區福和路1號","121.525453333333","25.0095716666667","6500400","永和區"
"234086","338-UY","2017/11/23 18:49:58","新北市永和區中正路39-1號","121.514391666667","24.9959583333333","6500400","永和區"
"234070","552-UM","2017/11/23 18:49:49","新北市永和區豫溪街171巷2號","121.522158333333","25.0104816666667","6500400","永和區"
"234054","553-UM","2017/11/23 18:49:57","新北市永和區豫溪街183號","121.522398333333","25.0103883333333","6500400","永和區"
"234017","745-BX","2017/11/23 18:49:54","新北市永和區忠孝街26巷8號","121.515291666667","25.01677","6500400","永和區"
"234030","746-BX","2017/11/23 18:49:42","新北市永和區得和路321號","121.52345","24.9995833333333","6500400","永和區"
"234061","AAD-866","2017/11/23 18:49:56","新北市永和區福和路305號","121.516341666667","25.007115","6500400","永和區"
"234042","862-TW","2017/11/23 18:49:42","新北市永和區永貞路271號","121.511716666667","25.0048","6500400","永和區"
"234050","863-TW","2017/11/23 18:49:55","新北市永和區保安路2號","121.510813333333","25.01746","6500400","永和區"
"234026","9381-KE","2017/11/23 18:49:45","新北市永和區自由街38號","121.514021666667","25.0061983333333","6500400","永和區"
"234011","9373-KE","2017/11/23 18:49:49","新北市永和區文化路124號","121.513091666667","25.015385","6500400","永和區"
"249005","172-UM","2017/11/23 18:49:51","新北市八里區長道坑16-2號","121.395043333333","25.1170466666667","6502300","八里區"
"249001","173-UM","2017/11/23 18:49:55","新北市八里區龍米路二段16號","121.449026666667","25.1390016666667","6502300","八里區"
"249004","303-UY","2017/11/23 18:49:39","新北市八里區博物館路29號","121.413663333333","25.16258","6502300","八里區"
"248016","026-BX","2017/11/23 18:49:52","新北市五股區凌雲路一段149巷42號","121.448565","25.101025","6501500","五股區"
"248006","077-UY","2017/11/23 18:49:44","新北市五股區四維路1巷2弄2號","121.466635","25.0701183333333","6501500","五股區"
"248008","095-VK","2017/11/23 18:49:34","新北市五股區中興路一段151巷24號","121.464961666667","25.0728966666667","6501500","五股區"
"248018","225-UY","2017/11/23 18:49:38","新北市五股區凌雲路三段41-1號","121.430511666667","25.1172583333333","6501500","五股區"
"248012","247-BX","2017/11/23 18:49:36","新北市五股區成泰路二段147巷5-17號","121.437076666667","25.0883916666667","6501500","五股區"
"248010","272-BY","2017/11/23 18:49:38","新北市五股區水碓三路42號","121.431353333333","25.0725333333333","6501500","五股區"
"248004","677-BX","2017/11/23 18:49:43","新北市五股區民義路二段50-29號","121.412235","25.1028166666667","6501500","五股區"
"248002","678-BX","2017/11/23 18:49:37","新北市五股區成泰路三段437號","121.44988","25.0978466666667","6501500","五股區"
"234023","9380-KE","2017/11/23 18:49:56","新北市永和區竹林路119巷35號","121.521801666667","25.0118466666667","6500400","永和區"
"234077","969-R7","2017/11/23 18:49:55","新北市永和區中正路2巷29弄2-2號","121.51389","24.9938233333333","6500400","永和區"
"234074","AAC-211","2017/11/23 18:49:51","新北市永和區福和路1號","121.526248333333","25.009405","6500400","永和區"
"234067","AAC-212","2017/11/23 18:49:54","新北市永和區中和路625號","121.513001666667","25.005025","6500400","永和區"
"234003","AAC-295","2017/11/23 18:49:56","新北市永和區中正路655號","121.515021666667","25.0101783333333","6500400","永和區"
"232011","375-UM","2017/11/23 18:49:37","新北市坪林區坪碇路87號","121.711623333333","24.9390566666667","6502000","坪林區"
"244013","069-UM","2017/11/23 18:49:40","新北市林口區文化一路一段120號","121.374153333333","25.071915","6501700","林口區"
"244007","080-UY","2017/11/23 18:49:50","新北市林口區太平嶺3-8號","121.37858","25.1121266666667","6501700","林口區"
"244019","403-UM","2017/11/23 18:49:48","新北市林口區忠孝路646巷39號","121.379541666667","25.0670483333333","6501700","林口區"
"244023","483-VK","2017/11/23 18:49:47","新北市林口區吉祥路182號","121.376603333333","25.0811266666667","6501700","林口區"
"244017","485-VK","2017/11/23 18:49:48","新北市林口區文化二路一段68巷10-3號","121.36624","25.0687516666667","6501700","林口區"
"244009","656-BX","2017/11/23 18:49:43","新北市林口區竹林路330巷16號","121.392011666667","25.082935","6501700","林口區"
"244011","701-TV","2017/11/23 18:49:39","新北市林口區仁愛路一段252號","121.394665","25.075835","6501700","林口區"
"244025","837-TS","2017/11/23 18:49:54","新北市林口區南勢二街166號","121.359313333333","25.0748366666667","6501700","林口區"
"244021","838-TS","2017/11/23 18:49:54","新北市林口區工六路94號","121.400988333333","25.0767816666667","6501700","林口區"
"243012","AAD-798","2017/11/23 18:49:51","新北市泰山區泰林路二段73巷31號","121.434386666667","25.0578116666667","6501600","泰山區"
"243009","297-R6","2017/11/23 18:49:38","新北市泰山區黎明路25號","121.42177","25.060875","6501600","泰山區"
"243015","380-SR","2017/11/23 18:49:43","新北市泰山區泰林路二段364號","121.428806666667","25.0638966666667","6501600","泰山區"
"243013","646-TV","2017/11/23 18:42:51","新北市泰山區明志路三段206巷3號","121.423231666667","25.0379483333333","6501600","泰山區"
"243016","680-BX","2017/11/23 18:49:41","新北市泰山區明志路一段221號","121.432606666667","25.0612233333333","6501600","泰山區"
"222003","436-BY","2017/11/23 18:49:47","新北市深坑區深南路49號","121.621263333333","25.0093516666667","6501800","深坑區"
"222002","659-BX","2017/11/23 18:49:42","新北市深坑區文山路一段69號","121.626983333333","25.0018466666667","6501800","深坑區"
"231041","002-UM","2017/11/23 18:49:52","新北市新店區安華路28-1號","121.519766666667","24.9607666666667","6500600","新店區"
"231059","046-UY","2017/11/23 18:49:53","新北市新店區安華路28-1號","121.519525","24.960765","6500600","新店區"
"231061","047-UY","2017/11/23 18:49:56","新北市新店區安華路28-1號","121.519115","24.9609466666667","6500600","新店區"
"231060","106-UY","2017/11/23 18:49:53","新北市新店區安華路28-1號","121.519653333333","24.96089","6500600","新店區"
"231047","108-UY","2017/11/23 18:49:57","新北市新店區德正街19巷2號","121.54368","24.97245","6500600","新店區"
"231052","187-VK","2017/11/23 18:49:38","新北市新店區永興路7號","121.544753333333","24.9392966666667","6500600","新店區"
"231050","KEA-2219","2017/11/23 18:49:46","新北市新店區北新路一段41號","121.53803","24.9593416666667","6500600","新店區"
"231046","278-BY","2017/11/23 18:49:52","新北市新店區直潭路75號","121.53222","24.94211","6500600","新店區"
"231058","3712-VJ","2017/11/23 18:49:50","新北市新店區北宜路一段32號","121.538313333333","24.95677","6500600","新店區"
"231056","3713-VJ","2017/11/23 18:49:44","新北市新店區建國路190號","121.538016666667","24.9804216666667","6500600","新店區"
"231055","4716-K9","2017/11/23 18:49:51","新北市新店區力行路88號","121.538761666667","24.96692","6500600","新店區"
"231067","4715-K9","2017/11/23 18:49:47","新北市新店區安康路一段76號","121.528263333333","24.9619083333333","6500600","新店區"
"231065","512-UM","2017/11/23 18:49:51","新北市新店區車子路10-4號","121.504846666667","24.954545","6500600","新店區"
"231054","513-UM","2017/11/23 18:49:45","新北市新店區安康路一段33-1號","121.532263333333","24.960485","6500600","新店區"
"231064","515-UM","2017/11/23 16:44:03","","121.51965","24.9612933333333","6500600","新店區"
"231042","616-UM","2017/11/23 18:49:50","新北市新店區中正路69號","121.543705","24.9700883333333","6500600","新店區"
"231040","619-UM","2017/11/23 18:49:41","新北市新店區中央路181-1號","121.535855","24.9690133333333","6500600","新店區"
"231063","645-TV","2017/11/23 18:49:46","新北市新店區安華路1-1號","121.51939","24.9605166666667","6500600","新店區"
"231049","719-UM","2017/11/23 18:49:41","新北市新店區中正路454-5號","121.534441666667","24.9790683333333","6500600","新店區"
"231051","719-UY","2017/11/23 18:49:40","新北市新店區中央路63號","121.532615","24.9769933333333","6500600","新店區"
"231062","720-UM","2017/11/23 18:49:50","新北市新店區車子路12號","121.505156666667","24.95457","6500600","新店區"
"231044","897-TW","2017/11/23 18:49:48","新北市新店區寶中路72號","121.547851666667","24.9806366666667","6500600","新店區"
"231045","898-TW","2017/11/23 18:49:52","新北市新店區安康路一段100號","121.52746","24.96237","6500600","新店區"
"231043","899-TW","2017/11/23 18:49:54","新北市新店區秀山路72號","121.531405","24.9608916666667","6500600","新店區"
"231066","AKT-0513","2017/11/23 18:49:48","新北市新店區安豐路22巷11號","121.502746666667","24.9553","6500600","新店區"
"241035","462-BY","2017/11/23 18:49:39","新北市三重區重新路四段121號","121.484883333333","25.0519266666667","6500200","三重區"
"235066","003-UY","2017/11/23 18:49:44","新北市中和區水源路18巷2弄2號","121.504063333333","25.0033","6500300","中和區"
"235063","006-UY","2017/11/23 18:49:42","新北市中和區錦和路196巷4號","121.489858333333","24.9949633333333","6500300","中和區"
"235056","096-UM","2017/11/23 18:49:38","新北市中和區員山路611巷1號","121.477831666667","25.011245","6500300","中和區"
"235039","097-UM","2017/11/23 18:49:50","新北市永和區中正路1號","121.513741666667","24.99547","6500300","中和區"
"235065","098-UM","2017/11/23 18:49:40","新北市中和區莊敬路33巷48號","121.500526666667","25.006995","6500300","中和區"
"235040","150-BY","2017/11/23 18:49:55","新北市中和區安平路36巷7號","121.51037","24.9948533333333","6500300","中和區"
"235058","151-BY","2017/11/23 18:49:40","新北市中和區連城路573-1號","121.479053333333","24.9944133333333","6500300","中和區"
"235055","183-VK","2017/11/23 18:49:56","新北市中和區民生街53號","121.469586666667","25.0051633333333","6500300","中和區"
"235038","185-VK","2017/11/23 18:49:52","新北市中和區自強路60號","121.520071666667","24.9944416666667","6500300","中和區"
"235049","186-VK","2017/11/23 18:49:55","新北市中和區景安路132巷4弄1號","121.50466","24.9943416666667","6500300","中和區"
"235067","255-BX","2017/11/23 18:49:54","新北市中和區中山路二段449巷1弄11號","121.483893333333","25.0039766666667","6500300","中和區"
"235044","293-VK","2017/11/23 18:49:51","新北市中和區中興街166號","121.499876666667","24.9915083333333","6500300","中和區"
"235072","301-VK","2017/11/23 18:49:46","新北市中和區中山路二段68號","121.503868333333","25.0045716666667","6500300","中和區"
"235043","352-BY","2017/11/23 18:49:39","新北市中和區成功路98號","121.525886666667","24.9910933333333","6500300","中和區"
"235068","377-QA","2017/11/23 18:49:40","新北市中和區中正路211巷25號","121.497701666667","24.992765","6500300","中和區"
"235061","378-QA","2017/11/23 18:49:49","新北市中和區民享街60巷4號","121.473731666667","25.0022816666667","6500300","中和區"
"235050","4979-A6","2017/11/23 18:49:48","新北市中和區忠孝街39-1號","121.51148","24.9836766666667","6500300","中和區"
"235069","4980-A6","2017/11/23 18:49:50","新北市中和區景平路479號","121.500403333333","24.99727","6500300","中和區"
"235042","551-UM","2017/11/23 18:49:57","新北市中和區秀朗路三段133巷2號","121.525265","24.9926","6500300","中和區"
"235070","558-UM","2017/11/23 18:49:45","新北市中和區景平路590號","121.50101","24.9960016666667","6500300","中和區"
"235045","565-BX","2017/11/23 18:49:46","新北市中和區復興路65號","121.504065","24.990155","6500300","中和區"
"235054","640-BX","2017/11/23 18:49:46","新北市中和區莒光路129巷1弄5號","121.472941666667","25.0022183333333","6500300","中和區"
"235060","647-TV","2017/11/23 18:49:54","新北市中和區中山路三段152-3號","121.47334","25.0062833333333","6500300","中和區"
"235047","732-UM","2017/11/23 18:49:40","新北市中和區興南路二段34巷55號","121.50501","24.986415","6500300","中和區"
"235046","733-UM","2017/11/23 18:49:37","新北市中和區仁愛街36巷30號","121.511053333333","24.9868933333333","6500300","中和區"
"235062","800-TS","2017/11/23 18:49:49","新北市中和區中山路二段328-3號","121.495101666667","25.00227","6500300","中和區"
"235057","801-TS","2017/11/23 18:49:55","新北市中和區民安街22巷25號","121.479405","25.0014733333333","6500300","中和區"
"235041","802-TS","2017/11/23 18:49:40","新北市中和區宜安路118巷16號","121.510745","24.99856","6500300","中和區"
"235052","805-TS","2017/11/23 18:49:49","新北市中和區興南路二段399巷66號","121.499725","24.97872","6500300","中和區"
"235048","896-TW","2017/11/23 18:49:45","新北市中和區華新街25號","121.507628333333","24.9849016666667","6500300","中和區"
"235053","900-TW","2017/11/23 18:49:47","新北市中和區民德路290巷19號","121.466491666667","24.9959816666667","6500300","中和區"
"235064","911-UM","2017/11/23 18:49:41","新北市中和區連城路75巷2-12號","121.497653333333","24.999485","6500300","中和區"
"235037","157-BY","2017/11/23 18:49:55","新北市中和區華新街143巷54號","121.50598","24.9797116666667","6500300","中和區"
"235037","AAC-213","2017/11/23 18:49:48","新北市中和區秀朗路三段128巷1弄2號","121.524598333333","24.992395","6500300","中和區"
"235059","AAC-215","2017/11/23 18:49:42","新北市中和區圓通路393巷23號","121.490355","24.988465","6500300","中和區"
"220068","013-TV","2017/11/23 16:19:36","新北市八里區訊塘路1號","121.398106666667","25.14443","6500100","板橋區"
"220065","072-UY","2017/11/23 18:49:54","新北市板橋區民族路61號","121.464893333333","25.0086066666667","6500100","板橋區"
"220086","073-UY","2017/11/23 18:49:51","新北市板橋區南雅西路二段180巷15號","121.452781666667","25.0139666666667","6500100","板橋區"
"220106","075-UY","2017/11/23 18:49:48","新北市板橋區民生路二段161巷5號","121.470155","25.0197316666667","6500100","板橋區"
"220069","AAD-861","2017/11/23 18:49:43","新北市板橋區南雅南路一段1巷35號","121.457661666667","25.0064833333333","6500100","板橋區"
"220102","120-SR","2017/11/23 18:49:41","新北市板橋區民生路二段120號","121.470471666667","25.0196466666667","6500100","板橋區"
"247010","339-TH","2017/11/23 18:49:48","新北市五股區工商路8號","121.44047","25.08232","6501400","蘆洲區"
"226004","205-ST","2017/11/23 18:49:45","新北市平溪區平溪里三坑路35號","121.735191666667","25.0313033333333","6502400","平溪區"
"228003","097-TW","2017/11/23 18:49:54","新北市貢寮區和美里龍洞街56-3號","121.912471666667","25.1141816666667","6502600","貢寮區"
"228001","212-TW","2017/11/23 18:49:50","新北市貢寮區仁理村保健街71號","121.923745","25.05164","6502600","貢寮區"
"228002","585-TW","2017/11/23 18:49:36","新北市貢寮區福隆里東興街6-11號","121.950721666667","25.0210633333333","6502600","貢寮區"
"224006","676-BX","2017/11/23 18:49:45","新北市瑞芳區民生街18號","121.805855","25.1075733333333","6501200","瑞芳區"
"224009","285-BY","2017/11/23 18:49:40","新北市瑞芳區祈堂路2號","121.859818333333","25.1116633333333","6501200","瑞芳區"
"224008","275-VK","2017/11/23 18:49:51","新北市瑞芳區瑞芳街150號","121.801176666667","25.11159","6501200","瑞芳區"
"224007","273-VK","2017/11/23 18:49:42","新北市瑞芳區大埔路192-1號","121.761528333333","25.1012033333333","6501200","瑞芳區"
"224005","271-BY","2017/11/23 18:49:58","新北市瑞芳區建基路一段6號","121.820413333333","25.1208566666667","6501200","瑞芳區"
"227010","642-TC","2017/11/23 18:49:41","新北市雙溪區牡丹里聖南25號","121.856738333333","25.0529416666667","6502500","雙溪區"
"227004","400-TW","2017/11/23 18:49:55","新北市雙溪區平林里梅竹蹊26號","121.861686666667","25.036035","6502500","雙溪區"
"253005","032-BX","2017/11/23 18:49:47","新北市石門區中山路23-2號","121.566228333333","25.2901633333333","6502200","石門區"
"253006","295-VK","2017/11/23 18:49:21","新北市石門區下員坑15號","121.511481666667","25.2849983333333","6502200","石門區"
"222001","KEA-2212","2017/11/23 18:49:40","新北市深坑區北深路一段32-50號","121.638506666667","25.0111466666667","6501800","深坑區"
"208002","742-BX","2017/11/23 18:49:47","新北市金山區信義路26號","121.635568333333","25.2198966666667","6502700","金山區"
"208003","665-BX","2017/11/23 18:49:42","新北市金山區中山路393號","121.633373333333","25.2252566666667","6502700","金山區"
"208001","761-BX","2017/11/23 18:49:38","新北市金山區文化三路66巷2弄1號","121.634295","25.22566","6502700","金山區"
"251009","008-UM","2017/11/23 18:49:41","新北市淡水區重建街140號","121.440498333333","25.1734733333333","6501000","淡水區"
"251014","182-VK","2017/11/23 18:49:46","新北市淡水區崙頂1號","121.491481666667","25.2238833333333","6501000","淡水區"
"251010","413-VK","2017/11/23 18:49:53","新北市淡水區沙崙路11號","121.421121666667","25.18126","6501000","淡水區"
"251012","441-VK","2017/11/23 18:49:40","新北市淡水區北新路10號","121.444533333333","25.17762","6501000","淡水區"
"251016","442-VK","2017/11/23 18:49:42","新北市淡水區下圭柔山71-3號","121.447116666667","25.2062066666667","6501000","淡水區"
"251001","559-UM","2017/11/23 18:49:43","新北市淡水區自強路86號","121.462753333333","25.1282733333333","6501000","淡水區"
"251011","650-BX","2017/11/23 18:49:50","新北市淡水區中正東路71號","121.447263333333","25.1675566666667","6501000","淡水區"
"251002","672-BX","2017/11/23 18:49:38","新北市淡水區學府路53號","121.448051666667","25.1693633333333","6501000","淡水區"
"251003","766-UM","2017/11/23 18:49:46","新北市淡水區中山北路一段165號","121.443213333333","25.1777883333333","6501000","淡水區"
"207003","550-UM","2017/11/23 18:49:51","新北市萬里區大鵬里頂社1號","121.65702","25.209695","6502800","萬里區"
"207004","225-TW","2017/11/23 18:49:50","新北市萬里區萬里里獅頭路23號","121.693241666667","25.17824","6502800","萬里區"
"252002","178-VK","2017/11/23 18:49:53","新北市三芝區中正路一段112號","121.50481","25.2564016666667","6502100","三芝區"
"252003","249-BX","2017/11/23 18:49:45","新北市三芝區後厝里大片頭108號","121.458573333333","25.242955","6502100","三芝區"
"252001","292-VK","2017/11/23 18:49:56","新北市三芝區中正路三段9號","121.502876666667","25.2540316666667","6502100","三芝區"
"237007","153-BY","2017/11/23 18:49:51","新北市三峽區中正路二段399號","121.364935","24.90751","6500900","三峽區"
"237013","252-BX","2017/11/23 18:49:51","新北市三峽區光明路69巷25號","121.376768333333","24.9291916666667","6500900","三峽區"
"237012","275-BY","2017/11/23 18:49:53","新北市三峽區三樹路340號","121.383951666667","24.9432883333333","6500900","三峽區"
"237008","302-VK","2017/11/23 18:49:41","新北市三峽區白雞33-61號","121.370935","24.9131166666667","6500900","三峽區"
"237014","433-BY","2017/11/23 18:49:53","新北市三峽區復興路480巷52號","121.361878333333","24.9412683333333","6500900","三峽區"
"237006","5529-G3","2017/11/23 18:49:43","新北市三峽區溪東路233巷4弄19號","121.407241666667","24.9337383333333","6500900","三峽區"
"237011","572-TV","2017/11/23 18:06:32","新北市三峽區溪北街2號","121.396018333333","24.9362316666667","6500900","三峽區"
"237016","649-BX","2017/11/23 18:49:41","新北市三峽區建安112號","121.457461666667","24.9220166666667","6500900","三峽區"
"237010","706-TV","2017/11/23 18:13:18","新北市三峽區民族街49號","121.369683333333","24.9299216666667","6500900","三峽區"
"237005","AKY-6261","2017/11/23 18:49:49","新北市三峽區中山路299巷39號","121.361086666667","24.9357683333333","6500900","三峽區"
"236071","105-UM","2017/11/23 18:49:51","新北市土城區延和路19號","121.464393333333","24.988315","6501300","土城區"
"236042","107-UM","2017/11/23 18:49:52","新北市土城區裕民路92巷23弄1號","121.449753333333","24.9862616666667","6501300","土城區"
"236030","253-BX","2017/11/23 18:49:56","新北市土城區忠義路26巷19號","121.439821666667","24.9698383333333","6501300","土城區"
"236026","269-VK","2017/11/23 18:49:39","新北市土城區中央路二段348號","121.44012","24.9719083333333","6501300","土城區"
"236014","270-VK","2017/11/23 18:49:49","新北市土城區金城路二段366號","121.462403333333","24.9852883333333","6501300","土城區"
"236037","271-VK","2017/11/23 18:49:47","新北市土城區明德路一段235巷8號","121.462986666667","24.9779566666667","6501300","土城區"
"236021","401-BY","2017/11/23 18:49:51","新北市土城區延吉街251號","121.467715","24.9849033333333","6501300","土城區"
"236078","752-BX","2017/11/23 18:49:46","新北市土城區中央路四段165巷25號","121.416241666667","24.9558516666667","6501300","土城區"
"236058","912-UM","2017/11/23 18:49:39","新北市土城區中央路三段133號","121.433706666667","24.9654166666667","6501300","土城區"
"236051","913-UM","2017/11/23 18:49:48","新北市土城區青雲路10-2號","121.460118333333","24.98892","6501300","土城區"
"236062","915-UM","2017/11/23 18:49:49","新北市土城區金城路三段207巷8弄23號","121.470513333333","24.9907866666667","6501300","土城區"
"236053","AAC-216","2017/11/23 18:49:43","新北市土城區裕民路151號","121.45221","24.9859966666667","6501300","土城區"
"242036","133-UY","2017/11/23 18:49:53","新北市樹林區八德街495-1號","121.402","24.969305","6500500","新莊區"
"242051","350-TH","2017/11/23 18:49:41","新北市樹林區佳園路一段94號","121.393505","24.96868","6500500","新莊區"
"238023","601-UM","2017/11/23 18:49:40","新北市樹林區三福街114號","121.406431666667","25.01631","6500700","樹林區"
"238019","599-UM","2017/11/23 18:49:54","新北市樹林區東華街30號","121.414718333333","24.9822133333333","6500700","樹林區"
"238018","571-TV","2017/11/23 18:49:56","新北市樹林區鎮前街165號","121.42223","24.98717","6500700","樹林區"
"238008","KEA-2217","2017/11/23 18:49:37","新北市樹林區西圳街二段30號","121.388506666667","24.96173","6500700","樹林區"
"238022","KEA-2213","2017/11/23 18:49:42","新北市樹林區東順街20號","121.41203","24.9786","6500700","樹林區"
"238025","303-VK","2017/11/23 18:48:23","新北市樹林區中山路三段214號","121.380415","24.968","6500700","樹林區"
"238014","282-BY","2017/11/23 18:49:45","新北市樹林區中山路三段343號","121.390328333333","24.9708833333333","6500700","樹林區"
"238020","268-VK","2017/11/23 18:49:44","新北市樹林區俊英街83巷1號","121.425813333333","25.007955","6500700","樹林區"
"238026","172-UY","2017/11/23 18:49:45","新北市樹林區中和街11號","121.392088333333","24.9728816666667","6500700","樹林區"
"238016","169-UY","2017/11/23 18:49:37","新北市樹林區文化街23號","121.419246666667","24.98765","6500700","樹林區"
"239007","AAC-297","2017/11/23 18:49:38","新北市鶯歌區中正一路457-1號","121.362706666667","24.9567266666667","6500800","鶯歌區"
"239008","527-UM","2017/11/23 18:49:47","新北市鶯歌區晨曦街10號","121.337256666667","24.9764266666667","6500800","鶯歌區"
"239005","526-UM","2017/11/23 18:49:57","新北市鶯歌區鳳吉一街79號","121.326918333333","24.974215","6500800","鶯歌區"
"239001","417-VK","2017/11/23 18:49:57","新北市鶯歌區鶯桃路133號","121.338065","24.9546566666667","6500800","鶯歌區"
"239003","360-BY","2017/11/23 18:49:43","新北市鶯歌區鶯桃路660號","121.329065","24.9692133333333","6500800","鶯歌區"
"239004","193-VK","2017/11/23 18:49:44","新北市鶯歌區中正三路247巷67弄8號","121.334168333333","24.9363233333333","6500800","鶯歌區"
"221008","489-VK","2017/11/23 18:49:37","新北市汐止區康寧街901號","121.65138","25.0750283333333","6501100","汐止區"
"221036","130-UY","2017/11/23 18:49:46","新北市汐止區忠孝東路316巷3號","121.665083333333","25.0690516666667","6501100","汐止區"
"221010","269-BY","2017/11/23 18:49:55","新北市汐止區汐萬路二段220號","121.646828333333","25.087565","6501100","汐止區"
"221012","276-VK","2017/11/23 13:19:04","新北市汐止區汐萬路一段256巷3號","121.653446666667","25.0746266666667","6501100","汐止區"
"221012","278-VK","2017/11/23 18:49:39","新北市汐止區康寧街901號","121.650805","25.0752416666667","6501100","汐止區"
"221023","279-VK","2017/11/23 18:49:49","新北市汐止區汐萬路一段256巷3號","121.652841666667","25.0744066666667","6501100","汐止區"
"221032","280-BY","2017/11/23 18:49:55","新北市汐止區橫科路121巷52弄3號","121.62265","25.050885","6501100","汐止區"
"221027","281-BY","2017/11/23 18:49:54","新北市汐止區汐萬路一段256巷3號","121.65264","25.0745116666667","6501100","汐止區"
"221029","298-VK","2017/11/23 18:49:55","新北市汐止區工建路66號","121.640456666667","25.0628983333333","6501100","汐止區"
"221021","299-VK","2017/11/23 18:49:48","新北市汐止區南興路9號","121.651963333333","25.0626133333333","6501100","汐止區"
"221031","353-TW","2017/11/23 18:49:55","新北市汐止區福德一路298號","121.63145","25.0632366666667","6501100","汐止區"
"221015","567-BX","2017/11/23 18:49:51","新北市汐止區鄉長路一段55巷6號","121.6654","25.0761266666667","6501100","汐止區"
"221035","622-UM","2017/11/23 18:49:56","新北市汐止區康寧街901號","121.651623333333","25.0749566666667","6501100","汐止區"
"221025","623-UM","2017/11/23 18:49:43","新北市汐止區秀峰路119號","121.660063333333","25.0630033333333","6501100","汐止區"
"221038","646-BX","2017/11/23 18:49:52","新北市汐止區康寧街901號","121.650713333333","25.07527","6501100","汐止區"
"221033","647-BX","2017/11/23 18:49:41","新北市汐止區南勢街1巷1號","121.627028333333","25.0374333333333","6501100","汐止區"
"221002","707-TV","2017/11/23 18:49:46","新北市汐止區大同路一段161號","121.63263","25.05666","6501100","汐止區"
"221018","753-BX","2017/11/23 18:49:43","新北市汐止區茄苳路299號","121.673165","25.06704","6501100","汐止區"
"220079","145-BY","2017/11/23 18:49:43","新北市板橋區民權路202巷2弄1號","121.459561666667","25.014105","6500100","板橋區"
"220080","200-UY","2017/11/23 18:49:50","新北市板橋區大觀路二段265巷72弄33號","121.441206666667","24.99704","6500100","板橋區"
"220082","610-BX","2017/11/23 18:49:53","新北市板橋區篤行路三段85號","121.426781666667","24.9850933333333","6500100","板橋區"
"220101","245-BX","2017/11/23 18:49:55","新北市板橋區民生路二段161巷5號","121.470183333333","25.0196833333333","6500100","板橋區"
"220091","267-BY","2017/11/23 18:49:48","新北市板橋區民生路二段188號","121.470291666667","25.0202766666667","6500100","板橋區"
"220056","276-BY","2017/11/23 18:49:49","新北市土城區四川路2號","121.455883333333","24.9962333333333","6500100","板橋區"
"220072","277-BY","2017/11/23 18:49:50","新北市板橋區金門街19巷6號","121.433908333333","24.994775","6500100","板橋區"
"220094","283-UM","2017/11/23 18:49:53","新北市板橋區民生路二段161巷3號","121.47014","25.0198183333333","6500100","板橋區"
"220071","283-VK","2017/11/23 18:49:51","新北市板橋區忠孝路176巷5弄2號","121.464758333333","25.0019566666667","6500100","板橋區"
"220053","285-VK","2017/11/23 18:49:44","新北市板橋區民生路二段121號","121.470813333333","25.01854","6500100","板橋區"
"220083","286-VK","2017/11/23 18:49:54","新北市板橋區僑中三街40號","121.445336666667","25.0051416666667","6500100","板橋區"
"220081","287-VK","2017/11/23 18:49:39","新北市板橋區林園街1號","121.453826666667","25.0090983333333","6500100","板橋區"
"220061","293-UM","2017/11/23 18:49:40","新北市板橋區太和街4巷12號","121.47427","25.01995","6500100","板橋區"
"220084","296-UM","2017/11/23 18:49:42","新北市板橋區大觀路二段150巷62-1號","121.441533333333","25.0007066666667","6500100","板橋區"
"220075","297-UM","2017/11/23 18:49:45","新北市板橋區大觀路一段28巷104號","121.450145","25.011065","6500100","板橋區"
"242001","281-VK","2017/11/23 16:04:16","新北市新莊區環河路636-7號","121.437275","25.0112983333333","6500500","新莊區"
"220062","305-R5","2017/11/23 18:49:52","新北市板橋區中山路二段23號","121.472445","25.0151366666667","6500100","板橋區"
"220092","307-R5","2017/11/23 18:49:45","新北市板橋區民生路二段161巷9號","121.470293333333","25.0196533333333","6500100","板橋區"
"220098","317-R6","2017/11/23 18:49:47","新北市板橋區民生路二段161巷7號","121.470255","25.0197016666667","6500100","板橋區"
"220064","486-VK","2017/11/23 18:49:38","新北市板橋區民生路二段36-1號","121.472068333333","25.0167866666667","6500100","板橋區"
"220089","487-VK","2017/11/23 18:49:43","新北市板橋區民生路二段161巷1號","121.470208333333","25.020095","6500100","板橋區"
"220088","491-VK","2017/11/23 18:49:37","新北市板橋區民生路二段171號","121.46984","25.0201616666667","6500100","板橋區"
"220035","560-BX","2017/11/23 18:49:48","新北市板橋區中正路275巷79弄13號","121.452106666667","25.0175","6500100","板橋區"
"220103","561-BX","2017/11/23 18:49:42","新北市板橋區民生路二段89-6號","121.470446666667","25.0194216666667","6500100","板橋區"
"220063","609-BX","2017/11/23 18:49:42","新北市板橋區民生路二段123號","121.470626666667","25.018525","6500100","板橋區"
"220057","686-BX","2017/11/23 18:49:41","新北市板橋區華東街1-9號","121.448225","24.9948633333333","6500100","板橋區"
"220077","687-BX","2017/11/23 18:49:55","新北市板橋區大觀路二段174巷210號","121.44232","25.00416","6500100","板橋區"
"220093","689-BX","2017/11/23 18:49:38","新北市板橋區民生路二段161巷1號","121.47028","25.020165","6500100","板橋區"
"220054","741-BX","2017/11/23 18:49:40","新北市板橋區華東街1-9號","121.448093333333","24.9949033333333","6500100","板橋區"
"220055","827-TW","2017/11/23 18:49:47","新北市板橋區南雅南路二段4巷6號","121.453921666667","25.0037583333333","6500100","板橋區"
"220067","829-TW","2017/11/23 18:49:44","新北市板橋區三民路二段正隆巷41號","121.47697","25.0136783333333","6500100","板橋區"
"220096","831-TW","2017/11/23 16:37:22","新北市板橋區民生路二段120號","121.470358333333","25.01972","6500100","板橋區"
"220074","895-R6","2017/11/23 18:49:38","新北市板橋區南門街44號","121.457025","25.0082166666667","6500100","板橋區"
"220073","985-R7","2017/11/23 18:49:54","新北市板橋區館前西路92號","121.457311666667","25.0072266666667","6500100","板橋區"
"220097","AAC-210","2017/11/23 18:49:53","新北市板橋區民生路二段120號","121.470508333333","25.0194916666667","6500100","板橋區"
"220070","AAC-253","2017/11/23 18:49:48","新北市板橋區館前西路44號","121.458575","25.006915","6500100","板橋區"
