"lineid","car","time","location","longitude","latitude","cityid","cityname"
"234046","148-BY","2017/11/23 19:19:51","新北市永和區得和路327號","121.523505","24.9996116666667","6500400","永和區"
"234013","149-BY","2017/11/23 19:19:37","新北市永和區仁愛路135號","121.511628333333","25.013005","6500400","永和區"
"234007","207-UY","2017/11/23 19:19:51","新北市永和區中山路一段230號","121.508045","25.0079983333333","6500400","永和區"
"234081","298-R6","2017/11/23 19:19:47","新北市永和區林森路10巷35號","121.525758333333","25.0063366666667","6500400","永和區"
"234038","336-UY","2017/11/23 19:19:53","新北市永和區民樂街59巷3號","121.527873333333","24.9983333333333","6500400","永和區"
"234064","337-UY","2017/11/23 19:19:38","新北市永和區永元路17巷6弄1號","121.521355","25.0007316666667","6500400","永和區"
"234086","338-UY","2017/11/23 19:19:57","新北市永和區永安街4巷10號","121.519221666667","25.0057966666667","6500400","永和區"
"234070","552-UM","2017/11/23 19:19:49","新北市永和區中正路696-1號","121.516473333333","25.0098116666667","6500400","永和區"
"234054","553-UM","2017/11/23 19:19:46","新北市永和區中興街20號","121.516076666667","25.0118683333333","6500400","永和區"
"234017","745-BX","2017/11/23 19:19:54","新北市永和區文化路144巷31弄10號","121.512326666667","25.0168033333333","6500400","永和區"
"234030","746-BX","2017/11/23 19:19:42","新北市永和區厚德街60號","121.524391666667","24.998795","6500400","永和區"
"234061","AAD-866","2017/11/23 19:19:56","新北市永和區秀朗路一段120號","121.517091666667","25.0036183333333","6500400","永和區"
"234042","862-TW","2017/11/23 19:19:42","新北市永和區保平路151巷2弄1號","121.510113333333","25.0055683333333","6500400","永和區"
"234050","863-TW","2017/11/23 19:19:55","新北市永和區保福路二段88巷25號","121.511718333333","25.0137133333333","6500400","永和區"
"234026","9381-KE","2017/11/23 19:19:45","新北市永和區安樂路144巷31號","121.515343333333","24.9997666666667","6500400","永和區"
"234011","9373-KE","2017/11/23 19:19:49","新北市永和區保福路二段23巷21號","121.510041666667","25.0112133333333","6500400","永和區"
"249001","173-UM","2017/11/23 19:19:46","新北市八里區中華路二段61-6號","121.409438333333","25.1528733333333","6502300","八里區"
"249003","593-UM","2017/11/23 19:19:47","新北市八里區中山路二段466巷5號","121.398746666667","25.14752","6502300","八里區"
"248018","225-UY","2017/11/23 18:57:38","新北市五股區凌雲路三段57號","121.425281666667","25.1250016666667","6501500","五股區"
"248012","247-BX","2017/11/23 19:19:36","新北市五股區中興路四段48巷16號","121.438621666667","25.083425","6501500","五股區"
"248010","272-BY","2017/11/23 19:19:38","新北市五股區水碓一路23號","121.430616666667","25.071215","6501500","五股區"
"248004","677-BX","2017/11/23 19:19:43","新北市五股區五福路64號","121.433113333333","25.0898333333333","6501500","五股區"
"248002","678-BX","2017/11/23 19:19:37","新北市五股區凌雲路一段158巷6號","121.447781666667","25.1031183333333","6501500","五股區"
"234023","9380-KE","2017/11/23 19:19:36","新北市永和區竹林路124巷20號","121.518758333333","25.0111983333333","6500400","永和區"
"234077","969-R7","2017/11/23 19:19:55","新北市永和區民治街68號","121.517816666667","24.99805","6500400","永和區"
"234074","AAC-211","2017/11/23 19:19:51","新北市永和區竹林路106號","121.519688333333","25.0118733333333","6500400","永和區"
"234067","AAC-212","2017/11/23 19:19:54","新北市永和區保平路52號","121.511326666667","25.0070716666667","6500400","永和區"
"234003","AAC-295","2017/11/23 19:19:56","新北市永和區中山路一段138-1號","121.510286666667","25.009815","6500400","永和區"
"244013","069-UM","2017/11/23 19:19:40","新北市林口區麗園一街4巷2號","121.376038333333","25.0709116666667","6501700","林口區"
"244019","403-UM","2017/11/23 19:19:48","新北市林口區麗園二街12巷2-2號","121.378326666667","25.06906","6501700","林口區"
"244023","483-VK","2017/11/23 19:19:47","新北市林口區文化三路一段629-1號","121.372266666667","25.0776283333333","6501700","林口區"
"244011","701-TV","2017/11/23 19:19:39","新北市林口區中山路97巷3號","121.389471666667","25.0784716666667","6501700","林口區"
"243011","267-VK","2017/11/23 19:19:41","新北市泰山區中央路11巷4號","121.426415","25.0426466666667","6501600","泰山區"
"243012","AAD-798","2017/11/23 19:19:51","新北市泰山區仁愛路100巷3號","121.433345","25.0552883333333","6501600","泰山區"
"243009","297-R6","2017/11/23 19:19:38","新北市泰山區和平街13巷30號","121.434441666667","25.0653166666667","6501600","泰山區"
"243015","380-SR","2017/11/23 19:19:43","新北市泰山區公園路67-1號","121.426685","25.05511","6501600","泰山區"
"243014","421-VK","2017/11/23 19:19:42","新北市泰山區泰林路二段93巷1號","121.434721666667","25.0588233333333","6501600","泰山區"
"243010","KEA-2215","2017/11/23 19:19:51","新北市泰山區明志路一段492巷4弄1號","121.429975","25.0548466666667","6501600","泰山區"
"243013","646-TV","2017/11/23 19:19:56","新北市泰山區明志路三段145巷2弄15號","121.425065","25.039445","6501600","泰山區"
"243016","680-BX","2017/11/23 19:19:41","新北市泰山區明志路三段165號","121.424615","25.03952","6501600","泰山區"
"222003","436-BY","2017/11/23 19:19:37","新北市深坑區深南路204號","121.626655","25.01602","6501800","深坑區"
"222002","659-BX","2017/11/23 19:19:42","新北市深坑區北深路一段177號","121.632548333333","25.010865","6501800","深坑區"
"231041","002-UM","2017/11/23 19:19:52","新北市新店區溪園路245-6號","121.525345","24.9832416666667","6500600","新店區"
"231059","046-UY","2017/11/23 19:19:53","新北市新店區安和路三段21巷3號","121.517298333333","24.9808883333333","6500600","新店區"
"231061","047-UY","2017/11/23 19:19:56","新北市新店區安康路一段279號","121.523781666667","24.963505","6500600","新店區"
"231060","106-UY","2017/11/23 19:19:49","新北市新店區安康路二段105-1號","121.512756666667","24.962435","6500600","新店區"
"231047","108-UY","2017/11/23 19:19:56","新北市新店區中興路一段298號","121.546151666667","24.96953","6500600","新店區"
"231052","187-VK","2017/11/23 19:19:38","新北市新店區自強路157-1號","121.546026666667","24.92163","6500600","新店區"
"231050","KEA-2219","2017/11/23 19:19:06","新北市新店區竹林路157-1號","121.556826666667","24.9477366666667","6500600","新店區"
"231046","278-BY","2017/11/23 19:19:52","新北市新店區華城路36巷1-1號","121.528436666667","24.9553883333333","6500600","新店區"
"231058","3712-VJ","2017/11/23 19:19:50","新北市新店區北新路一段311號","121.541625","24.9679683333333","6500600","新店區"
"231056","3713-VJ","2017/11/23 19:19:44","新北市新店區民權路105號","121.536423333333","24.9827033333333","6500600","新店區"
"231067","4715-K9","2017/11/23 19:19:47","新北市新店區柴埕路52巷12號","121.511975","24.9644883333333","6500600","新店區"
"231065","512-UM","2017/11/23 19:19:51","新北市新店區安祥路110巷16號","121.474541666667","24.9565683333333","6500600","新店區"
"231054","513-UM","2017/11/23 19:19:53","新北市新店區文中路58號","121.540308333333","24.956525","6500600","新店區"
"231064","515-UM","2017/11/23 19:19:48","新北市新店區安忠路86-1號","121.511895","24.95849","6500600","新店區"
"231042","616-UM","2017/11/23 19:19:51","新北市新店區北宜路一段3號","121.538513333333","24.9585416666667","6500600","新店區"
"231040","619-UM","2017/11/23 19:19:48","新北市新店區三民路20巷4號","121.537953333333","24.970545","6500600","新店區"
"231063","645-TV","2017/11/23 19:19:46","新北市新店區達觀路14巷8號","121.50321","24.9432366666667","6500600","新店區"
"231049","719-UM","2017/11/23 19:19:41","新北市新店區明德路111號","121.541496666667","24.9794683333333","6500600","新店區"
"231051","719-UY","2017/11/23 19:19:40","新北市新店區百忍街53號","121.53294","24.9766483333333","6500600","新店區"
"231062","720-UM","2017/11/23 19:19:50","新北市新店區莒光路97號","121.52253","24.95403","6500600","新店區"
"231044","897-TW","2017/11/23 19:19:48","新北市新店區中興路三段305號","121.542041666667","24.9856383333333","6500600","新店區"
"231045","898-TW","2017/11/23 19:19:52","新北市新店區北宜路一段260號","121.545743333333","24.95274","6500600","新店區"
"231043","899-TW","2017/11/23 19:19:54","新北市新店區北新路二段156號","121.542976666667","24.97543","6500600","新店區"
"231066","AKT-0513","2017/11/23 19:19:48","新北市新店區安康路三段207巷5號","121.487911666667","24.95105","6500600","新店區"
"241009","060-VK","2017/11/23 19:19:38","新北市三重區溪尾街230巷42號","121.486226666667","25.0811383333333","6500200","三重區"
"241031","061-VK","2017/11/23 19:19:54","新北市三重區重新路四段97號","121.48592","25.0549","6500200","三重區"
"241017","063-VK","2017/11/23 19:19:46","新北市三重區長壽西街214號","121.49206","25.0660666666667","6500200","三重區"
"241026","066-VK","2017/11/23 19:19:42","新北市三重區同安東街72號","121.498458333333","25.0574033333333","6500200","三重區"
"241022","156-TC","2017/11/23 19:19:51","新北市三重區重陽路二段72號","121.487253333333","25.06416","6500200","三重區"
"241032","269-UM","2017/11/23 19:19:56","新北市三重區新生街76號","121.484198333333","25.0592883333333","6500200","三重區"
"241025","271-UM","2017/11/23 19:19:43","新北市三重區中正北路406號","121.475281666667","25.070315","6500200","三重區"
"241007","398-BY","2017/11/23 19:19:38","新北市三重區慈愛街47號","121.48601","25.0791033333333","6500200","三重區"
"241020","413-TH","2017/11/23 19:19:41","新北市三重區永德街1號","121.489731666667","25.0724616666667","6500200","三重區"
"241035","462-BY","2017/11/23 19:19:39","新北市三重區中正北路33號","121.491443333333","25.0629883333333","6500200","三重區"
"241030","480-VK","2017/11/23 19:19:44","新北市三重區新興路42號","121.491426666667","25.0533","6500200","三重區"
"241029","942-UM","2017/11/23 19:19:43","新北市三重區重安街39號","121.491298333333","25.0567283333333","6500200","三重區"
"235066","003-UY","2017/11/23 19:19:44","新北市中和區中和路102號","121.502685","24.9997333333333","6500300","中和區"
"235063","006-UY","2017/11/23 19:19:42","新北市中和區連城路249巷30弄1號","121.494871666667","24.9945916666667","6500300","中和區"
"235056","096-UM","2017/11/23 19:19:52","新北市中和區中正路1163號","121.481615","25.00922","6500300","中和區"
"235039","097-UM","2017/11/23 19:19:50","新北市中和區景平路64巷13弄16號","121.521958333333","24.991405","6500300","中和區"
"235065","098-UM","2017/11/23 19:19:40","新北市中和區中山路二段116巷5弄7號","121.50224","25.0040616666667","6500300","中和區"
"235040","150-BY","2017/11/23 19:19:55","新北市中和區保健路50巷53號","121.50959","24.995765","6500300","中和區"
"235058","151-BY","2017/11/23 19:19:40","新北市中和區員山路92巷16號","121.481655","24.9943066666667","6500300","中和區"
"235055","183-VK","2017/11/23 19:19:56","新北市中和區莒光路2號","121.471615","25.0046066666667","6500300","中和區"
"235038","185-VK","2017/11/23 19:19:52","新北市中和區大仁街10巷15號","121.518538333333","24.9925866666667","6500300","中和區"
"235049","186-VK","2017/11/23 19:19:55","新北市中和區景新街235號","121.508115","24.9945066666667","6500300","中和區"
"235067","255-BX","2017/11/23 19:19:54","新北市中和區新生街177巷9號","121.484223333333","25.0008216666667","6500300","中和區"
"235044","293-VK","2017/11/23 19:19:51","新北市中和區復興路306號","121.501266666667","24.9903066666667","6500300","中和區"
"235072","301-VK","2017/11/23 19:19:46","新北市中和區連城路209號","121.494491666667","24.9978683333333","6500300","中和區"
"235043","352-BY","2017/11/23 19:19:39","新北市中和區景平路406號","121.508936666667","24.9931183333333","6500300","中和區"
"235068","377-QA","2017/11/23 19:19:40","新北市中和區連勝街31號","121.498508333333","24.9978233333333","6500300","中和區"
"235061","378-QA","2017/11/23 19:19:49","新北市中和區員山路261號","121.481236666667","24.9990733333333","6500300","中和區"
"235071","269-TV","2017/11/23 19:19:51","新北市中和區連城路469巷73號","121.483463333333","24.9941633333333","6500300","中和區"
"235069","4980-A6","2017/11/23 19:19:50","新北市中和區景平路736巷3弄12號","121.497635","25.003775","6500300","中和區"
"235042","551-UM","2017/11/23 19:19:37","新北市中和區大勇街60巷14弄7號","121.518683333333","24.994425","6500300","中和區"
"235070","558-UM","2017/11/23 19:19:45","新北市中和區中和路86號","121.50121","25.0005783333333","6500300","中和區"
"235045","565-BX","2017/11/23 19:19:40","新北市中和區景新街423巷32號","121.51454","24.9897083333333","6500300","中和區"
"235054","640-BX","2017/11/23 19:19:46","新北市中和區國光街109巷4-1號","121.469921666667","25.0004033333333","6500300","中和區"
"235060","647-TV","2017/11/23 19:19:54","新北市中和區員山路469巷1號","121.480385","25.0045716666667","6500300","中和區"
"235047","732-UM","2017/11/23 19:19:40","新北市中和區景平路239巷73號","121.508241666667","24.9921","6500300","中和區"
"235046","733-UM","2017/11/23 19:19:57","新北市中和區忠孝街2巷12號","121.510593333333","24.981755","6500300","中和區"
"235057","801-TS","2017/11/23 19:19:52","新北市中和區員山路325-5號","121.481183333333","25.0011033333333","6500300","中和區"
"235041","802-TS","2017/11/23 19:19:39","新北市中和區景安路9號","121.507938333333","24.9990633333333","6500300","中和區"
"235052","805-TS","2017/11/23 19:19:49","新北市中和區興南路二段130號","121.50417","24.9835966666667","6500300","中和區"
"235048","896-TW","2017/11/23 19:19:49","新北市中和區四維街37巷1號","121.512658333333","24.98687","6500300","中和區"
"235053","900-TW","2017/11/23 19:19:47","新北市中和區華福街71巷32號","121.467638333333","24.997","6500300","中和區"
"235064","911-UM","2017/11/23 19:19:41","新北市中和區中和路38號","121.499893333333","25.0014883333333","6500300","中和區"
"235037","157-BY","2017/11/23 19:19:55","新北市中和區和平街20號","121.509975","24.9902566666667","6500300","中和區"
"235037","AAC-213","2017/11/23 19:19:48","新北市中和區秀朗路三段50巷12弄2號","121.524246666667","24.99519","6500300","中和區"
"235059","AAC-215","2017/11/23 19:19:42","新北市中和區圓通路286巷10號","121.491555","24.99115","6500300","中和區"
"220068","013-TV","2017/11/23 16:19:36","新北市八里區訊塘路1號","121.398106666667","25.14443","6500100","板橋區"
"220065","072-UY","2017/11/23 19:19:54","新北市板橋區民族路129巷10號","121.467683333333","25.0084533333333","6500100","板橋區"
"220086","073-UY","2017/11/23 19:19:51","新北市板橋區中正路216巷119號","121.459631666667","25.0193966666667","6500100","板橋區"
"220106","075-UY","2017/11/23 19:19:48","新北市板橋區雙十路三段66巷1號","121.4705","25.03193","6500100","板橋區"
"220069","AAD-861","2017/11/23 19:19:43","新北市板橋區大華街69號","121.459506666667","25.0034733333333","6500100","板橋區"
"220102","120-SR","2017/11/23 19:19:41","新北市板橋區松柏街15巷9-3號","121.47398","25.0300533333333","6500100","板橋區"
"226004","205-ST","2017/11/23 19:19:45","新北市平溪區靜安路三段268號","121.77631","25.0404883333333","6502400","平溪區"
"228003","097-TW","2017/11/23 19:19:36","新北市貢寮區和美里和美街19-2號","121.912805","25.08257","6502600","貢寮區"
"228001","212-TW","2017/11/23 19:19:51","新北市貢寮區真理里新港街26巷6-3號","121.925658333333","25.0545583333333","6502600","貢寮區"
"228002","585-TW","2017/11/23 19:19:36","新北市貢寮區雙玉里田寮洋街21號","121.926381666667","25.0255416666667","6502600","貢寮區"
"224010","AGQ-8101","2017/11/23 19:18:37","新北市瑞芳區基山街65號","121.84517","25.1084733333333","6501200","瑞芳區"
"224006","676-BX","2017/11/23 19:19:41","新北市瑞芳區中山路219號","121.800921666667","25.106725","6501200","瑞芳區"
"224008","275-VK","2017/11/23 19:19:51","新北市瑞芳區一坑路189-2號","121.801616666667","25.1091866666667","6501200","瑞芳區"
"224005","271-BY","2017/11/23 19:19:46","新北市瑞芳區三爪子坑路3號","121.814481666667","25.1078633333333","6501200","瑞芳區"
"227010","642-TC","2017/11/23 19:19:41","新北市雙溪區新基里新基北街40號","121.868485","25.03809","6502500","雙溪區"
"227004","400-TW","2017/11/23 19:19:55","新北市雙溪區平林里梅竹蹊66-1號","121.860166666667","25.0358183333333","6502500","雙溪區"
"253005","032-BX","2017/11/23 19:19:27","新北市石門區阿里荖5號","121.611466666667","25.2794666666667","6502200","石門區"
"253006","295-VK","2017/11/23 19:19:50","新北市石門區楓林17-10號","121.536405","25.2929433333333","6502200","石門區"
"222001","KEA-2212","2017/11/23 19:19:40","新北市深坑區北深路二段103號","121.61749","25.00343","6501800","深坑區"
"208002","742-BX","2017/11/23 19:19:47","新北市金山區中華路133號","121.633111666667","25.2209433333333","6502700","金山區"
"208003","665-BX","2017/11/23 19:19:42","新北市金山區中山路165號","121.638753333333","25.2205933333333","6502700","金山區"
"208001","761-BX","2017/11/23 19:19:46","新北市金山區中山路108號","121.639888333333","25.2193983333333","6502700","金山區"
"251009","008-UM","2017/11/23 19:19:41","新北市淡水區中山路144號","121.441218333333","25.1714483333333","6501000","淡水區"
"251005","010-UM","2017/11/23 19:19:48","新北市淡水區水源街一段27巷3號","121.443193333333","25.1726016666667","6501000","淡水區"
"251007","179-VK","2017/11/23 19:19:38","新北市淡水區民生路117巷19號","121.464885","25.1393733333333","6501000","淡水區"
"251014","182-VK","2017/11/23 19:19:40","新北市淡水區小中寮19-7號","121.484685","25.2296016666667","6501000","淡水區"
"251010","413-VK","2017/11/23 19:19:53","新北市淡水區沙崙路27號","121.421451666667","25.1816","6501000","淡水區"
"251016","442-VK","2017/11/23 19:19:42","新北市淡水區下圭柔山119-51號","121.45076","25.2084316666667","6501000","淡水區"
"251001","559-UM","2017/11/23 19:19:42","新北市淡水區自強路201巷39號","121.462055","25.1268316666667","6501000","淡水區"
"251006","561-UM","2017/11/23 19:19:57","新北市淡水區大信街33號","121.441988333333","25.177345","6501000","淡水區"
"251003","766-UM","2017/11/23 19:19:46","新北市淡水區水碓街45號","121.443856666667","25.17786","6501000","淡水區"
"207003","550-UM","2017/11/23 19:19:51","新北市萬里區大鵬里萬里加投79-3號","121.647335","25.2123533333333","6502800","萬里區"
"207004","225-TW","2017/11/23 19:19:50","新北市萬里區萬里里成功新村44號","121.687671666667","25.1746266666667","6502800","萬里區"
"252002","178-VK","2017/11/23 19:19:53","新北市三芝區淡金路二段18-1號","121.502651666667","25.2594966666667","6502100","三芝區"
"252003","249-BX","2017/11/23 19:19:45","新北市三芝區埔坪里埔頭坑107號","121.504506666667","25.2614683333333","6502100","三芝區"
"252001","292-VK","2017/11/23 19:19:36","新北市三芝區長勤街9巷11弄1號","121.501826666667","25.2546966666667","6502100","三芝區"
"237007","153-BY","2017/11/23 19:19:38","新北市三峽區中正路二段584巷4弄5號","121.359041666667","24.90682","6500900","三峽區"
"237009","210-TH","2017/11/23 19:19:41","新北市三峽區文化路109號","121.370495","24.9360966666667","6500900","三峽區"
"237013","252-BX","2017/11/23 19:19:51","新北市三峽區大同路39巷7號","121.377033333333","24.9278866666667","6500900","三峽區"
"237012","275-BY","2017/11/23 19:19:53","新北市三峽區三樹路222巷236弄23號","121.391405","24.94313","6500900","三峽區"
"237008","302-VK","2017/11/23 19:19:41","新北市三峽區光明路106巷48號","121.375406666667","24.9268966666667","6500900","三峽區"
"237014","433-BY","2017/11/23 19:19:53","新北市三峽區中山路246號","121.362116666667","24.9375883333333","6500900","三峽區"
"237006","5529-G3","2017/11/23 19:19:43","新北市三峽區介壽路一段237號","121.379398333333","24.9302983333333","6500900","三峽區"
"237011","572-TV","2017/11/23 19:10:14","新北市三峽區中正路一段104號","121.374226666667","24.9295833333333","6500900","三峽區"
"237016","649-BX","2017/11/23 19:19:41","新北市三峽區安坑35-7號","121.453036666667","24.9313183333333","6500900","三峽區"
"237010","706-TV","2017/11/23 19:11:38","新北市三峽區復興路9號","121.374256666667","24.9361","6500900","三峽區"
"237005","AKY-6261","2017/11/23 19:19:49","新北市三峽區中山路459巷52-1號","121.356688333333","24.9370166666667","6500900","三峽區"
"236071","105-UM","2017/11/23 19:19:51","新北市土城區學成路124號","121.449353333333","24.9894816666667","6501300","土城區"
"236026","269-VK","2017/11/23 19:19:43","新北市土城區中央路二段147號","121.442006666667","24.97669","6501300","土城區"
"236014","270-VK","2017/11/23 19:19:49","新北市土城區學府路一段25號","121.458495","24.988355","6501300","土城區"
"236021","401-BY","2017/11/23 19:19:51","新北市土城區明峰街83號","121.468938333333","24.9873783333333","6501300","土城區"
"236078","752-BX","2017/11/23 19:19:47","新北市土城區龍泉路347號","121.409743333333","24.9501266666667","6501300","土城區"
"236058","912-UM","2017/11/23 19:19:39","新北市土城區金城路一段15號","121.439578333333","24.9690333333333","6501300","土城區"
"236051","913-UM","2017/11/23 19:19:42","新北市土城區明德路一段398-1號","121.453648333333","24.9790883333333","6501300","土城區"
"238015","755-BX","2017/11/23 19:19:38","新北市樹林區備內街1巷39號","121.412216666667","24.9859366666667","6500700","樹林區"
"238023","601-UM","2017/11/23 19:19:44","桃園市龜山區萬壽路一段791-2號","121.392231666667","25.0138583333333","6500700","樹林區"
"238019","599-UM","2017/11/23 19:19:54","新北市樹林區鎮前街333號","121.416715","24.9843883333333","6500700","樹林區"
"238018","571-TV","2017/11/23 19:19:56","新北市樹林區中華路341-3號","121.415405","24.9801883333333","6500700","樹林區"
"238024","5061-A6","2017/11/23 19:19:56","新北市樹林區福德街10號","121.40078","24.97553","6500700","樹林區"
"238008","KEA-2217","2017/11/23 19:19:57","新北市樹林區柑園街二段384巷2號","121.368058333333","24.9492216666667","6500700","樹林區"
"238022","KEA-2213","2017/11/23 19:19:41","新北市樹林區中華路267號","121.417851666667","24.9804916666667","6500700","樹林區"
"238025","303-VK","2017/11/23 19:19:52","新北市樹林區中山路三段34號","121.39531","24.9727166666667","6500700","樹林區"
"238017","283-BY","2017/11/23 19:19:44","新北市樹林區光興街239號","121.40679","25.005295","6500700","樹林區"
"238014","282-BY","2017/11/23 19:19:53","新北市樹林區千歲街67號","121.427211666667","24.9988233333333","6500700","樹林區"
"238020","268-VK","2017/11/23 19:19:44","新北市樹林區俊英街133巷4號","121.42404","25.01142","6500700","樹林區"
"238026","172-UY","2017/11/23 19:19:45","新北市樹林區柑園街一段367號","121.388758333333","24.9559983333333","6500700","樹林區"
"238016","169-UY","2017/11/23 19:19:36","新北市樹林區中山路二段34號","121.417156666667","24.9851683333333","6500700","樹林區"
"239007","AAC-297","2017/11/23 19:19:58","新北市鶯歌區西湖街53巷17號","121.340098333333","24.95982","6500800","鶯歌區"
"239006","891-R6","2017/11/23 19:19:52","新北市鶯歌區鶯桃路91巷42弄2號","121.336898333333","24.9520683333333","6500800","鶯歌區"
"239008","527-UM","2017/11/23 19:19:47","新北市鶯歌區大湖路540號","121.337025","24.9727616666667","6500800","鶯歌區"
"239005","526-UM","2017/11/23 19:19:57","新北市鶯歌區中湖街268-1號","121.349365","24.9763433333333","6500800","鶯歌區"
"239001","417-VK","2017/11/23 19:19:37","新北市鶯歌區建國路409號","121.337913333333","24.951015","6500800","鶯歌區"
"239003","360-BY","2017/11/23 19:19:43","新北市鶯歌區重慶街37號","121.35145","24.95252","6500800","鶯歌區"
"239004","193-VK","2017/11/23 19:19:43","新北市鶯歌區中正三路291巷11號","121.329795","24.93576","6500800","鶯歌區"
"221008","489-VK","2017/11/23 19:19:57","新北市汐止區康寧街310號","121.626795","25.067285","6501100","汐止區"
"221036","130-UY","2017/11/23 19:19:46","新北市汐止區汐萬路一段256巷3號","121.653401666667","25.0744883333333","6501100","汐止區"
"221010","269-BY","2017/11/23 19:19:55","新北市汐止區康寧街901號","121.65136","25.07505","6501100","汐止區"
"221012","276-VK","2017/11/23 13:19:04","新北市汐止區汐萬路一段256巷3號","121.653446666667","25.0746266666667","6501100","汐止區"
"221012","278-VK","2017/11/23 19:19:39","新北市汐止區汐萬路一段266號","121.65125","25.0738616666667","6501100","汐止區"
"221023","279-VK","2017/11/23 19:19:49","新北市汐止區康寧街901號","121.650925","25.075185","6501100","汐止區"
"221027","281-BY","2017/11/23 19:19:54","新北市汐止區康寧街901號","121.651475","25.0749766666667","6501100","汐止區"
"221029","298-VK","2017/11/23 19:19:55","新北市汐止區康寧街901號","121.651693333333","25.0749783333333","6501100","汐止區"
"221021","299-VK","2017/11/23 19:19:48","新北市汐止區康寧街901號","121.651453333333","25.0750216666667","6501100","汐止區"
"221031","353-TW","2017/11/23 19:19:55","新北市汐止區伯爵街1巷16號","121.641228333333","25.0750966666667","6501100","汐止區"
"221015","567-BX","2017/11/23 19:19:51","新北市汐止區康寧街901號","121.651678333333","25.074875","6501100","汐止區"
"221025","623-UM","2017/11/23 19:19:43","新北市汐止區汐萬路一段261號","121.650766666667","25.074115","6501100","汐止區"
"221038","646-BX","2017/11/23 19:19:52","新北市汐止區汐萬路一段312號","121.650611666667","25.075345","6501100","汐止區"
"221033","647-BX","2017/11/23 19:19:41","新北市汐止區南勢街3號","121.627073333333","25.0374183333333","6501100","汐止區"
"221002","707-TV","2017/11/23 19:19:53","新北市汐止區大同路一段335號","121.638511666667","25.059325","6501100","汐止區"
"221018","753-BX","2017/11/23 19:19:43","新北市汐止區康寧街901號","121.651556666667","25.074925","6501100","汐止區"
"220079","145-BY","2017/11/23 19:19:55","新北市板橋區民權路202巷17弄13號","121.460126666667","25.0165683333333","6500100","板橋區"
"220080","200-UY","2017/11/23 19:19:52","新北市板橋區大觀路二段19巷83號","121.449205","25.0029016666667","6500100","板橋區"
"220082","610-BX","2017/11/23 19:19:53","新北市板橋區溪城路79號","121.426583333333","24.9836533333333","6500100","板橋區"
"220101","245-BX","2017/11/23 19:19:35","新北市板橋區莊敬路25巷17號","121.474385","25.0270566666667","6500100","板橋區"
"220091","267-BY","2017/11/23 19:19:48","新北市板橋區縣民大道三段187巷13號","121.479068333333","25.02521","6500100","板橋區"
"220056","276-BY","2017/11/23 19:19:53","新北市板橋區和平路4號","121.457946666667","24.9942466666667","6500100","板橋區"
"220072","277-BY","2017/11/23 19:19:50","新北市板橋區金門街337巷10弄2號","121.429883333333","24.9850916666667","6500100","板橋區"
"220094","283-UM","2017/11/23 19:19:53","新北市板橋區吳鳳路82號","121.466933333333","25.0312683333333","6500100","板橋區"
"220071","283-VK","2017/11/23 19:19:51","新北市板橋區大豐街111號","121.461236666667","25.00113","6500100","板橋區"
"220053","285-VK","2017/11/23 19:19:44","新北市板橋區富山街5號","121.478576666667","25.0215583333333","6500100","板橋區"
"220083","286-VK","2017/11/23 19:19:54","新北市板橋區大觀路二段174巷186弄16號","121.442948333333","25.0033766666667","6500100","板橋區"
"220081","287-VK","2017/11/23 19:19:39","新北市板橋區南雅東路87號","121.453108333333","25.008405","6500100","板橋區"
"220090","288-VK","2017/11/23 19:19:54","新北市板橋區長江路一段106巷13弄31號","121.461266666667","25.0297416666667","6500100","板橋區"
"220061","293-UM","2017/11/23 19:19:40","新北市板橋區中山路二段320號","121.480991666667","25.0194716666667","6500100","板橋區"
"220084","296-UM","2017/11/23 19:19:42","新北市板橋區溪北路73巷5號","121.428331666667","24.989915","6500100","板橋區"
"220075","297-UM","2017/11/23 19:19:45","新北市板橋區南雅西路一段110號","121.452906666667","25.0063483333333","6500100","板橋區"
"242001","281-VK","2017/11/23 16:04:16","新北市新莊區環河路636-7號","121.437275","25.0112983333333","6500500","新莊區"
"220062","305-R5","2017/11/23 19:19:52","新北市板橋區三民路二段153巷30弄35號","121.48108","25.0146266666667","6500100","板橋區"
"220092","307-R5","2017/11/23 19:19:45","新北市板橋區光武街48巷25號","121.467733333333","25.0268866666667","6500100","板橋區"
"220098","317-R6","2017/11/23 19:19:27","新北市板橋區民有街63號","121.465265","25.0266683333333","6500100","板橋區"
"220064","486-VK","2017/11/23 19:19:38","新北市板橋區縣民大道二段3號","121.462616666667","25.01216","6500100","板橋區"
"220089","487-VK","2017/11/23 19:19:45","新北市板橋區文化路一段225號","121.463846666667","25.01751","6500100","板橋區"
"220088","491-VK","2017/11/23 19:19:49","新北市板橋區雙十路二段79號","121.476051666667","25.0272016666667","6500100","板橋區"
"220035","560-BX","2017/11/23 19:19:49","新北市板橋區新生街23巷17號","121.456495","25.0224916666667","6500100","板橋區"
"220103","561-BX","2017/11/23 19:19:42","新北市板橋區介壽街22-1號","121.467726666667","25.01998","6500100","板橋區"
"220063","609-BX","2017/11/23 19:19:41","新北市板橋區三民路二段169號","121.479145","25.01448","6500100","板橋區"
"220057","686-BX","2017/11/23 19:19:41","新北市板橋區重慶路308巷12號","121.463391666667","24.9977966666667","6500100","板橋區"
"220077","687-BX","2017/11/23 19:19:55","新北市板橋區僑中一街82號","121.447378333333","25.0114883333333","6500100","板橋區"
"220093","689-BX","2017/11/23 19:19:37","新北市板橋區文化路一段301號","121.465008333333","25.0189266666667","6500100","板橋區"
"220054","741-BX","2017/11/23 19:19:40","新北市板橋區後埔街81號","121.460718333333","25.0052483333333","6500100","板橋區"
"220055","827-TW","2017/11/23 19:19:54","新北市板橋區館前東路156巷19號","121.464258333333","25.00702","6500100","板橋區"
"220067","829-TW","2017/11/23 19:19:44","新北市板橋區長安街138巷1弄46號","121.473775","25.0099783333333","6500100","板橋區"
"220096","831-TW","2017/11/23 19:19:54","新北市板橋區大同街26巷14號","121.478163333333","25.0268683333333","6500100","板橋區"
"220074","895-R6","2017/11/23 19:19:40","新北市板橋區中正路自強新村91-3號","121.45483","25.0135383333333","6500100","板橋區"
"220073","985-R7","2017/11/23 19:19:34","新北市板橋區新生街68號","121.457871666667","25.021035","6500100","板橋區"
"220097","AAC-210","2017/11/23 19:19:53","新北市板橋區漢生西路89巷39號","121.461503333333","25.01917","6500100","板橋區"
"220070","AAC-253","2017/11/23 19:19:48","新北市板橋區忠孝路136號","121.463658333333","25.0022616666667","6500100","板橋區"
