"lineid","car","time","location","longitude","latitude","cityid","cityname"
"234046","148-BY","2017/11/23 19:29:51","新北市永和區秀朗路二段227號","121.526466666667","25.0004366666667","6500400","永和區"
"234013","149-BY","2017/11/23 19:29:37","新北市永和區永和路二段121號","121.514741666667","25.0121783333333","6500400","永和區"
"234007","207-UY","2017/11/23 19:29:51","新北市永和區永和路一段102號","121.51336","25.0071433333333","6500400","永和區"
"234081","298-R6","2017/11/23 19:29:47","新北市永和區林森路10巷18弄16號","121.526331666667","25.0071216666667","6500400","永和區"
"234038","336-UY","2017/11/23 19:29:53","新北市永和區成功路二段65號","121.527458333333","25.0000566666667","6500400","永和區"
"234064","337-UY","2017/11/23 19:29:38","新北市永和區中正路368巷1弄86號","121.520448333333","25.0007283333333","6500400","永和區"
"234086","338-UY","2017/11/23 19:29:49","新北市永和區林森路80號","121.523433333333","25.0037583333333","6500400","永和區"
"234070","552-UM","2017/11/23 19:29:49","新北市永和區警光街5-1號","121.519743333333","25.0094566666667","6500400","永和區"
"234054","553-UM","2017/11/23 19:29:37","新北市永和區復興街1巷6號","121.515845","25.0129483333333","6500400","永和區"
"234017","745-BX","2017/11/23 19:29:54","新北市永和區環河西路一段87-1號","121.512485","25.0179933333333","6500400","永和區"
"234030","746-BX","2017/11/23 19:29:42","新北市永和區民生路69號","121.522668333333","24.9971883333333","6500400","永和區"
"234061","AAD-866","2017/11/23 19:29:36","新北市永和區中正路528號","121.517345","25.0050833333333","6500400","永和區"
"234042","862-TW","2017/11/23 19:29:42","新北市永和區水源街39巷26號","121.51071","25.0031916666667","6500400","永和區"
"234050","863-TW","2017/11/23 19:29:55","新北市永和區信義路77號","121.512396666667","25.0132466666667","6500400","永和區"
"234026","9381-KE","2017/11/23 19:29:46","新北市中和區安樂路213號","121.514261666667","24.9987416666667","6500400","永和區"
"234011","9373-KE","2017/11/23 19:29:49","新北市永和區保福路二段163巷14號","121.508795","25.0146883333333","6500400","永和區"
"249002","305-UY","2017/11/23 19:29:42","新北市八里區頂寮二街138號","121.449311666667","25.1294433333333","6502300","八里區"
"249003","593-UM","2017/11/23 19:29:46","新北市八里區舊城路21號","121.399871666667","25.14689","6502300","八里區"
"248014","025-BX","2017/11/23 19:29:44","新北市五股區民義路一段163-2號","121.43204","25.0878","6501500","五股區"
"248008","095-VK","2017/11/23 19:29:54","新北市五股區中興路一段95巷13號","121.46663","25.0723133333333","6501500","五股區"
"248018","225-UY","2017/11/23 19:29:40","新北市五股區凌雲路三段39號","121.43172","25.1171883333333","6501500","五股區"
"248012","247-BX","2017/11/23 19:29:57","新北市五股區成泰路二段87號","121.438285","25.08411","6501500","五股區"
"248010","272-BY","2017/11/23 19:29:38","新北市五股區水碓一路23號","121.430608333333","25.07121","6501500","五股區"
"248004","677-BX","2017/11/23 19:29:43","新北市五股區五福路39號","121.43344","25.0895816666667","6501500","五股區"
"248002","678-BX","2017/11/23 19:29:37","新北市五股區凌雲路一段158巷6號","121.44782","25.1031266666667","6501500","五股區"
"234023","9380-KE","2017/11/23 19:29:56","新北市永和區竹林路91巷21弄11號","121.520885","25.0124433333333","6500400","永和區"
"234077","969-R7","2017/11/23 19:29:55","新北市永和區民族街45號","121.51862","24.9984433333333","6500400","永和區"
"234074","AAC-211","2017/11/23 19:29:53","新北市永和區永和路二段264號","121.515996666667","25.015175","6500400","永和區"
"234067","AAC-212","2017/11/23 19:29:54","新北市永和區永貞路360巷8號","121.510631666667","25.00687","6500400","永和區"
"234003","AAC-295","2017/11/23 19:29:56","新北市永和區福和路379號","121.51448","25.00755","6500400","永和區"
"244019","403-UM","2017/11/23 19:29:49","新北市林口區文化二路一段569號","121.375293333333","25.0776183333333","6501700","林口區"
"244023","483-VK","2017/11/23 19:29:47","新北市林口區文化三路二段181-1號","121.375858333333","25.082365","6501700","林口區"
"243011","267-VK","2017/11/23 19:29:41","新北市泰山區中山路二段567號","121.429638333333","25.040145","6501600","泰山區"
"243012","AAD-798","2017/11/23 19:29:51","新北市泰山區仁愛路6號","121.43071","25.0539666666667","6501600","泰山區"
"243009","297-R6","2017/11/23 19:29:38","新北市五股區成泰路一段7巷3號","121.433348333333","25.0666583333333","6501600","泰山區"
"243015","380-SR","2017/11/23 19:29:43","新北市泰山區明志路二段104號","121.428176666667","25.05182","6501600","泰山區"
"243014","421-VK","2017/11/23 19:29:42","新北市泰山區仁愛路159號","121.435093333333","25.0563316666667","6501600","泰山區"
"243010","KEA-2215","2017/11/23 19:29:51","新北市泰山區民生路17巷38號","121.42942","25.0515666666667","6501600","泰山區"
"243013","646-TV","2017/11/23 19:29:56","新北市泰山區明志路三段145巷5弄18號","121.425661666667","25.040375","6501600","泰山區"
"243016","680-BX","2017/11/23 19:29:47","新北市泰山區明志路三段181號","121.424383333333","25.0390966666667","6501600","泰山區"
"222003","436-BY","2017/11/23 19:29:38","新北市深坑區深南路51-1號","121.62119","25.0100116666667","6501800","深坑區"
"222002","659-BX","2017/11/23 19:29:42","新北市深坑區北深路一段177號","121.63256","25.01084","6501800","深坑區"
"231041","002-UM","2017/11/23 19:29:52","新北市新店區中正路543-4號","121.533653333333","24.9874333333333","6500600","新店區"
"231059","046-UY","2017/11/23 19:29:53","新北市新店區安和路三段61號","121.517958333333","24.98315","6500600","新店區"
"231061","047-UY","2017/11/23 19:29:56","新北市新店區安民街48號","121.516096666667","24.965695","6500600","新店區"
"231060","106-UY","2017/11/23 19:29:53","新北市新店區安康路二段99號","121.512858333333","24.962685","6500600","新店區"
"231047","108-UY","2017/11/23 19:29:37","新北市新店區中興路一段252號","121.544425","24.96659","6500600","新店區"
"231052","187-VK","2017/11/23 19:29:58","新北市新店區屈尺路55-2號","121.546156666667","24.9225533333333","6500600","新店區"
"231050","KEA-2219","2017/11/23 19:29:46","新北市新店區秀水路19號","121.55482","24.9549","6500600","新店區"
"231057","256-BX","2017/11/23 19:29:45","新北市新店區花園一路二段27號","121.551301666667","24.9325266666667","6500600","新店區"
"231046","278-BY","2017/11/23 19:29:52","新北市新店區光明街284號","121.540398333333","24.96468","6500600","新店區"
"231058","3712-VJ","2017/11/23 19:29:50","新北市新店區寶橋路85巷35號","121.545175","24.9761666666667","6500600","新店區"
"231067","4715-K9","2017/11/23 19:29:47","新北市新店區薏仁坑路自強巷1號","121.497141666667","24.9579283333333","6500600","新店區"
"231065","512-UM","2017/11/23 19:29:51","新北市新店區安祥路109巷1弄83號","121.478591666667","24.9604366666667","6500600","新店區"
"231054","513-UM","2017/11/23 19:29:45","新北市新店區文中路51號","121.53978","24.9566066666667","6500600","新店區"
"231064","515-UM","2017/11/23 19:29:48","新北市新店區安忠路57巷26弄3號","121.513051666667","24.95877","6500600","新店區"
"231042","616-UM","2017/11/23 19:29:50","新北市新店區中興路一段174號","121.54311","24.9644816666667","6500600","新店區"
"231040","619-UM","2017/11/23 19:29:46","新北市新店區北新路一段14號","121.540783333333","24.9657333333333","6500600","新店區"
"231063","645-TV","2017/11/23 19:29:46","新北市新店區達觀路16號","121.502938333333","24.9410466666667","6500600","新店區"
"231049","719-UM","2017/11/23 19:29:41","新北市新店區二十張路1巷3弄3號","121.540546666667","24.982085","6500600","新店區"
"231051","719-UY","2017/11/23 19:29:40","新北市新店區中央路97號","121.531288333333","24.97507","6500600","新店區"
"231062","720-UM","2017/11/23 19:29:50","新北市新店區精忠路2號","121.533023333333","24.9596983333333","6500600","新店區"
"231044","897-TW","2017/11/23 19:29:48","新北市新店區中興路三段137號","121.544606666667","24.9797666666667","6500600","新店區"
"231045","898-TW","2017/11/23 19:29:52","新北市新店區北宜路二段213號","121.553233333333","24.953365","6500600","新店區"
"231043","899-TW","2017/11/23 19:29:54","新北市新店區北新路二段190號","121.542921666667","24.97655","6500600","新店區"
"231066","AKT-0513","2017/11/23 19:29:48","新北市新店區安康路三段165巷4號","121.489471666667","24.9513316666667","6500600","新店區"
"241028","022-UY","2017/11/23 19:29:45","新北市三重區中寮街66號","121.493006666667","25.0583216666667","6500200","三重區"
"241008","059-VK","2017/11/23 19:29:39","新北市三重區永福街135巷40號","121.477153333333","25.07728","6500200","三重區"
"241009","060-VK","2017/11/23 19:29:38","新北市三重區仁美街128號","121.48547","25.0813666666667","6500200","三重區"
"241031","061-VK","2017/11/23 19:29:34","新北市三重區集美街100號","121.488526666667","25.0541233333333","6500200","三重區"
"241017","063-VK","2017/11/23 19:29:46","新北市三重區中正北路25巷25弄2號","121.493215","25.0626483333333","6500200","三重區"
"241026","066-VK","2017/11/23 19:29:53","新北市三重區文化南路47巷4號","121.499806666667","25.0612483333333","6500200","三重區"
"241022","156-TC","2017/11/23 19:29:51","新北市三重區三民街157巷2號","121.483735","25.0646083333333","6500200","三重區"
"241032","269-UM","2017/11/23 19:29:56","新北市三重區三陽路62號","121.484051666667","25.058715","6500200","三重區"
"241013","270-UM","2017/11/23 19:29:43","新北市三重區仁愛街88號","121.495496666667","25.0736766666667","6500200","三重區"
"241025","271-UM","2017/11/23 19:29:44","新北市三重區頂崁街210巷28弄9號","121.475781666667","25.0671566666667","6500200","三重區"
"241007","398-BY","2017/11/23 19:29:39","新北市三重區溪尾街130號","121.489346666667","25.0794983333333","6500200","三重區"
"241020","413-TH","2017/11/23 19:29:43","新北市三重區三和路四段20巷9號","121.490548333333","25.0740216666667","6500200","三重區"
"241035","462-BY","2017/11/23 19:29:39","新北市三重區信義西街1巷3號","121.49814","25.064945","6500200","三重區"
"241030","480-VK","2017/11/23 19:29:44","新北市三重區成功路41巷6號","121.490155","25.0515116666667","6500200","三重區"
"241023","545-UM","2017/11/23 19:29:41","新北市三重區頂崁街99號","121.478","25.0638233333333","6500200","三重區"
"241029","942-UM","2017/11/23 19:29:43","新北市三重區重安街103號","121.493898333333","25.0551466666667","6500200","三重區"
"235066","003-UY","2017/11/23 19:29:44","新北市中和區景新街47號","121.504268333333","24.999115","6500300","中和區"
"235063","006-UY","2017/11/23 19:29:42","新北市中和區連城路223號","121.494171666667","24.9976466666667","6500300","中和區"
"235056","096-UM","2017/11/23 19:29:38","新北市中和區中山路三段106號","121.476836666667","25.00624","6500300","中和區"
"235039","097-UM","2017/11/23 19:29:50","新北市中和區秀峰街81巷2號","121.521373333333","24.990255","6500300","中和區"
"235065","098-UM","2017/11/23 19:29:40","新北市中和區中山路二段64巷14弄15號","121.503895","25.0061033333333","6500300","中和區"
"235040","150-BY","2017/11/23 19:29:55","新北市中和區保健路46巷18號","121.509075","24.99632","6500300","中和區"
"235058","151-BY","2017/11/23 19:29:40","新北市中和區員山路36巷16-2號","121.485245","24.9915566666667","6500300","中和區"
"235055","183-VK","2017/11/23 19:29:56","新北市中和區國光街8巷7號","121.471635","25.0006516666667","6500300","中和區"
"235038","185-VK","2017/11/23 19:29:52","新北市中和區大仁街20巷50號","121.52018","24.9932833333333","6500300","中和區"
"235049","186-VK","2017/11/23 19:29:55","新北市中和區安和路9號","121.511478333333","24.9935333333333","6500300","中和區"
"235067","255-BX","2017/11/23 19:29:54","新北市中和區中正路717號","121.48504","24.9986266666667","6500300","中和區"
"235044","293-VK","2017/11/23 19:29:51","新北市中和區捷運路122號","121.505425","24.9914816666667","6500300","中和區"
"235072","301-VK","2017/11/23 19:29:46","新北市中和區連城路263巷8弄7號","121.49178","24.9951883333333","6500300","中和區"
"235043","352-BY","2017/11/23 19:29:39","新北市中和區景新街153號","121.506518333333","24.996535","6500300","中和區"
"235068","377-QA","2017/11/23 19:29:39","新北市中和區連勝街57巷7號","121.49792","24.996915","6500300","中和區"
"235061","378-QA","2017/11/23 19:29:49","新北市中和區民利街61巷9號","121.479138333333","24.9983766666667","6500300","中和區"
"235071","269-TV","2017/11/23 19:29:51","新北市中和區中正路637巷18弄4號","121.484386666667","24.9950416666667","6500300","中和區"
"235042","551-UM","2017/11/23 19:29:57","新北市中和區安樂路217巷40弄1號","121.513216666667","24.9978433333333","6500300","中和區"
"235070","558-UM","2017/11/23 19:29:46","新北市中和區中山路二段253號","121.49773","25.0024366666667","6500300","中和區"
"235045","565-BX","2017/11/23 19:29:40","新北市中和區景新街425號","121.513085","24.9892116666667","6500300","中和區"
"235054","640-BX","2017/11/23 19:29:46","新北市中和區國光街112巷16弄2號","121.469795","25.001365","6500300","中和區"
"235060","647-TV","2017/11/23 19:29:54","新北市中和區員山路266巷31號","121.48258","25.0018666666667","6500300","中和區"
"235047","732-UM","2017/11/23 19:29:40","新北市中和區景平路259巷11號","121.507918333333","24.9926083333333","6500300","中和區"
"235046","733-UM","2017/11/23 19:29:37","新北市中和區忠孝街37巷42號","121.510828333333","24.9848883333333","6500300","中和區"
"235057","801-TS","2017/11/23 19:29:55","新北市中和區台新街43號","121.479698333333","25.0049516666667","6500300","中和區"
"235041","802-TS","2017/11/23 19:29:39","新北市中和區中安街130號","121.510995","25.0004016666667","6500300","中和區"
"235052","805-TS","2017/11/23 19:29:49","新北市中和區華新街143巷67弄2號","121.506973333333","24.9788116666667","6500300","中和區"
"235048","896-TW","2017/11/23 19:29:44","新北市中和區忠孝街122-1號","121.512126666667","24.9858116666667","6500300","中和區"
"235053","900-TW","2017/11/23 19:29:47","新北市中和區華安街8號","121.465696666667","24.9986483333333","6500300","中和區"
"235064","911-UM","2017/11/23 19:29:56","新北市中和區南山路81巷4號","121.502221666667","24.9979283333333","6500300","中和區"
"235037","157-BY","2017/11/23 19:29:55","新北市中和區景新街269號","121.509121666667","24.993795","6500300","中和區"
"235037","AAC-213","2017/11/23 19:29:48","新北市中和區秀朗路三段10巷14弄48號","121.524306666667","24.9965133333333","6500300","中和區"
"235059","AAC-215","2017/11/23 19:29:42","新北市中和區圓通路252巷2-5號","121.493431666667","24.991485","6500300","中和區"
"220068","013-TV","2017/11/23 16:19:36","新北市八里區訊塘路1號","121.398106666667","25.14443","6500100","板橋區"
"220065","072-UY","2017/11/23 19:29:51","新北市板橋區國泰街75巷30號","121.46772","25.005655","6500100","板橋區"
"220086","073-UY","2017/11/23 19:29:51","新北市板橋區中正路271號","121.455643333333","25.018745","6500100","板橋區"
"220106","075-UY","2017/11/23 19:29:48","新北市板橋區文化路二段417巷1號","121.47382","25.0334266666667","6500100","板橋區"
"220069","AAD-861","2017/11/23 19:29:43","新北市板橋區貴興路37號","121.457626666667","25.0037183333333","6500100","板橋區"
"220102","120-SR","2017/11/23 19:29:41","新北市板橋區松柏街19號","121.4746","25.02988","6500100","板橋區"
"247004","335-TH","2017/11/23 19:29:55","新北市蘆洲區長安街241號","121.45921","25.08314","6501400","蘆洲區"
"226004","205-ST","2017/11/23 19:29:45","新北市平溪區十分里十分街144號","121.777628333333","25.0433116666667","6502400","平溪區"
"228003","097-TW","2017/11/23 19:29:56","新北市貢寮區和美里和美街19-2號","121.912808333333","25.082565","6502600","貢寮區"
"228001","212-TW","2017/11/23 19:29:50","新北市貢寮區真理里延平街68號","121.925381666667","25.0574216666667","6502600","貢寮區"
"228002","585-TW","2017/11/23 19:29:56","新北市貢寮區龍門里龍門街70號","121.931035","25.0265383333333","6502600","貢寮區"
"224006","676-BX","2017/11/23 19:29:41","新北市瑞芳區三爪子坑路106巷1-11號","121.80817","25.1051466666667","6501200","瑞芳區"
"224005","271-BY","2017/11/23 19:29:26","新北市瑞芳區蛇子形路6號","121.825956666667","25.1049666666667","6501200","瑞芳區"
"227010","642-TC","2017/11/23 19:29:41","新北市雙溪區新基里新基北街43號","121.868195","25.0396566666667","6502500","雙溪區"
"227004","400-TW","2017/11/23 19:29:55","新北市雙溪區雙溪里光復街18號","121.865138333333","25.0354116666667","6502500","雙溪區"
"222001","KEA-2212","2017/11/23 19:29:40","新北市深坑區北深路二段134號","121.615721666667","25.00292","6501800","深坑區"
"208002","742-BX","2017/11/23 19:29:47","新北市金山區仁愛路87巷1號","121.63465","25.22147","6502700","金山區"
"208003","665-BX","2017/11/23 19:29:42","新北市金山區中山路263巷14號","121.63637","25.2216066666667","6502700","金山區"
"208001","761-BX","2017/11/23 19:29:38","新北市金山區中正路105-1號","121.632718333333","25.2216033333333","6502700","金山區"
"251009","008-UM","2017/11/23 19:29:41","新北市淡水區大忠街5巷8號","121.443346666667","25.1765333333333","6501000","淡水區"
"251005","010-UM","2017/11/23 19:29:48","新北市淡水區水源街一段71巷11號","121.444406666667","25.172905","6501000","淡水區"
"251007","179-VK","2017/11/23 19:29:39","新北市淡水區淡金路16巷60弄1號","121.459556666667","25.1608683333333","6501000","淡水區"
"251008","181-VK","2017/11/23 19:29:41","新北市淡水區中正路一段80號","121.424651666667","25.1773683333333","6501000","淡水區"
"251014","182-VK","2017/11/23 19:29:40","新北市淡水區小中寮19-7號","121.48465","25.22972","6501000","淡水區"
"251010","413-VK","2017/11/23 19:29:53","新北市淡水區中正路二段142號","121.422028333333","25.1874716666667","6501000","淡水區"
"251016","442-VK","2017/11/23 19:29:43","新北市淡水區下圭柔山119-51號","121.450763333333","25.2084433333333","6501000","淡水區"
"251001","559-UM","2017/11/23 19:29:42","新北市淡水區民權路155號","121.460016666667","25.136315","6501000","淡水區"
"251006","561-UM","2017/11/23 19:29:50","新北市淡水區大義街32號","121.442393333333","25.17837","6501000","淡水區"
"251011","650-BX","2017/11/23 19:29:43","新北市淡水區中正東路二段143巷2弄1號","121.460693333333","25.1472066666667","6501000","淡水區"
"251003","766-UM","2017/11/23 19:29:46","新北市淡水區中山北路二段375號","121.444165","25.1871683333333","6501000","淡水區"
"207003","550-UM","2017/11/23 19:29:51","新北市萬里區大鵬里萬里加投199號","121.643971666667","25.2151033333333","6502800","萬里區"
"207004","225-TW","2017/11/23 19:29:50","新北市萬里區萬里里瑪鋉頂街1號","121.689086666667","25.178365","6502800","萬里區"
"252002","178-VK","2017/11/23 19:29:53","新北市三芝區淡金路二段18-1號","121.502683333333","25.2595316666667","6502100","三芝區"
"252001","292-VK","2017/11/23 19:29:55","新北市三芝區長勤街63-3號","121.50011","25.255655","6502100","三芝區"
"237007","153-BY","2017/11/23 19:29:58","新北市三峽區二鬮路178號","121.359076666667","24.9068633333333","6500900","三峽區"
"237009","210-TH","2017/11/23 19:29:41","新北市三峽區民權街137號","121.368901666667","24.9319566666667","6500900","三峽區"
"237013","252-BX","2017/11/23 19:29:55","新北市三峽區介壽路一段316號","121.380656666667","24.930205","6500900","三峽區"
"237012","275-BY","2017/11/23 19:29:53","新北市三峽區三樹路98巷169號","121.38441","24.9393016666667","6500900","三峽區"
"237008","302-VK","2017/11/23 19:29:41","新北市三峽區中正路一段219號","121.372105","24.92737","6500900","三峽區"
"237014","433-BY","2017/11/23 19:29:53","新北市三峽區中山路63巷10號","121.366933333333","24.9343083333333","6500900","三峽區"
"237006","5529-G3","2017/11/23 19:29:43","新北市三峽區中正路一段336巷15弄2號","121.36999","24.924935","6500900","三峽區"
"237016","649-BX","2017/11/23 19:29:41","新北市三峽區成福路124號","121.421406666667","24.9300166666667","6500900","三峽區"
"237010","706-TV","2017/11/23 19:11:38","新北市三峽區復興路9號","121.374256666667","24.9361","6500900","三峽區"
"237005","AKY-6261","2017/11/23 19:29:49","新北市三峽區復興路367巷3號","121.363691666667","24.9380083333333","6500900","三峽區"
"236071","105-UM","2017/11/23 19:29:48","新北市土城區學府路一段194號","121.453178333333","24.9859733333333","6501300","土城區"
"236026","269-VK","2017/11/23 19:29:43","新北市土城區中央路二段61巷20號","121.44316","24.978775","6501300","土城區"
"236021","401-BY","2017/11/23 19:29:51","新北市土城區明峰街83號","121.468918333333","24.98738","6501300","土城區"
"236078","752-BX","2017/11/23 19:27:07","新北市土城區中央路四段163號","121.415063333333","24.9568283333333","6501300","土城區"
"236058","912-UM","2017/11/23 19:29:39","新北市土城區中央路二段191-3號","121.442055","24.9753266666667","6501300","土城區"
"236051","913-UM","2017/11/23 19:29:52","新北市土城區清水路211號","121.460428333333","24.98204","6501300","土城區"
"242009","173-VK","2017/11/23 19:29:53","新北市新莊區三和路12-21號","121.442041666667","25.0386683333333","6500500","新莊區"
"238015","755-BX","2017/11/23 19:29:58","新北市樹林區復興路227號","121.420025","24.99094","6500700","樹林區"
"238023","601-UM","2017/11/23 19:29:40","新北市樹林區中正路865號","121.408746666667","25.0182183333333","6500700","樹林區"
"238019","599-UM","2017/11/23 19:29:54","新北市樹林區東榮街90號","121.415926666667","24.982545","6500700","樹林區"
"238018","571-TV","2017/11/23 19:29:45","新北市樹林區中華路9號","121.424455","24.9838216666667","6500700","樹林區"
"238024","5061-A6","2017/11/23 19:29:36","新北市樹林區中山路三段155巷5號","121.395666666667","24.9725783333333","6500700","樹林區"
"238008","KEA-2217","2017/11/23 19:29:37","新北市樹林區柑園街二段303巷18號","121.372711666667","24.9493433333333","6500700","樹林區"
"238022","KEA-2213","2017/11/23 19:29:42","新北市樹林區太順街31號","121.41918","24.97956","6500700","樹林區"
"238025","303-VK","2017/11/23 19:29:43","新北市樹林區東興街2號","121.40885","24.9800766666667","6500700","樹林區"
"238017","283-BY","2017/11/23 19:29:44","新北市樹林區光榮街79號","121.412018333333","25.0030033333333","6500700","樹林區"
"238014","282-BY","2017/11/23 19:29:45","新北市樹林區保安二街5號","121.425326666667","24.9938516666667","6500700","樹林區"
"238020","268-VK","2017/11/23 19:29:56","新北市樹林區俊英街123巷52號","121.423081666667","25.010305","6500700","樹林區"
"238026","172-UY","2017/11/23 19:29:45","新北市樹林區佳園路三段39號","121.388","24.95388","6500700","樹林區"
"238016","169-UY","2017/11/23 19:29:57","新北市樹林區復興路408號","121.414563333333","24.9849616666667","6500700","樹林區"
"239007","AAC-297","2017/11/23 19:29:58","新北市鶯歌區大湖路109巷26號","121.341326666667","24.963505","6500800","鶯歌區"
"239006","891-R6","2017/11/23 19:29:52","新北市鶯歌區鶯桃路永新巷36號","121.338793333333","24.951715","6500800","鶯歌區"
"239008","527-UM","2017/11/23 19:29:47","新北市鶯歌區國華路1-3號","121.343403333333","24.9569233333333","6500800","鶯歌區"
"239001","417-VK","2017/11/23 19:29:37","新北市鶯歌區尖山埔路二段15號","121.34266","24.94907","6500800","鶯歌區"
"239003","360-BY","2017/11/23 19:29:42","新北市鶯歌區中山路162號","121.349128333333","24.9569966666667","6500800","鶯歌區"
"239004","193-VK","2017/11/23 19:29:44","新北市鶯歌區二甲路45-1號","121.336346666667","24.9341066666667","6500800","鶯歌區"
"221008","489-VK","2017/11/23 19:29:57","新北市汐止區吉林街46-1號","121.622115","25.0666483333333","6501100","汐止區"
"221036","130-UY","2017/11/23 19:29:46","新北市汐止區汐萬路一段256巷1號","121.651753333333","25.0749016666667","6501100","汐止區"
"221010","269-BY","2017/11/23 19:29:55","新北市汐止區連峰街7號","121.646353333333","25.0773033333333","6501100","汐止區"
"221012","276-VK","2017/11/23 13:19:04","新北市汐止區汐萬路一段256巷3號","121.653446666667","25.0746266666667","6501100","汐止區"
"221012","278-VK","2017/11/23 19:29:41","新北市汐止區大同路三段174號","121.674046666667","25.0750683333333","6501100","汐止區"
"221023","279-VK","2017/11/23 19:29:29","新北市汐止區康寧街753巷1-1號","121.639081666667","25.0737283333333","6501100","汐止區"
"221032","280-BY","2017/11/23 19:29:55","新北市汐止區汐萬路一段312號","121.650658333333","25.0753916666667","6501100","汐止區"
"221027","281-BY","2017/11/23 19:29:54","新北市汐止區忠孝東路9號","121.65828","25.0658883333333","6501100","汐止區"
"221029","298-VK","2017/11/23 19:29:55","新北市汐止區康寧街901號","121.65165","25.0749616666667","6501100","汐止區"
"221021","299-VK","2017/11/23 19:29:48","新北市汐止區康寧街901號","121.651455","25.0750183333333","6501100","汐止區"
"221031","353-TW","2017/11/23 19:29:55","新北市汐止區連峰街1巷1號","121.646345","25.0760366666667","6501100","汐止區"
"221015","567-BX","2017/11/23 19:29:51","新北市汐止區康寧街901號","121.651671666667","25.0748816666667","6501100","汐止區"
"221025","623-UM","2017/11/23 19:29:43","新北市汐止區新台五路二段10號","121.660288333333","25.065035","6501100","汐止區"
"221038","646-BX","2017/11/23 19:29:52","新北市汐止區汐萬路一段222號","121.6517","25.0729216666667","6501100","汐止區"
"221033","647-BX","2017/11/23 19:29:41","新北市汐止區南勢街1巷1號","121.62702","25.037415","6501100","汐止區"
"221002","707-TV","2017/11/23 19:29:46","新北市汐止區大同路一段337巷16弄2-5號","121.638215","25.06002","6501100","汐止區"
"221018","753-BX","2017/11/23 19:29:43","新北市汐止區康寧街901號","121.651553333333","25.07491","6501100","汐止區"
"220079","145-BY","2017/11/23 19:29:41","新北市板橋區建國街5號","121.457316666667","25.016845","6500100","板橋區"
"220080","200-UY","2017/11/23 19:29:47","新北市板橋區大觀路二段37巷302號","121.450161666667","25.002105","6500100","板橋區"
"220082","610-BX","2017/11/23 19:29:53","新北市板橋區金門街120-3號","121.432998333333","24.9916883333333","6500100","板橋區"
"220101","245-BX","2017/11/23 19:29:35","新北市板橋區縣民大道三段133巷25號","121.477071666667","25.0239083333333","6500100","板橋區"
"220091","267-BY","2017/11/23 19:29:48","新北市板橋區文聖街149巷23弄1號","121.47939","25.0285916666667","6500100","板橋區"
"220056","276-BY","2017/11/23 19:29:49","新北市板橋區信義路1巷26弄14號","121.4581","24.996645","6500100","板橋區"
"220072","277-BY","2017/11/23 19:29:55","新北市板橋區篤行路二段141巷15號","121.430405","24.9879133333333","6500100","板橋區"
"220094","283-UM","2017/11/23 19:29:53","新北市板橋區吳鳳路50巷7號","121.467875","25.0304783333333","6500100","板橋區"
"220071","283-VK","2017/11/23 19:29:51","新北市板橋區忠孝路22號","121.460038333333","25.0017133333333","6500100","板橋區"
"220053","285-VK","2017/11/23 19:29:44","新北市板橋區永豐街102號","121.475908333333","25.02058","6500100","板橋區"
"220083","286-VK","2017/11/23 19:29:54","新北市板橋區龍興街73巷56號","121.441811666667","25.00303","6500100","板橋區"
"220081","287-VK","2017/11/23 19:29:39","新北市板橋區南雅南路一段106號","121.454823333333","25.0045133333333","6500100","板橋區"
"220090","288-VK","2017/11/23 19:29:55","新北市板橋區裕民街94巷1弄1號","121.460108333333","25.0281916666667","6500100","板橋區"
"220061","293-UM","2017/11/23 19:29:54","新北市板橋區成功路6巷13號","121.475981666667","25.0170833333333","6500100","板橋區"
"220084","296-UM","2017/11/23 19:29:42","新北市板橋區篤行路三段玉平巷83號","121.428226666667","24.985835","6500100","板橋區"
"220075","297-UM","2017/11/23 19:29:45","新北市板橋區中正路253巷13號","121.454945","25.0180166666667","6500100","板橋區"
"242001","281-VK","2017/11/23 16:04:16","新北市新莊區環河路636-7號","121.437275","25.0112983333333","6500500","新莊區"
"220062","305-R5","2017/11/23 19:29:40","新北市板橋區三民路二段181巷1號","121.479621666667","25.0144233333333","6500100","板橋區"
"220092","307-R5","2017/11/23 19:29:53","新北市板橋區光武街4巷9號","121.468108333333","25.025495","6500100","板橋區"
"220098","317-R6","2017/11/23 19:29:47","新北市板橋區民生路三段263巷18號","121.463445","25.0291183333333","6500100","板橋區"
"220064","486-VK","2017/11/23 19:29:59","新北市板橋區中山路一段21-1號","121.460253333333","25.0084333333333","6500100","板橋區"
"220089","487-VK","2017/11/23 19:29:43","新北市板橋區公館街268號","121.459406666667","25.0213933333333","6500100","板橋區"
"220088","491-VK","2017/11/23 19:29:57","新北市板橋區雙十路二段157號","121.474441666667","25.02831","6500100","板橋區"
"220035","560-BX","2017/11/23 19:29:52","新北市板橋區中正路433巷1弄10號","121.453646666667","25.023095","6500100","板橋區"
"220103","561-BX","2017/11/23 19:29:55","新北市板橋區文化路一段270巷3弄2號","121.467476666667","25.0209033333333","6500100","板橋區"
"220063","609-BX","2017/11/23 19:29:41","新北市板橋區三民路一段5巷23號","121.480153333333","25.02362","6500100","板橋區"
"220057","686-BX","2017/11/23 19:29:41","新北市板橋區五權街18號","121.464393333333","24.9939133333333","6500100","板橋區"
"220077","687-BX","2017/11/23 19:29:55","新北市板橋區僑中二街116巷2號","121.445676666667","25.0065633333333","6500100","板橋區"
"220093","689-BX","2017/11/23 19:29:58","新北市板橋區英士路49-1號","121.46115","25.0245166666667","6500100","板橋區"
"220054","741-BX","2017/11/23 19:29:52","新北市板橋區光明街104號","121.462883333333","25.0029733333333","6500100","板橋區"
"220055","827-TW","2017/11/23 19:29:47","新北市板橋區重慶路278巷20-3號","121.462725","24.9996333333333","6500100","板橋區"
"220067","829-TW","2017/11/23 19:29:44","新北市板橋區長安街138巷18號","121.472951666667","25.0091033333333","6500100","板橋區"
"220096","831-TW","2017/11/23 19:29:42","新北市板橋區大同街14-2號","121.477315","25.0269733333333","6500100","板橋區"
"220074","895-R6","2017/11/23 19:29:40","新北市板橋區西門街14號","121.455495","25.0114233333333","6500100","板橋區"
"220073","985-R7","2017/11/23 19:29:54","新北市板橋區中正路363號","121.4546","25.0210316666667","6500100","板橋區"
"220097","AAC-210","2017/11/23 19:29:55","新北市板橋區漢生西路183號","121.463263333333","25.02398","6500100","板橋區"
"220070","AAC-253","2017/11/23 19:29:48","新北市板橋區四川路一段77號","121.459663333333","25.0058216666667","6500100","板橋區"
