"lineid","car","time","location","longitude","latitude","cityid","cityname"
"249001","173-UM","2017/11/23 21:19:44","新北市八里區商港路105巷15-1號","121.391838333333","25.149475","6502300","八里區"
"244019","403-UM","2017/11/23 20:37:43","新北市林口區粉寮69號","121.405046666667","25.0907916666667","6501700","林口區"
"231059","046-UY","2017/11/23 21:19:53","新北市新店區薏仁坑路自強巷1號","121.496825","24.9581033333333","6500600","新店區"
"231047","108-UY","2017/11/23 21:19:37","新北市新店區環河路190號","121.52456","24.9761233333333","6500600","新店區"
"231050","KEA-2219","2017/11/23 21:19:46","新北市新店區華興街11號","121.537885","24.9695966666667","6500600","新店區"
"231058","3712-VJ","2017/11/23 21:19:50","新北市新店區薏仁坑路自強巷6號","121.496396666667","24.9584233333333","6500600","新店區"
"231040","619-UM","2017/11/23 21:19:40","新北市新店區北新路一段14號","121.540836666667","24.9656133333333","6500600","新店區"
"231063","645-TV","2017/11/23 21:19:45","新北市新店區玫瑰路57巷29號","121.496723333333","24.946425","6500600","新店區"
"231051","719-UY","2017/11/23 21:19:40","新北市新店區中正路700巷82號","121.535903333333","24.9932616666667","6500600","新店區"
"241011","013-R5","2017/11/23 21:19:37","新北市三重區龍濱路197號","121.501943333333","25.0713366666667","6500200","三重區"
"241028","022-UY","2017/11/23 21:19:45","新北市三重區正義南路165-1號","121.498843333333","25.0575183333333","6500200","三重區"
"241008","059-VK","2017/11/23 21:19:38","新北市三重區正義北路137號","121.496806666667","25.066535","6500200","三重區"
"241009","060-VK","2017/11/23 21:19:58","新北市三重區忠孝路三段56-1號","121.480388333333","25.0651783333333","6500200","三重區"
"241031","061-VK","2017/11/23 21:19:54","新北市三重區五谷王南街46巷37號","121.475731666667","25.0455483333333","6500200","三重區"
"241017","063-VK","2017/11/23 21:19:46","新北市三重區中正北路25巷2號","121.493268333333","25.0626883333333","6500200","三重區"
"241024","065-VK","2017/11/23 21:19:48","新北市三重區中正北路145巷14號","121.484135","25.0677466666667","6500200","三重區"
"241026","066-VK","2017/11/23 21:19:42","新北市三重區大同南路220號","121.496805","25.0561866666667","6500200","三重區"
"241002","090-VK","2017/11/23 21:19:37","新北市三重區自強路五段53號","121.494408333333","25.0817166666667","6500200","三重區"
"241003","091-VK","2017/11/23 21:19:51","新北市三重區仁義街220巷1號","121.49531","25.0841916666667","6500200","三重區"
"241005","262-UM","2017/11/23 21:19:44","新北市三重區仁安街6號","121.485296666667","25.0844666666667","6500200","三重區"
"241019","265-UM","2017/11/23 21:19:52","新北市三重區重陽路三段7-3號","121.489193333333","25.0665533333333","6500200","三重區"
"241016","266-UM","2017/11/23 21:19:52","新北市三重區自強路一段196號","121.4947","25.0664566666667","6500200","三重區"
"241018","268-UM","2017/11/23 21:19:41","新北市三重區忠孝路三段36號","121.481201666667","25.066585","6500200","三重區"
"241032","269-UM","2017/11/23 21:19:36","新北市三重區光復路二段146-2號","121.471908333333","25.0598033333333","6500200","三重區"
"241013","270-UM","2017/11/23 21:19:42","新北市三重區仁愛街81-1號","121.49603","25.0732466666667","6500200","三重區"
"241025","271-UM","2017/11/23 21:19:43","新北市三重區中正北路208巷10弄4號","121.482425","25.06694","6500200","三重區"
"241007","398-BY","2017/11/23 21:19:38","新北市三重區自強路三段72號","121.486808333333","25.073345","6500200","三重區"
"241004","475-VK","2017/11/23 21:19:45","新北市三重區碧華街213號","121.488593333333","25.0828333333333","6500200","三重區"
"241030","480-VK","2017/11/23 21:19:44","新北市三重區頂崁街23號","121.476451666667","25.056385","6500200","三重區"
"241014","543-UM","2017/11/23 21:19:54","新北市三重區萬全街11號","121.499335","25.069595","6500200","三重區"
"241023","545-UM","2017/11/23 21:19:41","新北市三重區中正北路176巷27號","121.482645","25.0659116666667","6500200","三重區"
"241006","AAD-863","2017/11/23 21:19:40","新北市三重區重陽路二段67號","121.487778333333","25.0638216666667","6500200","三重區"
"241012","941-UM","2017/11/23 21:19:42","新北市三重區龍門路282號","121.501871666667","25.0741633333333","6500200","三重區"
"241029","942-UM","2017/11/23 21:19:43","新北市三重區新北大道一段56號","121.48739","25.0614566666667","6500200","三重區"
"241033","AAC-255","2017/11/23 21:19:36","新北市三重區光復路二段126巷27號","121.470751666667","25.0588266666667","6500200","三重區"
"247022","893-R6","2017/11/23 21:19:51","新北市蘆洲區三民路222號","121.468693333333","25.0892283333333","6501400","蘆洲區"
"247012","546-UM","2017/11/23 21:19:59","新北市蘆洲區集賢路224巷29號","121.48131","25.0875133333333","6501400","蘆洲區"
"247020","500-BY","2017/11/23 21:19:54","新北市蘆洲區民族路422巷35號","121.473493333333","25.0935516666667","6501400","蘆洲區"
"247010","339-TH","2017/11/23 21:19:41","新北市蘆洲區鷺江街23號","121.478831666667","25.0824316666667","6501400","蘆洲區"
"247002","337-TH","2017/11/23 21:19:40","新北市蘆洲區永樂街49號","121.456811666667","25.0884066666667","6501400","蘆洲區"
"247004","335-TH","2017/11/23 21:19:54","新北市蘆洲區長安街267巷31號","121.456966666667","25.082885","6501400","蘆洲區"
"247006","056-VK","2017/11/23 21:19:39","新北市蘆洲區長安街59號","121.462946666667","25.0797816666667","6501400","蘆洲區"
"247008","053-VK","2017/11/23 21:19:38","新北市蘆洲區中山一路103巷20號","121.475791666667","25.0811583333333","6501400","蘆洲區"
"247014","007-UY","2017/11/23 21:19:58","新北市蘆洲區保和街50-5號","121.4698","25.0862933333333","6501400","蘆洲區"
"247024","002-UY","2017/11/23 21:19:37","新北市蘆洲區光明路96號","121.463106666667","25.0879383333333","6501400","蘆洲區"
"247018","001-UY","2017/11/23 21:19:56","新北市蘆洲區復興路105巷9號","121.476426666667","25.0883383333333","6501400","蘆洲區"
"251009","008-UM","2017/11/23 21:19:41","新北市淡水區民族路33巷16-16號","121.462791666667","25.1357316666667","6501000","淡水區"
"251004","009-UM","2017/11/23 21:19:56","新北市淡水區民族路33號","121.462241666667","25.1358116666667","6501000","淡水區"
"251005","010-UM","2017/11/23 21:19:48","新北市淡水區仁愛街18巷2號","121.446856666667","25.17043","6501000","淡水區"
"251008","181-VK","2017/11/23 21:19:41","新北市淡水區水源街二段240號","121.461236666667","25.1762733333333","6501000","淡水區"
"251014","182-VK","2017/11/23 21:19:40","新北市淡水區六塊厝2-1號","121.450211666667","25.2405216666667","6501000","淡水區"
"251010","413-VK","2017/11/23 21:19:53","新北市淡水區中正路一段156巷51號","121.421756666667","25.181065","6501000","淡水區"
"251012","441-VK","2017/11/23 21:19:40","新北市淡水區石頭埔8號","121.452618333333","25.23455","6501000","淡水區"
"251016","442-VK","2017/11/23 21:19:42","新北市淡水區牛埔子10-1號","121.449928333333","25.2184316666667","6501000","淡水區"
"251001","559-UM","2017/11/23 21:19:42","新北市淡水區中山北路二段227號","121.444168333333","25.1861016666667","6501000","淡水區"
"251006","561-UM","2017/11/23 21:19:37","新北市淡水區中正路一段122號","121.423268333333","25.17829","6501000","淡水區"
"251011","650-BX","2017/11/23 21:19:43","新北市淡水區新民街120巷29號","121.438851666667","25.1788066666667","6501000","淡水區"
"251002","672-BX","2017/11/23 21:16:13","新北市淡水區英專路151號","121.44837","25.1748616666667","6501000","淡水區"
"251003","766-UM","2017/11/23 21:19:46","新北市淡水區新春街85巷25弄33號","121.438891666667","25.184245","6501000","淡水區"
"242048","441-UM","2017/11/23 21:19:52","新北市樹林區中山路三段210號","121.382686666667","24.96617","6500500","新莊區"
"221012","276-VK","2017/11/23 13:19:04","新北市汐止區汐萬路一段256巷3號","121.653446666667","25.0746266666667","6501100","汐止區"
"221021","567-BX","2017/11/23 21:14:14","新北市汐止區汐萬路一段256巷3號","121.652445","25.0746416666667","6501100","汐止區"
"242001","281-VK","2017/11/23 16:04:16","新北市新莊區環河路636-7號","121.437275","25.0112983333333","6500500","新莊區"
"220062","305-R5","2017/11/23 20:58:21","新北市板橋區民生路二段161巷9號","121.470311666667","25.0196733333333","6500100","板橋區"
"220070","AAC-253","2017/11/23 21:19:48","新北市八里區中山路三段409號","121.369576666667","25.136255","6500100","板橋區"
