"lineid","car","time","location","longitude","latitude","cityid","cityname"
"244019","403-UM","2017/11/23 20:37:43","新北市林口區粉寮69號","121.405046666667","25.0907916666667","6501700","林口區"
"247003","335-TH","2017/11/23 22:19:47","新北市五股區中興路三段163號","121.449133333333","25.08093","6501400","蘆洲區"
"247008","053-VK","2017/11/23 22:19:38","新北市五股區中興路三段163號","121.449233333333","25.0807183333333","6501400","蘆洲區"
"251004","009-UM","2017/11/23 22:19:56","新北市淡水區民族路33號","121.462248333333","25.135795","6501000","淡水區"
"251007","179-VK","2017/11/23 22:19:58","新北市淡水區北新路137號","121.449456666667","25.1788333333333","6501000","淡水區"
"251008","181-VK","2017/11/23 22:19:41","新北市淡水區學府路104號","121.449835","25.1717883333333","6501000","淡水區"
"251016","442-VK","2017/11/23 22:19:42","新北市淡水區水碓街7號","121.44315","25.1771083333333","6501000","淡水區"
"251006","561-UM","2017/11/23 22:19:57","新北市淡水區沙崙路200號","121.42468","25.1838483333333","6501000","淡水區"
"221012","276-VK","2017/11/23 13:19:04","新北市汐止區汐萬路一段256巷3號","121.653446666667","25.0746266666667","6501100","汐止區"
"221021","567-BX","2017/11/23 21:14:14","新北市汐止區汐萬路一段256巷3號","121.652445","25.0746416666667","6501100","汐止區"
"242001","281-VK","2017/11/23 16:04:16","新北市新莊區環河路636-7號","121.437275","25.0112983333333","6500500","新莊區"
"220062","305-R5","2017/11/23 21:37:23","新北市板橋區民生路二段120號","121.470313333333","25.0197883333333","6500100","板橋區"
