"lineid","car","time","location","longitude","latitude","cityid","cityname"
"248005","653-BX","2017/09/21 10:08:03","新北市五股區更洲路47-1號","121.456685","25.0795383333333","6501500","五股區"
"244018","403-UM","2017/09/21 10:08:01","新北市林口區麗園二街42巷24號","121.381436666667","25.06672","6501700","林口區"
"244022","483-VK","2017/09/21 10:08:11","新北市林口區仁愛路二段700號","121.369205","25.0808283333333","6501700","林口區"
"244025","837-TS","2017/09/21 09:36:53","新北市林口區粉寮路二段160巷28號","121.405206666667","25.090745","6501700","林口區"
"222004","289-BY","2017/09/21 10:07:52","新北市深坑區大崙尾4號","121.61341","24.9749716666667","6501800","深坑區"
"231069","189-VK","2017/09/21 10:08:06","新北市新店區新潭路三段215巷25號","121.50814","24.9041","6500600","新店區"
"231008","192-VK","2017/09/21 09:43:39","新北市新店區平廣路一段256號","121.507888333333","24.8882866666667","6500600","新店區"
"253003","6232-TK","2017/09/21 10:07:59","新北市石門區尖子鹿101-2號","121.58128","25.2928633333333","6502200","石門區"
"253001","6251-TK","2017/09/21 10:08:12","新北市石門區崁子腳47-4號","121.534703333333","25.284005","6502200","石門區"
"253002","637-UY","2017/09/21 10:08:06","新北市石門區中央路1-9號","121.564995","25.2911583333333","6502200","石門區"
"253004","8270-PC","2017/09/21 10:05:30","新北市石門區內阿里磅50號","121.580773333333","25.2460133333333","6502200","石門區"
"252004","249-BX","2017/09/21 10:08:00","新北市三芝區福德里土地公埔47號","121.515666666667","25.225975","6502100","三芝區"
"252007","AAC-283","2017/09/21 10:08:10","新北市三芝區新庄里新庄子58-1號","121.507755","25.2756033333333","6502100","三芝區"
"237001","159-UY","2017/09/21 10:08:02","新北市三峽區國際一街19號","121.373873333333","24.9428283333333","6500900","三峽區"
"236005","498-BY","2017/09/21 10:07:39","新北市土城區城林路6巷80號","121.438693333333","24.9797516666667","6501300","土城區"
"242045","441-UM","2017/09/21 10:08:10","新北市新莊區富國路22巷8號","121.418346666667","25.0258716666667","6500500","新莊區"
"242003","413-TV","2017/09/21 10:08:05","新北市新莊區瓊林路13-3號","121.448823333333","25.0309233333333","6500500","新莊區"
