"lineid","car","time","location","longitude","latitude","cityid","cityname"
"248005","653-BX","2017/09/21 10:28:03","新北市五股區中興路二段83巷26-6號","121.459936666667","25.07497","6501500","五股區"
"244018","403-UM","2017/09/21 10:28:01","新北市林口區仁愛路二段201-1號","121.37764","25.0744266666667","6501700","林口區"
"244025","837-TS","2017/09/21 09:36:53","新北市林口區粉寮路二段160巷28號","121.405206666667","25.090745","6501700","林口區"
"222004","289-BY","2017/09/21 10:27:52","新北市深坑區王軍寮1號","121.620668333333","24.9858316666667","6501800","深坑區"
"231069","189-VK","2017/09/21 10:28:05","新北市新店區小坑三路51號","121.516891666667","24.9085283333333","6500600","新店區"
"231008","192-VK","2017/09/21 10:28:07","新北市新店區小坑一路21-1號","121.530331666667","24.91212","6500600","新店區"
"253003","6232-TK","2017/09/21 10:27:59","新北市石門區小坑9號","121.594368333333","25.289115","6502200","石門區"
"253001","6251-TK","2017/09/21 10:27:52","新北市石門區阿里磅1號","121.591331666667","25.290925","6502200","石門區"
"253002","637-UY","2017/09/21 10:28:02","新北市石門區小坑9號","121.594525","25.289145","6502200","石門區"
"253004","8270-PC","2017/09/21 10:28:10","新北市石門區茂林社區221號","121.593011666667","25.2699766666667","6502200","石門區"
"252007","AAC-283","2017/09/21 10:28:10","新北市三芝區新庄里番社后18號","121.497793333333","25.27401","6502100","三芝區"
"237001","159-UY","2017/09/21 10:28:02","新北市三峽區三樹路64號","121.377771666667","24.9382816666667","6500900","三峽區"
"236005","498-BY","2017/09/21 10:27:59","新北市土城區永寧路36-1號","121.42819","24.959135","6501300","土城區"
