"lineid","car","time","location","longitude","latitude","cityid","cityname"
"248005","653-BX","2017/09/21 11:00:46","新北市五股區中興路二段83巷26-6號","121.45994","25.0750666666667","6501500","五股區"
"248011","655-BX","2017/09/21 10:45:27","新北市五股區中興路二段83巷26-6號","121.459825","25.07538","6501500","五股區"
"244025","837-TS","2017/09/21 09:36:53","新北市林口區粉寮路二段160巷28號","121.405206666667","25.090745","6501700","林口區"
"231069","189-VK","2017/09/21 11:18:05","新北市新店區新潭路一段140巷11號","121.527995","24.9347766666667","6500600","新店區"
"231008","192-VK","2017/09/21 11:08:28","新北市新店區成功路50巷15號","121.5391","24.9001383333333","6500600","新店區"
"252007","AAC-283","2017/09/21 10:48:05","新北市三芝區埔坪里埔頭坑41號","121.504551666667","25.2644383333333","6502100","三芝區"
