"lineid","car","time","location","longitude","latitude","cityid","cityname"
"248005","653-BX","2017/09/21 11:00:46","新北市五股區中興路二段83巷26-6號","121.45994","25.0750666666667","6501500","五股區"
"248011","655-BX","2017/09/21 10:45:27","新北市五股區中興路二段83巷26-6號","121.459825","25.07538","6501500","五股區"
"244025","837-TS","2017/09/21 11:22:22","新北市林口區粉寮路二段160巷28號","121.405218333333","25.0908066666667","6501700","林口區"
"231008","192-VK","2017/09/21 11:58:07","新北市新店區頂石厝路44號","121.536091666667","24.91768","6500600","新店區"
"228005","097-TW","2017/09/21 11:57:48","新北市貢寮區貢寮里朝陽街1-2號","121.912348333333","25.0212983333333","6502600","貢寮區"
"228004","212-TW","2017/09/21 11:57:57","新北市貢寮區貢寮里朝陽街1-2號","121.912205","25.0212533333333","6502600","貢寮區"
"252007","AAC-283","2017/09/21 10:48:05","新北市三芝區埔坪里埔頭坑41號","121.504551666667","25.2644383333333","6502100","三芝區"
"221012","276-VK","2017/09/21 11:57:54","新北市汐止區康寧街901號","121.651201666667","25.07512","6501100","汐止區"
