"lineid","car","time","location","longitude","latitude","cityid","cityname"
"234044","148-BY","2017/09/21 14:01:58","新北市永和區永利路156號","121.522668333333","25.0025933333333","6500400","永和區"
"234012","149-BY","2017/09/21 14:01:45","新北市永和區保生路55號","121.504715","25.010595","6500400","永和區"
"234005","208-UY","2017/09/21 14:01:48","新北市永和區中和路503號","121.510621666667","25.002345","6500400","永和區"
"234078","298-R6","2017/09/21 14:01:55","新北市永和區國中路41號","121.524503333333","25.0056916666667","6500400","永和區"
"234036","336-UY","2017/09/21 14:01:55","新北市永和區成功路二段80號","121.526678333333","24.998815","6500400","永和區"
"234062","337-UY","2017/09/21 14:01:47","新北市永和區永利路73號","121.521025","25.00381","6500400","永和區"
"234084","338-UY","2017/09/21 14:01:52","新北市永和區福和路252號","121.518583333333","25.0076283333333","6500400","永和區"
"234068","552-UM","2017/09/21 14:02:01","新北市永和區永亨路59號","121.521006666667","25.00631","6500400","永和區"
"234052","553-UM","2017/09/21 14:01:44","新北市永和區竹林路39巷38號","121.51993","25.0151683333333","6500400","永和區"
"234015","745-BX","2017/09/21 14:02:00","新北市永和區文化路120號","121.513176666667","25.0153266666667","6500400","永和區"
"234028","746-BX","2017/09/21 14:01:46","新北市永和區民生路47巷16號","121.523888333333","24.99767","6500400","永和區"
"234060","AAD-866","2017/09/21 14:01:59","新北市永和區中正路151巷14號","121.515618333333","24.9988416666667","6500400","永和區"
"234030","847-RS","2017/09/21 12:31:07","新北市永和區福和路1號","121.52661","25.009865","6500400","永和區"
"234040","862-TW","2017/09/21 14:01:51","新北市永和區雙和街17巷6號","121.509231666667","25.0017933333333","6500400","永和區"
"234048","863-TW","2017/09/21 13:17:50","新北市永和區仁愛路152號","121.510778333333","25.0130566666667","6500400","永和區"
"234010","9373-KE","2017/09/21 14:01:59","新北市永和區仁愛路352巷112弄17號","121.501101666667","25.00867","6500400","永和區"
"249001","173-UM","2017/09/21 14:01:53","新北市八里區龍米路二段58-1號","121.448268333333","25.141015","6502300","八里區"
"248015","026-BX","2017/09/21 14:01:50","新北市五股區成泰路三段559巷14弄2號","121.451346666667","25.1024383333333","6501500","五股區"
"248007","095-VK","2017/09/21 14:01:47","新北市五股區中興路一段118巷6弄9號","121.466241666667","25.07459","6501500","五股區"
"248017","225-UY","2017/09/21 14:01:57","新北市五股區民義路一段287巷3號","121.425206666667","25.0922166666667","6501500","五股區"
"248009","272-BY","2017/09/21 14:01:57","新北市五股區水碓一路23號","121.430715","25.07133","6501500","五股區"
"248005","653-BX","2017/09/21 12:44:17","新北市五股區中興路二段83巷26-6號","121.459906666667","25.07504","6501500","五股區"
"248011","655-BX","2017/09/21 14:01:50","新北市五股區工商路34號","121.439386666667","25.0835666666667","6501500","五股區"
"248003","677-BX","2017/09/21 14:01:56","新北市五股區民義路二段50-29號","121.412146666667","25.1028666666667","6501500","五股區"
"248001","678-BX","2017/09/21 14:02:01","新北市五股區凌雲路一段158巷12號","121.447751666667","25.1032983333333","6501500","五股區"
"234022","9380-KE","2017/09/21 14:01:55","新北市永和區博愛街31巷11號","121.518338333333","25.0160816666667","6500400","永和區"
"234076","969-R7","2017/09/21 14:01:49","新北市永和區民權路58巷2弄1號","121.519498333333","24.9983683333333","6500400","永和區"
"234072","AAC-211","2017/09/21 14:01:56","新北市永和區竹林路201巷24弄1號","121.522235","25.0096716666667","6500400","永和區"
"234066","AAC-212","2017/09/21 14:01:59","新北市永和區保平路214巷1弄12號","121.50902","25.0057866666667","6500400","永和區"
"234001","AAC-295","2017/09/21 14:01:47","新北市永和區福和路352號","121.514706666667","25.00737","6500400","永和區"
"244025","837-TS","2017/09/21 11:22:22","新北市林口區粉寮路二段160巷28號","121.405218333333","25.0908066666667","6501700","林口區"
"243005","AAD-798","2017/09/21 14:01:47","新北市泰山區明志路三段351巷25號","121.42289","25.03485","6501600","泰山區"
"243001","297-R6","2017/09/21 14:01:43","新北市泰山區福德街18號","121.43218","25.062695","6501600","泰山區"
"243007","380-SR","2017/09/21 14:01:59","新北市泰山區明志路一段252號","121.43231","25.0607816666667","6501600","泰山區"
"243006","421-VK","2017/09/21 14:01:55","新北市泰山區黎明路2-5號","121.420875","25.0626166666667","6501600","泰山區"
"243002","KEA-2215","2017/09/21 14:01:51","新北市泰山區明志路一段352巷15弄24號","121.429346666667","25.0588583333333","6501600","泰山區"
"243003","KEA-2216","2017/09/21 14:01:46","新北市泰山區明志路二段298巷10號","121.426103333333","25.0466533333333","6501600","泰山區"
"243004","646-TV","2017/09/21 14:01:53","新北市泰山區同義街13巷29號","121.432238333333","25.057305","6501600","泰山區"
"243008","680-BX","2017/09/21 14:01:49","新北市泰山區明志路二段311號","121.426555","25.046355","6501600","泰山區"
"231002","002-UM","2017/09/21 14:01:51","新北市新店區中正路608號","121.533876666667","24.9883916666667","6500600","新店區"
"231024","0293-UT","2017/09/21 14:01:54","新北市新店區力行路5號","121.53939","24.9646066666667","6500600","新店區"
"231028","046-UY","2017/09/21 14:01:59","新北市新店區安和路三段83號","121.517916666667","24.9838066666667","6500600","新店區"
"231030","047-UY","2017/09/21 14:01:59","新北市新店區安興路7-1號","121.515006666667","24.96853","6500600","新店區"
"231029","106-UY","2017/09/21 14:01:52","新北市新店區安康路二段22號","121.515915","24.9637833333333","6500600","新店區"
"231018","107-UY","2017/09/21 14:01:43","新北市新店區中央路192號","121.530798333333","24.9747233333333","6500600","新店區"
"231011","108-UY","2017/09/21 14:01:45","新北市新店區中興路一段282號","121.54591","24.96846","6500600","新店區"
"231021","187-VK","2017/09/21 14:01:56","新北市新店區自強路109號","121.546146666667","24.9232333333333","6500600","新店區"
"231007","189-VK","2017/09/21 12:00:00","新北市新店區安華路28-1號","121.51972","24.9610933333333","6500600","新店區"
"231017","215-TC","2017/09/21 14:01:59","新北市新店區北宜路二段82-7號","121.554148333333","24.9534683333333","6500600","新店區"
"231026","256-BX","2017/09/21 14:01:58","新北市新店區環河路29巷1號","121.536203333333","24.9613266666667","6500600","新店區"
"231023","AAD-862","2017/09/21 14:01:46","新北市新店區文中路35巷12號","121.539758333333","24.9567366666667","6500600","新店區"
"231027","3712-VJ","2017/09/21 14:01:50","新北市新店區中興路一段34號","121.538786666667","24.95854","6500600","新店區"
"231025","4716-K9","2017/09/21 14:01:56","新北市新店區中正路314號","121.537203333333","24.9746883333333","6500600","新店區"
"231038","4715-K9","2017/09/21 14:01:44","新北市新店區溪洲路121號","121.531433333333","24.9626316666667","6500600","新店區"
"231036","512-UM","2017/09/21 14:01:44","新北市新店區安祥路106-19號","121.47617","24.9602583333333","6500600","新店區"
"231035","515-UM","2017/09/21 14:01:47","新北市新店區安和路一段52巷2號","121.517636666667","24.9661983333333","6500600","新店區"
"231001","619-UM","2017/09/21 14:01:51","新北市新店區三民路24號","121.537161666667","24.971135","6500600","新店區"
"231003","641-BX","2017/09/21 14:01:43","新北市新店區北宜路一段3號","121.538441666667","24.9584083333333","6500600","新店區"
"231034","645-TV","2017/09/21 14:01:58","新北市新店區達觀路10號","121.503756666667","24.9438416666667","6500600","新店區"
"231013","719-UM","2017/09/21 14:01:49","新北市新店區大豐路16巷2號","121.54086","24.9803766666667","6500600","新店區"
"231031","720-UM","2017/09/21 14:01:55","新北市新店區太平路44號","121.533043333333","24.9592483333333","6500600","新店區"
"231005","897-TW","2017/09/21 14:02:00","新北市新店區中興路三段184號","121.543998333333","24.98144","6500600","新店區"
"231006","898-TW","2017/09/21 14:01:57","新北市新店區北宜路二段209號","121.55312","24.953455","6500600","新店區"
"231004","899-TW","2017/09/21 14:01:55","新北市新店區北新路二段184號","121.542905","24.97627","6500600","新店區"
"231037","AKT-0513","2017/09/21 14:02:01","新北市新店區安康路三段207巷15號","121.48837","24.950785","6500600","新店區"
"235030","003-UY","2017/09/21 14:01:46","新北市中和區光華街33號","121.505016666667","25.0040016666667","6500300","中和區"
"235028","005-UY","2017/09/21 14:01:56","新北市中和區泰和街32號","121.49946","25.000375","6500300","中和區"
"235027","006-UY","2017/09/21 14:02:01","新北市中和區中正路512號","121.488403333333","24.9944","6500300","中和區"
"235020","096-UM","2017/09/21 14:01:39","新北市中和區中正路1206巷10號","121.48024","25.0111183333333","6500300","中和區"
"235003","097-UM","2017/09/21 14:01:57","新北市中和區自立路58巷2號","121.523613333333","24.991575","6500300","中和區"
"235029","098-UM","2017/09/21 14:01:58","新北市中和區福祥路158號","121.4986","25.0077483333333","6500300","中和區"
"235004","150-BY","2017/09/21 14:01:41","新北市中和區保健路46巷20弄4號","121.508896666667","24.9962216666667","6500300","中和區"
"235022","151-BY","2017/09/21 14:01:59","新北市中和區連城路525-8號","121.48094","24.9949","6500300","中和區"
"235019","183-VK","2017/09/21 14:02:00","新北市板橋區民族路276巷1弄25號","121.470546666667","25.0064566666667","6500300","中和區"
"235002","185-VK","2017/09/21 14:01:50","新北市中和區立人街24-5號","121.518816666667","24.9941983333333","6500300","中和區"
"235013","186-VK","2017/09/21 14:01:49","新北市中和區明仁街18號","121.506258333333","24.995295","6500300","中和區"
"235031","255-BX","2017/09/21 14:01:50","新北市中和區新生街191號","121.483766666667","25.00029","6500300","中和區"
"235008","293-VK","2017/09/21 14:01:49","新北市中和區中興街119號","121.499986666667","24.99192","6500300","中和區"
"235036","301-VK","2017/09/21 14:01:50","新北市中和區中山路二段103號","121.503336666667","25.0038883333333","6500300","中和區"
"235007","352-BY","2017/09/21 14:02:02","新北市中和區秀朗路三段105號","121.526441666667","24.9947283333333","6500300","中和區"
"235015","376-QA","2017/09/21 14:01:51","新北市中和區忠孝街19巷33號","121.509503333333","24.98458","6500300","中和區"
"235032","377-QA","2017/09/21 02:27:28","新北市中和區員山路36巷16-3號","121.485133333333","24.991195","6500300","中和區"
"235025","378-QA","2017/09/21 14:01:48","新北市中和區中山路三段81號","121.475906666667","25.0059366666667","6500300","中和區"
"235014","4979-A6","2017/09/21 14:01:53","新北市中和區復興路8號","121.506098333333","24.9898166666667","6500300","中和區"
"235033","4980-A6","2017/09/21 14:01:56","新北市中和區中和路165巷3號","121.502793333333","25.0001933333333","6500300","中和區"
"235006","551-UM","2017/09/21 14:01:47","新北市中和區秀朗路三段128巷1弄7-1號","121.524215","24.9919333333333","6500300","中和區"
"235034","558-UM","2017/09/21 14:02:04","新北市中和區中和路174號","121.504713333333","24.9996766666667","6500300","中和區"
"235009","565-BX","2017/09/21 14:01:59","新北市中和區景新街467巷15弄2號","121.514131666667","24.98846","6500300","中和區"
"235018","640-BX","2017/09/21 14:02:00","新北市中和區民享街2巷2號","121.473836666667","25.005795","6500300","中和區"
"235024","647-TV","2017/09/21 14:01:56","新北市中和區民治街3巷1號","121.474953333333","25.005415","6500300","中和區"
"235011","732-UM","2017/09/21 14:01:54","新北市中和區興南路二段107號","121.505831666667","24.9845083333333","6500300","中和區"
"235010","733-UM","2017/09/21 14:01:43","新北市中和區興南路一段117巷5弄5號","121.509625","24.9873633333333","6500300","中和區"
"235026","800-TS","2017/09/21 14:01:45","新北市中和區中山路二段340巷64號","121.493111666667","25.0049216666667","6500300","中和區"
"235021","801-TS","2017/09/21 14:01:45","新北市中和區民利街60號","121.47899","24.99883","6500300","中和區"
"235005","802-TS","2017/09/21 14:01:58","新北市中和區中安街32號","121.513166666667","25.0028083333333","6500300","中和區"
"235016","805-TS","2017/09/21 14:01:45","新北市中和區興南路二段131-6號","121.503945","24.98115","6500300","中和區"
"235012","896-TW","2017/09/21 14:01:56","新北市中和區華新街56號","121.508008333333","24.98396","6500300","中和區"
"235017","900-TW","2017/09/21 14:01:58","新北市中和區民德路394號","121.466075","24.99362","6500300","中和區"
"235001","AAC-213","2017/09/21 14:01:51","新北市中和區秀朗路三段10巷14弄41-5號","121.524148333333","24.99644","6500300","中和區"
"235023","AAC-215","2017/09/21 14:01:56","新北市中和區圓通路417-39號","121.489166666667","24.988095","6500300","中和區"
"220016","013-TV","2017/09/21 14:01:57","新北市板橋區三民路一段31巷39號","121.480715","25.0232516666667","6500100","板橋區"
"220013","072-UY","2017/09/21 14:01:55","新北市板橋區民族路283號","121.471163333333","25.00679","6500100","板橋區"
"220034","073-UY","2017/09/21 14:01:55","新北市板橋區中正路80巷15號","121.457433333333","25.0146733333333","6500100","板橋區"
"220105","075-UY","2017/09/21 14:02:03","新北市板橋區莒光路38號","121.470375","25.0245066666667","6500100","板橋區"
"220017","AAD-861","2017/09/21 14:01:53","新北市板橋區華興街61號","121.457345","25.0048916666667","6500100","板橋區"
"247021","893-R6","2017/09/21 14:01:41","新北市蘆洲區中正路285號","121.466858333333","25.0880233333333","6501400","蘆洲區"
"247019","500-BY","2017/09/21 14:01:45","新北市蘆洲區民族路422巷104號","121.473096666667","25.09408","6501400","蘆洲區"
"247009","339-TH","2017/09/21 14:01:51","新北市蘆洲區集賢路400號","121.480206666667","25.0820166666667","6501400","蘆洲區"
"247001","337-TH","2017/09/21 14:02:03","新北市蘆洲區永平街32巷51號","121.45981","25.0925716666667","6501400","蘆洲區"
"247003","336-TH","2017/09/21 14:02:01","新北市蘆洲區中華街42巷4號","121.46219","25.081225","6501400","蘆洲區"
"247015","057-VK","2017/09/21 14:01:47","新北市蘆洲區中正路109巷6號","121.46926","25.0841716666667","6501400","蘆洲區"
"247005","056-VK","2017/09/21 14:01:56","新北市蘆洲區九芎街126號","121.465211666667","25.079245","6501400","蘆洲區"
"247007","053-VK","2017/09/21 14:01:58","新北市三重區三和路四段396巷43號","121.479546666667","25.0788483333333","6501400","蘆洲區"
"247013","007-UY","2017/09/21 14:01:56","新北市蘆洲區中正路168號","121.468743333333","25.085905","6501400","蘆洲區"
"247017","001-UY","2017/09/21 14:01:50","新北市蘆洲區民族路327巷13弄2號","121.475013333333","25.0904016666667","6501400","蘆洲區"
"226004","205-ST","2017/09/21 14:01:51","新北市新店區吉安街34號","121.515971666667","24.9659916666667","6502400","平溪區"
"228005","097-TW","2017/09/21 13:59:27","新北市貢寮區美豐里雞母嶺街52-1號","121.888531666667","25.0685183333333","6502600","貢寮區"
"228004","212-TW","2017/09/21 14:01:56","新北市平溪區平湖里坑頭2號","121.910401666667","25.017195","6502600","貢寮區"
"227004","400-TW","2017/09/21 14:01:59","新北市雙溪區三貂里政光路3-1號","121.850955","25.0631766666667","6502500","雙溪區"
"208004","AAC-292","2017/09/21 14:01:46","新北市金山區山城路91號","121.59886","25.200165","6502700","金山區"
"207002","749-BX","2017/09/21 14:01:56","新北市萬里區溪底里富士坪路21號","121.627801666667","25.1490883333333","6502800","萬里區"
"252005","073-UM","2017/09/21 14:00:09","新北市三芝區圓山里二坪頂67號","121.5395","25.233325","6502100","三芝區"
"207001","662-BX","2017/09/21 14:01:46","新北市萬里區磺潭里清水18號","121.637658333333","25.19805","6502800","萬里區"
"236066","105-UM","2017/09/21 14:01:52","新北市土城區員福街50號","121.440461666667","24.97917","6501300","土城區"
"236040","107-UM","2017/09/21 14:01:44","新北市土城區中華路二段2號","121.43956","24.9796066666667","6501300","土城區"
"236076","166-UM","2017/09/21 14:02:01","新北市土城區永寧路43號","121.42998","24.9618116666667","6501300","土城區"
"236028","253-BX","2017/09/21 14:01:54","新北市土城區忠義路2號","121.440165","24.9703216666667","6501300","土城區"
"236024","269-VK","2017/09/21 14:01:55","新北市土城區承天路67號","121.439606666667","24.9635433333333","6501300","土城區"
"236012","270-VK","2017/09/21 14:01:45","新北市土城區中華路一段301號","121.439753333333","24.9794916666667","6501300","土城區"
"236033","271-VK","2017/09/21 14:01:55","新北市土城區學士路123號","121.446501666667","24.9759316666667","6501300","土城區"
"236018","401-BY","2017/09/21 14:01:55","新北市土城區城林路6巷80號","121.438678333333","24.9797766666667","6501300","土城區"
"236005","498-BY","2017/09/21 14:01:54","新北市土城區中央路一段61號","121.447858333333","24.990155","6501300","土城區"
"236056","912-UM","2017/09/21 14:01:55","新北市土城區中央路三段198號","121.430316666667","24.96487","6501300","土城區"
"236047","913-UM","2017/09/21 14:01:06","新北市土城區中華路二段2號","121.438843333333","24.979855","6501300","土城區"
"236060","915-UM","2017/09/21 14:01:53","新北市土城區城林路6巷80號","121.43845","24.979875","6501300","土城區"
"236047","970-R7","2017/09/21 14:02:00","新北市土城區中央路一段203號","121.445915","24.9867833333333","6501300","土城區"
"236052","AAC-216","2017/09/21 14:01:51","新北市土城區城林路6巷80號","121.438401666667","24.97982","6501300","土城區"
"221012","276-VK","2017/09/21 13:23:24","新北市汐止區汐萬路一段256巷3號","121.653466666667","25.0746033333333","6501100","汐止區"
"221035","622-UM","2017/09/21 14:01:49","台北市文山區新光路二段74巷1-1號","121.593636666667","24.99683","6501100","汐止區"
"221002","707-TV","2017/09/21 14:01:59","新北市汐止區汐萬路一段182號","121.652301666667","25.0719233333333","6501100","汐止區"
"220027","145-BY","2017/09/21 14:02:02","新北市板橋區民權路202巷9弄29號","121.459396666667","25.0157016666667","6500100","板橋區"
"220028","200-UY","2017/09/21 14:02:02","新北市板橋區大觀路二段265巷1弄14號","121.443533333333","24.9984633333333","6500100","板橋區"
"220030","610-BX","2017/09/21 14:01:56","新北市板橋區滿平街139號","121.428973333333","24.9881183333333","6500100","板橋區"
"220050","245-BX","2017/09/21 14:01:44","新北市板橋區文化路二段182巷27號","121.472475","25.0266516666667","6500100","板橋區"
"220004","276-BY","2017/09/21 14:01:55","新北市板橋區信義路136號","121.458621666667","24.9921666666667","6500100","板橋區"
"220020","277-BY","2017/09/21 14:02:00","新北市板橋區大觀路三段50巷91號","121.431153333333","24.9965583333333","6500100","板橋區"
"220012","280-UM","2017/09/21 14:01:56","新北市板橋區中山路二段5號","121.471728333333","25.01494","6500100","板橋區"
"220043","283-UM","2017/09/21 14:01:54","新北市板橋區光武街65號","121.467345","25.0259933333333","6500100","板橋區"
"220019","283-VK","2017/09/21 14:01:43","新北市板橋區忠孝路154巷49號","121.464418333333","25.0009016666667","6500100","板橋區"
"220001","285-VK","2017/09/21 14:01:43","新北市板橋區太和街3巷20號","121.473405","25.019385","6500100","板橋區"
"220031","286-VK","2017/09/21 14:01:49","新北市板橋區大觀路一段38巷156弄10號","121.442403333333","25.0047733333333","6500100","板橋區"
"220029","287-VK","2017/09/21 13:46:31","新北市板橋區大觀路一段30號","121.44894","25.00913","6500100","板橋區"
"220039","288-VK","2017/09/21 14:01:41","新北市板橋區互助街25巷9號","121.463165","25.026925","6500100","板橋區"
"220009","293-UM","2017/09/21 14:01:57","新北市板橋區永豐街120巷2弄9-2號","121.47641","25.02029","6500100","板橋區"
"220023","297-UM","2017/09/21 14:02:01","新北市板橋區南雅東路88號","121.453926666667","25.00764","6500100","板橋區"
"220010","303-R5","2017/09/21 14:01:52","新北市板橋區三民路二段245巷2弄24-1號","121.480765","25.0117733333333","6500100","板橋區"
"220041","307-R5","2017/09/21 14:01:57","新北市板橋區文化路一段136巷8弄2-3號","121.4655","25.0183866666667","6500100","板橋區"
"220047","317-R6","2017/09/21 14:01:58","新北市板橋區民有街47號","121.465511666667","25.025905","6500100","板橋區"
"220038","487-VK","2017/09/21 14:01:49","新北市板橋區文聖街14號","121.475645","25.0321516666667","6500100","板橋區"
"220037","491-VK","2017/09/21 14:02:02","新北市板橋區文化路二段16-2號","121.468786666667","25.0242816666667","6500100","板橋區"
"220104","560-BX","2017/09/21 14:01:44","新北市板橋區中正路375巷27號","121.453828333333","25.0201816666667","6500100","板橋區"
"220052","561-BX","2017/09/21 14:01:46","新北市板橋區文化路一段188巷9弄50號","121.468748333333","25.01876","6500100","板橋區"
"220032","568-UM","2017/09/21 14:01:55","新北市板橋區龍興街35號","121.442975","25.00032","6500100","板橋區"
"220011","609-BX","2017/09/21 14:01:54","新北市板橋區中山路二段113-1號","121.474708333333","25.01627","6500100","板橋區"
"220040","637-BX","2017/09/21 14:01:55","新北市板橋區文聖街182號","121.479346666667","25.0267416666667","6500100","板橋區"
"220005","686-BX","2017/09/21 14:01:55","新北市板橋區館前東路29號","121.460693333333","25.0074166666667","6500100","板橋區"
"220025","687-BX","2017/09/21 14:01:48","新北市板橋區大觀路二段174巷165弄2號","121.441911666667","25.00342","6500100","板橋區"
"220042","689-BX","2017/09/21 14:01:49","新北市板橋區民生路三段64號","121.467033333333","25.0253716666667","6500100","板橋區"
"220002","741-BX","2017/09/21 14:02:01","新北市板橋區後埔街41號","121.460556666667","25.0060616666667","6500100","板橋區"
"220003","827-TW","2017/09/21 14:02:00","新北市板橋區中山路一段160-6號","121.466423333333","25.0122416666667","6500100","板橋區"
"220014","829-TW","2017/09/21 14:02:00","新北市板橋區三民路二段正泰7巷12號","121.478106666667","25.0128916666667","6500100","板橋區"
"220051","830-TW","2017/09/21 14:01:53","新北市板橋區懷德街207巷8號","121.481133333333","25.0291366666667","6500100","板橋區"
"220045","831-TW","2017/09/21 14:02:00","新北市板橋區莒光路161號","121.473778333333","25.024125","6500100","板橋區"
"220022","895-R6","2017/09/21 14:01:44","新北市板橋區南雅南路一段115號","121.455285","25.0048516666667","6500100","板橋區"
"220021","985-R7","2017/09/21 14:01:49","新北市板橋區館前西路152號","121.45535","25.0084116666667","6500100","板橋區"
"220046","AAC-210","2017/09/21 14:01:51","新北市板橋區漢生西路73號","121.462906666667","25.0187816666667","6500100","板橋區"
"220018","AAC-253","2017/09/21 14:01:47","新北市板橋區四川路一段316號","121.458458333333","25.000165","6500100","板橋區"
