"lineid","car","time","location","longitude","latitude","cityid","cityname"
"234030","847-RS","2017/09/21 12:31:07","新北市永和區福和路1號","121.52661","25.009865","6500400","永和區"
"249005","172-UM","2017/09/21 17:19:43","新北市八里區荖阡坑路50-1號","121.412438333333","25.1224716666667","6502300","八里區"
"249001","173-UM","2017/09/21 17:19:33","新北市八里區中華路二段165巷3號","121.40769","25.15083","6502300","八里區"
"249004","303-UY","2017/09/21 17:19:24","新北市八里區文化街50號","121.422943333333","25.1599233333333","6502300","八里區"
"249002","305-UY","2017/09/21 17:19:29","新北市八里區龍米路二段117巷37號","121.4433","25.1418966666667","6502300","八里區"
"249003","593-UM","2017/09/21 17:19:28","新北市八里區商港路80號","121.3955","25.146375","6502300","八里區"
"248005","653-BX","2017/09/21 12:44:17","新北市五股區中興路二段83巷26-6號","121.459906666667","25.07504","6501500","五股區"
"248012","655-BX","2017/09/21 15:25:24","新北市五股區中興路二段83巷26-6號","121.459855","25.0751016666667","6501500","五股區"
"244007","080-UY","2017/09/21 17:19:30","新北市林口區中華路96號","121.384861666667","25.09049","6501700","林口區"
"244019","403-UM","2017/09/21 17:19:41","新北市林口區公園路223巷15號","121.373313333333","25.074825","6501700","林口區"
"244009","410-SL","2017/09/21 17:19:36","新北市林口區松柏路35-1號","121.379856666667","25.0913566666667","6501700","林口區"
"244023","483-VK","2017/09/21 17:19:29","新北市林口區仁愛路一段667巷64號","121.387115","25.0758633333333","6501700","林口區"
"244017","485-VK","2017/09/21 17:19:36","新北市林口區粉寮69號","121.405016666667","25.0908833333333","6501700","林口區"
"244011","656-BX","2017/09/21 17:19:42","新北市林口區粉寮路一段135號","121.398935","25.0811366666667","6501700","林口區"
"244025","837-TS","2017/09/21 17:19:36","新北市林口區中山路258號","121.385213333333","25.079715","6501700","林口區"
"244021","838-TS","2017/09/21 17:19:39","新北市林口區粉寮路二段98號","121.40446","25.0893233333333","6501700","林口區"
"243016","680-BX","2017/09/21 17:19:36","新北市泰山區犁頭窠3-1號","121.421945","25.0605433333333","6501600","泰山區"
"231007","189-VK","2017/09/21 12:00:00","新北市新店區安華路28-1號","121.51972","24.9610933333333","6500600","新店區"
"231046","278-BY","2017/09/21 17:19:46","新北市新店區直潭路92號","121.5309","24.93763","6500600","新店區"
"241011","013-R5","2017/09/21 17:19:46","新北市三重區河邊北街100巷11號","121.503363333333","25.0703333333333","6500200","三重區"
"241028","022-UY","2017/09/21 17:19:33","新北市三重區仁化商場11號","121.493643333333","25.05929","6500200","三重區"
"241009","060-VK","2017/09/21 17:19:39","新北市三重區仁愛街602號","121.484023333333","25.0809583333333","6500200","三重區"
"241015","062-VK","2017/09/21 17:19:43","新北市三重區長元街82-1號","121.501831666667","25.0663266666667","6500200","三重區"
"241017","063-VK","2017/09/21 17:19:44","新北市三重區中正北路9號","121.492875","25.061405","6500200","三重區"
"241024","065-VK","2017/09/21 17:19:33","新北市三重區中正北路193巷21弄24號","121.477753333333","25.0707983333333","6500200","三重區"
"241026","066-VK","2017/09/21 17:19:40","新北市三重區福裕街35號","121.499216666667","25.0615816666667","6500200","三重區"
"241002","090-VK","2017/09/21 17:19:31","新北市三重區仁愛街367號","121.491763333333","25.0801016666667","6500200","三重區"
"241003","091-VK","2017/09/21 17:19:46","新北市三重區富福街52號","121.491716666667","25.0843983333333","6500200","三重區"
"241008","156-TC","2017/09/21 17:19:25","新北市三重區永福街72巷17號","121.479668333333","25.0766116666667","6500200","三重區"
"241005","262-UM","2017/09/21 17:19:29","新北市三重區仁華街20號","121.483398333333","25.0817716666667","6500200","三重區"
"241016","266-UM","2017/09/21 17:19:41","新北市三重區中正北路23號","121.492065","25.0613583333333","6500200","三重區"
"241022","267-UM","2017/09/21 17:19:31","新北市三重區中正北路64巷20號","121.48613","25.06378","6500200","三重區"
"241032","269-UM","2017/09/21 17:19:24","新北市三重區興華街125號","121.483351666667","25.05982","6500200","三重區"
"241013","270-UM","2017/09/21 17:19:39","新北市三重區仁福街36號","121.49702","25.0747033333333","6500200","三重區"
"241025","271-UM","2017/09/21 17:19:40","新北市三重區中正北路263號","121.4752","25.070875","6500200","三重區"
"241007","398-BY","2017/09/21 17:19:45","新北市三重區慈愛街1號","121.484668333333","25.0784116666667","6500200","三重區"
"241029","KEA-2210","2017/09/21 17:19:36","新北市三重區重新路三段176號","121.49075","25.059305","6500200","三重區"
"241020","413-TH","2017/09/21 17:19:45","新北市三重區自強路三段7巷64號","121.488908333333","25.0724983333333","6500200","三重區"
"241004","475-VK","2017/09/21 17:19:42","新北市三重區五華街110巷15號","121.491176666667","25.0823716666667","6500200","三重區"
"241019","478-VK","2017/09/21 17:19:32","新北市三重區自強路二段96-3號","121.487421666667","25.07111","6500200","三重區"
"241030","480-VK","2017/09/21 17:19:42","新北市三重區成功路73巷18號","121.489428333333","25.051925","6500200","三重區"
"241014","543-UM","2017/09/21 17:19:47","新北市三重區龍濱路182號","121.501286666667","25.0729883333333","6500200","三重區"
"241023","545-UM","2017/09/21 17:19:46","新北市三重區三民街148號","121.482516666667","25.065335","6500200","三重區"
"241001","547-UM","2017/09/21 17:19:37","新北市三重區五華街5號","121.495483333333","25.0799483333333","6500200","三重區"
"241018","887-TS","2017/09/21 17:19:35","新北市三重區安慶街138號","121.49466","25.068845","6500200","三重區"
"241012","941-UM","2017/09/21 17:19:38","新北市三重區龍門路274巷45號","121.501158333333","25.07554","6500200","三重區"
"241033","AAC-255","2017/09/21 17:19:43","新北市三重區中興北街191號","121.469085","25.0565083333333","6500200","三重區"
"235064","005-UY","2017/09/21 16:58:21","新北市中和區員山路36巷16-3號","121.485091666667","24.9912366666667","6500300","中和區"
"235061","378-QA","2017/09/21 17:19:39","新北市中和區員山路36巷16-2號","121.485235","24.9916733333333","6500300","中和區"
"235062","800-TS","2017/09/21 17:16:02","新北市中和區員山路36巷16-3號","121.485036666667","24.9913583333333","6500300","中和區"
"247022","893-R6","2017/09/21 17:19:38","新北市蘆洲區三民路128巷88號","121.46978","25.09","6501400","蘆洲區"
"247012","546-UM","2017/09/21 17:19:35","新北市蘆洲區信義路319巷8號","121.477815","25.0862216666667","6501400","蘆洲區"
"247020","500-BY","2017/09/21 17:19:28","新北市蘆洲區民族路442號","121.473066666667","25.0919666666667","6501400","蘆洲區"
"247010","339-TH","2017/09/21 17:19:40","新北市蘆洲區中山一路120巷7弄10號","121.477598333333","25.0822483333333","6501400","蘆洲區"
"247002","337-TH","2017/09/21 17:19:33","新北市蘆洲區永樂街38巷45弄12號","121.4577","25.090065","6501400","蘆洲區"
"247004","336-TH","2017/09/21 17:19:34","新北市蘆洲區中原路54號","121.45906","25.0823016666667","6501400","蘆洲區"
"247016","057-VK","2017/09/21 17:19:30","新北市蘆洲區正和街96巷7號","121.467735","25.08108","6501400","蘆洲區"
"247006","056-VK","2017/09/21 17:19:29","新北市蘆洲區長安街73巷28號","121.461801666667","25.079195","6501400","蘆洲區"
"247008","053-VK","2017/09/21 17:19:35","新北市蘆洲區永安北路一段72巷32號","121.476465","25.0770283333333","6501400","蘆洲區"
"247014","007-UY","2017/09/21 17:19:35","新北市蘆洲區得勝街118號","121.47103","25.0827866666667","6501400","蘆洲區"
"247024","002-UY","2017/09/21 17:19:27","新北市蘆洲區長榮路262號","121.460356666667","25.0860416666667","6501400","蘆洲區"
"247018","001-UY","2017/09/21 17:19:24","新北市蘆洲區民權路76號","121.474815","25.0874616666667","6501400","蘆洲區"
"226004","312-R5","2017/09/21 13:14:10","新北市平溪區石底里公園街18-3號","121.733141666667","25.0259383333333","6502400","平溪區"
"228003","097-TW","2017/09/21 17:19:37","新北市貢寮區福隆里興隆街14號","121.945045","25.01678","6502600","貢寮區"
"228001","212-TW","2017/09/21 17:19:44","新北市貢寮區仁理村尖山腳街18-3號","121.925541666667","25.048315","6502600","貢寮區"
"228002","585-TW","2017/09/21 17:19:29","新北市貢寮區雙玉里下雙溪街24號","121.921641666667","25.0098316666667","6502600","貢寮區"
"224010","AGQ-8101","2017/09/21 15:37:08","新北市瑞芳區明燈路二段50號","121.809428333333","25.10798","6501200","瑞芳區"
"224006","676-BX","2017/09/21 17:19:40","新北市瑞芳區大寮路55號","121.78168","25.0979633333333","6501200","瑞芳區"
"224009","285-BY","2017/09/21 17:19:36","新北市瑞芳區汽車路123號","121.840021666667","25.1099366666667","6501200","瑞芳區"
"224008","275-VK","2017/09/21 17:19:46","新北市瑞芳區侯硐路39號","121.826346666667","25.084005","6501200","瑞芳區"
"224005","271-BY","2017/09/21 17:19:40","新北市瑞芳區鼻頭路245-1號","121.913238333333","25.1242166666667","6501200","瑞芳區"
"227004","400-TW","2017/09/21 17:19:30","新北市雙溪區上林里內平林53號","121.833193333333","25.029955","6502500","雙溪區"
"227010","030-BX","2017/09/21 17:19:38","新北市雙溪區三貂里定福路27號","121.85163","25.074265","6502500","雙溪區"
"251009","008-UM","2017/09/21 17:19:32","新北市淡水區三民街20號","121.439048333333","25.1717633333333","6501000","淡水區"
"251004","009-UM","2017/09/21 17:19:34","新北市淡水區中正東路二段88巷15號","121.459105","25.1505166666667","6501000","淡水區"
"251007","179-VK","2017/09/21 17:19:45","新北市淡水區民生路47-4號","121.462125","25.13802","6501000","淡水區"
"251008","181-VK","2017/09/21 17:19:43","新北市淡水區大同路285號","121.467978333333","25.142445","6501000","淡水區"
"251014","182-VK","2017/09/21 17:19:30","新北市淡水區公埔子45號","121.46398","25.230175","6501000","淡水區"
"251010","413-VK","2017/09/21 17:19:38","新北市淡水區中正路二段211號","121.426198333333","25.1891766666667","6501000","淡水區"
"251012","441-VK","2017/09/21 17:19:46","新北市淡水區中山北路一段158號","121.44421","25.177885","6501000","淡水區"
"251016","442-VK","2017/09/21 17:19:42","新北市淡水區鄒厝崙12-1號","121.465706666667","25.19008","6501000","淡水區"
"251005","443-VK","2017/09/21 17:19:43","新北市淡水區鄧公路19-1號","121.450301666667","25.1700016666667","6501000","淡水區"
"251006","561-UM","2017/09/21 17:19:38","新北市淡水區新生街53號","121.440541666667","25.1748533333333","6501000","淡水區"
"251011","650-BX","2017/09/21 17:19:27","新北市淡水區坪頂路131號","121.46475","25.161475","6501000","淡水區"
"251002","672-BX","2017/09/21 17:19:33","新北市淡水區中正路二段31號","121.41935","25.181615","6501000","淡水區"
"251003","766-UM","2017/09/21 17:19:28","新北市淡水區中正路二段31號","121.419383333333","25.1823433333333","6501000","淡水區"
"207003","550-UM","2017/09/21 17:19:38","新北市萬里區龜吼里美崙路53-1號","121.687656666667","25.18331","6502800","萬里區"
"252002","178-VK","2017/09/21 17:19:31","新北市三芝區忠孝街1-18號","121.505611666667","25.253745","6502100","三芝區"
"252001","292-VK","2017/09/21 17:19:41","新北市三芝區長安街119號","121.498043333333","25.2596866666667","6502100","三芝區"
"242031","AAC-296","2017/09/21 17:19:27","新北市新莊區新泰路488號","121.442523333333","25.0458883333333","6500500","新莊區"
"242029","986-R7","2017/09/21 17:19:24","新北市新莊區中環路二段392-1號","121.442375","25.045535","6500500","新莊區"
"242051","751-BX","2017/09/21 17:19:34","新北市新莊區瓊林南路59-8號","121.435428333333","25.01634","6500500","新莊區"
"242025","615-BX","2017/09/21 17:19:34","新北市新莊區中港一街142號","121.446648333333","25.04491","6500500","新莊區"
"242023","613-BX","2017/09/21 17:19:32","新北市新莊區中環路二段392-1號","121.442471666667","25.045605","6500500","新莊區"
"242027","612-BX","2017/09/21 17:19:38","新北市新莊區復興路一段103號","121.449116666667","25.042875","6500500","新莊區"
"242039","566-BX","2017/09/21 17:19:37","新北市新莊區新樹路209號","121.43567","25.0235966666667","6500500","新莊區"
"242044","497-BY","2017/09/21 17:19:31","新北市新莊區富國路101-1號","121.421326666667","25.0255633333333","6500500","新莊區"
"242048","442-UM","2017/09/21 17:19:32","新北市新莊區後港一路73號","121.427066666667","25.0265766666667","6500500","新莊區"
"242053","440-UM","2017/09/21 17:19:33","新北市新莊區環漢路三段1號","121.44225","25.0241033333333","6500500","新莊區"
"242004","413-TV","2017/09/21 17:19:23","新北市新莊區新泰路357巷3弄1號","121.442426666667","25.0416833333333","6500500","新莊區"
"242042","400-BY","2017/09/21 17:19:24","新北市新莊區新樹路73號","121.437716666667","25.02767","6500500","新莊區"
"242061","362-BY","2017/09/21 17:19:39","新北市新莊區三和路12-16號","121.441853333333","25.0374466666667","6500500","新莊區"
"242058","353-BY","2017/09/21 17:19:34","新北市新莊區新泰路357巷3弄23號","121.441923333333","25.0406983333333","6500500","新莊區"
"242007","132-UY","2017/09/21 17:19:27","新北市新莊區新泰路361巷23號","121.442303333333","25.0428316666667","6500500","新莊區"
"242036","133-UY","2017/09/21 17:19:39","新北市新莊區三和路12-7號","121.441723333333","25.0364183333333","6500500","新莊區"
"242021","135-UY","2017/09/21 17:19:42","新北市新莊區中港路284號","121.453153333333","25.0442966666667","6500500","新莊區"
"242046","172-VK","2017/09/21 17:19:44","新北市新莊區新樹路65-5號","121.439451666667","25.0308283333333","6500500","新莊區"
"242009","173-VK","2017/09/21 10:55:44","新北市新莊區建中街141-3號","121.444741666667","25.036285","6500500","新莊區"
"242015","175-VK","2017/09/21 17:19:38","新北市新莊區中環路二段392-1號","121.442406666667","25.0454316666667","6500500","新莊區"
"242013","346-TH","2017/09/21 13:59:27","新北市新莊區三和路12-17號","121.44198","25.0375683333333","6500500","新莊區"
"242019","348-TH","2017/09/21 17:19:27","新北市新莊區中港路310號","121.452478333333","25.0451416666667","6500500","新莊區"
"242056","349-TH","2017/09/21 17:01:12","新北市新莊區公園一路73號","121.44259","25.0369916666667","6500500","新莊區"
"242011","351-TH","2017/09/21 17:19:45","新北市新莊區新泰路502巷16號","121.44287","25.04642","6500500","新莊區"
"238015","755-BX","2017/09/21 17:19:33","新北市樹林區大安路267號","121.419025","24.9936616666667","6500700","樹林區"
"238023","601-UM","2017/09/21 17:19:43","新北市樹林區中正路433號","121.41503","25.0085","6500700","樹林區"
"238019","599-UM","2017/09/21 17:19:23","新北市樹林區八德街251巷9號","121.422276666667","24.9785966666667","6500700","樹林區"
"238018","571-TV","2017/09/21 17:19:46","新北市樹林區中華路1-6號","121.425663333333","24.9844733333333","6500700","樹林區"
"238024","5061-A6","2017/09/21 17:19:29","新北市樹林區鎮前街4號","121.426438333333","24.9935683333333","6500700","樹林區"
"238021","KEA-2217","2017/09/21 17:19:38","新北市樹林區西圳街一段165巷20弄12號","121.395238333333","24.960815","6500700","樹林區"
"238022","KEA-2213","2017/09/21 17:19:37","新北市樹林區八德街225號","121.421721666667","24.97956","6500700","樹林區"
"238020","308-TH","2017/09/21 17:19:34","新北市樹林區中正路22-1號","121.427795","24.99947","6500700","樹林區"
"238025","303-VK","2017/09/21 17:19:31","新北市樹林區保安二街55號","121.424668333333","24.9946533333333","6500700","樹林區"
"238017","283-BY","2017/09/21 17:19:39","新北市樹林區光武街28號","121.415855","25.0055016666667","6500700","樹林區"
"238001","282-BY","2017/09/21 17:19:30","新北市樹林區大慶街99-1號","121.427723333333","24.9997116666667","6500700","樹林區"
"238026","172-UY","2017/09/21 17:19:29","新北市樹林區八德街228號","121.413831666667","24.9708916666667","6500700","樹林區"
"238016","169-UY","2017/09/21 17:19:39","新北市樹林區八德街1號","121.417571666667","24.9849716666667","6500700","樹林區"
"239007","AAC-297","2017/09/21 17:19:33","新北市鶯歌區國慶街115巷21號","121.35123","24.954475","6500800","鶯歌區"
"239006","891-R6","2017/09/21 17:19:28","新北市鶯歌區德昌二街73號","121.333375","24.9578066666667","6500800","鶯歌區"
"239008","527-UM","2017/09/21 17:19:45","新北市鶯歌區西湖街289巷16號","121.340878333333","24.9690483333333","6500800","鶯歌區"
"239005","526-UM","2017/09/21 17:19:43","新北市鶯歌區鶯桃路566號","121.330723333333","24.96774","6500800","鶯歌區"
"239001","417-VK","2017/09/21 17:19:46","新北市鶯歌區尖山路188號","121.3442","24.9473533333333","6500800","鶯歌區"
"239003","360-BY","2017/09/21 17:19:43","新北市鶯歌區德昌街112號","121.331931666667","24.9604633333333","6500800","鶯歌區"
"239002","359-BY","2017/09/21 17:19:44","新北市鶯歌區南昌街9巷8號","121.349318333333","24.9539116666667","6500800","鶯歌區"
"239004","193-VK","2017/09/21 17:19:31","新北市鶯歌區文化路501-13號","121.353521666667","24.9487066666667","6500800","鶯歌區"
"221012","276-VK","2017/09/21 13:23:24","新北市汐止區汐萬路一段256巷3號","121.653466666667","25.0746033333333","6501100","汐止區"
"221035","622-UM","2017/09/21 17:19:27","新北市汐止區汐萬路一段256巷1號","121.651933333333","25.0747216666667","6501100","汐止區"
"242034","280-VK","2017/09/21 17:19:27","新北市新莊區中正路473-1號","121.44199","25.0329633333333","6500500","新莊區"
