"lineid","car","time","location","longitude","latitude","cityid","cityname"
"234030","847-RS","2017/09/21 12:31:07","新北市永和區福和路1號","121.52661","25.009865","6500400","永和區"
"234026","9371-KE","2017/09/21 17:39:40","新北市永和區中正路748號","121.514876666667","25.0103416666667","6500400","永和區"
"249005","172-UM","2017/09/21 17:39:23","新北市八里區荖阡坑路34號","121.402613333333","25.1297133333333","6502300","八里區"
"249001","173-UM","2017/09/21 17:39:33","新北市八里區龍米路二段203-4號","121.432685","25.1583383333333","6502300","八里區"
"249004","303-UY","2017/09/21 17:39:24","新北市八里區大崁二街12-1號","121.418321666667","25.157275","6502300","八里區"
"249002","305-UY","2017/09/21 17:39:29","新北市八里區石壁腳9號","121.443118333333","25.1351483333333","6502300","八里區"
"249003","593-UM","2017/09/21 17:39:28","新北市八里區中山路二段203號","121.404038333333","25.1496966666667","6502300","八里區"
"248005","653-BX","2017/09/21 12:44:17","新北市五股區中興路二段83巷26-6號","121.459906666667","25.07504","6501500","五股區"
"248012","655-BX","2017/09/21 15:25:24","新北市五股區中興路二段83巷26-6號","121.459855","25.0751016666667","6501500","五股區"
"232011","375-UM","2017/09/21 17:39:38","新北市坪林區北宜路八段157號","121.707376666667","24.9345383333333","6502000","坪林區"
"244013","069-UM","2017/09/21 17:39:29","新北市林口區中山路250號","121.386121666667","25.0794366666667","6501700","林口區"
"244007","080-UY","2017/09/21 17:39:30","新北市林口區文化一路二段305號","121.38579","25.085835","6501700","林口區"
"244019","403-UM","2017/09/21 17:39:21","新北市林口區文化一路一段113號","121.373085","25.0711466666667","6501700","林口區"
"244009","410-SL","2017/09/21 17:39:36","新北市林口區中北三街198號","121.382836666667","25.0821466666667","6501700","林口區"
"244023","483-VK","2017/09/21 17:39:38","新北市林口區東明一街115巷5號","121.390603333333","25.0705716666667","6501700","林口區"
"244017","485-VK","2017/09/21 17:39:36","新北市林口區文化一路二段40號","121.380541666667","25.0773316666667","6501700","林口區"
"244011","656-BX","2017/09/21 17:39:22","新北市林口區佳林路154號","121.384226666667","25.07711","6501700","林口區"
"244025","837-TS","2017/09/21 17:39:36","新北市林口區忠孝路308巷21號","121.367195","25.0721216666667","6501700","林口區"
"244021","838-TS","2017/09/21 17:39:38","新北市林口區東林街32號","121.395363333333","25.0793083333333","6501700","林口區"
"231007","189-VK","2017/09/21 12:00:00","新北市新店區安華路28-1號","121.51972","24.9610933333333","6500600","新店區"
"231046","278-BY","2017/09/21 17:39:26","新北市新店區直潭路92號","121.530905","24.937645","6500600","新店區"
"241011","013-R5","2017/09/21 17:39:38","新北市三重區龍濱路251號","121.501495","25.072655","6500200","三重區"
"241017","063-VK","2017/09/21 17:39:37","新北市三重區大同北路34巷30號","121.494563333333","25.0623533333333","6500200","三重區"
"241005","262-UM","2017/09/21 17:39:29","新北市三重區永安北路二段5巷37號","121.482805","25.08123","6500200","三重區"
"241016","266-UM","2017/09/21 17:39:41","新北市三重區正義北路15號","121.497711666667","25.0629766666667","6500200","三重區"
"241013","270-UM","2017/09/21 17:39:39","新北市三重區仁義街22號","121.499395","25.0765016666667","6500200","三重區"
"241007","398-BY","2017/09/21 17:39:29","新北市三重區國道路一段68號","121.48066","25.0729966666667","6500200","三重區"
"241024","462-BY","2017/09/21 17:39:35","新北市三重區大勇街7號","121.483491666667","25.071435","6500200","三重區"
"241019","478-VK","2017/09/21 17:39:31","新北市三重區力行路一段38巷4號","121.486055","25.0676183333333","6500200","三重區"
"241030","480-VK","2017/09/21 17:39:42","新北市三重區捷運路36號","121.482915","25.0552016666667","6500200","三重區"
"241014","543-UM","2017/09/21 17:39:26","新北市三重區長壽街139號","121.503826666667","25.0689333333333","6500200","三重區"
"241023","545-UM","2017/09/21 17:39:37","新北市三重區三民街157巷2號","121.483623333333","25.0646133333333","6500200","三重區"
"241012","941-UM","2017/09/21 17:39:38","新北市三重區仁興街39巷97號","121.501188333333","25.076555","6500200","三重區"
"241033","AAC-255","2017/09/21 17:39:23","新北市三重區光復路一段49號","121.472056666667","25.0488466666667","6500200","三重區"
"235064","005-UY","2017/09/21 17:39:21","新北市中和區員山路36巷16-3號","121.485056666667","24.9913083333333","6500300","中和區"
"235061","378-QA","2017/09/21 17:20:05","新北市中和區員山路36巷16-2號","121.485283333333","24.991695","6500300","中和區"
"235062","800-TS","2017/09/21 17:39:26","新北市中和區員山路36巷16-3號","121.484791666667","24.9912466666667","6500300","中和區"
"247022","893-R6","2017/09/21 17:39:34","新北市蘆洲區三民路283號","121.4672","25.08976","6501400","蘆洲區"
"247012","546-UM","2017/09/21 17:39:35","新北市蘆洲區民權路33號","121.475936666667","25.0864716666667","6501400","蘆洲區"
"247020","500-BY","2017/09/21 17:39:28","新北市蘆洲區民族路331號","121.473808333333","25.091745","6501400","蘆洲區"
"247010","339-TH","2017/09/21 17:39:26","新北市蘆洲區中山一路68號","121.479008333333","25.0812816666667","6501400","蘆洲區"
"247002","337-TH","2017/09/21 17:39:33","新北市蘆洲區永平街32巷5號","121.458786666667","25.09116","6501400","蘆洲區"
"247004","336-TH","2017/09/21 17:39:34","新北市蘆洲區長安街249巷27號","121.457871666667","25.0826316666667","6501400","蘆洲區"
"247016","057-VK","2017/09/21 17:39:30","新北市蘆洲區光華路70巷7號","121.467813333333","25.0831583333333","6501400","蘆洲區"
"247006","056-VK","2017/09/21 17:39:29","新北市蘆洲區長安街60號","121.462955","25.0798883333333","6501400","蘆洲區"
"247008","053-VK","2017/09/21 17:39:35","新北市蘆洲區民生街127號","121.472748333333","25.079055","6501400","蘆洲區"
"247014","007-UY","2017/09/21 17:39:37","新北市蘆洲區中山二路69號","121.473496666667","25.0820033333333","6501400","蘆洲區"
"247024","002-UY","2017/09/21 17:39:27","新北市蘆洲區長樂路125-1號","121.462128333333","25.0879933333333","6501400","蘆洲區"
"247018","001-UY","2017/09/21 17:39:43","新北市蘆洲區民權路65號","121.473668333333","25.088325","6501400","蘆洲區"
"226004","312-R5","2017/09/21 13:14:10","新北市平溪區石底里公園街18-3號","121.733141666667","25.0259383333333","6502400","平溪區"
"228003","097-TW","2017/09/21 17:39:37","新北市貢寮區仁理村仁和路218號","121.923776666667","25.05334","6502600","貢寮區"
"228001","212-TW","2017/09/21 17:39:25","新北市貢寮區仁理村仁愛路95-1號","121.927656666667","25.0554533333333","6502600","貢寮區"
"228002","585-TW","2017/09/21 17:39:29","新北市貢寮區福隆里外隆林街15號","121.958923333333","25.0036833333333","6502600","貢寮區"
"224010","AGQ-8101","2017/09/21 17:39:40","新北市瑞芳區岳王路130號","121.809515","25.1112533333333","6501200","瑞芳區"
"224006","676-BX","2017/09/21 17:39:35","新北市瑞芳區中山路371號","121.796156666667","25.110135","6501200","瑞芳區"
"224009","285-BY","2017/09/21 17:39:36","新北市瑞芳區烏勢巷150號","121.847093333333","25.1079433333333","6501200","瑞芳區"
"224008","275-VK","2017/09/21 17:39:26","新北市瑞芳區瑞柑新村31號","121.829533333333","25.1068966666667","6501200","瑞芳區"
"224007","273-VK","2017/09/21 17:39:38","新北市平溪區新寮里五分寮10-2號","121.800613333333","25.0748683333333","6501200","瑞芳區"
"224005","271-BY","2017/09/21 17:39:32","新北市瑞芳區籠山路15號","121.831816666667","25.1240116666667","6501200","瑞芳區"
"251009","008-UM","2017/09/21 17:39:32","新北市淡水區中正路47號","121.442018333333","25.1695616666667","6501000","淡水區"
"251004","009-UM","2017/09/21 17:39:34","新北市淡水區中正東路二段88巷41號","121.4594","25.14263","6501000","淡水區"
"251007","179-VK","2017/09/21 17:39:25","新北市淡水區民生路124巷21號","121.464198333333","25.13766","6501000","淡水區"
"251008","181-VK","2017/09/21 17:39:21","新北市淡水區八勢路一段48號","121.465245","25.1549766666667","6501000","淡水區"
"251014","182-VK","2017/09/21 17:39:30","新北市淡水區公埔子15-1號","121.479491666667","25.2258216666667","6501000","淡水區"
"251010","413-VK","2017/09/21 17:39:38","新北市淡水區淡海路280巷97號","121.419931666667","25.1891633333333","6501000","淡水區"
"251012","441-VK","2017/09/21 17:39:26","新北市淡水區北新路200巷8號","121.451786666667","25.1797933333333","6501000","淡水區"
"251016","442-VK","2017/09/21 17:39:32","新北市淡水區埤島74號","121.454756666667","25.194415","6501000","淡水區"
"251005","443-VK","2017/09/21 17:39:23","新北市淡水區鄧公路35巷1號","121.451636666667","25.1714","6501000","淡水區"
"251006","561-UM","2017/09/21 17:39:38","新北市淡水區中山北路一段119巷4號","121.442398333333","25.17699","6501000","淡水區"
"251011","650-BX","2017/09/21 17:39:27","新北市淡水區小坪頂23-1號","121.484721666667","25.1568133333333","6501000","淡水區"
"251002","672-BX","2017/09/21 17:39:32","新北市淡水區建設街1巷1號","121.439146666667","25.1727783333333","6501000","淡水區"
"251003","766-UM","2017/09/21 17:39:28","新北市淡水區中山北路一段96號","121.44249","25.1764883333333","6501000","淡水區"
"207003","550-UM","2017/09/21 17:39:38","新北市萬里區龜吼里漁澳路85-2號","121.690998333333","25.19876","6502800","萬里區"
"207004","225-TW","2017/09/21 17:39:25","新北市萬里區中幅里中福路8-1號","121.685923333333","25.1649166666667","6502800","萬里區"
"252002","178-VK","2017/09/21 17:39:31","新北市三芝區智成街80號","121.504993333333","25.255775","6502100","三芝區"
"252001","292-VK","2017/09/21 17:39:41","新北市三芝區淡金路一段61號","121.500871666667","25.2590166666667","6502100","三芝區"
"237008","302-VK","2017/09/21 17:39:28","新北市三峽區中山路323號","121.36049","24.9380933333333","6500900","三峽區"
"237011","572-TV","2017/09/21 17:39:24","新北市三峽區中山路100號","121.366411666667","24.935535","6500900","三峽區"
"237016","649-BX","2017/09/21 17:39:32","新北市三峽區中園街51號","121.368181666667","24.92605","6500900","三峽區"
"237010","706-TV","2017/09/21 17:39:12","新北市三峽區中山路156號","121.364823333333","24.93644","6500900","三峽區"
"236078","166-UM","2017/09/21 17:39:23","新北市土城區城林路6巷80號","121.438623333333","24.979785","6501300","土城區"
"236014","270-VK","2017/09/21 17:39:34","新北市土城區城林路6巷80號","121.438511666667","24.979755","6501300","土城區"
"242031","AAC-296","2017/09/21 17:39:27","新北市新莊區新泰路394號","121.444073333333","25.0434966666667","6500500","新莊區"
"242029","986-R7","2017/09/21 17:39:24","新北市新莊區復興路二段151號","121.457866666667","25.0443983333333","6500500","新莊區"
"242051","751-BX","2017/09/21 17:39:34","新北市新莊區西盛街195號","121.428131666667","25.0172716666667","6500500","新莊區"
"242025","615-BX","2017/09/21 17:39:34","新北市新莊區思源路116號","121.460128333333","25.0468516666667","6500500","新莊區"
"242023","613-BX","2017/09/21 17:39:39","新北市新莊區公園路129-5號","121.457461666667","25.0408116666667","6500500","新莊區"
"242027","612-BX","2017/09/21 17:39:38","新北市新莊區福壽街111號","121.457885","25.0509716666667","6500500","新莊區"
"242039","566-BX","2017/09/21 17:39:37","新北市新莊區民安路322號","121.429005","25.0219766666667","6500500","新莊區"
"242044","497-BY","2017/09/21 17:39:31","新北市新莊區富國路65巷14號","121.41995","25.0265916666667","6500500","新莊區"
"242048","442-UM","2017/09/21 17:39:34","新北市新莊區萬安街141號","121.420518333333","25.0219066666667","6500500","新莊區"
"242053","440-UM","2017/09/21 17:39:38","新北市新莊區新樹路699巷33號","121.432885","25.00133","6500500","新莊區"
"242004","413-TV","2017/09/21 17:39:23","新北市新莊區自立街180號","121.456031666667","25.0453416666667","6500500","新莊區"
"242042","400-BY","2017/09/21 17:39:29","新北市新莊區中正路514號","121.429953333333","25.0351216666667","6500500","新莊區"
"242061","362-BY","2017/09/21 17:39:39","新北市新莊區瓊林南路103巷8弄21號","121.43528","25.0112233333333","6500500","新莊區"
"242058","353-BY","2017/09/21 17:39:39","新北市新莊區中正路626號","121.42218","25.0288383333333","6500500","新莊區"
"242007","132-UY","2017/09/21 17:39:28","新北市新莊區福樂街69號","121.4571","25.0477716666667","6500500","新莊區"
"242036","133-UY","2017/09/21 17:39:39","新北市新莊區建福路59巷49號","121.428723333333","25.0278316666667","6500500","新莊區"
"242021","135-UY","2017/09/21 17:39:42","新北市新莊區中華路一段78號","121.452145","25.039155","6500500","新莊區"
"242046","172-VK","2017/09/21 17:39:24","新北市新莊區建國一路19號","121.433928333333","25.0315866666667","6500500","新莊區"
"242009","173-VK","2017/09/21 17:39:13","新北市新莊區福壽街169巷16弄2號","121.457188333333","25.0538566666667","6500500","新莊區"
"242015","175-VK","2017/09/21 17:39:38","新北市新莊區新泰路330號","121.444896666667","25.0418816666667","6500500","新莊區"
"242002","176-VK","2017/09/21 17:39:21","新北市新莊區新莊路262號","121.451883333333","25.0339433333333","6500500","新莊區"
"242013","346-TH","2017/09/21 17:39:35","新北市新莊區中誠街97號","121.44998","25.047675","6500500","新莊區"
"242019","348-TH","2017/09/21 17:39:28","新北市新莊區中港路203號","121.454845","25.0419183333333","6500500","新莊區"
"242056","349-TH","2017/09/21 17:39:32","新北市新莊區泰豐街15號","121.448378333333","25.0315683333333","6500500","新莊區"
"242017","350-TH","2017/09/21 17:39:35","新北市新莊區復興路一段149巷21弄21號","121.449215","25.043865","6500500","新莊區"
"242011","351-TH","2017/09/21 17:39:30","新北市新莊區中港路中慶巷1號","121.45097","25.0539333333333","6500500","新莊區"
"238015","755-BX","2017/09/21 17:39:33","新北市樹林區啟智街36號","121.420666666667","24.9931683333333","6500700","樹林區"
"238023","601-UM","2017/09/21 17:39:23","新北市樹林區三福街114號","121.406501666667","25.01634","6500700","樹林區"
"238019","599-UM","2017/09/21 17:39:24","新北市樹林區太順街34號","121.419158333333","24.9800716666667","6500700","樹林區"
"238018","571-TV","2017/09/21 17:39:41","新北市樹林區鎮前街127號","121.424255","24.989595","6500700","樹林區"
"238024","5061-A6","2017/09/21 17:39:29","新北市樹林區環河路2-2號","121.42561","24.9769883333333","6500700","樹林區"
"238021","KEA-2217","2017/09/21 17:39:38","新北市樹林區西圳街一段203巷7號","121.393026666667","24.9602116666667","6500700","樹林區"
"238022","KEA-2213","2017/09/21 17:39:37","新北市樹林區和平街3號","121.421548333333","24.98143","6500700","樹林區"
"238020","308-TH","2017/09/21 17:39:34","新北市樹林區俊英街116巷41弄29號","121.428386666667","25.0070016666667","6500700","樹林區"
"238025","303-VK","2017/09/21 17:39:31","新北市樹林區保安街二段192號","121.412575","25.0104266666667","6500700","樹林區"
"238017","283-BY","2017/09/21 17:39:39","新北市樹林區三德街30巷16弄25號","121.41359","25.0123183333333","6500700","樹林區"
"238014","282-BY","2017/09/21 17:39:34","新北市樹林區保安街一段298號","121.41907","24.9973683333333","6500700","樹林區"
"238026","172-UY","2017/09/21 17:39:30","新北市樹林區新興街17號","121.400048333333","24.9727483333333","6500700","樹林區"
"238016","169-UY","2017/09/21 17:39:39","新北市樹林區育英街86號","121.420496666667","24.9894733333333","6500700","樹林區"
"239007","AAC-297","2017/09/21 17:39:33","新北市鶯歌區鶯桃路168號","121.337243333333","24.9553133333333","6500800","鶯歌區"
"239006","891-R6","2017/09/21 17:39:28","新北市鶯歌區莒光街14號","121.332361666667","24.966275","6500800","鶯歌區"
"239008","527-UM","2017/09/21 17:39:25","新北市鶯歌區大湖路732巷45號","121.333428333333","24.9780733333333","6500800","鶯歌區"
"239005","526-UM","2017/09/21 17:39:23","新北市鶯歌區鳳吉四街39號","121.327185","24.973095","6500800","鶯歌區"
"239001","417-VK","2017/09/21 17:39:26","新北市鶯歌區中正三路186號","121.333126666667","24.9382333333333","6500800","鶯歌區"
"239003","360-BY","2017/09/21 17:39:23","新北市鶯歌區鶯桃路204號","121.337316666667","24.9590533333333","6500800","鶯歌區"
"239002","359-BY","2017/09/21 17:39:24","新北市鶯歌區育智路86號","121.345031666667","24.9546516666667","6500800","鶯歌區"
"239004","193-VK","2017/09/21 17:39:31","新北市鶯歌區三鶯路13號","121.356205","24.94112","6500800","鶯歌區"
"221010","269-BY","2017/09/21 17:39:36","新北市汐止區汐萬路一段418巷1弄24號","121.649926666667","25.07852","6501100","汐止區"
"221012","276-VK","2017/09/21 13:23:24","新北市汐止區汐萬路一段256巷3號","121.653466666667","25.0746033333333","6501100","汐止區"
"221023","279-VK","2017/09/21 17:39:24","新北市汐止區康寧街901號","121.651693333333","25.0749083333333","6501100","汐止區"
"221032","280-BY","2017/09/21 17:39:35","新北市汐止區樟樹二路351號","121.643138333333","25.073815","6501100","汐止區"
"221035","622-UM","2017/09/21 17:39:27","新北市汐止區汐萬路一段256巷1號","121.651968333333","25.0748883333333","6501100","汐止區"
"221033","647-BX","2017/09/21 17:39:30","新北市汐止區大同路一段150號","121.63179","25.0557266666667","6501100","汐止區"
"221018","753-BX","2017/09/21 17:39:28","新北市汐止區大同路二段685號","121.665151666667","25.072195","6501100","汐止區"
"242034","280-VK","2017/09/21 17:39:27","新北市新莊區新莊路490號","121.446535","25.0333","6500500","新莊區"
