"lineid","car","time","location","longitude","latitude","cityid","cityname"
"234030","847-RS","2017/09/21 12:31:07","新北市永和區福和路1號","121.52661","25.009865","6500400","永和區"
"234026","9371-KE","2017/09/21 17:59:20","新北市永和區永和路一段39號","121.512948333333","25.0061666666667","6500400","永和區"
"234011","9373-KE","2017/09/21 17:59:22","新北市永和區福和路1號","121.525395","25.0095566666667","6500400","永和區"
"249005","172-UM","2017/09/21 17:59:23","新北市八里區荖阡坑路22-1號","121.398718333333","25.137025","6502300","八里區"
"249001","173-UM","2017/09/21 17:59:33","新北市八里區龍米路二段35號","121.448421666667","25.1400633333333","6502300","八里區"
"249004","303-UY","2017/09/21 17:59:24","新北市八里區龍米路三段60號","121.423668333333","25.1589483333333","6502300","八里區"
"249002","305-UY","2017/09/21 17:59:29","新北市八里區龍米路一段259號","121.450615","25.1336433333333","6502300","八里區"
"249003","593-UM","2017/09/21 17:59:28","新北市八里區中山路二段306號","121.404593333333","25.150105","6502300","八里區"
"248014","025-BX","2017/09/21 17:59:21","新北市五股區中興路二段182巷3號","121.456495","25.0780916666667","6501500","五股區"
"248016","026-BX","2017/09/21 17:59:28","新北市五股區中興路二段83巷26-6號","121.459661666667","25.0752433333333","6501500","五股區"
"248006","077-UY","2017/09/21 17:59:32","新北市五股區中興路二段83巷26-6號","121.459995","25.0752366666667","6501500","五股區"
"248008","095-VK","2017/09/21 17:59:25","新北市五股區中興路二段150號","121.458613333333","25.0785583333333","6501500","五股區"
"248020","225-UY","2017/09/21 17:59:35","新北市五股區中興路二段83巷26-6號","121.460031666667","25.0751616666667","6501500","五股區"
"248010","272-BY","2017/09/21 17:59:23","新北市五股區中興路二段161號","121.457851666667","25.0771416666667","6501500","五股區"
"248005","653-BX","2017/09/21 12:44:17","新北市五股區中興路二段83巷26-6號","121.459906666667","25.07504","6501500","五股區"
"248012","655-BX","2017/09/21 17:59:19","新北市五股區中興路二段83巷26-6號","121.459855","25.0753216666667","6501500","五股區"
"248004","677-BX","2017/09/21 17:59:34","新北市五股區中興路二段161號","121.457871666667","25.0771066666667","6501500","五股區"
"248002","678-BX","2017/09/21 17:59:30","新北市五股區中興路二段83巷26-6號","121.460055","25.0750266666667","6501500","五股區"
"232011","375-UM","2017/09/21 17:59:38","新北市坪林區坪林街114號","121.710698333333","24.9358416666667","6502000","坪林區"
"244013","069-UM","2017/09/21 17:59:29","新北市林口區中山路164號","121.390271666667","25.0787633333333","6501700","林口區"
"244007","080-UY","2017/09/21 17:59:29","新北市林口區林口路80號","121.389111666667","25.08069","6501700","林口區"
"244019","403-UM","2017/09/21 17:59:21","新北市林口區忠孝路552巷1號","121.374046666667","25.0678433333333","6501700","林口區"
"244009","410-SL","2017/09/21 17:59:36","新北市林口區竹林路582巷16號","121.38604","25.083405","6501700","林口區"
"244023","483-VK","2017/09/21 17:59:29","新北市林口區東湖一街71號","121.385398333333","25.0725","6501700","林口區"
"244017","485-VK","2017/09/21 17:59:36","新北市林口區文化二路一段230巷22弄3號","121.370236666667","25.0719166666667","6501700","林口區"
"244011","656-BX","2017/09/21 17:59:22","新北市林口區中正路164號","121.392291666667","25.07742","6501700","林口區"
"244025","837-TS","2017/09/21 17:59:36","新北市林口區惠民街41號","121.35688","25.0669566666667","6501700","林口區"
"244021","838-TS","2017/09/21 17:59:38","新北市林口區新寮43-2號","121.402905","25.0656216666667","6501700","林口區"
"222003","436-BY","2017/09/21 17:59:31","新北市深坑區炮子崙24-1號","121.60602","24.9882283333333","6501800","深坑區"
"222002","659-BX","2017/09/21 17:59:38","新北市深坑區文化街94號","121.617223333333","25.0019533333333","6501800","深坑區"
"222001","696-SL","2017/09/21 17:59:27","新北市深坑區北深路三段25巷12-1號","121.609066666667","25.0008766666667","6501800","深坑區"
"231007","189-VK","2017/09/21 12:00:00","新北市新店區安華路28-1號","121.51972","24.9610933333333","6500600","新店區"
"231046","278-BY","2017/09/21 17:59:26","新北市新店區康雅崙路3號","121.539673333333","24.9254533333333","6500600","新店區"
"241005","262-UM","2017/09/21 17:59:29","新北市三重區集賢路87-1號","121.493686666667","25.08686","6500200","三重區"
"241016","266-UM","2017/09/21 17:59:21","新北市三重區新北大道一段252號","121.480266666667","25.0616066666667","6500200","三重區"
"241024","462-BY","2017/09/21 17:59:35","新北市三重區力行路一段277號","121.482215","25.0716733333333","6500200","三重區"
"241023","545-UM","2017/09/21 17:59:37","新北市五股區中直路1號","121.428573333333","25.1089883333333","6500200","三重區"
"241033","AAC-255","2017/09/21 17:59:23","新北市三重區重新路五段617號","121.467965","25.044335","6500200","三重區"
"235064","005-UY","2017/09/21 17:59:21","新北市中和區員山路36巷16-3號","121.484966666667","24.9912183333333","6500300","中和區"
"235063","006-UY","2017/09/21 17:59:31","新北市中和區員山路36巷16-3號","121.485056666667","24.9913116666667","6500300","中和區"
"235040","150-BY","2017/09/21 17:15:03","新北市中和區和城路一段271巷1號","121.485443333333","24.9917183333333","6500300","中和區"
"235058","151-BY","2017/09/21 17:59:34","新北市中和區錦和路350-1號","121.49024","24.9935183333333","6500300","中和區"
"235038","185-VK","2017/09/21 17:59:28","新北市中和區中正路395號","121.48934","24.9940216666667","6500300","中和區"
"235072","301-VK","2017/09/21 17:59:37","新北市中和區員山路36巷13號","121.484106666667","24.9908216666667","6500300","中和區"
"235051","376-QA","2017/09/21 15:46:48","新北市中和區員山路36巷13號","121.484055","24.990925","6500300","中和區"
"235061","378-QA","2017/09/21 17:20:05","新北市中和區員山路36巷16-2號","121.485283333333","24.991695","6500300","中和區"
"235042","551-UM","2017/09/21 17:59:25","新北市中和區和城路一段271巷1號","121.485465","24.9918","6500300","中和區"
"235062","800-TS","2017/09/21 17:59:26","新北市中和區中正路637巷52弄1號","121.485468333333","24.993485","6500300","中和區"
"235053","900-TW","2017/09/21 17:59:37","新北市中和區員山路36巷16-3號","121.484891666667","24.9919416666667","6500300","中和區"
"235037","AAC-213","2017/09/21 17:59:28","新北市中和區和城路一段271巷1號","121.485433333333","24.9918716666667","6500300","中和區"
"235059","AAC-215","2017/09/21 17:59:30","新北市中和區員山路36巷16-3號","121.485076666667","24.991505","6500300","中和區"
"247022","893-R6","2017/09/21 17:59:34","新北市蘆洲區中正路516巷38-5號","121.462085","25.0978966666667","6501400","蘆洲區"
"247012","546-UM","2017/09/21 17:59:35","新北市蘆洲區民族路167巷15號","121.478135","25.088315","6501400","蘆洲區"
"247020","500-BY","2017/09/21 17:59:28","新北市蘆洲區民權路121巷16弄1號","121.47116","25.0892766666667","6501400","蘆洲區"
"247010","339-TH","2017/09/21 17:59:40","新北市蘆洲區信義路257號","121.478906666667","25.0846333333333","6501400","蘆洲區"
"247002","337-TH","2017/09/21 17:59:33","新北市蘆洲區永平街32巷62弄2號","121.46001","25.09288","6501400","蘆洲區"
"247016","057-VK","2017/09/21 17:59:37","新北市蘆洲區中正路185巷63號","121.46539","25.083555","6501400","蘆洲區"
"247006","056-VK","2017/09/21 17:59:29","新北市蘆洲區中華街33號","121.463183333333","25.0813833333333","6501400","蘆洲區"
"247008","053-VK","2017/09/21 17:59:35","新北市蘆洲區中山一路263號","121.472791666667","25.0799883333333","6501400","蘆洲區"
"247014","007-UY","2017/09/21 17:59:35","新北市蘆洲區復興路7號","121.471935","25.0853","6501400","蘆洲區"
"247024","002-UY","2017/09/21 17:59:27","新北市蘆洲區光復路41巷10號","121.462831666667","25.08516","6501400","蘆洲區"
"247018","001-UY","2017/09/21 17:59:24","新北市蘆洲區復興路257號","121.480735","25.0899316666667","6501400","蘆洲區"
"226004","312-R5","2017/09/21 17:59:27","新北市平溪區菁桐里菁桐街2號","121.727735","25.0242133333333","6502400","平溪區"
"228003","097-TW","2017/09/21 17:59:37","新北市貢寮區真理里美艷山街6-2號","121.92892","25.0607083333333","6502600","貢寮區"
"228001","212-TW","2017/09/21 17:59:28","新北市貢寮區真理里新港街26巷53號","121.928038333333","25.0535516666667","6502600","貢寮區"
"228002","585-TW","2017/09/21 17:59:29","新北市貢寮區福連里香蘭街3-3號","121.972085","25.0245666666667","6502600","貢寮區"
"224006","676-BX","2017/09/21 17:59:20","新北市瑞芳區傑魚坑路183號","121.788486666667","25.1083083333333","6501200","瑞芳區"
"224002","639-TC","2017/09/21 17:59:29","新北市瑞芳區三爪子坑路26號","121.810476666667","25.1063416666667","6501200","瑞芳區"
"224009","285-BY","2017/09/21 17:59:36","新北市瑞芳區金光路346號","121.85038","25.110005","6501200","瑞芳區"
"224008","275-VK","2017/09/21 17:59:28","新北市瑞芳區明燈路一段45巷91號","121.822041666667","25.1043883333333","6501200","瑞芳區"
"224007","273-VK","2017/09/21 17:59:38","新北市瑞芳區大寮路84號","121.780456666667","25.101295","6501200","瑞芳區"
"224005","271-BY","2017/09/21 17:59:32","新北市瑞芳區深澳路133-1號","121.819965","25.1328333333333","6501200","瑞芳區"
"253005","032-BX","2017/09/21 17:59:33","新北市石門區中山路62-11號","121.567533333333","25.2896583333333","6502200","石門區"
"253006","295-VK","2017/09/21 17:59:21","新北市石門區大丘田45-2號","121.549828333333","25.2748416666667","6502200","石門區"
"208002","742-BX","2017/09/21 17:59:30","新北市金山區三界壇路81號","121.625323333333","25.2284883333333","6502700","金山區"
"208003","665-BX","2017/09/21 17:59:18","新北市金山區磺港里磺港路314號","121.644755","25.2277583333333","6502700","金山區"
"208001","761-BX","2017/09/21 17:59:26","新北市金山區磺港里磺港路251號","121.644401666667","25.2255016666667","6502700","金山區"
"251009","008-UM","2017/09/21 17:59:32","新北市淡水區大智街27號","121.442385","25.17459","6501000","淡水區"
"251004","009-UM","2017/09/21 17:59:34","新北市淡水區民權路187巷7號","121.459856666667","25.1335416666667","6501000","淡水區"
"251001","011-UM","2017/09/21 17:59:37","新北市淡水區民權路94巷1號","121.463066666667","25.12472","6501000","淡水區"
"251008","181-VK","2017/09/21 17:59:32","新北市淡水區八勢一街55號","121.461936666667","25.155495","6501000","淡水區"
"251014","182-VK","2017/09/21 17:59:30","新北市淡水區公埔子16-6號","121.481015","25.22455","6501000","淡水區"
"251010","413-VK","2017/09/21 17:59:38","新北市淡水區淡海路46號","121.423206666667","25.1799966666667","6501000","淡水區"
"251012","441-VK","2017/09/21 17:59:30","新北市淡水區北新路三段10號","121.482735","25.185375","6501000","淡水區"
"251016","442-VK","2017/09/21 17:59:32","新北市淡水區埤島35-5號","121.449753333333","25.1965466666667","6501000","淡水區"
"251005","443-VK","2017/09/21 17:59:35","新北市淡水區英專路125-6號","121.446103333333","25.1726616666667","6501000","淡水區"
"251006","561-UM","2017/09/21 17:59:38","新北市淡水區新生街15號","121.438878333333","25.1731616666667","6501000","淡水區"
"251011","650-BX","2017/09/21 17:59:27","新北市淡水區三空泉5-1號","121.478026666667","25.161885","6501000","淡水區"
"251002","672-BX","2017/09/21 17:59:32","新北市淡水區鼻頭街18-1號","121.446833333333","25.1667133333333","6501000","淡水區"
"251003","766-UM","2017/09/21 17:59:28","新北市淡水區大忠街79-6號","121.445773333333","25.1772433333333","6501000","淡水區"
"207003","550-UM","2017/09/21 17:59:19","新北市萬里區港東路野柳風景區攤販68號","121.691265","25.20583","6502800","萬里區"
"207004","225-TW","2017/09/21 17:59:25","新北市萬里區中幅里中福路48號","121.68353","25.1742233333333","6502800","萬里區"
"252002","178-VK","2017/09/21 17:59:31","新北市三芝區中山路一段155號","121.502391666667","25.2560683333333","6502100","三芝區"
"252001","292-VK","2017/09/21 17:59:21","新北市三芝區中興街一段39號","121.497661666667","25.2577633333333","6502100","三芝區"
"237004","078-UY","2017/09/21 17:59:34","新北市三峽區中園街146號","121.366933333333","24.9201866666667","6500900","三峽區"
"237007","153-BY","2017/09/21 17:59:22","新北市三峽區中園街108號","121.367193333333","24.9230133333333","6500900","三峽區"
"237009","210-TH","2017/09/21 17:59:41","新北市三峽區中山路106巷35號","121.366028333333","24.9366933333333","6500900","三峽區"
"237013","252-BX","2017/09/21 17:59:19","新北市三峽區介壽路一段131-1號","121.376188333333","24.93176","6500900","三峽區"
"237012","275-BY","2017/09/21 17:59:38","新北市三峽區民生街27巷1號","121.376091666667","24.9362266666667","6500900","三峽區"
"237008","302-VK","2017/09/21 17:59:28","新北市三峽區白雞30-3號","121.369643333333","24.912355","6500900","三峽區"
"237014","433-BY","2017/09/21 17:59:36","新北市三峽區復興路101巷1弄28號","121.371055","24.9377183333333","6500900","三峽區"
"237006","5529-G3","2017/09/21 17:59:27","新北市三峽區介壽路二段138巷41號","121.395448333333","24.93344","6500900","三峽區"
"237011","572-TV","2017/09/21 17:58:41","新北市三峽區大同路50號","121.377066666667","24.92865","6500900","三峽區"
"237016","649-BX","2017/09/21 17:59:32","新北市三峽區紫微路109號","121.408306666667","24.911295","6500900","三峽區"
"237010","706-TV","2017/09/21 17:59:32","新北市三峽區民權街132號","121.368508333333","24.9319933333333","6500900","三峽區"
"237005","AKY-6261","2017/09/21 17:59:33","新北市三峽區復興路233號","121.368618333333","24.9388666666667","6500900","三峽區"
"236071","105-UM","2017/09/21 17:59:32","新北市土城區青雲路669-3號","121.46718","24.964945","6501300","土城區"
"236042","107-UM","2017/09/21 17:59:24","新北市土城區城林路6巷80號","121.438566666667","24.979605","6501300","土城區"
"236078","166-UM","2017/09/21 17:59:23","新北市土城區永寧路32巷1-1號","121.42931","24.9605466666667","6501300","土城區"
"236030","253-BX","2017/09/21 17:59:33","新北市土城區城林路6巷80號","121.438513333333","24.9796183333333","6501300","土城區"
"236026","269-VK","2017/09/21 17:59:39","新北市土城區城林路6巷80號","121.438525","24.9796","6501300","土城區"
"236014","270-VK","2017/09/21 17:59:34","新北市土城區城林路6巷80號","121.438491666667","24.9797716666667","6501300","土城區"
"236037","271-VK","2017/09/21 17:59:30","新北市土城區中正路76號","121.444648333333","24.9755716666667","6501300","土城區"
"236021","401-BY","2017/09/21 17:59:27","新北市土城區城林路6巷80號","121.438768333333","24.9796516666667","6501300","土城區"
"236058","912-UM","2017/09/21 17:59:23","新北市土城區中央路三段173號","121.431551666667","24.9654583333333","6501300","土城區"
"236051","913-UM","2017/09/21 17:58:52","新北市土城區城林路6巷80號","121.438575","24.9797333333333","6501300","土城區"
"236062","915-UM","2017/09/21 17:59:33","新北市土城區城林路6巷80號","121.438495","24.9796266666667","6501300","土城區"
"236053","AAC-216","2017/09/21 17:59:34","新北市土城區城林路6巷80號","121.43843","24.9796283333333","6501300","土城區"
"242031","AAC-296","2017/09/21 17:59:27","新北市新莊區新泰路305巷8號","121.44479","25.040965","6500500","新莊區"
"242029","986-R7","2017/09/21 17:59:30","新北市新莊區復興路一段35號","121.44663","25.04192","6500500","新莊區"
"242051","751-BX","2017/09/21 17:59:34","新北市新莊區龍安路500號","121.426706666667","25.0170866666667","6500500","新莊區"
"242025","615-BX","2017/09/21 17:59:40","新北市新莊區五工路70-1號","121.457843333333","25.0636733333333","6500500","新莊區"
"242023","613-BX","2017/09/21 17:59:32","新北市新莊區福壽街58號","121.458278333333","25.0489266666667","6500500","新莊區"
"242027","612-BX","2017/09/21 17:59:38","新北市新莊區思源路336號","121.459976666667","25.0510983333333","6500500","新莊區"
"242039","566-BX","2017/09/21 17:59:37","新北市新莊區民安路183號","121.425898333333","25.0230416666667","6500500","新莊區"
"242044","497-BY","2017/09/21 17:59:31","新北市新莊區鳳山街56巷57號","121.413076666667","25.0272583333333","6500500","新莊區"
"242048","442-UM","2017/09/21 17:59:34","新北市新莊區萬安街47巷10號","121.421986666667","25.0244916666667","6500500","新莊區"
"242053","440-UM","2017/09/21 17:59:33","新北市新莊區光華街62號","121.428315","25.0119883333333","6500500","新莊區"
"242004","413-TV","2017/09/21 17:59:34","新北市新莊區福樂街72巷16號","121.458828333333","25.046565","6500500","新莊區"
"242042","400-BY","2017/09/21 17:59:32","新北市新莊區壽山路31號","121.420108333333","25.0290616666667","6500500","新莊區"
"242061","362-BY","2017/09/21 17:59:19","新北市新莊區新樹路357號","121.43293","25.01838","6500500","新莊區"
"242058","353-BY","2017/09/21 17:59:34","新北市新莊區雙鳳路134巷7號","121.412643333333","25.0280966666667","6500500","新莊區"
"242007","132-UY","2017/09/21 17:59:28","新北市新莊區自信街63號","121.455375","25.048235","6500500","新莊區"
"242036","133-UY","2017/09/21 17:59:19","新北市新莊區中正路695-1號","121.425913333333","25.0295733333333","6500500","新莊區"
"242021","135-UY","2017/09/21 17:59:22","新北市新莊區中正路217號","121.45116","25.035795","6500500","新莊區"
"242046","172-VK","2017/09/21 17:59:27","新北市新莊區福營路197號","121.431071666667","25.0305583333333","6500500","新莊區"
"242009","173-VK","2017/09/21 17:59:14","新北市新莊區中華路二段260號","121.45262","25.05318","6500500","新莊區"
"242015","175-VK","2017/09/21 17:59:22","新北市新莊區中平路87巷4號","121.444511666667","25.0458433333333","6500500","新莊區"
"242002","176-VK","2017/09/21 17:59:41","新北市新莊區中正路145-18號","121.458318333333","25.0375383333333","6500500","新莊區"
"242013","346-TH","2017/09/21 17:59:35","新北市新莊區中和街125巷2號","121.447186666667","25.0486383333333","6500500","新莊區"
"242019","348-TH","2017/09/21 17:59:28","新北市新莊區明中街43巷29號","121.456976666667","25.0385516666667","6500500","新莊區"
"242056","349-TH","2017/09/21 17:59:32","新北市新莊區豐年街124巷18號","121.445586666667","25.029845","6500500","新莊區"
"242017","350-TH","2017/09/21 17:59:35","新北市新莊區中和街60巷33號","121.44939","25.0449416666667","6500500","新莊區"
"242011","351-TH","2017/09/21 17:59:25","新北市新莊區中榮街56巷12號","121.4493","25.053655","6500500","新莊區"
"238015","755-BX","2017/09/21 17:59:33","新北市樹林區文德街2巷17號","121.419735","24.99174","6500700","樹林區"
"238023","601-UM","2017/09/21 17:59:23","新北市樹林區龍興街31巷10號","121.403443333333","25.0159816666667","6500700","樹林區"
"238019","599-UM","2017/09/21 17:59:33","新北市樹林區水源街27號","121.425335","24.9824683333333","6500700","樹林區"
"238018","571-TV","2017/09/21 17:59:41","新北市樹林區樹新路98號","121.429496666667","24.9977033333333","6500700","樹林區"
"238024","5061-A6","2017/09/21 17:59:29","新北市樹林區中山路三段125-9號","121.397918333333","24.973795","6500700","樹林區"
"238021","KEA-2217","2017/09/21 17:59:19","新北市樹林區柑園街一段68號","121.4023","24.9603033333333","6500700","樹林區"
"238022","KEA-2213","2017/09/21 17:59:37","新北市樹林區太順街82號","121.417305","24.9789566666667","6500700","樹林區"
"238020","308-TH","2017/09/21 17:59:34","新北市新莊區龍安路266巷28號","121.42084","25.0184966666667","6500700","樹林區"
"238025","303-VK","2017/09/21 17:59:31","新北市樹林區三俊街88號","121.414283333333","25.0156783333333","6500700","樹林區"
"238017","283-BY","2017/09/21 17:59:39","新北市樹林區三德街34-5號","121.415301666667","25.0131866666667","6500700","樹林區"
"238014","282-BY","2017/09/21 17:59:30","新北市樹林區保安街一段247號","121.419846666667","24.99675","6500700","樹林區"
"238026","172-UY","2017/09/21 17:59:29","新北市樹林區中洲街30巷14號","121.397713333333","24.971675","6500700","樹林區"
"238016","169-UY","2017/09/21 17:59:19","新北市樹林區啟智街151巷10號","121.41636","24.987645","6500700","樹林區"
"239007","AAC-297","2017/09/21 17:59:33","新北市鶯歌區尖山埔路213號","121.345143333333","24.95046","6500800","鶯歌區"
"239006","891-R6","2017/09/21 17:59:28","新北市鶯歌區鶯桃路413巷70號","121.32999","24.9630783333333","6500800","鶯歌區"
"239008","527-UM","2017/09/21 17:59:25","新北市鶯歌區明圓街21號","121.336185","24.9772583333333","6500800","鶯歌區"
"239005","526-UM","2017/09/21 17:59:23","新北市鶯歌區鶯桃路668巷73號","121.329905","24.97182","6500800","鶯歌區"
"239001","417-VK","2017/09/21 17:59:26","新北市鶯歌區中正三路277號","121.332233333333","24.93792","6500800","鶯歌區"
"239003","360-BY","2017/09/21 17:59:23","新北市鶯歌區鶯桃路336號","121.333903333333","24.96235","6500800","鶯歌區"
"239002","359-BY","2017/09/21 17:59:24","新北市鶯歌區光明街48巷15號","121.347935","24.9564216666667","6500800","鶯歌區"
"221008","489-VK","2017/09/21 17:59:28","新北市汐止區明峰街7號","121.63538","25.0712416666667","6501100","汐止區"
"221036","130-UY","2017/09/21 17:59:34","新北市汐止區大同路三段34號","121.667083333333","25.07658","6501100","汐止區"
"221015","131-UY","2017/09/21 17:59:21","新北市汐止區長江街321號","121.666468333333","25.0816383333333","6501100","汐止區"
"221010","269-BY","2017/09/21 17:59:36","新北市汐止區汐萬路二段245巷44號","121.644538333333","25.087895","6501100","汐止區"
"221012","276-VK","2017/09/21 13:23:24","新北市汐止區汐萬路一段256巷3號","121.653466666667","25.0746033333333","6501100","汐止區"
"221012","278-VK","2017/09/21 17:59:28","新北市汐止區長興街二段24號","121.673036666667","25.0812933333333","6501100","汐止區"
"221023","279-VK","2017/09/21 17:59:24","新北市汐止區明峰街129-3號","121.630151666667","25.0707733333333","6501100","汐止區"
"221032","280-BY","2017/09/21 17:59:35","新北市汐止區橫科路73巷31號","121.61937","25.051245","6501100","汐止區"
"221027","281-BY","2017/09/21 17:59:29","新北市汐止區大同路二段374號","121.657781666667","25.0671633333333","6501100","汐止區"
"221038","297-VK","2017/09/21 17:59:15","新北市汐止區連興街116號","121.653815","25.0626966666667","6501100","汐止區"
"221029","298-VK","2017/09/21 17:59:33","新北市汐止區樟樹二路329號","121.64132","25.07045","6501100","汐止區"
"221021","299-VK","2017/09/21 17:59:31","新北市汐止區新興路18號","121.656318333333","25.064585","6501100","汐止區"
"221031","353-TW","2017/09/21 17:59:22","新北市汐止區中興路96巷1-3號","121.635285","25.0625133333333","6501100","汐止區"
"221035","622-UM","2017/09/21 17:59:27","新北市汐止區汐萬路一段125號","121.654093333333","25.07119","6501100","汐止區"
"221025","623-UM","2017/09/21 17:59:27","新北市汐止區仁愛路47號","121.659698333333","25.0632133333333","6501100","汐止區"
"221033","647-BX","2017/09/21 17:59:30","新北市汐止區合順街48號","121.620528333333","25.043135","6501100","汐止區"
"221002","707-TV","2017/09/21 17:59:24","新北市汐止區工建路216號","121.636465","25.0623166666667","6501100","汐止區"
"221018","753-BX","2017/09/21 17:59:28","新北市汐止區招商街11巷1號","121.666506666667","25.0688566666667","6501100","汐止區"
"242034","280-VK","2017/09/21 17:59:27","新北市新莊區景德路414號","121.444713333333","25.0334283333333","6500500","新莊區"
