"lineid","car","time","location","longitude","latitude","cityid","cityname"
"234007","208-UY","2017/09/21 18:27:20","新北市永和區環河西路二段229巷3號","121.501428333333","25.009955","6500400","永和區"
"234081","298-R6","2017/09/21 18:27:30","新北市永和區環河東路三段52巷2弄2號","121.52653","25.0060566666667","6500400","永和區"
"234086","338-UY","2017/09/21 18:27:20","新北市永和區福和路1號","121.526468333333","25.0094783333333","6500400","永和區"
"234030","847-RS","2017/09/21 12:31:07","新北市永和區福和路1號","121.52661","25.009865","6500400","永和區"
"234026","9371-KE","2017/09/21 18:27:20","新北市永和區中正路736號","121.515325","25.0101483333333","6500400","永和區"
"234011","9373-KE","2017/09/21 18:27:22","新北市永和區保安路102號","121.509415","25.0158783333333","6500400","永和區"
"249005","172-UM","2017/09/21 18:27:23","新北市八里區中華路三段55號","121.394901666667","25.14141","6502300","八里區"
"249001","173-UM","2017/09/21 18:27:33","新北市八里區龍米路一段92號","121.453985","25.1239516666667","6502300","八里區"
"249004","303-UY","2017/09/21 18:27:24","新北市八里區忠四街43號","121.42502","25.1610916666667","6502300","八里區"
"249002","305-UY","2017/09/21 18:27:29","新北市八里區龍形三街2號","121.45031","25.1318166666667","6502300","八里區"
"248014","025-BX","2017/09/21 18:27:21","新北市五股區自強路90巷19號","121.432231666667","25.0720583333333","6501500","五股區"
"248016","026-BX","2017/09/21 18:27:28","新北市五股區凌雲路一段83巷10弄7號","121.45029","25.1011116666667","6501500","五股區"
"248006","077-UY","2017/09/21 18:27:32","新北市五股區四維路79號","121.467291666667","25.07227","6501500","五股區"
"248008","095-VK","2017/09/21 18:27:25","新北市五股區更洲路32巷8弄31號","121.459753333333","25.0794633333333","6501500","五股區"
"248020","225-UY","2017/09/21 18:27:35","新北市五股區孝義路55巷1號","121.453263333333","25.1120783333333","6501500","五股區"
"248010","272-BY","2017/09/21 18:27:23","新北市五股區水碓路16巷4號","121.433826666667","25.0726716666667","6501500","五股區"
"248005","653-BX","2017/09/21 12:44:17","新北市五股區中興路二段83巷26-6號","121.459906666667","25.07504","6501500","五股區"
"248012","655-BX","2017/09/21 18:27:19","新北市五股區御成路145號","121.440748333333","25.0943483333333","6501500","五股區"
"248004","677-BX","2017/09/21 18:27:34","新北市五股區工商路130-1號","121.435908333333","25.086155","6501500","五股區"
"248002","678-BX","2017/09/21 18:27:30","新北市五股區西雲路118號","121.444793333333","25.0937016666667","6501500","五股區"
"232011","375-UM","2017/09/21 18:12:25","新北市坪林區坪雙路一段43號","121.711723333333","24.94245","6502000","坪林區"
"244013","069-UM","2017/09/21 18:27:29","新北市林口區佳林路101巷34號","121.386941666667","25.0800033333333","6501700","林口區"
"244007","080-UY","2017/09/21 18:27:30","新北市林口區後湖1-4號","121.388358333333","25.0967883333333","6501700","林口區"
"244019","403-UM","2017/09/21 18:27:21","新北市林口區麗園路54號","121.373651666667","25.0694833333333","6501700","林口區"
"244009","410-SL","2017/09/21 18:27:16","新北市林口區民生路154號","121.379338333333","25.08791","6501700","林口區"
"244023","483-VK","2017/09/21 18:27:29","新北市林口區仁愛路二段90號","121.38401","25.07525","6501700","林口區"
"244017","485-VK","2017/09/21 18:27:17","新北市林口區公園路35號","121.36711","25.0680333333333","6501700","林口區"
"244011","656-BX","2017/09/21 18:27:21","新北市林口區中正路99號","121.394238333333","25.07733","6501700","林口區"
"244025","837-TS","2017/09/21 18:27:16","新北市林口區南勢四街196巷17號","121.356896666667","25.0730233333333","6501700","林口區"
"244021","838-TS","2017/09/21 18:27:18","新北市林口區自強二街6號","121.39739","25.0784266666667","6501700","林口區"
"243013","AAD-798","2017/09/21 18:27:25","新北市泰山區工專路65號","121.422151666667","25.0404316666667","6501600","泰山區"
"243012","646-TV","2017/09/21 18:27:25","新北市泰山區泰林路二段593號","121.421766666667","25.0634833333333","6501600","泰山區"
"222003","436-BY","2017/09/21 18:27:31","新北市深坑區旺耽路35號","121.627525","25.0042516666667","6501800","深坑區"
"222002","659-BX","2017/09/21 18:27:18","新北市深坑區雲鄉路180號","121.622268333333","24.9982383333333","6501800","深坑區"
"222001","696-SL","2017/09/21 18:27:27","新北市深坑區北深路一段199號","121.630386666667","25.0089833333333","6501800","深坑區"
"231041","002-UM","2017/09/21 18:27:25","新北市新店區安華路28-1號","121.519891666667","24.9606966666667","6500600","新店區"
"231055","0293-UT","2017/09/21 18:27:18","新北市新店區北新路一段303號","121.541425","24.967355","6500600","新店區"
"231059","046-UY","2017/09/21 18:27:23","新北市新店區安華路28-1號","121.51978","24.960955","6500600","新店區"
"231061","047-UY","2017/09/21 18:27:35","新北市新店區安華路28-1號","121.518938333333","24.9609283333333","6500600","新店區"
"231060","106-UY","2017/09/21 18:27:35","新北市新店區安華路28-1號","121.519823333333","24.9609083333333","6500600","新店區"
"231051","107-UY","2017/09/21 18:27:26","新北市新店區安華路28-1號","121.51927","24.96113","6500600","新店區"
"231047","108-UY","2017/09/21 18:27:21","新北市新店區安華路28-1號","121.51954","24.9611516666667","6500600","新店區"
"231052","187-VK","2017/09/21 18:27:17","新北市新店區北新路一段43號","121.538033333333","24.95939","6500600","新店區"
"231007","189-VK","2017/09/21 12:00:00","新北市新店區安華路28-1號","121.51972","24.9610933333333","6500600","新店區"
"231050","215-TC","2017/09/21 18:27:23","新北市新店區安華路28-1號","121.519831666667","24.961305","6500600","新店區"
"231057","256-BX","2017/09/21 18:27:28","新北市新店區環河路18號","121.537366666667","24.961425","6500600","新店區"
"231063","268-BY","2017/09/21 18:27:29","新北市新店區安華路1-1號","121.519695","24.9603533333333","6500600","新店區"
"231046","278-BY","2017/09/21 18:27:26","新北市新店區直潭七街60號","121.53225","24.9396783333333","6500600","新店區"
"231054","AAD-862","2017/09/21 18:27:20","新北市新店區安華路28-1號","121.519938333333","24.96121","6500600","新店區"
"231058","3712-VJ","2017/09/21 18:27:35","新北市新店區國校路8號","121.537825","24.9559666666667","6500600","新店區"
"231056","4716-K9","2017/09/21 18:27:33","新北市新店區中央路3號","121.533805","24.9787583333333","6500600","新店區"
"231067","4772-VM","2017/09/21 18:27:19","新北市新店區安華路28-1號","121.518968333333","24.960725","6500600","新店區"
"231065","512-UM","2017/09/21 16:05:53","新北市新店區安華路28-1號","121.519298333333","24.9612883333333","6500600","新店區"
"231064","515-UM","2017/09/21 16:29:01","新北市新店區安華路28-1號","121.51978","24.9609933333333","6500600","新店區"
"231040","619-UM","2017/09/21 18:27:19","新北市新店區安華路28-1號","121.51975","24.9606666666667","6500600","新店區"
"231042","641-BX","2017/09/21 18:27:17","新北市新店區安華路28-1號","121.519695","24.960635","6500600","新店區"
"231049","719-UM","2017/09/21 18:27:19","新北市新店區安華路28-1號","121.51953","24.9613833333333","6500600","新店區"
"231062","720-UM","2017/09/21 18:27:25","新北市新店區安華路28-1號","121.519353333333","24.9612483333333","6500600","新店區"
"231045","898-TW","2017/09/21 18:27:32","新北市新店區安華路28-1號","121.5193","24.9610083333333","6500600","新店區"
"231043","899-TW","2017/09/21 18:27:27","新北市新店區安華路28-1號","121.51906","24.9609083333333","6500600","新店區"
"231066","AKT-0513","2017/09/21 18:27:32","新北市新店區安華路28-1號","121.519608333333","24.9605683333333","6500600","新店區"
"235066","003-UY","2017/09/21 18:27:33","新北市中和區中山路二段120號","121.502858333333","25.0037633333333","6500300","中和區"
"235064","005-UY","2017/09/21 18:27:21","新北市中和區中正路218-6號","121.496438333333","24.9941816666667","6500300","中和區"
"235063","006-UY","2017/09/21 18:27:31","新北市中和區連城路347巷16弄1號","121.488475","24.99481","6500300","中和區"
"235056","096-UM","2017/09/21 18:27:24","新北市中和區員山路611巷1號","121.477785","25.0111066666667","6500300","中和區"
"235039","097-UM","2017/09/21 18:27:26","新北市中和區安平路124號","121.511866666667","24.99776","6500300","中和區"
"235065","098-UM","2017/09/21 18:27:24","新北市中和區莊敬路49巷18號","121.501628333333","25.0061316666667","6500300","中和區"
"235040","150-BY","2017/09/21 18:27:31","新北市中和區安和路39號","121.509678333333","24.9947816666667","6500300","中和區"
"235058","151-BY","2017/09/21 18:27:34","新北市中和區圓通路369巷53-4號","121.490811666667","24.9845866666667","6500300","中和區"
"235055","183-VK","2017/09/21 18:27:21","新北市中和區莒光路207號","121.46982","24.995635","6500300","中和區"
"235038","185-VK","2017/09/21 18:27:28","新北市中和區秀朗路三段128巷17弄4號","121.524266666667","24.9935683333333","6500300","中和區"
"235049","186-VK","2017/09/21 18:27:30","新北市中和區中正路38號","121.502265","24.9935616666667","6500300","中和區"
"235072","301-VK","2017/09/21 18:27:17","新北市中和區連城路247號","121.493501666667","24.9970733333333","6500300","中和區"
"235043","352-BY","2017/09/21 18:27:19","新北市中和區景平路345號","121.505188333333","24.9933466666667","6500300","中和區"
"235051","376-QA","2017/09/21 18:27:37","新北市中和區興南路二段242巷13號","121.502611666667","24.982795","6500300","中和區"
"235068","377-QA","2017/09/21 17:36:47","新北市中和區員山路36巷16-2號","121.485481666667","24.9912533333333","6500300","中和區"
"235061","378-QA","2017/09/21 18:27:36","新北市中和區民享街100號","121.474701666667","24.999555","6500300","中和區"
"235050","4979-A6","2017/09/21 18:27:27","新北市中和區景新街410巷18弄9號","121.511951666667","24.98951","6500300","中和區"
"235069","4980-A6","2017/09/21 18:27:19","新北市中和區連城路99巷4號","121.496658333333","24.999555","6500300","中和區"
"235042","551-UM","2017/09/21 18:27:25","新北市中和區秀朗路三段150巷11號","121.523775","24.990935","6500300","中和區"
"235070","558-UM","2017/09/21 18:27:33","新北市中和區圓通路162-3號","121.497511666667","24.9952233333333","6500300","中和區"
"235045","565-BX","2017/09/21 18:27:29","新北市中和區復興路31號","121.50538","24.989835","6500300","中和區"
"235054","640-BX","2017/09/21 18:27:27","新北市中和區民享街102號","121.474696666667","24.9995116666667","6500300","中和區"
"235060","647-TV","2017/09/21 18:27:30","新北市中和區員山路168號","121.481291666667","24.999855","6500300","中和區"
"235046","733-UM","2017/09/21 18:27:24","新北市中和區中正路637巷52弄1號","121.48545","24.9934466666667","6500300","中和區"
"235062","800-TS","2017/09/21 18:27:26","新北市中和區景平路756號","121.496395","25.0046616666667","6500300","中和區"
"235057","801-TS","2017/09/21 18:27:36","新北市中和區民安街53號","121.479443333333","24.9997683333333","6500300","中和區"
"235041","802-TS","2017/09/21 18:27:28","新北市中和區中正路426號","121.491783333333","24.9936433333333","6500300","中和區"
"235052","805-TS","2017/09/21 18:27:32","新北市中和區興南路二段103號","121.505895","24.9845633333333","6500300","中和區"
"235048","896-TW","2017/09/21 18:27:30","新北市中和區中正路169號","121.497971666667","24.99351","6500300","中和區"
"235053","900-TW","2017/09/21 18:27:17","新北市中和區連城路599號","121.478596666667","24.993195","6500300","中和區"
"235037","AAC-213","2017/09/21 18:27:28","新北市中和區景新街423巷49號","121.514758333333","24.98997","6500300","中和區"
"235059","AAC-215","2017/09/21 18:27:30","新北市中和區員山路36巷16-3號","121.485041666667","24.9913766666667","6500300","中和區"
"220068","013-TV","2017/09/21 18:27:15","新北市板橋區民生路二段120號","121.470496666667","25.019875","6500100","板橋區"
"220086","073-UY","2017/09/21 18:27:25","新北市板橋區南雅南路二段144巷60號","121.450243333333","24.99739","6500100","板橋區"
"226004","312-R5","2017/09/21 18:27:27","新北市平溪區白石里中埔199號","121.724475","25.02206","6502400","平溪區"
"228003","097-TW","2017/09/21 18:27:37","新北市貢寮區和美里和美街38號","121.912171666667","25.088845","6502600","貢寮區"
"228001","212-TW","2017/09/21 18:27:24","新北市貢寮區仁理村仁義街6號","121.923715","25.0520816666667","6502600","貢寮區"
"228002","585-TW","2017/09/21 18:27:29","新北市貢寮區福連里福興街23號","121.990528333333","25.010515","6502600","貢寮區"
"224006","676-BX","2017/09/21 18:27:20","新北市瑞芳區明燈路三段1號","121.808976666667","25.1074833333333","6501200","瑞芳區"
"224002","639-TC","2017/09/21 18:27:25","新北市瑞芳區三爪子坑路29巷60號","121.81372","25.1060233333333","6501200","瑞芳區"
"224009","285-BY","2017/09/21 18:27:36","新北市瑞芳區五號路46號","121.8555","25.109685","6501200","瑞芳區"
"224008","275-VK","2017/09/21 18:27:26","新北市瑞芳區岳王路1巷39號","121.805706666667","25.1104766666667","6501200","瑞芳區"
"224007","273-VK","2017/09/21 18:27:17","新北市瑞芳區大埔路吉慶公園城28號","121.764576666667","25.0997483333333","6501200","瑞芳區"
"224005","271-BY","2017/09/21 18:27:34","新北市瑞芳區台電新村153號","121.811621666667","25.1283416666667","6501200","瑞芳區"
"227004","400-TW","2017/09/21 18:27:29","新北市雙溪區共和里中山路59號","121.868478333333","25.0313583333333","6502500","雙溪區"
"227010","030-BX","2017/09/21 18:27:29","新北市雙溪區牡丹里牡丹39號","121.85256","25.0584066666667","6502500","雙溪區"
"253005","032-BX","2017/09/21 18:27:33","新北市石門區老崩山11-13號","121.551665","25.2905666666667","6502200","石門區"
"253006","295-VK","2017/09/21 18:27:21","新北市石門區公地20-1號","121.545771666667","25.2901716666667","6502200","石門區"
"208002","742-BX","2017/09/21 18:27:22","新北市金山區磺港里青年路1號","121.64176","25.2248883333333","6502700","金山區"
"208003","665-BX","2017/09/21 18:27:18","新北市金山區中山路116號","121.63931","25.219885","6502700","金山區"
"208001","761-BX","2017/09/21 18:27:21","新北市金山區中山路245號","121.637195","25.222025","6502700","金山區"
"251004","009-UM","2017/09/21 18:27:34","新北市淡水區民族路31巷4號","121.462595","25.1363016666667","6501000","淡水區"
"251001","011-UM","2017/09/21 18:27:16","新北市淡水區自強路335號","121.463555","25.1325483333333","6501000","淡水區"
"251008","181-VK","2017/09/21 18:27:21","新北市淡水區淡金路一段102號","121.457681666667","25.17472","6501000","淡水區"
"251014","182-VK","2017/09/21 18:27:30","新北市淡水區崙頂10-1號","121.49295","25.2195583333333","6501000","淡水區"
"251010","413-VK","2017/09/21 18:27:18","新北市淡水區沙崙路181巷1號","121.424143333333","25.1842233333333","6501000","淡水區"
"251012","441-VK","2017/09/21 18:27:25","新北市淡水區北新路一段335號","121.466011666667","25.18228","6501000","淡水區"
"251016","442-VK","2017/09/21 18:27:32","新北市淡水區下圭柔山61-1號","121.448473333333","25.20449","6501000","淡水區"
"251005","443-VK","2017/09/21 18:27:23","新北市淡水區中正東路35巷28號","121.446731666667","25.1689366666667","6501000","淡水區"
"251006","561-UM","2017/09/21 18:27:18","新北市淡水區新生街108巷1-2號","121.440365","25.1747066666667","6501000","淡水區"
"251011","650-BX","2017/09/21 18:27:27","新北市淡水區中正東路一段25號","121.451786666667","25.1633466666667","6501000","淡水區"
"251002","672-BX","2017/09/21 18:27:32","新北市淡水區竿蓁二街19巷1號","121.453196666667","25.1630766666667","6501000","淡水區"
"251003","766-UM","2017/09/21 18:27:28","新北市淡水區北新路169巷49號","121.448833333333","25.1806183333333","6501000","淡水區"
"207003","550-UM","2017/09/21 18:27:19","新北市萬里區野柳里港東路204號","121.689873333333","25.203895","6502800","萬里區"
"207004","225-TW","2017/09/21 18:27:25","新北市萬里區萬里里瑪鋉路21號","121.687488333333","25.1754583333333","6502800","萬里區"
"252002","178-VK","2017/09/21 18:27:31","新北市三芝區中山路二段35號","121.502903333333","25.2551866666667","6502100","三芝區"
"252003","249-BX","2017/09/21 18:27:21","新北市三芝區後厝里北勢子20-4號","121.47337","25.2538016666667","6502100","三芝區"
"252001","292-VK","2017/09/21 18:27:21","新北市三芝區中興街二段2號","121.498355","25.256675","6502100","三芝區"
"237004","078-UY","2017/09/21 18:27:34","新北市三峽區五寮80號","121.36723","24.8646933333333","6500900","三峽區"
"237007","153-BY","2017/09/21 18:27:22","新北市三峽區中正路三段70巷50號","121.355158333333","24.9048466666667","6500900","三峽區"
"237009","210-TH","2017/09/21 18:27:21","新北市三峽區民權街231號","121.368095","24.9279083333333","6500900","三峽區"
"237013","252-BX","2017/09/21 18:27:19","新北市三峽區永安街9巷44號","121.376335","24.9297683333333","6500900","三峽區"
"237012","275-BY","2017/09/21 18:27:18","新北市三峽區三樹路88號","121.378156666667","24.9386483333333","6500900","三峽區"
"237008","302-VK","2017/09/21 18:27:28","新北市三峽區白雞68-147號","121.391808333333","24.9076466666667","6500900","三峽區"
"237014","433-BY","2017/09/21 18:27:23","新北市三峽區復興路3號","121.37433","24.936","6500900","三峽區"
"237006","5529-G3","2017/09/21 18:27:27","新北市三峽區溪東路473巷17號","121.414508333333","24.9288933333333","6500900","三峽區"
"237011","572-TV","2017/09/21 18:07:38","新北市三峽區橫溪路1號","121.396051666667","24.936145","6500900","三峽區"
"237016","649-BX","2017/09/21 18:27:32","新北市三峽區竹崙路152號","121.4348","24.9085116666667","6500900","三峽區"
"237010","706-TV","2017/09/21 18:27:32","新北市三峽區中山路286號","121.360953333333","24.9382183333333","6500900","三峽區"
"237005","AKY-6261","2017/09/21 18:27:32","新北市三峽區民族街3-3號","121.3695","24.9314066666667","6500900","三峽區"
"236071","105-UM","2017/09/21 18:27:32","新北市土城區永豐路255巷27弄45號","121.477095","24.9737366666667","6501300","土城區"
"236042","107-UM","2017/09/21 18:27:24","新北市土城區裕民路61巷4號","121.449406666667","24.9879933333333","6501300","土城區"
"236078","166-UM","2017/09/21 18:27:23","新北市土城區中央路四段1號","121.425685","24.9629666666667","6501300","土城區"
"236030","253-BX","2017/09/21 18:27:35","新北市土城區福仁街48號","121.439563333333","24.9751983333333","6501300","土城區"
"236026","269-VK","2017/09/21 18:27:19","新北市土城區南天母路62號","121.446403333333","24.9566833333333","6501300","土城區"
"236014","270-VK","2017/09/21 18:27:34","新北市土城區青雲路39巷7號","121.460303333333","24.987465","6501300","土城區"
"236037","271-VK","2017/09/21 18:27:30","新北市土城區青雲路483巷13弄1號","121.459846666667","24.9735116666667","6501300","土城區"
"236021","401-BY","2017/09/21 18:27:27","新北市土城區永豐路202巷7號","121.466295","24.9832316666667","6501300","土城區"
"236058","912-UM","2017/09/21 18:27:24","新北市土城區中央路四段464號","121.409905","24.9505833333333","6501300","土城區"
"236051","913-UM","2017/09/21 18:27:32","新北市土城區青雲路545號","121.458865","24.9725483333333","6501300","土城區"
"236062","915-UM","2017/09/21 18:27:33","新北市土城區延壽路111巷23號","121.468343333333","24.9935816666667","6501300","土城區"
"236053","AAC-216","2017/09/21 18:27:29","新北市土城區中華路二段167號","121.438753333333","24.975465","6501300","土城區"
"242031","AAC-296","2017/09/21 18:27:27","新北市新莊區新泰路277巷11號","121.445253333333","25.0402933333333","6500500","新莊區"
"242029","986-R7","2017/09/21 18:27:24","新北市新莊區中平路190號","121.444803333333","25.048135","6500500","新莊區"
"242051","751-BX","2017/09/21 18:27:34","新北市新莊區新樹路222號","121.433563333333","25.0203033333333","6500500","新莊區"
"242027","612-BX","2017/09/21 18:27:38","新北市新莊區新泰路357巷3弄57號","121.442226666667","25.0393433333333","6500500","新莊區"
"242044","497-BY","2017/09/21 18:27:31","新北市新莊區中正路新旺巷28號","121.416026666667","25.0229983333333","6500500","新莊區"
"242053","440-UM","2017/09/21 18:27:33","新北市新莊區樹新路120巷47號","121.43004","24.9959366666667","6500500","新莊區"
"242042","400-BY","2017/09/21 18:27:24","新北市新莊區天祥街72巷11號","121.416223333333","25.029925","6500500","新莊區"
"242061","362-BY","2017/09/21 18:27:19","新北市新莊區富國路176巷7號","121.42412","25.0240266666667","6500500","新莊區"
"242058","353-BY","2017/09/21 18:27:39","新北市新莊區中正路895-29號","121.411983333333","25.0218966666667","6500500","新莊區"
"242046","172-VK","2017/09/21 18:27:24","新北市新莊區中正路803巷68號","121.421816666667","25.0275066666667","6500500","新莊區"
"242002","176-VK","2017/09/21 18:27:21","新北市新莊區中正路459號","121.44233","25.0335933333333","6500500","新莊區"
"242056","349-TH","2017/09/21 18:27:32","新北市新莊區瓊林路108-1號","121.442106666667","25.0262416666667","6500500","新莊區"
"238015","755-BX","2017/09/21 18:27:33","新北市樹林區啟智街131號","121.41742","24.988795","6500700","樹林區"
"238023","601-UM","2017/09/21 18:27:03","新北市樹林區忠義街19號","121.409623333333","25.0151033333333","6500700","樹林區"
"238019","599-UM","2017/09/21 18:27:23","新北市樹林區中華路190-16號","121.411661666667","24.9805983333333","6500700","樹林區"
"238018","571-TV","2017/09/21 18:27:25","新北市樹林區保安街一段20巷32號","121.428321666667","24.9944916666667","6500700","樹林區"
"238024","5061-A6","2017/09/21 18:27:29","新北市樹林區後站街6巷29號","121.424065","24.9916416666667","6500700","樹林區"
"238021","KEA-2217","2017/09/21 18:27:19","新北市樹林區柑園街二段149巷1號","121.382335","24.9538783333333","6500700","樹林區"
"238020","308-TH","2017/09/21 18:27:34","新北市樹林區中正路642巷19號","121.411405","25.0174966666667","6500700","樹林區"
"238025","303-VK","2017/09/21 18:27:31","新北市樹林區大安路537巷1號","121.412885","24.9846883333333","6500700","樹林區"
"238017","283-BY","2017/09/21 18:27:30","新北市樹林區保安街二段335號","121.412268333333","25.00781","6500700","樹林區"
"238026","172-UY","2017/09/21 18:27:29","新北市樹林區八德街636號","121.396813333333","24.9694","6500700","樹林區"
"238016","169-UY","2017/09/21 18:27:19","新北市樹林區文化街28號","121.419331666667","24.9876833333333","6500700","樹林區"
"239007","AAC-297","2017/09/21 18:27:33","新北市鶯歌區中山路106號","121.350798333333","24.9570033333333","6500800","鶯歌區"
"239008","527-UM","2017/09/21 18:27:25","新北市鶯歌區國際一路179號","121.336238333333","24.976535","6500800","鶯歌區"
"239005","526-UM","2017/09/21 18:27:23","桃園市八德區桃鶯路80號","121.327591666667","24.9705566666667","6500800","鶯歌區"
"239001","417-VK","2017/09/21 18:27:26","新北市鶯歌區國中街178號","121.338186666667","24.9391933333333","6500800","鶯歌區"
"239003","360-BY","2017/09/21 18:27:23","新北市鶯歌區福安街13巷1號","121.335661666667","24.9653716666667","6500800","鶯歌區"
"239002","359-BY","2017/09/21 18:27:24","新北市鶯歌區中正一路474號","121.365035","24.9565316666667","6500800","鶯歌區"
"239004","193-VK","2017/09/21 18:27:30","新北市鶯歌區尖山路174巷12號","121.344598333333","24.9481883333333","6500800","鶯歌區"
"221008","489-VK","2017/09/21 18:27:28","新北市汐止區康寧街901號","121.651423333333","25.0749866666667","6501100","汐止區"
"221036","130-UY","2017/09/21 18:27:34","新北市汐止區長興街一段50號","121.670596666667","25.0793233333333","6501100","汐止區"
"221015","131-UY","2017/09/21 18:27:21","新北市汐止區鄉友街50號","121.669136666667","25.0818333333333","6501100","汐止區"
"221010","269-BY","2017/09/21 18:27:16","新北市汐止區汐萬路二段339號","121.64478","25.090535","6501100","汐止區"
"221012","276-VK","2017/09/21 13:23:24","新北市汐止區汐萬路一段256巷3號","121.653466666667","25.0746033333333","6501100","汐止區"
"221012","278-VK","2017/09/21 18:27:28","新北市汐止區保長路19巷12號","121.67278","25.0803516666667","6501100","汐止區"
"221023","279-VK","2017/09/21 18:27:24","新北市汐止區康寧街474巷7-2號","121.632258333333","25.0678916666667","6501100","汐止區"
"221032","280-BY","2017/09/21 18:27:35","新北市汐止區民權街二段109巷10號","121.619476666667","25.0467516666667","6501100","汐止區"
"221027","281-BY","2017/09/21 18:27:29","新北市汐止區和平街46巷17號","121.662553333333","25.0718466666667","6501100","汐止區"
"221038","297-VK","2017/09/21 18:27:35","新北市汐止區忠孝東路282號","121.66388","25.0681116666667","6501100","汐止區"
"221029","298-VK","2017/09/21 18:27:33","新北市汐止區連峰街3巷1號","121.6474","25.076175","6501100","汐止區"
"221021","299-VK","2017/09/21 18:27:31","新北市汐止區新台五路一段91-2號","121.650183333333","25.0614466666667","6501100","汐止區"
"221031","353-TW","2017/09/21 18:27:22","新北市汐止區中興路142號","121.632825","25.0643966666667","6501100","汐止區"
"221035","622-UM","2017/09/21 18:27:27","新北市汐止區大同路二段124-1號","121.651073333333","25.0638733333333","6501100","汐止區"
"221025","623-UM","2017/09/21 18:27:27","新北市汐止區仁愛路122巷18號","121.663415","25.06318","6501100","汐止區"
"221033","647-BX","2017/09/21 18:27:30","新北市汐止區宜興街55號","121.622966666667","25.0425633333333","6501100","汐止區"
"221002","707-TV","2017/09/21 18:27:24","新北市汐止區福德一路135號","121.636921666667","25.06713","6501100","汐止區"
"221018","753-BX","2017/09/21 18:27:28","新北市汐止區茄苳路210號","121.670576666667","25.068915","6501100","汐止區"
"220080","200-UY","2017/09/21 18:27:22","新北市板橋區華東街1-10號","121.448448333333","24.9948933333333","6500100","板橋區"
"220082","610-BX","2017/09/21 18:27:31","新北市板橋區華東街1-9號","121.448231666667","24.994935","6500100","板橋區"
"220064","280-UM","2017/09/21 18:27:34","新北市板橋區南雅西路一段7巷5號","121.454506666667","25.0038716666667","6500100","板橋區"
"220053","285-VK","2017/09/21 18:27:29","新北市板橋區民生路二段120號","121.470365","25.0199016666667","6500100","板橋區"
"220035","560-BX","2017/09/21 18:27:21","新北市板橋區南雅南路二段144巷19號","121.450963333333","24.99573","6500100","板橋區"
