"lineid","car","time","location","longitude","latitude","cityid","cityname"
"234046","148-BY","2017/09/21 19:12:34","新北市永和區得和路373巷31弄12號","121.52427","25.0004533333333","6500400","永和區"
"234013","149-BY","2017/09/21 19:12:18","新北市永和區保福路二段25號","121.510846666667","25.011295","6500400","永和區"
"234007","208-UY","2017/09/21 19:12:29","新北市永和區中山路一段338號","121.505891666667","25.0062783333333","6500400","永和區"
"234081","298-R6","2017/09/21 19:12:30","新北市永和區福和路57巷14弄8-1號","121.522408333333","25.0072883333333","6500400","永和區"
"234038","336-UY","2017/09/21 19:12:20","新北市永和區民樂街70號","121.5274","24.9983283333333","6500400","永和區"
"234064","337-UY","2017/09/21 19:12:20","新北市永和區永元路77號","121.52222","25.0013266666667","6500400","永和區"
"234086","338-UY","2017/09/21 19:12:19","新北市永和區永利路69號","121.519728333333","25.0047633333333","6500400","永和區"
"234070","552-UM","2017/09/21 19:12:26","新北市永和區豫溪街76號","121.517383333333","25.0098033333333","6500400","永和區"
"234054","553-UM","2017/09/21 19:12:27","新北市永和區中興街135號","121.518681666667","25.01229","6500400","永和區"
"234017","745-BX","2017/09/21 19:12:27","新北市永和區文化路90巷36號","121.513451666667","25.0164683333333","6500400","永和區"
"234028","746-BX","2017/09/21 19:12:30","新北市永和區厚德街87號","121.524038333333","24.998765","6500400","永和區"
"234061","AAD-866","2017/09/21 19:12:19","新北市永和區秀朗路一段72號","121.515455","25.006005","6500400","永和區"
"234030","847-RS","2017/09/21 12:31:07","新北市永和區福和路1號","121.52661","25.009865","6500400","永和區"
"234042","862-TW","2017/09/21 19:12:24","新北市永和區保平路177巷6弄10號","121.509348333333","25.0045183333333","6500400","永和區"
"234050","863-TW","2017/09/21 19:12:18","新北市永和區仁愛路104巷7弄23號","121.511073333333","25.0139483333333","6500400","永和區"
"234026","9371-KE","2017/09/21 19:12:20","新北市永和區安樂路44號","121.51458","24.9969383333333","6500400","永和區"
"249005","172-UM","2017/09/21 19:12:36","新北市八里區中華路三段51號","121.395415","25.141735","6502300","八里區"
"249001","173-UM","2017/09/21 19:12:33","新北市八里區大崁腳48-45號","121.425723333333","25.1595383333333","6502300","八里區"
"249002","305-UY","2017/09/21 18:42:40","新北市八里區龍形一街33巷6-2號","121.44931","25.1294716666667","6502300","八里區"
"249003","593-UM","2017/09/21 19:12:26","新北市八里區中山路二段210巷128號","121.403915","25.1551666666667","6502300","八里區"
"248016","026-BX","2017/09/21 19:12:28","新北市五股區成泰路三段577巷60號","121.450466666667","25.1033333333333","6501500","五股區"
"248020","225-UY","2017/09/21 19:12:15","新北市五股區凌雲路三段57號","121.425303333333","25.1250166666667","6501500","五股區"
"248010","272-BY","2017/09/21 19:12:23","新北市五股區水碓二路1號","121.430528333333","25.0712233333333","6501500","五股區"
"248005","653-BX","2017/09/21 12:44:17","新北市五股區中興路二段83巷26-6號","121.459906666667","25.07504","6501500","五股區"
"248012","655-BX","2017/09/21 19:12:19","新北市五股區中興路四段38巷11號","121.438735","25.083465","6501500","五股區"
"248004","677-BX","2017/09/21 19:12:34","新北市五股區六合街2號","121.432368333333","25.0882216666667","6501500","五股區"
"248002","678-BX","2017/09/21 19:12:30","新北市五股區凌雲路一段158巷14-1號","121.447926666667","25.1035316666667","6501500","五股區"
"234023","9380-KE","2017/09/21 19:12:07","新北市永和區中興街10巷54號","121.51619","25.0110433333333","6500400","永和區"
"234077","969-R7","2017/09/21 19:12:26","新北市永和區民權路34號","121.52013","24.998895","6500400","永和區"
"234074","AAC-211","2017/09/21 19:12:27","新北市永和區竹林路133號","121.520171666667","25.0109733333333","6500400","永和區"
"234003","AAC-295","2017/09/21 19:12:23","新北市永和區保福路一段53號","121.512453333333","25.009435","6500400","永和區"
"244013","069-UM","2017/09/21 19:12:29","新北市林口區麗園一街9巷1號","121.376546666667","25.0714366666667","6501700","林口區"
"244019","403-UM","2017/09/21 19:12:21","新北市林口區麗園二街76-2號","121.381783333333","25.06782","6501700","林口區"
"244009","410-SL","2017/09/21 19:12:16","新北市林口區林口路62號","121.390286666667","25.07916","6501700","林口區"
"244023","483-VK","2017/09/21 19:12:29","新北市林口區文林六街2-1號","121.370411666667","25.079845","6501700","林口區"
"244011","656-BX","2017/09/21 19:12:21","新北市林口區中正路369號","121.387336666667","25.0776916666667","6501700","林口區"
"243013","AAD-798","2017/09/21 19:12:32","新北市泰山區台麗街16巷11號","121.424435","25.0376516666667","6501600","泰山區"
"243009","297-R6","2017/09/21 19:12:30","新北市泰山區楓樹街15巷13號","121.434721666667","25.06298","6501600","泰山區"
"243015","380-SR","2017/09/21 19:12:27","新北市泰山區明志路一段472號","121.430473333333","25.0551066666667","6501600","泰山區"
"243014","421-VK","2017/09/21 19:12:31","新北市泰山區泰林路二段256號","121.431776666667","25.0622816666667","6501600","泰山區"
"243010","KEA-2215","2017/09/21 19:12:33","新北市泰山區明志路一段460號","121.430663333333","25.055565","6501600","泰山區"
"243011","KEA-2216","2017/09/21 19:12:32","新北市泰山區明志路二段358號","121.425448333333","25.0451416666667","6501600","泰山區"
"243012","646-TV","2017/09/21 19:12:25","新北市泰山區同義街4號","121.431108333333","25.056915","6501600","泰山區"
"243016","680-BX","2017/09/21 19:12:14","新北市泰山區明志路三段41號","121.42496","25.042595","6501600","泰山區"
"222003","436-BY","2017/09/21 19:12:31","新北市深坑區深南路170號","121.625871666667","25.0151433333333","6501800","深坑區"
"222002","659-BX","2017/09/21 19:12:18","新北市深坑區紅葉街61號","121.632256666667","25.0139366666667","6501800","深坑區"
"222001","696-SL","2017/09/21 19:12:26","新北市深坑區北深路一段355-1號","121.62311","25.0053033333333","6501800","深坑區"
"231041","002-UM","2017/09/21 19:12:25","新北市新店區溪園路255巷33號","121.524026666667","24.9807883333333","6500600","新店區"
"231059","046-UY","2017/09/21 19:12:23","新北市新店區安和路二段213號","121.517701666667","24.9755","6500600","新店區"
"231061","047-UY","2017/09/21 19:12:22","新北市新店區安康路一段35號","121.531661666667","24.96081","6500600","新店區"
"231060","106-UY","2017/09/21 19:12:35","新北市新店區安康路二段170號","121.51192","24.9605966666667","6500600","新店區"
"231051","107-UY","2017/09/21 19:12:26","新北市新店區中正路382巷25號","121.535703333333","24.9784966666667","6500600","新店區"
"231047","108-UY","2017/09/21 19:12:21","新北市新店區中興路二段67巷12號","121.546111666667","24.971105","6500600","新店區"
"231052","187-VK","2017/09/21 19:12:34","新北市新店區自強路125號","121.546066666667","24.9228316666667","6500600","新店區"
"231007","189-VK","2017/09/21 12:00:00","新北市新店區安華路28-1號","121.51972","24.9610933333333","6500600","新店區"
"231050","215-TC","2017/09/21 19:12:23","新北市新店區竹林路63-1號","121.55285","24.951335","6500600","新店區"
"231063","268-BY","2017/09/21 19:12:29","新北市新店區車子路144號","121.505255","24.9475616666667","6500600","新店區"
"231046","278-BY","2017/09/21 19:12:26","新北市新店區華潭街14號","121.52958","24.9523233333333","6500600","新店區"
"231054","AAD-862","2017/09/21 19:12:19","新北市新店區北宜路一段22號","121.53787","24.9571566666667","6500600","新店區"
"231058","3712-VJ","2017/09/21 19:12:35","新北市新店區光明街138巷13弄9號","121.540173333333","24.9615466666667","6500600","新店區"
"231067","4772-VM","2017/09/21 19:12:19","新北市新店區安康路一段266巷4號","121.520125","24.964035","6500600","新店區"
"231065","512-UM","2017/09/21 19:12:27","新北市新店區安祥路142號","121.47427","24.9556716666667","6500600","新店區"
"231064","515-UM","2017/09/21 19:12:19","新北市新店區安忠路205巷8號","121.509393333333","24.9546033333333","6500600","新店區"
"231040","619-UM","2017/09/21 19:12:19","新北市新店區三民路98-2號","121.533998333333","24.9735066666667","6500600","新店區"
"231042","641-BX","2017/09/21 19:12:17","新北市新店區中興路一段113號","121.541421666667","24.962675","6500600","新店區"
"231049","719-UM","2017/09/21 19:12:19","新北市新店區二十張路25巷18弄35號","121.539325","24.9810483333333","6500600","新店區"
"231062","720-UM","2017/09/21 19:12:25","新北市新店區莒光路28號","121.523595","24.95934","6500600","新店區"
"231044","897-TW","2017/09/21 19:12:21","新北市新店區中興路三段221-1號","121.543446666667","24.9825933333333","6500600","新店區"
"231045","898-TW","2017/09/21 19:12:32","新北市新店區北宜路一段171號","121.544563333333","24.953155","6500600","新店區"
"231043","899-TW","2017/09/21 19:12:27","新北市新店區寶橋路51號","121.544931666667","24.9747416666667","6500600","新店區"
"231066","AKT-0513","2017/09/21 19:12:32","新北市新店區安康路三段355巷45號","121.485006666667","24.94939","6500600","新店區"
"241031","061-VK","2017/09/21 19:12:21","新北市三重區捷運路26號","121.484951666667","25.05568","6500200","三重區"
"241026","066-VK","2017/09/21 19:12:20","新北市三重區泉州街84巷18號","121.495583333333","25.0542883333333","6500200","三重區"
"241022","267-UM","2017/09/21 19:12:23","新北市三重區三民街153-1號","121.48421","25.0645316666667","6500200","三重區"
"241013","270-UM","2017/09/21 19:12:29","新北市三重區仁愛街82巷4號","121.4952","25.0735233333333","6500200","三重區"
"241029","KEA-2210","2017/09/21 19:12:36","新北市三重區中正南路185-1號","121.493326666667","25.0551616666667","6500200","三重區"
"235066","003-UY","2017/09/21 19:12:32","新北市中和區廣福路44號","121.50417","25.0020833333333","6500300","中和區"
"235064","005-UY","2017/09/21 19:12:21","新北市中和區泰和街44巷17號","121.49841","25.00071","6500300","中和區"
"235063","006-UY","2017/09/21 19:12:31","新北市中和區建一路198號","121.487583333333","24.9962483333333","6500300","中和區"
"235056","096-UM","2017/09/21 19:12:24","新北市板橋區三民路二段218號","121.478856666667","25.011705","6500300","中和區"
"235039","097-UM","2017/09/21 19:12:26","新北市中和區立人街69巷2號","121.519958333333","24.9939","6500300","中和區"
"235065","098-UM","2017/09/21 19:12:24","新北市中和區勝利路33號","121.498888333333","25.0078566666667","6500300","中和區"
"235040","150-BY","2017/09/21 19:12:31","新北市中和區宜安路60號","121.511655","24.99709","6500300","中和區"
"235058","151-BY","2017/09/21 19:12:34","新北市中和區連城路523巷11弄23號","121.482185","24.9942183333333","6500300","中和區"
"235055","183-VK","2017/09/21 19:12:21","新北市中和區德光路100號","121.468541666667","25.0034416666667","6500300","中和區"
"235038","185-VK","2017/09/21 19:12:28","新北市中和區大仁街20巷1號","121.517765","24.9933183333333","6500300","中和區"
"235049","186-VK","2017/09/21 19:12:30","新北市中和區南華路76號","121.505368333333","24.9972933333333","6500300","中和區"
"235067","255-BX","2017/09/21 19:12:31","新北市中和區新生街148巷19弄10號","121.482483333333","25.00017","6500300","中和區"
"235044","293-VK","2017/09/21 19:12:22","新北市中和區復興路327巷4號","121.500778333333","24.9898433333333","6500300","中和區"
"235072","301-VK","2017/09/21 19:12:17","新北市中和區連城路148號","121.49491","24.9982683333333","6500300","中和區"
"235043","352-BY","2017/09/21 19:12:19","新北市中和區景平路156號","121.517686666667","24.9921083333333","6500300","中和區"
"235051","376-QA","2017/09/21 19:12:34","新北市中和區興南路一段85巷24號","121.510168333333","24.9881266666667","6500300","中和區"
"235068","377-QA","2017/09/21 18:43:07","新北市中和區中正路211巷13弄1號","121.497205","24.9929316666667","6500300","中和區"
"235061","378-QA","2017/09/21 19:12:21","新北市中和區中山路三段63巷13弄41號","121.476613333333","25.003575","6500300","中和區"
"235050","4979-A6","2017/09/21 19:12:27","新北市中和區景安路208巷31號","121.502338333333","24.9922316666667","6500300","中和區"
"235069","4980-A6","2017/09/21 19:12:19","新北市中和區中山路二段181巷5號","121.5011","25.002045","6500300","中和區"
"235042","551-UM","2017/09/21 19:12:25","新北市中和區立人街69巷15弄16號","121.521183333333","24.9934416666667","6500300","中和區"
"235070","558-UM","2017/09/21 19:12:13","新北市中和區安和路165號","121.506028333333","24.9976433333333","6500300","中和區"
"235045","565-BX","2017/09/21 19:12:29","新北市中和區景新街467巷35弄5號","121.514445","24.9889966666667","6500300","中和區"
"235054","640-BX","2017/09/21 19:12:27","新北市中和區國光街60號","121.470478333333","25.0002466666667","6500300","中和區"
"235060","647-TV","2017/09/21 19:12:30","新北市中和區民享街91-8號","121.474501666667","25.0009433333333","6500300","中和區"
"235046","733-UM","2017/09/21 19:12:24","新北市中和區忠孝街1巷18號","121.50864","24.9837916666667","6500300","中和區"
"235057","801-TS","2017/09/21 19:12:35","新北市中和區民利街58巷5弄11號","121.478206666667","24.9990866666667","6500300","中和區"
"235041","802-TS","2017/09/21 19:12:28","新北市中和區宜安路147號","121.509248333333","24.9986933333333","6500300","中和區"
"235052","805-TS","2017/09/21 19:12:32","新北市中和區興南路二段242巷11號","121.502776666667","24.9826466666667","6500300","中和區"
"235048","896-TW","2017/09/21 19:12:09","新北市中和區忠孝街1巷2-1號","121.509108333333","24.9829916666667","6500300","中和區"
"235053","900-TW","2017/09/21 19:12:17","新北市中和區華福街48號","121.466596666667","24.9965566666667","6500300","中和區"
"235037","AAC-213","2017/09/21 19:12:28","新北市中和區秀朗路三段60巷32號","121.525241666667","24.995015","6500300","中和區"
"235059","AAC-215","2017/09/21 19:12:30","新北市中和區圓通路294巷17-5號","121.488621666667","24.99045","6500300","中和區"
"220068","013-TV","2017/09/21 19:12:23","新北市板橋區翠華街6巷16號","121.481036666667","25.0242816666667","6500100","板橋區"
"220065","072-UY","2017/09/21 19:12:31","新北市板橋區民族路219巷75號","121.468831666667","25.0090266666667","6500100","板橋區"
"220086","073-UY","2017/09/21 19:12:25","新北市板橋區中正路250巷122號","121.460056666667","25.02","6500100","板橋區"
"220106","075-UY","2017/09/21 19:12:30","新北市板橋區雙十路三段9號","121.471506666667","25.0300783333333","6500100","板橋區"
"220069","AAD-861","2017/09/21 19:12:31","新北市板橋區大華街146巷1號","121.459458333333","25.004305","6500100","板橋區"
"247008","053-VK","2017/09/21 19:12:31","新北市五股區中興路三段163號","121.449163333333","25.0806666666667","6501400","蘆洲區"
"226004","205-ST","2017/09/21 19:12:33","新北市平溪區望古里灰3號","121.758183333333","25.0301966666667","6502400","平溪區"
"228003","097-TW","2017/09/21 19:12:37","新北市貢寮區和美里和美街21-1號","121.912456666667","25.0825133333333","6502600","貢寮區"
"228001","212-TW","2017/09/21 19:12:24","新北市貢寮區真理里新港街10號","121.925505","25.0543766666667","6502600","貢寮區"
"228002","585-TW","2017/09/21 19:12:29","新北市貢寮區福隆里福隆街36號","121.945106666667","25.017445","6502600","貢寮區"
"224010","AGQ-8101","2017/09/21 19:12:22","新北市瑞芳區基山街169號","121.843343333333","25.1080433333333","6501200","瑞芳區"
"224006","676-BX","2017/09/21 19:12:20","新北市瑞芳區東和路37號","121.804956666667","25.105965","6501200","瑞芳區"
"224009","285-BY","2017/09/21 19:12:16","新北市瑞芳區明里路122號","121.863858333333","25.1223883333333","6501200","瑞芳區"
"224008","275-VK","2017/09/21 19:12:29","新北市瑞芳區明燈路三段101號","121.80392","25.10839","6501200","瑞芳區"
"224005","271-BY","2017/09/21 19:12:32","新北市瑞芳區三爪子坑路89-17號","121.81221","25.10734","6501200","瑞芳區"
"227004","400-TW","2017/09/21 19:12:29","新北市雙溪區平林里梅竹蹊56-4號","121.860725","25.036685","6502500","雙溪區"
"227010","030-BX","2017/09/21 19:12:29","新北市雙溪區雙溪里中正路18號","121.865053333333","25.0368216666667","6502500","雙溪區"
"253005","032-BX","2017/09/21 19:12:32","新北市石門區阿里荖40-1號","121.606375","25.2803183333333","6502200","石門區"
"253006","295-VK","2017/09/21 19:12:21","新北市石門區崁子腳46號","121.534201666667","25.2883","6502200","石門區"
"208002","742-BX","2017/09/21 19:12:22","新北市金山區中正路73號","121.633658333333","25.2217816666667","6502700","金山區"
"208003","665-BX","2017/09/21 19:12:22","新北市金山區中山路216號","121.637421666667","25.2218766666667","6502700","金山區"
"208001","761-BX","2017/09/21 19:12:21","新北市金山區金包里街48號","121.639403333333","25.2210933333333","6502700","金山區"
"251009","008-UM","2017/09/21 19:12:32","新北市淡水區中正路38-1號","121.443701666667","25.169285","6501000","淡水區"
"251001","011-UM","2017/09/21 19:12:16","新北市淡水區自強路201巷39號","121.462118333333","25.1268116666667","6501000","淡水區"
"251007","179-VK","2017/09/21 19:12:25","新北市淡水區民生路117巷13號","121.464906666667","25.1391966666667","6501000","淡水區"
"251014","182-VK","2017/09/21 19:12:29","新北市淡水區小中寮19-9號","121.485088333333","25.22881","6501000","淡水區"
"251010","413-VK","2017/09/21 19:12:18","新北市淡水區中正路一段156巷1號","121.421001666667","25.180255","6501000","淡水區"
"251016","442-VK","2017/09/21 19:12:32","新北市淡水區下圭柔山119-51號","121.450758333333","25.2084283333333","6501000","淡水區"
"251005","443-VK","2017/09/21 19:12:23","新北市淡水區中山路143-5號","121.44059","25.1720733333333","6501000","淡水區"
"251006","561-UM","2017/09/21 19:12:18","新北市淡水區大信街40-8號","121.442023333333","25.1774416666667","6501000","淡水區"
"251011","650-BX","2017/09/21 19:12:27","新北市淡水區中正東路二段143巷2弄1號","121.460641666667","25.147405","6501000","淡水區"
"251002","672-BX","2017/09/21 19:12:33","新北市淡水區文化路16號","121.439856666667","25.172575","6501000","淡水區"
"251003","766-UM","2017/09/21 19:12:28","新北市淡水區重建街226號","121.441478333333","25.17506","6501000","淡水區"
"207003","550-UM","2017/09/21 19:12:18","新北市萬里區大鵬里萬里加投19-10號","121.649806666667","25.2099016666667","6502800","萬里區"
"207004","225-TW","2017/09/21 19:12:24","新北市萬里區萬里里瑪鋉路54巷15號","121.690335","25.1772266666667","6502800","萬里區"
"252002","178-VK","2017/09/21 19:12:31","新北市三芝區中正路一段79號","121.504226666667","25.2569716666667","6502100","三芝區"
"252003","249-BX","2017/09/21 19:12:20","新北市三芝區古庄里四棧橋24-1號","121.486268333333","25.2621233333333","6502100","三芝區"
"252001","292-VK","2017/09/21 19:12:21","新北市三芝區長勤街34號","121.50076","25.2557133333333","6502100","三芝區"
"237004","078-UY","2017/09/21 19:12:34","新北市三峽區有木202號","121.441035","24.8503033333333","6500900","三峽區"
"237007","153-BY","2017/09/21 19:12:22","新北市三峽區麻園36-10號","121.363676666667","24.9200533333333","6500900","三峽區"
"237013","252-BX","2017/09/21 19:12:19","新北市三峽區大同路39巷20弄1號","121.37703","24.9277766666667","6500900","三峽區"
"237012","275-BY","2017/09/21 19:12:18","新北市三峽區三樹路222巷236弄8-3號","121.391368333333","24.9429766666667","6500900","三峽區"
"237008","302-VK","2017/09/21 19:12:28","新北市三峽區大同路93號","121.374743333333","24.9271466666667","6500900","三峽區"
"237014","433-BY","2017/09/21 19:12:16","新北市三峽區大勇路18-1號","121.36706","24.9380566666667","6500900","三峽區"
"237006","5529-G3","2017/09/21 19:12:27","新北市三峽區溪北街109號","121.398361666667","24.93553","6500900","三峽區"
"237011","572-TV","2017/09/21 18:07:38","新北市三峽區橫溪路1號","121.396051666667","24.936145","6500900","三峽區"
"237016","649-BX","2017/09/21 19:12:32","新北市三峽區安坑48-1號","121.459116666667","24.9322083333333","6500900","三峽區"
"237010","706-TV","2017/09/21 19:12:32","新北市三峽區民生街68號","121.374718333333","24.9360033333333","6500900","三峽區"
"237005","AKY-6261","2017/09/21 19:12:32","新北市三峽區中山路459巷163-3號","121.348651666667","24.9329183333333","6500900","三峽區"
"236071","105-UM","2017/09/21 19:12:32","新北市土城區裕生路84巷1號","121.447301666667","24.9853516666667","6501300","土城區"
"236078","166-UM","2017/09/21 19:12:03","新北市土城區龍泉路43號","121.41755","24.94327","6501300","土城區"
"236026","269-VK","2017/09/21 19:12:19","新北市土城區中正路54號","121.44377","24.975365","6501300","土城區"
"236014","270-VK","2017/09/21 19:12:14","新北市土城區學府路一段97號","121.456241666667","24.987915","6501300","土城區"
"236037","271-VK","2017/09/21 19:12:30","新北市土城區清水路100號","121.457578333333","24.9813783333333","6501300","土城區"
"236021","401-BY","2017/09/21 19:12:27","新北市土城區延吉街146號","121.469138333333","24.985615","6501300","土城區"
"236058","912-UM","2017/09/21 19:12:23","新北市土城區金城路二段241號","121.45576","24.9825933333333","6501300","土城區"
"236053","AAC-216","2017/09/21 19:12:34","新北市土城區學府路一段276號","121.449975","24.983095","6501300","土城區"
"242061","362-BY","2017/09/21 18:50:18","新北市新莊區三和路12-21號","121.442238333333","25.0386316666667","6500500","新莊區"
"238023","601-UM","2017/09/21 19:12:22","新北市樹林區大慶街49號","121.396396666667","25.01393","6500700","樹林區"
"238019","599-UM","2017/09/21 19:12:23","新北市樹林區東榮街28號","121.41758","24.983575","6500700","樹林區"
"238018","571-TV","2017/09/21 19:12:20","新北市樹林區太平路48號","121.419016666667","24.9825683333333","6500700","樹林區"
"238024","5061-A6","2017/09/21 19:12:29","新北市樹林區中山路二段237號","121.402121666667","24.9760666666667","6500700","樹林區"
"238021","KEA-2217","2017/09/21 19:12:19","新北市樹林區柑園街二段314號","121.373355","24.9518116666667","6500700","樹林區"
"238022","KEA-2213","2017/09/21 19:12:16","新北市樹林區中山路二段151巷12號","121.406795","24.97826","6500700","樹林區"
"238020","308-TH","2017/09/21 19:12:34","新北市樹林區俊英街79號","121.426148333333","25.00749","6500700","樹林區"
"238025","303-VK","2017/09/21 19:12:31","新北市樹林區中山路三段125-9號","121.39791","24.973805","6500700","樹林區"
"238017","283-BY","2017/09/21 19:12:19","新北市樹林區光興街88號","121.407666666667","25.0027566666667","6500700","樹林區"
"238014","282-BY","2017/09/21 19:12:30","新北市樹林區千歲街94號","121.426678333333","24.9978566666667","6500700","樹林區"
"238026","172-UY","2017/09/21 19:12:29","新北市樹林區佳園路一段39-1號","121.393281666667","24.9708366666667","6500700","樹林區"
"238016","169-UY","2017/09/21 19:12:19","新北市樹林區中山路一段282號","121.420456666667","24.98703","6500700","樹林區"
"239007","AAC-297","2017/09/21 19:12:33","新北市鶯歌區中山路268號","121.344381666667","24.9570383333333","6500800","鶯歌區"
"239006","891-R6","2017/09/21 19:12:27","新北市鶯歌區鶯桃路296巷94弄2號","121.337026666667","24.9619583333333","6500800","鶯歌區"
"239008","527-UM","2017/09/21 19:12:25","新北市鶯歌區國際二路2巷8號","121.339235","24.9729933333333","6500800","鶯歌區"
"239005","526-UM","2017/09/21 19:12:23","新北市鶯歌區中湖街140號","121.349496666667","24.9734416666667","6500800","鶯歌區"
"239001","417-VK","2017/09/21 19:12:26","新北市鶯歌區永智街10號","121.336975","24.9549183333333","6500800","鶯歌區"
"239003","360-BY","2017/09/21 19:12:23","新北市鶯歌區八德路10號","121.332683333333","24.95488","6500800","鶯歌區"
"239002","359-BY","2017/09/21 19:12:24","新北市鶯歌區西湖街279巷1號","121.339496666667","24.9682183333333","6500800","鶯歌區"
"239004","193-VK","2017/09/21 19:12:30","新北市鶯歌區中正三路306號","121.328305","24.9356083333333","6500800","鶯歌區"
"221008","489-VK","2017/09/21 19:12:28","新北市汐止區康寧街426號","121.630626666667","25.068055","6501100","汐止區"
"221036","130-UY","2017/09/21 19:12:34","新北市汐止區大同路二段397號","121.65804","25.06729","6501100","汐止區"
"221015","131-UY","2017/09/21 19:12:21","新北市汐止區汐萬路一段256巷3號","121.652823333333","25.074405","6501100","汐止區"
"221010","269-BY","2017/09/21 19:12:16","新北市汐止區康寧街901號","121.65147","25.075005","6501100","汐止區"
"221012","276-VK","2017/09/21 13:23:24","新北市汐止區汐萬路一段256巷3號","121.653466666667","25.0746033333333","6501100","汐止區"
"221012","278-VK","2017/09/21 19:12:08","新北市汐止區康寧街901號","121.650836666667","25.0752866666667","6501100","汐止區"
"221023","279-VK","2017/09/21 19:12:24","新北市汐止區康寧街901號","121.650978333333","25.0751183333333","6501100","汐止區"
"221027","281-BY","2017/09/21 18:51:23","新北市汐止區康寧街901號","121.650903333333","25.07527","6501100","汐止區"
"221038","297-VK","2017/09/21 19:12:15","新北市汐止區汐萬路一段312號","121.650698333333","25.075335","6501100","汐止區"
"221029","298-VK","2017/09/21 19:12:13","新北市汐止區汐萬路一段256巷3號","121.652306666667","25.074635","6501100","汐止區"
"221021","299-VK","2017/09/21 19:12:31","新北市汐止區康寧街901號","121.651395","25.0749916666667","6501100","汐止區"
"221031","353-TW","2017/09/21 19:12:22","新北市汐止區中興路181-1號","121.63041","25.06688","6501100","汐止區"
"221025","623-UM","2017/09/21 19:12:27","新北市汐止區康寧街901號","121.651533333333","25.07501","6501100","汐止區"
"221033","647-BX","2017/09/21 19:12:30","新北市汐止區南勢街3號","121.62708","25.037405","6501100","汐止區"
"221002","707-TV","2017/09/21 19:12:24","新北市汐止區大同路一段319號","121.63794","25.059095","6501100","汐止區"
"220079","145-BY","2017/09/21 19:12:32","新北市板橋區民權路302巷11號","121.457501666667","25.0165633333333","6500100","板橋區"
"220080","200-UY","2017/09/21 19:12:35","新北市板橋區大觀路二段7巷15號","121.447601666667","25.0034633333333","6500100","板橋區"
"220082","610-BX","2017/09/21 19:12:31","新北市板橋區溪崑二街75號","121.427941666667","24.9903033333333","6500100","板橋區"
"220101","245-BX","2017/09/21 19:12:29","新北市板橋區民生路二段198號","121.469826666667","25.0209516666667","6500100","板橋區"
"220056","276-BY","2017/09/21 19:12:26","新北市板橋區信義路110巷5號","121.458013333333","24.992155","6500100","板橋區"
"220072","277-BY","2017/09/21 19:12:28","新北市板橋區金門街369巷58號","121.428238333333","24.9816233333333","6500100","板橋區"
"220064","280-UM","2017/09/21 19:12:23","新北市板橋區板新路96號","121.47231","25.0147183333333","6500100","板橋區"
"220094","283-UM","2017/09/21 19:12:16","新北市板橋區吳鳳路81巷54號","121.46509","25.0306933333333","6500100","板橋區"
"220071","283-VK","2017/09/21 19:12:18","新北市板橋區重慶路353巷7號","121.464878333333","24.998175","6500100","板橋區"
"220053","285-VK","2017/09/21 19:12:29","新北市板橋區懷仁街25巷9號","121.476761666667","25.0199883333333","6500100","板橋區"
"220083","286-VK","2017/09/21 19:12:15","新北市板橋區龍興街99巷21號","121.443431666667","25.003235","6500100","板橋區"
"220081","287-VK","2017/09/21 18:45:14","新北市板橋區大觀路一段43號","121.44821","25.0078583333333","6500100","板橋區"
"220090","288-VK","2017/09/21 19:12:34","新北市板橋區裕民街16號","121.46211","25.0290566666667","6500100","板橋區"
"220061","293-UM","2017/09/21 19:12:26","新北市板橋區中山路二段248號","121.47859","25.018225","6500100","板橋區"
"220075","297-UM","2017/09/21 19:12:33","新北市板橋區南雅南路一段1巷1弄8號","121.457006666667","25.0063533333333","6500100","板橋區"
"220062","303-R5","2017/09/21 19:12:21","新北市板橋區三民路二段居仁巷1弄20號","121.479848333333","25.0135216666667","6500100","板橋區"
"220092","307-R5","2017/09/21 19:12:28","新北市板橋區文化路二段225巷60弄22號","121.469248333333","25.0290116666667","6500100","板橋區"
"220098","317-R6","2017/09/21 19:12:30","新北市板橋區四維路100號","121.465733333333","25.0244283333333","6500100","板橋區"
"220089","487-VK","2017/09/21 19:12:17","新北市板橋區文化路二段516號","121.47562","25.0335516666667","6500100","板橋區"
"220088","491-VK","2017/09/21 19:12:24","新北市板橋區文化路二段182巷1弄17號","121.471433333333","25.0278933333333","6500100","板橋區"
"220035","560-BX","2017/09/21 19:12:21","新北市板橋區瑞安街23號","121.455323333333","25.023075","6500100","板橋區"
"220103","561-BX","2017/09/21 19:12:24","新北市板橋區介壽街61號","121.469256666667","25.0195816666667","6500100","板橋區"
"220084","568-UM","2017/09/21 19:12:21","新北市板橋區溪崑一街30巷13號","121.429426666667","24.9913483333333","6500100","板橋區"
"220063","609-BX","2017/09/21 19:12:14","新北市板橋區三民路二段136-4號","121.479168333333","25.0160566666667","6500100","板橋區"
"220091","637-BX","2017/09/21 19:12:35","新北市板橋區縣民大道三段251號","121.481553333333","25.026155","6500100","板橋區"
"220057","686-BX","2017/09/21 19:12:20","新北市板橋區重慶路322-4號","121.464026666667","24.997785","6500100","板橋區"
"220077","687-BX","2017/09/21 19:12:28","新北市板橋區大觀路一段35巷2號","121.449278333333","25.0084333333333","6500100","板橋區"
"220093","689-BX","2017/09/21 19:12:31","新北市板橋區民生路三段149號","121.46576","25.026515","6500100","板橋區"
"220054","741-BX","2017/09/21 19:12:21","新北市板橋區重慶路89巷6號","121.462688333333","25.006405","6500100","板橋區"
"220055","827-TW","2017/09/21 19:12:21","新北市板橋區新民街4巷19號","121.465123333333","25.0098816666667","6500100","板橋區"
"220067","829-TW","2017/09/21 19:12:27","新北市板橋區中山路二段90巷43弄9號","121.476716666667","25.0150816666667","6500100","板橋區"
"220102","830-TW","2017/09/21 19:12:26","新北市板橋區田單街49巷1弄14號","121.482653333333","25.0288783333333","6500100","板橋區"
"220096","831-TW","2017/09/21 19:12:27","新北市板橋區大同街8巷17號","121.477278333333","25.02632","6500100","板橋區"
"220074","895-R6","2017/09/21 19:12:29","新北市板橋區文昌街1號","121.456023333333","25.0100366666667","6500100","板橋區"
"220073","985-R7","2017/09/21 19:12:21","新北市板橋區中正路343號","121.454845","25.0204966666667","6500100","板橋區"
"220097","AAC-210","2017/09/21 19:12:36","新北市板橋區幸福路70巷7號","121.460575","25.0203516666667","6500100","板橋區"
"220070","AAC-253","2017/09/21 19:12:23","新北市板橋區忠孝路57號","121.461395","25.002105","6500100","板橋區"
