"lineid","car","time","location","longitude","latitude","cityid","cityname"
"234046","148-BY","2017/09/21 20:18:15","新北市永和區永元路2號","121.521868333333","24.99988","6500400","永和區"
"234013","149-BY","2017/09/21 20:18:19","新北市永和區保生路5巷3號","121.50604","25.0071466666667","6500400","永和區"
"234007","208-UY","2017/09/21 20:18:20","新北市永和區保順路11號","121.504573333333","25.009465","6500400","永和區"
"234081","298-R6","2017/09/21 20:18:30","新北市永和區福和路19巷14號","121.52434","25.0078083333333","6500400","永和區"
"234038","336-UY","2017/09/21 20:18:20","新北市永和區成功路一段93巷11-1號","121.527631666667","25.0027933333333","6500400","永和區"
"234064","337-UY","2017/09/21 20:18:20","新北市永和區中正路340號","121.517955","25.0000683333333","6500400","永和區"
"234086","338-UY","2017/09/21 20:18:20","新北市永和區中正路563號","121.51663","25.0084966666667","6500400","永和區"
"234070","552-UM","2017/09/21 20:18:18","新北市永和區永亨路51號","121.520263333333","25.0063633333333","6500400","永和區"
"234054","553-UM","2017/09/21 20:18:27","新北市永和區光復街2巷16弄3號","121.517221666667","25.016355","6500400","永和區"
"234017","745-BX","2017/09/21 20:18:27","新北市永和區仁愛路42號","121.514196666667","25.013425","6500400","永和區"
"234028","746-BX","2017/09/21 20:18:14","新北市永和區民族街81巷46號","121.519725","24.9965033333333","6500400","永和區"
"234061","AAD-866","2017/09/21 20:18:24","新北市永和區安樂路166號","121.514685","25.0008716666667","6500400","永和區"
"234030","847-RS","2017/09/21 12:31:07","新北市永和區福和路1號","121.52661","25.009865","6500400","永和區"
"234042","862-TW","2017/09/21 20:18:24","新北市永和區中和路463號","121.509861666667","25.0016716666667","6500400","永和區"
"234050","863-TW","2017/09/21 20:18:18","新北市永和區文化路179號","121.509746666667","25.016885","6500400","永和區"
"234011","9373-KE","2017/09/21 20:18:22","新北市永和區仁愛路352巷124號","121.500276666667","25.008595","6500400","永和區"
"249005","172-UM","2017/09/21 20:18:23","新北市八里區下罟子7號","121.385761666667","25.140745","6502300","八里區"
"249001","173-UM","2017/09/21 20:18:16","新北市八里區中華路二段466號","121.400915","25.14608","6502300","八里區"
"249004","303-UY","2017/09/21 20:18:12","新北市八里區中山路一段332號","121.412646666667","25.1590416666667","6502300","八里區"
"249003","593-UM","2017/09/21 20:18:26","新北市八里區中山路二段447巷2號","121.39696","25.1452316666667","6502300","八里區"
"248014","025-BX","2017/09/21 20:18:26","新北市五股區新城六路239號","121.448133333333","25.09248","6501500","五股區"
"248016","026-BX","2017/09/21 20:18:26","新北市五股區凌雲路一段158巷39弄12號","121.446511666667","25.104095","6501500","五股區"
"248010","272-BY","2017/09/21 20:18:23","新北市五股區成泰路一段8巷16號","121.436758333333","25.0668083333333","6501500","五股區"
"248005","653-BX","2017/09/21 12:44:17","新北市五股區中興路二段83巷26-6號","121.459906666667","25.07504","6501500","五股區"
"248012","655-BX","2017/09/21 20:18:19","新北市五股區五福路91號","121.431973333333","25.09011","6501500","五股區"
"248004","677-BX","2017/09/21 20:18:23","新北市五股區成泰路二段86號","121.43751","25.0825566666667","6501500","五股區"
"248002","678-BX","2017/09/21 20:18:10","新北市五股區成泰路三段111號","121.444096666667","25.0904933333333","6501500","五股區"
"234023","9380-KE","2017/09/21 20:18:27","新北市永和區勵行街40號","121.516535","25.0136583333333","6500400","永和區"
"234077","969-R7","2017/09/21 20:18:26","新北市永和區民享街19號","121.515545","24.9950166666667","6500400","永和區"
"234074","AAC-211","2017/09/21 20:18:27","新北市永和區豫溪街160巷1號","121.523281666667","25.00964","6500400","永和區"
"234066","AAC-212","2017/09/21 20:18:22","新北市永和區保平路236巷1弄1號","121.509093333333","25.0057516666667","6500400","永和區"
"234003","AAC-295","2017/09/21 20:18:19","新北市永和區永和路一段115-1號","121.513926666667","25.008115","6500400","永和區"
"243013","AAD-798","2017/09/21 20:18:25","新北市泰山區新民路14巷2弄2號","121.426298333333","25.0446133333333","6501600","泰山區"
"243009","297-R6","2017/09/21 20:18:30","新北市泰山區福泰街15號","121.432761666667","25.06028","6501600","泰山區"
"243015","380-SR","2017/09/21 20:18:27","新北市泰山區泰林路二段81號","121.434963333333","25.0585333333333","6501600","泰山區"
"243014","421-VK","2017/09/21 20:18:11","新北市泰山區泰林路二段363號","121.427961666667","25.0640116666667","6501600","泰山區"
"243010","KEA-2215","2017/09/21 20:18:17","新北市泰山區明志路二段246巷4號","121.426418333333","25.0485333333333","6501600","泰山區"
"243011","KEA-2216","2017/09/21 20:18:30","新北市泰山區德安街10號","121.419001666667","25.0316516666667","6501600","泰山區"
"243012","646-TV","2017/09/21 20:18:25","新北市泰山區楓江路81號","121.436706666667","25.0634866666667","6501600","泰山區"
"243016","680-BX","2017/09/21 20:18:30","新北市泰山區新生路111號","121.428861666667","25.0447366666667","6501600","泰山區"
"222003","436-BY","2017/09/21 20:18:13","新北市深坑區埔新街99號","121.61924","25.002215","6501800","深坑區"
"222002","659-BX","2017/09/21 20:18:18","新北市深坑區北深路三段242-1號","121.600866666667","25.00546","6501800","深坑區"
"222001","696-SL","2017/09/21 20:18:28","新北市深坑區北深路三段213號","121.600313333333","25.00411","6501800","深坑區"
"231041","002-UM","2017/09/21 20:18:25","新北市新店區民權路44號","121.540228333333","24.982995","6500600","新店區"
"231055","0293-UT","2017/09/21 20:18:18","新北市新店區新明街26巷5號","121.540873333333","24.96862","6500600","新店區"
"231059","046-UY","2017/09/21 20:18:23","新北市新店區安德街132號","121.508606666667","24.9603016666667","6500600","新店區"
"231061","047-UY","2017/09/21 20:18:15","新北市新店區安興路32號","121.515753333333","24.9703583333333","6500600","新店區"
"231060","106-UY","2017/09/21 20:18:15","新北市新店區錦秀路1號","121.47898","24.9457","6500600","新店區"
"231051","107-UY","2017/09/21 20:18:26","新北市新店區中央六街29號","121.529171666667","24.9751233333333","6500600","新店區"
"231047","108-UY","2017/09/21 20:18:21","新北市新店區寶橋路85巷66號","121.544971666667","24.9767266666667","6500600","新店區"
"231052","187-VK","2017/09/21 20:18:17","新北市新店區新烏路二段300號","121.548196666667","24.9128383333333","6500600","新店區"
"231007","189-VK","2017/09/21 12:00:00","新北市新店區安華路28-1號","121.51972","24.9610933333333","6500600","新店區"
"231050","215-TC","2017/09/21 20:18:23","新北市新店區光明街31號","121.538265","24.9596866666667","6500600","新店區"
"231057","256-BX","2017/09/21 20:18:13","新北市新店區花園五路二段11號","121.554068333333","24.9343966666667","6500600","新店區"
"231063","268-BY","2017/09/21 20:18:29","新北市新店區車子路10號","121.504631666667","24.9552433333333","6500600","新店區"
"231054","AAD-862","2017/09/21 20:18:19","新北市新店區檳榔路109號","121.544441666667","24.96159","6500600","新店區"
"231056","4716-K9","2017/09/21 20:18:13","新北市新店區中正路275巷45號","121.53667","24.9726216666667","6500600","新店區"
"231067","4772-VM","2017/09/21 20:18:19","新北市新店區溪洲路8巷120-1號","121.533006666667","24.9632333333333","6500600","新店區"
"231065","512-UM","2017/09/21 20:18:27","新北市新店區安祥路104-10號","121.479145","24.9620866666667","6500600","新店區"
"231064","515-UM","2017/09/21 20:18:19","新北市新店區安樂街12號","121.520816666667","24.9733716666667","6500600","新店區"
"231040","619-UM","2017/09/21 20:18:19","新北市新店區中正路108號","121.543073333333","24.9705883333333","6500600","新店區"
"231042","641-BX","2017/09/21 20:18:17","新北市新店區中興路二段222號","121.547935","24.9750016666667","6500600","新店區"
"231068","718-UY","2017/09/21 20:18:11","新北市新店區寶安街33號","121.541985","24.9824283333333","6500600","新店區"
"231049","719-UM","2017/09/21 20:18:19","新北市新店區北新路二段35號","121.542795","24.9724583333333","6500600","新店區"
"231062","720-UM","2017/09/21 20:18:25","新北市新店區安泰路7巷16號","121.485658333333","24.9509683333333","6500600","新店區"
"231044","897-TW","2017/09/21 20:18:31","新北市新店區北新路三段157號","121.541253333333","24.9835733333333","6500600","新店區"
"231045","898-TW","2017/09/21 20:18:12","新北市新店區新坡一街74-3號","121.548295","24.9644966666667","6500600","新店區"
"231043","899-TW","2017/09/21 20:18:27","新北市新店區建國路133號","121.539238333333","24.9781766666667","6500600","新店區"
"231066","AKT-0513","2017/09/21 20:18:12","新北市新店區安興路105-1號","121.514625","24.9776933333333","6500600","新店區"
"241011","013-R5","2017/09/21 20:18:25","新北市三重區龍濱路285號","121.501126666667","25.073385","6500200","三重區"
"241028","022-UY","2017/09/21 20:18:26","新北市三重區大同南路143-2號","121.496615","25.0573816666667","6500200","三重區"
"241009","060-VK","2017/09/21 20:18:19","新北市三重區三和路四段382巷48號","121.480976666667","25.0784566666667","6500200","三重區"
"241031","061-VK","2017/09/21 20:18:21","新北市三重區過圳街9-1號","121.48879","25.0602083333333","6500200","三重區"
"241015","062-VK","2017/09/21 20:18:12","新北市三重區重新路一段85號","121.501131666667","25.0634516666667","6500200","三重區"
"241017","063-VK","2017/09/21 20:18:17","新北市三重區重陽路三段5巷1號","121.49066","25.06547","6500200","三重區"
"241024","065-VK","2017/09/21 20:18:13","新北市三重區忠孝路三段1號","121.481943333333","25.0677783333333","6500200","三重區"
"241026","066-VK","2017/09/21 20:18:20","新北市三重區重新路一段12-1號","121.503915","25.0639466666667","6500200","三重區"
"241002","090-VK","2017/09/21 20:18:10","新北市三重區仁義街167巷55號","121.498961666667","25.0824016666667","6500200","三重區"
"241003","091-VK","2017/09/21 20:18:26","新北市三重區富華街84號","121.490865","25.0833616666667","6500200","三重區"
"241008","156-TC","2017/09/21 20:18:25","新北市三重區永福街197巷6-1號","121.478351666667","25.074445","6500200","三重區"
"241005","262-UM","2017/09/21 20:18:28","新北市三重區分子尾街111號","121.488568333333","25.08287","6500200","三重區"
"241016","266-UM","2017/09/21 20:18:21","新北市三重區中正北路23號","121.492421666667","25.0618766666667","6500200","三重區"
"241022","267-UM","2017/09/21 20:18:23","新北市三重區中正北路2號","121.489231666667","25.06318","6500200","三重區"
"241032","269-UM","2017/09/21 20:18:22","新北市三重區捷運路19巷6弄1號","121.484855","25.05703","6500200","三重區"
"241013","270-UM","2017/09/21 20:18:29","新北市三重區三和路三段151巷7號","121.492261666667","25.0737866666667","6500200","三重區"
"241025","271-UM","2017/09/21 20:18:14","新北市三重區三民街274號","121.478926666667","25.0682","6500200","三重區"
"241007","398-BY","2017/09/21 20:18:09","新北市三重區三和路四段117巷33號","121.486568333333","25.077935","6500200","三重區"
"241029","KEA-2210","2017/09/21 20:18:23","新北市三重區光明路96巷15號","121.49298","25.0566533333333","6500200","三重區"
"241004","475-VK","2017/09/21 20:18:21","新北市三重區仁政街205號","121.49065","25.08067","6500200","三重區"
"241019","478-VK","2017/09/21 20:18:17","新北市三重區忠孝路一段30巷58號","121.490488333333","25.0711866666667","6500200","三重區"
"241030","480-VK","2017/09/21 20:18:22","新北市三重區集美街89巷21號","121.488331666667","25.0527883333333","6500200","三重區"
"241014","543-UM","2017/09/21 20:18:26","新北市三重區長樂街135巷2號","121.503598333333","25.0699833333333","6500200","三重區"
"241023","545-UM","2017/09/21 20:18:17","新北市三重區忠孝路三段93巷10號","121.478896666667","25.0648683333333","6500200","三重區"
"241001","547-UM","2017/09/21 20:18:16","新北市三重區自強路四段3巷15號","121.489356666667","25.0762633333333","6500200","三重區"
"241035","743-BX","2017/09/21 20:18:10","新北市三重區正義北路33巷52號","121.499135","25.0639816666667","6500200","三重區"
"241018","887-TS","2017/09/21 20:18:23","新北市三重區雙園街97號","121.493805","25.0673683333333","6500200","三重區"
"241033","AAC-255","2017/09/21 20:18:28","新北市三重區五谷王北街42巷2號","121.4756","25.04923","6500200","三重區"
"235066","003-UY","2017/09/21 20:18:13","新北市中和區南工路107號","121.507285","25.00392","6500300","中和區"
"235039","097-UM","2017/09/21 20:18:26","新北市中和區大仁街19巷8號","121.5173","24.9933616666667","6500300","中和區"
"235065","098-UM","2017/09/21 20:18:24","新北市中和區永和路118號","121.496525","25.00622","6500300","中和區"
"235055","183-VK","2017/09/21 20:18:21","新北市三重區光復路二段188號","121.471308333333","25.0627266666667","6500300","中和區"
"235072","301-VK","2017/09/21 20:18:17","新北市林口區太平里180號","121.368276666667","25.13456","6500300","中和區"
"235068","377-QA","2017/09/21 20:18:27","新北市中和區中山路二段2巷95弄7號","121.500231666667","25.00749","6500300","中和區"
"235061","378-QA","2017/09/21 20:18:21","新北市新店區薏仁坑路自強巷1號","121.497041666667","24.957695","6500300","中和區"
"235050","4979-A6","2017/09/21 20:18:27","新北市中和區景平路438號","121.506945","24.99341","6500300","中和區"
"235069","4980-A6","2017/09/21 20:18:19","新北市中和區中正路282號","121.494753333333","24.9940833333333","6500300","中和區"
"235070","558-UM","2017/09/21 20:17:53","新北市中和區圓通路232巷10號","121.494841666667","24.9932566666667","6500300","中和區"
"235037","AAC-213","2017/09/21 20:18:08","新北市中和區景平路2-1號","121.525396666667","24.9904116666667","6500300","中和區"
"235059","AAC-215","2017/09/21 20:18:30","新北市中和區圓通路369巷2號","121.491238333333","24.9895333333333","6500300","中和區"
"220065","072-UY","2017/09/21 20:18:11","新北市板橋區溪城路63號","121.426251666667","24.9843","6500100","板橋區"
"220069","AAD-861","2017/09/21 20:18:31","新北市板橋區貴興路94號","121.455753333333","25.00262","6500100","板橋區"
"247022","893-R6","2017/09/21 20:18:23","新北市蘆洲區民族路576號","121.467066666667","25.088645","6501400","蘆洲區"
"247012","546-UM","2017/09/21 20:18:30","新北市蘆洲區中興街15巷14號","121.480371666667","25.0873983333333","6501400","蘆洲區"
"247020","500-BY","2017/09/21 20:18:15","新北市蘆洲區仁愛街65號","121.471696666667","25.0935783333333","6501400","蘆洲區"
"247010","339-TH","2017/09/21 20:18:20","新北市蘆洲區信義路188巷25弄1號","121.480401666667","25.0846266666667","6501400","蘆洲區"
"247002","337-TH","2017/09/21 20:18:20","新北市蘆洲區環堤大道108號","121.455551666667","25.08657","6501400","蘆洲區"
"247004","336-TH","2017/09/21 20:18:16","新北市蘆洲區長安街220巷7號","121.459148333333","25.0850066666667","6501400","蘆洲區"
"247016","057-VK","2017/09/21 20:18:29","新北市蘆洲區光華路132巷39號","121.465786666667","25.083765","6501400","蘆洲區"
"247006","056-VK","2017/09/21 20:18:19","新北市蘆洲區九芎街136號","121.464956666667","25.07898","6501400","蘆洲區"
"247008","053-VK","2017/09/21 20:18:12","新北市蘆洲區集賢路300號","121.481591666667","25.0850233333333","6501400","蘆洲區"
"247014","007-UY","2017/09/21 20:18:11","新北市蘆洲區中山二路132號","121.471568333333","25.0814833333333","6501400","蘆洲區"
"247024","002-UY","2017/09/21 20:18:23","新北市蘆洲區光榮路120巷8弄39號","121.464538333333","25.0879566666667","6501400","蘆洲區"
"247018","001-UY","2017/09/21 20:18:18","新北市蘆洲區民族路408巷10號","121.47479","25.0918666666667","6501400","蘆洲區"
"251009","008-UM","2017/09/21 20:18:12","新北市淡水區中山路110號","121.44214","25.1707033333333","6501000","淡水區"
"251001","011-UM","2017/09/21 20:18:16","新北市淡水區新市二路四段265號","121.4457","25.1925033333333","6501000","淡水區"
"251008","181-VK","2017/09/21 20:18:20","新北市淡水區淡海路150巷17號","121.422226666667","25.1842316666667","6501000","淡水區"
"251014","182-VK","2017/09/21 20:18:29","新北市淡水區石頭厝1號","121.458731666667","25.235545","6501000","淡水區"
"251010","413-VK","2017/09/21 20:18:18","新北市淡水區新民街一段134號","121.427581666667","25.1888616666667","6501000","淡水區"
"251012","441-VK","2017/09/21 20:18:25","新北市淡水區淡金路三段356號","121.449273333333","25.209125","6501000","淡水區"
"251016","442-VK","2017/09/21 20:18:12","新北市淡水區淡金路五段20號","121.453395","25.2323983333333","6501000","淡水區"
"251006","561-UM","2017/09/21 20:18:18","新北市淡水區北新路一段129-1號","121.456921666667","25.181875","6501000","淡水區"
"251002","672-BX","2017/09/21 20:18:21","新北市淡水區中正路272號","121.438216666667","25.17155","6501000","淡水區"
"251003","766-UM","2017/09/21 20:18:28","新北市淡水區中山北路一段229號","121.444435","25.17955","6501000","淡水區"
"207004","225-TW","2017/09/21 20:18:24","新北市萬里區北基里仁七街1號","121.681141666667","25.174975","6502800","萬里區"
"252002","178-VK","2017/09/21 20:18:11","新北市三芝區利民街19號","121.503296666667","25.25911","6502100","三芝區"
"252001","292-VK","2017/09/21 20:18:21","新北市三芝區中山路一段35號","121.500663333333","25.2579933333333","6502100","三芝區"
"237007","153-BY","2017/09/21 20:18:22","新北市三峽區二鬮路17-2號","121.363105","24.9124183333333","6500900","三峽區"
"237012","275-BY","2017/09/21 20:18:18","新北市三峽區中華路74-5號","121.371573333333","24.929235","6500900","三峽區"
"237006","5529-G3","2017/09/21 20:18:27","新北市三峽區中正路二段122-1號","121.366426666667","24.9173533333333","6500900","三峽區"
"237005","AKY-6261","2017/09/21 20:18:12","新北市三峽區三樹路98巷93號","121.381978333333","24.9399366666667","6500900","三峽區"
"236071","105-UM","2017/09/21 20:18:11","新北市土城區大安路126號","121.433961666667","24.96973","6501300","土城區"
"236042","107-UM","2017/09/21 20:18:24","新北市土城區學享街38號","121.451875","24.9869266666667","6501300","土城區"
"236078","166-UM","2017/09/21 20:18:23","新北市土城區金安街71號","121.420313333333","24.9653883333333","6501300","土城區"
"236030","253-BX","2017/09/21 20:18:13","新北市土城區中央路一段45巷2弄1號","121.44848","24.9903183333333","6501300","土城區"
"236026","269-VK","2017/09/21 20:18:26","新北市土城區裕生路100巷1號","121.446608333333","24.9849616666667","6501300","土城區"
"236014","270-VK","2017/09/21 20:18:14","新北市土城區廣明街90巷23號","121.455476666667","24.994605","6501300","土城區"
"236037","271-VK","2017/09/21 20:18:10","新北市土城區延吉街280號","121.465258333333","24.9842733333333","6501300","土城區"
"236021","401-BY","2017/09/21 20:18:27","新北市土城區延吉街21巷1號","121.472593333333","24.98846","6501300","土城區"
"236058","912-UM","2017/09/21 20:18:23","新北市土城區中央路二段392-1號","121.439706666667","24.97095","6501300","土城區"
"236053","AAC-216","2017/09/21 20:18:14","新北市土城區中華路二段88號","121.438163333333","24.9754683333333","6501300","土城區"
"242031","AAC-296","2017/09/21 20:18:23","新北市新莊區中正路455-1號","121.442686666667","25.0339766666667","6500500","新莊區"
"242029","986-R7","2017/09/21 20:18:24","新北市新莊區中原路345號","121.44527","25.0544","6500500","新莊區"
"242051","751-BX","2017/09/21 20:18:17","新北市新莊區民安西路212巷12-1號","121.424938333333","25.015205","6500500","新莊區"
"242025","615-BX","2017/09/21 20:18:26","新北市新莊區五工二路70巷11號","121.460633333333","25.0662433333333","6500500","新莊區"
"242023","613-BX","2017/09/21 20:18:28","新北市新莊區化成路750-2號","121.465493333333","25.0578166666667","6500500","新莊區"
"242027","612-BX","2017/09/21 20:18:28","新北市新莊區幸福路606號","121.451933333333","25.0492616666667","6500500","新莊區"
"242039","566-BX","2017/09/21 20:18:16","新北市新莊區龍安路441號","121.42448","25.0186183333333","6500500","新莊區"
"242044","497-BY","2017/09/21 20:18:31","新北市新莊區中正路895-7號","121.412715","25.021605","6500500","新莊區"
"242048","442-UM","2017/09/21 20:18:32","新北市新莊區四維路186巷1號","121.421868333333","25.0210616666667","6500500","新莊區"
"242053","440-UM","2017/09/21 20:18:29","新北市新莊區民安西路270號","121.426058333333","25.0129466666667","6500500","新莊區"
"242004","413-TV","2017/09/21 20:18:23","新北市新莊區頭前路15巷14號","121.467845","25.05169","6500500","新莊區"
"242061","362-BY","2017/09/21 20:18:19","新北市新莊區新樹路172-13號","121.434578333333","25.021685","6500500","新莊區"
"242058","353-BY","2017/09/21 20:18:17","新北市新莊區四維路205-3號","121.42181","25.02025","6500500","新莊區"
"242007","132-UY","2017/09/21 20:18:28","新北市新莊區福壽街94巷20號","121.459078333333","25.0500716666667","6500500","新莊區"
"242036","133-UY","2017/09/21 20:18:23","新北市新莊區建安街9巷1號","121.428895","25.02664","6500500","新莊區"
"242021","135-UY","2017/09/21 20:18:24","新北市新莊區新泰路240號","121.44635","25.039345","6500500","新莊區"
"242046","172-VK","2017/09/21 20:18:24","新北市新莊區中正路新生巷42號","121.417126666667","25.0233833333333","6500500","新莊區"
"242009","173-VK","2017/09/21 20:18:32","新北市新莊區昌平街29號","121.454745","25.05186","6500500","新莊區"
"242015","175-VK","2017/09/21 20:18:19","新北市新莊區永樂街233號","121.446736666667","25.04429","6500500","新莊區"
"242002","176-VK","2017/09/21 20:18:25","新北市新莊區中正路2-1號","121.465561666667","25.04219","6500500","新莊區"
"242013","346-TH","2017/09/21 20:18:15","新北市新莊區中和街186巷6弄1號","121.448148333333","25.0497","6500500","新莊區"
"242019","348-TH","2017/09/21 20:18:12","新北市新莊區博愛路7巷10號","121.455901666667","25.0438516666667","6500500","新莊區"
"242056","349-TH","2017/09/21 20:18:12","新北市新莊區豐年街28巷16號","121.445576666667","25.0323583333333","6500500","新莊區"
"242017","350-TH","2017/09/21 20:18:28","新北市新莊區中港一街130號","121.448261666667","25.0451566666667","6500500","新莊區"
"242011","351-TH","2017/09/21 20:18:25","新北市新莊區中信街23巷1號","121.450988333333","25.0506133333333","6500500","新莊區"
"238021","KEA-2217","2017/09/21 20:18:18","新北市樹林區田尾街156號","121.40344","24.9519533333333","6500700","樹林區"
"221008","489-VK","2017/09/21 20:18:28","台北市內湖區康樂街16號","121.61795","25.068","6501100","汐止區"
"221036","130-UY","2017/09/21 20:18:14","新北市汐止區仁愛路152巷31號","121.66491","25.0637766666667","6501100","汐止區"
"221015","131-UY","2017/09/21 20:18:21","新北市汐止區建成路142巷19弄9號","121.661995","25.0737783333333","6501100","汐止區"
"221010","269-BY","2017/09/21 20:18:16","新北市汐止區八連路一段338號","121.6405","25.0881216666667","6501100","汐止區"
"221012","276-VK","2017/09/21 13:23:24","新北市汐止區汐萬路一段256巷3號","121.653466666667","25.0746033333333","6501100","汐止區"
"221012","278-VK","2017/09/21 20:18:28","新北市汐止區保新街283號","121.692803333333","25.0683016666667","6501100","汐止區"
"221023","279-VK","2017/09/21 20:18:24","新北市汐止區明峰街190號","121.628101666667","25.069715","6501100","汐止區"
"221032","280-BY","2017/09/21 20:18:15","新北市汐止區民權街二段28號","121.619415","25.04986","6501100","汐止區"
"221027","281-BY","2017/09/21 20:18:18","新北市汐止區大同路二段517號","121.66141","25.069005","6501100","汐止區"
"221038","297-VK","2017/09/21 20:18:15","新北市汐止區忠孝東路497號","121.666363333333","25.0746533333333","6501100","汐止區"
"221029","298-VK","2017/09/21 20:18:13","新北市汐止區樟樹一路99巷7弄1號","121.64117","25.0635833333333","6501100","汐止區"
"221021","299-VK","2017/09/21 20:18:11","新北市汐止區水源路一段242號","121.65412","25.0601583333333","6501100","汐止區"
"221031","353-TW","2017/09/21 20:18:22","新北市汐止區福德二路94-1號","121.632558333333","25.0661816666667","6501100","汐止區"
"221035","622-UM","2017/09/21 20:18:27","新北市汐止區長江街101-5號","121.65862","25.073175","6501100","汐止區"
"221025","623-UM","2017/09/21 20:18:26","新北市汐止區水源路二段30號","121.654758333333","25.0573266666667","6501100","汐止區"
"221033","647-BX","2017/09/21 20:18:10","新北市汐止區東勢街201巷104號","121.633533333333","25.0429016666667","6501100","汐止區"
"221002","707-TV","2017/09/21 20:18:24","新北市汐止區福德二路18號","121.63505","25.0680933333333","6501100","汐止區"
"221018","753-BX","2017/09/21 20:18:28","新北市汐止區茄安路41號","121.673476666667","25.0681816666667","6501100","汐止區"
"220101","245-BX","2017/09/21 20:18:29","新北市板橋區莊敬路56號","121.472858333333","25.0268366666667","6500100","板橋區"
"220053","285-VK","2017/09/21 20:18:29","新北市板橋區南雅南路一段127號","121.4554","25.00435","6500100","板橋區"
"220083","286-VK","2017/09/21 20:18:22","新北市板橋區僑中二街92巷22號","121.445248333333","25.009055","6500100","板橋區"
"220081","287-VK","2017/09/21 19:21:14","新北市板橋區南雅西路二段2-1號","121.453106666667","25.00884","6500100","板橋區"
"220061","293-UM","2017/09/21 20:18:26","新北市板橋區館前東路1號","121.45948","25.007195","6500100","板橋區"
"220062","303-R5","2017/09/21 20:18:21","新北市土城區擺接堡路1號","121.439415","24.9836583333333","6500100","板橋區"
"220089","487-VK","2017/09/21 20:18:17","新北市板橋區互助街10號","121.463036666667","25.0276666666667","6500100","板橋區"
"242034","280-VK","2017/09/21 20:18:27","新北市新莊區建中街154號","121.444758333333","25.03646","6500500","新莊區"
"220103","561-BX","2017/09/21 20:18:24","新北市板橋區漢生東路23巷47號","121.465913333333","25.0180566666667","6500100","板橋區"
"220055","827-TW","2017/09/21 20:18:17","新北市板橋區仁愛路25號","121.458978333333","24.9994866666667","6500100","板橋區"
"220067","829-TW","2017/09/21 20:18:27","新北市板橋區中山路一段9號","121.460053333333","25.0081783333333","6500100","板橋區"
"220102","830-TW","2017/09/21 20:18:30","新北市板橋區文化路一段126號","121.46524","25.0184966666667","6500100","板橋區"
"220074","895-R6","2017/09/21 20:18:29","新北市板橋區文化路一段32巷21弄8號","121.460046666667","25.0111233333333","6500100","板橋區"
"220097","AAC-210","2017/09/21 20:18:15","新北市板橋區公館街94-1號","121.461308333333","25.0165666666667","6500100","板橋區"
"220070","AAC-253","2017/09/21 20:18:23","新北市板橋區四川路二段245巷32號","121.451381666667","24.9926816666667","6500100","板橋區"
