"lineid","car","time","location","longitude","latitude","cityid","cityname"
"234013","149-BY","2017/09/21 20:38:17","新北市新莊區化成路565號","121.464875","25.0659916666667","6500400","永和區"
"234064","337-UY","2017/09/21 20:38:20","新北市中和區環河西路三段123號","121.490145","25.0095816666667","6500400","永和區"
"234054","553-UM","2017/09/21 20:38:27","新北市永和區環河東路一段82號","121.519688333333","25.01644","6500400","永和區"
"234028","746-BX","2017/09/21 20:36:34","新北市三重區光復路二段143巷8-3號","121.474451666667","25.0600716666667","6500400","永和區"
"234061","AAD-866","2017/09/21 20:38:19","新北市永和區中正路381號","121.517156666667","25.0036633333333","6500400","永和區"
"234030","847-RS","2017/09/21 12:31:07","新北市永和區福和路1號","121.52661","25.009865","6500400","永和區"
"234011","9373-KE","2017/09/21 20:38:22","新北市永和區保生路55-1號","121.504555","25.0109066666667","6500400","永和區"
"249001","173-UM","2017/09/21 20:38:16","新北市八里區中山路三段363號","121.375498333333","25.1387","6502300","八里區"
"249004","303-UY","2017/09/21 20:38:12","新北市八里區中山路一段157巷61號","121.412651666667","25.1579533333333","6502300","八里區"
"248005","653-BX","2017/09/21 12:44:17","新北市五股區中興路二段83巷26-6號","121.459906666667","25.07504","6501500","五股區"
"234023","9380-KE","2017/09/21 20:38:27","新北市永和區文化路130號","121.512813333333","25.0153016666667","6500400","永和區"
"234074","AAC-211","2017/09/21 20:38:27","新北市永和區竹林路119巷18弄1號","121.5211","25.0114133333333","6500400","永和區"
"243010","KEA-2215","2017/09/21 20:38:17","新北市泰山區公園路46號","121.42861","25.05454","6501600","泰山區"
"243011","KEA-2216","2017/09/21 20:38:12","新北市泰山區明志路二段362號","121.425695","25.0450883333333","6501600","泰山區"
"243016","680-BX","2017/09/21 20:38:14","新北市泰山區泰林路三段17巷3號","121.420533333333","25.0644683333333","6501600","泰山區"
"222003","436-BY","2017/09/21 20:38:12","新北市深坑區深坑街153號","121.613021666667","25.0011516666667","6501800","深坑區"
"222002","659-BX","2017/09/21 20:38:18","新北市深坑區萬福路47號","121.599535","25.0068733333333","6501800","深坑區"
"222001","696-SL","2017/09/21 20:38:26","新北市深坑區北深路三段256號","121.599858333333","25.00437","6501800","深坑區"
"231041","002-UM","2017/09/21 20:38:25","新北市新店區中正路543-4號","121.533698333333","24.987535","6500600","新店區"
"231059","046-UY","2017/09/21 20:38:23","新北市新店區僑信路82號","121.499723333333","24.9482333333333","6500600","新店區"
"231061","047-UY","2017/09/21 20:38:15","新北市新店區新和街35號","121.519228333333","24.9849433333333","6500600","新店區"
"231060","106-UY","2017/09/21 20:38:15","新北市新店區錦秀路1號","121.479038333333","24.9458216666667","6500600","新店區"
"231051","107-UY","2017/09/21 20:38:26","新北市新店區中央六街42號","121.52856","24.975445","6500600","新店區"
"231047","108-UY","2017/09/21 20:38:21","新北市新店區寶慶街84號","121.54131","24.9867183333333","6500600","新店區"
"231052","187-VK","2017/09/21 20:38:17","新北市新店區廣興路5巷3號","121.54563","24.91173","6500600","新店區"
"231007","189-VK","2017/09/21 12:00:00","新北市新店區安華路28-1號","121.51972","24.9610933333333","6500600","新店區"
"231050","215-TC","2017/09/21 20:38:23","新北市新店區建興街7號","121.539941666667","24.976385","6500600","新店區"
"231057","256-BX","2017/09/21 20:38:18","新北市新店區花園六路二段1-12號","121.553568333333","24.93327","6500600","新店區"
"231063","268-BY","2017/09/21 20:38:29","新北市新店區玫瑰路4-1號","121.493603333333","24.951395","6500600","新店區"
"231054","AAD-862","2017/09/21 20:38:19","新北市新店區北新路一段64巷6-4號","121.541773333333","24.9659733333333","6500600","新店區"
"231058","3712-VJ","2017/09/21 20:38:15","新北市新店區自由街60號","121.534216666667","24.973535","6500600","新店區"
"231056","4716-K9","2017/09/21 20:38:13","新北市新店區中正路457號","121.533825","24.979905","6500600","新店區"
"231065","512-UM","2017/09/21 20:38:27","新北市新店區安祥路102巷133號","121.486675","24.964685","6500600","新店區"
"231064","515-UM","2017/09/21 20:38:20","新北市新店區安和路三段167號","121.51605","24.985945","6500600","新店區"
"231040","619-UM","2017/09/21 20:38:19","新北市新店區中正路265巷30號","121.537603333333","24.9731383333333","6500600","新店區"
"231042","641-BX","2017/09/21 20:38:17","新北市新店區寶高路60號","121.552123333333","24.9777","6500600","新店區"
"231068","718-UY","2017/09/21 20:38:15","新北市新店區寶慶街35巷1弄2號","121.54312","24.9863466666667","6500600","新店區"
"231049","719-UM","2017/09/21 20:38:19","新北市新店區永業路81巷5弄3號","121.53033","24.9490783333333","6500600","新店區"
"231062","720-UM","2017/09/21 20:38:25","新北市新店區安泰路11巷1號","121.485546666667","24.9502133333333","6500600","新店區"
"231044","897-TW","2017/09/21 20:38:21","新北市新店區建國路259號","121.537223333333","24.9836316666667","6500600","新店區"
"231045","898-TW","2017/09/21 20:38:12","新北市新店區長春路213號","121.559365","24.962025","6500600","新店區"
"231043","899-TW","2017/09/21 20:38:07","新北市新店區建國路40號","121.540505","24.9748016666667","6500600","新店區"
"231066","AKT-0513","2017/09/21 20:38:12","新北市新店區安興路112號","121.514633333333","24.9776416666667","6500600","新店區"
"241011","013-R5","2017/09/21 20:38:25","新北市三重區龍門路144號","121.498398333333","25.0730933333333","6500200","三重區"
"241028","022-UY","2017/09/21 20:38:26","新北市三重區光興街89號","121.497446666667","25.0599183333333","6500200","三重區"
"241009","060-VK","2017/09/21 20:38:19","新北市三重區碧華街57號","121.48477","25.08131","6500200","三重區"
"241031","061-VK","2017/09/21 20:38:21","新北市三重區重陽路一段43巷30號","121.488181666667","25.05865","6500200","三重區"
"241015","062-VK","2017/09/21 20:38:11","新北市三重區長壽街1號","121.498185","25.067515","6500200","三重區"
"241017","063-VK","2017/09/21 20:38:17","新北市三重區安慶街237號","121.490866666667","25.067775","6500200","三重區"
"241024","065-VK","2017/09/21 20:38:13","新北市三重區三民街270號","121.478966666667","25.0681133333333","6500200","三重區"
"241002","090-VK","2017/09/21 20:38:10","新北市三重區仁義街167巷38弄2號","121.498726666667","25.0827083333333","6500200","三重區"
"241008","156-TC","2017/09/21 20:38:25","新北市三重區力行路二段138-1號","121.482531666667","25.0758216666667","6500200","三重區"
"241005","262-UM","2017/09/21 20:38:28","新北市三重區碧華街410號","121.491981666667","25.0850633333333","6500200","三重區"
"241016","266-UM","2017/09/21 20:38:21","新北市三重區長壽西街143-3號","121.494436666667","25.06678","6500200","三重區"
"241022","267-UM","2017/09/21 20:38:23","新北市三重區新北大道一段46巷18弄17號","121.488508333333","25.0619983333333","6500200","三重區"
"241032","269-UM","2017/09/21 20:38:22","新北市三重區重陽路一段120巷48號","121.485066666667","25.0601716666667","6500200","三重區"
"241013","270-UM","2017/09/21 20:38:09","新北市三重區溪尾街17號","121.49157","25.0746866666667","6500200","三重區"
"241025","271-UM","2017/09/21 20:38:14","新北市三重區頂崁街210巷23弄1號","121.475931666667","25.068205","6500200","三重區"
"241007","398-BY","2017/09/21 20:38:28","新北市三重區三和路四段95號","121.488011666667","25.0760066666667","6500200","三重區"
"241029","KEA-2210","2017/09/21 20:38:16","新北市三重區集美街126巷30號","121.490196666667","25.0539016666667","6500200","三重區"
"241004","475-VK","2017/09/21 20:38:28","新北市三重區仁愛街422巷1號","121.49016","25.0815533333333","6500200","三重區"
"241019","478-VK","2017/09/21 20:38:17","新北市三重區重陽路四段114巷1號","121.492038333333","25.0706583333333","6500200","三重區"
"241030","480-VK","2017/09/21 20:38:22","新北市三重區成功路73巷18號","121.489393333333","25.0519433333333","6500200","三重區"
"241014","543-UM","2017/09/21 20:38:26","新北市三重區三和路二段107號","121.49931","25.0686383333333","6500200","三重區"
"241023","545-UM","2017/09/21 20:38:17","新北市三重區自由街31號","121.479315","25.0668016666667","6500200","三重區"
"241001","547-UM","2017/09/21 20:38:16","新北市三重區三和路四段160巷75號","121.485795","25.0749933333333","6500200","三重區"
"241035","743-BX","2017/09/21 20:38:10","新北市三重區正義北路291號","121.494923333333","25.07042","6500200","三重區"
"241018","887-TS","2017/09/21 20:38:23","新北市三重區自強路一段207號","121.491513333333","25.068415","6500200","三重區"
"241033","AAC-255","2017/09/21 20:38:27","新北市三重區光復路二段87巷37號","121.47443","25.057945","6500200","三重區"
"235055","183-VK","2017/09/21 20:38:21","新北市林口區太平里180號","121.368161666667","25.134415","6500300","中和區"
"235072","301-VK","2017/09/21 20:38:17","新北市三重區重新路五段326巷25-1號","121.47812","25.0454","6500300","中和區"
"235068","377-QA","2017/09/21 20:38:07","新北市中和區中正路637巷60弄61號","121.485458333333","24.99269","6500300","中和區"
"235050","4979-A6","2017/09/21 20:38:27","新北市中和區中正路368號","121.492981666667","24.9942266666667","6500300","中和區"
"235069","4980-A6","2017/09/21 20:38:19","新北市中和區員山路359巷1弄1號","121.481011666667","25.0015766666667","6500300","中和區"
"235026","800-TS","2017/09/21 20:27:45","新北市中和區員山路36巷16-3號","121.485013333333","24.9916016666667","6500300","中和區"
"235059","AAC-215","2017/09/21 20:38:10","新北市中和區員山路72號","121.480846666667","24.9937516666667","6500300","中和區"
"247022","893-R6","2017/09/21 20:38:16","新北市蘆洲區中正路243巷7弄9號","121.467481666667","25.08598","6501400","蘆洲區"
"247012","546-UM","2017/09/21 20:38:11","新北市蘆洲區中興街117-2號","121.482188333333","25.0892483333333","6501400","蘆洲區"
"247020","500-BY","2017/09/21 20:38:15","新北市蘆洲區民族路424-1號","121.473921666667","25.0918666666667","6501400","蘆洲區"
"247010","339-TH","2017/09/21 20:38:20","新北市蘆洲區中興街53號","121.481353333333","25.0872916666667","6501400","蘆洲區"
"247002","337-TH","2017/09/21 20:38:20","新北市蘆洲區長安街375巷2號","121.457066666667","25.0878916666667","6501400","蘆洲區"
"247004","336-TH","2017/09/21 20:38:16","新北市蘆洲區長安街297號","121.458015","25.0848616666667","6501400","蘆洲區"
"247016","057-VK","2017/09/21 20:38:09","新北市蘆洲區中山二路198號","121.470208333333","25.0803983333333","6501400","蘆洲區"
"247006","056-VK","2017/09/21 20:38:19","新北市蘆洲區和平路126號","121.467321666667","25.0802233333333","6501400","蘆洲區"
"247008","053-VK","2017/09/21 20:38:11","新北市蘆洲區重陽街86號","121.481983333333","25.0843566666667","6501400","蘆洲區"
"247014","007-UY","2017/09/21 20:38:11","新北市蘆洲區中山一路196號","121.473706666667","25.0808683333333","6501400","蘆洲區"
"247024","002-UY","2017/09/21 20:38:23","新北市蘆洲區長樂路30號","121.463623333333","25.0853716666667","6501400","蘆洲區"
"251001","011-UM","2017/09/21 20:38:16","新北市淡水區水源街二段189-2號","121.456486666667","25.1761366666667","6501000","淡水區"
"251014","182-VK","2017/09/21 20:38:29","新北市淡水區桂竹圍12-3號","121.471966666667","25.2322233333333","6501000","淡水區"
"251010","413-VK","2017/09/21 20:38:18","新北市淡水區沙崙路181巷15號","121.42395","25.1844316666667","6501000","淡水區"
"251012","441-VK","2017/09/21 20:38:25","新北市淡水區興仁路108號","121.451661666667","25.21817","6501000","淡水區"
"251016","442-VK","2017/09/21 20:38:12","新北市淡水區後洲子8-2號","121.449545","25.2240316666667","6501000","淡水區"
"251006","561-UM","2017/09/21 20:38:18","新北市淡水區埤島80-7號","121.448791666667","25.1884133333333","6501000","淡水區"
"251011","650-BX","2017/09/21 20:38:07","新北市淡水區新市一路一段361號","121.4363","25.1862","6501000","淡水區"
"251002","672-BX","2017/09/21 20:38:20","新北市淡水區中正路38-1號","121.44375","25.16925","6501000","淡水區"
"251003","766-UM","2017/09/21 20:38:28","新北市淡水區新民街118號","121.437861666667","25.1776066666667","6501000","淡水區"
"252002","178-VK","2017/09/21 20:38:10","新北市三芝區淡金路二段47-2號","121.503666666667","25.260555","6502100","三芝區"
"252001","292-VK","2017/09/21 20:38:21","新北市三芝區長安街24號","121.501918333333","25.2558333333333","6502100","三芝區"
"242031","AAC-296","2017/09/21 20:38:23","新北市新莊區三泰路26號","121.439191666667","25.03463","6500500","新莊區"
"242029","986-R7","2017/09/21 20:38:28","新北市新莊區中華路二段151號","121.452825","25.05151","6500500","新莊區"
"242051","751-BX","2017/09/21 20:38:25","新北市新莊區西盛街280巷6號","121.427623333333","25.015355","6500500","新莊區"
"242025","615-BX","2017/09/21 20:38:26","新北市新莊區化成路579巷1號","121.464396666667","25.0661283333333","6500500","新莊區"
"242023","613-BX","2017/09/21 20:38:08","新北市新莊區化成路652號","121.466023333333","25.0556883333333","6500500","新莊區"
"242027","612-BX","2017/09/21 20:38:19","新北市新莊區思源路183號","121.45979","25.0453966666667","6500500","新莊區"
"242039","566-BX","2017/09/21 20:38:16","新北市新莊區民安路314號","121.42848","25.0220016666667","6500500","新莊區"
"242044","497-BY","2017/09/21 20:38:11","新北市新莊區中正路新生巷85弄1號","121.417101666667","25.02176","6500500","新莊區"
"242048","442-UM","2017/09/21 20:38:12","新北市新莊區富國路8號","121.418145","25.0264616666667","6500500","新莊區"
"242053","440-UM","2017/09/21 20:38:23","新北市新莊區西盛街323巷24號","121.428953333333","25.0146716666667","6500500","新莊區"
"242004","413-TV","2017/09/21 20:38:23","新北市新莊區中原東路208號","121.460336666667","25.0544666666667","6500500","新莊區"
"242042","400-BY","2017/09/21 20:38:17","新北市新莊區天祥街15巷27號","121.415938333333","25.0276083333333","6500500","新莊區"
"242061","362-BY","2017/09/21 20:38:19","新北市新莊區新樹路258巷3號","121.432141666667","25.015505","6500500","新莊區"
"242058","353-BY","2017/09/21 20:38:17","新北市新莊區民安路138號","121.424206666667","25.0253466666667","6500500","新莊區"
"242007","132-UY","2017/09/21 20:38:21","新北市新莊區思源路287巷4號","121.45914","25.0482883333333","6500500","新莊區"
"242036","133-UY","2017/09/21 20:38:29","新北市新莊區後港一路46巷6號","121.42624","25.0258683333333","6500500","新莊區"
"242021","135-UY","2017/09/21 20:38:24","新北市新莊區公園路118號","121.451483333333","25.0399883333333","6500500","新莊區"
"242046","172-VK","2017/09/21 20:38:26","新北市新莊區裕民街117號","121.418151666667","25.0226833333333","6500500","新莊區"
"242009","173-VK","2017/09/21 20:38:12","新北市新莊區福壽街99巷8弄15號","121.456706666667","25.050695","6500500","新莊區"
"242015","175-VK","2017/09/21 20:38:19","新北市新莊區中港一街142號","121.446621666667","25.0449183333333","6500500","新莊區"
"242002","176-VK","2017/09/21 20:38:27","新北市新莊區明中街15號","121.458596666667","25.0383766666667","6500500","新莊區"
"242013","346-TH","2017/09/21 20:38:15","新北市新莊區中和街175巷13號","121.447176666667","25.050675","6500500","新莊區"
"242019","348-TH","2017/09/21 20:38:12","新北市新莊區銘德街57號","121.456823333333","25.0436683333333","6500500","新莊區"
"242056","349-TH","2017/09/21 20:38:12","新北市新莊區瓊泰路59號","121.443316666667","25.0286466666667","6500500","新莊區"
"242017","350-TH","2017/09/21 20:38:18","新北市新莊區中和街64號","121.4478","25.0458066666667","6500500","新莊區"
"242011","351-TH","2017/09/21 20:38:25","新北市新莊區中榮街124號","121.44658","25.0528183333333","6500500","新莊區"
"221008","489-VK","2017/09/21 20:38:28","新北市汐止區康寧街706號","121.637795","25.07247","6501100","汐止區"
"221036","130-UY","2017/09/21 20:38:14","新北市汐止區新昌路23號","121.662023333333","25.067715","6501100","汐止區"
"221015","131-UY","2017/09/21 20:38:20","新北市汐止區建成路37巷1號","121.663733333333","25.072775","6501100","汐止區"
"221010","269-BY","2017/09/21 20:38:16","新北市汐止區八連路二段233號","121.632565","25.096785","6501100","汐止區"
"221012","276-VK","2017/09/21 13:23:24","新北市汐止區汐萬路一段256巷3號","121.653466666667","25.0746033333333","6501100","汐止區"
"221012","278-VK","2017/09/21 20:38:28","新北市汐止區汐萬路一段39號","121.654966666667","25.0690466666667","6501100","汐止區"
"221023","279-VK","2017/09/21 20:38:24","新北市汐止區民族二街30巷2號","121.634973333333","25.0718833333333","6501100","汐止區"
"221032","280-BY","2017/09/21 20:38:15","新北市汐止區民權街二段28號","121.619458333333","25.0500266666667","6501100","汐止區"
"221027","281-BY","2017/09/21 20:38:18","新北市汐止區大同路二段575號","121.663233333333","25.0700666666667","6501100","汐止區"
"221038","297-VK","2017/09/21 20:38:15","新北市汐止區復興路12巷8號","121.655233333333","25.0647916666667","6501100","汐止區"
"221029","298-VK","2017/09/21 20:38:13","新北市汐止區大同路一段513號","121.645328333333","25.0622483333333","6501100","汐止區"
"221021","299-VK","2017/09/21 20:38:11","新北市汐止區水源路一段286號","121.654238333333","25.0581866666667","6501100","汐止區"
"221031","353-TW","2017/09/21 20:38:22","新北市汐止區福德一路235號","121.633958333333","25.0649166666667","6501100","汐止區"
"221035","622-UM","2017/09/21 20:38:07","新北市汐止區長江街101-5號","121.658731666667","25.0732166666667","6501100","汐止區"
"221025","623-UM","2017/09/21 20:38:26","新北市汐止區水源路二段189號","121.657791666667","25.0533233333333","6501100","汐止區"
"221033","647-BX","2017/09/21 20:38:30","台北市南港區舊莊街一段91巷18號","121.620226666667","25.0417216666667","6501100","汐止區"
"221002","707-TV","2017/09/21 20:38:24","新北市汐止區中興路135號","121.631611666667","25.0655683333333","6501100","汐止區"
"221018","753-BX","2017/09/21 20:38:28","新北市汐止區茄苳路70號","121.666675","25.070665","6501100","汐止區"
"220053","285-VK","2017/09/21 20:38:29","新北市樹林區中山路三段214號","121.380005","24.9678283333333","6500100","板橋區"
"220083","286-VK","2017/09/21 20:38:15","新北市板橋區僑中二街108巷14號","121.445156666667","25.0074416666667","6500100","板橋區"
"220062","303-R5","2017/09/21 20:38:21","新北市樹林區佳園路一段153號","121.393778333333","24.9686816666667","6500100","板橋區"
"242034","280-VK","2017/09/21 20:38:27","新北市新莊區中正路334巷10號","121.44573","25.0353666666667","6500500","新莊區"
"220103","561-BX","2017/09/21 20:38:24","新北市板橋區漢生東路53巷24號","121.466603333333","25.0173","6500100","板橋區"
"220070","AAC-253","2017/09/21 20:38:21","新北市樹林區八德街226-6號","121.415081666667","24.97128","6500100","板橋區"
