"lineid","car","time","location","longitude","latitude","cityid","cityname"
"232005","290-BY","2017/07/03 08:08:58","新北市坪林區鶯子瀨3-7號","121.705935","24.9141333333333","6502000","坪林區"
"232001","291-BY","2017/07/03 08:07:26","新北市坪林區大粗坑6-1號","121.7321","24.948165","6502000","坪林區"
"232010","375-UM","2017/07/03 08:08:48","新北市坪林區厚德岡坑8-5號","121.733208333333","24.9409283333333","6502000","坪林區"
"232012","705-BZ","2017/07/03 08:08:51","新北市坪林區九芎根10號","121.665571666667","24.8824183333333","6502000","坪林區"
"232017","758-BX","2017/07/03 08:08:48","新北市坪林區柑腳坑15號","121.772475","24.94785","6502000","坪林區"
"244012","069-UM","2017/07/03 08:08:52","新北市林口區粉寮路二段14號","121.401393333333","25.0851016666667","6501700","林口區"
"244001","248-BX","2017/07/03 08:08:40","新北市林口區嘉溪雅坑9號","121.333963333333","25.10602","6501700","林口區"
"244018","403-UM","2017/07/03 08:08:49","新北市林口區竹林路64號","121.387611666667","25.078305","6501700","林口區"
"244008","410-SL","2017/07/03 08:08:50","新北市林口區中北一街49巷2號","121.385921666667","25.088075","6501700","林口區"
"244022","483-VK","2017/07/03 08:08:59","新北市林口區仁愛路一段667巷41號","121.387093333333","25.0762233333333","6501700","林口區"
"244016","485-VK","2017/07/03 08:09:02","新北市林口區中山路255號","121.38555","25.0795083333333","6501700","林口區"
"244020","657-BX","2017/07/03 08:08:46","新北市林口區粉寮路67-16號","121.40411","25.0912433333333","6501700","林口區"
"244024","837-TS","2017/07/03 08:08:47","新北市林口區中山路250-1號","121.385918333333","25.079505","6501700","林口區"
"243002","548-UM","2017/07/03 08:08:59","新北市泰山區泰林路三段28巷8號","121.418715","25.0652516666667","6501600","泰山區"
"222005","289-BY","2017/07/03 08:08:58","新北市深坑區萬福路76號","121.609165","25.0164083333333","6501800","深坑區"
"231008","188-VK","2017/07/03 08:08:47","新北市新店區環河路29巷1號","121.53629","24.9611433333333","6500600","新店區"
"231007","189-VK","2017/07/03 08:08:59","新北市新店區華潭街51號","121.528988333333","24.9544","6500600","新店區"
"231068","260-TV","2017/07/03 08:08:55","新北市新店區北宜路二段5號","121.547758333333","24.951915","6500600","新店區"
"220034","015-TV","2017/07/03 08:08:49","新北市板橋區大觀路三段50巷47號","121.432751666667","24.99561","6500100","板橋區"
"247002","402-BY","2017/07/03 08:08:52","新北市蘆洲區三民路10號","121.475913333333","25.082175","6501400","蘆洲區"
"226005","5620-A6","2017/07/03 08:09:04","新北市平溪區靜安路三段52巷6-1號","121.76414","25.0335433333333","6502400","平溪區"
"226001","7418-A5","2017/07/03 08:09:05","新北市平溪區十分里十分街82號","121.776746666667","25.0419616666667","6502400","平溪區"
"226003","AGD-0702","2017/07/03 08:08:55","新北市平溪區嶺腳里嶺腳寮89號","121.74749","25.034995","6502400","平溪區"
"223006","022-BY","2017/07/03 08:08:55","新北市石碇區楓子林34號","121.641971666667","25.0106183333333","6501900","石碇區"
"223002","198-BX","2017/07/03 08:09:04","新北市石碇區北宜路五段大湖巷6號","121.633331666667","24.9426483333333","6501900","石碇區"
"223008","406-TH","2017/07/03 08:09:00","新北市石碇區靜安路一段337號","121.69904","25.0145283333333","6501900","石碇區"
"223001","592-UM","2017/07/03 08:08:48","新北市石碇區蛇舌子6-2號","121.66433","24.9696516666667","6501900","石碇區"
"223004","660-BX","2017/07/03 08:08:59","新北市石碇區碇坪路一段2號","121.651575","25.0061333333333","6501900","石碇區"
"223007","661-BX","2017/07/03 08:08:51","新北市石碇區靜安路一段337號","121.698955","25.014605","6501900","石碇區"
"223005","677-TV","2017/07/03 08:08:49","新北市石碇區碇坪路一段18號","121.651646666667","25.0056766666667","6501900","石碇區"
"227005","282-VK","2017/07/03 08:09:03","新北市雙溪區上林里大瀨10號","121.822305","25.0222116666667","6502500","雙溪區"
"253003","6232-TK","2017/07/03 08:06:46","新北市石門區石崩山1號","121.564611666667","25.285345","6502200","石門區"
"253001","6251-TK","2017/07/03 08:08:48","新北市石門區老梅路43號","121.545266666667","25.2895633333333","6502200","石門區"
"253002","637-UY","2017/07/03 08:09:04","新北市石門區老崩山35號","121.556988333333","25.2766","6502200","石門區"
"253004","8270-PC","2017/07/03 08:09:00","新北市石門區小坑14-3號","121.59616","25.2831633333333","6502200","石門區"
"252006","073-UM","2017/07/03 08:08:54","新北市三芝區後厝里土地公坑73-2號","121.460755","25.2475316666667","6502100","三芝區"
"252004","249-BX","2017/07/03 08:08:58","新北市三芝區興華里車埕16-8號","121.505856666667","25.1984983333333","6502100","三芝區"
"237001","159-UY","2017/07/03 08:08:45","新北市三峽區大學路86-1號","121.375695","24.94251","6500900","三峽區"
"236007","165-UM","2017/07/03 08:08:51","新北市土城區青雲路322巷20號","121.457555","24.9758633333333","6501300","土城區"
"236001","339-SR","2017/07/03 08:08:55","新北市土城區龍泉路80-1號","121.435611666667","24.9423783333333","6501300","土城區"
"236005","498-BY","2017/07/03 08:08:54","新北市土城區永平街51號","121.427601666667","24.9591616666667","6501300","土城區"
"242020","AAC-296","2017/07/03 08:09:04","新北市新莊區中華路一段108號","121.45239","25.03999","6500500","新莊區"
"242028","986-R7","2017/07/03 08:08:52","新北市新莊區復興路一段163號","121.45095","25.0434083333333","6500500","新莊區"
"242024","615-BX","2017/07/03 08:09:04","新北市新莊區思源路70號","121.460235","25.0449216666667","6500500","新莊區"
"242022","613-BX","2017/07/03 08:08:51","新北市新莊區公園路234號","121.457393333333","25.0407216666667","6500500","新莊區"
"242026","612-BX","2017/07/03 08:08:57","新北市新莊區福壽街88號","121.458218333333","25.049885","6500500","新莊區"
"242035","566-BX","2017/07/03 08:09:02","新北市新莊區後港一路132號","121.429426666667","25.0272683333333","6500500","新莊區"
"242040","497-BY","2017/07/03 08:08:46","新北市泰山區漢口街32號","121.425921666667","25.035405","6500500","新莊區"
"242045","441-UM","2017/07/03 08:08:51","新北市新莊區福營路99號","121.434415","25.0322533333333","6500500","新莊區"
"242049","440-UM","2017/07/03 08:09:03","新北市新莊區西盛街229號","121.428141666667","25.0164133333333","6500500","新莊區"
"242030","415-TV","2017/07/03 08:08:50","新北市新莊區新泰路321巷11號","121.444073333333","25.04127","6500500","新莊區"
"242001","413-TV","2017/07/03 08:08:53","新北市新莊區新莊路357號","121.451853333333","25.0339016666667","6500500","新莊區"
"242038","400-BY","2017/07/03 08:08:48","新北市新莊區民安路322號","121.429033333333","25.0219283333333","6500500","新莊區"
"242059","362-BY","2017/07/03 08:08:52","新北市新莊區瓊林南路118-43號","121.434281666667","25.0098483333333","6500500","新莊區"
"242057","353-BY","2017/07/03 08:09:04","新北市新莊區中正路700-24號","121.417853333333","25.02681","6500500","新莊區"
"242010","132-UY","2017/07/03 08:09:04","新北市新莊區中港路622號","121.451065","25.0548766666667","6500500","新莊區"
"242033","133-UY","2017/07/03 08:09:07","新北市新莊區新莊路582號","121.44433","25.03287","6500500","新莊區"
"242018","135-UY","2017/07/03 08:09:07","新北市新莊區中港路181號","121.45491","25.0416283333333","6500500","新莊區"
"242043","172-VK","2017/07/03 08:08:55","新北市新莊區中正路871巷29號","121.419543333333","25.0265483333333","6500500","新莊區"
"242006","173-VK","2017/07/03 08:08:46","新北市新莊區福樂街118巷18號","121.457533333333","25.048375","6500500","新莊區"
"242012","175-VK","2017/07/03 08:08:48","新北市新莊區中誠街140號","121.448776666667","25.0475783333333","6500500","新莊區"
"242055","176-VK","2017/07/03 08:09:03","新北市新莊區瓊林路13-3號","121.448818333333","25.030955","6500500","新莊區"
"242003","346-TH","2017/07/03 08:09:05","新北市新莊區自立街186號","121.456245","25.045425","6500500","新莊區"
"242047","347-TH","2017/07/03 08:08:53","新北市新莊區萬安街125號","121.420643333333","25.0224016666667","6500500","新莊區"
"242016","348-TH","2017/07/03 08:09:00","新北市新莊區復興路一段149巷21弄23號","121.449016666667","25.0438383333333","6500500","新莊區"
"242052","349-TH","2017/07/03 08:08:46","新北市樹林區樹新路207號","121.429731666667","24.9979766666667","6500500","新莊區"
"242014","350-TH","2017/07/03 08:08:50","新北市新莊區新泰路380號","121.444096666667","25.0432066666667","6500500","新莊區"
"242008","351-TH","2017/07/03 08:09:08","新北市新莊區昌明街14巷7弄2號","121.457343333333","25.0535216666667","6500500","新莊區"
