"lineid","car","time","location","longitude","latitude","cityid","cityname"
"244018","403-UM","2017/07/03 10:08:49","新北市林口區麗園二街一段60巷32號","121.380935","25.0676866666667","6501700","林口區"
"244022","483-VK","2017/07/03 10:08:59","新北市林口區文化三路一段555巷88-1號","121.368786666667","25.076735","6501700","林口區"
"222005","289-BY","2017/07/03 10:08:49","新北市深坑區深坑街85號","121.61462","25.0012933333333","6501800","深坑區"
"231008","188-VK","2017/07/03 09:51:27","新北市新店區平廣路一段256號","121.507383333333","24.8880266666667","6500600","新店區"
"231007","189-VK","2017/07/03 10:08:59","新北市新店區新潭路三段215巷25號","121.508121666667","24.9040283333333","6500600","新店區"
"247002","402-BY","2017/07/03 10:07:15","新北市五股區中興路三段5號","121.449328333333","25.07925","6501400","蘆洲區"
"223002","198-BX","2017/07/03 10:08:55","新北市石碇區碇坪路一段57號","121.65969","24.9915666666667","6501900","石碇區"
"223003","205-TH","2017/07/03 10:09:02","新北市石碇區北宜路五段火燒樟巷9號","121.626025","24.9545216666667","6501900","石碇區"
"223008","406-TH","2017/07/03 10:09:00","新北市石碇區藤寮坑2號","121.702576666667","25.0094233333333","6501900","石碇區"
"223001","592-UM","2017/07/03 10:08:48","新北市石碇區北宜路五段火燒樟巷9-1號","121.627128333333","24.9548416666667","6501900","石碇區"
"223007","661-BX","2017/07/03 10:08:51","新北市石碇區頭7號","121.707576666667","24.99762","6501900","石碇區"
"227005","282-VK","2017/07/03 10:05:43","新北市雙溪區泰平里灣潭路36號","121.811753333333","24.928705","6502500","雙溪區"
"253003","6232-TK","2017/07/03 10:09:06","新北市石門區小坑9號","121.594351666667","25.2886333333333","6502200","石門區"
"253001","6251-TK","2017/07/03 10:08:31","新北市石門區崁子腳53號","121.536526666667","25.2824483333333","6502200","石門區"
"253002","637-UY","2017/07/03 10:06:04","新北市石門區楓林47號","121.540501666667","25.2785033333333","6502200","石門區"
"253004","8270-PC","2017/07/03 10:08:52","新北市石門區茂林社區227號","121.591921666667","25.270485","6502200","石門區"
"252004","249-BX","2017/07/03 10:08:54","新北市三芝區福德里埔尾29號","121.50657","25.241665","6502100","三芝區"
"252006","AAC-283","2017/07/03 00:26:42","新北市三芝區埔坪里埔頭坑41號","121.504481666667","25.26444","6502100","三芝區"
"237001","159-UY","2017/07/03 10:09:05","新北市三峽區大學路192號","121.372443333333","24.9467283333333","6500900","三峽區"
"242001","413-TV","2017/07/03 10:08:53","新北市樹林區環河路2號","121.428261666667","24.9792116666667","6500500","新莊區"
