"lineid","car","time","location","longitude","latitude","cityid","cityname"
"231008","188-VK","2017/07/03 12:09:47","新北市新店區頂石厝路44-3號","121.537698333333","24.917075","6500600","新店區"
"247002","402-BY","2017/07/03 11:54:09","新北市五股區中興路三段5號","121.449348333333","25.079155","6501400","蘆洲區"
"227005","282-VK","2017/07/03 12:10:03","新北市雙溪區牡丹里牡丹100號","121.850268333333","25.0601233333333","6502500","雙溪區"
"252006","AAC-283","2017/07/03 00:26:42","新北市三芝區埔坪里埔頭坑41號","121.504481666667","25.26444","6502100","三芝區"
"221010","297-VK","2017/07/03 12:10:05","新北市汐止區汐萬路一段256巷3號","121.652141666667","25.0748533333333","6501100","汐止區"
