"lineid","car","time","location","longitude","latitude","cityid","cityname"
"234044","148-BY","2017/07/03 13:09:57","新北市永和區永元路18巷12弄2號","121.523023333333","25.0002516666667","6500400","永和區"
"234012","149-BY","2017/07/03 13:09:56","新北市永和區保福路二段50號","121.510933333333","25.012185","6500400","永和區"
"234005","207-UY","2017/07/03 13:09:58","新北市永和區中山路一段135號","121.510475","25.0098666666667","6500400","永和區"
"234078","298-R6","2017/07/03 13:10:05","新北市永和區永貞路37號","121.521266666667","25.0064633333333","6500400","永和區"
"234036","336-UY","2017/07/03 13:10:01","新北市永和區民樂街59巷5號","121.527973333333","24.99832","6500400","永和區"
"234062","337-UY","2017/07/03 13:09:58","新北市永和區秀朗路二段33號","121.521235","25.0024183333333","6500400","永和區"
"234084","338-UY","2017/07/03 13:10:04","新北市永和區永貞路90號","121.519506666667","25.0045633333333","6500400","永和區"
"234068","552-UM","2017/07/03 13:10:03","新北市永和區豫溪街86號","121.518375","25.0100183333333","6500400","永和區"
"234052","553-UM","2017/07/03 13:10:01","新北市永和區竹林路80號","121.51937","25.01272","6500400","永和區"
"234028","746-BX","2017/07/03 13:09:57","新北市永和區厚德街100號","121.523303333333","24.9989583333333","6500400","永和區"
"234015","840-RS","2017/07/03 13:10:01","新北市永和區文化路90巷17號","121.51369","25.0162233333333","6500400","永和區"
"234060","AAD-866","2017/07/03 13:09:59","新北市永和區安樂路304巷7號","121.514541666667","25.0050683333333","6500400","永和區"
"234040","862-TW","2017/07/03 13:09:56","新北市永和區保平路109號","121.51107","25.006615","6500400","永和區"
"234048","863-TW","2017/07/03 13:10:03","新北市永和區保福路二段152號","121.509633333333","25.0148733333333","6500400","永和區"
"234025","9371-KE","2017/07/03 13:09:48","新北市永和區秀朗路一段10巷19號","121.513506666667","25.0061183333333","6500400","永和區"
"234010","9373-KE","2017/07/03 13:10:01","新北市永和區仁愛路31巷2弄1號","121.514148333333","25.012975","6500400","永和區"
"248013","025-BX","2017/07/03 13:09:53","新北市五股區成泰路一段189巷29號","121.43355","25.07629","6501500","五股區"
"248005","077-UY","2017/07/03 13:10:05","新北市五股區中興路二段70號","121.46127","25.076985","6501500","五股區"
"248019","225-UY","2017/07/03 13:10:01","新北市五股區成泰路三段544-18號","121.453068333333","25.1037383333333","6501500","五股區"
"248011","247-BX","2017/07/01 21:15:30","新北市五股區中興路二段103巷16號","121.45856","25.07617","6501500","五股區"
"248009","272-BY","2017/07/03 13:09:48","新北市五股區成泰路一段229-1號","121.434171666667","25.0776383333333","6501500","五股區"
"248003","677-BX","2017/07/03 13:10:03","新北市五股區成泰路二段112號","121.437915","25.0832783333333","6501500","五股區"
"248001","678-BX","2017/07/03 13:09:49","新北市五股區芳洲路49號","121.441585","25.0835866666667","6501500","五股區"
"234022","9380-KE","2017/07/03 13:09:50","新北市永和區中興街10巷78號","121.516856666667","25.01083","6500400","永和區"
"234076","969-R7","2017/07/03 13:10:03","新北市永和區民光街5號","121.515316666667","24.9963666666667","6500400","永和區"
"234072","AAC-211","2017/07/03 13:09:51","新北市永和區竹林路182號","121.520511666667","25.0097","6500400","永和區"
"234066","AAC-212","2017/07/03 13:10:06","新北市永和區保平路11號","121.512925","25.007585","6500400","永和區"
"234001","AAC-295","2017/07/03 13:07:57","新北市永和區中山路一段135號","121.51047","25.0098283333333","6500400","永和區"
"244001","248-BX","2017/07/03 13:10:00","新北市林口區頂福里6鄰32號","121.361098333333","25.096995","6501700","林口區"
"243005","AAD-798","2017/07/03 13:09:46","新北市泰山區黎明路22號","121.420748333333","25.060995","6501600","泰山區"
"243007","380-SR","2017/07/03 12:16:41","新北市泰山區犁頭窠3-1號","121.422026666667","25.06047","6501600","泰山區"
"231025","0291-UT","2017/07/03 13:09:52","新北市新店區安華路1-1號","121.519323333333","24.9605216666667","6500600","新店區"
"231028","046-UY","2017/07/03 13:10:01","新北市新店區安華路28-1號","121.519706666667","24.9609583333333","6500600","新店區"
"231029","106-UY","2017/07/03 13:10:03","新北市新店區安華路28-1號","121.519543333333","24.96079","6500600","新店區"
"231018","107-UY","2017/07/03 13:09:53","新北市新店區安華路28-1號","121.519326666667","24.96141","6500600","新店區"
"231011","108-UY","2017/07/03 13:09:57","新北市新店區安華路28-1號","121.519773333333","24.9614366666667","6500600","新店區"
"231019","187-VK","2017/07/03 13:09:50","新北市新店區安華路28-1號","121.519406666667","24.9613766666667","6500600","新店區"
"231026","256-BX","2017/07/03 13:09:57","新北市新店區安華路28-1號","121.519691666667","24.9611266666667","6500600","新店區"
"231010","278-BY","2017/07/03 13:09:47","新北市新店區安華路28-1號","121.51951","24.961115","6500600","新店區"
"231014","AAD-862","2017/07/03 13:09:46","新北市新店區安華路28-1號","121.520055","24.961195","6500600","新店區"
"231005","355-BY","2017/07/03 13:09:50","新北市新店區安華路28-1號","121.519235","24.9609616666667","6500600","新店區"
"231027","3712-VJ","2017/07/03 13:10:00","新北市新店區安華路28-1號","121.519255","24.960655","6500600","新店區"
"231024","3713-VJ","2017/07/03 13:09:57","新北市新店區安華路28-1號","121.519156666667","24.96059","6500600","新店區"
"231038","4715-K9","2017/07/03 13:09:59","新北市新店區安華路1-1號","121.519263333333","24.960395","6500600","新店區"
"231036","512-UM","2017/07/03 13:09:54","新北市新店區安華路28-1號","121.51942","24.9613266666667","6500600","新店區"
"231023","513-UM","2017/07/03 13:09:56","新北市新店區安華路28-1號","121.519741666667","24.9610816666667","6500600","新店區"
"231035","515-UM","2017/07/03 13:09:53","新北市新店區安華路28-1號","121.519908333333","24.9612066666667","6500600","新店區"
"231003","616-UM","2017/07/03 13:09:50","新北市新店區安康路一段92-1號","121.527865","24.96202","6500600","新店區"
"231006","617-UM","2017/07/03 13:10:04","新北市新店區安華路28-1號","121.519408333333","24.9607416666667","6500600","新店區"
"231030","618-UM","2017/07/03 13:09:55","新北市新店區安華路28-1號","121.519593333333","24.9614516666667","6500600","新店區"
"231001","619-UM","2017/07/03 13:10:04","新北市新店區安華路28-1號","121.519578333333","24.9611183333333","6500600","新店區"
"231034","645-TV","2017/07/03 13:09:53","新北市新店區安華路1-1號","121.519238333333","24.9605666666667","6500600","新店區"
"231013","719-UM","2017/07/03 13:09:51","新北市新店區安華路28-1號","121.519458333333","24.9611766666667","6500600","新店區"
"231031","720-UM","2017/07/03 13:09:59","新北市新店區安華路28-1號","121.519168333333","24.9613933333333","6500600","新店區"
"231004","899-TW","2017/07/03 13:10:00","新北市新店區安華路28-1號","121.519195","24.96085","6500600","新店區"
"231037","AKT-0513","2017/07/03 13:10:01","新北市新店區安華路28-1號","121.519593333333","24.9607033333333","6500600","新店區"
"235030","003-UY","2017/07/03 13:09:55","新北市中和區連城路61號","121.497645","25.001465","6500300","中和區"
"235028","005-UY","2017/07/03 13:09:59","新北市中和區中正路464號","121.490065","24.99394","6500300","中和區"
"235027","006-UY","2017/07/03 13:09:51","新北市中和區員山路36巷16-3號","121.485021666667","24.9912183333333","6500300","中和區"
"235026","031-BX","2017/07/03 13:09:51","新北市中和區中山路二段450號","121.488943333333","25.004275","6500300","中和區"
"235004","150-BY","2017/07/03 13:09:49","新北市中和區和城路一段271巷1號","121.48546","24.99177","6500300","中和區"
"235022","151-BY","2017/07/03 13:10:01","新北市中和區圓通路367巷33弄45號","121.495835","24.9856933333333","6500300","中和區"
"235002","185-VK","2017/07/03 13:09:50","新北市中和區自立路15巷1號","121.522458333333","24.99631","6500300","中和區"
"235031","255-BX","2017/07/03 13:09:58","新北市中和區新生街191號","121.483835","25.0002466666667","6500300","中和區"
"235015","376-QA","2017/07/03 13:10:03","新北市中和區中正路271號","121.49588","24.9936983333333","6500300","中和區"
"235032","377-QA","2017/07/03 02:59:44","新北市中和區員山路36巷16-3號","121.485191666667","24.99116","6500300","中和區"
"235014","4979-A6","2017/07/03 13:08:51","新北市中和區中正路505號","121.488576666667","24.9940766666667","6500300","中和區"
"235033","4980-A6","2017/07/03 13:09:52","新北市中和區圓通路331號","121.492143333333","24.9906533333333","6500300","中和區"
"235006","551-UM","2017/07/03 13:09:53","新北市中和區景新街264號","121.510033333333","24.9930216666667","6500300","中和區"
"235018","640-BX","2017/07/03 13:09:49","新北市中和區員山路72號","121.480881666667","24.9935666666667","6500300","中和區"
"235024","647-TV","2017/07/03 13:09:51","新北市中和區員山路36巷16-3號","121.48504","24.9913033333333","6500300","中和區"
"235011","732-UM","2017/07/03 13:09:56","新北市中和區員山路36巷11號","121.483821666667","24.9907033333333","6500300","中和區"
"235035","783-BX","2017/07/03 13:10:01","新北市中和區板南路520巷15號","121.48374","25.00885","6500300","中和區"
"235005","802-TS","2017/07/03 13:09:45","新北市中和區錦和路350-1號","121.490528333333","24.993545","6500300","中和區"
"235016","805-TS","2017/07/03 13:09:59","新北市中和區中正路637巷52弄1號","121.485543333333","24.9935766666667","6500300","中和區"
"235001","AAC-213","2017/07/03 13:09:59","新北市中和區中正路266-1號","121.495428333333","24.99393","6500300","中和區"
"247002","402-BY","2017/07/03 13:09:49","新北市蘆洲區永康街49號","121.456863333333","25.085185","6501400","蘆洲區"
"227001","400-TW","2017/07/03 12:51:08","新北市雙溪區三貂里政光路3-1號","121.850855","25.06308","6502500","雙溪區"
"208004","AAC-292","2017/07/03 13:09:56","新北市金山區中山路192號","121.637913333333","25.2214466666667","6502700","金山區"
"207002","749-BX","2017/07/03 13:05:06","新北市萬里區溪底里香員林路15-2號","121.633585","25.1632583333333","6502800","萬里區"
"207001","463-BY","2017/07/03 13:10:02","新北市萬里區萬里里瑪鋉路70號","121.689838333333","25.178155","6502800","萬里區"
"252005","AAC-283","2017/07/03 00:26:42","新北市三芝區埔坪里埔頭坑41號","121.504481666667","25.26444","6502100","三芝區"
"208002","170-UY","2017/07/03 13:09:57","基隆市七堵區大華二路15號","121.693113333333","25.1043816666667","6502700","金山區"
"236005","498-BY","2017/07/03 13:10:02","新北市土城區亞洲路74號","121.434998333333","24.9730816666667","6501300","土城區"
"221032","280-BY","2017/07/03 13:09:52","新北市汐止區大同路二段555號","121.66248","25.06966","6501100","汐止區"
"221018","753-BX","2017/07/03 13:09:48","新北市汐止區康寧街442號","121.631206666667","25.0681633333333","6501100","汐止區"
