"lineid","car","time","location","longitude","latitude","cityid","cityname"
"234044","148-BY","2017/07/03 13:49:59","新北市永和區永利路358號","121.52612","25.0031983333333","6500400","永和區"
"234012","149-BY","2017/07/03 13:49:56","新北市永和區仁愛路247號","121.508716666667","25.01188","6500400","永和區"
"234005","207-UY","2017/07/03 13:49:58","新北市永和區永和路一段106號","121.513476666667","25.00718","6500400","永和區"
"234078","298-R6","2017/07/03 13:49:48","新北市永和區永亨路108號","121.523558333333","25.0045216666667","6500400","永和區"
"234036","336-UY","2017/07/03 13:49:52","新北市永和區成功路二段163號","121.526656666667","24.99734","6500400","永和區"
"234062","337-UY","2017/07/03 13:49:58","新北市永和區中正路368巷4號","121.517963333333","25.0007883333333","6500400","永和區"
"234084","338-UY","2017/07/03 13:50:04","新北市永和區永亨路165巷1-4號","121.526165","25.0041966666667","6500400","永和區"
"234068","552-UM","2017/07/03 13:49:53","新北市永和區國光路14號","121.519165","25.0084133333333","6500400","永和區"
"234052","553-UM","2017/07/03 13:50:01","新北市永和區竹林路75巷25弄5號","121.520101666667","25.0143466666667","6500400","永和區"
"234028","746-BX","2017/07/03 13:49:57","新北市永和區民生路47巷22號","121.524111666667","24.99756","6500400","永和區"
"234015","840-RS","2017/07/03 13:50:01","新北市永和區文化路9號","121.515251666667","25.0149566666667","6500400","永和區"
"234060","AAD-866","2017/07/03 13:49:59","新北市永和區中正路67巷2號","121.514718333333","24.996815","6500400","永和區"
"234040","862-TW","2017/07/03 13:49:56","新北市永和區中和路389巷51-1號","121.507943333333","25.0021116666667","6500400","永和區"
"234048","863-TW","2017/07/03 13:50:03","新北市永和區保安路75號","121.5087","25.0148983333333","6500400","永和區"
"234010","9373-KE","2017/07/03 13:50:01","新北市永和區保安路153號","121.506791666667","25.0129116666667","6500400","永和區"
"248005","077-UY","2017/07/03 13:49:45","新北市五股區四維路105號","121.46745","25.0734016666667","6501500","五股區"
"248007","095-VK","2017/07/03 13:50:03","新北市五股區中興路一段128巷8號","121.465685","25.0742316666667","6501500","五股區"
"248019","225-UY","2017/07/03 13:50:01","新北市五股區凌雲路三段71-7號","121.42433","25.12449","6501500","五股區"
"248011","247-BX","2017/07/03 13:49:49","新北市五股區成泰路二段195巷1號","121.440435","25.0873016666667","6501500","五股區"
"248015","261-SL","2017/07/03 13:49:47","新北市五股區凌雲路一段135號","121.44952","25.10205","6501500","五股區"
"248009","272-BY","2017/07/03 13:49:54","新北市五股區水碓九路51號","121.42924","25.0722183333333","6501500","五股區"
"248003","677-BX","2017/07/03 13:50:03","新北市五股區民義路二段50-5號","121.411071666667","25.1038266666667","6501500","五股區"
"248001","678-BX","2017/07/03 13:49:48","新北市五股區成泰路三段454號","121.451443333333","25.100325","6501500","五股區"
"234022","9380-KE","2017/07/03 13:49:48","新北市永和區中正路700號","121.516323333333","25.0098666666667","6500400","永和區"
"234076","969-R7","2017/07/03 13:50:03","新北市永和區民權路30號","121.520208333333","24.999035","6500400","永和區"
"234072","AAC-211","2017/07/03 13:49:51","新北市永和區竹林路201巷26弄7號","121.522593333333","25.01023","6500400","永和區"
"234066","AAC-212","2017/07/03 13:49:57","新北市永和區永貞路404號","121.509101666667","25.0076283333333","6500400","永和區"
"234001","AAC-295","2017/07/03 13:47:38","新北市永和區自由街71號","121.513343333333","25.005165","6500400","永和區"
"244001","248-BX","2017/07/03 13:50:00","新北市林口區太平里24號","121.364143333333","25.1348083333333","6501700","林口區"
"243005","AAD-798","2017/07/03 13:49:46","新北市泰山區明志路三段206巷3號","121.423288333333","25.0379033333333","6501600","泰山區"
"243001","297-R6","2017/07/03 13:49:49","新北市泰山區黎明路25號","121.421918333333","25.0608266666667","6501600","泰山區"
"243007","380-SR","2017/07/03 13:49:52","新北市泰山區美寧街54號","121.4305","25.06448","6501600","泰山區"
"243004","646-TV","2017/07/03 13:49:48","新北市泰山區福興三街13號","121.434418333333","25.0577883333333","6501600","泰山區"
"243008","680-BX","2017/07/03 13:49:50","新北市泰山區明志路二段137號","121.427723333333","25.0507116666667","6501600","泰山區"
"231002","002-UM","2017/07/03 13:49:42","新北市新店區溪園路247號","121.525215","24.9831033333333","6500600","新店區"
"231025","0291-UT","2017/07/03 13:49:52","新北市新店區中央六街58號","121.527843333333","24.975755","6500600","新店區"
"231028","046-UY","2017/07/03 13:50:01","新北市新店區安和路三段7號","121.518025","24.98061","6500600","新店區"
"231029","106-UY","2017/07/03 13:50:03","新北市新店區安康路二段156號","121.512315","24.96086","6500600","新店區"
"231018","107-UY","2017/07/03 13:49:53","新北市新店區中正路400巷4號","121.534861666667","24.9776683333333","6500600","新店區"
"231011","108-UY","2017/07/03 13:49:57","新北市新店區德正街31號","121.544641666667","24.9712283333333","6500600","新店區"
"231019","187-VK","2017/07/03 13:49:50","新北市新店區新烏路二段9號","121.544388333333","24.9291933333333","6500600","新店區"
"231026","256-BX","2017/07/03 13:49:57","新北市新店區三民路84巷12號","121.534895","24.9731616666667","6500600","新店區"
"231010","278-BY","2017/07/03 13:50:02","新北市新店區平等街71號","121.535818333333","24.9722866666667","6500600","新店區"
"231014","AAD-862","2017/07/03 13:49:46","新北市新店區竹林路84號","121.554358333333","24.95019","6500600","新店區"
"231005","355-BY","2017/07/03 13:49:51","新北市新店區寶中路123號","121.549723333333","24.9793716666667","6500600","新店區"
"231027","3712-VJ","2017/07/03 13:50:00","新北市新店區中興路一段24-1號","121.538441666667","24.958095","6500600","新店區"
"231024","3713-VJ","2017/07/03 13:49:57","新北市新店區新生街39號","121.539191666667","24.9668716666667","6500600","新店區"
"231038","4715-K9","2017/07/03 13:49:59","新北市新店區安華路28-1號","121.520131666667","24.9614083333333","6500600","新店區"
"231036","512-UM","2017/07/03 13:49:54","新北市新店區安祥路110巷63號","121.473733333333","24.9570416666667","6500600","新店區"
"231023","513-UM","2017/07/03 13:49:56","新北市新店區國校路28號","121.538036666667","24.954635","6500600","新店區"
"231035","515-UM","2017/07/03 13:49:53","新北市新店區安忠路57巷7弄2號","121.513325","24.958535","6500600","新店區"
"231003","616-UM","2017/07/03 13:49:50","新北市新店區中興路一段157號","121.542518333333","24.9640866666667","6500600","新店區"
"231006","617-UM","2017/07/03 13:50:04","新北市新店區北宜路一段170號","121.540698333333","24.9530666666667","6500600","新店區"
"231030","618-UM","2017/07/03 13:49:55","新北市新店區安康路一段226-2號","121.523335","24.963695","6500600","新店區"
"231001","619-UM","2017/07/03 13:50:04","新北市新店區三民路62號","121.535156666667","24.97224","6500600","新店區"
"231034","645-TV","2017/07/03 13:49:53","新北市新店區達觀路16號","121.503076666667","24.9407916666667","6500600","新店區"
"231013","719-UM","2017/07/03 13:49:52","新北市新店區二十張路25巷20號","121.539261666667","24.9821066666667","6500600","新店區"
"231031","720-UM","2017/07/03 13:49:59","新北市新店區莒光路87巷15號","121.52582","24.9534266666667","6500600","新店區"
"231004","899-TW","2017/07/03 13:50:00","新北市新店區寶橋路98號","121.547113333333","24.9760716666667","6500600","新店區"
"231037","AKT-0513","2017/07/03 13:50:01","新北市新店區安康路三段355巷2號","121.484581666667","24.9505716666667","6500600","新店區"
"235030","003-UY","2017/07/03 13:49:55","新北市中和區中山路二段131巷20號","121.503621666667","25.0025766666667","6500300","中和區"
"235028","005-UY","2017/07/03 13:49:59","新北市中和區景平路581號","121.497591666667","25.00007","6500300","中和區"
"235027","006-UY","2017/07/03 13:49:51","新北市中和區錦和路85號","121.48998","24.99594","6500300","中和區"
"235026","031-BX","2017/07/03 13:49:51","新北市中和區中山路二段312巷19號","121.495548333333","25.0036183333333","6500300","中和區"
"235020","096-UM","2017/07/03 13:49:59","新北市中和區立德街329號","121.481573333333","25.0104066666667","6500300","中和區"
"235003","097-UM","2017/07/03 13:49:43","新北市中和區大勇街29巷14號","121.515746666667","24.9947716666667","6500300","中和區"
"235004","150-BY","2017/07/03 13:49:49","新北市中和區安平路59號","121.509548333333","24.9950766666667","6500300","中和區"
"235022","151-BY","2017/07/03 13:50:01","新北市中和區員山路66-4號","121.481948333333","24.9918316666667","6500300","中和區"
"235019","183-VK","2017/07/03 13:49:56","新北市中和區民德路25巷22號","121.469903333333","25.00307","6500300","中和區"
"235002","185-VK","2017/07/03 13:49:50","新北市中和區立人街14巷52號","121.518396666667","24.995675","6500300","中和區"
"235013","186-VK","2017/07/03 13:50:00","新北市中和區景安路177巷27號","121.506633333333","24.9944716666667","6500300","中和區"
"235031","255-BX","2017/07/03 13:49:58","新北市中和區新生街268號","121.48352","24.9971716666667","6500300","中和區"
"235008","293-VK","2017/07/03 13:49:53","新北市中和區復興路280巷1弄2號","121.502238333333","24.9906833333333","6500300","中和區"
"235036","301-VK","2017/07/03 13:50:05","新北市中和區中山路二段68號","121.50377","25.0045616666667","6500300","中和區"
"235007","352-BY","2017/07/03 13:49:59","新北市中和區景平路1號","121.525511666667","24.9900433333333","6500300","中和區"
"235015","376-QA","2017/07/03 13:49:44","新北市中和區華新街109巷11弄3號","121.50877","24.97929","6500300","中和區"
"235032","377-QA","2017/07/03 13:49:51","新北市中和區中正路167巷16號","121.498401666667","24.9927083333333","6500300","中和區"
"235025","378-QA","2017/07/03 13:49:46","新北市中和區民治街128巷6號","121.474956666667","25.0029233333333","6500300","中和區"
"235014","4979-A6","2017/07/03 13:49:52","新北市中和區忠孝街58巷28號","121.512593333333","24.98272","6500300","中和區"
"235033","4980-A6","2017/07/03 13:49:52","新北市中和區南山路52巷16號","121.501411666667","24.99734","6500300","中和區"
"235006","551-UM","2017/07/03 13:49:58","新北市中和區秀朗路三段70巷11號","121.525756666667","24.9944516666667","6500300","中和區"
"235034","558-UM","2017/07/03 13:49:48","新北市中和區景新街135號","121.505991666667","24.9971516666667","6500300","中和區"
"235009","565-BX","2017/07/03 13:49:55","新北市中和區復興路11號","121.505938333333","24.9897166666667","6500300","中和區"
"235018","640-BX","2017/07/03 13:49:49","新北市中和區民享街54巷5號","121.47367","25.0023083333333","6500300","中和區"
"235024","647-TV","2017/07/03 13:49:51","新北市中和區中正路637巷52弄1號","121.485455","24.9933683333333","6500300","中和區"
"235011","732-UM","2017/07/03 13:49:56","新北市中和區興南路二段74巷8號","121.505216666667","24.9846816666667","6500300","中和區"
"235010","733-UM","2017/07/03 13:49:53","新北市中和區忠孝街101巷1號","121.511781666667","24.9861266666667","6500300","中和區"
"235035","783-BX","2017/07/03 13:50:01","新北市中和區立德街26巷1號","121.489846666667","25.0069866666667","6500300","中和區"
"235021","801-TS","2017/07/03 13:49:57","新北市中和區員山路327巷43號","121.479551666667","25.0021733333333","6500300","中和區"
"235005","802-TS","2017/07/03 13:49:45","新北市中和區永貞路249巷12號","121.512481666667","25.0036866666667","6500300","中和區"
"235016","805-TS","2017/07/03 13:49:59","新北市中和區興南路三段5號","121.497921666667","24.9796883333333","6500300","中和區"
"235012","896-TW","2017/07/03 13:50:07","新北市中和區南山路240-6號","121.507191666667","24.9894716666667","6500300","中和區"
"235017","900-TW","2017/07/03 13:49:58","新北市中和區華福街3號","121.465258333333","24.997005","6500300","中和區"
"235001","AAC-213","2017/07/03 13:49:59","新北市中和區景平路111巷73號","121.51496","24.9902666666667","6500300","中和區"
"235023","AAC-215","2017/07/03 13:49:57","新北市中和區圓通路383號","121.490433333333","24.9893266666667","6500300","中和區"
"220016","013-TV","2017/07/03 13:49:49","新北市板橋區民生路二段70號","121.471875","25.0180666666667","6500100","板橋區"
"220013","072-UY","2017/07/03 13:49:50","新北市板橋區民生路二段36-1號","121.472466666667","25.0167683333333","6500100","板橋區"
"220034","073-UY","2017/07/03 13:50:01","新北市板橋區大智街71巷17號","121.452893333333","25.0142066666667","6500100","板橋區"
"220017","AAD-861","2017/07/03 13:50:04","新北市板橋區觀光街4巷2弄2-3號","121.472346666667","25.01576","6500100","板橋區"
"220105","120-SR","2017/07/03 13:49:49","新北市板橋區民生路二段120號","121.470413333333","25.0195916666667","6500100","板橋區"
"247002","402-BY","2017/07/03 13:35:05","新北市蘆洲區民權路5號","121.476476666667","25.0857","6501400","蘆洲區"
"247007","339-TH","2017/07/03 13:49:52","新北市蘆洲區重陽街42-1號","121.481183333333","25.0827066666667","6501400","蘆洲區"
"247013","057-VK","2017/07/03 13:37:22","新北市蘆洲區中正路507號","121.461011666667","25.097605","6501400","蘆洲區"
"247003","056-VK","2017/07/03 13:49:43","新北市蘆洲區長安街108巷5弄12號","121.46105","25.0822","6501400","蘆洲區"
"247005","053-VK","2017/07/03 13:49:19","新北市蘆洲區中山二路256號","121.469243333333","25.0789916666667","6501400","蘆洲區"
"247015","001-UY","2017/07/03 13:49:45","新北市蘆洲區光華路31號","121.469108333333","25.0831166666667","6501400","蘆洲區"
"227001","400-TW","2017/07/03 12:51:08","新北市雙溪區三貂里政光路3-1號","121.850855","25.06308","6502500","雙溪區"
"208004","AAC-292","2017/07/03 13:49:58","新北市金山區重和里三重橋23號","121.588611666667","25.1886466666667","6502700","金山區"
"207002","749-BX","2017/07/03 13:49:46","新北市萬里區崁腳里崁腳路166號","121.645101666667","25.1557833333333","6502800","萬里區"
"207001","463-BY","2017/07/03 13:49:53","新北市萬里區磺潭里公館崙58號","121.628688333333","25.2056416666667","6502800","萬里區"
"252005","AAC-283","2017/07/03 00:26:42","新北市三芝區埔坪里埔頭坑41號","121.504481666667","25.26444","6502100","三芝區"
"208002","170-UY","2017/07/03 13:49:57","新北市樹林區中山路三段345號","121.390185","24.9707366666667","6502700","金山區"
"236064","105-UM","2017/07/03 13:49:53","新北市土城區城林路6巷80號","121.438306666667","24.9797566666667","6501300","土城區"
"236074","166-UM","2017/07/03 13:49:44","新北市土城區中華路二段221號","121.437525","24.9729016666667","6501300","土城區"
"236028","253-BX","2017/07/03 13:50:00","新北市土城區員福街6號","121.441838333333","24.9784533333333","6501300","土城區"
"236024","269-VK","2017/07/03 13:49:49","新北市土城區城林路6巷80號","121.438528333333","24.9796083333333","6501300","土城區"
"236012","270-VK","2017/07/03 13:50:00","新北市土城區城林路6巷80號","121.438483333333","24.9796666666667","6501300","土城區"
"236032","271-VK","2017/07/03 13:49:50","新北市土城區城林路6巷80號","121.438533333333","24.979665","6501300","土城區"
"236016","401-BY","2017/07/03 13:49:54","新北市土城區城林路6巷80號","121.4386","24.9797433333333","6501300","土城區"
"236005","498-BY","2017/07/03 13:50:02","新北市土城區中華路二段128號","121.437611666667","24.9735166666667","6501300","土城區"
"236056","912-UM","2017/07/03 13:50:00","新北市土城區中華路二段82號","121.438838333333","24.97617","6501300","土城區"
"236044","913-UM","2017/07/03 13:49:51","新北市土城區城林路6巷80號","121.438353333333","24.9798083333333","6501300","土城區"
"236060","915-UM","2017/07/03 13:49:46","新北市土城區城林路6巷80號","121.43843","24.9797866666667","6501300","土城區"
"236052","AAC-216","2017/07/03 13:50:00","新北市土城區城林路6巷80號","121.438336666667","24.979735","6501300","土城區"
"221032","280-BY","2017/07/03 13:49:52","新北市汐止區大同路一段302巷42號","121.637116666667","25.0553516666667","6501100","汐止區"
"221018","753-BX","2017/07/03 13:49:48","新北市汐止區福德一路226巷6號","121.633353333333","25.0657633333333","6501100","汐止區"
"220027","145-BY","2017/07/03 13:49:59","新北市板橋區漢生西路89巷4弄6號","121.461016666667","25.019015","6500100","板橋區"
"220030","610-BX","2017/07/03 13:50:00","新北市板橋區篤行路二段127-1號","121.431231666667","24.9906183333333","6500100","板橋區"
"220050","245-BX","2017/07/03 13:49:50","新北市板橋區民生路二段120號","121.470508333333","25.0197833333333","6500100","板橋區"
"220052","257-TC","2017/07/03 13:49:44","新北市板橋區民生路二段120號","121.470398333333","25.0197016666667","6500100","板橋區"
"220040","267-BY","2017/07/03 13:49:53","新北市板橋區民生路二段161巷1號","121.469998333333","25.02","6500100","板橋區"
"220004","276-BY","2017/07/03 13:49:45","新北市土城區四川路4號","121.455766666667","24.9961033333333","6500100","板橋區"
"220020","277-BY","2017/07/03 13:50:01","新北市板橋區金門街31巷6號","121.433548333333","24.9939266666667","6500100","板橋區"
"220043","283-UM","2017/07/03 13:49:51","新北市板橋區民生路二段161巷1號","121.47026","25.0200416666667","6500100","板橋區"
"220019","283-VK","2017/07/03 13:49:53","新北市板橋區觀光街1巷1號","121.4723","25.015385","6500100","板橋區"
"220001","285-VK","2017/07/03 13:49:43","新北市板橋區民生路二段70號","121.471933333333","25.0180766666667","6500100","板橋區"
"220031","286-VK","2017/07/03 13:50:00","新北市板橋區大觀路二段22巷26號","121.445343333333","25.0035766666667","6500100","板橋區"
"220039","288-VK","2017/07/03 13:49:53","新北市板橋區民生路二段161巷9號","121.470231666667","25.01965","6500100","板橋區"
"220009","293-UM","2017/07/03 13:49:50","新北市板橋區民生路二段72號","121.47191","25.0181233333333","6500100","板橋區"
"220032","296-UM","2017/07/03 13:50:01","新北市板橋區大觀路二段148巷51號","121.441661666667","25.00118","6500100","板橋區"
"220023","297-UM","2017/07/03 13:49:47","新北市板橋區大觀路一段28巷88號","121.449915","25.01108","6500100","板橋區"
"220041","299-UM","2017/07/03 13:50:01","新北市板橋區民生路二段120號","121.470606666667","25.0197483333333","6500100","板橋區"
"220010","305-R5","2017/07/01 21:02:36","新北市板橋區民生路二段36-1號","121.47216","25.016945","6500100","板橋區"
"220047","317-R6","2017/07/03 13:49:44","新北市板橋區民生路二段120號","121.470633333333","25.0197616666667","6500100","板橋區"
"220028","461-BY","2017/07/03 13:49:58","新北市板橋區大觀路二段265巷72弄5號","121.442225","24.99689","6500100","板橋區"
"220012","486-VK","2017/07/03 02:46:48","新北市板橋區民生路二段36-1號","121.472658333333","25.0167216666667","6500100","板橋區"
"220038","487-VK","2017/07/03 13:49:50","新北市板橋區民生路二段120號","121.47054","25.0194666666667","6500100","板橋區"
"220037","491-VK","2017/07/03 13:48:59","新北市板橋區民生路二段161巷5號","121.470128333333","25.0197","6500100","板橋區"
"220104","560-BX","2017/07/03 13:49:53","新北市板橋區中正路325巷41號","121.453435","25.0193033333333","6500100","板橋區"
"220011","609-BX","2017/07/03 13:49:56","新北市板橋區民生路二段36-1號","121.472436666667","25.0166116666667","6500100","板橋區"
"220029","630-UY","2017/07/03 13:50:03","新北市板橋區南雅西路二段145巷6號","121.45163","25.0118666666667","6500100","板橋區"
"220005","686-BX","2017/07/03 13:49:52","新北市板橋區觀光街8號","121.472121666667","25.0166033333333","6500100","板橋區"
"220025","687-BX","2017/07/03 13:49:52","新北市板橋區大觀路三段79號","121.433408333333","24.9951183333333","6500100","板橋區"
"220042","689-BX","2017/07/03 13:49:44","新北市板橋區民生路二段120號","121.470293333333","25.0198566666667","6500100","板橋區"
"220002","741-BX","2017/07/03 13:50:03","新北市板橋區中山路二段25號","121.472513333333","25.0153933333333","6500100","板橋區"
"220073","806-UM","2017/07/03 13:49:50","新北市板橋區中正路600號","121.445873333333","25.0205","6500100","板橋區"
"220014","829-TW","2017/07/03 13:50:00","新北市板橋區中山路二段50-1號","121.473246666667","25.0154883333333","6500100","板橋區"
"220051","830-TW","2017/07/01 21:38:51","新北市板橋區民生路二段161巷1號","121.470056666667","25.02004","6500100","板橋區"
"220045","831-TW","2017/07/03 01:51:14","新北市板橋區民生路二段161巷9號","121.470275","25.019635","6500100","板橋區"
"220022","895-R6","2017/07/03 13:49:54","新北市板橋區南門街59號","121.457155","25.00827","6500100","板橋區"
"220021","985-R7","2017/07/03 13:49:54","新北市板橋區館前西路121號","121.456695","25.0075666666667","6500100","板橋區"
"220046","AAC-210","2017/07/03 13:49:50","新北市板橋區民生路二段120號","121.47041","25.0199166666667","6500100","板橋區"
"220018","AAC-253","2017/07/03 13:49:57","新北市板橋區民生路二段5號","121.47286","25.0157733333333","6500100","板橋區"
