"lineid","car","time","location","longitude","latitude","cityid","cityname"
"234005","207-UY","2017/07/03 14:29:58","新北市永和區中山路一段146號","121.50984","25.0095133333333","6500400","永和區"
"234078","298-R6","2017/07/03 14:30:04","新北市永和區永貞路27號","121.521063333333","25.00677","6500400","永和區"
"234062","337-UY","2017/07/03 14:29:58","新北市永和區中正路401號","121.517241666667","25.0044616666667","6500400","永和區"
"234084","338-UY","2017/07/03 14:29:44","新北市永和區中正路664號","121.516758333333","25.0088516666667","6500400","永和區"
"234052","553-UM","2017/07/03 14:30:01","新北市永和區光復街31-1號","121.516368333333","25.017835","6500400","永和區"
"234028","746-BX","2017/07/03 14:29:57","新北市中和區中正路909號","121.483735","25.0065183333333","6500400","永和區"
"234060","AAD-866","2017/07/03 14:29:59","新北市永和區安樂路194巷12號","121.516181666667","25.000815","6500400","永和區"
"234040","862-TW","2017/07/03 14:29:55","新北市永和區安樂路250號","121.514618333333","25.00353","6500400","永和區"
"234048","863-TW","2017/07/03 14:30:03","新北市永和區保安路81號","121.50851","25.0147566666667","6500400","永和區"
"234025","9372-KE","2017/07/03 14:29:45","新北市永和區安樂路144巷8號","121.514578333333","24.999975","6500400","永和區"
"234010","9373-KE","2017/07/03 14:30:01","新北市永和區保生路55-4號","121.50467","25.0120316666667","6500400","永和區"
"248013","025-BX","2017/07/03 14:29:48","新北市五股區工商路150號","121.433193333333","25.0874233333333","6501500","五股區"
"248007","095-VK","2017/07/03 14:30:03","新北市五股區中興路一段95巷17號","121.466565","25.072135","6501500","五股區"
"248019","225-UY","2017/07/03 13:57:12","新北市五股區凌雲路三段69號","121.425336666667","25.1249816666667","6501500","五股區"
"248011","247-BX","2017/07/03 14:24:29","新北市五股區成泰路二段55號","121.4378","25.08342","6501500","五股區"
"248015","261-SL","2017/07/03 14:29:47","新北市五股區成泰路3段651-1號","121.452881666667","25.10519","6501500","五股區"
"248009","272-BY","2017/07/03 14:29:47","新北市五股區水碓一路23號","121.430603333333","25.0712966666667","6501500","五股區"
"248003","677-BX","2017/07/03 14:30:03","新北市五股區五福路7-1號","121.434306666667","25.0881116666667","6501500","五股區"
"248001","678-BX","2017/07/03 14:29:48","新北市五股區成泰路三段436號","121.450856666667","25.0994783333333","6501500","五股區"
"234022","9380-KE","2017/07/03 14:29:48","新北市永和區保生路55-1號","121.504513333333","25.0108916666667","6500400","永和區"
"234072","AAC-211","2017/07/03 14:29:50","新北市永和區竹林路39巷48號","121.52042","25.015375","6500400","永和區"
"234066","AAC-212","2017/07/03 14:29:57","新北市永和區保平路268巷27號","121.5079","25.0059783333333","6500400","永和區"
"234001","AAC-295","2017/07/03 14:28:18","新北市永和區自強街16號","121.51508","25.0080033333333","6500400","永和區"
"244001","248-BX","2017/07/03 14:29:59","新北市林口區瑞平里33-1號","121.348653333333","25.128695","6501700","林口區"
"243005","AAD-798","2017/07/03 14:29:59","新北市泰山區貴子路9巷8號","121.425566666667","25.0424033333333","6501600","泰山區"
"243001","297-R6","2017/07/03 14:29:49","新北市泰山區美寧街76號","121.431425","25.06449","6501600","泰山區"
"243007","380-SR","2017/07/03 14:29:52","新北市泰山區民權街71號","121.42873","25.0499883333333","6501600","泰山區"
"243006","421-VK","2017/07/03 14:29:55","新北市泰山區仁愛路6巷4弄1號","121.43137","25.0535483333333","6501600","泰山區"
"243002","548-UM","2017/07/03 14:30:01","新北市泰山區民生路17巷27號","121.429635","25.0517966666667","6501600","泰山區"
"243003","549-UM","2017/07/03 14:29:54","新北市泰山區中山路二段567號","121.42943","25.040085","6501600","泰山區"
"243004","646-TV","2017/07/03 14:29:48","新北市泰山區全興路13號","121.432373333333","25.0589766666667","6501600","泰山區"
"243008","680-BX","2017/07/03 14:29:50","新北市泰山區明志路三段514號","121.420858333333","25.0308033333333","6501600","泰山區"
"231002","002-UM","2017/07/03 14:30:02","新北市新店區中央路81號","121.532386666667","24.9766316666667","6500600","新店區"
"231025","0291-UT","2017/07/03 14:29:52","新北市新店區大豐路95號","121.53813","24.9789383333333","6500600","新店區"
"231028","046-UY","2017/07/03 14:30:01","新北市新店區安成街30號","121.51016","24.9610233333333","6500600","新店區"
"231029","106-UY","2017/07/03 14:29:43","新北市新店區安康路二段303號","121.502216666667","24.9573633333333","6500600","新店區"
"231018","107-UY","2017/07/03 14:29:53","新北市新店區中央二街81號","121.525695","24.9752083333333","6500600","新店區"
"231011","108-UY","2017/07/03 14:29:57","新北市新店區寶興路61巷2號","121.550863333333","24.9719916666667","6500600","新店區"
"231019","187-VK","2017/07/03 14:30:03","新北市新店區新烏路二段198巷2弄2號","121.547818333333","24.91696","6500600","新店區"
"231014","AAD-862","2017/07/03 14:29:46","新北市新店區北宜路三段262-1號","121.599666666667","24.9536466666667","6500600","新店區"
"231005","355-BY","2017/07/03 14:29:51","新北市新店區北新路三段63號","121.541788333333","24.98093","6500600","新店區"
"231027","3712-VJ","2017/07/03 14:30:00","新北市新店區北新路二段228巷22號","121.543933333333","24.9769833333333","6500600","新店區"
"231038","4715-K9","2017/07/03 14:29:59","新北市新店區溪洲路61-1號","121.533515","24.96104","6500600","新店區"
"231036","512-UM","2017/07/03 14:29:54","新北市新店區安祥路109巷8號","121.475413333333","24.9588416666667","6500600","新店區"
"231023","513-UM","2017/07/03 14:29:56","新北市新店區光明街117號","121.539165","24.9615166666667","6500600","新店區"
"231035","515-UM","2017/07/03 14:29:53","新北市新店區安光路10-1號","121.513811666667","24.9641016666667","6500600","新店區"
"231003","616-UM","2017/07/03 14:29:50","新北市新店區中興路一段268-3號","121.54516","24.9678933333333","6500600","新店區"
"231006","617-UM","2017/07/03 14:30:04","新北市新店區北宜路二段493號","121.562838333333","24.9538433333333","6500600","新店區"
"231030","618-UM","2017/07/03 14:29:55","新北市新店區安民街85-1號","121.516483333333","24.9676433333333","6500600","新店區"
"231001","619-UM","2017/07/03 14:29:44","新北市新店區北新路一段96巷23號","121.54294","24.9688766666667","6500600","新店區"
"231034","645-TV","2017/07/03 14:29:53","新北市新店區黎明路55巷1號","121.502478333333","24.94839","6500600","新店區"
"231013","719-UM","2017/07/03 14:29:51","新北市新店區民權路98-1號","121.53639","24.9832333333333","6500600","新店區"
"231031","720-UM","2017/07/03 14:29:59","新北市新店區安興路81號","121.515581666667","24.97533","6500600","新店區"
"231004","899-TW","2017/07/03 14:29:59","新北市新店區中正路263-3號","121.538371666667","24.9738333333333","6500600","新店區"
"231037","AKT-0513","2017/07/03 14:30:01","新北市新店區安康路二段320巷15弄2號","121.504426666667","24.95973","6500600","新店區"
"235030","003-UY","2017/07/03 14:29:55","新北市中和區景新街32號","121.503345","24.999325","6500300","中和區"
"235028","005-UY","2017/07/03 14:29:59","新北市中和區中和路80號","121.501115","25.000645","6500300","中和區"
"235027","006-UY","2017/07/03 14:28:11","新北市中和區連勝街119號","121.495008333333","24.9953966666667","6500300","中和區"
"235026","031-BX","2017/07/03 14:29:50","新北市中和區橋和路119號","121.491715","25.005795","6500300","中和區"
"235020","096-UM","2017/07/03 14:29:59","新北市中和區民富街31號","121.476455","25.0077883333333","6500300","中和區"
"235003","097-UM","2017/07/03 14:30:03","新北市中和區秀峰街127巷2號","121.51958","24.990945","6500300","中和區"
"235004","150-BY","2017/07/03 14:29:49","新北市中和區保健路106巷55號","121.511686666667","24.9950283333333","6500300","中和區"
"235022","151-BY","2017/07/03 14:30:01","新北市中和區和城路一段271巷1號","121.485471666667","24.9917533333333","6500300","中和區"
"235019","183-VK","2017/07/03 14:29:56","新北市中和區民享街2巷15號","121.473006666667","25.0054133333333","6500300","中和區"
"235002","185-VK","2017/07/03 14:29:50","新北市中和區大智街55巷31號","121.520546666667","24.992775","6500300","中和區"
"235013","186-VK","2017/07/03 14:30:00","新北市中和區景平路398-1號","121.509713333333","24.9932783333333","6500300","中和區"
"235031","255-BX","2017/07/03 14:29:58","新北市中和區連城路467-4號","121.483826666667","24.996115","6500300","中和區"
"235008","293-VK","2017/07/03 14:29:53","新北市中和區中興街239號","121.500358333333","24.9892583333333","6500300","中和區"
"235036","301-VK","2017/07/03 14:29:44","新北市中和區保平路235號","121.507695","25.0043333333333","6500300","中和區"
"235007","352-BY","2017/07/03 14:29:58","新北市中和區景平路352號","121.511416666667","24.992725","6500300","中和區"
"235015","376-QA","2017/07/03 14:30:03","新北市中和區興南路一段75號","121.510233333333","24.9890616666667","6500300","中和區"
"235032","377-QA","2017/07/03 14:29:51","新北市中和區景平路493巷12弄7號","121.49894","24.99714","6500300","中和區"
"235025","378-QA","2017/07/03 14:29:59","新北市中和區民利街49巷4號","121.479598333333","24.998545","6500300","中和區"
"235014","4979-A6","2017/07/03 14:29:52","新北市中和區員山路36巷13號","121.484546666667","24.9909466666667","6500300","中和區"
"235033","4980-A6","2017/07/03 14:29:52","新北市中和區連城路128號","121.495976666667","24.9991766666667","6500300","中和區"
"235006","551-UM","2017/07/03 14:29:53","新北市中和區中和路378巷21號","121.511538333333","25.0016316666667","6500300","中和區"
"235034","558-UM","2017/07/03 14:29:48","新北市中和區中和路30號","121.499808333333","25.0017083333333","6500300","中和區"
"235009","565-BX","2017/07/03 14:29:55","新北市中和區景新街421號","121.512913333333","24.9891783333333","6500300","中和區"
"235018","640-BX","2017/07/03 14:29:49","新北市中和區國光街109巷18號","121.469681666667","24.9999583333333","6500300","中和區"
"235024","647-TV","2017/07/03 14:29:02","新北市中和區員山路36巷16-3號","121.484998333333","24.9913666666667","6500300","中和區"
"235011","732-UM","2017/07/03 14:29:56","新北市中和區景平路243號","121.509385","24.9926466666667","6500300","中和區"
"235010","733-UM","2017/07/03 14:29:53","新北市中和區忠孝街37巷52號","121.511115","24.9849416666667","6500300","中和區"
"235035","783-BX","2017/07/03 14:30:01","新北市中和區連城路469巷79弄2號","121.48349","24.99368","6500300","中和區"
"235021","801-TS","2017/07/03 14:29:57","新北市中和區員山路419號","121.481013333333","25.0032883333333","6500300","中和區"
"235005","802-TS","2017/07/03 14:29:45","新北市中和區宜安路102號","121.510425","24.9978366666667","6500300","中和區"
"235016","805-TS","2017/07/03 14:29:59","新北市中和區華新街113巷2弄16號","121.506848333333","24.9815966666667","6500300","中和區"
"235012","896-TW","2017/07/03 14:29:46","新北市中和區忠孝街64號","121.511903333333","24.98397","6500300","中和區"
"235017","900-TW","2017/07/03 14:29:58","新北市中和區華安街17巷11號","121.46688","24.9982383333333","6500300","中和區"
"235001","AAC-213","2017/07/03 14:29:59","新北市中和區秀朗路三段60巷36號","121.525138333333","24.99493","6500300","中和區"
"235023","AAC-215","2017/07/03 14:30:02","新北市中和區圓通路309號","121.493266666667","24.9908266666667","6500300","中和區"
"220016","013-TV","2017/07/03 14:29:49","新北市板橋區萬安街108號","121.483798333333","25.0243966666667","6500100","板橋區"
"220013","072-UY","2017/07/03 14:29:50","新北市板橋區國泰街75巷33號","121.468028333333","25.0054733333333","6500100","板橋區"
"220034","073-UY","2017/07/03 14:30:01","新北市板橋區中正路250巷124號","121.460128333333","25.02005","6500100","板橋區"
"220017","AAD-861","2017/07/03 14:29:44","新北市板橋區大明街20巷25-3號","121.45877","25.003615","6500100","板橋區"
"220105","120-SR","2017/07/03 14:29:49","新北市板橋區長江路二段281號","121.47027","25.0331216666667","6500100","板橋區"
"247019","893-R6","2017/07/03 14:29:47","新北市蘆洲區水湳街108號","121.469603333333","25.0932183333333","6501400","蘆洲區"
"247009","546-UM","2017/07/03 14:29:55","新北市蘆洲區鷺江街12號","121.47908","25.0825583333333","6501400","蘆洲區"
"247017","500-BY","2017/07/03 14:29:58","新北市蘆洲區民族路336巷29-1號","121.478103333333","25.09142","6501400","蘆洲區"
"247002","402-BY","2017/07/03 14:29:59","新北市蘆洲區中山一路107號","121.476413333333","25.0816133333333","6501400","蘆洲區"
"247007","339-TH","2017/07/03 14:29:52","新北市蘆洲區信義路93號","121.477675","25.079935","6501400","蘆洲區"
"247023","337-TH","2017/07/03 14:29:53","新北市蘆洲區正和街19-4號","121.470036666667","25.0821766666667","6501400","蘆洲區"
"247001","336-TH","2017/07/03 14:29:57","新北市蘆洲區永樂街38巷33弄29號","121.45686","25.089725","6501400","蘆洲區"
"247013","057-VK","2017/07/03 14:30:02","新北市蘆洲區中山二路243號","121.470065","25.079935","6501400","蘆洲區"
"247003","056-VK","2017/07/03 14:29:43","新北市蘆洲區中原路79號","121.458285","25.0818616666667","6501400","蘆洲區"
"247005","053-VK","2017/07/03 14:28:59","新北市蘆洲區中華街73號","121.462128333333","25.0804216666667","6501400","蘆洲區"
"247011","007-UY","2017/07/03 14:30:04","新北市蘆洲區復興路246號","121.479731666667","25.0895633333333","6501400","蘆洲區"
"247021","002-UY","2017/07/03 14:29:45","新北市蘆洲區三民路128巷35號","121.469801666667","25.0895916666667","6501400","蘆洲區"
"247015","001-UY","2017/07/03 14:30:05","新北市蘆洲區中正路185巷78弄21號","121.465521666667","25.0849616666667","6501400","蘆洲區"
"227001","400-TW","2017/07/03 14:28:31","新北市雙溪區三貂里政光路3-1號","121.850891666667","25.06303","6502500","雙溪區"
"208004","AAC-292","2017/07/03 14:29:55","新北市金山區六股里下六股65號","121.614425","25.2235416666667","6502700","金山區"
"207002","749-BX","2017/07/03 14:29:46","新北市萬里區溪底里溪底路13號","121.61528","25.1492683333333","6502800","萬里區"
"207001","463-BY","2017/07/03 14:29:53","新北市萬里區磺潭里清水18-2號","121.638445","25.198325","6502800","萬里區"
"252005","AAC-283","2017/07/03 00:26:42","新北市三芝區埔坪里埔頭坑41號","121.504481666667","25.26444","6502100","三芝區"
"208002","170-UY","2017/07/03 14:27:17","新北市新店區北宜路一段39巷28號","121.539568333333","24.958575","6502700","金山區"
"236064","105-UM","2017/07/03 14:29:53","新北市土城區永豐路255巷46號","121.475915","24.972795","6501300","土城區"
"236040","107-UM","2017/07/03 14:29:43","新北市土城區學成路99巷11號","121.449998333333","24.9883533333333","6501300","土城區"
"236074","166-UM","2017/07/03 14:30:04","新北市土城區中央路四段27巷9號","121.42457","24.9620316666667","6501300","土城區"
"236028","253-BX","2017/07/03 14:30:00","新北市土城區水源街67號","121.439945","24.9763233333333","6501300","土城區"
"236024","269-VK","2017/07/03 14:29:48","新北市土城區承天路18號","121.439523333333","24.963445","6501300","土城區"
"236012","270-VK","2017/07/03 14:30:00","新北市土城區青雲路39巷7號","121.460343333333","24.98752","6501300","土城區"
"236032","271-VK","2017/07/03 14:29:50","新北市土城區青雲路451巷23號","121.460076666667","24.9747983333333","6501300","土城區"
"236016","401-BY","2017/07/03 14:29:54","新北市土城區永豐路202巷5-2號","121.466351666667","24.9832866666667","6501300","土城區"
"236005","498-BY","2017/07/03 14:30:01","新北市土城區日新街58號","121.443051666667","24.988255","6501300","土城區"
"236056","912-UM","2017/07/03 14:30:00","新北市土城區中央路四段323號","121.41041","24.9509583333333","6501300","土城區"
"236044","913-UM","2017/07/03 14:29:51","新北市土城區明德路一段307號","121.459695","24.9771383333333","6501300","土城區"
"236060","915-UM","2017/07/03 14:29:57","新北市土城區延壽路111巷17號","121.468561666667","24.9935966666667","6501300","土城區"
"236052","AAC-216","2017/07/03 14:29:59","新北市土城區中華路二段175號","121.4386","24.974925","6501300","土城區"
"221032","280-BY","2017/07/03 14:29:52","新北市新店區車子路115-11號","121.507961666667","24.954495","6501100","汐止區"
"221018","753-BX","2017/07/03 14:29:48","新北市新店區薏仁坑路自強巷1號","121.497138333333","24.95784","6501100","汐止區"
"220027","145-BY","2017/07/03 14:29:57","新北市板橋區光正街45巷6弄19號","121.460901666667","25.0169733333333","6500100","板橋區"
"220030","610-BX","2017/07/03 14:30:00","新北市板橋區溪城路115號","121.427491666667","24.9826366666667","6500100","板橋區"
"220050","245-BX","2017/07/03 14:29:58","新北市板橋區縣民大道三段270巷1號","121.478265","25.0235583333333","6500100","板橋區"
"220052","257-TC","2017/07/03 14:29:44","新北市板橋區文化路一段268號","121.467061666667","25.0207883333333","6500100","板橋區"
"220040","267-BY","2017/07/03 14:29:53","新北市板橋區文聖街76號","121.477265","25.0302833333333","6500100","板橋區"
"220004","276-BY","2017/07/03 14:29:45","新北市板橋區國慶路27號","121.458806666667","24.9954366666667","6500100","板橋區"
"220020","277-BY","2017/07/03 14:30:01","新北市板橋區金門街337巷3弄2號","121.429785","24.9852366666667","6500100","板橋區"
"220043","283-UM","2017/07/03 14:30:01","新北市板橋區吳鳳路50號","121.468088333333","25.030445","6500100","板橋區"
"220019","283-VK","2017/07/03 14:29:53","新北市板橋區大豐街31號","121.46195","25.0013083333333","6500100","板橋區"
"220001","285-VK","2017/07/03 14:30:03","新北市板橋區富山街80巷8-3號","121.47678","25.02244","6500100","板橋區"
"220031","286-VK","2017/07/03 14:29:49","新北市板橋區龍興街73巷43號","121.442188333333","25.0028016666667","6500100","板橋區"
"220039","288-VK","2017/07/03 14:29:53","新北市板橋區長江路一段106巷18弄7號","121.460018333333","25.0284583333333","6500100","板橋區"
"220009","293-UM","2017/07/03 14:29:50","新北市板橋區中山路一段279號","121.469506666667","25.0137116666667","6500100","板橋區"
"220032","296-UM","2017/07/03 14:29:56","新北市板橋區滿平街136巷7弄1號","121.427973333333","24.9872433333333","6500100","板橋區"
"220023","297-UM","2017/07/03 14:29:47","新北市板橋區南雅南路一段73號","121.455838333333","25.0056466666667","6500100","板橋區"
"220041","299-UM","2017/07/03 14:30:01","新北市板橋區光武街4巷14號","121.468276666667","25.0257983333333","6500100","板橋區"
"220010","305-R5","2017/07/03 14:29:57","新北市板橋區三民路二段193巷7號","121.479603333333","25.01414","6500100","板橋區"
"220047","317-R6","2017/07/03 14:29:44","新北市板橋區四維路266巷2弄27號","121.464116666667","25.0280483333333","6500100","板橋區"
"220028","461-BY","2017/07/03 14:29:47","新北市板橋區大觀路二段3巷56號","121.448986666667","25.0034116666667","6500100","板橋區"
"220012","486-VK","2017/07/03 14:30:01","新北市板橋區中山路一段24號","121.460281666667","25.0082516666667","6500100","板橋區"
"220038","487-VK","2017/07/03 14:29:50","新北市板橋區文化路一段114號","121.464826666667","25.018425","6500100","板橋區"
"220037","491-VK","2017/07/03 14:28:59","新北市板橋區雙十路二段4-7號","121.476938333333","25.0258966666667","6500100","板橋區"
"220104","560-BX","2017/07/03 14:29:53","新北市板橋區中正路391號","121.45432","25.0218433333333","6500100","板橋區"
"220011","609-BX","2017/07/03 14:29:56","新北市板橋區三民路二段251號","121.479013333333","25.012265","6500100","板橋區"
"220029","630-UY","2017/07/03 14:30:03","新北市板橋區南雅西路一段110號","121.452488333333","25.0059366666667","6500100","板橋區"
"220005","686-BX","2017/07/03 14:29:52","新北市板橋區國慶路199-2號","121.463291666667","24.9967683333333","6500100","板橋區"
"220025","687-BX","2017/07/03 14:29:52","新北市板橋區大觀路二段95號","121.446318333333","25.0018516666667","6500100","板橋區"
"220042","689-BX","2017/07/03 14:29:44","新北市板橋區雨農路50號","121.461136666667","25.0242833333333","6500100","板橋區"
"220002","741-BX","2017/07/03 14:30:03","新北市板橋區光明街100號","121.462196666667","25.0028516666667","6500100","板橋區"
"220003","827-TW","2017/07/03 14:29:58","新北市板橋區實踐路81號","121.463916666667","25.0057816666667","6500100","板橋區"
"220014","829-TW","2017/07/03 14:30:00","新北市板橋區漢生東路299巷8-2號","121.472111666667","25.00864","6500100","板橋區"
"220051","830-TW","2017/07/03 14:29:49","新北市板橋區松柏街22巷45號","121.475111666667","25.0287816666667","6500100","板橋區"
"220045","831-TW","2017/07/03 14:30:00","新北市板橋區大同街35巷30號","121.477196666667","25.027845","6500100","板橋區"
"220022","895-R6","2017/07/03 14:29:54","新北市板橋區館前西路132號","121.456365","25.0078933333333","6500100","板橋區"
"220021","985-R7","2017/07/03 14:30:04","新北市板橋區新生街89巷18號","121.457556666667","25.0225816666667","6500100","板橋區"
"220046","AAC-210","2017/07/03 14:29:50","新北市板橋區新海路204號","121.461153333333","25.023565","6500100","板橋區"
"220018","AAC-253","2017/07/03 14:29:57","新北市板橋區忠孝路147號","121.463433333333","25.0024016666667","6500100","板橋區"
