"lineid","car","time","location","longitude","latitude","cityid","cityname"
"234078","298-R6","2017/07/03 15:38:31","新北市八里區中華路二段39號","121.41166","25.153015","6500400","永和區"
"231002","002-UM","2017/07/03 15:40:02","新北市新店區環河路18號","121.536891666667","24.9615816666667","6500600","新店區"
"231028","046-UY","2017/07/03 15:40:01","新北市新店區安豐路57-2號","121.49986","24.9538766666667","6500600","新店區"
"231029","106-UY","2017/07/03 15:39:43","新北市新店區安康路三段47號","121.492683333333","24.9525983333333","6500600","新店區"
"231018","107-UY","2017/07/03 15:39:53","新北市新店區民生路156巷117號","121.526848333333","24.982545","6500600","新店區"
"231011","108-UY","2017/07/03 15:39:57","新北市新店區文化路92號","121.544913333333","24.9825733333333","6500600","新店區"
"231019","187-VK","2017/07/03 15:39:50","新北市新店區新烏路一段9-1號","121.546983333333","24.9515016666667","6500600","新店區"
"231026","256-BX","2017/07/03 15:39:57","新北市新店區三民路75巷6-1號","121.535535","24.9708716666667","6500600","新店區"
"231046","278-BY","2017/07/03 15:39:53","新北市新店區安華路28-1號","121.51969","24.9615283333333","6500600","新店區"
"231014","AAD-862","2017/07/03 15:39:46","新北市新店區北宜路二段58號","121.549313333333","24.9514466666667","6500600","新店區"
"231038","4715-K9","2017/07/03 15:39:59","新北市新店區安康路一段258號","121.520516666667","24.9642366666667","6500600","新店區"
"231036","512-UM","2017/07/03 15:39:54","新北市新店區安祥路86號","121.491196666667","24.9561216666667","6500600","新店區"
"231023","513-UM","2017/07/03 15:39:56","新北市新店區中興路一段267-3號","121.54498","24.9678266666667","6500600","新店區"
"231035","515-UM","2017/07/03 15:39:53","新北市新店區安興路94號","121.515113333333","24.9763266666667","6500600","新店區"
"231003","616-UM","2017/07/03 15:39:50","新北市新店區寶橋路138號","121.547761666667","24.9765133333333","6500600","新店區"
"231030","618-UM","2017/07/03 15:39:55","新北市新店區永安街107號","121.52096","24.9856466666667","6500600","新店區"
"231034","645-TV","2017/07/03 15:39:53","新北市新店區玫瑰路58巷23號","121.49429","24.9465866666667","6500600","新店區"
"231039","718-UY","2017/07/03 15:39:56","新北市新店區寶元路二段17號","121.546363333333","24.98211","6500600","新店區"
"231013","719-UM","2017/07/03 15:39:58","新北市新店區永業路81巷60號","121.52919","24.9481516666667","6500600","新店區"
"231031","720-UM","2017/07/03 15:39:59","新北市新店區雙城路115號","121.492531666667","24.9475483333333","6500600","新店區"
"231037","AKT-0513","2017/07/03 15:40:01","新北市新店區安興路105號","121.514715","24.97786","6500600","新店區"
"241028","022-UY","2017/07/03 15:39:57","新北市三重區重新路四段121號","121.484758333333","25.0524833333333","6500200","三重區"
"241015","062-VK","2017/07/03 15:39:48","新北市三重區重新路四段121號","121.485075","25.0519883333333","6500200","三重區"
"241017","063-VK","2017/07/03 15:39:51","新北市三重區新北大道一段7號","121.48994","25.0613416666667","6500200","三重區"
"241026","066-VK","2017/07/03 15:39:51","新北市三重區重新路四段121號","121.484831666667","25.0519366666667","6500200","三重區"
"241011","265-UM","2017/07/03 15:39:49","新北市三重區長元街105號","121.504586666667","25.0669483333333","6500200","三重區"
"241016","266-UM","2017/07/03 15:39:44","新北市三重區重新路四段121號","121.485168333333","25.0520133333333","6500200","三重區"
"241013","270-UM","2017/07/03 15:39:58","新北市三重區忠孝路一段2號","121.492565","25.07162","6500200","三重區"
"241007","398-BY","2017/07/03 15:39:48","新北市三重區重新路四段121號","121.48519","25.0519916666667","6500200","三重區"
"241020","413-TH","2017/07/03 15:39:48","新北市三重區忠孝路二段35號","121.485876666667","25.0710666666667","6500200","三重區"
"241029","942-UM","2017/07/03 15:39:47","新北市三重區大同南路204號","121.496753333333","25.0566283333333","6500200","三重區"
"241033","AAC-255","2017/07/03 15:39:49","新北市三重區重新路五段283號","121.479313333333","25.049015","6500200","三重區"
"235022","151-BY","2017/07/03 15:40:01","新北市五股區成泰路三段625號","121.454443333333","25.1043183333333","6500300","中和區"
"235033","4980-A6","2017/07/03 15:39:52","新北市中和區中正路588號","121.485838333333","24.9948333333333","6500300","中和區"
"235034","558-UM","2017/07/03 15:39:47","新北市中和區圓通路417-37號","121.488803333333","24.9876583333333","6500300","中和區"
"235024","647-TV","2017/07/03 14:29:02","新北市中和區員山路36巷16-3號","121.484998333333","24.9913666666667","6500300","中和區"
"235035","783-BX","2017/07/03 15:40:01","新北市中和區員山路36巷13號","121.484281666667","24.9907083333333","6500300","中和區"
"235001","AAC-213","2017/07/03 15:39:59","新北市中和區自立路141巷18號","121.52305","24.9934383333333","6500300","中和區"
"235023","AAC-215","2017/07/03 15:39:45","新北市中和區員山路32-3號","121.48097","24.987355","6500300","中和區"
"247002","402-BY","2017/07/03 15:39:59","新北市林口區汕頭32號","121.366631666667","25.1349266666667","6501400","蘆洲區"
"224007","273-VK","2017/07/03 09:59:11","新北市瑞芳區大寮路356-1號","121.784605","25.1034116666667","6501200","瑞芳區"
"227001","400-TW","2017/07/03 15:39:56","新北市雙溪區牡丹里聖南15號","121.859985","25.05119","6502500","雙溪區"
"208004","AAC-292","2017/07/03 15:39:56","新北市金山區南勢24號","121.629121666667","25.21761","6502700","金山區"
"236064","105-UM","2017/07/03 15:39:53","新北市土城區中央路二段346巷11號","121.439651666667","24.9721483333333","6501300","土城區"
"236040","107-UM","2017/07/03 15:40:02","新北市土城區學成路16號","121.453155","24.98672","6501300","土城區"
"236074","166-UM","2017/07/03 15:39:44","新北市土城區福安街86號","121.417988333333","24.96421","6501300","土城區"
"236028","253-BX","2017/07/03 15:40:00","新北市土城區中央路一段120號","121.446351666667","24.988065","6501300","土城區"
"236024","269-VK","2017/07/03 15:39:48","新北市土城區明德路二段291號","121.444691666667","24.98418","6501300","土城區"
"236012","270-VK","2017/07/03 15:40:00","新北市土城區廣明街90巷20號","121.455528333333","24.9945166666667","6501300","土城區"
"236032","271-VK","2017/07/03 15:40:01","新北市土城區仁愛路48號","121.461813333333","24.9792516666667","6501300","土城區"
"236016","401-BY","2017/07/03 15:40:03","新北市土城區延吉街137巷2弄1號","121.470838333333","24.985895","6501300","土城區"
"236056","912-UM","2017/07/03 15:40:00","新北市土城區中央路一段269-3號","121.444821666667","24.9851383333333","6501300","土城區"
"236044","913-UM","2017/07/03 15:39:50","新北市土城區金城路三段188號","121.468261666667","24.9879883333333","6501300","土城區"
"236060","915-UM","2017/07/03 15:39:46","新北市土城區金城路三段73巷9弄7號","121.465963333333","24.9875033333333","6501300","土城區"
"236052","AAC-216","2017/07/03 15:39:40","新北市土城區延和路11號","121.46395","24.987995","6501300","土城區"
"238002","755-BX","2017/07/03 15:39:57","新北市樹林區日新街83號","121.421715","24.9903683333333","6500700","樹林區"
"238010","601-UM","2017/07/03 15:39:48","新北市樹林區三福街28號","121.40841","25.01664","6500700","樹林區"
"238019","599-UM","2017/07/03 15:40:02","新北市樹林區太平路96號","121.418668333333","24.9794083333333","6500700","樹林區"
"238005","571-TV","2017/07/03 15:39:50","新北市樹林區中華路211號","121.419691666667","24.9813866666667","6500700","樹林區"
"238011","5061-A6","2017/07/03 15:39:45","新北市樹林區八德街216-3號","121.416833333333","24.9728966666667","6500700","樹林區"
"238009","312-TH","2017/07/03 15:39:50","新北市樹林區和平街2巷20號","121.421131666667","24.98096","6500700","樹林區"
"238008","311-TH","2017/07/03 15:26:07","新北市樹林區西圳街165巷20弄26號","121.395525","24.9601283333333","6500700","樹林區"
"238012","303-VK","2017/07/03 15:39:45","新北市樹林區中山路二段64號","121.41599","24.9842683333333","6500700","樹林區"
"238004","283-BY","2017/07/03 15:39:43","新北市樹林區保安街二段325巷27號","121.411686666667","25.006105","6500700","樹林區"
"238001","282-BY","2017/07/03 15:39:54","新北市樹林區千歲街61巷40弄12號","121.426026666667","24.99901","6500700","樹林區"
"238007","268-VK","2017/07/03 15:39:52","新北市樹林區俊英街116巷1弄34號","121.427726666667","25.0058","6500700","樹林區"
"238013","172-UY","2017/07/03 15:39:52","新北市樹林區新興街19巷2弄26號","121.401473333333","24.9727533333333","6500700","樹林區"
"238003","169-UY","2017/07/03 15:39:44","新北市樹林區育英街25號","121.421648333333","24.9890883333333","6500700","樹林區"
"220027","145-BY","2017/07/03 15:39:54","新北市樹林區環河路600-1號","121.404651666667","24.9686383333333","6500100","板橋區"
"220050","245-BX","2017/07/03 15:39:55","新北市板橋區漢生東路83巷1號","121.466233333333","25.0158633333333","6500100","板橋區"
"220052","257-TC","2017/07/03 15:39:44","新北市板橋區漢生東路53巷28號","121.466713333333","25.0173666666667","6500100","板橋區"
"220001","285-VK","2017/07/03 15:39:43","新北市林口區太平里180號","121.366406666667","25.134565","6500100","板橋區"
"220031","286-VK","2017/07/03 15:39:49","新北市板橋區僑中二街116巷41號","121.443996666667","25.0066116666667","6500100","板橋區"
"220038","487-VK","2017/07/03 15:39:50","新北市板橋區四維路272號","121.463206666667","25.02858","6500100","板橋區"
"220014","829-TW","2017/07/03 15:39:39","新北市林口區太平里180號","121.368328333333","25.1343783333333","6500100","板橋區"
"220018","AAC-253","2017/07/03 15:39:57","新北市板橋區四川路二段245巷36號","121.451611666667","24.9926833333333","6500100","板橋區"
