"lineid","car","time","location","longitude","latitude","cityid","cityname"
"234078","298-R6","2017/07/03 15:49:21","新北市八里區荖阡坑路34號","121.402198333333","25.1287866666667","6500400","永和區"
"243009","297-R6","2017/07/03 15:49:15","新北市泰山區黎明路25號","121.421908333333","25.060885","6501600","泰山區"
"231029","106-UY","2017/07/03 15:49:43","新北市新店區薏仁坑路自強巷1號","121.49743","24.9576133333333","6500600","新店區"
"231018","107-UY","2017/07/03 15:49:53","新北市新店區中正路663巷1弄15號","121.53279","24.9897966666667","6500600","新店區"
"231011","108-UY","2017/07/03 15:49:57","新北市新店區文化路22-1號","121.543605","24.9796733333333","6500600","新店區"
"231026","256-BX","2017/07/03 15:49:57","新北市新店區中正路472號","121.533818333333","24.980835","6500600","新店區"
"231046","278-BY","2017/07/03 15:49:53","新北市新店區安華路28-1號","121.519686666667","24.9615166666667","6500600","新店區"
"231014","AAD-862","2017/07/03 15:49:46","新北市新店區中華路117巷6弄1號","121.537755","24.968635","6500600","新店區"
"231038","4715-K9","2017/07/03 15:49:39","新北市新店區安民街2號","121.515301666667","24.9637183333333","6500600","新店區"
"231035","515-UM","2017/07/03 15:49:53","新北市新店區安民街379巷26號","121.515323333333","24.97638","6500600","新店區"
"231003","616-UM","2017/07/03 15:49:50","新北市新店區寶興路60巷4號","121.549851666667","24.971835","6500600","新店區"
"231030","618-UM","2017/07/03 15:49:55","新北市新店區永安街2號","121.516733333333","24.9859633333333","6500600","新店區"
"231034","645-TV","2017/07/03 15:49:53","新北市新店區玫瑰路57巷40號","121.497061666667","24.94632","6500600","新店區"
"231039","718-UY","2017/07/03 15:49:36","新北市新店區寶興路65巷23號","121.551828333333","24.97181","6500600","新店區"
"231013","719-UM","2017/07/03 15:49:58","新北市新店區永業路81巷5弄34號","121.531228333333","24.9499183333333","6500600","新店區"
"231037","AKT-0513","2017/07/03 15:50:01","新北市新店區安興路105號","121.51472","24.97785","6500600","新店區"
"241028","022-UY","2017/07/03 15:49:57","新北市三重區中正南路26號","121.49359","25.06029","6500200","三重區"
"241008","059-VK","2017/07/03 15:49:51","新北市三重區重新路四段121號","121.48495","25.051855","6500200","三重區"
"241015","062-VK","2017/07/03 15:49:48","新北市三重區重新路四段121號","121.485073333333","25.0519683333333","6500200","三重區"
"241017","063-VK","2017/07/03 15:49:51","新北市三重區大仁街11號","121.49164","25.0641633333333","6500200","三重區"
"241024","065-VK","2017/07/03 15:49:46","新北市三重區忠孝路三段99巷4號","121.480136666667","25.0640316666667","6500200","三重區"
"241026","066-VK","2017/07/03 15:49:51","新北市三重區文化南路46號","121.500423333333","25.05991","6500200","三重區"
"241003","091-VK","2017/07/03 15:49:51","新北市三重區成功路54號","121.488971666667","25.0507833333333","6500200","三重區"
"241025","156-TC","2017/07/03 15:49:57","新北市三重區忠孝路三段52號","121.480625","25.0656033333333","6500200","三重區"
"241005","262-UM","2017/07/03 15:49:57","新北市三重區環河南路261號","121.490321666667","25.0498783333333","6500200","三重區"
"241011","265-UM","2017/07/03 15:49:49","新北市三重區文化北路248號","121.497385","25.0698766666667","6500200","三重區"
"241016","266-UM","2017/07/03 15:49:44","新北市三重區重新路四段121號","121.485221666667","25.0520883333333","6500200","三重區"
"241022","267-UM","2017/07/03 15:49:48","新北市三重區重新路四段121號","121.484655","25.0524683333333","6500200","三重區"
"241013","270-UM","2017/07/03 15:49:58","新北市三重區六張街19號","121.495291666667","25.0706916666667","6500200","三重區"
"241007","398-BY","2017/07/03 15:49:48","新北市三重區重新路四段121號","121.485215","25.0519866666667","6500200","三重區"
"241020","413-TH","2017/07/03 15:49:48","新北市三重區忠孝路二段54號","121.485005","25.0703183333333","6500200","三重區"
"241019","478-VK","2017/07/03 15:49:57","新北市三重區自強路三段15-1號","121.486998333333","25.0721216666667","6500200","三重區"
"241014","543-UM","2017/07/03 15:49:53","新北市三重區重新路四段121號","121.485028333333","25.05202","6500200","三重區"
"241023","887-TS","2017/07/03 15:49:52","新北市三重區新北大道一段250號","121.479888333333","25.0613233333333","6500200","三重區"
"241012","941-UM","2017/07/03 15:50:02","新北市三重區自強路一段40號","121.497896666667","25.0671683333333","6500200","三重區"
"241029","942-UM","2017/07/03 15:49:47","新北市三重區正義南路183號","121.498966666667","25.0568516666667","6500200","三重區"
"241033","AAC-255","2017/07/03 15:49:49","新北市三重區光復路一段134號","121.472026666667","25.0523866666667","6500200","三重區"
"235033","4980-A6","2017/07/03 15:49:52","新北市中和區員山路381巷1弄2號","121.480886666667","25.002345","6500300","中和區"
"235024","647-TV","2017/07/03 14:29:02","新北市中和區員山路36巷16-3號","121.484998333333","24.9913666666667","6500300","中和區"
"235001","AAC-213","2017/07/03 15:49:59","新北市永和區民族街81巷62號","121.520393333333","24.9963183333333","6500300","中和區"
"235023","AAC-215","2017/07/03 15:49:42","新北市中和區員山路49-9號","121.480426666667","24.991365","6500300","中和區"
"247002","402-BY","2017/07/03 15:49:59","新北市八里區中山路三段363-1號","121.374153333333","25.1381883333333","6501400","蘆洲區"
"247006","053-VK","2017/07/03 15:42:14","新北市五股區中興路三段163號","121.449243333333","25.0807433333333","6501400","蘆洲區"
"224007","273-VK","2017/07/03 09:59:11","新北市瑞芳區大寮路356-1號","121.784605","25.1034116666667","6501200","瑞芳區"
"227008","642-TC","2017/07/03 15:49:50","新北市雙溪區牡丹里自強路18號","121.865278333333","25.0393283333333","6502500","雙溪區"
"227001","400-TW","2017/07/03 15:49:56","新北市雙溪區平林里外平林44號","121.852938333333","25.036295","6502500","雙溪區"
"236064","105-UM","2017/07/03 15:49:53","新北市土城區大安路37-1號","121.43279","24.9661216666667","6501300","土城區"
"236074","166-UM","2017/07/03 15:49:43","新北市土城區民族街60號","121.418295","24.9638016666667","6501300","土城區"
"236028","253-BX","2017/07/03 15:50:00","新北市土城區中央路一段45巷2弄1號","121.44847","24.9902366666667","6501300","土城區"
"236024","269-VK","2017/07/03 15:50:01","新北市土城區裕生路100巷9號","121.446086666667","24.9851066666667","6501300","土城區"
"236012","270-VK","2017/07/03 15:49:59","新北市土城區廣明街70號","121.455063333333","24.9937033333333","6501300","土城區"
"236032","271-VK","2017/07/03 15:49:50","新北市土城區清水路158號","121.45947","24.98148","6501300","土城區"
"236016","401-BY","2017/07/03 15:49:54","新北市土城區延吉街111巷12弄20號","121.471521666667","24.9854416666667","6501300","土城區"
"236056","912-UM","2017/07/03 15:50:00","新北市土城區中央路一段275號","121.444601666667","24.9847833333333","6501300","土城區"
"236044","913-UM","2017/07/03 15:49:50","新北市土城區金城路三段157號","121.468891666667","24.9883633333333","6501300","土城區"
"236052","AAC-216","2017/07/03 15:49:59","新北市土城區中央路一段45巷2弄1號","121.448643333333","24.9902083333333","6501300","土城區"
"238002","755-BX","2017/07/03 15:49:58","新北市樹林區啟智街40號","121.420541666667","24.992935","6500700","樹林區"
"238010","601-UM","2017/07/03 15:49:48","新北市樹林區三福街72號","121.404756666667","25.016385","6500700","樹林區"
"238019","599-UM","2017/07/03 15:49:46","新北市樹林區八德街225號","121.42163","24.979515","6500700","樹林區"
"238005","571-TV","2017/07/03 15:49:50","新北市樹林區中華路81號","121.422856666667","24.9829766666667","6500700","樹林區"
"238011","5061-A6","2017/07/03 15:49:41","新北市樹林區中山路二段235號","121.40225","24.9761066666667","6500700","樹林區"
"238009","312-TH","2017/07/03 15:49:50","新北市樹林區太順街62巷2號","121.417845","24.979375","6500700","樹林區"
"238008","311-TH","2017/07/03 15:26:07","新北市樹林區西圳街165巷20弄26號","121.395525","24.9601283333333","6500700","樹林區"
"238012","303-VK","2017/07/03 15:49:57","新北市樹林區中山路一段113號","121.422998333333","24.9905933333333","6500700","樹林區"
"238004","283-BY","2017/07/03 15:50:03","新北市樹林區保安街二段197巷8號","121.413906666667","25.0031066666667","6500700","樹林區"
"238001","282-BY","2017/07/03 15:49:54","新北市樹林區潭興街143巷11號","121.425395","24.9999766666667","6500700","樹林區"
"238007","268-VK","2017/07/03 15:49:52","新北市樹林區三俊街265號","121.422645","25.0142616666667","6500700","樹林區"
"238013","172-UY","2017/07/03 15:49:52","新北市樹林區中洲街20巷1弄27號","121.397993333333","24.971905","6500700","樹林區"
"238003","169-UY","2017/07/03 15:49:44","新北市樹林區復興路339號","121.417683333333","24.9876583333333","6500700","樹林區"
"220027","145-BY","2017/07/03 15:49:54","新北市板橋區大觀路二段431-1號","121.441011666667","24.992405","6500100","板橋區"
"220001","285-VK","2017/07/03 15:49:43","新北市林口區太平里180號","121.366621666667","25.134505","6500100","板橋區"
"220014","829-TW","2017/07/03 15:49:59","新北市八里區中華路三段19號","121.39674","25.143195","6500100","板橋區"
"220018","AAC-253","2017/07/03 15:49:57","新北市板橋區四川路二段140巷16弄23號","121.448378333333","24.99374","6500100","板橋區"
