"lineid","car","time","location","longitude","latitude","cityid","cityname"
"249001","173-UM","2017/07/03 16:50:00","新北市八里區挖子尾街6號","121.415453333333","25.1642216666667","6502300","八里區"
"249004","303-UY","2017/07/03 16:49:44","新北市八里區仁愛路10號","121.413141666667","25.1622533333333","6502300","八里區"
"249002","305-UY","2017/07/03 16:49:50","新北市八里區牛寮埔33號","121.42998","25.145595","6502300","八里區"
"249003","593-UM","2017/07/03 16:49:47","新北市八里區中路50-1號","121.404595","25.1557716666667","6502300","八里區"
"249005","759-BX","2017/07/03 16:49:47","新北市八里區大堀湖2-3號","121.42265","25.1537316666667","6502300","八里區"
"244019","403-UM","2017/07/03 16:46:11","新北市林口區粉寮69號","121.405111666667","25.0908016666667","6501700","林口區"
"243009","297-R6","2017/07/03 15:49:15","新北市泰山區黎明路25號","121.421908333333","25.060885","6501600","泰山區"
"231046","278-BY","2017/07/03 16:49:53","新北市新店區灣潭路15-7號","121.541828333333","24.940455","6500600","新店區"
"231035","515-UM","2017/07/03 16:37:38","新北市新店區安華路28-1號","121.519628333333","24.96102","6500600","新店區"
"241028","022-UY","2017/07/03 16:49:57","新北市三重區光興街89號","121.497451666667","25.060005","6500200","三重區"
"241008","059-VK","2017/07/03 16:49:51","新北市三重區永福街177巷15號","121.478156666667","25.0751983333333","6500200","三重區"
"241009","060-VK","2017/07/03 16:49:57","新北市三重區三和路四段203巷215號","121.486678333333","25.0807266666667","6500200","三重區"
"241031","061-VK","2017/07/03 16:49:57","新北市三重區新北大道一段15巷2號","121.487913333333","25.0606016666667","6500200","三重區"
"241015","062-VK","2017/07/03 16:49:48","新北市三重區文化北路43巷22號","121.499476666667","25.0655966666667","6500200","三重區"
"241017","063-VK","2017/07/03 16:49:51","新北市三重區大同北路56-1號","121.494213333333","25.0638516666667","6500200","三重區"
"241024","065-VK","2017/07/03 16:49:46","新北市三重區中正北路317巷38號","121.476328333333","25.0731566666667","6500200","三重區"
"241026","066-VK","2017/07/03 16:49:51","新北市三重區文化南路10巷14號","121.50069","25.0621566666667","6500200","三重區"
"241002","090-VK","2017/07/03 16:49:46","新北市三重區仁義街210號","121.496378333333","25.0823183333333","6500200","三重區"
"241003","091-VK","2017/07/03 16:49:51","新北市三重區五華街87巷11號","121.492525","25.08358","6500200","三重區"
"241025","156-TC","2017/07/03 16:49:57","新北市三重區中正北路530巷7號","121.471696666667","25.0711733333333","6500200","三重區"
"241005","262-UM","2017/07/03 16:49:57","新北市三重區仁華街80巷24號","121.48429","25.0838033333333","6500200","三重區"
"241011","265-UM","2017/07/03 16:49:49","新北市三重區仁愛街53巷135號","121.499391666667","25.0726016666667","6500200","三重區"
"241016","266-UM","2017/07/03 16:49:44","新北市三重區大同北路68號","121.49424","25.0640233333333","6500200","三重區"
"241022","267-UM","2017/07/03 16:49:48","新北市三重區貴陽街75號","121.48447","25.063495","6500200","三重區"
"241018","268-UM","2017/07/03 16:49:49","新北市三重區安慶街149巷11號","121.494445","25.06924","6500200","三重區"
"241032","269-UM","2017/07/03 16:49:55","新北市三重區重陽路一段120巷35號","121.485068333333","25.0602316666667","6500200","三重區"
"241013","270-UM","2017/07/03 16:49:57","新北市三重區仁愛街75號","121.496231666667","25.0729966666667","6500200","三重區"
"241007","398-BY","2017/07/03 16:49:48","新北市三重區仁愛街634號","121.483145","25.0806683333333","6500200","三重區"
"241020","413-TH","2017/07/03 16:49:48","新北市三重區忠孝路二段34號","121.485941666667","25.0710133333333","6500200","三重區"
"241004","475-VK","2017/07/03 16:49:42","新北市三重區仁愛街420號","121.490338333333","25.081345","6500200","三重區"
"241019","478-VK","2017/07/03 16:49:57","新北市三重區力行路一段179巷17弄2號","121.485311666667","25.0699183333333","6500200","三重區"
"241030","480-VK","2017/07/03 16:49:42","新北市三重區中正南路267號","121.492753333333","25.0526733333333","6500200","三重區"
"241014","543-UM","2017/07/03 16:49:53","新北市三重區長榮路75號","121.502626666667","25.0690416666667","6500200","三重區"
"241001","547-UM","2017/07/03 16:50:00","新北市三重區仁政街69號","121.492781666667","25.0774483333333","6500200","三重區"
"241006","AAD-863","2017/07/03 16:49:46","新北市三重區力行路二段182-3號","121.483386666667","25.077455","6500200","三重區"
"241023","887-TS","2017/07/03 16:49:52","新北市三重區新北大道一段206巷9號","121.482408333333","25.0622666666667","6500200","三重區"
"241012","941-UM","2017/07/03 16:49:47","新北市三重區仁興街11巷11號","121.500216666667","25.0741833333333","6500200","三重區"
"241029","942-UM","2017/07/03 16:49:47","新北市三重區集美街175號","121.491368333333","25.05409","6500200","三重區"
"241033","AAC-255","2017/07/03 16:49:49","新北市三重區新北大道二段137號","121.465935","25.0612166666667","6500200","三重區"
"235026","031-BX","2017/07/03 16:49:50","新北市中和區建八路139巷1號","121.490168333333","24.9989483333333","6500300","中和區"
"235024","647-TV","2017/07/03 16:49:48","新北市中和區員山路36巷16-3號","121.485136666667","24.9913916666667","6500300","中和區"
"247008","339-TH","2017/07/03 16:49:56","新北市蘆洲區中山一路176號","121.474196666667","25.081115","6501400","蘆洲區"
"247024","337-TH","2017/07/03 16:49:42","新北市蘆洲區長興路255號","121.460491666667","25.087515","6501400","蘆洲區"
"247002","336-TH","2017/07/03 16:49:51","新北市五股區凌雲路一段46號","121.451835","25.10076","6501400","蘆洲區"
"247014","057-VK","2017/07/03 16:50:01","新北市蘆洲區三民路89號","121.474268333333","25.084605","6501400","蘆洲區"
"247004","056-VK","2017/07/03 16:49:58","新北市蘆洲區長榮路106號","121.46179","25.0840466666667","6501400","蘆洲區"
"247006","053-VK","2017/07/03 16:49:20","新北市蘆洲區永安南路二段132-1號","121.46258","25.0784683333333","6501400","蘆洲區"
"247016","001-UY","2017/07/03 16:49:45","新北市蘆洲區正和街3號","121.47042","25.082765","6501400","蘆洲區"
"228003","097-TW","2017/07/03 16:49:45","新北市貢寮區貢寮里朝陽街1-2號","121.912341666667","25.0212916666667","6502600","貢寮區"
"228002","585-TW","2017/07/03 16:49:43","新北市貢寮區貢寮里朝陽街142號","121.905753333333","25.02315","6502600","貢寮區"
"228001","670-TC","2017/07/03 16:49:53","新北市貢寮區貢寮里朝陽街1-2號","121.912266666667","25.02122","6502600","貢寮區"
"224006","676-BX","2017/07/03 16:49:50","新北市瑞芳區大寮路356-1號","121.784746666667","25.1032016666667","6501200","瑞芳區"
"224009","285-BY","2017/07/03 16:49:48","新北市瑞芳區傑魚坑路29號","121.79386","25.1105283333333","6501200","瑞芳區"
"224008","275-VK","2017/07/03 16:49:46","新北市瑞芳區逢甲路17號","121.809385","25.1084033333333","6501200","瑞芳區"
"224007","273-VK","2017/07/03 16:49:53","新北市瑞芳區中央路48巷162號","121.759356666667","25.1035616666667","6501200","瑞芳區"
"224005","271-BY","2017/07/03 16:49:49","新北市瑞芳區洞頂路116號","121.861356666667","25.123","6501200","瑞芳區"
"227008","642-TC","2017/07/03 16:49:50","新北市雙溪區牡丹里石1號","121.864533333333","25.0525833333333","6502500","雙溪區"
"227001","400-TW","2017/07/03 16:49:56","新北市雙溪區外柑里外柑腳94號","121.806585","25.0179933333333","6502500","雙溪區"
"251007","179-VK","2017/07/03 16:49:57","新北市淡水區中正路二段31號","121.419291666667","25.1816833333333","6501000","淡水區"
"251008","181-VK","2017/07/03 16:50:00","新北市淡水區樹梅坑9號","121.472755","25.1427033333333","6501000","淡水區"
"251013","182-VK","2017/07/03 16:49:53","新北市淡水區楓樹湖1-1號","121.495093333333","25.189655","6501000","淡水區"
"251012","441-VK","2017/07/03 16:49:42","新北市淡水區中正路二段31號","121.419698333333","25.1814883333333","6501000","淡水區"
"251015","442-VK","2017/07/03 16:49:56","新北市淡水區忠愛街5-2號","121.460623333333","25.17164","6501000","淡水區"
"251011","650-BX","2017/07/03 16:50:01","新北市淡水區中正路二段31號","121.419291666667","25.1816216666667","6501000","淡水區"
"252002","178-VK","2017/07/03 16:49:54","新北市三芝區埔坪里埔頭坑77號","121.509408333333","25.25439","6502100","三芝區"
"252001","702-TV","2017/07/03 16:49:43","新北市三芝區埔坪里埔頭坑51號","121.507493333333","25.2656616666667","6502100","三芝區"
"242021","AAC-296","2017/07/03 16:49:24","新北市新莊區新泰路357巷1弄57號","121.442485","25.0394866666667","6500500","新莊區"
"242031","415-TV","2017/07/03 16:49:40","新北市新莊區新泰路357巷3弄57號","121.44214","25.0395216666667","6500500","新莊區"
"242034","133-UY","2017/07/03 16:49:42","新北市新莊區三和路12-21號","121.442068333333","25.0386916666667","6500500","新莊區"
"242017","348-TH","2017/07/03 10:46:09","新北市新莊區新泰路357巷3弄57號","121.441755","25.0396283333333","6500500","新莊區"
"238010","601-UM","2017/07/03 16:49:48","新北市樹林區大安路576號","121.41178","24.9837116666667","6500700","樹林區"
"238004","283-BY","2017/07/03 16:49:43","新北市樹林區光武街7-3號","121.415745","25.0053266666667","6500700","樹林區"
"238001","282-BY","2017/07/03 16:48:34","新北市樹林區中正路21號","121.427631666667","24.9993216666667","6500700","樹林區"
"239007","AAC-297","2017/07/03 16:49:51","新北市鶯歌區環河路177-19號","121.345728333333","24.9357666666667","6500800","鶯歌區"
"239008","527-UM","2017/07/03 16:49:52","新北市鶯歌區環河路177-1號","121.346041666667","24.935695","6500800","鶯歌區"
"239005","526-UM","2017/07/03 16:49:41","新北市鶯歌區二甲路13-16號","121.345283333333","24.9353016666667","6500800","鶯歌區"
"239003","360-BY","2017/07/03 16:49:54","新北市鶯歌區二甲路13-16號","121.345488333333","24.9351483333333","6500800","鶯歌區"
"239002","359-BY","2017/07/01 20:35:17","新北市鶯歌區二甲路171-1號","121.343788333333","24.935685","6500800","鶯歌區"
"220018","AAC-253","2017/07/03 16:49:57","新北市板橋區縣民大道二段101號","121.466643333333","25.0152683333333","6500100","板橋區"
