"lineid","car","time","location","longitude","latitude","cityid","cityname"
"249001","173-UM","2017/07/03 17:10:00","新北市八里區中華路二段249-1號","121.403953333333","25.14838","6502300","八里區"
"249004","303-UY","2017/07/03 17:09:44","新北市八里區忠孝路298號","121.418305","25.1613433333333","6502300","八里區"
"249002","305-UY","2017/07/03 17:09:50","新北市八里區米倉13-2號","121.438645","25.14958","6502300","八里區"
"249003","593-UM","2017/07/03 17:09:47","新北市八里區中山路二段369號","121.398706666667","25.14701","6502300","八里區"
"249005","759-BX","2017/07/03 17:09:47","新北市八里區大堀湖28號","121.41977","25.1455466666667","6502300","八里區"
"244007","080-UY","2017/07/03 17:09:46","新北市林口區菁埔25-8號","121.37709","25.0965366666667","6501700","林口區"
"244019","403-UM","2017/07/03 17:09:51","新北市林口區東湖路159號","121.382261666667","25.074325","6501700","林口區"
"244009","410-SL","2017/07/03 17:09:45","新北市林口區竹林路326巷50號","121.392253333333","25.0814083333333","6501700","林口區"
"244023","483-VK","2017/07/03 17:09:40","新北市林口區粉寮路一段88號","121.398271666667","25.080515","6501700","林口區"
"244017","485-VK","2017/07/03 17:09:45","新北市林口區粉寮69號","121.405015","25.0909066666667","6501700","林口區"
"244021","657-BX","2017/07/03 17:09:45","新北市林口區粉寮一街17巷5-1號","121.404856666667","25.085505","6501700","林口區"
"244025","837-TS","2017/07/03 17:09:50","新北市林口區粉寮路二段96號","121.404498333333","25.0890666666667","6501700","林口區"
"243009","297-R6","2017/07/03 15:49:15","新北市泰山區黎明路25號","121.421908333333","25.060885","6501600","泰山區"
"231046","278-BY","2017/07/03 17:09:53","新北市新店區直潭路97號","121.531923333333","24.9400816666667","6500600","新店區"
"231035","515-UM","2017/07/03 16:37:38","新北市新店區安華路28-1號","121.519628333333","24.96102","6500600","新店區"
"241028","022-UY","2017/07/03 17:09:57","新北市三重區重新路三段110號","121.492281666667","25.0603416666667","6500200","三重區"
"241008","059-VK","2017/07/03 17:09:51","新北市三重區力行路二段136巷25號","121.481305","25.07551","6500200","三重區"
"241009","060-VK","2017/07/03 17:09:57","新北市三重區三和路四段215巷40號","121.483123333333","25.080205","6500200","三重區"
"241031","061-VK","2017/07/03 17:09:57","新北市三重區重陽路一段113巷1弄1號","121.48744","25.059775","6500200","三重區"
"241015","062-VK","2017/07/03 17:09:48","新北市三重區長生街22號","121.499418333333","25.0664066666667","6500200","三重區"
"241017","063-VK","2017/07/03 17:09:51","新北市三重區新北大道一段7號","121.48972","25.0614516666667","6500200","三重區"
"241024","065-VK","2017/07/03 17:09:57","新北市三重區後竹圍街295號","121.478831666667","25.0697483333333","6500200","三重區"
"241026","066-VK","2017/07/03 17:09:51","新北市三重區正義南路1號","121.49792","25.062105","6500200","三重區"
"241002","090-VK","2017/07/03 17:09:46","新北市三重區仁義街225巷18號","121.497138333333","25.0825216666667","6500200","三重區"
"241003","091-VK","2017/07/03 17:09:51","新北市三重區進安街198號","121.493945","25.0861116666667","6500200","三重區"
"241025","156-TC","2017/07/03 17:09:56","新北市三重區中正北路560巷53號","121.470876666667","25.06984","6500200","三重區"
"241005","262-UM","2017/07/03 17:09:57","新北市三重區仁愛街705號","121.482656666667","25.080725","6500200","三重區"
"241011","265-UM","2017/07/03 17:09:50","新北市三重區龍門路200號","121.499701666667","25.0734633333333","6500200","三重區"
"241016","266-UM","2017/07/03 17:09:44","新北市三重區大同北路131-1號","121.493216666667","25.0640533333333","6500200","三重區"
"241022","267-UM","2017/07/03 17:09:54","新北市三重區三民街92號","121.48536","25.0632083333333","6500200","三重區"
"241018","268-UM","2017/07/03 17:09:49","新北市三重區六張街101號","121.49222","25.0697833333333","6500200","三重區"
"241032","269-UM","2017/07/03 17:09:55","新北市三重區興華街30號","121.485521666667","25.05958","6500200","三重區"
"241013","270-UM","2017/07/03 17:09:57","新北市三重區仁和街75號","121.497643333333","25.0739066666667","6500200","三重區"
"241007","398-BY","2017/07/03 17:09:48","新北市三重區三和路四段163巷32號","121.48525","25.0792883333333","6500200","三重區"
"241020","413-TH","2017/07/03 17:09:48","新北市三重區自強路三段18號","121.486683333333","25.0721733333333","6500200","三重區"
"241004","475-VK","2017/07/03 17:09:53","新北市三重區五華街98巷10號","121.491705","25.0818183333333","6500200","三重區"
"241019","478-VK","2017/07/03 17:09:57","新北市三重區三張街141號","121.487168333333","25.0698383333333","6500200","三重區"
"241030","480-VK","2017/07/03 17:10:00","新北市三重區成功路86號","121.488181666667","25.051285","6500200","三重區"
"241014","543-UM","2017/07/03 17:09:53","新北市三重區龍濱路120-6號","121.501778333333","25.0712983333333","6500200","三重區"
"241001","547-UM","2017/07/03 17:10:00","新北市三重區仁愛街247號","121.493551666667","25.078075","6500200","三重區"
"241006","AAD-863","2017/07/03 17:09:46","新北市三重區三和路四段274巷18號","121.484801666667","25.0769033333333","6500200","三重區"
"241023","887-TS","2017/07/03 17:09:52","新北市三重區忠孝路三段84巷1號","121.480245","25.0644583333333","6500200","三重區"
"241012","941-UM","2017/07/03 17:10:02","新北市三重區仁興街19號","121.499836666667","25.0744033333333","6500200","三重區"
"241029","942-UM","2017/07/03 17:09:52","新北市三重區重安街34號","121.490713333333","25.057725","6500200","三重區"
"241033","AAC-255","2017/07/03 17:09:49","新北市三重區中興北街275號","121.469098333333","25.06076","6500200","三重區"
"235026","031-BX","2017/07/03 17:09:50","新北市中和區員山路36巷13號","121.484221666667","24.9910566666667","6500300","中和區"
"235024","647-TV","2017/07/03 16:50:42","新北市中和區員山路36巷16-3號","121.485133333333","24.9913866666667","6500300","中和區"
"247020","893-R6","2017/07/03 17:09:43","新北市蘆洲區仁愛街70巷20號","121.471358333333","25.0941716666667","6501400","蘆洲區"
"247010","546-UM","2017/07/03 17:09:43","新北市蘆洲區民族路16號","121.475983333333","25.0840466666667","6501400","蘆洲區"
"247018","500-BY","2017/07/03 17:09:56","新北市蘆洲區復興路87巷6號","121.476521666667","25.08769","6501400","蘆洲區"
"247008","339-TH","2017/07/03 17:09:56","新北市蘆洲區信義路30巷30號","121.474448333333","25.07853","6501400","蘆洲區"
"247024","337-TH","2017/07/03 17:10:02","新北市蘆洲區長興路35號","121.463343333333","25.0835983333333","6501400","蘆洲區"
"247002","336-TH","2017/07/03 17:09:51","新北市蘆洲區永樂街36號","121.458126666667","25.0883833333333","6501400","蘆洲區"
"247014","057-VK","2017/07/03 17:09:41","新北市蘆洲區得勝街50號","121.473163333333","25.0837116666667","6501400","蘆洲區"
"247004","056-VK","2017/07/03 17:09:58","新北市蘆洲區長安街193巷38弄10號","121.458971666667","25.0814066666667","6501400","蘆洲區"
"247006","053-VK","2017/07/03 17:09:20","新北市蘆洲區長安街102巷18號","121.462615","25.0818516666667","6501400","蘆洲區"
"247012","007-UY","2017/07/03 17:09:49","新北市蘆洲區信義路268號","121.478198333333","25.0869333333333","6501400","蘆洲區"
"247022","002-UY","2017/07/03 17:09:40","新北市蘆洲區水湳街91號","121.470326666667","25.0901583333333","6501400","蘆洲區"
"247016","001-UY","2017/07/03 17:09:44","新北市蘆洲區正和街96巷29號","121.467431666667","25.0813933333333","6501400","蘆洲區"
"228003","097-TW","2017/07/03 17:09:45","新北市貢寮區福隆里東興街31-1號","121.952535","25.0206066666667","6502600","貢寮區"
"228002","585-TW","2017/07/03 17:09:43","新北市貢寮區龍崗里泮宮路51-1號","121.907813333333","25.016655","6502600","貢寮區"
"228001","670-TC","2017/07/03 17:09:53","新北市貢寮區仁理村尖山腳街20號","121.924216666667","25.0478566666667","6502600","貢寮區"
"224010","AGQ-8101","2017/07/03 13:50:28","新北市瑞芳區逢甲路17號","121.809515","25.10853","6501200","瑞芳區"
"224006","676-BX","2017/07/03 17:09:50","新北市瑞芳區大寮路114-1號","121.78009","25.0980483333333","6501200","瑞芳區"
"224009","285-BY","2017/07/03 17:09:48","新北市瑞芳區輕便路136號","121.843088333333","25.114145","6501200","瑞芳區"
"224008","275-VK","2017/07/03 17:09:46","新北市瑞芳區柴寮路70號","121.827481666667","25.08703","6501200","瑞芳區"
"224007","273-VK","2017/07/03 17:09:53","新北市瑞芳區粗坑口路43號","121.75985","25.0992533333333","6501200","瑞芳區"
"224005","271-BY","2017/07/03 17:09:55","新北市瑞芳區鼻頭路227-3號","121.914218333333","25.1240816666667","6501200","瑞芳區"
"227008","642-TC","2017/07/03 17:09:50","新北市雙溪區三貂里子崙坑1-6號","121.849901666667","25.0574583333333","6502500","雙溪區"
"227001","400-TW","2017/07/03 17:09:56","新北市雙溪區外柑里外柑腳37號","121.80913","25.0182033333333","6502500","雙溪區"
"251009","008-UM","2017/07/03 17:06:05","新北市淡水區中正路318-1號","121.436808333333","25.1726483333333","6501000","淡水區"
"251004","009-UM","2017/07/03 17:09:56","新北市淡水區中正東路17號","121.445415","25.168545","6501000","淡水區"
"251007","179-VK","2017/07/03 17:09:57","新北市淡水區民權路22號","121.459933333333","25.1377333333333","6501000","淡水區"
"251005","180-VK","2017/07/03 17:10:01","新北市淡水區學府路9號","121.447471666667","25.16816","6501000","淡水區"
"251008","181-VK","2017/07/03 17:10:00","新北市淡水區樹梅坑14號","121.470696666667","25.1427516666667","6501000","淡水區"
"251013","182-VK","2017/07/03 17:09:53","新北市淡水區桂花樹1號","121.482906666667","25.196715","6501000","淡水區"
"251010","413-VK","2017/07/03 17:09:49","新北市淡水區中正路二段31號","121.419515","25.1814983333333","6501000","淡水區"
"251012","441-VK","2017/07/03 17:09:42","新北市淡水區新民街276號","121.43565","25.18135","6501000","淡水區"
"251015","442-VK","2017/07/03 17:09:56","新北市淡水區樹林口168號","121.47443","25.1680533333333","6501000","淡水區"
"251006","561-UM","2017/07/03 17:09:54","新北市淡水區中正路二段16號","121.420328333333","25.180845","6501000","淡水區"
"251011","650-BX","2017/07/03 17:10:01","新北市淡水區坪頂路51巷2號","121.458028333333","25.162585","6501000","淡水區"
"251002","672-BX","2017/07/03 17:09:56","新北市淡水區中正路二段31號","121.41942","25.1817233333333","6501000","淡水區"
"252002","178-VK","2017/07/03 17:09:54","新北市三芝區忠孝街12號","121.505843333333","25.254955","6502100","三芝區"
"252001","702-TV","2017/07/03 17:09:43","新北市三芝區埔頭里埔頭49號","121.501181666667","25.26165","6502100","三芝區"
"242021","AAC-296","2017/07/03 17:09:44","新北市新莊區新泰路357巷3弄57號","121.441981666667","25.0394416666667","6500500","新莊區"
"242023","613-BX","2017/07/03 17:09:54","新北市新莊區新泰路357巷3弄57號","121.442231666667","25.0392116666667","6500500","新莊區"
"242027","612-BX","2017/07/03 17:09:59","新北市新莊區新泰路357巷3弄57號","121.442085","25.03912","6500500","新莊區"
"242036","566-BX","2017/07/03 17:09:43","新北市新莊區三和路12-21號","121.442133333333","25.038605","6500500","新莊區"
"242042","497-BY","2017/07/03 17:09:53","新北市新莊區新泰路357巷3弄57號","121.442243333333","25.03948","6500500","新莊區"
"242046","441-UM","2017/07/03 17:09:44","新北市新莊區三和路12-21號","121.442001666667","25.0383466666667","6500500","新莊區"
"242050","440-UM","2017/07/03 17:09:51","新北市泰山區磚雅厝3號","121.44235","25.041755","6500500","新莊區"
"242031","415-TV","2017/07/03 17:09:40","新北市新莊區新泰路357巷3弄57號","121.442128333333","25.03931","6500500","新莊區"
"242002","413-TV","2017/07/03 17:09:45","新北市新莊區新泰路357巷3弄57號","121.442158333333","25.0394733333333","6500500","新莊區"
"242039","400-BY","2017/07/03 17:09:58","新北市新莊區新泰路357巷3弄57號","121.441925","25.0394483333333","6500500","新莊區"
"242060","362-BY","2017/07/03 17:09:44","新北市新莊區新泰路255巷83號","121.442278333333","25.0387683333333","6500500","新莊區"
"242058","353-BY","2017/07/03 17:09:57","新北市新莊區新泰路255巷83號","121.442288333333","25.0389183333333","6500500","新莊區"
"242011","132-UY","2017/07/03 17:09:45","新北市新莊區三和路12-21號","121.442143333333","25.0383166666667","6500500","新莊區"
"242034","133-UY","2017/07/03 17:09:42","新北市新莊區新泰路357巷3弄15號","121.442325","25.04091","6500500","新莊區"
"242019","135-UY","2017/07/03 17:09:44","新北市新莊區三和路12-21號","121.441973333333","25.0388066666667","6500500","新莊區"
"242044","172-VK","2017/07/03 17:09:44","新北市新莊區新泰路357巷3弄1號","121.442416666667","25.0417516666667","6500500","新莊區"
"242007","173-VK","2017/07/03 16:53:52","新北市新莊區三和路12-21號","121.441781666667","25.038665","6500500","新莊區"
"242013","175-VK","2017/07/03 17:09:51","新北市新莊區三和路12-21號","121.441973333333","25.038635","6500500","新莊區"
"242004","346-TH","2017/07/03 17:09:47","新北市新莊區三和路12-17號","121.442103333333","25.0375466666667","6500500","新莊區"
"242048","347-TH","2017/07/03 17:09:51","新北市新莊區中正路384-1號","121.442098333333","25.0355566666667","6500500","新莊區"
"242017","348-TH","2017/07/03 17:09:43","新北市新莊區新泰路357巷3弄55號","121.441851666667","25.03977","6500500","新莊區"
"242053","349-TH","2017/07/03 17:09:53","新北市新莊區三和路12-17號","121.442025","25.0374966666667","6500500","新莊區"
"242015","350-TH","2017/07/03 17:09:59","新北市新莊區新泰路255巷83號","121.442178333333","25.03894","6500500","新莊區"
"242009","351-TH","2017/07/03 10:24:48","新北市新莊區新泰路357巷3弄57號","121.441958333333","25.0393266666667","6500500","新莊區"
"238010","601-UM","2017/07/03 17:09:48","新北市樹林區中山路三段125-2號","121.396963333333","24.973425","6500700","樹林區"
"238019","599-UM","2017/07/03 17:09:44","新北市樹林區育德街78-1號","121.387281666667","24.9680733333333","6500700","樹林區"
"238018","571-TV","2017/07/03 17:09:50","新北市樹林區水源街58號","121.425778333333","24.9810016666667","6500700","樹林區"
"238024","5061-A6","2017/07/03 17:10:00","新北市樹林區鎮前街77-21號","121.424855","24.9902216666667","6500700","樹林區"
"238009","312-TH","2017/07/03 17:09:50","新北市樹林區八德街263-1號","121.419291666667","24.973735","6500700","樹林區"
"238017","283-BY","2017/07/03 17:09:43","新北市樹林區光武街7-3號","121.415701666667","25.0053233333333","6500700","樹林區"
"238001","282-BY","2017/07/03 17:09:54","新北市樹林區中正路21號","121.427608333333","24.9993283333333","6500700","樹林區"
"238020","268-VK","2017/07/03 17:09:52","新北市樹林區中正路22-1號","121.427821666667","24.9993816666667","6500700","樹林區"
"238016","169-UY","2017/07/03 17:09:44","新北市樹林區中山路二段34號","121.417351666667","24.98487","6500700","樹林區"
"239007","AAC-297","2017/07/03 17:09:51","新北市鶯歌區信義街36號","121.353206666667","24.9555433333333","6500800","鶯歌區"
"239006","891-R6","2017/07/03 17:09:54","新北市鶯歌區八德路2巷18弄2號","121.336685","24.94699","6500800","鶯歌區"
"239008","527-UM","2017/07/03 17:09:52","新北市鶯歌區文化路134號","121.352051666667","24.951405","6500800","鶯歌區"
"239005","526-UM","2017/07/03 17:09:41","新北市鶯歌區鶯桃路308號","121.334065","24.9616783333333","6500800","鶯歌區"
"239001","417-VK","2017/07/03 17:10:00","新北市鶯歌區尖山路86巷17號","121.347255","24.9496116666667","6500800","鶯歌區"
"239003","360-BY","2017/07/03 17:09:54","新北市鶯歌區八德路50號","121.33017","24.95597","6500800","鶯歌區"
"239002","359-BY","2017/07/03 17:09:49","新北市鶯歌區育英街45巷23號","121.347663333333","24.9538983333333","6500800","鶯歌區"
"239004","193-VK","2017/07/03 17:09:43","新北市鶯歌區文化路324巷1-10號","121.351348333333","24.9451533333333","6500800","鶯歌區"
