"lineid","car","time","location","longitude","latitude","cityid","cityname"
"234026","9372-KE","2017/07/03 18:09:54","新北市永和區秀朗路一段10巷19號","121.513466666667","25.0061216666667","6500400","永和區"
"234011","9373-KE","2017/07/03 17:46:26","新北市永和區福和路1號","121.525618333333","25.0093616666667","6500400","永和區"
"249001","173-UM","2017/07/03 18:10:00","新北市八里區龍米路二段30號","121.448701666667","25.1399916666667","6502300","八里區"
"249004","303-UY","2017/07/03 18:09:57","新北市八里區龍米路二段200巷3號","121.433668333333","25.1587183333333","6502300","八里區"
"249002","305-UY","2017/07/03 18:09:50","新北市八里區龍米路一段356巷20號","121.452191666667","25.1307716666667","6502300","八里區"
"249003","593-UM","2017/07/03 18:09:47","新北市八里區中華路二段165巷21號","121.408755","25.1503966666667","6502300","八里區"
"249005","759-BX","2017/07/03 18:09:47","新北市八里區荖阡坑路15號","121.401678333333","25.1398933333333","6502300","八里區"
"248014","025-BX","2017/07/03 18:09:47","新北市五股區成泰路一段235-2號","121.436295","25.0796","6501500","五股區"
"248006","077-UY","2017/07/03 18:09:55","新北市五股區中興路二段70號","121.46122","25.0770066666667","6501500","五股區"
"248008","095-VK","2017/07/03 18:09:43","新北市蘆洲區永安南路二段294號","121.457255","25.0818","6501500","五股區"
"248018","225-UY","2017/07/03 18:09:49","新北市五股區新五路三段28號","121.444023333333","25.0874216666667","6501500","五股區"
"248012","247-BX","2017/07/03 15:17:09","新北市五股區中興路二段103巷16號","121.458876666667","25.075655","6501500","五股區"
"248016","261-SL","2017/07/03 18:09:47","新北市五股區新五路三段2號","121.444386666667","25.0879866666667","6501500","五股區"
"248010","272-BY","2017/07/03 18:09:50","新北市五股區成泰路一段189巷24-5號","121.433486666667","25.0775666666667","6501500","五股區"
"248004","677-BX","2017/07/03 18:10:02","新北市五股區中興路四段40-3號","121.43869","25.0827916666667","6501500","五股區"
"248002","678-BX","2017/07/03 18:09:52","新北市五股區新五路二段550號","121.442685","25.0852283333333","6501500","五股區"
"232011","375-UM","2017/07/03 18:09:54","新北市坪林區北宜路八段176號","121.707566666667","24.9345283333333","6502000","坪林區"
"244013","069-UM","2017/07/03 18:09:53","新北市林口區中山路5號","121.396525","25.0780683333333","6501700","林口區"
"244007","080-UY","2017/07/03 18:09:45","新北市林口區林口路124巷10弄5號","121.389125","25.0816683333333","6501700","林口區"
"244019","403-UM","2017/07/03 18:09:51","新北市林口區忠孝路542巷10弄3號","121.372368333333","25.0669133333333","6501700","林口區"
"244009","410-SL","2017/07/03 18:09:45","新北市林口區佳林路56巷33號","121.385251666667","25.08097","6501700","林口區"
"244023","483-VK","2017/07/03 18:10:00","新北市林口區隆林街232號","121.38393","25.0744133333333","6501700","林口區"
"244017","485-VK","2017/07/03 18:09:45","新北市林口區忠孝路504巷21號","121.369648333333","25.069635","6501700","林口區"
"244021","657-BX","2017/07/03 18:09:45","新北市林口區自強九街8號","121.400875","25.07609","6501700","林口區"
"244011","701-TV","2017/07/03 18:09:44","新北市林口區粉寮路一段51號","121.396725","25.077755","6501700","林口區"
"244025","837-TS","2017/07/03 18:09:50","新北市林口區文化北路一段299巷16號","121.359695","25.073205","6501700","林口區"
"243013","AAD-798","2017/07/03 18:09:50","新北市泰山區犁頭窠18號","121.42142","25.0519633333333","6501600","泰山區"
"243009","297-R6","2017/07/03 15:49:15","新北市泰山區黎明路25號","121.421908333333","25.060885","6501600","泰山區"
"222003","436-BY","2017/07/03 18:09:56","新北市深坑區阿柔洋47號","121.611803333333","24.9972483333333","6501800","深坑區"
"222002","659-BX","2017/07/03 18:09:41","新北市深坑區文化街52號","121.618956666667","25.00159","6501800","深坑區"
"222001","696-SL","2017/07/03 18:09:57","新北市深坑區北深路二段151號","121.614073333333","25.0021283333333","6501800","深坑區"
"231059","046-UY","2017/07/03 18:09:47","新北市新店區安華路28-1號","121.519621666667","24.9607266666667","6500600","新店區"
"231060","106-UY","2017/07/03 18:09:52","新北市新店區安華路28-1號","121.519705","24.9606883333333","6500600","新店區"
"231051","107-UY","2017/07/03 18:09:44","新北市新店區安華路28-1號","121.519431666667","24.96128","6500600","新店區"
"231057","256-BX","2017/07/03 18:09:49","新北市新店區安華路28-1號","121.519703333333","24.9611466666667","6500600","新店區"
"231063","268-BY","2017/07/03 18:09:45","新北市新店區安華路28-1號","121.519441666667","24.96072","6500600","新店區"
"231046","278-BY","2017/07/03 18:09:53","新北市新店區直潭路113號","121.53122","24.9355416666667","6500600","新店區"
"231058","3712-VJ","2017/07/03 18:09:44","新北市新店區安華路28-1號","121.519123333333","24.96069","6500600","新店區"
"231055","3713-VJ","2017/07/03 18:09:54","新北市新店區安華路1-1號","121.519091666667","24.9605316666667","6500600","新店區"
"231065","512-UM","2017/07/03 16:02:28","新北市新店區安華路28-1號","121.519373333333","24.96103","6500600","新店區"
"231054","513-UM","2017/07/03 18:09:59","新北市新店區安華路28-1號","121.51955","24.9609616666667","6500600","新店區"
"231035","515-UM","2017/07/03 16:37:38","新北市新店區安華路28-1號","121.519628333333","24.96102","6500600","新店區"
"231045","617-UM","2017/07/03 18:09:46","新北市新店區安華路28-1號","121.519396666667","24.9608183333333","6500600","新店區"
"231040","619-UM","2017/07/03 18:09:43","新北市新店區安華路28-1號","121.519566666667","24.9607333333333","6500600","新店區"
"231049","719-UM","2017/07/03 16:27:47","新北市新店區安華路28-1號","121.51947","24.9610266666667","6500600","新店區"
"241033","AAC-255","2017/07/03 18:09:49","新北市三重區中興北街56-1號","121.469033333333","25.0514066666667","6500200","三重區"
"235064","005-UY","2017/07/03 18:09:49","新北市中和區錦和路350-1號","121.490486666667","24.9935933333333","6500300","中和區"
"235063","006-UY","2017/07/03 18:09:45","新北市中和區員山路36巷16-3號","121.48485","24.99112","6500300","中和區"
"235062","031-BX","2017/07/03 18:09:54","新北市中和區中正路828號","121.484935","25.00374","6500300","中和區"
"235056","096-UM","2017/07/03 18:09:56","新北市中和區連城路308號","121.483675","24.9962383333333","6500300","中和區"
"235040","150-BY","2017/07/03 18:09:44","新北市中和區和城路一段271巷1號","121.485428333333","24.9918316666667","6500300","中和區"
"235058","151-BY","2017/07/03 18:09:51","新北市中和區圓通路367巷58號","121.492261666667","24.9845","6500300","中和區"
"235038","185-VK","2017/07/03 18:09:58","新北市中和區景平路123號","121.515395","24.992","6500300","中和區"
"235051","376-QA","2017/07/03 18:09:53","新北市中和區錦和路350-1號","121.49066","24.99358","6500300","中和區"
"235061","378-QA","2017/07/03 15:28:54","新北市中和區員山路36巷13號","121.484365","24.99119","6500300","中和區"
"235069","4980-A6","2017/07/03 18:09:56","新北市中和區中正路484號","121.48937","24.9943816666667","6500300","中和區"
"235042","551-UM","2017/07/03 18:09:53","新北市中和區中正路10號","121.502986666667","24.9936333333333","6500300","中和區"
"235045","565-BX","2017/07/03 18:09:45","新北市中和區員山路36巷16-3號","121.484603333333","24.991185","6500300","中和區"
"235054","640-BX","2017/07/03 18:09:57","新北市中和區連城路523巷13弄28號","121.48239","24.9936016666667","6500300","中和區"
"235024","647-TV","2017/07/03 18:09:50","新北市中和區員山路36巷16-3號","121.485003333333","24.9915116666667","6500300","中和區"
"235071","783-BX","2017/07/03 18:09:44","新北市中和區員山路36巷16-2號","121.485273333333","24.9911833333333","6500300","中和區"
"235052","805-TS","2017/07/03 18:09:39","新北市中和區中正路637巷52弄1號","121.485493333333","24.99352","6500300","中和區"
"235037","AAC-213","2017/07/03 18:09:47","新北市中和區錦和路350-1號","121.490168333333","24.9935866666667","6500300","中和區"
"235059","AAC-215","2017/07/03 18:09:37","新北市中和區員山路36巷16-2號","121.485166666667","24.9915383333333","6500300","中和區"
"247008","339-TH","2017/07/03 18:09:56","新北市五股區中興路二段182巷15弄13號","121.457218333333","25.0814","6501400","蘆洲區"
"247014","057-VK","2017/07/03 18:08:21","新北市八里區中山路三段335號","121.37684","25.1403883333333","6501400","蘆洲區"
"247006","053-VK","2017/07/03 18:09:00","新北市五股區中興路三段5號","121.449618333333","25.0801866666667","6501400","蘆洲區"
"226004","312-R5","2017/07/03 18:09:56","新北市平溪區白石里白石腳5號","121.721483333333","25.0214033333333","6502400","平溪區"
"228003","097-TW","2017/07/03 18:09:45","新北市貢寮區真理里美艷山街6-2號","121.928903333333","25.0607","6502600","貢寮區"
"228002","585-TW","2017/07/03 18:09:43","新北市貢寮區福連里馬崗街4-1號","122.00062","25.0121566666667","6502600","貢寮區"
"228001","670-TC","2017/07/03 18:09:53","新北市貢寮區真理里新港街26巷55弄2-1號","121.927356666667","25.0528666666667","6502600","貢寮區"
"224006","676-BX","2017/07/03 18:09:50","新北市瑞芳區三爪子坑路32巷40號","121.809263333333","25.1068133333333","6501200","瑞芳區"
"224002","639-TC","2017/07/03 18:09:55","新北市瑞芳區三爪子坑路60號","121.81015","25.10565","6501200","瑞芳區"
"224011","420-VK","2017/07/03 18:09:44","新北市瑞芳區汽車路38號","121.846066666667","25.1113216666667","6501200","瑞芳區"
"224009","285-BY","2017/07/03 18:09:48","新北市瑞芳區金光路211號","121.85262","25.1066833333333","6501200","瑞芳區"
"224008","275-VK","2017/07/03 18:09:46","新北市瑞芳區明燈路二段56號","121.809838333333","25.1075983333333","6501200","瑞芳區"
"224007","273-VK","2017/07/03 18:09:53","新北市瑞芳區大寮路84號","121.780405","25.1012766666667","6501200","瑞芳區"
"224005","271-BY","2017/07/03 18:09:52","新北市瑞芳區深澳路145號","121.820255","25.1333083333333","6501200","瑞芳區"
"253006","032-BX","2017/07/03 18:09:41","新北市石門區老梅路52巷25弄1號","121.546413333333","25.288235","6502200","石門區"
"253005","295-VK","2017/07/03 18:09:52","新北市石門區福安街39號","121.568556666667","25.2921666666667","6502200","石門區"
"208003","665-BX","2017/07/03 18:09:48","新北市金山區磺港里磺港路192-1號","121.645891666667","25.2275666666667","6502700","金山區"
"208001","761-BX","2017/07/03 18:09:53","新北市金山區磺港里磺港路117號","121.645961666667","25.226415","6502700","金山區"
"251009","008-UM","2017/07/03 17:06:05","新北市淡水區中正路318-1號","121.436808333333","25.1726483333333","6501000","淡水區"
"251004","009-UM","2017/07/03 18:09:56","新北市淡水區民族路98號","121.462605","25.1354016666667","6501000","淡水區"
"251001","011-UM","2017/07/03 18:09:47","新北市淡水區自立路10號","121.46305","25.1297966666667","6501000","淡水區"
"251007","179-VK","2017/07/03 18:09:57","新北市淡水區中正東路二段143巷2弄1號","121.460718333333","25.147285","6501000","淡水區"
"251005","180-VK","2017/07/03 18:09:41","新北市淡水區水源街一段122巷10號","121.447225","25.171405","6501000","淡水區"
"251008","181-VK","2017/07/03 18:09:40","新北市淡水區中正東路二段7號","121.458043333333","25.1587983333333","6501000","淡水區"
"251013","182-VK","2017/07/03 18:09:54","新北市淡水區竹圍子10號","121.476016666667","25.1945933333333","6501000","淡水區"
"251010","413-VK","2017/07/03 18:09:49","新北市淡水區中正路二段52號","121.41979","25.18333","6501000","淡水區"
"251012","441-VK","2017/07/03 18:09:41","新北市淡水區北新路三段120號","121.487073333333","25.1883683333333","6501000","淡水區"
"251015","442-VK","2017/07/03 18:09:56","新北市淡水區興福寮88巷1號","121.485465","25.1650566666667","6501000","淡水區"
"251006","561-UM","2017/07/03 18:09:33","新北市淡水區真理街3巷21-1號","121.437685","25.1763166666667","6501000","淡水區"
"251011","650-BX","2017/07/03 18:09:41","新北市淡水區三空泉9-2號","121.474138333333","25.1634916666667","6501000","淡水區"
"251002","672-BX","2017/07/03 18:09:56","新北市淡水區中正東路一段129號","121.455533333333","25.159205","6501000","淡水區"
"251003","766-UM","2017/07/03 18:09:48","新北市淡水區北新路180號","121.44947","25.1787816666667","6501000","淡水區"
"207003","550-UM","2017/07/03 18:09:41","新北市萬里區野柳里港西路68-3號","121.685225","25.2044383333333","6502800","萬里區"
"207004","225-TW","2017/07/03 18:09:39","新北市萬里區中幅里中福路136號","121.674518333333","25.1662883333333","6502800","萬里區"
"252002","178-VK","2017/07/03 18:09:54","新北市三芝區中山路二段41號","121.502926666667","25.2550616666667","6502100","三芝區"
"252003","249-BX","2017/07/03 18:09:39","新北市三芝區埔頭里埔頭37號","121.498416666667","25.26029","6502100","三芝區"
"252001","702-TV","2017/07/03 18:09:43","新北市三芝區中興街一段50號","121.49823","25.2567","6502100","三芝區"
"208002","170-UY","2017/07/03 18:09:50","新北市金山區三界壇路99巷23號","121.618901666667","25.2274366666667","6502700","金山區"
"237004","078-UY","2017/07/03 18:09:42","新北市三峽區大埔路150-2號","121.364978333333","24.8976633333333","6500900","三峽區"
"237007","153-BY","2017/07/03 18:09:52","新北市三峽區中正路二段370巷16號","121.364975","24.9105133333333","6500900","三峽區"
"237009","210-TH","2017/07/03 18:09:59","新北市三峽區復興路303巷1弄2號","121.365598333333","24.9383083333333","6500900","三峽區"
"237013","252-BX","2017/07/03 18:09:56","新北市三峽區介壽路一段193-2號","121.378131666667","24.9311633333333","6500900","三峽區"
"237012","275-BY","2017/07/03 18:09:59","新北市三峽區民生街19巷7弄36-4號","121.377338333333","24.9354733333333","6500900","三峽區"
"237008","302-VK","2017/07/03 18:09:42","新北市三峽區白雞44-48號","121.377631666667","24.9105416666667","6500900","三峽區"
"237014","433-BY","2017/07/03 18:09:47","新北市三峽區復興路105號","121.371978333333","24.9378916666667","6500900","三峽區"
"237006","5529-G3","2017/07/03 18:09:57","新北市三峽區溪東路43號","121.400516666667","24.93484","6500900","三峽區"
"237011","572-TV","2017/07/03 18:09:41","新北市三峽區溪東路137號","121.40262","24.9342566666667","6500900","三峽區"
"237015","649-BX","2017/07/03 18:09:50","新北市三峽區紫新路48號","121.42217","24.9219566666667","6500900","三峽區"
"237010","706-TV","2017/07/03 18:09:54","新北市三峽區民族街153號","121.368766666667","24.9279583333333","6500900","三峽區"
"237005","AKY-6261","2017/07/03 18:09:47","新北市三峽區文化路65巷12號","121.371951666667","24.9354733333333","6500900","三峽區"
"236069","105-UM","2017/07/03 18:09:55","新北市土城區明德路一段385-1號","121.45237","24.980235","6501300","土城區"
"236042","107-UM","2017/07/03 18:09:44","新北市土城區裕生路82巷2號","121.447556666667","24.9859283333333","6501300","土城區"
"236078","166-UM","2017/07/03 18:09:57","新北市土城區永安街86巷1號","121.43129","24.9637866666667","6501300","土城區"
"236030","253-BX","2017/07/03 18:09:46","新北市土城區城林路6巷80號","121.438441666667","24.9798016666667","6501300","土城區"
"236026","269-VK","2017/07/03 18:09:54","新北市土城區承天路18號","121.439503333333","24.96347","6501300","土城區"
"236014","270-VK","2017/07/03 18:09:42","新北市土城區學府路一段167號","121.452853333333","24.9856383333333","6501300","土城區"
"236036","271-VK","2017/07/03 18:09:56","新北市土城區明德路一段398號","121.453143333333","24.9794733333333","6501300","土城區"
"236020","401-BY","2017/07/03 18:09:56","新北市土城區城林路6巷80號","121.438645","24.9796866666667","6501300","土城區"
"236058","912-UM","2017/07/03 18:09:41","新北市土城區中央路四段38號","121.420796666667","24.9607816666667","6501300","土城區"
"236048","913-UM","2017/07/03 18:09:52","新北市土城區明德路一段365-1號","121.453541666667","24.9790533333333","6501300","土城區"
"236062","915-UM","2017/07/03 18:09:46","新北市土城區金城路二段210號","121.455435","24.9822033333333","6501300","土城區"
"236053","AAC-216","2017/07/03 18:09:47","新北市土城區中華路二段98號","121.438111666667","24.974465","6501300","土城區"
"242021","AAC-296","2017/07/03 18:09:44","新北市新莊區建興街56巷1號","121.449973333333","25.0385566666667","6500500","新莊區"
"242029","986-R7","2017/07/03 18:09:40","新北市新莊區中平路110巷26號","121.44607","25.04548","6500500","新莊區"
"242025","615-BX","2017/07/03 18:09:49","新北市新莊區五工一路97巷5號","121.460441666667","25.0675916666667","6500500","新莊區"
"242023","613-BX","2017/07/03 18:09:54","新北市新莊區幸福路763-3號","121.447723333333","25.0489416666667","6500500","新莊區"
"242027","612-BX","2017/07/03 18:09:59","新北市新莊區幸福路515號","121.455636666667","25.0492966666667","6500500","新莊區"
"242036","566-BX","2017/07/03 18:09:43","新北市新莊區建福路48巷10號","121.425961666667","25.0275366666667","6500500","新莊區"
"242042","497-BY","2017/07/03 18:09:53","新北市新莊區雙鳳路116巷15弄1號","121.413506666667","25.029015","6500500","新莊區"
"242046","441-UM","2017/07/03 18:10:00","新北市新莊區福營路405號","121.422275","25.0270516666667","6500500","新莊區"
"242050","440-UM","2017/07/03 18:09:51","新北市新莊區民本街23巷19號","121.429173333333","25.0198533333333","6500500","新莊區"
"242031","415-TV","2017/07/03 18:09:54","新北市新莊區新泰路255巷24號","121.44507","25.0397216666667","6500500","新莊區"
"242002","413-TV","2017/07/03 18:09:45","新北市新莊區新莊路1號","121.45939","25.037885","6500500","新莊區"
"242039","400-BY","2017/07/03 18:09:58","新北市新莊區民安東路156號","121.431856666667","25.0205916666667","6500500","新莊區"
"242060","362-BY","2017/07/03 18:09:44","新北市新莊區新樹路207號","121.435905","25.0240966666667","6500500","新莊區"
"242058","353-BY","2017/07/03 18:09:57","新北市新莊區新北大道七段842號","121.41374","25.0236783333333","6500500","新莊區"
"242011","132-UY","2017/07/03 18:09:45","新北市新莊區中信街90號","121.44788","25.0533916666667","6500500","新莊區"
"242034","133-UY","2017/07/03 18:09:46","新北市新莊區景德路258號","121.448721666667","25.033705","6500500","新莊區"
"242019","135-UY","2017/07/03 18:09:44","新北市新莊區公園路224號","121.456736666667","25.0405816666667","6500500","新莊區"
"242044","172-VK","2017/07/03 18:09:44","新北市新莊區中正路力行巷34號","121.416286666667","25.02662","6500500","新莊區"
"242007","173-VK","2017/07/03 18:09:52","新北市新莊區自治街2號","121.453241666667","25.0478116666667","6500500","新莊區"
"242056","176-VK","2017/07/03 18:09:47","新北市新莊區豐年街74號","121.446455","25.03134","6500500","新莊區"
"242004","346-TH","2017/07/03 18:09:47","新北市新莊區自由街46號","121.455893333333","25.0460683333333","6500500","新莊區"
"242048","347-TH","2017/07/03 18:09:50","新北市新莊區民安路98巷3號","121.423641666667","25.0257433333333","6500500","新莊區"
"242017","348-TH","2017/07/03 18:09:44","新北市新莊區永樂街90號","121.450535","25.0449166666667","6500500","新莊區"
"242053","349-TH","2017/07/03 18:09:53","新北市新莊區民安西路327巷4弄4號","121.42806","25.011295","6500500","新莊區"
"242015","350-TH","2017/07/03 18:09:39","新北市新莊區中和街59巷10弄14號","121.446858333333","25.0472033333333","6500500","新莊區"
"242009","351-TH","2017/07/03 18:09:44","新北市新莊區幸福路600號","121.452996666667","25.0492916666667","6500500","新莊區"
"238015","755-BX","2017/07/03 18:09:43","新北市樹林區大安路455號","121.414968333333","24.987825","6500700","樹林區"
"238010","601-UM","2017/07/03 18:09:48","新北市樹林區龍興街46巷23號","121.402146666667","25.0151566666667","6500700","樹林區"
"238019","599-UM","2017/07/03 18:09:45","新北市樹林區國凱街160號","121.424445","24.98084","6500700","樹林區"
"238018","571-TV","2017/07/03 18:09:50","新北市樹林區樹新路227號","121.431165","25.0006216666667","6500700","樹林區"
"238022","312-TH","2017/07/03 18:09:50","新北市樹林區太平路209號","121.418601666667","24.9777466666667","6500700","樹林區"
"238021","311-TH","2017/07/03 18:09:35","新北市樹林區柑園街一段33巷7號","121.404331666667","24.9591633333333","6500700","樹林區"
"238025","303-VK","2017/07/03 18:09:46","新北市樹林區保安街二段154號","121.41333","25.0044966666667","6500700","樹林區"
"238017","283-BY","2017/07/03 18:09:42","新北市樹林區中正路815號","121.409411666667","25.0168733333333","6500700","樹林區"
"238014","282-BY","2017/07/03 18:09:54","新北市樹林區大安路45號","121.423841666667","24.9992","6500700","樹林區"
"238020","268-VK","2017/07/03 18:09:52","新北市樹林區三龍街94巷36號","121.414338333333","25.0171683333333","6500700","樹林區"
"238026","172-UY","2017/07/03 18:09:41","新北市樹林區育德街28號","121.390278333333","24.9697583333333","6500700","樹林區"
"238016","169-UY","2017/07/03 18:09:44","新北市樹林區文化街10巷23號","121.420603333333","24.9879333333333","6500700","樹林區"
"239007","AAC-297","2017/07/03 18:09:51","新北市鶯歌區育英街93號","121.347413333333","24.9514233333333","6500800","鶯歌區"
"239006","891-R6","2017/07/03 18:09:54","新北市鶯歌區鶯桃路365巷56號","121.331786666667","24.9624016666667","6500800","鶯歌區"
"239008","527-UM","2017/07/03 18:09:52","新北市鶯歌區明圓街21號","121.33619","24.9772616666667","6500800","鶯歌區"
"239005","526-UM","2017/07/03 18:09:41","新北市鶯歌區鶯桃路668巷73號","121.329921666667","24.9717616666667","6500800","鶯歌區"
"239001","417-VK","2017/07/03 18:09:40","新北市鶯歌區高職東街21號","121.34039","24.9414183333333","6500800","鶯歌區"
"239003","360-BY","2017/07/03 18:09:54","新北市鶯歌區福安街28號","121.334423333333","24.9641316666667","6500800","鶯歌區"
"239002","359-BY","2017/07/03 18:09:49","新北市鶯歌區中山路129號","121.349535","24.95695","6500800","鶯歌區"
"221008","489-VK","2017/07/03 18:09:50","新北市汐止區康寧街307巷1弄10號","121.626738333333","25.0682366666667","6501100","汐止區"
"221036","130-UY","2017/07/03 18:09:58","新北市汐止區大同路三段141號","121.669293333333","25.0777483333333","6501100","汐止區"
"221015","131-UY","2017/07/03 18:09:51","新北市汐止區長江街361號","121.6678","25.08231","6501100","汐止區"
"221010","269-BY","2017/07/03 18:09:59","新北市汐止區汐萬路二段256號","121.645868333333","25.089205","6501100","汐止區"
"221031","277-VK","2017/07/03 00:12:51","新北市汐止區汐萬路一段256巷3號","121.652505","25.0745666666667","6501100","汐止區"
"221012","278-VK","2017/07/03 18:09:51","新北市汐止區保長路37巷42號","121.674076666667","25.0798083333333","6501100","汐止區"
"221023","279-VK","2017/07/03 15:09:56","新北市汐止區康寧街901號","121.651745","25.074945","6501100","汐止區"
"221032","280-BY","2017/07/03 18:09:50","新北市汐止區力行街45號","121.616751666667","25.0498533333333","6501100","汐止區"
"221027","281-BY","2017/07/03 18:09:45","新北市汐止區大同路二段492號","121.660681666667","25.0681083333333","6501100","汐止區"
"221010","297-VK","2017/07/03 18:09:50","新北市汐止區莊敬街141巷3號","121.654361666667","25.0604583333333","6501100","汐止區"
"221029","298-VK","2017/07/03 18:09:48","新北市汐止區樟樹二路134號","121.639956666667","25.0656466666667","6501100","汐止區"
"221021","299-VK","2017/07/03 17:50:35","新北市汐止區大同路二段352號","121.656893333333","25.0670983333333","6501100","汐止區"
"221035","622-UM","2017/07/03 18:09:52","新北市汐止區大同路二段209號","121.652781666667","25.0646133333333","6501100","汐止區"
"221025","623-UM","2017/07/03 18:09:56","新北市汐止區勤進路3巷27號","121.661045","25.0617483333333","6501100","汐止區"
"221033","647-BX","2017/07/03 18:09:44","新北市汐止區林森街19號","121.621603333333","25.04058","6501100","汐止區"
"221002","707-TV","2017/07/03 18:09:54","新北市汐止區福德一路208號","121.634506666667","25.0653116666667","6501100","汐止區"
"221018","753-BX","2017/07/03 18:09:48","新北市汐止區忠孝東路345號","121.665471666667","25.07027","6501100","汐止區"
