"lineid","car","time","location","longitude","latitude","cityid","cityname"
"234046","148-BY","2017/07/03 19:59:40","新北市永和區永利路232號","121.523793333333","25.0024483333333","6500400","永和區"
"234013","149-BY","2017/07/03 19:59:41","新北市永和區保安路153號","121.5068","25.0127","6500400","永和區"
"234007","207-UY","2017/07/03 19:59:45","新北市永和區保生路22巷17號","121.507028333333","25.0082183333333","6500400","永和區"
"234081","298-R6","2017/07/03 19:59:42","新北市永和區林森路101巷4號","121.523275","25.00359","6500400","永和區"
"234038","336-UY","2017/07/03 19:59:49","新北市永和區成功路二段138號","121.526555","24.9972633333333","6500400","永和區"
"234064","337-UY","2017/07/03 19:59:55","新北市永和區中正路368巷1弄45號","121.519156666667","25.0011683333333","6500400","永和區"
"234086","338-UY","2017/07/03 19:59:40","新北市永和區永利路6號","121.517455","25.005955","6500400","永和區"
"234070","552-UM","2017/07/03 19:59:56","新北市永和區大新街77號","121.517775","25.0081433333333","6500400","永和區"
"234054","553-UM","2017/07/03 19:59:53","新北市永和區博愛街45巷1號","121.518965","25.01591","6500400","永和區"
"234017","745-BX","2017/07/03 19:59:56","新北市永和區永和路二段264號","121.51602","25.0151483333333","6500400","永和區"
"234030","746-BX","2017/07/03 19:59:44","新北市永和區民權路49巷3號","121.520418333333","24.9973533333333","6500400","永和區"
"234061","AAD-866","2017/07/03 19:59:52","新北市永和區中正路283巷7號","121.517026666667","25.0006966666667","6500400","永和區"
"234042","862-TW","2017/07/03 19:59:58","新北市永和區中和路421巷5弄18號","121.50823","25.0006166666667","6500400","永和區"
"234050","863-TW","2017/07/03 19:59:55","新北市永和區永平路247號","121.506693333333","25.0130066666667","6500400","永和區"
"234026","9372-KE","2017/07/03 19:59:54","新北市永和區中和路547巷3弄2號","121.511343333333","25.0036933333333","6500400","永和區"
"234011","9373-KE","2017/07/03 19:59:56","新北市永和區仁愛路352巷120號","121.500223333333","25.0084933333333","6500400","永和區"
"249001","173-UM","2017/07/03 19:59:43","新北市八里區中華路二段310號","121.403858333333","25.148295","6502300","八里區"
"249004","303-UY","2017/07/03 19:59:47","新北市八里區中華路二段11巷5號","121.413633333333","25.153455","6502300","八里區"
"249002","305-UY","2017/07/03 19:59:55","新北市八里區頂寮二街2號","121.451023333333","25.1239966666667","6502300","八里區"
"249003","593-UM","2017/07/03 19:59:53","新北市八里區華峰三街35號","121.398453333333","25.1453166666667","6502300","八里區"
"249005","759-BX","2017/07/03 19:59:47","新北市八里區長坑口40-4號","121.387993333333","25.13049","6502300","八里區"
"248014","025-BX","2017/07/03 19:59:44","新北市五股區五福路12號","121.434356666667","25.08859","6501500","五股區"
"248008","095-VK","2017/07/03 19:59:42","新北市五股區中興路一段1巷11號","121.469403333333","25.0714783333333","6501500","五股區"
"248018","225-UY","2017/07/03 19:59:49","新北市五股區登林路114-3號","121.425965","25.0703933333333","6501500","五股區"
"248012","247-BX","2017/07/03 19:59:44","新北市五股區民義路1段33-1號","121.436151666667","25.0840366666667","6501500","五股區"
"248016","261-SL","2017/07/03 19:59:56","新北市五股區成泰路三段577巷80弄25號","121.449543333333","25.1045966666667","6501500","五股區"
"248010","272-BY","2017/07/03 19:59:50","新北市五股區登林路79-2號","121.427806666667","25.07039","6501500","五股區"
"248004","677-BX","2017/07/03 19:59:52","新北市五股區成泰路一段8巷2-3號","121.434875","25.0669483333333","6501500","五股區"
"248002","678-BX","2017/07/03 19:59:52","新北市五股區成泰路三段514號","121.452168333333","25.10188","6501500","五股區"
"234023","9380-KE","2017/07/03 19:59:55","新北市永和區中正路702巷10號","121.516421666667","25.0103166666667","6500400","永和區"
"234077","969-R7","2017/07/03 19:59:40","新北市永和區民有街23巷9號","121.51723","24.9964933333333","6500400","永和區"
"234074","AAC-211","2017/07/03 19:59:54","新北市永和區豫溪街207巷2號","121.523828333333","25.0095866666667","6500400","永和區"
"234067","AAC-212","2017/07/03 19:59:52","新北市永和區中山路一段281巷1號","121.507173333333","25.0068116666667","6500400","永和區"
"234003","AAC-295","2017/07/03 19:57:29","新北市永和區中正路633號","121.515481666667","25.0100633333333","6500400","永和區"
"243013","AAD-798","2017/07/03 19:59:50","新北市泰山區明志路三段6巷16號","121.423923333333","25.0436133333333","6501600","泰山區"
"243009","297-R6","2017/07/03 19:59:43","新北市泰山區泰林路二段164巷35號","121.434253333333","25.0612516666667","6501600","泰山區"
"243015","380-SR","2017/07/03 19:59:42","新北市泰山區明志路二段214巷16弄4號","121.426848333333","25.04925","6501600","泰山區"
"243014","421-VK","2017/07/03 19:59:54","新北市泰山區泰林路二段168號","121.433813333333","25.06055","6501600","泰山區"
"243010","548-UM","2017/07/03 19:59:56","新北市泰山區中華街10巷1號","121.427866666667","25.0525283333333","6501600","泰山區"
"243011","549-UM","2017/07/03 19:59:46","新北市泰山區工專路49巷4號","121.42267","25.0399533333333","6501600","泰山區"
"243012","646-TV","2017/07/03 19:59:55","新北市泰山區全興路111號","121.433861666667","25.0566316666667","6501600","泰山區"
"243016","680-BX","2017/07/03 19:59:51","新北市泰山區貴陽街4-1號","121.421725","25.0330733333333","6501600","泰山區"
"222003","436-BY","2017/07/03 19:59:56","新北市深坑區埔新街14號","121.620731666667","25.0039266666667","6501800","深坑區"
"222002","659-BX","2017/07/03 19:59:41","新北市深坑區北深路二段81巷8弄2號","121.618295","25.0032083333333","6501800","深坑區"
"222001","696-SL","2017/07/03 19:59:57","新北市深坑區北深路三段154號","121.603188333333","25.0030733333333","6501800","深坑區"
"231041","002-UM","2017/07/03 19:59:49","新北市新店區自由街2-1號","121.535603333333","24.9755783333333","6500600","新店區"
"231056","0291-UT","2017/07/03 19:59:50","新北市新店區民權路42巷49號","121.53888","24.9837266666667","6500600","新店區"
"231059","046-UY","2017/07/03 19:59:47","新北市新店區安康路二段147號","121.511301666667","24.9598466666667","6500600","新店區"
"231060","106-UY","2017/07/03 19:59:52","新北市新店區安康路二段406號","121.496771666667","24.9553016666667","6500600","新店區"
"231051","107-UY","2017/07/03 19:59:44","新北市新店區中央路218號","121.529715","24.97304","6500600","新店區"
"231047","108-UY","2017/07/03 19:59:48","新北市新店區寶宏路34號","121.549416666667","24.9757133333333","6500600","新店區"
"231052","187-VK","2017/07/03 19:59:49","新北市新店區新烏路三段寶島巷4號","121.551571666667","24.8992233333333","6500600","新店區"
"231057","256-BX","2017/07/03 19:59:54","新北市新店區花園二路一段11號","121.555515","24.93244","6500600","新店區"
"231063","268-BY","2017/07/03 19:59:45","新北市新店區車子路11號","121.502973333333","24.9517283333333","6500600","新店區"
"231050","AAD-862","2017/07/03 19:59:49","新北市新店區中生路61號","121.564753333333","24.9522333333333","6500600","新店區"
"231044","355-BY","2017/07/03 19:59:40","新北市新店區中正路568號","121.533905","24.9879466666667","6500600","新店區"
"231055","3713-VJ","2017/07/03 19:59:54","新北市新店區中華路83巷67號","121.53837","24.967265","6500600","新店區"
"231067","4772-VM","2017/07/03 19:59:52","新北市新店區秀山路11巷28號","121.531506666667","24.95865","6500600","新店區"
"231065","512-UM","2017/07/03 19:59:37","新北市新店區安祥路109巷8號","121.475391666667","24.9588016666667","6500600","新店區"
"231054","513-UM","2017/07/03 19:59:40","新北市新店區北新路一段51號","121.538193333333","24.9595483333333","6500600","新店區"
"231064","515-UM","2017/07/03 19:59:40","新北市新店區碧安街6巷8號","121.51735","24.9677166666667","6500600","新店區"
"231042","616-UM","2017/07/03 19:59:55","新北市新店區中興路二段89號","121.547026666667","24.9714083333333","6500600","新店區"
"231045","617-UM","2017/07/03 19:59:46","新北市新店區北宜路二段110-1號","121.556235","24.953795","6500600","新店區"
"231061","618-UM","2017/07/03 19:59:43","新北市新店區安民街381號","121.516305","24.97648","6500600","新店區"
"231040","619-UM","2017/07/03 19:59:43","新北市新店區中正路62號","121.5443","24.9701416666667","6500600","新店區"
"231068","718-UY","2017/07/03 19:59:49","新北市新店區安華路28-1號","121.519456666667","24.9612833333333","6500600","新店區"
"231049","719-UM","2017/07/03 19:59:48","新北市新店區建國路219號","121.537571666667","24.9811933333333","6500600","新店區"
"231062","720-UM","2017/07/03 19:59:44","新北市新店區華城路36巷1-5號","121.527658333333","24.9553466666667","6500600","新店區"
"231043","899-TW","2017/07/03 19:59:52","新北市新店區中正路263-4號","121.538266666667","24.9738616666667","6500600","新店區"
"231066","AKT-0513","2017/07/03 19:59:42","新北市新店區柴埕路60巷15-3號","121.508033333333","24.96558","6500600","新店區"
"241028","022-UY","2017/07/03 19:59:44","新北市三重區中正南路6號","121.49336","25.060655","6500200","三重區"
"241008","059-VK","2017/07/03 19:59:44","新北市三重區力行路二段136巷49弄3號","121.479661666667","25.0753266666667","6500200","三重區"
"241009","060-VK","2017/07/03 19:59:50","新北市三重區三和路四段392號","121.481858333333","25.0792283333333","6500200","三重區"
"241031","061-VK","2017/07/03 19:59:57","新北市三重區重新路四段144巷36號","121.48721","25.0549416666667","6500200","三重區"
"241015","062-VK","2017/07/03 19:59:41","新北市三重區三和路二段17號","121.50117","25.0669","6500200","三重區"
"241017","063-VK","2017/07/03 19:59:51","新北市三重區自強路一段219號","121.491323333333","25.0686683333333","6500200","三重區"
"241024","065-VK","2017/07/03 19:59:52","新北市三重區力行路一段277號","121.482101666667","25.07156","6500200","三重區"
"241026","066-VK","2017/07/03 19:59:44","新北市三重區中央南路9號","121.501248333333","25.0627516666667","6500200","三重區"
"241003","091-VK","2017/07/03 19:59:54","新北市三重區五華街128號","121.4917","25.083475","6500200","三重區"
"241025","156-TC","2017/07/03 19:59:56","新北市三重區頂崁街210巷16號","121.476501666667","25.0677533333333","6500200","三重區"
"241005","262-UM","2017/07/03 19:59:57","新北市三重區溪尾街325巷40弄1號","121.488703333333","25.0832516666667","6500200","三重區"
"241011","265-UM","2017/07/03 19:59:49","新北市三重區三和路二段202號","121.498396666667","25.0692566666667","6500200","三重區"
"241016","266-UM","2017/07/03 19:59:59","新北市三重區正義北路37號","121.497433333333","25.063665","6500200","三重區"
"241022","267-UM","2017/07/03 19:59:51","新北市三重區過圳街31巷2號","121.488855","25.0605783333333","6500200","三重區"
"241018","268-UM","2017/07/03 19:59:56","新北市三重區雙園街101號","121.493733333333","25.06728","6500200","三重區"
"241032","269-UM","2017/07/03 19:59:38","新北市三重區朝陽街26巷1弄18號","121.483051666667","25.0568983333333","6500200","三重區"
"241013","270-UM","2017/07/03 19:59:41","新北市三重區仁愛街112巷14號","121.494751666667","25.07391","6500200","三重區"
"241007","398-BY","2017/07/03 19:59:48","新北市三重區溪尾街160號","121.488868333333","25.080105","6500200","三重區"
"241020","413-TH","2017/07/03 19:59:48","新北市三重區忠孝路一段87號","121.490016666667","25.0720716666667","6500200","三重區"
"241035","462-BY","2017/07/03 19:59:40","新北市三重區大榮街9號","121.498203333333","25.0631583333333","6500200","三重區"
"241004","475-VK","2017/07/03 19:59:49","新北市三重區仁愛街425巷92號","121.492201666667","25.082725","6500200","三重區"
"241019","478-VK","2017/07/03 19:59:56","新北市三重區重陽路四段18號","121.490798333333","25.0692","6500200","三重區"
"241030","480-VK","2017/07/03 19:59:42","新北市三重區成功路187號","121.485693333333","25.05295","6500200","三重區"
"241014","543-UM","2017/07/03 19:59:44","新北市三重區長元街82-1號","121.502011666667","25.066445","6500200","三重區"
"241001","547-UM","2017/07/03 19:59:56","新北市三重區仁愛街283巷39號","121.49433","25.0798916666667","6500200","三重區"
"241006","AAD-863","2017/07/03 20:00:01","新北市三重區力行路二段35號","121.48228","25.073705","6500200","三重區"
"241023","887-TS","2017/07/03 19:59:51","新北市三重區大有街1-1號","121.477618333333","25.0656566666667","6500200","三重區"
"241012","941-UM","2017/07/03 19:59:42","新北市三重區河邊北街284號","121.501331666667","25.07694","6500200","三重區"
"241029","942-UM","2017/07/03 19:59:47","新北市三重區重新路三段204號","121.49017","25.0583333333333","6500200","三重區"
"241033","AAC-255","2017/07/03 19:59:51","新北市三重區中興北街65號","121.469503333333","25.047545","6500200","三重區"
"235066","003-UY","2017/07/03 19:59:45","新北市中和區光華街10號","121.504221666667","25.0042766666667","6500300","中和區"
"235056","096-UM","2017/07/03 19:59:55","新北市中和區中山路三段170巷2弄1號","121.472898333333","25.0066133333333","6500300","中和區"
"235039","097-UM","2017/07/03 19:59:45","新北市中和區景平路73號","121.518971666667","24.9913833333333","6500300","中和區"
"235040","150-BY","2017/07/03 19:59:44","新北市中和區保健路19巷2弄2號","121.508316666667","24.998345","6500300","中和區"
"235058","151-BY","2017/07/03 19:59:51","新北市中和區員山路209-1號","121.481253333333","24.9976933333333","6500300","中和區"
"235055","183-VK","2017/07/03 19:59:57","新北市中和區德光路15巷16號","121.471323333333","25.003625","6500300","中和區"
"235038","185-VK","2017/07/03 19:59:38","新北市中和區大智街55巷30弄32號","121.521563333333","24.9932466666667","6500300","中和區"
"235049","186-VK","2017/07/03 19:59:47","新北市中和區景平路385巷53號","121.501568333333","24.9943733333333","6500300","中和區"
"235067","255-BX","2017/07/03 19:59:49","新北市中和區中正路751巷3弄1號","121.484411666667","24.9996316666667","6500300","中和區"
"235044","293-VK","2017/07/03 19:59:58","新北市中和區南山路399巷9號","121.506955","24.9903166666667","6500300","中和區"
"235072","301-VK","2017/07/03 19:59:42","新北市新店區薏仁坑路自強巷1號","121.497606666667","24.9577633333333","6500300","中和區"
"235043","352-BY","2017/07/03 19:59:43","新北市中和區興南路二段159巷7號","121.505226666667","24.98315","6500300","中和區"
"235051","376-QA","2017/07/03 19:59:53","新北市中和區中興街233巷8弄8號","121.501201666667","24.989265","6500300","中和區"
"235068","377-QA","2017/07/03 19:59:42","新北市中和區福美路269號","121.49821","25.0051183333333","6500300","中和區"
"235061","378-QA","2017/07/03 19:59:57","新北市中和區新生街176巷32號","121.482403333333","24.9996933333333","6500300","中和區"
"235050","4979-A6","2017/07/03 19:59:57","新北市中和區景平路153號","121.513558333333","24.9917983333333","6500300","中和區"
"235069","4980-A6","2017/07/03 19:59:56","新北市中和區景新街34巷2弄7號","121.502928333333","24.9991216666667","6500300","中和區"
"235070","558-UM","2017/07/03 18:41:30","新北市中和區南華路30號","121.503425","24.9960216666667","6500300","中和區"
"235054","640-BX","2017/07/03 19:59:56","新北市中和區莒光路105號","121.472393333333","25.0028","6500300","中和區"
"235060","647-TV","2017/07/03 19:59:50","新北市中和區新生街30巷28號","121.482255","25.003805","6500300","中和區"
"235046","733-UM","2017/07/03 19:59:57","新北市中和區興南路一段93巷8弄2號","121.509821666667","24.9880316666667","6500300","中和區"
"235057","801-TS","2017/07/03 19:59:47","新北市中和區員山路220號","121.481303333333","25.000995","6500300","中和區"
"235041","802-TS","2017/07/03 19:59:56","新北市中和區中和路416號","121.511566666667","25.0031733333333","6500300","中和區"
"235052","805-TS","2017/07/03 19:59:59","新北市中和區華新街30巷14號","121.506923333333","24.9842783333333","6500300","中和區"
"235048","896-TW","2017/07/03 19:59:47","新北市中和區興南路一段25號","121.511116666667","24.9907416666667","6500300","中和區"
"235053","900-TW","2017/07/03 19:59:43","新北市中和區民德路146巷7弄1號","121.467723333333","25.0004866666667","6500300","中和區"
"235037","AAC-213","2017/07/03 20:00:00","新北市中和區秀朗路三段50巷23號","121.524473333333","24.99508","6500300","中和區"
"235059","AAC-215","2017/07/03 19:59:57","新北市中和區圓通路305巷5弄17號","121.493988333333","24.990395","6500300","中和區"
"220068","013-TV","2017/07/03 19:59:30","新北市板橋區光復街162號","121.48495","25.0196033333333","6500100","板橋區"
"220065","072-UY","2017/07/03 19:59:54","新北市板橋區海山路27號","121.467656666667","25.0089966666667","6500100","板橋區"
"220069","AAD-861","2017/07/03 19:59:47","新北市板橋區貴興路106巷7號","121.455185","25.002835","6500100","板橋區"
"220106","120-SR","2017/07/03 19:59:44","新北市板橋區民治街71巷33號","121.480566666667","25.033325","6500100","板橋區"
"247020","893-R6","2017/07/03 19:59:52","新北市蘆洲區民義街60號","121.472763333333","25.089635","6501400","蘆洲區"
"247018","500-BY","2017/07/03 19:59:37","新北市蘆洲區民族路300號","121.477606666667","25.0899083333333","6501400","蘆洲區"
"247008","339-TH","2017/07/03 19:59:42","新北市蘆洲區中山一路135巷6弄20號","121.47504","25.0810016666667","6501400","蘆洲區"
"247024","337-TH","2017/07/03 19:59:51","新北市蘆洲區光榮路120巷31號","121.465756666667","25.0880716666667","6501400","蘆洲區"
"247002","336-TH","2017/07/03 19:59:57","新北市蘆洲區長安街274巷6弄2號","121.457955","25.087005","6501400","蘆洲區"
"247014","057-VK","2017/07/03 19:59:43","新北市蘆洲區得勝街88號","121.47211","25.0834333333333","6501400","蘆洲區"
"247004","056-VK","2017/07/03 19:59:55","新北市蘆洲區永康街29號","121.457531666667","25.0853533333333","6501400","蘆洲區"
"247006","053-VK","2017/07/03 19:58:54","新北市蘆洲區九芎街115號","121.465565","25.07947","6501400","蘆洲區"
"247012","007-UY","2017/07/03 19:59:48","新北市蘆洲區民族路236巷27號","121.48013","25.08862","6501400","蘆洲區"
"247022","002-UY","2017/07/03 19:59:53","新北市蘆洲區中正路178號","121.467133333333","25.0878183333333","6501400","蘆洲區"
"247016","001-UY","2017/07/03 19:59:54","新北市蘆洲區光華路91號","121.467528333333","25.0825183333333","6501400","蘆洲區"
"226004","312-R5","2017/07/03 19:59:56","新北市平溪區靜安路三段86號","121.769843333333","25.03455","6502400","平溪區"
"228003","097-TW","2017/07/03 19:59:45","新北市貢寮區仁理村仁和路224號","121.923901666667","25.0535583333333","6502600","貢寮區"
"224010","AGQ-8101","2017/07/03 19:59:41","新北市瑞芳區輕便路81號","121.845125","25.1092716666667","6501200","瑞芳區"
"224011","420-VK","2017/07/03 19:59:44","新北市瑞芳區崙頂路3-1號","121.84702","25.104715","6501200","瑞芳區"
"227008","642-TC","2017/07/03 19:59:53","新北市雙溪區新基里新基南街25號","121.866246666667","25.0380983333333","6502500","雙溪區"
"227001","400-TW","2017/07/03 19:59:45","新北市雙溪區共和里東榮街1號","121.865215","25.03441","6502500","雙溪區"
"208003","665-BX","2017/07/03 19:59:48","新北市金山區香園14號","121.633878333333","25.2543","6502700","金山區"
"208001","761-BX","2017/07/03 19:59:53","新北市金山區南勢湖30號","121.613848333333","25.2179816666667","6502700","金山區"
"251009","008-UM","2017/07/03 19:38:45","新北市淡水區中山北路一段186巷10號","121.44542","25.1788183333333","6501000","淡水區"
"251004","009-UM","2017/07/03 19:59:16","新北市淡水區民生路16巷31號","121.461795","25.1376366666667","6501000","淡水區"
"251001","011-UM","2017/07/03 19:59:46","新北市淡水區水源街二段189-2號","121.456635","25.1763616666667","6501000","淡水區"
"251005","180-VK","2017/07/03 19:59:40","新北市淡水區學府路136巷48號","121.452315","25.17263","6501000","淡水區"
"251008","181-VK","2017/07/03 19:59:40","新北市淡水區淡海路63巷18號","121.422518333333","25.1806266666667","6501000","淡水區"
"251013","182-VK","2017/07/03 19:59:53","新北市淡水區淡金路三段329號","121.448966666667","25.2062916666667","6501000","淡水區"
"251010","413-VK","2017/07/03 19:59:49","新北市淡水區崁頂三路177號","121.43001","25.2015133333333","6501000","淡水區"
"251012","441-VK","2017/07/03 19:59:41","新北市淡水區下圭柔山61-5號","121.447828333333","25.20485","6501000","淡水區"
"251015","442-VK","2017/07/03 19:59:56","新北市淡水區埤島3-23號","121.447428333333","25.1895966666667","6501000","淡水區"
"251006","561-UM","2017/07/03 19:59:53","新北市淡水區北新路10號","121.444563333333","25.1774366666667","6501000","淡水區"
"251011","650-BX","2017/07/03 19:59:42","新北市淡水區崁頂55-3號","121.44234","25.1966283333333","6501000","淡水區"
"251003","766-UM","2017/07/03 19:59:48","新北市淡水區中山北路二段189巷15弄29號","121.443461666667","25.1841833333333","6501000","淡水區"
"207003","550-UM","2017/07/03 19:59:41","新北市萬里區大鵬里萬里加投63號","121.640475","25.2130866666667","6502800","萬里區"
"207004","225-TW","2017/07/03 19:59:59","新北市萬里區北基里忠二街17號","121.68508","25.1756266666667","6502800","萬里區"
"252002","178-VK","2017/07/03 19:59:54","新北市三芝區三民街39巷5號","121.505411666667","25.257635","6502100","三芝區"
"252001","702-TV","2017/07/03 19:59:43","新北市三芝區公正街66號","121.499815","25.2575183333333","6502100","三芝區"
"208002","170-UY","2017/07/03 19:59:44","新北市金山區中正路141巷10號","121.632306666667","25.2206483333333","6502700","金山區"
"237004","078-UY","2017/07/03 19:59:49","新北市三峽區嘉添187號","121.369305","24.911235","6500900","三峽區"
"237007","153-BY","2017/07/03 19:59:52","新北市三峽區二鬮路136巷16弄1號","121.3591","24.9081466666667","6500900","三峽區"
"237009","210-TH","2017/07/03 19:59:38","新北市三峽區民權街203號","121.367748333333","24.928475","6500900","三峽區"
"237012","275-BY","2017/07/03 19:59:39","新北市三峽區中華路40-1號","121.373185","24.9316666666667","6500900","三峽區"
"237008","302-VK","2017/07/03 19:59:48","新北市三峽區安溪路335號","121.370256666667","24.926905","6500900","三峽區"
"237014","433-BY","2017/07/03 19:59:47","新北市三峽區白雞28-1號","121.370045","24.9120966666667","6500900","三峽區"
"237006","5529-G3","2017/07/03 19:59:59","新北市三峽區中正路二段168號","121.366055","24.915495","6500900","三峽區"
"237015","649-BX","2017/07/03 19:59:50","新北市三峽區橫溪路99巷42號","121.399993333333","24.9369333333333","6500900","三峽區"
"237005","AKY-6261","2017/07/03 19:59:47","新北市三峽區民生街1巷29-3號","121.38059","24.9333216666667","6500900","三峽區"
"236069","105-UM","2017/07/03 19:59:55","新北市土城區忠義路77-1號","121.44275","24.9652966666667","6501300","土城區"
"236042","107-UM","2017/07/03 19:59:44","新北市土城區學府路一段143巷6號","121.453858333333","24.98589","6501300","土城區"
"236078","166-UM","2017/07/03 19:59:56","新北市土城區福安街108號","121.417203333333","24.96393","6501300","土城區"
"236030","253-BX","2017/07/03 19:59:46","新北市土城區中央路一段250巷1號","121.444121666667","24.9845666666667","6501300","土城區"
"236026","269-VK","2017/07/03 19:59:55","新北市土城區中央路二段89號","121.442293333333","24.978115","6501300","土城區"
"236014","270-VK","2017/07/03 19:59:42","新北市土城區廣福街121號","121.45621","24.9927733333333","6501300","土城區"
"236036","271-VK","2017/07/03 19:59:56","新北市土城區國際路146號","121.467905","24.9760216666667","6501300","土城區"
"236058","912-UM","2017/07/03 19:59:41","新北市土城區中央路一段169號","121.446345","24.9875933333333","6501300","土城區"
"236048","913-UM","2017/07/03 19:59:52","新北市土城區金城路三段137號","121.468228333333","24.9881016666667","6501300","土城區"
"236062","915-UM","2017/07/03 19:59:46","新北市土城區延和路146巷25號","121.468411666667","24.98936","6501300","土城區"
"236053","AAC-216","2017/07/03 19:59:47","新北市土城區金城路三段177號","121.469451666667","24.98872","6501300","土城區"
"242021","AAC-296","2017/07/03 19:59:58","新北市新莊區建中街16巷22弄2號","121.449321666667","25.0385033333333","6500500","新莊區"
"242029","986-R7","2017/07/03 19:59:49","新北市新莊區中平路298號","121.44477","25.0517116666667","6500500","新莊區"
"242025","615-BX","2017/07/03 19:59:49","新北市新莊區五工二路86巷39號","121.460723333333","25.0675066666667","6500500","新莊區"
"242023","613-BX","2017/07/03 19:59:53","新北市新莊區化成路328號","121.465691666667","25.048705","6500500","新莊區"
"242027","612-BX","2017/07/03 19:59:54","新北市新莊區立信三街28號","121.44304","25.050515","6500500","新莊區"
"242036","566-BX","2017/07/03 19:59:39","新北市新莊區建安街41巷2號","121.428896666667","25.0254166666667","6500500","新莊區"
"242042","497-BY","2017/07/03 19:59:53","新北市新莊區青山路一段165號","121.401941666667","25.0297733333333","6500500","新莊區"
"242013","442-UM","2017/07/03 19:59:56","新北市新莊區幸福路615號","121.451835","25.04919","6500500","新莊區"
"242046","441-UM","2017/07/03 19:59:44","新北市新莊區裕民街19巷22號","121.419688333333","25.0243283333333","6500500","新莊區"
"242050","440-UM","2017/07/03 19:59:51","新北市新莊區龍安路462號","121.42693","25.0175733333333","6500500","新莊區"
"242031","415-TV","2017/07/03 19:59:42","新北市新莊區公園一路84號","121.443186666667","25.0369866666667","6500500","新莊區"
"242002","413-TV","2017/07/03 19:59:45","新北市新莊區中正路219號","121.450955","25.0358266666667","6500500","新莊區"
"242039","400-BY","2017/07/03 19:59:55","新北市新莊區民安路314號","121.428478333333","25.0219916666667","6500500","新莊區"
"242060","362-BY","2017/07/03 19:59:53","新北市新莊區瓊泰路5號","121.444808333333","25.028565","6500500","新莊區"
"242058","353-BY","2017/07/03 19:59:53","新北市新莊區八德街111號","121.42413","25.0209766666667","6500500","新莊區"
"242011","132-UY","2017/07/03 19:59:45","新北市新莊區中港路531巷56號","121.450095","25.051715","6500500","新莊區"
"242034","133-UY","2017/07/03 19:59:41","新北市新莊區建中街69號","121.447548333333","25.0367733333333","6500500","新莊區"
"242019","135-UY","2017/07/03 19:59:54","新北市新莊區民生街15巷2弄2號","121.455731666667","25.0423033333333","6500500","新莊區"
"242007","173-VK","2017/07/03 19:58:32","新北市新莊區思源路593巷19號","121.45839","25.05954","6500500","新莊區"
"242056","176-VK","2017/07/03 19:59:47","新北市新莊區中正路347巷32號","121.447158333333","25.0340216666667","6500500","新莊區"
"242004","346-TH","2017/07/03 19:59:51","新北市新莊區化成路424號","121.466008333333","25.0510416666667","6500500","新莊區"
"242048","347-TH","2017/07/03 19:59:50","新北市新莊區後港二路1號","121.423286666667","25.0246233333333","6500500","新莊區"
"242017","348-TH","2017/07/03 19:59:37","新北市新莊區中華路二段45巷3號","121.453155","25.04648","6500500","新莊區"
"242015","350-TH","2017/07/03 19:59:53","新北市新莊區復興路一段47巷12號","121.446881666667","25.042785","6500500","新莊區"
"242009","351-TH","2017/07/03 19:59:42","新北市新莊區昌盛街33號","121.454015","25.050005","6500500","新莊區"
"238015","755-BX","2017/07/03 19:59:55","新北市樹林區中山路三段245號","121.392783333333","24.9721933333333","6500700","樹林區"
"238010","601-UM","2017/07/03 19:59:48","新北市樹林區中正路747號","121.41087","25.01489","6500700","樹林區"
"238022","312-TH","2017/07/03 19:59:49","新北市樹林區中山路三段161-6號","121.395078333333","24.97263","6500700","樹林區"
"238021","311-TH","2017/07/03 19:58:14","新北市樹林區桃子腳路122號","121.385618333333","24.9499566666667","6500700","樹林區"
"238025","303-VK","2017/07/03 19:59:45","新北市樹林區中山路三段214號","121.380256666667","24.9679883333333","6500700","樹林區"
"238014","282-BY","2017/07/03 19:59:54","新北市樹林區千歲街68號","121.426263333333","24.99745","6500700","樹林區"
"238020","268-VK","2017/07/03 19:59:51","新北市樹林區環河路2號","121.427915","24.978875","6500700","樹林區"
"239006","891-R6","2017/07/03 19:59:53","新北市鶯歌區文化路27號","121.360223333333","24.9567183333333","6500800","鶯歌區"
"221008","489-VK","2017/07/03 19:59:54","新北市汐止區康寧街39號","121.61858","25.0668133333333","6501100","汐止區"
"221036","130-UY","2017/07/03 19:59:38","新北市汐止區忠孝東路258巷11弄8號","121.663775","25.067205","6501100","汐止區"
"221015","131-UY","2017/07/03 19:59:50","新北市汐止區鄉長路一段31-1號","121.665303333333","25.0746133333333","6501100","汐止區"
"221010","269-BY","2017/07/03 19:59:58","新北市汐止區八連路一段72號","121.646063333333","25.0806216666667","6501100","汐止區"
"221031","277-VK","2017/07/03 00:12:51","新北市汐止區汐萬路一段256巷3號","121.652505","25.0745666666667","6501100","汐止區"
"221012","278-VK","2017/07/03 19:59:50","新北市汐止區大同路三段290號","121.678146666667","25.07121","6501100","汐止區"
"221023","279-VK","2017/07/03 19:35:17","新北市汐止區原興路76巷8號","121.632186666667","25.0665233333333","6501100","汐止區"
"221032","280-BY","2017/07/03 19:59:50","新北市汐止區弘道街9巷4弄9號","121.617321666667","25.0494316666667","6501100","汐止區"
"221027","281-BY","2017/07/03 20:00:00","新北市汐止區中正路60號","121.66177","25.0701583333333","6501100","汐止區"
"221010","297-VK","2017/07/03 19:59:52","新北市汐止區忠孝東路431號","121.665981666667","25.0719166666667","6501100","汐止區"
"221029","298-VK","2017/07/03 19:59:48","新北市汐止區樟樹一路137巷26號","121.641046666667","25.0659516666667","6501100","汐止區"
"221021","299-VK","2017/07/03 19:39:21","新北市汐止區大同路二段130號","121.651475","25.0638466666667","6501100","汐止區"
"221035","622-UM","2017/07/03 19:59:52","新北市汐止區長江街39巷22號","121.655328333333","25.0721016666667","6501100","汐止區"
"221025","623-UM","2017/07/03 19:59:55","新北市汐止區秀峰路107號","121.660266666667","25.06343","6501100","汐止區"
"221033","647-BX","2017/07/03 19:59:44","新北市汐止區東勢街60號","121.632278333333","25.0392566666667","6501100","汐止區"
"221018","753-BX","2017/07/03 19:59:48","新北市汐止區茄苳路223號","121.670953333333","25.0688316666667","6501100","汐止區"
"220079","145-BY","2017/07/03 19:59:45","新北市板橋區南雅西路二段177號","121.451981666667","25.0125983333333","6500100","板橋區"
"220082","610-BX","2017/07/03 19:59:52","新北市板橋區存德街45號","121.431016666667","24.9914216666667","6500100","板橋區"
"220101","245-BX","2017/07/03 19:59:43","新北市板橋區縣民大道三段101號","121.47629","25.0224266666667","6500100","板橋區"
"220103","257-TC","2017/07/03 19:59:50","新北市板橋區陽明街29巷1弄9號","121.46471","25.0214766666667","6500100","板橋區"
"220091","267-BY","2017/07/03 19:59:49","新北市板橋區文聖街84號","121.47748","25.0299683333333","6500100","板橋區"
"220072","277-BY","2017/07/03 20:00:00","新北市板橋區金門街151巷25號","121.433961666667","24.9902883333333","6500100","板橋區"
"220094","283-UM","2017/07/03 19:59:38","新北市板橋區互助街79號","121.459998333333","25.0260383333333","6500100","板橋區"
"220071","283-VK","2017/07/03 19:59:56","新北市板橋區五權街30巷37弄5號","121.463535","24.9925183333333","6500100","板橋區"
"220053","285-VK","2017/07/03 19:59:48","新北市板橋區中山路二段60巷5號","121.47416","25.0153916666667","6500100","板橋區"
"220083","286-VK","2017/07/03 19:59:57","新北市板橋區僑中二街8巷1號","121.447085","25.011055","6500100","板橋區"
"220090","288-VK","2017/07/03 19:59:41","新北市板橋區龍泉街108巷104號","121.455453333333","25.02555","6500100","板橋區"
"220061","293-UM","2017/07/03 19:59:39","新北市板橋區中山路一段283巷2弄24號","121.470683333333","25.0150383333333","6500100","板橋區"
"220084","296-UM","2017/07/03 19:59:46","新北市板橋區滿平街42號","121.426796666667","24.9897016666667","6500100","板橋區"
"220075","297-UM","2017/07/03 19:59:50","新北市板橋區金華街10巷48弄41號","121.458468333333","25.020085","6500100","板橋區"
"220092","299-UM","2017/07/03 19:59:46","新北市板橋區四維路259巷48號","121.461191666667","25.027095","6500100","板橋區"
"220062","305-R5","2017/07/03 19:59:52","新北市板橋區光復街33巷9號","121.481878333333","25.0190783333333","6500100","板橋區"
"220098","317-R6","2017/07/03 19:59:51","新北市板橋區新海路385巷24號","121.457878333333","25.0255733333333","6500100","板橋區"
"220080","461-BY","2017/07/03 19:59:49","新北市板橋區大觀路二段79巷2弄16號","121.447356666667","25.0016466666667","6500100","板橋區"
"220064","486-VK","2017/07/03 19:59:54","新北市板橋區實踐路100號","121.46408","25.0049183333333","6500100","板橋區"
"220089","487-VK","2017/07/03 20:00:02","新北市板橋區龍泉街112號","121.45683","25.0244866666667","6500100","板橋區"
"220088","491-VK","2017/07/03 19:58:28","新北市板橋區大同街69號","121.479456666667","25.0279533333333","6500100","板橋區"
"220035","560-BX","2017/07/03 19:59:54","新北市板橋區新生街29巷4弄1號","121.456608333333","25.021825","6500100","板橋區"
"220063","609-BX","2017/07/03 19:59:44","新北市板橋區三民路一段50-1號","121.479361666667","25.02258","6500100","板橋區"
"220081","630-UY","2017/07/03 19:59:58","新北市板橋區大觀路一段28巷97弄2號","121.450148333333","25.011715","6500100","板橋區"
"220057","686-BX","2017/07/03 19:59:59","新北市板橋區廣和街79號","121.462683333333","24.992115","6500100","板橋區"
"220077","687-BX","2017/07/03 19:59:47","新北市板橋區僑中一街124巷18弄1號","121.446113333333","25.01375","6500100","板橋區"
"220093","689-BX","2017/07/03 19:59:50","新北市板橋區文化路二段620號","121.478261666667","25.0356333333333","6500100","板橋區"
"220054","741-BX","2017/07/03 19:59:51","新北市板橋區忠孝路忠義巷19弄2號","121.466626666667","25.0038733333333","6500100","板橋區"
"220055","827-TW","2017/07/03 19:59:58","新北市板橋區仁愛路62巷17弄1號","121.460068333333","24.9982016666667","6500100","板橋區"
"220067","829-TW","2017/07/03 19:59:58","新北市板橋區漢生東路181號","121.469756666667","25.0116733333333","6500100","板橋區"
"220102","830-TW","2017/07/03 19:59:47","新北市板橋區仁化街42巷26號","121.47564","25.030885","6500100","板橋區"
"220096","831-TW","2017/07/03 19:59:50","新北市板橋區文化路二段124巷34弄6號","121.471118333333","25.0253883333333","6500100","板橋區"
"220074","895-R6","2017/07/03 19:59:45","新北市板橋區館前西路146號","121.45614","25.0081","6500100","板橋區"
"220073","985-R7","2017/07/03 19:59:58","新北市板橋區大仁街91號","121.453386666667","25.0159916666667","6500100","板橋區"
"220097","AAC-210","2017/07/03 19:59:59","新北市板橋區公館街108號","121.461076666667","25.0167733333333","6500100","板橋區"
"220070","AAC-253","2017/07/03 19:59:56","新北市板橋區民族路308號","121.470715","25.006715","6500100","板橋區"
