"lineid","car","time","location","longitude","latitude","cityid","cityname"
"234013","149-BY","2017/07/03 20:29:41","新北市永和區環河西路二段219號","121.501195","25.0103416666667","6500400","永和區"
"234007","207-UY","2017/07/03 20:29:45","新北市永和區仁愛路306巷22號","121.502533333333","25.00865","6500400","永和區"
"234081","298-R6","2017/07/03 20:29:42","新北市永和區國中路132巷18號","121.524213333333","25.00771","6500400","永和區"
"234038","336-UY","2017/07/03 20:29:58","新北市永和區民樂街31巷19弄5號","121.528395","25.0021866666667","6500400","永和區"
"234064","337-UY","2017/07/03 20:29:54","新北市永和區中正路526號","121.51726","25.00502","6500400","永和區"
"234086","338-UY","2017/07/03 20:29:40","新北市永和區永和路二段207號","121.515396666667","25.0137783333333","6500400","永和區"
"234070","552-UM","2017/07/03 20:29:47","新北市永和區永亨路6-1號","121.519465","25.0056533333333","6500400","永和區"
"234054","553-UM","2017/07/03 20:29:46","新北市永和區環河東路一段82號","121.519611666667","25.016435","6500400","永和區"
"234017","745-BX","2017/07/03 20:29:56","新北市永和區仁愛路38號","121.514241666667","25.0133866666667","6500400","永和區"
"234030","746-BX","2017/07/03 20:29:44","新北市永和區民權路1巷10號","121.520775","24.99827","6500400","永和區"
"234061","AAD-866","2017/07/03 20:29:52","新北市永和區安樂路194巷11號","121.515506666667","25.0011366666667","6500400","永和區"
"234042","862-TW","2017/07/03 20:29:45","新北市永和區安樂路431號","121.514365","25.0044066666667","6500400","永和區"
"234050","863-TW","2017/07/03 20:29:56","新北市永和區新生路66巷1弄6號","121.507425","25.015265","6500400","永和區"
"249001","173-UM","2017/07/03 20:29:43","新北市八里區中山路三段109號","121.390165","25.1421266666667","6502300","八里區"
"249004","303-UY","2017/07/03 20:29:47","新北市八里區中山路一段129巷19-1號","121.413938333333","25.1586883333333","6502300","八里區"
"249002","305-UY","2017/07/03 20:29:55","新北市八里區龍米路二段87號","121.447691666667","25.1419983333333","6502300","八里區"
"249003","593-UM","2017/07/03 20:29:57","新北市八里區華峰一街51號","121.398731666667","25.1460816666667","6502300","八里區"
"249005","759-BX","2017/07/03 20:29:07","新北市八里區下罟子15-6號","121.38097","25.14002","6502300","八里區"
"248002","678-BX","2017/07/03 20:29:52","新北市五股區成泰路三段68號","121.44315","25.08944","6501500","五股區"
"234023","9380-KE","2017/07/03 20:29:45","新北市永和區復興街91號","121.517828333333","25.014145","6500400","永和區"
"234074","AAC-211","2017/07/03 20:29:54","新北市永和區豫溪街189巷1號","121.522566666667","25.0102716666667","6500400","永和區"
"234067","AAC-212","2017/07/03 20:29:52","新北市永和區保平路268巷9號","121.508381666667","25.0054433333333","6500400","永和區"
"234003","AAC-295","2017/07/03 20:27:49","新北市永和區大新街74號","121.516605","25.00819","6500400","永和區"
"243013","AAD-798","2017/07/03 20:29:50","新北市泰山區貴子路9-1號","121.425478333333","25.0421616666667","6501600","泰山區"
"243009","297-R6","2017/07/03 20:29:42","新北市泰山區忠孝街42巷2號","121.428745","25.065385","6501600","泰山區"
"243015","380-SR","2017/07/03 20:29:42","新北市泰山區福興街26號","121.434363333333","25.0575666666667","6501600","泰山區"
"243014","421-VK","2017/07/03 20:29:54","新北市泰山區泰林路二段567號","121.422441666667","25.063585","6501600","泰山區"
"243010","548-UM","2017/07/03 20:29:56","新北市泰山區新生路31巷7號","121.427648333333","25.0458683333333","6501600","泰山區"
"243011","549-UM","2017/07/03 20:29:46","新北市泰山區貴子路88號","121.427501666667","25.0410866666667","6501600","泰山區"
"243012","646-TV","2017/07/03 20:29:35","新北市泰山區忠孝街19巷3弄1號","121.427405","25.0659","6501600","泰山區"
"243016","680-BX","2017/07/03 20:29:51","新北市泰山區文程路111號","121.430675","25.0480766666667","6501600","泰山區"
"222003","436-BY","2017/07/03 20:29:56","新北市深坑區深坑街32號","121.61519","25.0017683333333","6501800","深坑區"
"222002","659-BX","2017/07/03 20:29:41","新北市深坑區萬福路16巷49號","121.610713333333","25.008625","6501800","深坑區"
"222001","696-SL","2017/07/03 20:29:57","新北市深坑區北深路三段345號","121.597175","25.00503","6501800","深坑區"
"231041","002-UM","2017/07/03 20:29:48","新北市新店區中正路524號","121.533716666667","24.9838366666667","6500600","新店區"
"231056","0291-UT","2017/07/03 20:29:50","新北市新店區建安街33巷28號","121.538245","24.975395","6500600","新店區"
"231059","046-UY","2017/07/03 20:29:47","新北市新店區安豐路46號","121.500101666667","24.9549733333333","6500600","新店區"
"231060","106-UY","2017/07/03 20:29:52","新北市新店區錦秀路11巷96弄21號","121.47888","24.9417783333333","6500600","新店區"
"231051","107-UY","2017/07/03 20:29:44","新北市新店區中央六街121號","121.524991666667","24.97768","6500600","新店區"
"231047","108-UY","2017/07/03 20:29:48","新北市新店區寶慶街58巷21-1號","121.542053333333","24.98731","6500600","新店區"
"231052","187-VK","2017/07/03 20:29:49","新北市新店區松林路36號","121.54622","24.91027","6500600","新店區"
"231057","256-BX","2017/07/03 20:29:54","新北市新店區花園五路二段1號","121.553436666667","24.9341683333333","6500600","新店區"
"231063","268-BY","2017/07/03 20:29:45","新北市新店區玫瑰路4-1號","121.493571666667","24.9513983333333","6500600","新店區"
"231050","AAD-862","2017/07/03 20:29:49","新北市新店區博愛街1號","121.54049","24.9725233333333","6500600","新店區"
"231044","355-BY","2017/07/03 20:30:00","新北市新店區民族路46號","121.54031","24.97875","6500600","新店區"
"231058","3712-VJ","2017/07/03 20:29:48","新北市新店區自由街5號","121.53556","24.9752033333333","6500600","新店區"
"231055","3713-VJ","2017/07/03 20:29:54","新北市新店區安康路一段266巷4號","121.520193333333","24.9640266666667","6500600","新店區"
"231067","4772-VM","2017/07/03 20:29:52","新北市新店區安康路一段32號","121.531511666667","24.961295","6500600","新店區"
"231065","512-UM","2017/07/03 20:29:57","新北市新店區安祥路102巷28號","121.4841","24.9639083333333","6500600","新店區"
"231054","513-UM","2017/07/03 20:29:59","新北市新店區檳榔路109號","121.544431666667","24.9615916666667","6500600","新店區"
"231064","515-UM","2017/07/03 20:29:40","新北市新店區安和路三段95號","121.517825","24.984175","6500600","新店區"
"231042","616-UM","2017/07/03 20:29:55","新北市新店區寶橋路230號","121.551416666667","24.9788466666667","6500600","新店區"
"231045","617-UM","2017/07/03 20:29:46","新北市新店區新坡一街5號","121.549221666667","24.9625283333333","6500600","新店區"
"231061","618-UM","2017/07/03 20:29:43","新北市新店區新和街34號","121.519053333333","24.9847116666667","6500600","新店區"
"231040","619-UM","2017/07/03 20:29:56","新北市新店區三民路165號","121.534546666667","24.974625","6500600","新店區"
"231068","718-UY","2017/07/03 20:29:49","新北市新店區寶元路一段61號","121.542188333333","24.9858633333333","6500600","新店區"
"231049","719-UM","2017/07/03 20:29:48","新北市新店區安康路一段20號","121.531003333333","24.9610816666667","6500600","新店區"
"231062","720-UM","2017/07/03 20:29:44","新北市新店區安泰路60巷55-7號","121.484036666667","24.9453316666667","6500600","新店區"
"231043","899-TW","2017/07/03 20:29:52","新北市新店區民族路54號","121.539988333333","24.9786716666667","6500600","新店區"
"231066","AKT-0513","2017/07/03 20:29:42","新北市新店區安興路105-1號","121.514658333333","24.97777","6500600","新店區"
"241028","022-UY","2017/07/03 20:29:44","新北市三重區光興街89號","121.497458333333","25.060005","6500200","三重區"
"241008","059-VK","2017/07/03 20:29:44","新北市三重區下竹圍街91號","121.481146666667","25.074885","6500200","三重區"
"241009","060-VK","2017/07/03 20:29:50","新北市三重區永福街77號","121.480191666667","25.0776216666667","6500200","三重區"
"241031","061-VK","2017/07/03 20:29:57","新北市三重區三寧街22號","121.48943","25.0599833333333","6500200","三重區"
"241015","062-VK","2017/07/03 20:29:41","新北市三重區文化北路41-4號","121.498836666667","25.0653083333333","6500200","三重區"
"241017","063-VK","2017/07/03 20:29:50","新北市三重區自強路一段199號","121.491696666667","25.068335","6500200","三重區"
"241024","065-VK","2017/07/03 20:29:57","新北市三重區三民街270號","121.479048333333","25.06805","6500200","三重區"
"241026","066-VK","2017/07/03 20:29:44","新北市三重區福德南路8巷13號","121.503406666667","25.0635733333333","6500200","三重區"
"241002","090-VK","2017/07/03 20:29:46","新北市三重區仁義街211巷15號","121.49746","25.0821366666667","6500200","三重區"
"241003","091-VK","2017/07/03 20:29:54","新北市三重區五華街105號","121.491646666667","25.0838866666667","6500200","三重區"
"241025","156-TC","2017/07/03 20:29:56","新北市三重區頂崁街210巷23弄1號","121.475908333333","25.06816","6500200","三重區"
"241005","262-UM","2017/07/03 20:29:37","新北市三重區碧華街297號","121.49052","25.0839216666667","6500200","三重區"
"241011","265-UM","2017/07/03 20:29:49","新北市三重區三和路三段53號","121.495228333333","25.0716366666667","6500200","三重區"
"241016","266-UM","2017/07/03 20:29:41","新北市三重區正義北路188號","121.49633","25.066885","6500200","三重區"
"241022","267-UM","2017/07/03 20:29:51","新北市三重區重陽路二段19巷6號","121.487566666667","25.0627316666667","6500200","三重區"
"241018","268-UM","2017/07/03 20:29:45","新北市三重區正義北路216巷5號","121.495876666667","25.0675416666667","6500200","三重區"
"241032","269-UM","2017/07/03 20:29:38","新北市三重區重陽路一段120巷35號","121.485091666667","25.06017","6500200","三重區"
"241013","270-UM","2017/07/03 20:29:41","新北市三重區三和路三段163號","121.491921666667","25.074025","6500200","三重區"
"241007","398-BY","2017/07/03 20:29:48","新北市三重區自強路四段32-2號","121.488995","25.0770983333333","6500200","三重區"
"241020","413-TH","2017/07/03 20:29:48","新北市三重區明德街15號","121.492823333333","25.0724683333333","6500200","三重區"
"241035","462-BY","2017/07/03 20:29:40","新北市三重區正義北路42號","121.497375","25.0636433333333","6500200","三重區"
"241004","475-VK","2017/07/03 20:29:49","新北市三重區溪尾街182號","121.488468333333","25.08079","6500200","三重區"
"241019","478-VK","2017/07/03 20:29:56","新北市三重區重陽路四段41號","121.491906666667","25.0698966666667","6500200","三重區"
"241030","480-VK","2017/07/03 20:29:41","新北市三重區成功路62號","121.48859","25.0509533333333","6500200","三重區"
"241014","543-UM","2017/07/03 20:29:44","新北市三重區龍濱路64號","121.502415","25.0692283333333","6500200","三重區"
"241001","547-UM","2017/07/03 20:29:56","新北市三重區溪尾街66號","121.490368333333","25.0778633333333","6500200","三重區"
"241006","AAD-863","2017/07/03 20:29:55","新北市三重區車路頭街135-1號","121.484216666667","25.076165","6500200","三重區"
"241023","887-TS","2017/07/03 20:29:51","新北市三重區自由街19號","121.479735","25.066615","6500200","三重區"
"241012","941-UM","2017/07/03 20:29:42","新北市三重區龍濱路172號","121.50138","25.072795","6500200","三重區"
"241029","942-UM","2017/07/03 20:29:47","新北市三重區集美街225號","121.491981666667","25.0550866666667","6500200","三重區"
"241033","AAC-255","2017/07/03 20:29:51","新北市三重區五谷王北街80巷46號","121.47507","25.0526366666667","6500200","三重區"
"235066","003-UY","2017/07/03 20:29:44","新北市中和區中山路二段3巷22弄24號","121.50584","25.0045516666667","6500300","中和區"
"235026","031-BX","2017/07/03 20:07:49","新北市中和區員山路36巷16-2號","121.485378333333","24.9916816666667","6500300","中和區"
"235039","097-UM","2017/07/03 20:29:45","新北市中和區大勇街29巷23弄1號","121.515451666667","24.9946016666667","6500300","中和區"
"235072","301-VK","2017/07/03 20:29:42","新北市中和區員山路36巷13號","121.484358333333","24.99067","6500300","中和區"
"235050","4979-A6","2017/07/03 20:29:57","新北市中和區景平路385巷42弄14號","121.501721666667","24.9949683333333","6500300","中和區"
"235069","4980-A6","2017/07/03 20:29:56","新北市中和區連城路347巷18弄9號","121.487368333333","24.99482","6500300","中和區"
"235041","802-TS","2017/07/03 20:29:56","新北市中和區中安街168號","121.510816666667","24.9999116666667","6500300","中和區"
"235037","AAC-213","2017/07/03 20:29:46","新北市中和區自立路46號","121.522915","24.9923883333333","6500300","中和區"
"235059","AAC-215","2017/07/03 20:29:57","新北市中和區員山路7-6號","121.482135","24.9856483333333","6500300","中和區"
"220069","AAD-861","2017/07/03 20:29:54","新北市板橋區貴興路105號","121.455976666667","25.0026716666667","6500100","板橋區"
"247020","893-R6","2017/07/03 20:29:52","新北市蘆洲區民族路424號","121.473833333333","25.091785","6501400","蘆洲區"
"247010","546-UM","2017/07/03 20:29:56","新北市蘆洲區集賢路300號","121.481665","25.0851183333333","6501400","蘆洲區"
"247018","500-BY","2017/07/03 20:29:57","新北市蘆洲區民族路346號","121.476456666667","25.09065","6501400","蘆洲區"
"247008","339-TH","2017/07/03 20:29:42","新北市蘆洲區重陽二街25號","121.48232","25.0848366666667","6501400","蘆洲區"
"247024","337-TH","2017/07/03 20:29:51","新北市蘆洲區中正路185巷78弄19號","121.465576666667","25.0848916666667","6501400","蘆洲區"
"247002","336-TH","2017/07/03 20:29:57","新北市蘆洲區長安街361巷36號","121.455585","25.0875666666667","6501400","蘆洲區"
"247014","057-VK","2017/07/03 20:29:43","新北市蘆洲區中山二路275號","121.469451666667","25.0792383333333","6501400","蘆洲區"
"247004","056-VK","2017/07/03 20:29:51","新北市蘆洲區永康街45號","121.456953333333","25.0852233333333","6501400","蘆洲區"
"247006","053-VK","2017/07/03 20:29:34","新北市蘆洲區和平路121巷8弄29號","121.466025","25.0803533333333","6501400","蘆洲區"
"247012","007-UY","2017/07/03 20:29:48","新北市蘆洲區中興街152號","121.481958333333","25.090075","6501400","蘆洲區"
"247022","002-UY","2017/07/03 20:29:53","新北市蘆洲區中正路323號","121.46619","25.0888116666667","6501400","蘆洲區"
"247016","001-UY","2017/07/03 20:29:54","新北市蘆洲區光華路1號","121.469988333333","25.0835266666667","6501400","蘆洲區"
"224011","420-VK","2017/07/03 20:25:36","新北市瑞芳區明燈路二段66號","121.809341666667","25.107575","6501200","瑞芳區"
"251001","011-UM","2017/07/03 20:29:46","新北市淡水區中山北路二段98號","121.444388333333","25.1839566666667","6501000","淡水區"
"251008","181-VK","2017/07/03 20:29:39","新北市淡水區淡海路204號","121.420326666667","25.1856533333333","6501000","淡水區"
"251013","182-VK","2017/07/03 20:29:53","新北市淡水區後坑子5號","121.463345","25.2067533333333","6501000","淡水區"
"251010","413-VK","2017/07/03 20:29:49","新北市淡水區沙崙路181巷15號","121.42394","25.184385","6501000","淡水區"
"251012","441-VK","2017/07/03 20:29:41","新北市淡水區興仁路2號","121.450721666667","25.2148616666667","6501000","淡水區"
"251015","442-VK","2017/07/03 20:29:56","新北市淡水區淡金路四段542巷17號","121.452708333333","25.227075","6501000","淡水區"
"251006","561-UM","2017/07/03 20:29:53","新北市淡水區商工路296號","121.460623333333","25.1861116666667","6501000","淡水區"
"251011","650-BX","2017/07/03 20:29:42","新北市淡水區新市一路一段361號","121.436296666667","25.18622","6501000","淡水區"
"251002","672-BX","2017/07/03 20:29:48","新北市淡水區中正路114號","121.441806666667","25.1695866666667","6501000","淡水區"
"251003","766-UM","2017/07/03 20:29:48","新北市淡水區新民街32號","121.439313333333","25.1755733333333","6501000","淡水區"
"252002","178-VK","2017/07/03 20:29:54","新北市三芝區中正路一段68號","121.503688333333","25.2577683333333","6502100","三芝區"
"252001","702-TV","2017/07/03 20:29:43","新北市三芝區中山路一段36號","121.500791666667","25.2574766666667","6502100","三芝區"
"237007","153-BY","2017/07/03 20:29:51","新北市三峽區二鬮路21號","121.362493333333","24.91097","6500900","三峽區"
"236069","105-UM","2017/07/03 20:29:55","新北市土城區福安街100-8號","121.41737","24.964495","6501300","土城區"
"236026","269-VK","2017/07/03 20:29:53","新北市土城區中央路一段211巷6弄1號","121.446398333333","24.98633","6501300","土城區"
"236014","270-VK","2017/07/03 20:29:42","新北市土城區廣明街63巷10號","121.454405","24.9934516666667","6501300","土城區"
"242021","AAC-296","2017/07/03 20:29:48","新北市新莊區公園路12號","121.447811666667","25.0391266666667","6500500","新莊區"
"242029","986-R7","2017/07/03 20:29:49","新北市新莊區中華路二段185號","121.452468333333","25.052375","6500500","新莊區"
"242025","615-BX","2017/07/03 20:29:49","新北市新莊區五工三路62巷36號","121.460418333333","25.0654116666667","6500500","新莊區"
"242023","613-BX","2017/07/03 20:29:59","新北市新莊區化成路850號","121.464748333333","25.0605316666667","6500500","新莊區"
"242027","612-BX","2017/07/03 20:29:54","新北市新莊區幸福路33號","121.458661666667","25.0492933333333","6500500","新莊區"
"242036","566-BX","2017/07/03 20:29:43","新北市新莊區後港一路76巷14弄2號","121.427253333333","25.0256266666667","6500500","新莊區"
"242042","497-BY","2017/07/03 20:29:53","新北市新莊區中正路694巷3弄2號","121.418366666667","25.0283133333333","6500500","新莊區"
"242013","442-UM","2017/07/03 20:29:56","新北市新莊區中平路270巷2號","121.445045","25.0500733333333","6500500","新莊區"
"242046","441-UM","2017/07/03 20:29:44","新北市新莊區中正路881-16號","121.417541666667","25.024595","6500500","新莊區"
"242050","440-UM","2017/07/03 20:29:51","新北市新莊區民安西路189巷23號","121.426918333333","25.01538","6500500","新莊區"
"242031","415-TV","2017/07/03 20:29:40","新北市新莊區三和路58-4號","121.43762","25.0402","6500500","新莊區"
"242002","413-TV","2017/07/03 20:29:45","新北市新莊區中正路35號","121.463751666667","25.0407583333333","6500500","新莊區"
"242039","400-BY","2017/07/03 20:29:55","新北市新莊區民安路236號","121.426408333333","25.0220866666667","6500500","新莊區"
"242060","362-BY","2017/07/03 20:29:53","新北市新莊區新樹路244巷72-1號","121.431116666667","25.01995","6500500","新莊區"
"242058","353-BY","2017/07/03 20:29:53","新北市新莊區四維路201號","121.421883333333","25.0205866666667","6500500","新莊區"
"242011","132-UY","2017/07/03 20:29:45","新北市新莊區中義街38號","121.449921666667","25.05117","6500500","新莊區"
"242034","133-UY","2017/07/03 20:29:59","新北市新莊區中正路317號","121.447953333333","25.03509","6500500","新莊區"
"242019","135-UY","2017/07/03 20:29:54","新北市新莊區銘德街22號","121.458663333333","25.04376","6500500","新莊區"
"242044","172-VK","2017/07/03 20:29:58","新北市新莊區中正路新建巷55號","121.414778333333","25.021455","6500500","新莊區"
"242007","173-VK","2017/07/03 20:29:51","新北市新莊區思源路333號","121.459688333333","25.0496933333333","6500500","新莊區"
"242056","176-VK","2017/07/03 20:29:47","新北市新莊區瓊泰路181號","121.443058333333","25.0315716666667","6500500","新莊區"
"242004","346-TH","2017/07/03 20:29:57","新北市新莊區化成路746巷32號","121.467","25.0579633333333","6500500","新莊區"
"242048","347-TH","2017/07/03 20:29:50","新北市新莊區龍安路252-2號","121.421246666667","25.019545","6500500","新莊區"
"242017","348-TH","2017/07/03 20:29:57","新北市新莊區中港二街47號","121.450431666667","25.04594","6500500","新莊區"
"242053","349-TH","2017/07/03 20:29:58","新北市新莊區民安西路237號","121.426055","25.0139433333333","6500500","新莊區"
"242015","350-TH","2017/07/03 20:29:51","新北市新莊區永樂街248號","121.445628333333","25.0444283333333","6500500","新莊區"
"242009","351-TH","2017/07/03 20:29:49","新北市新莊區福壽街99巷8弄4號","121.456873333333","25.0506266666667","6500500","新莊區"
"238010","601-UM","2017/07/03 20:29:48","新北市樹林區育德街78號","121.387606666667","24.9683166666667","6500700","樹林區"
"238025","303-VK","2017/07/03 20:29:45","新北市樹林區育德街78-1號","121.387796666667","24.968105","6500700","樹林區"
"221008","489-VK","2017/07/03 20:29:54","新北市汐止區康寧街379號","121.628763333333","25.0677183333333","6501100","汐止區"
"221036","130-UY","2017/07/03 20:29:38","新北市汐止區新台五路二段148號","121.664175","25.0666483333333","6501100","汐止區"
"221015","131-UY","2017/07/03 20:29:50","新北市汐止區建成路142巷19弄12號","121.661981666667","25.0739733333333","6501100","汐止區"
"221010","269-BY","2017/07/03 20:29:38","新北市汐止區八連路二段494號","121.62854","25.1065533333333","6501100","汐止區"
"221031","277-VK","2017/07/03 00:12:51","新北市汐止區汐萬路一段256巷3號","121.652505","25.0745666666667","6501100","汐止區"
"221012","278-VK","2017/07/03 20:29:50","新北市汐止區大同路三段279號","121.67415","25.075085","6501100","汐止區"
"221023","279-VK","2017/07/03 19:35:17","新北市汐止區原興路76巷8號","121.632186666667","25.0665233333333","6501100","汐止區"
"221032","280-BY","2017/07/03 20:29:50","新北市汐止區弘道街53巷16號","121.618718333333","25.0491716666667","6501100","汐止區"
"221027","281-BY","2017/07/03 20:29:48","新北市汐止區中正路247號","121.65744","25.068575","6501100","汐止區"
"221010","297-VK","2017/07/03 20:29:52","新北市汐止區忠孝東路462巷25號","121.666353333333","25.0735433333333","6501100","汐止區"
"221029","298-VK","2017/07/03 20:29:48","新北市汐止區樟樹一路119巷10弄19號","121.64047","25.0646316666667","6501100","汐止區"
"221021","299-VK","2017/07/03 19:39:21","新北市汐止區大同路二段130號","121.651475","25.0638466666667","6501100","汐止區"
"221035","622-UM","2017/07/03 20:29:52","新北市汐止區長江街101-5號","121.658743333333","25.0731533333333","6501100","汐止區"
"221025","623-UM","2017/07/03 20:29:35","新北市汐止區水源路二段88巷1弄5號","121.656501666667","25.0556583333333","6501100","汐止區"
"221033","647-BX","2017/07/03 20:29:44","新北市汐止區林森街73巷9號","121.623618333333","25.0410083333333","6501100","汐止區"
"221002","707-TV","2017/07/03 20:29:54","新北市汐止區福德三路75號","121.636421666667","25.06923","6501100","汐止區"
"221018","753-BX","2017/07/03 20:29:48","新北市汐止區茄苳路233號","121.671258333333","25.0685283333333","6501100","汐止區"
"220103","257-TC","2017/07/03 20:29:48","新北市板橋區漢生東路23巷26號","121.4656","25.0176716666667","6500100","板橋區"
"220083","286-VK","2017/07/03 20:29:57","新北市板橋區僑中二街100巷24號","121.445021666667","25.0086283333333","6500100","板橋區"
"220061","293-UM","2017/07/03 20:29:44","新北市板橋區四川路一段286巷12號","121.458285","25.00103","6500100","板橋區"
"220089","487-VK","2017/07/03 20:29:42","新北市板橋區四維路133號","121.46506","25.025195","6500100","板橋區"
"220081","630-UY","2017/07/03 20:29:43","新北市板橋區僑中一街80巷5弄12號","121.447258333333","25.0125716666667","6500100","板橋區"
"220102","830-TW","2017/07/03 20:29:47","新北市板橋區民生路二段181號","121.469488333333","25.0203683333333","6500100","板橋區"
"220074","895-R6","2017/07/03 20:29:45","新北市板橋區館前西路92號","121.457406666667","25.00731","6500100","板橋區"
"220070","AAC-253","2017/07/03 20:29:56","新北市板橋區四川路二段245巷53號","121.452126666667","24.99236","6500100","板橋區"
