"lineid","car","time","location","longitude","latitude","cityid","cityname"
"234030","746-BX","2017/07/03 20:59:46","新北市三重區光復路二段143巷11號","121.4748","25.0596","6500400","永和區"
"231059","046-UY","2017/07/03 20:59:47","新北市新店區僑信路88號","121.499781666667","24.94795","6500600","新店區"
"231060","106-UY","2017/07/03 20:59:52","新北市新店區安康路三段525巷58號","121.481953333333","24.9451366666667","6500600","新店區"
"231051","107-UY","2017/07/03 20:59:44","新北市新店區民生路156巷85號","121.527325","24.9820316666667","6500600","新店區"
"231047","108-UY","2017/07/03 20:59:48","新北市新店區文化路124號","121.545298333333","24.9827483333333","6500600","新店區"
"231057","256-BX","2017/07/03 20:59:54","新北市新店區新烏路一段106號","121.54617","24.9362533333333","6500600","新店區"
"231063","268-BY","2017/07/03 20:59:45","新北市新店區富貴街12巷2號","121.494068333333","24.9493866666667","6500600","新店區"
"231050","AAD-862","2017/07/03 20:59:49","新北市新店區三民路117巷1弄2號","121.534641666667","24.9718133333333","6500600","新店區"
"231067","4772-VM","2017/07/03 20:59:52","新北市新店區安華路30巷3號","121.518983333333","24.9589766666667","6500600","新店區"
"231065","512-UM","2017/07/03 20:59:57","新北市新店區安祥路69巷50號","121.482123333333","24.960085","6500600","新店區"
"231054","513-UM","2017/07/03 20:59:59","新北市新店區北新路一段96巷23號","121.543056666667","24.968825","6500600","新店區"
"231064","515-UM","2017/07/03 20:59:40","新北市新店區安民街365巷6號","121.516233333333","24.9757033333333","6500600","新店區"
"231042","616-UM","2017/07/03 20:59:55","新北市新店區寶橋路221號","121.549256666667","24.9774583333333","6500600","新店區"
"231061","618-UM","2017/07/03 20:59:59","新北市新店區永安街62巷2號","121.519211666667","24.9868683333333","6500600","新店區"
"231040","619-UM","2017/07/03 20:59:43","新北市新店區中正路114號","121.542496666667","24.971095","6500600","新店區"
"231068","718-UY","2017/07/03 20:59:49","新北市新店區中興路三段129號","121.545016666667","24.9788933333333","6500600","新店區"
"231062","720-UM","2017/07/03 20:59:44","新北市新店區裕合街82號","121.490316666667","24.94855","6500600","新店區"
"231043","899-TW","2017/07/03 20:59:52","新北市新店區建國路127號","121.539665","24.9780433333333","6500600","新店區"
"231066","AKT-0513","2017/07/03 20:59:42","新北市新店區吉安街9號","121.516741666667","24.9657133333333","6500600","新店區"
"241028","022-UY","2017/07/03 20:59:44","新北市三重區新北大道一段1號","121.491403333333","25.0612683333333","6500200","三重區"
"241008","059-VK","2017/07/03 20:59:44","新北市三重區力行路二段162巷3號","121.482735","25.0765616666667","6500200","三重區"
"241009","060-VK","2017/07/03 20:59:50","新北市三重區車路頭街180號","121.483653333333","25.0770566666667","6500200","三重區"
"241031","061-VK","2017/07/03 20:59:37","新北市三重區重陽路一段113巷2弄2號","121.487435","25.0598633333333","6500200","三重區"
"241015","062-VK","2017/07/03 20:59:41","新北市三重區福德北路69號","121.502023333333","25.065665","6500200","三重區"
"241017","063-VK","2017/07/03 20:59:51","新北市三重區重陽路三段5巷48號","121.492006666667","25.06488","6500200","三重區"
"241024","065-VK","2017/07/03 20:59:52","新北市三重區大勇街49號","121.481295","25.0719783333333","6500200","三重區"
"241026","066-VK","2017/07/03 20:59:44","新北市三重區文化南路32號","121.500243333333","25.0614966666667","6500200","三重區"
"241002","090-VK","2017/07/03 20:59:46","新北市三重區仁義街159巷1號","121.49739","25.0811416666667","6500200","三重區"
"241003","091-VK","2017/07/03 20:59:54","新北市三重區仁義街252號","121.493811666667","25.0860216666667","6500200","三重區"
"241025","156-TC","2017/07/03 20:59:56","新北市三重區貴陽街21號","121.48431","25.061925","6500200","三重區"
"241005","262-UM","2017/07/03 20:59:57","新北市三重區五華街143號","121.490645","25.0845933333333","6500200","三重區"
"241011","265-UM","2017/07/03 20:59:49","新北市三重區秀江街119-1號","121.499671666667","25.0721883333333","6500200","三重區"
"241016","266-UM","2017/07/03 21:00:00","新北市三重區自強路一段125號","121.49523","25.0664166666667","6500200","三重區"
"241022","267-UM","2017/07/03 20:59:51","新北市三重區重陽路二段19巷10號","121.48787","25.06248","6500200","三重區"
"241018","268-UM","2017/07/03 20:59:45","新北市三重區自強路一段232號","121.4934","25.0669816666667","6500200","三重區"
"241032","269-UM","2017/07/03 20:59:57","新北市三重區興華街129號","121.483248333333","25.05992","6500200","三重區"
"241013","270-UM","2017/07/03 20:59:41","新北市三重區仁愛街127號","121.49551","25.0747683333333","6500200","三重區"
"241007","398-BY","2017/07/03 20:59:48","新北市三重區慈愛街9-1號","121.485171666667","25.078705","6500200","三重區"
"241020","413-TH","2017/07/03 20:59:47","新北市三重區忠孝路二段35號","121.485928333333","25.071045","6500200","三重區"
"241004","475-VK","2017/07/03 20:59:49","新北市三重區仁愛街423-1號","121.490348333333","25.0814733333333","6500200","三重區"
"241019","478-VK","2017/07/03 20:59:56","新北市三重區三張街104號","121.487868333333","25.0699183333333","6500200","三重區"
"241030","480-VK","2017/07/03 20:59:41","新北市三重區昌隆街26號","121.492055","25.0522233333333","6500200","三重區"
"241014","543-UM","2017/07/03 20:59:44","新北市三重區長榮路77號","121.502666666667","25.069155","6500200","三重區"
"241001","547-UM","2017/07/03 20:59:56","新北市三重區三和路四段118巷26號","121.487565","25.07447","6500200","三重區"
"241006","AAD-863","2017/07/03 20:59:55","新北市三重區永福街68號","121.479141666667","25.076905","6500200","三重區"
"241023","887-TS","2017/07/03 20:59:51","新北市三重區忠孝路三段50巷41弄70號","121.48221","25.0637033333333","6500200","三重區"
"241012","941-UM","2017/07/03 20:59:42","新北市三重區龍門路274巷45號","121.501175","25.0755566666667","6500200","三重區"
"241029","942-UM","2017/07/03 20:59:47","新北市三重區正義南路107號","121.498238333333","25.0585516666667","6500200","三重區"
"241033","AAC-255","2017/07/03 20:59:51","新北市三重區光復路二段86號","121.472091666667","25.05736","6500200","三重區"
"235026","031-BX","2017/07/03 20:07:49","新北市中和區員山路36巷16-2號","121.485378333333","24.9916816666667","6500300","中和區"
"235037","AAC-213","2017/07/03 20:59:46","新北市新店區安德街148巷31號","121.506286666667","24.9606416666667","6500300","中和區"
"247020","893-R6","2017/07/03 20:59:52","新北市蘆洲區民族路484號","121.471078333333","25.091315","6501400","蘆洲區"
"247018","500-BY","2017/07/03 20:59:57","新北市蘆洲區民權路87-3號","121.473043333333","25.0888433333333","6501400","蘆洲區"
"247008","339-TH","2017/07/03 20:59:42","新北市蘆洲區民生街74號","121.472873333333","25.0791116666667","6501400","蘆洲區"
"247024","337-TH","2017/07/03 20:59:51","新北市蘆洲區光明路20號","121.461211666667","25.086535","6501400","蘆洲區"
"247002","336-TH","2017/07/03 20:59:57","新北市蘆洲區長安街315號","121.457481666667","25.0860933333333","6501400","蘆洲區"
"247014","057-VK","2017/07/03 20:59:43","新北市蘆洲區得勝街67-1號","121.473925","25.083675","6501400","蘆洲區"
"247004","056-VK","2017/07/03 20:59:51","新北市蘆洲區永安南路二段268號","121.458663333333","25.0807466666667","6501400","蘆洲區"
"247006","053-VK","2017/07/03 20:58:34","新北市蘆洲區永安南路二段16巷15號","121.467913333333","25.07779","6501400","蘆洲區"
"247012","007-UY","2017/07/03 20:59:48","新北市蘆洲區民權路5號","121.476623333333","25.085785","6501400","蘆洲區"
"247022","002-UY","2017/07/03 20:59:53","新北市蘆洲區中正路196號","121.46691","25.08828","6501400","蘆洲區"
"247016","001-UY","2017/07/03 20:59:54","新北市蘆洲區正和街83號","121.468156666667","25.0807016666667","6501400","蘆洲區"
"224011","420-VK","2017/07/03 20:25:36","新北市瑞芳區明燈路二段66號","121.809341666667","25.107575","6501200","瑞芳區"
"251001","011-UM","2017/07/03 20:59:46","新北市淡水區北新路一段2-15號","121.453481666667","25.18045","6501000","淡水區"
"251007","179-VK","2017/07/03 20:59:57","新北市淡水區仁愛街2巷10號","121.446266666667","25.170755","6501000","淡水區"
"251005","180-VK","2017/07/03 20:59:40","新北市淡水區學府路96號","121.449285","25.1710033333333","6501000","淡水區"
"251013","182-VK","2017/07/03 20:59:53","新北市淡水區埤島52號","121.464061666667","25.1992566666667","6501000","淡水區"
"251010","413-VK","2017/07/03 20:59:49","新北市淡水區中正路一段116-3號","121.423908333333","25.1787516666667","6501000","淡水區"
"251012","441-VK","2017/07/03 20:59:41","新北市淡水區淡金路五段98號","121.456286666667","25.2361033333333","6501000","淡水區"
"251015","442-VK","2017/07/03 20:59:56","新北市淡水區淡金路四段542巷17號","121.452703333333","25.22708","6501000","淡水區"
"251011","650-BX","2017/07/03 20:59:42","新北市淡水區新民街294號","121.435136666667","25.1821983333333","6501000","淡水區"
"251002","672-BX","2017/07/03 20:59:47","新北市淡水區英專路112號","121.445865","25.172065","6501000","淡水區"
"251003","766-UM","2017/07/03 20:59:48","新北市淡水區新春街125巷16號","121.441671666667","25.1824033333333","6501000","淡水區"
"252001","702-TV","2017/07/03 20:59:43","新北市三芝區埔坪里埔頭坑41號","121.504583333333","25.2646916666667","6502100","三芝區"
"242036","566-BX","2017/07/03 20:59:43","新北市新莊區中正路517-2號","121.439833333333","25.0333883333333","6500500","新莊區"
"242002","413-TV","2017/07/03 20:59:45","新北市新莊區環漢路二段385號","121.450925","25.03245","6500500","新莊區"
"242034","133-UY","2017/07/03 20:59:41","新北市新莊區環漢路三段525號","121.435523333333","25.0023316666667","6500500","新莊區"
"242015","350-TH","2017/07/03 20:59:51","新北市新莊區中港一街142號","121.4468","25.0448883333333","6500500","新莊區"
"238010","601-UM","2017/07/03 20:59:48","新北市樹林區中山路三段204號","121.38714","24.9680466666667","6500700","樹林區"
"238022","312-TH","2017/07/03 20:46:33","新北市樹林區育德街78-1號","121.387836666667","24.9680883333333","6500700","樹林區"
"221010","297-VK","2017/07/03 20:59:52","新北市汐止區汐萬路一段256巷3號","121.652081666667","25.0748333333333","6501100","汐止區"
"221029","298-VK","2017/07/03 20:59:48","新北市汐止區康寧街901號","121.65169","25.0749083333333","6501100","汐止區"
"221033","647-BX","2017/07/03 20:59:44","新北市汐止區大同路二段269號","121.652313333333","25.0668666666667","6501100","汐止區"
"221002","707-TV","2017/07/03 20:59:54","新北市汐止區樟樹二路339號","121.640078333333","25.07269","6501100","汐止區"
"221018","753-BX","2017/07/03 20:59:48","新北市汐止區大同路二段605號","121.66406","25.07068","6501100","汐止區"
"220102","830-TW","2017/07/03 20:59:47","新北市八里區下罟子17號","121.3796","25.143045","6500100","板橋區"
"220070","AAC-253","2017/07/03 20:59:56","新北市五股區成泰路三段544-1號","121.453903333333","25.10176","6500100","板橋區"
