"lineid","car","time","location","longitude","latitude","cityid","cityname"
"234030","746-BX","2017/07/03 21:09:46","新北市八里區商港路12號","121.396966666667","25.1446016666667","6500400","永和區"
"231059","046-UY","2017/07/03 21:09:47","新北市新店區僑義路4號","121.50038","24.951075","6500600","新店區"
"231060","106-UY","2017/07/03 21:09:52","新北市新店區安康路三段2號","121.493923333333","24.9538016666667","6500600","新店區"
"231051","107-UY","2017/07/03 21:09:44","新北市新店區中正路663巷1弄17號","121.532643333333","24.989735","6500600","新店區"
"231047","108-UY","2017/07/03 21:09:48","新北市新店區寶強路19號","121.543223333333","24.9793","6500600","新店區"
"231063","268-BY","2017/07/03 21:09:45","新北市新店區玫瑰路58巷1號","121.495458333333","24.9465933333333","6500600","新店區"
"231050","AAD-862","2017/07/03 21:09:49","新北市新店區三民路77號","121.535978333333","24.97147","6500600","新店區"
"231067","4772-VM","2017/07/03 21:09:52","新北市新店區安德街148巷32號","121.507333333333","24.960595","6500600","新店區"
"231065","512-UM","2017/07/03 21:09:57","新北市新店區安祥路69巷52弄1號","121.481923333333","24.9598333333333","6500600","新店區"
"231054","513-UM","2017/07/03 21:09:59","新北市新店區中興路一段267號","121.544866666667","24.967535","6500600","新店區"
"231064","515-UM","2017/07/03 21:09:40","新北市新店區安民街251巷5號","121.516653333333","24.9727366666667","6500600","新店區"
"231042","616-UM","2017/07/03 21:09:55","新北市新店區寶興路60巷3號","121.549876666667","24.9718516666667","6500600","新店區"
"231061","618-UM","2017/07/03 21:09:43","新北市新店區永平街51巷1號","121.516176666667","24.9840783333333","6500600","新店區"
"231040","619-UM","2017/07/03 21:09:43","新北市新店區北新路一段100號","121.542035","24.9695133333333","6500600","新店區"
"231062","720-UM","2017/07/03 21:09:44","新北市新店區雙城路60巷16弄13號","121.49168","24.9479383333333","6500600","新店區"
"231066","AKT-0513","2017/07/03 21:09:42","新北市新店區薏仁坑路自強巷1號","121.496783333333","24.9580016666667","6500600","新店區"
"241028","022-UY","2017/07/03 21:09:44","新北市三重區正義南路54號","121.498225","25.0607883333333","6500200","三重區"
"241008","059-VK","2017/07/03 21:09:44","新北市三重區自強路一段60號","121.497298333333","25.0667816666667","6500200","三重區"
"241009","060-VK","2017/07/03 21:09:50","新北市三重區忠孝路二段122號","121.483008333333","25.0687816666667","6500200","三重區"
"241031","061-VK","2017/07/03 21:09:57","新北市三重區重新路五段426號","121.475246666667","25.04753","6500200","三重區"
"241015","062-VK","2017/07/03 21:09:53","新北市三重區長元街59號","121.502618333333","25.0664733333333","6500200","三重區"
"241017","063-VK","2017/07/03 21:09:50","新北市三重區國隆路31號","121.492273333333","25.064525","6500200","三重區"
"241024","065-VK","2017/07/03 21:09:52","新北市三重區大勇街49號","121.481306666667","25.07198","6500200","三重區"
"241026","066-VK","2017/07/03 21:09:44","新北市三重區文化南路42號","121.500351666667","25.06027","6500200","三重區"
"241002","090-VK","2017/07/03 21:09:46","新北市三重區五華街10號","121.495","25.0801566666667","6500200","三重區"
"241003","091-VK","2017/07/03 21:09:54","新北市三重區進安街198號","121.493935","25.08598","6500200","三重區"
"241025","156-TC","2017/07/03 21:09:56","新北市三重區新北大道一段7號","121.489716666667","25.0611966666667","6500200","三重區"
"241005","262-UM","2017/07/03 21:09:37","新北市三重區三信路186號","121.487973333333","25.0861133333333","6500200","三重區"
"241011","265-UM","2017/07/03 21:09:49","新北市三重區龍濱路251號","121.501498333333","25.07261","6500200","三重區"
"241016","266-UM","2017/07/03 21:09:41","新北市三重區信義西街138號","121.495606666667","25.064285","6500200","三重區"
"241022","267-UM","2017/07/03 21:09:51","新北市三重區中正北路64巷24號","121.486071666667","25.0636733333333","6500200","三重區"
"241018","268-UM","2017/07/03 21:09:45","新北市三重區正義北路332-1號","121.494361666667","25.07052","6500200","三重區"
"241032","269-UM","2017/07/03 21:09:37","新北市三重區光復路二段175號","121.472461666667","25.0615483333333","6500200","三重區"
"241013","270-UM","2017/07/03 21:09:41","新北市三重區仁愛街127號","121.495476666667","25.0747466666667","6500200","三重區"
"241007","398-BY","2017/07/03 21:09:48","新北市三重區三和路四段145巷85號","121.486396666667","25.0788266666667","6500200","三重區"
"241020","413-TH","2017/07/03 21:09:47","新北市三重區忠孝路二段34號","121.485878333333","25.0709583333333","6500200","三重區"
"241004","475-VK","2017/07/03 21:09:49","新北市三重區仁愛街418號","121.49044","25.081415","6500200","三重區"
"241019","478-VK","2017/07/03 21:09:56","新北市三重區三張街104號","121.487905","25.06992","6500200","三重區"
"241030","480-VK","2017/07/03 21:09:41","新北市三重區五谷王北街20巷15弄1號","121.47507","25.0484766666667","6500200","三重區"
"241014","543-UM","2017/07/03 21:09:44","新北市三重區長安街82-1號","121.501448333333","25.0677116666667","6500200","三重區"
"241001","547-UM","2017/07/03 21:09:36","新北市三重區自強路四段32-2號","121.489025","25.077135","6500200","三重區"
"241006","AAD-863","2017/07/03 21:09:55","新北市三重區中正北路105號","121.489505","25.0633216666667","6500200","三重區"
"241023","887-TS","2017/07/03 21:09:51","新北市三重區忠孝路三段50巷41弄70號","121.482203333333","25.06374","6500200","三重區"
"241012","941-UM","2017/07/03 21:09:44","新北市三重區仁信街25號","121.50133","25.0756233333333","6500200","三重區"
"241029","942-UM","2017/07/03 21:09:47","新北市三重區正義南路107號","121.498215","25.058535","6500200","三重區"
"241033","AAC-255","2017/07/03 21:09:51","新北市三重區新北大道二段45號","121.469835","25.0613316666667","6500200","三重區"
"235026","031-BX","2017/07/03 20:07:49","新北市中和區員山路36巷16-2號","121.485378333333","24.9916816666667","6500300","中和區"
"235037","AAC-213","2017/07/03 21:09:46","新北市新店區薏仁坑路8-2號","121.499373333333","24.958895","6500300","中和區"
"247020","893-R6","2017/07/03 21:09:52","新北市蘆洲區民族路436巷7號","121.472748333333","25.092885","6501400","蘆洲區"
"247010","546-UM","2017/07/03 21:09:56","新北市蘆洲區鷺江街48號","121.477235","25.0832216666667","6501400","蘆洲區"
"247018","500-BY","2017/07/03 21:09:57","新北市蘆洲區民族路408巷18-1號","121.475041666667","25.0921883333333","6501400","蘆洲區"
"247008","339-TH","2017/07/03 21:09:44","新北市蘆洲區信義路34巷14號","121.474583333333","25.0788366666667","6501400","蘆洲區"
"247024","337-TH","2017/07/03 21:09:51","新北市蘆洲區長興路50巷1號","121.463821666667","25.0837216666667","6501400","蘆洲區"
"247002","336-TH","2017/07/03 21:09:57","新北市蘆洲區永平街20號","121.459121666667","25.09078","6501400","蘆洲區"
"247014","057-VK","2017/07/03 21:09:43","新北市蘆洲區中央路155號","121.472608333333","25.0846783333333","6501400","蘆洲區"
"247004","056-VK","2017/07/03 21:09:51","新北市蘆洲區永安南路二段320號","121.457051666667","25.0826783333333","6501400","蘆洲區"
"247006","053-VK","2017/07/03 21:09:14","新北市蘆洲區九芎街15巷12號","121.467953333333","25.0778716666667","6501400","蘆洲區"
"247012","007-UY","2017/07/03 21:09:55","新北市蘆洲區復興路86號","121.475321666667","25.08677","6501400","蘆洲區"
"247022","002-UY","2017/07/03 21:09:53","新北市蘆洲區民族路584號","121.466826666667","25.0885116666667","6501400","蘆洲區"
"247016","001-UY","2017/07/03 21:09:54","新北市蘆洲區和平路157號","121.466741666667","25.0807766666667","6501400","蘆洲區"
"224011","420-VK","2017/07/03 20:25:36","新北市瑞芳區明燈路二段66號","121.809341666667","25.107575","6501200","瑞芳區"
"251009","008-UM","2017/07/03 21:09:45","新北市淡水區民權路187巷74弄9號","121.46209","25.13439","6501000","淡水區"
"251004","009-UM","2017/07/03 21:09:56","新北市淡水區民族路10-3號","121.460498333333","25.1364983333333","6501000","淡水區"
"251001","011-UM","2017/07/03 21:09:46","新北市淡水區新市一路三段101巷16弄14號","121.446796666667","25.183875","6501000","淡水區"
"251005","180-VK","2017/07/03 21:09:40","新北市淡水區博愛街61號","121.446896666667","25.1688783333333","6501000","淡水區"
"251013","182-VK","2017/07/03 21:09:53","新北市淡水區行忠路328號","121.460496666667","25.19965","6501000","淡水區"
"251010","413-VK","2017/07/03 21:09:49","新北市淡水區中正路一段63巷9號","121.422458333333","25.1770583333333","6501000","淡水區"
"251012","441-VK","2017/07/03 21:09:41","新北市淡水區淡金路五段172號","121.457093333333","25.23995","6501000","淡水區"
"251015","442-VK","2017/07/03 21:09:56","新北市淡水區淡金路四段542巷66號","121.455258333333","25.2263633333333","6501000","淡水區"
"251011","650-BX","2017/07/03 21:09:42","新北市淡水區新民街222巷16弄10號","121.436945","25.1800783333333","6501000","淡水區"
"251002","672-BX","2017/07/03 21:09:47","新北市淡水區水源街二段2號","121.448878333333","25.1733233333333","6501000","淡水區"
"251003","766-UM","2017/07/03 21:09:48","新北市淡水區新春街95號","121.439446666667","25.1825983333333","6501000","淡水區"
"252001","702-TV","2017/07/03 21:09:43","新北市三芝區埔坪里埔頭坑41號","121.50457","25.264435","6502100","三芝區"
"242034","133-UY","2017/07/03 21:09:41","新北市樹林區八德街495-3號","121.401603333333","24.9693166666667","6500500","新莊區"
"238022","312-TH","2017/07/03 20:46:33","新北市樹林區育德街78-1號","121.387836666667","24.9680883333333","6500700","樹林區"
"221029","298-VK","2017/07/03 21:09:48","新北市汐止區康寧街901號","121.651693333333","25.07493","6501100","汐止區"
"221002","707-TV","2017/07/03 21:09:54","新北市汐止區汐萬路一段256巷3號","121.652466666667","25.0746066666667","6501100","汐止區"
"221018","753-BX","2017/07/03 21:09:48","新北市汐止區汐萬路一段256巷3號","121.65257","25.074515","6501100","汐止區"
"220102","830-TW","2017/07/03 21:08:47","新北市林口區太平里180號","121.367911666667","25.1335916666667","6500100","板橋區"
"220070","AAC-253","2017/07/03 21:09:56","新北市八里區下罟子17號","121.380793333333","25.14367","6500100","板橋區"
