"lineid","car","time","location","longitude","latitude","cityid","cityname"
"235026","031-BX","2017/07/03 20:07:49","新北市中和區員山路36巷16-2號","121.485378333333","24.9916816666667","6500300","中和區"
"251004","009-UM","2017/07/03 22:29:56","新北市淡水區民族路29巷2號","121.461025","25.136695","6501000","淡水區"
"251007","179-VK","2017/07/03 22:29:57","新北市淡水區北新路155號","121.449898333333","25.1790966666667","6501000","淡水區"
"251008","181-VK","2017/07/03 22:29:39","新北市淡水區學府路104號","121.449833333333","25.1717383333333","6501000","淡水區"
"251015","442-VK","2017/07/03 22:29:56","新北市淡水區水碓街7號","121.443166666667","25.177165","6501000","淡水區"
"251011","650-BX","2017/07/03 22:29:42","新北市淡水區沙崙路200號","121.424821666667","25.1838533333333","6501000","淡水區"
"238022","312-TH","2017/07/03 20:46:33","新北市樹林區育德街78-1號","121.387836666667","24.9680883333333","6500700","樹林區"
