"lineid","car","time","location","longitude","latitude","cityid","cityname"
"232013","705-BZ","2017/07/04 07:39:53","新北市坪林區北宜路七段338號","121.696986666667","24.934915","6502000","坪林區"
"244001","248-BX","2017/07/04 07:39:39","新北市林口區南勢里71-96號","121.348986666667","25.08362","6501700","林口區"
"243002","548-UM","2017/07/04 07:09:02","新北市泰山區泰林路三段28巷8號","121.418711666667","25.065265","6501600","泰山區"
"222004","289-BY","2017/07/04 07:21:13","新北市深坑區昇高坑路72號","121.631028333333","24.98767","6501800","深坑區"
"247002","402-BY","2017/07/04 07:39:53","新北市蘆洲區三民路122號","121.471125","25.0873033333333","6501400","蘆洲區"
"226005","5620-A6","2017/07/04 07:39:39","新北市平溪區嶺腳里嶺腳寮66號","121.747488333333","25.0320566666667","6502400","平溪區"
"226002","7418-A5","2017/07/04 07:39:39","新北市平溪區平湖里大厝1號","121.77942","25.0353933333333","6502400","平溪區"
"226003","AGD-0702","2017/07/04 07:39:46","新北市平溪區嶺腳里嶺腳寮32-1號","121.748551666667","25.0305216666667","6502400","平溪區"
"223006","022-BY","2017/07/04 07:39:49","新北市坪林區北宜路八段451號","121.706848333333","24.923615","6501900","石碇區"
"223002","198-BX","2017/07/04 07:39:52","新北市石碇區北宜路六段塗潭巷6號","121.645221666667","24.93495","6501900","石碇區"
"223003","205-TH","2017/07/04 07:39:32","新北市石碇區蛇舌子11-2號","121.660081666667","24.97045","6501900","石碇區"
"223008","406-TH","2017/07/04 07:39:41","新北市石碇區藤寮坑2號","121.702933333333","25.0091","6501900","石碇區"
"223001","592-UM","2017/07/04 07:35:29","新北市石碇區烏塗窟46號","121.656055","24.9724333333333","6501900","石碇區"
"223004","660-BX","2017/07/04 07:39:41","新北市石碇區楓子林36-3號","121.64235","25.0095466666667","6501900","石碇區"
"223007","661-BX","2017/07/04 07:39:48","新北市石碇區大溪墘16-1號","121.6927","25.008455","6501900","石碇區"
"223005","677-TV","2017/07/04 07:39:39","新北市石碇區楓子林37號","121.642296666667","25.0098816666667","6501900","石碇區"
"227006","282-VK","2017/07/04 07:39:36","新北市雙溪區雙溪里太平路43號","121.864796666667","25.0355883333333","6502500","雙溪區"
"252004","249-BX","2017/07/04 07:39:49","新北市三芝區興華里楓子林55-1號","121.500795","25.2141383333333","6502100","三芝區"
"252007","AAC-283","2017/07/04 00:59:10","新北市三芝區埔坪里埔頭坑41號","121.504495","25.2644516666667","6502100","三芝區"
"237001","159-UY","2017/07/04 07:39:46","新北市三峽區國慶路144號","121.375653333333","24.93987","6500900","三峽區"
"236008","165-UM","2017/07/04 07:39:45","新北市土城區清水路318號","121.463651666667","24.985165","6501300","土城區"
"236002","339-SR","2017/07/04 07:38:44","新北市土城區龍泉路114號","121.447945","24.9431783333333","6501300","土城區"
"220021","282-UM","2017/07/04 07:39:42","新北市板橋區國光路51號","121.458033333333","25.0179316666667","6500100","板橋區"
