"lineid","car","time","location","longitude","latitude","cityid","cityname"
"248005","653-BX","2017/09/15 10:09:16","新北市五股區中興路二段37巷24號","121.460655","25.0751366666667","6501500","五股區"
"231009","110-UY","2017/09/15 09:38:47","新北市新店區平廣路一段256號","121.50699","24.8876883333333","6500600","新店區"
"231007","189-VK","2017/09/15 10:09:30","新北市新店區新潭路三段215巷25號","121.508141666667","24.90404","6500600","新店區"
"227005","282-VK","2017/09/15 09:51:21","新北市雙溪區泰平里灣潭路36號","121.812185","24.92877","6502500","雙溪區"
"236006","498-BY","2017/09/15 10:09:14","新北市土城區中央路三段38號","121.438365","24.96879","6501300","土城區"
"239001","417-VK","2017/09/15 10:09:20","桃園市八德區東勇街616巷85號","121.311893333333","24.9723466666667","6500800","鶯歌區"
