"lineid","car","time","location","longitude","latitude","cityid","cityname"
"231009","110-UY","2017/09/15 10:43:27","新北市新店區小坑一路21-1號","121.532466666667","24.9128283333333","6500600","新店區"
"231007","189-VK","2017/09/15 10:43:32","新北市新店區新潭路二段88號","121.517003333333","24.9251666666667","6500600","新店區"
"235025","378-QA","2017/09/15 03:50:22","新北市中和區員山路36巷13號","121.484038333333","24.9916","6500300","中和區"
"227005","282-VK","2017/09/15 10:42:00","新北市雙溪區泰平里泰平43-1號","121.833486666667","24.9798033333333","6502500","雙溪區"
"239001","417-VK","2017/09/15 10:41:00","新北市鶯歌區二甲路12-2號","121.345891666667","24.9348833333333","6500800","鶯歌區"
