"lineid","car","time","location","longitude","latitude","cityid","cityname"
"234046","148-BY","2017/09/15 19:09:20","新北市永和區永元路18巷16號","121.523096666667","25.0001566666667","6500400","永和區"
"234012","149-BY","2017/09/15 19:09:23","新北市永和區保福路二段67號","121.510573333333","25.0124533333333","6500400","永和區"
"234007","207-UY","2017/09/15 19:09:21","新北市永和區保平路268巷51弄12號","121.50633","25.00646","6500400","永和區"
"234081","298-R6","2017/09/15 19:09:26","新北市永和區永貞路41號","121.52097","25.0064733333333","6500400","永和區"
"234064","337-UY","2017/09/15 19:09:06","新北市永和區秀朗路二段56號","121.522048333333","25.0019083333333","6500400","永和區"
"234086","338-UY","2017/09/15 19:09:23","新北市永和區永貞路120號","121.518655","25.0045283333333","6500400","永和區"
"234070","552-UM","2017/09/15 19:09:05","新北市永和區豫溪街89號","121.518395","25.0100533333333","6500400","永和區"
"234054","553-UM","2017/09/15 19:09:18","新北市永和區竹林路72巷6號","121.518858333333","25.0128266666667","6500400","永和區"
"234017","745-BX","2017/09/15 19:09:11","新北市永和區文化路90巷3弄2號","121.513836666667","25.0156133333333","6500400","永和區"
"234030","746-BX","2017/09/15 19:09:22","新北市永和區民生路25巷9號","121.523705","24.998745","6500400","永和區"
"234061","AAD-866","2017/09/15 19:09:12","新北市永和區安樂路306-8號","121.514715","25.0053783333333","6500400","永和區"
"234042","862-TW","2017/09/15 19:09:18","新北市永和區保平路111巷2弄12號","121.510705","25.0061","6500400","永和區"
"234050","863-TW","2017/09/15 19:09:22","新北市永和區文化路135巷32弄1號","121.510883333333","25.0141033333333","6500400","永和區"
"234026","9371-KE","2017/09/15 19:09:21","新北市永和區安樂路276號","121.514701666667","25.0042966666667","6500400","永和區"
"234011","9373-KE","2017/09/15 19:09:18","新北市永和區信義路25巷53號","121.512275","25.0115733333333","6500400","永和區"
"249005","172-UM","2017/09/15 19:09:09","新北市八里區中華路三段98號","121.392898333333","25.1380866666667","6502300","八里區"
"249001","173-UM","2017/09/15 19:09:14","新北市八里區龍米路二段228-2號","121.432563333333","25.15841","6502300","八里區"
"248016","026-BX","2017/09/15 19:09:13","新北市五股區成泰路三段543巷36弄6號","121.45076","25.1028433333333","6501500","五股區"
"248018","225-UY","2017/09/15 19:09:19","新北市五股區民義路一段220巷16-18號","121.428418333333","25.0934366666667","6501500","五股區"
"248012","247-BX","2017/09/15 19:09:17","新北市五股區中興路四段48巷16號","121.438706666667","25.0834633333333","6501500","五股區"
"248004","677-BX","2017/09/15 19:09:21","新北市五股區六合街3號","121.432","25.0884566666667","6501500","五股區"
"248002","678-BX","2017/09/15 19:09:24","新北市五股區凌雲路一段158巷14號","121.447758333333","25.1033383333333","6501500","五股區"
"248010","682-TV","2017/09/15 19:09:13","新北市五股區水碓一路23號","121.430521666667","25.071355","6501500","五股區"
"234023","9380-KE","2017/09/15 19:09:10","新北市永和區中興街10巷29號","121.516468333333","25.0109733333333","6500400","永和區"
"234077","969-R7","2017/09/15 19:09:25","新北市永和區民族街25號","121.518825","24.999645","6500400","永和區"
"234074","AAC-211","2017/09/15 19:09:14","新北市永和區竹林路198號","121.520526666667","25.0095666666667","6500400","永和區"
"234067","AAC-212","2017/09/15 19:09:11","新北市永和區保平路33號","121.512056666667","25.0072666666667","6500400","永和區"
"234003","AAC-295","2017/09/15 19:09:24","新北市永和區保福路一段51號","121.512455","25.0094016666667","6500400","永和區"
"244013","069-UM","2017/09/15 19:09:18","新北市林口區麗園二街1巷7-3號","121.378175","25.0703766666667","6501700","林口區"
"244019","403-UM","2017/09/15 19:09:22","新北市林口區麗園二街36巷1號","121.380388333333","25.0691","6501700","林口區"
"244009","410-SL","2017/09/15 19:09:18","新北市林口區竹林路446巷2弄8號","121.38789","25.0856533333333","6501700","林口區"
"244023","483-VK","2017/09/15 19:09:25","新北市林口區文化三路一段617巷183號","121.371311666667","25.0781","6501700","林口區"
"244011","656-BX","2017/09/15 19:09:26","新北市林口區中山路97巷12號","121.389463333333","25.07827","6501700","林口區"
"243013","AAD-798","2017/09/15 19:09:17","新北市泰山區明志路三段277號","121.423065","25.0368266666667","6501600","泰山區"
"243009","297-R6","2017/09/15 19:09:13","新北市泰山區明志路一段120號","121.433313333333","25.06362","6501600","泰山區"
"243015","380-SR","2017/09/15 19:09:19","新北市泰山區明志路一段412號","121.430753333333","25.0567866666667","6501600","泰山區"
"243014","421-VK","2017/09/15 19:09:07","新北市泰山區泰林路二段440號","121.426413333333","25.064215","6501600","泰山區"
"243010","KEA-2215","2017/09/15 19:09:11","新北市泰山區明志路一段483巷1弄2號","121.431181666667","25.0553516666667","6501600","泰山區"
"243011","KEA-2216","2017/09/15 19:09:13","新北市泰山區明志路二段320巷3弄1號","121.425683333333","25.0462516666667","6501600","泰山區"
"243012","646-TV","2017/09/15 19:09:10","新北市泰山區辭修路36巷8弄5號","121.427835","25.0586316666667","6501600","泰山區"
"243016","680-BX","2017/09/15 19:09:18","新北市泰山區明志路二段420號","121.424885","25.043885","6501600","泰山區"
"222003","436-BY","2017/09/15 19:09:20","新北市深坑區深南路158號","121.626063333333","25.0145083333333","6501800","深坑區"
"222002","659-BX","2017/09/15 19:09:09","新北市深坑區北深路一段280號","121.628848333333","25.0083866666667","6501800","深坑區"
"222001","696-SL","2017/09/15 19:09:14","新北市深坑區北深路一段300號","121.624245","25.0057883333333","6501800","深坑區"
"231041","002-UM","2017/09/15 19:09:05","新北市新店區溪園路405號","121.524076666667","24.9782066666667","6500600","新店區"
"231059","046-UY","2017/09/15 19:09:12","新北市新店區安和路二段163號","121.518896666667","24.9743333333333","6500600","新店區"
"231061","047-UY","2017/09/15 19:09:24","新北市新店區安康路一段83-1號","121.529601666667","24.9612383333333","6500600","新店區"
"231060","106-UY","2017/09/15 19:09:10","新北市新店區安康路二段240號","121.509176666667","24.9591416666667","6500600","新店區"
"231051","107-UY","2017/09/15 19:09:26","新北市新店區中正路382巷30號","121.535526666667","24.9779933333333","6500600","新店區"
"231048","108-UY","2017/09/15 19:09:14","新北市新店區德正街25巷2號","121.544415","24.9715133333333","6500600","新店區"
"231053","187-VK","2017/09/15 19:09:06","新北市新店區新烏路二段50巷28號","121.547266666667","24.9269","6500600","新店區"
"231050","215-TC","2017/09/15 19:09:10","新北市新店區竹林路2巷31號","121.550446666667","24.9502166666667","6500600","新店區"
"231063","268-BY","2017/09/15 19:09:16","新北市新店區車子路134號","121.505216666667","24.9492383333333","6500600","新店區"
"231046","278-BY","2017/09/15 19:09:16","新北市新店區新潭路一段35號","121.523501666667","24.9418833333333","6500600","新店區"
"231054","AAD-862","2017/09/15 19:09:10","新北市新店區新店路161號","121.537086666667","24.955475","6500600","新店區"
"231058","3712-VJ","2017/09/15 19:09:08","新北市新店區光明街314號","121.540931666667","24.9650333333333","6500600","新店區"
"231055","3713-VJ","2017/09/15 19:09:17","新北市新店區安興路57號","121.516475","24.9719333333333","6500600","新店區"
"231056","4716-K9","2017/09/15 19:09:17","新北市新店區民權路107-1號","121.5364","24.98223","6500600","新店區"
"231067","4772-VM","2017/09/15 19:09:16","新北市新店區安康路一段258號","121.520511666667","24.9639766666667","6500600","新店區"
"231065","512-UM","2017/09/15 19:09:23","新北市新店區安祥路122號","121.474671666667","24.9563983333333","6500600","新店區"
"231064","515-UM","2017/09/15 19:09:15","新北市新店區安忠路90-9號","121.51129","24.9575766666667","6500600","新店區"
"231042","616-UM","2017/09/15 19:09:08","新北市新店區中興路一段115號","121.541395","24.96275","6500600","新店區"
"231045","617-UM","2017/09/15 19:09:19","新北市新店區北宜路一段164號","121.540388333333","24.9533766666667","6500600","新店區"
"231040","619-UM","2017/09/15 19:09:18","新北市新店區三民路98-3號","121.533938333333","24.9734416666667","6500600","新店區"
"231049","719-UM","2017/09/15 19:09:17","新北市新店區二十張路25巷18弄9號","121.539261666667","24.9815516666667","6500600","新店區"
"231062","720-UM","2017/09/15 19:09:26","新北市新店區安平路7-1號","121.524071666667","24.96431","6500600","新店區"
"231044","897-TW","2017/09/15 19:09:27","新北市新店區中興路三段170號","121.54423","24.9809466666667","6500600","新店區"
"231043","899-TW","2017/09/15 19:09:19","新北市新店區寶橋路132號","121.547363333333","24.9759766666667","6500600","新店區"
"231066","AKT-0513","2017/09/15 19:09:27","新北市新店區安康路三段359巷12弄1號","121.484581666667","24.9497183333333","6500600","新店區"
"241026","066-VK","2017/09/15 19:09:23","新北市三重區泉州街72號","121.494768333333","25.0549583333333","6500200","三重區"
"241020","413-TH","2017/09/15 19:09:25","新北市三重區後竹圍街206號","121.486046666667","25.0717733333333","6500200","三重區"
"241035","462-BY","2017/09/15 19:09:25","新北市三重區重陽路一段20巷4號","121.486298333333","25.0564616666667","6500200","三重區"
"241029","942-UM","2017/09/15 19:09:08","新北市三重區集美街241號","121.492291666667","25.0554133333333","6500200","三重區"
"235066","003-UY","2017/09/15 19:09:23","新北市中和區廣福路38號","121.50447","25.002065","6500300","中和區"
"235064","005-UY","2017/09/15 19:09:18","新北市中和區泰和街44巷13號","121.498485","25.0005333333333","6500300","中和區"
"235063","006-UY","2017/09/15 19:09:17","新北市中和區中正路630號","121.485556666667","24.99591","6500300","中和區"
"235056","096-UM","2017/09/15 19:09:13","新北市中和區員山路540號","121.478865","25.01006","6500300","中和區"
"235039","097-UM","2017/09/15 19:09:20","新北市永和區民有街12號","121.516415","24.9967666666667","6500300","中和區"
"235065","098-UM","2017/09/15 19:09:24","新北市中和區福祥路136號","121.498755","25.0069016666667","6500300","中和區"
"235040","150-BY","2017/09/15 19:09:25","新北市中和區宜安路11巷5號","121.513001666667","24.995305","6500300","中和區"
"235058","151-BY","2017/09/15 19:09:17","新北市中和區員山路108號","121.481091666667","24.9955866666667","6500300","中和區"
"235055","183-VK","2017/09/15 19:09:14","新北市中和區德光路60號","121.4697","25.00395","6500300","中和區"
"235038","185-VK","2017/09/15 19:09:17","新北市中和區立人街67號","121.520056666667","24.9942916666667","6500300","中和區"
"235049","186-VK","2017/09/15 19:09:15","新北市中和區明禮街13號","121.504946666667","24.995835","6500300","中和區"
"235067","255-BX","2017/09/15 19:09:27","新北市中和區新生街176巷8號","121.483235","24.99998","6500300","中和區"
"235044","293-VK","2017/09/15 19:09:13","新北市中和區中興街202巷35號","121.499043333333","24.989695","6500300","中和區"
"235072","301-VK","2017/09/15 19:09:19","新北市中和區連城路103號","121.496288333333","24.999595","6500300","中和區"
"235043","352-BY","2017/09/15 19:08:52","新北市中和區景平路116號","121.519346666667","24.9917366666667","6500300","中和區"
"235051","376-QA","2017/09/15 19:09:22","新北市中和區興南路一段75號","121.51018","24.9891983333333","6500300","中和區"
"235068","377-QA","2017/09/15 19:09:17","新北市中和區圓通路169號","121.497668333333","24.9952733333333","6500300","中和區"
"235061","378-QA","2017/09/15 19:09:17","新北市中和區中山路三段63巷13弄41號","121.476696666667","25.0035083333333","6500300","中和區"
"235050","4979-A6","2017/09/15 19:09:25","新北市中和區復興路280巷36弄8號","121.501728333333","24.9920966666667","6500300","中和區"
"235069","4980-A6","2017/09/15 19:09:21","新北市中和區景平路736巷1弄9號","121.497481666667","25.00408","6500300","中和區"
"235042","551-UM","2017/09/15 19:09:13","新北市中和區自立路16巷2號","121.521626666667","24.9937316666667","6500300","中和區"
"235070","558-UM","2017/09/15 19:09:28","新北市中和區安和路163號","121.50597","24.9975066666667","6500300","中和區"
"235045","565-BX","2017/09/15 19:09:11","新北市中和區景新街467巷20弄29號","121.514708333333","24.9875716666667","6500300","中和區"
"235043","611-BX","2017/09/15 16:51:23","新北市中和區員山路36巷16-2號","121.485206666667","24.9913166666667","6500300","中和區"
"235054","640-BX","2017/09/15 19:09:21","新北市中和區國光街2巷5號","121.472188333333","25.0003966666667","6500300","中和區"
"235060","647-TV","2017/09/15 19:09:07","新北市中和區民治街144號","121.47531","25.0018383333333","6500300","中和區"
"235047","732-UM","2017/09/15 19:09:14","新北市中和區興南路一段56巷1弄2號","121.510733333333","24.9908","6500300","中和區"
"235046","733-UM","2017/09/15 19:09:16","新北市中和區忠孝街1巷17號","121.508543333333","24.9839133333333","6500300","中和區"
"235062","800-TS","2017/09/15 19:09:07","新北市中和區中山路二段526巷37號","121.485818333333","25.006055","6500300","中和區"
"235057","801-TS","2017/09/15 19:09:21","新北市中和區民利街68巷2弄2號","121.478491666667","24.998665","6500300","中和區"
"235041","802-TS","2017/09/15 19:09:12","新北市中和區安平路102號","121.51157","24.9972616666667","6500300","中和區"
"235052","805-TS","2017/09/15 19:09:09","新北市中和區興南路二段142巷19弄6號","121.502863333333","24.9834433333333","6500300","中和區"
"235048","896-TW","2017/09/15 19:09:21","新北市中和區華新街176號","121.507246666667","24.9822216666667","6500300","中和區"
"235053","900-TW","2017/09/15 19:09:13","新北市中和區和平路208號","121.463878333333","24.996065","6500300","中和區"
"235037","AAC-213","2017/09/15 19:09:28","新北市中和區秀朗路三段60巷42號","121.524886666667","24.995055","6500300","中和區"
"235059","AAC-215","2017/09/15 19:09:07","新北市中和區圓通路294巷13號","121.488843333333","24.990095","6500300","中和區"
"220068","013-TV","2017/09/15 19:09:23","新北市板橋區三民路一段31巷1號","121.479376666667","25.0230866666667","6500100","板橋區"
"220065","072-UY","2017/09/15 19:09:24","新北市板橋區民族路221-1號","121.469685","25.00742","6500100","板橋區"
"220086","073-UY","2017/09/15 19:09:20","新北市板橋區中正路250巷20號","121.456201666667","25.0193966666667","6500100","板橋區"
"220106","075-UY","2017/09/15 19:09:18","新北市板橋區文化路二段317號","121.47217","25.0297866666667","6500100","板橋區"
"220069","AAD-861","2017/09/15 19:09:10","新北市板橋區東興街48號","121.458513333333","25.0058433333333","6500100","板橋區"
"247008","053-VK","2017/09/15 18:54:57","新北市五股區中興路三段163號","121.449206666667","25.0806083333333","6501400","蘆洲區"
"226004","205-ST","2017/09/15 19:09:15","新北市平溪區靜安路三段67號","121.765268333333","25.0320516666667","6502400","平溪區"
"228001","212-TW","2017/09/15 19:09:23","新北市貢寮區真理里新港街10號","121.925488333333","25.0543666666667","6502600","貢寮區"
"228002","663-BX","2017/09/15 19:09:21","新北市貢寮區福隆里福隆街32-1號","121.945051666667","25.0173666666667","6502600","貢寮區"
"228003","828-UM","2017/09/15 19:09:19","新北市貢寮區和美里和美街28-1號","121.913268333333","25.0827566666667","6502600","貢寮區"
"224010","AGQ-8101","2017/09/15 19:09:22","新北市瑞芳區基山街133號","121.84406","25.1083866666667","6501200","瑞芳區"
"224006","676-BX","2017/09/15 19:09:18","新北市瑞芳區三爪子坑路122號","121.806085","25.10556","6501200","瑞芳區"
"224009","285-BY","2017/09/15 19:09:20","新北市瑞芳區長仁路50-1號","121.866271666667","25.11875","6501200","瑞芳區"
"224008","275-VK","2017/09/15 19:09:13","新北市瑞芳區一坑路100號","121.80288","25.1082866666667","6501200","瑞芳區"
"224005","271-BY","2017/09/15 19:09:24","新北市瑞芳區三爪子坑路91巷1號","121.811726666667","25.1073416666667","6501200","瑞芳區"
"227011","642-TC","2017/09/15 19:09:20","新北市雙溪區牡丹里中正路46-4號","121.865031666667","25.039035","6502500","雙溪區"
"227003","400-TW","2017/09/15 19:09:09","新北市雙溪區平林里梅竹蹊56-4號","121.860711666667","25.0366766666667","6502500","雙溪區"
"253005","032-BX","2017/09/15 19:09:17","新北市石門區阿里荖35-2號","121.606463333333","25.2806433333333","6502200","石門區"
"253006","295-VK","2017/09/15 19:09:17","新北市石門區崁子腳58-19號","121.531338333333","25.2874233333333","6502200","石門區"
"208002","742-BX","2017/09/15 19:09:11","新北市金山區中正路67號","121.633911666667","25.2217733333333","6502700","金山區"
"208003","665-BX","2017/09/15 19:09:24","新北市金山區中正路120號","121.63245","25.2215683333333","6502700","金山區"
"208001","761-BX","2017/09/15 19:09:24","新北市金山區金包里街68號","121.639008333333","25.2214316666667","6502700","金山區"
"251005","010-UM","2017/09/15 19:09:24","新北市淡水區原德路11號","121.442131666667","25.17132","6501000","淡水區"
"251001","011-UM","2017/09/15 19:09:17","新北市淡水區民權路92巷35-1號","121.462533333333","25.1262766666667","6501000","淡水區"
"251002","012-UM","2017/09/15 19:09:10","新北市淡水區中山路77號","121.442643333333","25.170355","6501000","淡水區"
"251013","180-VK","2017/09/15 19:06:46","新北市淡水區安子內13號","121.479448333333","25.2192633333333","6501000","淡水區"
"251015","182-VK","2017/09/15 19:09:17","新北市淡水區南勢埔31號","121.483871666667","25.1794066666667","6501000","淡水區"
"251010","413-VK","2017/09/15 19:09:13","新北市淡水區中正路一段156巷3號","121.421186666667","25.18042","6501000","淡水區"
"251012","441-VK","2017/09/15 19:09:22","新北市淡水區下圭柔山90-8號","121.431236666667","25.2102183333333","6501000","淡水區"
"251009","575-R6","2017/09/15 19:09:14","新北市淡水區中正路51號","121.441898333333","25.1695333333333","6501000","淡水區"
"251007","577-R6","2017/09/15 19:09:27","新北市淡水區民生路184號","121.465495","25.13869","6501000","淡水區"
"251011","650-BX","2017/09/15 19:09:11","新北市淡水區中正東路二段143巷2弄1號","121.460738333333","25.1474033333333","6501000","淡水區"
"251003","673-BX","2017/09/15 19:09:18","新北市淡水區中山北路一段109號","121.442575","25.1766783333333","6501000","淡水區"
"207003","550-UM","2017/09/15 19:09:04","新北市萬里區大鵬里萬里加投24-2號","121.648633333333","25.206865","6502800","萬里區"
"207004","225-TW","2017/09/15 19:09:15","新北市萬里區萬里里瑪鋉下街33號","121.691391666667","25.17904","6502800","萬里區"
"252002","178-VK","2017/09/15 19:09:15","新北市三芝區中正路二段1號","121.504795","25.255825","6502100","三芝區"
"252003","249-BX","2017/09/15 19:09:21","新北市三芝區古庄里四棧橋27-1號","121.484991666667","25.262425","6502100","三芝區"
"252001","292-VK","2017/09/15 19:09:12","新北市三芝區長勤街45巷2號","121.500371666667","25.255125","6502100","三芝區"
"237004","078-UY","2017/09/15 19:09:11","新北市三峽區有木206號","121.439148333333","24.8515483333333","6500900","三峽區"
"237007","153-BY","2017/09/15 19:09:22","新北市三峽區中正路二段42巷84號","121.364295","24.920575","6500900","三峽區"
"237013","252-BX","2017/09/15 19:09:22","新北市三峽區光明路69巷31號","121.37689","24.9292183333333","6500900","三峽區"
"237012","275-BY","2017/09/15 19:09:21","新北市三峽區三樹路222巷254弄61號","121.393373333333","24.9443683333333","6500900","三峽區"
"237008","302-VK","2017/09/15 19:09:18","新北市三峽區大同路98號","121.37553","24.927605","6500900","三峽區"
"237014","433-BY","2017/09/15 19:09:14","新北市三峽區中山路299巷19號","121.361285","24.9365866666667","6500900","三峽區"
"237006","5529-G3","2017/09/15 19:09:17","新北市三峽區橫溪路95號","121.39842","24.9354366666667","6500900","三峽區"
"237011","572-TV","2017/09/15 19:04:31","新北市三峽區中正路一段100號","121.37431","24.9296933333333","6500900","三峽區"
"237015","649-BX","2017/09/15 19:09:06","新北市三峽區建安71號","121.448766666667","24.9261366666667","6500900","三峽區"
"237010","706-TV","2017/09/15 18:59:46","新北市三峽區復興路34號","121.374183333333","24.9363683333333","6500900","三峽區"
"237005","AKY-6261","2017/09/15 19:09:08","新北市三峽區中山路459巷163-3號","121.348706666667","24.932945","6500900","三峽區"
"236072","105-UM","2017/09/15 19:09:11","新北市土城區裕生路84巷5-2號","121.446981666667","24.9854516666667","6501300","土城區"
"236043","107-UM","2017/09/15 19:09:06","新北市土城區學府路一段276號","121.450111666667","24.9830633333333","6501300","土城區"
"236079","166-UM","2017/09/15 19:09:13","新北市土城區龍泉路10-1號","121.409535","24.9492516666667","6501300","土城區"
"236027","269-VK","2017/09/15 19:09:27","新北市土城區中央路二段189巷24號","121.44293","24.9756366666667","6501300","土城區"
"236015","270-VK","2017/09/15 19:09:14","新北市土城區學府路一段77號","121.456878333333","24.9881916666667","6501300","土城區"
"236039","271-VK","2017/09/15 19:09:15","新北市土城區清水路141巷8號","121.458375","24.9818716666667","6501300","土城區"
"236022","401-BY","2017/09/15 19:09:10","新北市土城區延峰街30號","121.46933","24.985185","6501300","土城區"
"236059","912-UM","2017/09/15 19:09:22","新北市土城區金城路二段206號","121.455183333333","24.9820016666667","6501300","土城區"
"236050","913-UM","2017/09/15 19:09:11","新北市土城區明德路一段398-1號","121.453598333333","24.97904","6501300","土城區"
"236047","970-R7","2017/09/15 18:45:57","新北市土城區城林路6巷80號","121.438695","24.9796616666667","6501300","土城區"
"236055","AAC-216","2017/09/15 19:09:27","新北市土城區學府路一段276號","121.450025","24.9831483333333","6501300","土城區"
"238015","755-BX","2017/09/15 19:09:23","新北市樹林區備內街158巷14號","121.407246666667","24.989995","6500700","樹林區"
"238023","601-UM","2017/09/15 19:09:14","新北市樹林區大慶街57號","121.39608","25.01388","6500700","樹林區"
"238019","599-UM","2017/09/15 19:09:08","新北市樹林區東榮街50號","121.417166666667","24.9832","6500700","樹林區"
"238018","571-TV","2017/09/15 19:09:25","新北市樹林區東榮街8號","121.418178333333","24.9837966666667","6500700","樹林區"
"238024","5061-A6","2017/09/15 19:09:26","新北市樹林區中山路三段73號","121.40045","24.974965","6500700","樹林區"
"238021","KEA-2217","2017/09/15 19:09:15","新北市樹林區柑園街二段328巷6弄29號","121.37323","24.9527366666667","6500700","樹林區"
"238022","KEA-2213","2017/09/15 19:09:09","新北市樹林區東順街90巷15號","121.40836","24.9767383333333","6500700","樹林區"
"238025","303-VK","2017/09/15 19:09:18","新北市樹林區中山路三段92號","121.393171666667","24.9722366666667","6500700","樹林區"
"238014","282-BY","2017/09/15 19:09:21","新北市樹林區千歲街92巷7弄15號","121.427373333333","24.9979466666667","6500700","樹林區"
"238020","268-VK","2017/09/15 19:09:16","新北市樹林區俊英街79號","121.426093333333","25.007545","6500700","樹林區"
"238026","172-UY","2017/09/15 19:09:20","新北市樹林區地政街8巷10弄2號","121.393673333333","24.971495","6500700","樹林區"
"238016","169-UY","2017/09/15 19:09:26","新北市樹林區復興路373巷2號","121.41704","24.9868583333333","6500700","樹林區"
"239007","AAC-297","2017/09/15 19:09:16","新北市鶯歌區鶯桃路182巷96弄13號","121.340538333333","24.9580116666667","6500800","鶯歌區"
"239006","891-R6","2017/09/15 19:09:22","新北市鶯歌區鶯桃路91巷43號","121.337738333333","24.9519983333333","6500800","鶯歌區"
"239008","527-UM","2017/09/15 19:09:18","新北市鶯歌區大湖路564號","121.336908333333","24.97323","6500800","鶯歌區"
"239005","526-UM","2017/09/15 19:09:11","新北市鶯歌區東湖路30號","121.355448333333","24.9718533333333","6500800","鶯歌區"
"239001","417-VK","2017/09/15 19:09:27","新北市鶯歌區鶯桃路95巷10號","121.338665","24.9537033333333","6500800","鶯歌區"
"239003","360-BY","2017/09/15 19:09:26","新北市鶯歌區八德路7-2號","121.33615","24.9505383333333","6500800","鶯歌區"
"239002","359-BY","2017/09/15 19:09:12","新北市鶯歌區西湖街235號","121.338411666667","24.96526","6500800","鶯歌區"
"239004","193-VK","2017/09/15 19:09:10","新北市鶯歌區鶯華新村16號","121.330113333333","24.9346633333333","6500800","鶯歌區"
"221036","130-UY","2017/09/15 19:09:17","新北市汐止區大同路二段413號","121.658525","25.0672316666667","6501100","汐止區"
"221015","131-UY","2017/09/15 19:09:15","新北市汐止區汐萬路一段256巷1號","121.651725","25.0748533333333","6501100","汐止區"
"221010","269-BY","2017/09/15 19:09:13","新北市汐止區康寧街901號","121.65141","25.0750233333333","6501100","汐止區"
"221012","276-VK","2017/09/15 13:20:35","新北市汐止區汐萬路一段256巷3號","121.653463333333","25.0746016666667","6501100","汐止區"
"221031","277-VK","2017/09/15 19:09:16","新北市汐止區福德三路127號","121.63354","25.06758","6501100","汐止區"
"221012","278-VK","2017/09/15 19:09:08","新北市汐止區康寧街901號","121.650841666667","25.0751916666667","6501100","汐止區"
"221023","279-VK","2017/09/15 19:09:26","新北市汐止區康寧街901號","121.651076666667","25.0751833333333","6501100","汐止區"
"221032","280-BY","2017/09/15 19:09:17","新北市汐止區新台五路一段76號","121.642138333333","25.057125","6501100","汐止區"
"221027","281-BY","2017/09/15 18:49:40","新北市汐止區康寧街901號","121.650868333333","25.07528","6501100","汐止區"
"221038","297-VK","2017/09/15 19:09:19","新北市汐止區汐萬路一段312號","121.650691666667","25.0752883333333","6501100","汐止區"
"221029","298-VK","2017/09/15 19:09:18","新北市汐止區汐萬路一段256巷3號","121.652608333333","25.0745516666667","6501100","汐止區"
"221021","299-VK","2017/09/15 19:09:12","新北市汐止區康寧街901號","121.651468333333","25.0750466666667","6501100","汐止區"
"221008","358-BY","2017/09/15 19:09:10","新北市汐止區康寧街429-6號","121.630523333333","25.06811","6501100","汐止區"
"221035","622-UM","2017/09/15 19:09:19","新北市汐止區汐萬路一段256巷3號","121.653325","25.0746666666667","6501100","汐止區"
"221025","623-UM","2017/09/15 19:09:13","新北市汐止區康寧街901號","121.651545","25.07502","6501100","汐止區"
"221033","647-BX","2017/09/15 19:09:15","新北市汐止區南勢街3號","121.627091666667","25.0374233333333","6501100","汐止區"
"221002","707-TV","2017/09/15 19:09:23","台北市南港區南港路一段28號","121.618673333333","25.054875","6501100","汐止區"
"221018","753-BX","2017/09/15 19:09:10","新北市汐止區康寧街901號","121.651601666667","25.0748766666667","6501100","汐止區"
"220079","145-BY","2017/09/15 19:09:23","新北市板橋區民權路202巷13弄1號","121.460608333333","25.0159016666667","6500100","板橋區"
"220080","200-UY","2017/09/15 19:09:14","新北市板橋區大觀路二段7巷90號","121.44985","25.0029483333333","6500100","板橋區"
"220082","610-BX","2017/09/15 19:09:24","新北市板橋區溪崑二街9-3號","121.42902","24.9918866666667","6500100","板橋區"
"220091","267-BY","2017/09/15 19:09:22","新北市板橋區萬板路710號","121.481883333333","25.0271983333333","6500100","板橋區"
"220056","276-BY","2017/09/15 19:09:19","新北市板橋區信義路110巷2弄5號","121.457833333333","24.9924566666667","6500100","板橋區"
"220072","277-BY","2017/09/15 19:09:15","新北市板橋區金門街369巷57弄7-1號","121.429245","24.9840966666667","6500100","板橋區"
"220101","280-UM","2017/09/15 19:09:17","新北市板橋區莊敬路158號","121.471355","25.0227216666667","6500100","板橋區"
"220071","283-VK","2017/09/15 19:09:24","新北市板橋區重慶路245巷32弄21號","121.465268333333","25.0000183333333","6500100","板橋區"
"220094","285-UM","2017/09/15 19:09:15","新北市板橋區光武街127巷1號","121.466003333333","25.0287066666667","6500100","板橋區"
"220053","285-VK","2017/09/15 19:09:24","新北市板橋區懷仁街8號","121.475966666667","25.0200316666667","6500100","板橋區"
"220083","286-VK","2017/09/15 19:09:24","新北市板橋區大觀路二段20巷15號","121.444693333333","25.003845","6500100","板橋區"
"220081","287-VK","2017/09/15 18:46:27","新北市板橋區大觀路一段51號","121.44773","25.0070316666667","6500100","板橋區"
"220090","288-VK","2017/09/15 19:09:25","新北市板橋區裕民街52號","121.46152","25.028705","6500100","板橋區"
"220062","293-UM","2017/09/15 19:09:20","新北市板橋區三民路二段245巷67號","121.481011666667","25.012545","6500100","板橋區"
"220061","295-UM","2017/09/15 19:09:18","新北市板橋區懷仁街85巷8號","121.47778","25.0186783333333","6500100","板橋區"
"220075","297-UM","2017/09/15 19:09:20","新北市板橋區南雅南路一段1巷38號","121.457211666667","25.00649","6500100","板橋區"
"220092","307-R5","2017/09/15 19:09:16","新北市板橋區文化路一段479巷42號","121.467993333333","25.023105","6500100","板橋區"
"220098","317-R6","2017/09/15 19:09:23","新北市板橋區自由路51巷16號","121.464821666667","25.0235016666667","6500100","板橋區"
"220074","461-BY","2017/09/15 19:09:22","新北市板橋區中正路11號","121.45617","25.0122166666667","6500100","板橋區"
"220064","486-VK","2017/09/15 19:09:23","新北市板橋區板新路1號","121.475695","25.0123233333333","6500100","板橋區"
"220089","487-VK","2017/09/15 19:09:11","新北市板橋區文化路二段426號","121.474015","25.0319316666667","6500100","板橋區"
"220088","491-VK","2017/09/15 19:09:18","新北市板橋區文化路二段182巷1弄30號","121.471781666667","25.028375","6500100","板橋區"
"220035","560-BX","2017/09/15 19:09:23","新北市板橋區中正路379巷11號","121.45318","25.0219783333333","6500100","板橋區"
"220103","561-BX","2017/09/15 19:09:21","新北市板橋區文化路一段188巷11弄54號","121.469071666667","25.018745","6500100","板橋區"
"220084","568-UM","2017/09/15 19:09:26","新北市板橋區溪崑一街19號","121.430943333333","24.9919","6500100","板橋區"
"220063","609-BX","2017/09/15 19:09:27","新北市板橋區三民路二段228號","121.478745","25.01139","6500100","板橋區"
"220057","686-BX","2017/09/15 19:09:12","新北市板橋區重慶路288號","121.463168333333","24.9991916666667","6500100","板橋區"
"220077","687-BX","2017/09/15 19:09:08","新北市板橋區大觀路二段163號","121.445288333333","25.0005283333333","6500100","板橋區"
"220093","689-BX","2017/09/15 19:09:09","新北市板橋區民生路三段261號","121.464425","25.02947","6500100","板橋區"
"220054","741-BX","2017/09/15 19:09:25","新北市板橋區重慶路93巷6號","121.46246","25.0057383333333","6500100","板橋區"
"220055","827-TW","2017/09/15 19:09:22","新北市板橋區中山路一段140號","121.463626666667","25.0108583333333","6500100","板橋區"
"220067","829-TW","2017/09/15 19:09:24","新北市板橋區民享街116巷15號","121.478603333333","25.015545","6500100","板橋區"
"220102","830-TW","2017/09/15 19:09:23","新北市板橋區田單街51號","121.482676666667","25.0278716666667","6500100","板橋區"
"220096","831-TW","2017/09/15 19:09:17","新北市板橋區雙十路二段47巷1號","121.476411666667","25.0259816666667","6500100","板橋區"
"220073","985-R7","2017/09/15 19:09:29","新北市板橋區中正路249號","121.455776666667","25.0182683333333","6500100","板橋區"
"220097","AAC-210","2017/09/15 19:09:23","新北市板橋區幸福路60巷73號","121.459773333333","25.0216","6500100","板橋區"
"220070","AAC-253","2017/09/15 19:09:11","新北市板橋區四川路一段367號","121.458341666667","24.9997566666667","6500100","板橋區"
