"lineid","car","time","location","longitude","latitude","cityid","cityname"
"234046","148-BY","2017/09/15 19:39:20","新北市永和區秀朗路二段97號","121.523348333333","25.001725","6500400","永和區"
"234013","149-BY","2017/09/15 19:39:23","新北市永和區仁愛路219號","121.509323333333","25.012265","6500400","永和區"
"234007","207-UY","2017/09/15 19:39:24","新北市永和區中和路483號","121.510405","25.0019616666667","6500400","永和區"
"234081","298-R6","2017/09/15 19:39:20","新北市永和區林森路44巷6弄6號","121.525361666667","25.00497","6500400","永和區"
"234064","337-UY","2017/09/15 19:39:06","新北市永和區秀朗路一段192巷6弄14號","121.519095","25.0023066666667","6500400","永和區"
"234086","338-UY","2017/09/15 19:39:15","新北市永和區林森路29巷14號","121.526251666667","25.0047166666667","6500400","永和區"
"234070","552-UM","2017/09/15 19:39:24","新北市永和區竹林路74號","121.519068333333","25.012785","6500400","永和區"
"234054","553-UM","2017/09/15 19:39:18","新北市永和區竹林路39巷12號","121.518406666667","25.0145183333333","6500400","永和區"
"234017","745-BX","2017/09/15 19:39:25","新北市永和區永和路二段423號","121.515218333333","25.01759","6500400","永和區"
"234030","746-BX","2017/09/15 19:39:21","新北市永和區民生路67巷28號","121.52417","24.9972316666667","6500400","永和區"
"234061","AAD-866","2017/09/15 19:38:48","新北市永和區中正路486號","121.51739","25.0039333333333","6500400","永和區"
"234042","862-TW","2017/09/15 19:39:18","新北市永和區中和路601號","121.512361666667","25.0044483333333","6500400","永和區"
"234050","863-TW","2017/09/15 19:39:22","新北市永和區文化路165號","121.51008","25.0164066666667","6500400","永和區"
"234026","9371-KE","2017/09/15 19:39:21","新北市永和區中和路501巷9號","121.510448333333","25.0027483333333","6500400","永和區"
"234011","9373-KE","2017/09/15 19:39:18","新北市永和區保生路55號","121.504743333333","25.01015","6500400","永和區"
"249004","303-UY","2017/09/15 19:39:10","新北市八里區博物館路10-1號","121.415216666667","25.1639516666667","6502300","八里區"
"249002","305-UY","2017/09/15 19:39:18","新北市八里區頂寮二街35號","121.450178333333","25.1251383333333","6502300","八里區"
"249003","593-UM","2017/09/15 19:39:20","新北市八里區中華路二段546號","121.398973333333","25.1454733333333","6502300","八里區"
"248016","026-BX","2017/09/15 19:39:08","新北市五股區成泰路三段476號","121.451851666667","25.1014516666667","6501500","五股區"
"248008","095-VK","2017/09/15 19:39:13","新北市五股區四維路118巷13號","121.469213333333","25.0742183333333","6501500","五股區"
"248018","225-UY","2017/09/15 19:22:59","新北市五股區壟路16號","121.415321666667","25.08557","6501500","五股區"
"248012","247-BX","2017/09/15 19:39:17","新北市五股區工商路85巷16號","121.437601666667","25.084465","6501500","五股區"
"248014","261-SL","2017/09/15 19:39:25","新北市五股區工商路166號","121.433545","25.08809","6501500","五股區"
"248004","677-BX","2017/09/15 19:39:21","新北市五股區成泰路二段87號","121.438145","25.0839533333333","6501500","五股區"
"248002","678-BX","2017/09/15 19:39:24","新北市五股區成泰路三段577巷49號","121.450678333333","25.1031466666667","6501500","五股區"
"248010","682-TV","2017/09/15 19:39:13","新北市五股區自強路90巷6號","121.431995","25.0725866666667","6501500","五股區"
"234023","9380-KE","2017/09/15 19:39:23","新北市永和區竹林路206號","121.520713333333","25.0083833333333","6500400","永和區"
"234077","969-R7","2017/09/15 19:39:25","新北市永和區民權路1巷10號","121.520838333333","24.9983816666667","6500400","永和區"
"234074","AAC-211","2017/09/15 19:39:27","新北市永和區竹林路227號","121.520848333333","25.0084683333333","6500400","永和區"
"234067","AAC-212","2017/09/15 19:39:27","新北市永和區中山路一段191巷7弄2號","121.509555","25.0082133333333","6500400","永和區"
"234003","AAC-295","2017/09/15 19:39:24","新北市永和區自由街71號","121.513458333333","25.0052833333333","6500400","永和區"
"244019","403-UM","2017/09/15 19:39:09","新北市林口區麗園一街19號","121.377151666667","25.068905","6501700","林口區"
"244023","483-VK","2017/09/15 19:39:05","新北市林口區文林三街139號","121.374676666667","25.0879666666667","6501700","林口區"
"244011","656-BX","2017/09/15 19:37:46","新北市林口區太平里180號","121.368345","25.1344733333333","6501700","林口區"
"243013","AAD-798","2017/09/15 19:39:17","新北市泰山區應化街7號","121.423875","25.0437416666667","6501600","泰山區"
"243009","297-R6","2017/09/15 19:39:13","新北市泰山區美寧街60號","121.430936666667","25.064695","6501600","泰山區"
"243015","380-SR","2017/09/15 19:39:19","新北市泰山區民權街66巷2號","121.428678333333","25.0500983333333","6501600","泰山區"
"243014","421-VK","2017/09/15 19:39:07","新北市泰山區泰林路二段33-7號","121.43521","25.05648","6501600","泰山區"
"243010","KEA-2215","2017/09/15 19:39:10","新北市泰山區明志路二段7巷20號","121.430848333333","25.053245","6501600","泰山區"
"243011","KEA-2216","2017/09/15 19:39:13","新北市泰山區貴子路67巷5號","121.430611666667","25.0399366666667","6501600","泰山區"
"243012","646-TV","2017/09/15 19:39:10","新北市泰山區中港西路412號","121.43419","25.05424","6501600","泰山區"
"243016","680-BX","2017/09/15 19:39:20","新北市泰山區明志路三段356號","121.421211666667","25.0341716666667","6501600","泰山區"
"222003","436-BY","2017/09/15 19:32:17","新北市深坑區深南路51-1號","121.62112","25.010025","6501800","深坑區"
"222002","659-BX","2017/09/15 19:39:09","新北市深坑區深南路51-1號","121.621355","25.0097016666667","6501800","深坑區"
"222001","696-SL","2017/09/15 19:39:14","新北市深坑區北深路二段204號","121.612971666667","25.0015433333333","6501800","深坑區"
"231041","002-UM","2017/09/15 19:39:25","新北市新店區中正路485號","121.5338","24.9818583333333","6500600","新店區"
"231059","046-UY","2017/09/15 19:39:12","新北市新店區安和路二段207號","121.517665","24.9752416666667","6500600","新店區"
"231061","047-UY","2017/09/15 19:39:18","新北市新店區安民街178號","121.516956666667","24.9709683333333","6500600","新店區"
"231060","106-UY","2017/09/15 19:39:14","新北市新店區安康路二段139號","121.511761666667","24.960385","6500600","新店區"
"231051","107-UY","2017/09/15 19:39:06","新北市新店區中央三街35號","121.528176666667","24.9744016666667","6500600","新店區"
"231048","108-UY","2017/09/15 19:39:14","新北市新店區中興路一段308號","121.546723333333","24.9698283333333","6500600","新店區"
"231053","187-VK","2017/09/15 19:39:24","新北市新店區廣興路66巷6號","121.539001666667","24.9135416666667","6500600","新店區"
"231050","215-TC","2017/09/15 19:39:10","新北市新店區郵政路4巷17號","121.55665","24.9516216666667","6500600","新店區"
"231057","256-BX","2017/09/15 19:39:26","新北市新店區橘園一路11號","121.547988333333","24.9340433333333","6500600","新店區"
"231063","268-BY","2017/09/15 19:39:16","新北市新店區達觀路41號","121.502833333333","24.9382016666667","6500600","新店區"
"231046","278-BY","2017/09/15 19:39:16","新北市新店區中正路329巷1弄2號","121.535681666667","24.97484","6500600","新店區"
"231054","AAD-862","2017/09/15 19:39:10","新北市新店區文中路40-1號","121.539608333333","24.9564433333333","6500600","新店區"
"231058","3712-VJ","2017/09/15 19:39:08","新北市新店區寶橋路6巷6號","121.543453333333","24.9732633333333","6500600","新店區"
"231056","4716-K9","2017/09/15 19:39:16","新北市新店區安康路二段320巷15弄2號","121.504158333333","24.9596183333333","6500600","新店區"
"231067","4772-VM","2017/09/15 19:39:16","新北市新店區精忠路10-1號","121.532623333333","24.959015","6500600","新店區"
"231065","512-UM","2017/09/15 19:39:23","新北市新店區安祥路109巷90弄42號","121.476838333333","24.9590716666667","6500600","新店區"
"231064","515-UM","2017/09/15 19:39:11","新北市新店區安和路一段52巷2號","121.517621666667","24.96619","6500600","新店區"
"231042","616-UM","2017/09/15 19:39:08","新北市新店區中興路一段216號","121.5439","24.9658183333333","6500600","新店區"
"231045","617-UM","2017/09/15 19:39:19","新北市新店區北宜路二段168號","121.558146666667","24.9540516666667","6500600","新店區"
"231040","619-UM","2017/09/15 19:39:18","新北市新店區中正路75巷71號","121.543113333333","24.968735","6500600","新店區"
"231049","719-UM","2017/09/15 19:39:20","新北市新店區大豐路67號","121.539471666667","24.9795316666667","6500600","新店區"
"231062","720-UM","2017/09/15 19:39:26","新北市新店區碧潭路35號","121.534255","24.9562883333333","6500600","新店區"
"231044","897-TW","2017/09/15 19:39:24","新北市新店區北新路三段97號","121.541431666667","24.9818366666667","6500600","新店區"
"231043","899-TW","2017/09/15 19:39:19","新北市新店區北新路二段18號","121.542755","24.9713783333333","6500600","新店區"
"231066","AKT-0513","2017/09/15 19:39:27","新北市新店區安康路二段341巷28號","121.497065","24.9545566666667","6500600","新店區"
"241011","013-R5","2017/09/15 19:39:06","新北市三重區秀江街223號","121.49723","25.07158","6500200","三重區"
"241028","022-UY","2017/09/15 19:39:09","新北市三重區中正南路169號","121.493775","25.0558066666667","6500200","三重區"
"241008","059-VK","2017/09/15 19:39:10","新北市三重區永福街133號","121.47891","25.076805","6500200","三重區"
"241009","060-VK","2017/09/15 19:39:08","新北市三重區三和路四段420-1號","121.480515","25.0799533333333","6500200","三重區"
"241031","061-VK","2017/09/15 19:39:09","新北市三重區重新路四段242-2號","121.486003333333","25.05358","6500200","三重區"
"241015","062-VK","2017/09/15 19:39:26","新北市三重區福德北路34號","121.502053333333","25.06528","6500200","三重區"
"241017","063-VK","2017/09/15 19:39:20","新北市三重區大同北路184巷10號","121.491435","25.0655766666667","6500200","三重區"
"241026","066-VK","2017/09/15 19:39:23","新北市三重區文化南路65巷20號","121.499348333333","25.0607366666667","6500200","三重區"
"241022","267-UM","2017/09/15 19:39:18","新北市三重區中正北路154號","121.484768333333","25.06582","6500200","三重區"
"241032","269-UM","2017/09/15 19:39:10","新北市三重區重陽路一段60巷73號","121.484253333333","25.05821","6500200","三重區"
"241013","270-UM","2017/09/15 19:39:09","新北市三重區仁賢街8號","121.495811666667","25.0746416666667","6500200","三重區"
"241025","271-UM","2017/09/15 19:39:24","新北市三重區頂崁街210巷3號","121.47677","25.0676533333333","6500200","三重區"
"241007","398-BY","2017/09/15 19:39:21","新北市三重區仁美街63號","121.48665","25.07835","6500200","三重區"
"241020","413-TH","2017/09/15 19:39:10","新北市三重區自強路三段43巷13號","121.487455","25.0728133333333","6500200","三重區"
"241035","462-BY","2017/09/15 19:39:25","新北市三重區正義北路61-1號","121.497281666667","25.0645616666667","6500200","三重區"
"241019","478-VK","2017/09/15 19:39:12","新北市三重區六張街194巷1弄1號","121.488513333333","25.0682566666667","6500200","三重區"
"241030","480-VK","2017/09/15 19:39:16","新北市三重區中正南路263號","121.492968333333","25.0529033333333","6500200","三重區"
"241014","543-UM","2017/09/15 19:39:20","新北市三重區長榮路77號","121.50269","25.0690366666667","6500200","三重區"
"241023","545-UM","2017/09/15 19:39:13","新北市三重區忠孝路三段99巷11號","121.479918333333","25.0643116666667","6500200","三重區"
"241001","547-UM","2017/09/15 19:39:09","新北市三重區仁愛街315巷8號","121.49287","25.0795233333333","6500200","三重區"
"241006","AAD-863","2017/09/15 19:39:11","新北市三重區聯華街78號","121.48593","25.07533","6500200","三重區"
"241012","941-UM","2017/09/15 19:39:18","新北市三重區河邊北街256巷21號","121.50084","25.0760633333333","6500200","三重區"
"241029","942-UM","2017/09/15 19:39:08","新北市三重區光明路102號","121.492526666667","25.0564033333333","6500200","三重區"
"235066","003-UY","2017/09/15 19:39:23","新北市中和區中和路196巷11號","121.505118333333","24.99914","6500300","中和區"
"235064","005-UY","2017/09/15 19:39:18","新北市中和區南山路131號","121.502156666667","24.99676","6500300","中和區"
"235063","006-UY","2017/09/15 19:39:17","新北市中和區連城路139巷56-1號","121.49653","24.9971566666667","6500300","中和區"
"235056","096-UM","2017/09/15 19:39:13","新北市中和區民富街33號","121.476415","25.0078916666667","6500300","中和區"
"235039","097-UM","2017/09/15 19:39:20","新北市中和區秀峰街119巷8弄9號","121.519053333333","24.989885","6500300","中和區"
"235065","098-UM","2017/09/15 19:39:24","新北市中和區福祥路66號","121.499243333333","25.0049266666667","6500300","中和區"
"235040","150-BY","2017/09/15 19:39:25","新北市中和區宜安路65號","121.511256666667","24.9969983333333","6500300","中和區"
"235058","151-BY","2017/09/15 19:39:17","新北市中和區員山路124巷36號","121.482486666667","24.9959633333333","6500300","中和區"
"235055","183-VK","2017/09/15 19:39:14","新北市中和區中山路三段179巷5號","121.473061666667","25.005865","6500300","中和區"
"235038","185-VK","2017/09/15 19:39:17","新北市中和區立人街21號","121.521331666667","24.9941216666667","6500300","中和區"
"235049","186-VK","2017/09/15 19:39:15","新北市中和區景安路141號","121.50574","24.9954433333333","6500300","中和區"
"235067","255-BX","2017/09/15 19:39:27","新北市中和區新生街206號","121.483813333333","24.9990383333333","6500300","中和區"
"235044","293-VK","2017/09/15 19:39:13","新北市中和區捷運路75號","121.5086","24.9899583333333","6500300","中和區"
"235072","301-VK","2017/09/15 19:39:19","新北市中和區錦和路95號","121.490086666667","24.9956783333333","6500300","中和區"
"235043","352-BY","2017/09/15 19:39:12","新北市中和區安和路9號","121.511631666667","24.9936416666667","6500300","中和區"
"235051","376-QA","2017/09/15 19:39:22","新北市中和區中興街132巷22號","121.498795","24.991875","6500300","中和區"
"235068","377-QA","2017/09/15 19:39:17","新北市中和區景平路493巷2-6號","121.499646666667","24.9976233333333","6500300","中和區"
"235061","378-QA","2017/09/15 19:39:17","新北市中和區民安街2巷35弄2號","121.479885","25.00155","6500300","中和區"
"235050","4979-A6","2017/09/15 19:39:25","新北市中和區錦和路350-1號","121.49054","24.99353","6500300","中和區"
"235042","551-UM","2017/09/15 19:39:13","新北市中和區中和路262巷49號","121.510123333333","24.9999883333333","6500300","中和區"
"235070","558-UM","2017/09/15 19:39:28","新北市中和區中和路61號","121.50064","25.00114","6500300","中和區"
"235045","565-BX","2017/09/15 19:39:11","新北市中和區景平路151巷30號","121.514286666667","24.9910583333333","6500300","中和區"
"235043","611-BX","2017/09/15 16:51:23","新北市中和區員山路36巷16-2號","121.485206666667","24.9913166666667","6500300","中和區"
"235054","640-BX","2017/09/15 19:39:21","新北市中和區國光街112巷20弄20號","121.470491666667","25.0020166666667","6500300","中和區"
"235060","647-TV","2017/09/15 19:39:07","新北市中和區員山路314巷7弄6號","121.482173333333","25.0031683333333","6500300","中和區"
"235047","732-UM","2017/09/15 19:39:14","新北市中和區景平路359號","121.50462","24.993365","6500300","中和區"
"235046","733-UM","2017/09/15 19:39:16","新北市中和區忠孝街59號","121.511716666667","24.9846183333333","6500300","中和區"
"235057","801-TS","2017/09/15 19:39:24","新北市中和區員山路270號","121.4813","25.0018283333333","6500300","中和區"
"235041","802-TS","2017/09/15 19:39:12","新北市中和區中和路350巷6-1號","121.51072","25.000525","6500300","中和區"
"235052","805-TS","2017/09/15 19:39:08","新北市中和區華新街206巷21弄4號","121.505843333333","24.98276","6500300","中和區"
"235048","896-TW","2017/09/15 19:39:21","新北市中和區忠孝街1巷2-1號","121.50917","24.9830166666667","6500300","中和區"
"235053","900-TW","2017/09/15 19:39:13","新北市中和區國光街144號","121.468261666667","25.001565","6500300","中和區"
"235037","AAC-213","2017/09/15 19:39:28","新北市中和區秀朗路三段22巷22號","121.525303333333","24.9962383333333","6500300","中和區"
"235059","AAC-215","2017/09/15 19:39:07","新北市中和區錦和路201號","121.490798333333","24.9904683333333","6500300","中和區"
"220068","013-TV","2017/09/15 19:39:23","新北市板橋區中山路二段539巷18弄5號","121.483238333333","25.022525","6500100","板橋區"
"220065","072-UY","2017/09/15 19:39:24","新北市板橋區民族路222巷15號","121.468686666667","25.0067683333333","6500100","板橋區"
"220086","073-UY","2017/09/15 19:39:28","新北市板橋區中正路236巷14號","121.456403333333","25.0190633333333","6500100","板橋區"
"220106","075-UY","2017/09/15 19:39:18","新北市板橋區文化路二段317號","121.472186666667","25.0298166666667","6500100","板橋區"
"220069","AAD-861","2017/09/15 19:39:18","新北市板橋區稚暉街42號","121.456181666667","25.00437","6500100","板橋區"
"247004","336-TH","2017/09/15 19:39:15","新北市蘆洲區長安街98巷19號","121.462923333333","25.0817533333333","6501400","蘆洲區"
"247008","053-VK","2017/09/15 19:39:22","新北市蘆洲區中山一路180號","121.474111666667","25.08112","6501400","蘆洲區"
"247014","007-UY","2017/09/15 19:39:25","新北市蘆洲區中正路102號","121.469635","25.0845016666667","6501400","蘆洲區"
"226004","205-ST","2017/09/15 19:39:15","新北市平溪區十分里十分街55號","121.775413333333","25.0412766666667","6502400","平溪區"
"228001","212-TW","2017/09/15 19:39:23","新北市貢寮區真理里延平街61號","121.924558333333","25.05566","6502600","貢寮區"
"228003","828-UM","2017/09/15 19:39:19","新北市貢寮區真理里美艷山街15-3號","121.92372","25.0679816666667","6502600","貢寮區"
"224010","AGQ-8101","2017/09/15 19:39:22","新北市瑞芳區基山街233-1號","121.841945","25.1069733333333","6501200","瑞芳區"
"224002","639-TC","2017/09/15 19:39:18","新北市瑞芳區民享新村2號","121.817375","25.105535","6501200","瑞芳區"
"227011","642-TC","2017/09/15 19:39:20","新北市雙溪區新基里新基北街22號","121.867186666667","25.0389066666667","6502500","雙溪區"
"227003","400-TW","2017/09/15 19:39:09","新北市雙溪區雙溪里內挖路47號","121.863246666667","25.0367","6502500","雙溪區"
"208002","742-BX","2017/09/15 19:39:11","新北市金山區四維路2號","121.635481666667","25.2225283333333","6502700","金山區"
"208003","665-BX","2017/09/15 19:39:24","新北市金山區仁愛路6號","121.638573333333","25.2201083333333","6502700","金山區"
"208001","761-BX","2017/09/15 19:39:23","新北市金山區重和里六股林口30號","121.60318","25.2190816666667","6502700","金山區"
"251005","010-UM","2017/09/15 19:39:24","新北市淡水區原德路121號","121.44304","25.1732783333333","6501000","淡水區"
"251001","011-UM","2017/09/15 19:39:18","新北市淡水區民權路79號","121.459751666667","25.138445","6501000","淡水區"
"251013","180-VK","2017/09/15 19:39:10","新北市淡水區頂田寮路141號","121.460871666667","25.2173266666667","6501000","淡水區"
"251008","181-VK","2017/09/15 19:39:23","新北市淡水區中正路一段8巷1弄11號","121.428328333333","25.1758433333333","6501000","淡水區"
"251015","182-VK","2017/09/15 19:39:17","新北市淡水區大埤頭1-3號","121.492416666667","25.1950516666667","6501000","淡水區"
"251010","413-VK","2017/09/15 19:39:13","新北市淡水區崁頂三路167號","121.430723333333","25.2012716666667","6501000","淡水區"
"251006","561-UM","2017/09/15 19:39:17","新北市淡水區中山北路一段209號","121.444326666667","25.1790033333333","6501000","淡水區"
"251009","575-R6","2017/09/15 19:39:14","新北市淡水區中山北路一段87號","121.442286666667","25.17619","6501000","淡水區"
"251007","577-R6","2017/09/15 19:39:07","新北市淡水區中正東路一段3巷12號","121.451355","25.1651366666667","6501000","淡水區"
"251011","650-BX","2017/09/15 19:39:20","新北市淡水區八勢路30巷1號","121.461963333333","25.1540266666667","6501000","淡水區"
"207003","550-UM","2017/09/15 19:39:25","新北市萬里區大鵬里萬里加投287-2號","121.646038333333","25.2175166666667","6502800","萬里區"
"207004","225-TW","2017/09/15 19:39:21","新北市萬里區萬里里瑪鋉路33-2號","121.687548333333","25.1757083333333","6502800","萬里區"
"252002","178-VK","2017/09/15 19:39:15","新北市三芝區中正路一段18巷48號","121.50406","25.2589316666667","6502100","三芝區"
"252001","292-VK","2017/09/15 19:39:12","新北市三芝區公正街66號","121.499801666667","25.2574566666667","6502100","三芝區"
"237004","078-UY","2017/09/15 19:39:11","新北市三峽區插角1-1號","121.397825","24.873595","6500900","三峽區"
"237007","153-BY","2017/09/15 19:39:22","新北市三峽區二鬮路110巷30號","121.35859","24.90935","6500900","三峽區"
"237009","210-TH","2017/09/15 19:39:26","新北市三峽區中園街64號","121.368005","24.9254816666667","6500900","三峽區"
"237013","252-BX","2017/09/15 19:39:21","新北市三峽區介壽路二段30號","121.39083","24.9352183333333","6500900","三峽區"
"237012","275-BY","2017/09/15 19:39:21","新北市三峽區民生街3號","121.374535","24.935395","6500900","三峽區"
"237008","302-VK","2017/09/15 19:39:18","新北市三峽區永安街179號","121.373216666667","24.9269716666667","6500900","三峽區"
"237014","433-BY","2017/09/15 19:39:14","新北市三峽區添福141-13號","121.374193333333","24.9010483333333","6500900","三峽區"
"237006","5529-G3","2017/09/15 19:39:17","新北市三峽區中正路一段336巷15弄2號","121.369968333333","24.9249583333333","6500900","三峽區"
"237015","649-BX","2017/09/15 19:39:26","新北市三峽區溪東路218巷1號","121.407323333333","24.93149","6500900","三峽區"
"237005","AKY-6261","2017/09/15 19:39:08","新北市三峽區中山路169巷7號","121.36433","24.9361366666667","6500900","三峽區"
"236072","105-UM","2017/09/15 19:39:10","新北市土城區裕民路232號","121.453888333333","24.983675","6501300","土城區"
"236043","107-UM","2017/09/15 19:39:06","新北市土城區學士路12巷2號","121.453693333333","24.9830466666667","6501300","土城區"
"236079","166-UM","2017/09/15 19:39:26","新北市土城區中州路47號","121.412846666667","24.9578833333333","6501300","土城區"
"236031","253-BX","2017/09/15 19:39:23","新北市土城區福祥街65號","121.441068333333","24.980525","6501300","土城區"
"236027","269-VK","2017/09/15 19:39:07","新北市土城區中央路二段61巷26號","121.443285","24.9787533333333","6501300","土城區"
"236039","271-VK","2017/09/15 19:39:15","新北市土城區清水路98巷3弄45號","121.458556666667","24.980845","6501300","土城區"
"236022","401-BY","2017/09/15 19:39:10","新北市土城區峰廷街10號","121.46867","24.9876983333333","6501300","土城區"
"236050","913-UM","2017/09/15 19:38:53","新北市土城區明德路一段8號","121.464981666667","24.9852783333333","6501300","土城區"
"236047","970-R7","2017/09/15 18:45:57","新北市土城區城林路6巷80號","121.438695","24.9796616666667","6501300","土城區"
"236055","AAC-216","2017/09/15 19:39:27","新北市土城區學府路一段208號","121.452398333333","24.9853616666667","6501300","土城區"
"242032","AAC-296","2017/09/15 19:39:15","新北市新莊區新泰路213巷20號","121.446061666667","25.0387816666667","6500500","新莊區"
"242050","751-BX","2017/09/15 19:39:10","新北市新莊區瓊林路204-13號","121.43722","25.0213766666667","6500500","新莊區"
"242027","612-BX","2017/09/15 19:39:18","新北市新莊區新泰路357巷3弄57號","121.442106666667","25.03916","6500500","新莊區"
"242044","497-BY","2017/09/15 19:39:25","新北市泰山區磚雅厝16號","121.439438333333","25.0429783333333","6500500","新莊區"
"242005","413-TV","2017/09/15 19:39:23","新北市新莊區化成路11巷39號","121.463565","25.0434933333333","6500500","新莊區"
"242037","133-UY","2017/09/15 19:39:21","新北市新莊區民安路207巷17號","121.426815","25.0231266666667","6500500","新莊區"
"242013","346-TH","2017/09/15 19:39:23","新北市新莊區中誠街129號","121.449181666667","25.0475116666667","6500500","新莊區"
"242019","348-TH","2017/09/15 19:39:22","新北市新莊區新泰路277巷19號","121.445003333333","25.040235","6500500","新莊區"
"242011","351-TH","2017/09/15 19:39:17","新北市新莊區新泰路500號","121.442376666667","25.0459016666667","6500500","新莊區"
"238015","755-BX","2017/09/15 19:39:23","新北市樹林區日新街109號","121.42134","24.9897766666667","6500700","樹林區"
"238023","601-UM","2017/09/15 19:39:17","新北市樹林區三福街46號","121.407626666667","25.0163833333333","6500700","樹林區"
"238024","5061-A6","2017/09/15 19:39:06","新北市樹林區中山路三段251號","121.392631666667","24.9719166666667","6500700","樹林區"
"238021","KEA-2217","2017/09/15 19:39:15","新北市三峽區大義路380號","121.376555","24.948605","6500700","樹林區"
"238022","KEA-2213","2017/09/15 19:39:09","新北市樹林區名園街78巷2號","121.420118333333","24.9778316666667","6500700","樹林區"
"238025","303-VK","2017/09/15 19:39:18","新北市樹林區中山路一段336號","121.419681666667","24.9860216666667","6500700","樹林區"
"238014","282-BY","2017/09/15 19:39:21","新北市樹林區千歲街4號","121.425101666667","24.9957166666667","6500700","樹林區"
"238020","268-VK","2017/09/15 19:39:16","新北市樹林區俊英街21-5號","121.428781666667","25.0024633333333","6500700","樹林區"
"239006","891-R6","2017/09/15 19:39:22","新北市鶯歌區文化路233號","121.354011666667","24.9533483333333","6500800","鶯歌區"
"239002","359-BY","2017/09/15 19:39:12","新北市鶯歌區大湖路366號","121.346273333333","24.9726866666667","6500800","鶯歌區"
"221036","130-UY","2017/09/15 19:39:17","新北市汐止區汐萬路一段256巷1號","121.651781666667","25.0748716666667","6501100","汐止區"
"221015","131-UY","2017/09/15 19:39:15","新北市汐止區汐萬路一段256巷1號","121.651675","25.0748483333333","6501100","汐止區"
"221010","269-BY","2017/09/15 19:39:13","新北市汐止區汐萬路一段397號","121.649425","25.0789083333333","6501100","汐止區"
"221012","276-VK","2017/09/15 13:20:35","新北市汐止區汐萬路一段256巷3號","121.653463333333","25.0746016666667","6501100","汐止區"
"221031","277-VK","2017/09/15 19:39:16","新北市汐止區福德三路127號","121.633641666667","25.06766","6501100","汐止區"
"221012","278-VK","2017/09/15 19:39:08","新北市汐止區汐平路一段5號","121.68078","25.0713","6501100","汐止區"
"221023","279-VK","2017/09/15 19:39:06","新北市汐止區民族六街21-2號","121.630103333333","25.0689833333333","6501100","汐止區"
"221032","280-BY","2017/09/15 19:39:17","新北市汐止區橫科路119號","121.620085","25.0503066666667","6501100","汐止區"
"221027","281-BY","2017/09/15 19:39:27","新北市汐止區忠孝東路9號","121.658266666667","25.0659733333333","6501100","汐止區"
"221038","297-VK","2017/09/15 19:39:19","新北市汐止區忠孝東路223號","121.662156666667","25.0668483333333","6501100","汐止區"
"221029","298-VK","2017/09/15 19:39:18","新北市汐止區康寧街901號","121.651378333333","25.0749733333333","6501100","汐止區"
"221021","299-VK","2017/09/15 19:39:12","新北市汐止區大同路二段173號","121.65163","25.064555","6501100","汐止區"
"221008","358-BY","2017/09/15 19:39:10","新北市汐止區康寧街61巷31號","121.619401666667","25.0675466666667","6501100","汐止區"
"221035","622-UM","2017/09/15 19:39:19","新北市汐止區康寧街901號","121.651273333333","25.0752066666667","6501100","汐止區"
"221025","623-UM","2017/09/15 19:39:13","新北市汐止區秀峰路81巷43號","121.661706666667","25.0648633333333","6501100","汐止區"
"221033","647-BX","2017/09/15 19:39:15","新北市汐止區南勢街3號","121.627078333333","25.0373783333333","6501100","汐止區"
"221002","707-TV","2017/09/15 19:39:23","新北市汐止區大同路一段219巷27號","121.633241666667","25.0584233333333","6501100","汐止區"
"221018","753-BX","2017/09/15 19:39:09","新北市汐止區汐萬路一段312號","121.650645","25.0754383333333","6501100","汐止區"
"220079","145-BY","2017/09/15 19:39:21","新北市板橋區建國街21號","121.457933333333","25.0171516666667","6500100","板橋區"
"220080","200-UY","2017/09/15 19:39:12","新北市板橋區大觀路二段37巷254號","121.450038333333","25.0020583333333","6500100","板橋區"
"220082","610-BX","2017/09/15 19:39:24","新北市板橋區大觀路三段216號","121.430486666667","24.9922816666667","6500100","板橋區"
"220091","267-BY","2017/09/15 19:39:09","新北市板橋區懷德街139巷20弄2號","121.47999","25.0308183333333","6500100","板橋區"
"220056","276-BY","2017/09/15 19:39:17","新北市板橋區四川路二段47巷7號","121.454271666667","24.9944433333333","6500100","板橋區"
"220072","277-BY","2017/09/15 19:39:14","新北市板橋區金門街253巷6弄1號","121.432421666667","24.9885033333333","6500100","板橋區"
"220101","280-UM","2017/09/15 19:39:17","新北市板橋區縣民大道三段33巷6弄1號","121.47395","25.0212966666667","6500100","板橋區"
"220071","283-VK","2017/09/15 19:39:24","新北市板橋區四川路一段327號","121.45862","25.00045","6500100","板橋區"
"220094","285-UM","2017/09/15 19:39:27","新北市板橋區宏國路96號","121.470111666667","25.0320783333333","6500100","板橋區"
"220053","285-VK","2017/09/15 19:39:17","新北市板橋區中山路二段253號","121.477353333333","25.0175183333333","6500100","板橋區"
"220083","286-VK","2017/09/15 19:39:24","新北市板橋區龍興街71巷25號","121.442686666667","25.002195","6500100","板橋區"
"220081","287-VK","2017/09/15 19:20:07","新北市板橋區南雅西路一段116號","121.452751666667","25.0064816666667","6500100","板橋區"
"220090","288-VK","2017/09/15 19:39:25","新北市板橋區裕民街151號","121.45856","25.0270683333333","6500100","板橋區"
"220062","293-UM","2017/09/15 19:39:25","新北市板橋區三民路二段29巷2號","121.481406666667","25.0180033333333","6500100","板橋區"
"220061","295-UM","2017/09/15 19:39:18","新北市板橋區中山路二段147號","121.475565","25.0166","6500100","板橋區"
"220075","297-UM","2017/09/15 19:38:59","新北市板橋區大勇街10巷2號","121.453871666667","25.017025","6500100","板橋區"
"220092","307-R5","2017/09/15 19:39:16","新北市板橋區文化路一段387巷21-4號","121.466011666667","25.0221533333333","6500100","板橋區"
"220098","317-R6","2017/09/15 19:39:24","新北市板橋區四維路279巷63號","121.46061","25.02744","6500100","板橋區"
"220074","461-BY","2017/09/15 19:39:22","新北市板橋區倉後街1-8號","121.455586666667","25.0091066666667","6500100","板橋區"
"220064","486-VK","2017/09/15 19:39:23","新北市板橋區中山路一段99號","121.46167","25.01025","6500100","板橋區"
"220089","487-VK","2017/09/15 19:39:11","新北市板橋區新海路152號","121.46072","25.023925","6500100","板橋區"
"220088","491-VK","2017/09/15 19:39:18","新北市板橋區文化路二段501號","121.475986666667","25.0342016666667","6500100","板橋區"
"220035","560-BX","2017/09/15 19:39:23","新北市板橋區金華街85巷40號","121.45913","25.0212933333333","6500100","板橋區"
"220103","561-BX","2017/09/15 19:39:20","新北市板橋區文化路一段345號","121.466806666667","25.02087","6500100","板橋區"
"220084","568-UM","2017/09/15 19:39:19","新北市板橋區滿平街84巷100弄4號","121.426326666667","24.98651","6500100","板橋區"
"220063","609-BX","2017/09/15 19:39:27","新北市板橋區中山路二段497號","121.482636666667","25.0209766666667","6500100","板橋區"
"220057","686-BX","2017/09/15 19:39:12","新北市板橋區和平路安樂巷25號","121.461563333333","24.99356","6500100","板橋區"
"220077","687-BX","2017/09/15 19:39:16","新北市板橋區僑中二街124巷2號","121.445463333333","25.00552","6500100","板橋區"
"220093","689-BX","2017/09/15 19:39:09","新北市板橋區長江路一段1號","121.457673333333","25.028645","6500100","板橋區"
"220054","741-BX","2017/09/15 19:39:25","新北市板橋區忠孝路239巷45號","121.4675","25.0037216666667","6500100","板橋區"
"220055","827-TW","2017/09/15 19:39:08","新北市板橋區國慶路149巷5號","121.461208333333","24.99691","6500100","板橋區"
"220067","829-TW","2017/09/15 19:39:24","新北市板橋區長安街138巷12號","121.47295","25.0092266666667","6500100","板橋區"
"220102","830-TW","2017/09/15 19:39:20","新北市板橋區雙十路二段70巷2號","121.475588333333","25.0282766666667","6500100","板橋區"
"220096","831-TW","2017/09/15 19:39:17","新北市板橋區民生路二段226巷8弄6號","121.470298333333","25.0216466666667","6500100","板橋區"
"220073","985-R7","2017/09/15 19:39:08","新北市板橋區國光路49巷15號","121.458826666667","25.0188383333333","6500100","板橋區"
"220097","AAC-210","2017/09/15 19:39:23","新北市板橋區漢生西路89巷2弄3號","121.461826666667","25.0194166666667","6500100","板橋區"
"220070","AAC-253","2017/09/15 19:39:17","新北市板橋區民族路310號","121.470803333333","25.0066933333333","6500100","板橋區"
