"lineid","car","time","location","longitude","latitude","cityid","cityname"
"234046","148-BY","2017/09/15 19:59:20","新北市永和區林森路74號","121.523621666667","25.003925","6500400","永和區"
"234013","149-BY","2017/09/15 19:59:23","新北市永和區仁愛路295號","121.505018333333","25.0091466666667","6500400","永和區"
"234007","207-UY","2017/09/15 19:59:21","新北市永和區保生路22巷21號","121.507231666667","25.008125","6500400","永和區"
"234081","298-R6","2017/09/15 19:59:20","新北市永和區國中路4-1號","121.524248333333","25.00456","6500400","永和區"
"234038","336-UY","2017/09/15 19:59:16","新北市永和區成功路二段32號","121.52668","25.00045","6500400","永和區"
"234064","337-UY","2017/09/15 19:59:05","新北市永和區中正路428巷30弄5號","121.518853333333","25.00227","6500400","永和區"
"234086","338-UY","2017/09/15 19:59:15","新北市永和區福和路262號","121.518215","25.0075416666667","6500400","永和區"
"234070","552-UM","2017/09/15 19:59:26","新北市永和區永貞路12號","121.520721666667","25.00724","6500400","永和區"
"234054","553-UM","2017/09/15 19:59:23","新北市永和區博愛街47巷1號","121.519408333333","25.0159766666667","6500400","永和區"
"234017","745-BX","2017/09/15 19:59:25","新北市永和區文化路111號","121.51281","25.01526","6500400","永和區"
"234030","746-BX","2017/09/15 19:59:21","新北市永和區民權路49巷32號","121.52173","24.9974333333333","6500400","永和區"
"234061","AAD-866","2017/09/15 19:59:08","新北市永和區中正路283巷32號","121.516821666667","25.0005666666667","6500400","永和區"
"234042","862-TW","2017/09/15 19:59:18","新北市永和區中和路335巷14號","121.5075","25.0003133333333","6500400","永和區"
"234050","863-TW","2017/09/15 19:59:22","新北市永和區保安路264號","121.505898333333","25.0123933333333","6500400","永和區"
"234026","9371-KE","2017/09/15 19:59:21","新北市永和區水源街27巷7號","121.511225","25.004105","6500400","永和區"
"234011","9373-KE","2017/09/15 19:59:18","新北市永和區仁愛路352巷122弄42號","121.500746666667","25.00937","6500400","永和區"
"249005","172-UM","2017/09/15 19:59:29","新北市八里區楓林路1-11號","121.385266666667","25.131355","6502300","八里區"
"249001","173-UM","2017/09/15 19:59:18","新北市八里區中華路二段310號","121.403848333333","25.1484433333333","6502300","八里區"
"249004","303-UY","2017/09/15 19:59:10","新北市八里區中華路一段333-1號","121.413075","25.1541116666667","6502300","八里區"
"249002","305-UY","2017/09/15 19:59:18","新北市八里區龍米路一段87巷1號","121.454151666667","25.1234233333333","6502300","八里區"
"249003","593-UM","2017/09/15 19:59:26","新北市八里區中華路二段562號","121.398771666667","25.1448183333333","6502300","八里區"
"248016","026-BX","2017/09/15 19:59:08","新北市五股區成泰路三段577巷80弄25號","121.449591666667","25.1045933333333","6501500","五股區"
"248008","095-VK","2017/09/15 19:59:13","新北市五股區四維路30巷17號","121.467983333333","25.0715183333333","6501500","五股區"
"248018","225-UY","2017/09/15 19:59:22","新北市五股區登林路106巷6號","121.427023333333","25.0708683333333","6501500","五股區"
"248012","247-BX","2017/09/15 19:59:23","新北市五股區民義路一段65號","121.435918333333","25.0850016666667","6501500","五股區"
"248014","261-SL","2017/09/15 19:59:25","新北市五股區五福路14巷7號","121.43474","25.0887666666667","6501500","五股區"
"248004","677-BX","2017/09/15 19:59:21","新北市五股區成泰路一段32巷60號","121.434953333333","25.0669916666667","6501500","五股區"
"248002","678-BX","2017/09/15 19:59:24","新北市五股區成泰路三段436號","121.450873333333","25.099525","6501500","五股區"
"248010","682-TV","2017/09/15 19:59:13","新北市五股區成泰路一段87號","121.4348","25.0687933333333","6501500","五股區"
"234023","9380-KE","2017/09/15 19:59:23","新北市永和區中正路662巷25號","121.517631666667","25.0088383333333","6500400","永和區"
"234077","969-R7","2017/09/15 19:59:25","新北市永和區民有街28號","121.516788333333","24.996335","6500400","永和區"
"234074","AAC-211","2017/09/15 19:59:08","新北市永和區豫溪街213號","121.52421","25.0093666666667","6500400","永和區"
"234067","AAC-212","2017/09/15 19:59:27","新北市永和區永貞路376號","121.5098","25.0069383333333","6500400","永和區"
"234003","AAC-295","2017/09/15 19:59:24","新北市永和區中正路706號","121.516173333333","25.0099016666667","6500400","永和區"
"244019","403-UM","2017/09/15 19:59:09","新北市林口區湖南里70-9號","121.375483333333","25.0899633333333","6501700","林口區"
"243013","AAD-798","2017/09/15 19:59:16","新北市泰山區應化街7號","121.423885","25.04371","6501600","泰山區"
"243009","297-R6","2017/09/15 19:59:13","新北市泰山區泰林路二段164巷18號","121.43465","25.0608216666667","6501600","泰山區"
"243015","380-SR","2017/09/15 19:59:19","新北市泰山區明志路二段214巷16弄9號","121.426765","25.0495283333333","6501600","泰山區"
"243014","421-VK","2017/09/15 19:59:07","新北市泰山區泰林路二段183號","121.43345","25.0610616666667","6501600","泰山區"
"243010","KEA-2215","2017/09/15 19:59:11","新北市泰山區中華街10巷2號","121.427991666667","25.0524116666667","6501600","泰山區"
"243011","KEA-2216","2017/09/15 19:59:13","新北市泰山區明志路三段196巷39號","121.421705","25.0398416666667","6501600","泰山區"
"243012","646-TV","2017/09/15 19:59:10","新北市泰山區福興街22號","121.434188333333","25.057615","6501600","泰山區"
"243016","680-BX","2017/09/15 19:59:13","新北市泰山區貴陽街38號","121.4232","25.0323383333333","6501600","泰山區"
"222003","436-BY","2017/09/15 19:59:13","新北市深坑區埔新街14號","121.62072","25.00395","6501800","深坑區"
"222002","659-BX","2017/09/15 19:59:09","新北市深坑區北深路二段81巷8弄6號","121.61824","25.0030816666667","6501800","深坑區"
"222001","696-SL","2017/09/15 19:59:14","新北市深坑區北深路三段154號","121.60303","25.0031483333333","6501800","深坑區"
"231041","002-UM","2017/09/15 19:59:25","新北市新店區民族路192號","121.535993333333","24.9754566666667","6500600","新店區"
"231059","046-UY","2017/09/15 19:59:17","新北市新店區安成街6號","121.510816666667","24.9602833333333","6500600","新店區"
"231061","047-UY","2017/09/15 19:59:18","新北市新店區安民街133巷26號","121.515353333333","24.9695716666667","6500600","新店區"
"231060","106-UY","2017/09/15 19:59:08","新北市新店區安康路二段400號","121.497818333333","24.9557383333333","6500600","新店區"
"231051","107-UY","2017/09/15 19:59:26","新北市新店區中央五街1號","121.530116666667","24.974085","6500600","新店區"
"231048","108-UY","2017/09/15 19:59:14","新北市新店區寶宏路38號","121.549378333333","24.9754683333333","6500600","新店區"
"231053","187-VK","2017/09/15 19:59:26","新北市新店區新烏路三段12號","121.553263333333","24.90534","6500600","新店區"
"231050","215-TC","2017/09/15 19:59:10","新北市新店區中生路61號","121.564723333333","24.9522883333333","6500600","新店區"
"231057","256-BX","2017/09/15 19:59:07","新北市新店區花園二路一段11號","121.555503333333","24.9325166666667","6500600","新店區"
"231063","268-BY","2017/09/15 19:59:22","新北市新店區黎明路52巷9號","121.502031666667","24.9487433333333","6500600","新店區"
"231054","AAD-862","2017/09/15 19:59:10","新北市新店區光明街115號","121.538875","24.9615266666667","6500600","新店區"
"231055","3713-VJ","2017/09/15 19:59:17","新北市新店區中華路83巷67號","121.538343333333","24.9672466666667","6500600","新店區"
"231056","4716-K9","2017/09/15 19:59:16","新北市新店區北新路三段137號","121.541153333333","24.9828883333333","6500600","新店區"
"231067","4772-VM","2017/09/15 19:59:16","新北市新店區秀山路11巷28號","121.531458333333","24.9586233333333","6500600","新店區"
"231065","512-UM","2017/09/15 19:59:22","新北市新店區安祥路106巷58號","121.476285","24.9613483333333","6500600","新店區"
"231064","515-UM","2017/09/15 19:59:11","新北市新店區光華街8巷5號","121.517751666667","24.9692283333333","6500600","新店區"
"231042","616-UM","2017/09/15 19:59:08","新北市新店區中興路一段284號","121.545775","24.96867","6500600","新店區"
"231045","617-UM","2017/09/15 19:59:19","新北市新店區北宜路二段82-13號","121.554731666667","24.95352","6500600","新店區"
"231040","619-UM","2017/09/15 19:59:18","新北市新店區北新路一段96巷23號","121.543056666667","24.9688216666667","6500600","新店區"
"231068","718-UY","2017/09/15 19:59:09","新北市新店區安華路28-1號","121.519331666667","24.960855","6500600","新店區"
"231049","719-UM","2017/09/15 19:59:17","新北市新店區民族路29號","121.540911666667","24.97873","6500600","新店區"
"231062","720-UM","2017/09/15 19:59:26","新北市新店區華城路12號","121.528856666667","24.9578416666667","6500600","新店區"
"231044","897-TW","2017/09/15 19:59:11","新北市新店區復興路44-1號","121.538623333333","24.9867366666667","6500600","新店區"
"231043","899-TW","2017/09/15 19:59:19","新北市新店區中正路263-4號","121.538236666667","24.97375","6500600","新店區"
"231066","AKT-0513","2017/09/15 19:59:27","新北市新店區安德街60巷26號","121.511146666667","24.9641033333333","6500600","新店區"
"241011","013-R5","2017/09/15 19:59:06","新北市三重區三和路三段29號","121.495951666667","25.0710016666667","6500200","三重區"
"241028","022-UY","2017/09/15 19:59:10","新北市三重區中正南路30號","121.49364","25.0602333333333","6500200","三重區"
"241008","059-VK","2017/09/15 19:59:10","新北市三重區永福街179巷28號","121.478003333333","25.0747716666667","6500200","三重區"
"241009","060-VK","2017/09/15 19:59:09","新北市三重區三和路四段390巷21號","121.480911666667","25.0787766666667","6500200","三重區"
"241031","061-VK","2017/09/15 19:59:09","新北市三重區重新路四段184巷16號","121.487103333333","25.0549733333333","6500200","三重區"
"241015","062-VK","2017/09/15 19:59:06","新北市三重區三和路二段17-1號","121.501226666667","25.0669283333333","6500200","三重區"
"241017","063-VK","2017/09/15 19:59:20","新北市三重區自強路一段306號","121.491295","25.0684066666667","6500200","三重區"
"241024","065-VK","2017/09/15 19:59:06","新北市三重區大勇街59號","121.480918333333","25.07169","6500200","三重區"
"241026","066-VK","2017/09/15 19:59:24","新北市三重區福德南路15號","121.502475","25.0632183333333","6500200","三重區"
"241005","262-UM","2017/09/15 19:59:24","新北市三重區溪尾街325巷1號","121.488221666667","25.084435","6500200","三重區"
"241003","265-UM","2017/09/15 19:59:16","新北市三重區仁愛街445巷26號","121.490951666667","25.0830933333333","6500200","三重區"
"241016","266-UM","2017/09/15 19:59:15","新北市三重區正義北路36巷10號","121.496765","25.0633316666667","6500200","三重區"
"241022","267-UM","2017/09/15 19:59:18","新北市三重區過圳街31巷2號","121.489095","25.060575","6500200","三重區"
"241032","269-UM","2017/09/15 19:59:10","新北市三重區朝陽街23號","121.483595","25.0565316666667","6500200","三重區"
"241013","270-UM","2017/09/15 19:59:09","新北市三重區三和路三段125巷4號","121.493105","25.0735216666667","6500200","三重區"
"241025","271-UM","2017/09/15 19:59:24","新北市三重區頂崁街210巷16號","121.476491666667","25.067675","6500200","三重區"
"241007","398-BY","2017/09/15 19:59:27","新北市三重區溪尾街140號","121.489276666667","25.0797933333333","6500200","三重區"
"241020","413-TH","2017/09/15 19:59:10","新北市三重區忠孝路一段87號","121.489821666667","25.0721016666667","6500200","三重區"
"241035","462-BY","2017/09/15 19:59:25","新北市三重區大榮街7號","121.498206666667","25.063115","6500200","三重區"
"241004","475-VK","2017/09/15 19:59:09","新北市三重區五華街110號","121.49236","25.08277","6500200","三重區"
"241019","478-VK","2017/09/15 19:59:12","新北市三重區重陽路四段40號","121.491423333333","25.0698133333333","6500200","三重區"
"241030","480-VK","2017/09/15 19:59:16","新北市三重區重新路四段248號","121.486145","25.05337","6500200","三重區"
"241014","543-UM","2017/09/15 19:59:20","新北市三重區三和路二段160號","121.499296666667","25.0685766666667","6500200","三重區"
"241023","545-UM","2017/09/15 19:59:13","新北市三重區頂崁街172號","121.47761","25.065965","6500200","三重區"
"241001","547-UM","2017/09/15 19:59:09","新北市三重區仁愛街271號","121.492956666667","25.0787266666667","6500200","三重區"
"241006","AAD-863","2017/09/15 19:59:12","新北市三重區力行路二段138-1號","121.482411666667","25.0757283333333","6500200","三重區"
"241018","887-TS","2017/09/15 19:59:22","新北市三重區雙園街84號","121.495393333333","25.0676133333333","6500200","三重區"
"241012","941-UM","2017/09/15 19:59:18","新北市三重區仁厚街52號","121.500291666667","25.0765616666667","6500200","三重區"
"241029","942-UM","2017/09/15 19:59:08","新北市三重區重安街1號","121.48983","25.0585316666667","6500200","三重區"
"241033","AAC-255","2017/09/15 19:59:18","新北市三重區中興北街77號","121.469486666667","25.0477433333333","6500200","三重區"
"235066","003-UY","2017/09/15 19:59:23","新北市中和區中山路二段31號","121.50479","25.0052966666667","6500300","中和區"
"235056","096-UM","2017/09/15 19:59:13","新北市中和區中山路三段152-3號","121.473293333333","25.00628","6500300","中和區"
"235039","097-UM","2017/09/15 19:59:20","新北市中和區大勇街25巷40號","121.515421666667","24.9940283333333","6500300","中和區"
"235065","098-UM","2017/09/15 19:59:24","新北市中和區福祥路98號","121.499163333333","25.0060466666667","6500300","中和區"
"235040","150-BY","2017/09/15 19:59:25","新北市中和區保健路8巷15號","121.50773","24.99775","6500300","中和區"
"235058","151-BY","2017/09/15 19:59:19","新北市中和區員山路146-4號","121.481291666667","24.9971466666667","6500300","中和區"
"235055","183-VK","2017/09/15 19:59:14","新北市中和區德光路38號","121.470348333333","25.0048983333333","6500300","中和區"
"235038","185-VK","2017/09/15 19:59:17","新北市中和區自強路52號","121.520116666667","24.9948016666667","6500300","中和區"
"235049","186-VK","2017/09/15 19:59:15","新北市中和區景平路518號","121.503403333333","24.993875","6500300","中和區"
"235067","255-BX","2017/09/15 19:59:06","新北市中和區新生街168號","121.483685","25.0001966666667","6500300","中和區"
"235044","293-VK","2017/09/15 19:59:13","新北市中和區南山路130號","121.503735","24.9928333333333","6500300","中和區"
"235072","301-VK","2017/09/15 19:59:18","新北市五股區凌雲路二段18巷62-2號","121.44191","25.10648","6500300","中和區"
"235043","352-BY","2017/09/15 19:58:52","新北市中和區興南路二段159巷7號","121.505348333333","24.9830966666667","6500300","中和區"
"235051","376-QA","2017/09/15 19:59:22","新北市中和區景安路218號","121.503871666667","24.9905583333333","6500300","中和區"
"235068","377-QA","2017/09/15 19:59:17","新北市中和區福美路301巷17號","121.497568333333","25.0041666666667","6500300","中和區"
"235050","4979-A6","2017/09/15 19:59:25","新北市中和區景平路155巷24號","121.513473333333","24.9916216666667","6500300","中和區"
"235069","4980-A6","2017/09/15 19:59:21","新北市中和區景新街64巷11弄1號","121.503988333333","24.9985666666667","6500300","中和區"
"235042","551-UM","2017/09/15 19:59:13","新北市中和區安樂路77號","121.512831666667","24.99427","6500300","中和區"
"235070","558-UM","2017/09/15 19:59:08","新北市中和區連勝街45號","121.498081666667","24.9974866666667","6500300","中和區"
"235043","611-BX","2017/09/15 16:51:23","新北市中和區員山路36巷16-2號","121.485206666667","24.9913166666667","6500300","中和區"
"235054","640-BX","2017/09/15 19:59:21","新北市中和區莒光路153號","121.472605","25.0009616666667","6500300","中和區"
"235060","647-TV","2017/09/15 19:59:27","新北市中和區新生街35號","121.483278333333","25.0035183333333","6500300","中和區"
"235046","733-UM","2017/09/15 19:59:16","新北市中和區興南路一段93巷73號","121.510453333333","24.9866483333333","6500300","中和區"
"235057","801-TS","2017/09/15 19:59:21","新北市中和區民樂路81號","121.484856666667","25.0013883333333","6500300","中和區"
"235041","802-TS","2017/09/15 19:59:13","新北市中和區新興街17巷28號","121.51272","25.0029083333333","6500300","中和區"
"235052","805-TS","2017/09/15 19:59:08","新北市中和區華新街192巷22弄19號","121.506861666667","24.9833666666667","6500300","中和區"
"235048","896-TW","2017/09/15 19:59:21","新北市中和區興南路一段20號","121.511335","24.9911933333333","6500300","中和區"
"235053","900-TW","2017/09/15 19:59:13","新北市中和區民德路240號","121.468111666667","24.9974316666667","6500300","中和區"
"235037","AAC-213","2017/09/15 19:59:08","新北市中和區自立路26號","121.522518333333","24.9929783333333","6500300","中和區"
"235059","AAC-215","2017/09/15 19:57:15","新北市中和區圓通路305巷5弄10號","121.493893333333","24.9902366666667","6500300","中和區"
"220068","013-TV","2017/09/15 19:59:23","新北市板橋區光復街70號","121.482751666667","25.0184983333333","6500100","板橋區"
"220065","072-UY","2017/09/15 19:59:24","新北市板橋區民族路69巷2弄1號","121.465618333333","25.0091716666667","6500100","板橋區"
"220086","073-UY","2017/09/15 19:59:20","新北市板橋區南雅西路二段36號","121.452911666667","25.00997","6500100","板橋區"
"220106","075-UY","2017/09/15 19:59:18","新北市板橋區民治街96巷22號","121.478516666667","25.0321833333333","6500100","板橋區"
"220069","AAD-861","2017/09/15 19:59:10","新北市板橋區貴興路50號","121.457121666667","25.00322","6500100","板橋區"
"247020","500-BY","2017/09/15 19:59:14","新北市蘆洲區民義街59號","121.472961666667","25.0898933333333","6501400","蘆洲區"
"247010","339-TH","2017/09/15 19:59:15","新北市蘆洲區集賢路225號","121.482428333333","25.0862033333333","6501400","蘆洲區"
"247002","337-TH","2017/09/15 19:59:13","新北市蘆洲區長安街264號","121.457425","25.0866133333333","6501400","蘆洲區"
"247004","336-TH","2017/09/15 19:59:14","新北市蘆洲區永康街77號","121.455783333333","25.0851783333333","6501400","蘆洲區"
"247016","057-VK","2017/09/15 19:59:18","新北市蘆洲區正和街16巷6號","121.469996666667","25.0827616666667","6501400","蘆洲區"
"247006","056-VK","2017/09/15 19:59:13","新北市蘆洲區九芎街62號","121.466783333333","25.0791266666667","6501400","蘆洲區"
"247008","053-VK","2017/09/15 19:59:22","新北市蘆洲區中山一路95巷20弄17號","121.47669","25.080525","6501400","蘆洲區"
"247014","007-UY","2017/09/15 19:59:08","新北市蘆洲區成功路136號","121.47196","25.08292","6501400","蘆洲區"
"247024","002-UY","2017/09/15 19:59:10","新北市蘆洲區光榮路120巷31號","121.465851666667","25.0880883333333","6501400","蘆洲區"
"226004","205-ST","2017/09/15 19:59:22","新北市平溪區嶺腳里中華街7-1號","121.742533333333","25.025545","6502400","平溪區"
"228003","828-UM","2017/09/15 19:59:27","新北市貢寮區仁理村仁和路110號","121.922841666667","25.0508283333333","6502600","貢寮區"
"227011","642-TC","2017/09/15 19:59:20","新北市雙溪區新基里新基南街25號","121.866213333333","25.0381766666667","6502500","雙溪區"
"227003","400-TW","2017/09/15 19:59:19","新北市雙溪區雙溪里長安街16號","121.86508","25.034585","6502500","雙溪區"
"208002","742-BX","2017/09/15 19:59:11","新北市金山區環金路19號","121.640791666667","25.217575","6502700","金山區"
"208003","665-BX","2017/09/15 19:59:24","新北市金山區永興里濆水路2-1號","121.62413","25.2708916666667","6502700","金山區"
"251004","009-UM","2017/09/15 19:59:21","新北市淡水區民族路50巷32號","121.46112","25.1357683333333","6501000","淡水區"
"251005","010-UM","2017/09/15 19:59:24","新北市淡水區學府路136巷16號","121.451121666667","25.172825","6501000","淡水區"
"251001","011-UM","2017/09/15 19:59:17","新北市淡水區忠愛街12號","121.457515","25.1749816666667","6501000","淡水區"
"251013","180-VK","2017/09/15 19:59:10","新北市淡水區奎柔山路63號","121.451363333333","25.2062466666667","6501000","淡水區"
"251008","181-VK","2017/09/15 19:59:20","新北市淡水區淡海路72巷21號","121.424058333333","25.1811266666667","6501000","淡水區"
"251015","182-VK","2017/09/15 19:59:17","新北市淡水區商工路194號","121.450828333333","25.1881283333333","6501000","淡水區"
"251010","413-VK","2017/09/15 19:59:13","新北市淡水區崁頂三路119號","121.431681666667","25.2009266666667","6501000","淡水區"
"251012","441-VK","2017/09/15 19:59:22","新北市淡水區下圭柔山100-2號","121.441553333333","25.211355","6501000","淡水區"
"251006","561-UM","2017/09/15 19:59:17","新北市淡水區北新路16號","121.444795","25.1774383333333","6501000","淡水區"
"251009","575-R6","2017/09/15 19:59:14","新北市淡水區英專路21巷8號","121.445033333333","25.1697383333333","6501000","淡水區"
"251011","650-BX","2017/09/15 19:59:11","新北市淡水區崁頂55-3號","121.442338333333","25.19664","6501000","淡水區"
"207003","550-UM","2017/09/15 19:59:24","新北市萬里區磺潭里公館崙5號","121.641873333333","25.214225","6502800","萬里區"
"207004","225-TW","2017/09/15 19:59:15","新北市萬里區北基里忠二街35號","121.685645","25.1757233333333","6502800","萬里區"
"252002","178-VK","2017/09/15 19:59:15","新北市三芝區忠孝街116-3號","121.505455","25.257555","6502100","三芝區"
"252001","292-VK","2017/09/15 19:59:12","新北市三芝區公正街9號","121.499756666667","25.2575066666667","6502100","三芝區"
"237004","078-UY","2017/09/15 19:59:11","新北市三峽區嘉添179號","121.369433333333","24.911545","6500900","三峽區"
"237007","153-BY","2017/09/15 19:59:22","新北市三峽區二鬮路136巷22弄53號","121.357626666667","24.9104516666667","6500900","三峽區"
"237009","210-TH","2017/09/15 19:59:26","新北市三峽區民族街10號","121.369063333333","24.9313083333333","6500900","三峽區"
"237012","275-BY","2017/09/15 19:59:21","新北市三峽區中華路3巷8-1號","121.374938333333","24.9311616666667","6500900","三峽區"
"237008","302-VK","2017/09/15 19:59:18","新北市三峽區中正路一段174巷16號","121.371831666667","24.9289633333333","6500900","三峽區"
"237006","5529-G3","2017/09/15 19:59:17","新北市三峽區中正路二段176巷56號","121.364723333333","24.914135","6500900","三峽區"
"237015","649-BX","2017/09/15 19:59:06","新北市三峽區介壽路二段138巷1弄166號","121.40313","24.9276516666667","6500900","三峽區"
"237005","AKY-6261","2017/09/15 19:59:08","新北市三峽區民生街1巷13-1號","121.379706666667","24.935565","6500900","三峽區"
"236072","105-UM","2017/09/15 19:59:10","新北市土城區千歲路9號","121.440818333333","24.96977","6501300","土城區"
"236043","107-UM","2017/09/15 19:59:26","新北市土城區學府路一段124-2號","121.455188333333","24.9873266666667","6501300","土城區"
"236079","166-UM","2017/09/15 19:59:25","新北市土城區福安街104號","121.417393333333","24.963985","6501300","土城區"
"236031","253-BX","2017/09/15 19:59:23","新北市土城區中央路一段250巷1號","121.444196666667","24.98463","6501300","土城區"
"236027","269-VK","2017/09/15 19:59:07","新北市土城區中央路二段101號","121.44245","24.9779116666667","6501300","土城區"
"236015","270-VK","2017/09/15 19:59:14","新北市土城區廣福街128號","121.456296666667","24.9928433333333","6501300","土城區"
"236039","271-VK","2017/09/15 19:59:17","新北市土城區國際路74號","121.466841666667","24.9761516666667","6501300","土城區"
"236022","401-BY","2017/09/15 19:59:10","新北市土城區延吉街137巷2弄25號","121.470126666667","24.98557","6501300","土城區"
"236059","912-UM","2017/09/15 19:59:22","新北市土城區中央路一段191號","121.446086666667","24.9871616666667","6501300","土城區"
"236050","913-UM","2017/09/15 19:59:10","新北市土城區金城路三段103號","121.467423333333","24.9876066666667","6501300","土城區"
"236063","915-UM","2017/09/15 19:59:07","新北市土城區延和路100號","121.46675","24.9896683333333","6501300","土城區"
"236047","970-R7","2017/09/15 18:45:57","新北市土城區城林路6巷80號","121.438695","24.9796616666667","6501300","土城區"
"236055","AAC-216","2017/09/15 19:59:07","新北市土城區延和路19號","121.464355","24.98823","6501300","土城區"
"242032","AAC-296","2017/09/15 19:59:14","新北市新莊區公園一路57號","121.443151666667","25.0361283333333","6500500","新莊區"
"242029","986-R7","2017/09/15 19:59:06","新北市新莊區中平路299號","121.444665","25.0512083333333","6500500","新莊區"
"242050","751-BX","2017/09/15 19:59:10","新北市新莊區西盛街131號","121.42836","25.0186116666667","6500500","新莊區"
"242025","615-BX","2017/09/15 19:59:22","新北市新莊區五工二路86巷35號","121.46064","25.0673316666667","6500500","新莊區"
"242023","613-BX","2017/09/15 19:59:12","新北市新莊區化成路354號","121.465838333333","25.0492583333333","6500500","新莊區"
"242027","612-BX","2017/09/15 19:59:18","新北市新莊區立信三街35巷6號","121.443046666667","25.0511066666667","6500500","新莊區"
"242039","566-BX","2017/09/15 19:59:18","新北市新莊區民安路303號","121.429593333333","25.0225883333333","6500500","新莊區"
"242044","497-BY","2017/09/15 19:59:25","新北市新莊區中正路746巷37號","121.410885","25.0248383333333","6500500","新莊區"
"242048","441-UM","2017/09/15 19:59:13","新北市新莊區民安路144巷9號","121.424063333333","25.0253666666667","6500500","新莊區"
"242054","440-UM","2017/09/15 19:59:16","新北市新莊區民安西路309號","121.427135","25.0114216666667","6500500","新莊區"
"242034","415-TV","2017/09/15 19:59:18","新北市新莊區建中街98號","121.446585","25.0365716666667","6500500","新莊區"
"242005","413-TV","2017/09/15 19:59:23","新北市新莊區化成路314巷19號","121.466961666667","25.0482616666667","6500500","新莊區"
"242041","400-BY","2017/09/15 19:59:23","新北市新莊區新北大道七段295號","121.412155","25.027765","6500500","新莊區"
"242060","362-BY","2017/09/15 19:59:21","新北市新莊區瓊林路72號","121.445148333333","25.028615","6500500","新莊區"
"242058","353-BY","2017/09/15 19:59:22","新北市新莊區八德街135號","121.423835","25.020315","6500500","新莊區"
"242007","132-UY","2017/09/15 19:59:24","新北市新莊區福壽街202巷24號","121.459191666667","25.0535783333333","6500500","新莊區"
"242037","133-UY","2017/09/15 19:59:21","新北市新莊區建安街41巷5號","121.429133333333","25.025285","6500500","新莊區"
"242021","135-UY","2017/09/15 19:59:18","新北市新莊區建中街48巷10弄12號","121.448643333333","25.038395","6500500","新莊區"
"242009","173-VK","2017/09/15 19:59:19","新北市新莊區幸福路914號","121.442288333333","25.0487383333333","6500500","新莊區"
"242015","175-VK","2017/09/15 19:59:07","新北市新莊區泰順街33巷2號","121.446173333333","25.042545","6500500","新莊區"
"242002","176-VK","2017/09/15 19:59:12","新北市新莊區中正路219號","121.450945","25.0357533333333","6500500","新莊區"
"242013","346-TH","2017/09/15 19:59:08","新北市新莊區幸福路672號","121.45091","25.0495016666667","6500500","新莊區"
"242019","348-TH","2017/09/15 19:59:22","新北市新莊區長青街37巷1號","121.456345","25.0421533333333","6500500","新莊區"
"242056","349-TH","2017/09/15 19:59:07","新北市新莊區中正路347巷17弄2號","121.44728","25.0343533333333","6500500","新莊區"
"242017","350-TH","2017/09/15 19:59:21","新北市新莊區中港路330號","121.452383333333","25.045625","6500500","新莊區"
"242011","351-TH","2017/09/15 19:59:17","新北市新莊區中港路531巷58號","121.450053333333","25.0517916666667","6500500","新莊區"
"238015","755-BX","2017/09/15 19:59:23","新北市樹林區太平路277號","121.419228333333","24.9728733333333","6500700","樹林區"
"238023","601-UM","2017/09/15 19:59:14","新北市樹林區中正路153-1號","121.424668333333","25.0015216666667","6500700","樹林區"
"238021","KEA-2217","2017/09/15 19:59:15","新北市樹林區佳園路三段113巷1號","121.387076666667","24.95067","6500700","樹林區"
"238025","303-VK","2017/09/15 19:59:18","新北市樹林區國凱街136巷48-2號","121.425196666667","24.9788116666667","6500700","樹林區"
"238020","268-VK","2017/09/15 19:59:16","新北市樹林區八德街648號","121.396666666667","24.9691766666667","6500700","樹林區"
"221036","130-UY","2017/09/15 19:59:25","新北市汐止區忠孝東路258巷11弄10號","121.663801666667","25.0672683333333","6501100","汐止區"
"221015","131-UY","2017/09/15 19:59:15","新北市汐止區橋東街36號","121.665955","25.0754433333333","6501100","汐止區"
"221010","269-BY","2017/09/15 19:59:13","新北市汐止區連峰街270號","121.644228333333","25.0814816666667","6501100","汐止區"
"221012","276-VK","2017/09/15 13:20:35","新北市汐止區汐萬路一段256巷3號","121.653463333333","25.0746016666667","6501100","汐止區"
"221031","277-VK","2017/09/15 19:59:16","新北市汐止區福德一路176巷5號","121.635023333333","25.066635","6501100","汐止區"
"221012","278-VK","2017/09/15 19:59:08","新北市汐止區大同路三段274號","121.677331666667","25.071385","6501100","汐止區"
"221023","279-VK","2017/09/15 19:59:26","新北市汐止區明峰街218號","121.626888333333","25.0687733333333","6501100","汐止區"
"221032","280-BY","2017/09/15 19:59:17","新北市汐止區橫科路18巷15號","121.617738333333","25.05024","6501100","汐止區"
"221027","281-BY","2017/09/15 19:59:07","新北市汐止區中正路88號","121.66144","25.0695966666667","6501100","汐止區"
"221038","297-VK","2017/09/15 19:59:19","新北市汐止區忠孝東路477號","121.666046666667","25.0731783333333","6501100","汐止區"
"221029","298-VK","2017/09/15 19:59:18","新北市汐止區樟樹一路137巷26號","121.641","25.06596","6501100","汐止區"
"221021","299-VK","2017/09/15 19:59:12","新北市汐止區青山路2號","121.655695","25.0626983333333","6501100","汐止區"
"221008","358-BY","2017/09/15 19:59:10","台北市內湖區康樂街125巷14號","121.620205","25.0733066666667","6501100","汐止區"
"221035","622-UM","2017/09/15 19:59:19","新北市汐止區長江街39巷10號","121.65546","25.0718533333333","6501100","汐止區"
"221025","623-UM","2017/09/15 19:59:13","新北市汐止區秀峰路74號","121.659868333333","25.0642866666667","6501100","汐止區"
"221033","647-BX","2017/09/15 19:59:15","新北市汐止區東勢街190巷3號","121.633841666667","25.0416133333333","6501100","汐止區"
"221018","753-BX","2017/09/15 19:59:21","新北市汐止區茄苳路258號","121.671738333333","25.06824","6501100","汐止區"
"220079","145-BY","2017/09/15 19:59:19","新北市板橋區中正路135巷12弄6號","121.455665","25.015845","6500100","板橋區"
"220080","200-UY","2017/09/15 19:59:19","新北市板橋區大觀路二段163巷13號","121.446201666667","25.000285","6500100","板橋區"
"220082","610-BX","2017/09/15 19:59:24","新北市板橋區金門街184-3號","121.432728333333","24.9908516666667","6500100","板橋區"
"220091","267-BY","2017/09/15 19:59:09","新北市板橋區文聖街84號","121.47749","25.0297716666667","6500100","板橋區"
"220072","277-BY","2017/09/15 19:59:14","新北市板橋區篤行路二段1巷11號","121.432295","24.9926766666667","6500100","板橋區"
"220101","280-UM","2017/09/15 19:59:17","新北市板橋區莒光路200巷25號","121.473083333333","25.022015","6500100","板橋區"
"220071","283-VK","2017/09/15 19:59:24","新北市板橋區五權街32巷22號","121.464061666667","24.992815","6500100","板橋區"
"220094","285-UM","2017/09/15 19:59:15","新北市板橋區雨農路16號","121.462155","25.0248033333333","6500100","板橋區"
"220053","285-VK","2017/09/15 19:59:19","新北市板橋區成功路41巷15號","121.474446666667","25.0173783333333","6500100","板橋區"
"220083","286-VK","2017/09/15 19:59:07","新北市板橋區僑中二街8巷33號","121.445483333333","25.011355","6500100","板橋區"
"220081","287-VK","2017/09/15 19:59:27","新北市板橋區僑中一街124巷18弄48號","121.448063333333","25.0133533333333","6500100","板橋區"
"220090","288-VK","2017/09/15 19:59:26","新北市板橋區幸福路32巷4弄2號","121.460976666667","25.0212783333333","6500100","板橋區"
"220062","293-UM","2017/09/15 19:59:20","新北市板橋區中山路二段543號","121.483775","25.0216883333333","6500100","板橋區"
"220061","295-UM","2017/09/15 19:59:18","新北市板橋區觀光街21號","121.471383333333","25.016215","6500100","板橋區"
"220075","297-UM","2017/09/15 19:59:19","新北市板橋區金華街10巷100號","121.458653333333","25.0203916666667","6500100","板橋區"
"220092","307-R5","2017/09/15 19:59:16","新北市板橋區雨農路27巷1號","121.461498333333","25.0240866666667","6500100","板橋區"
"220098","317-R6","2017/09/15 19:59:23","新北市板橋區漢生西路165巷10號","121.462631666667","25.0233883333333","6500100","板橋區"
"220074","461-BY","2017/09/15 19:59:22","新北市板橋區縣民大道二段1號","121.461851666667","25.011705","6500100","板橋區"
"220064","486-VK","2017/09/15 19:59:23","新北市板橋區漢生東路193巷7-1號","121.470326666667","25.0118416666667","6500100","板橋區"
"220089","487-VK","2017/09/15 19:59:11","新北市板橋區龍泉街55巷14號","121.457383333333","25.025485","6500100","板橋區"
"220088","491-VK","2017/09/15 19:59:18","新北市板橋區懷德街236號","121.480531666667","25.0288116666667","6500100","板橋區"
"220035","560-BX","2017/09/15 19:59:23","新北市板橋區新生街89巷8號","121.457821666667","25.0220883333333","6500100","板橋區"
"220103","561-BX","2017/09/15 19:59:20","新北市板橋區自由路41號","121.465596666667","25.0232366666667","6500100","板橋區"
"220084","568-UM","2017/09/15 19:59:19","新北市板橋區溪崑二街101號","121.426985","24.989135","6500100","板橋區"
"220093","689-BX","2017/09/15 19:59:09","新北市板橋區長江路三段118號","121.47516","25.0342966666667","6500100","板橋區"
"220054","741-BX","2017/09/15 19:59:24","新北市板橋區實踐路93巷10號","121.464546666667","25.0053883333333","6500100","板橋區"
"220055","827-TW","2017/09/15 19:59:09","新北市板橋區仁愛路62巷14弄1號","121.459956666667","24.9984383333333","6500100","板橋區"
"220067","829-TW","2017/09/15 19:59:24","新北市板橋區長安街331巷24號","121.473935","25.0125683333333","6500100","板橋區"
"220102","830-TW","2017/09/15 19:59:20","新北市板橋區懷德街76巷9號","121.477661666667","25.03173","6500100","板橋區"
"220096","831-TW","2017/09/15 19:59:17","新北市板橋區莒光路15巷18號","121.470341666667","25.0255516666667","6500100","板橋區"
"220073","985-R7","2017/09/15 19:59:08","新北市板橋區南雅西路二段72號","121.452741666667","25.0103683333333","6500100","板橋區"
"220097","AAC-210","2017/09/15 19:59:23","新北市板橋區光正街16巷14號","121.463198333333","25.0174266666667","6500100","板橋區"
"220070","AAC-253","2017/09/15 19:59:11","新北市土城區四川路22號","121.455305","24.9959733333333","6500100","板橋區"
