"lineid","car","time","location","longitude","latitude","cityid","cityname"
"231063","268-BY","2017/09/15 21:39:16","新北市新店區富貴街18巷16號","121.493335","24.94811","6500600","新店區"
"241005","262-UM","2017/09/15 21:39:24","新北市三重區碧華街1號","121.483425","25.081175","6500200","三重區"
"241003","265-UM","2017/09/15 21:39:16","新北市蘆洲區環堤大道365號","121.455455","25.0974633333333","6500200","三重區"
"235025","378-QA","2017/09/15 20:42:17","新北市中和區員山路36巷13號","121.484123333333","24.9909566666667","6500300","中和區"
"235043","611-BX","2017/09/15 16:51:23","新北市中和區員山路36巷16-2號","121.485206666667","24.9913166666667","6500300","中和區"
"235026","800-TS","2017/09/15 20:28:34","新北市中和區員山路36巷16-3號","121.484833333333","24.9915783333333","6500300","中和區"
"247010","339-TH","2017/09/15 21:39:15","新北市五股區孝義路13-1號","121.450865","25.1067483333333","6501400","蘆洲區"
"247008","053-VK","2017/09/15 21:39:22","新北市五股區孝義路11號","121.451406666667","25.1066133333333","6501400","蘆洲區"
"251004","009-UM","2017/09/15 21:39:14","新北市淡水區民生路1-2號","121.460231666667","25.1378883333333","6501000","淡水區"
"251005","010-UM","2017/09/15 21:39:15","新北市淡水區水源街一段62巷4號","121.44492","25.171985","6501000","淡水區"
"251001","011-UM","2017/09/15 21:39:17","新北市淡水區崁頂37-11號","121.438688333333","25.1940716666667","6501000","淡水區"
"251002","012-UM","2017/09/15 21:39:13","新北市淡水區學府路205巷2號","121.446423333333","25.1754633333333","6501000","淡水區"
"251008","181-VK","2017/09/15 21:39:20","新北市淡水區水源街二段62號","121.451046666667","25.1741183333333","6501000","淡水區"
"251015","182-VK","2017/09/15 21:39:17","新北市淡水區新市二路四段265號","121.445811666667","25.19246","6501000","淡水區"
"251010","413-VK","2017/09/15 21:39:13","新北市淡水區沙崙路216巷1號","121.42531","25.1840033333333","6501000","淡水區"
"251012","441-VK","2017/09/15 21:39:22","新北市淡水區淡金路三段427號","121.449291666667","25.2095933333333","6501000","淡水區"
"251006","561-UM","2017/09/15 21:39:17","新北市淡水區中正路71號","121.44072","25.1692483333333","6501000","淡水區"
"251009","575-R6","2017/09/15 21:39:14","新北市淡水區民族路29巷1弄17號","121.463433333333","25.1375566666667","6501000","淡水區"
"251007","577-R6","2017/09/15 21:39:06","新北市淡水區水源街二段160-4號","121.455278333333","25.175525","6501000","淡水區"
"251011","650-BX","2017/09/15 21:39:11","新北市淡水區新民街218號","121.436026666667","25.1802266666667","6501000","淡水區"
"251003","673-BX","2017/09/15 21:39:17","新北市淡水區新春街53號","121.43796","25.1819733333333","6501000","淡水區"
"236047","970-R7","2017/09/15 18:45:57","新北市土城區城林路6巷80號","121.438695","24.9796616666667","6501300","土城區"
"221012","276-VK","2017/09/15 13:20:35","新北市汐止區汐萬路一段256巷3號","121.653463333333","25.0746016666667","6501100","汐止區"
"220081","287-VK","2017/09/15 21:37:26","新北市五股區新五路二段99號","121.437091666667","25.0757616666667","6500100","板橋區"
"220070","AAC-253","2017/09/15 21:39:11","新北市板橋區板城路271號","121.450238333333","24.99749","6500100","板橋區"
