"lineid","car","time","location","longitude","latitude","cityid","cityname"
"248005","653-BX","2017/09/16 07:10:41","新北市五股區明德路8號","121.433321666667","25.0716083333333","6501500","五股區"
"232009","290-BY","2017/09/16 07:29:02","新北市坪林區北宜路八段462號","121.706331666667","24.920715","6502000","坪林區"
"232010","375-UM","2017/09/16 07:29:07","新北市坪林區水聳淒坑31-1號","121.712121666667","24.9329583333333","6502000","坪林區"
"232016","705-BZ","2017/09/16 07:29:08","新北市坪林區仁里10-2號","121.691875","24.9310483333333","6502000","坪林區"
"244005","657-BX","2017/09/16 07:29:17","新北市林口區頂福里91號","121.328225","25.09192","6501700","林口區"
"222004","289-BY","2017/09/16 07:09:45","新北市深坑區昇高坑路53號","121.631705","24.9891416666667","6501800","深坑區"
"226005","5620-A6","2017/09/16 07:29:13","新北市平溪區靜安路二段500號","121.743781666667","25.02676","6502400","平溪區"
"226002","7418-A5","2017/09/16 07:17:42","新北市平溪區南山里南山坪2號","121.763153333333","25.0318433333333","6502400","平溪區"
"226003","AGD-0702","2017/09/16 07:29:02","新北市平溪區嶺腳里嶺腳寮13號","121.747965","25.02993","6502400","平溪區"
"223006","022-BY","2017/09/16 07:29:12","新北市石碇區碇格路二段11號","121.645075","24.9574283333333","6501900","石碇區"
"223002","198-BX","2017/09/16 07:29:09","新北市石碇區蓬菜寮5-1號","121.65215","24.9736016666667","6501900","石碇區"
"223008","406-TH","2017/09/16 07:29:09","新北市石碇區番子坑24號","121.678411666667","25.000765","6501900","石碇區"
"223001","437-BY","2017/09/16 07:29:03","新北市石碇區內楒仔腳4-1號","121.641971666667","24.9706883333333","6501900","石碇區"
"223004","660-BX","2017/09/16 07:29:13","新北市石碇區八分寮55-5號","121.645146666667","25.016985","6501900","石碇區"
"223007","661-BX","2017/09/16 07:29:08","新北市石碇區蚯蚓坑19-5號","121.68602","25.00165","6501900","石碇區"
"223005","677-TV","2017/09/16 07:29:13","新北市石碇區八分寮55-5號","121.64522","25.01698","6501900","石碇區"
"227006","282-VK","2017/09/16 07:29:16","新北市雙溪區新基里自強路5號","121.866353333333","25.03902","6502500","雙溪區"
"252004","249-BX","2017/09/16 07:29:05","新北市三芝區興華里楓子林55-1號","121.500585","25.2141216666667","6502100","三芝區"
"252007","AAC-283","2017/09/16 07:29:05","新北市三芝區古庄里茂興店72號","121.492441666667","25.2645783333333","6502100","三芝區"
"237001","159-UY","2017/09/16 07:29:15","新北市三峽區隆恩街241號","121.358401666667","24.941285","6500900","三峽區"
"236011","165-UM","2017/09/16 07:29:16","新北市土城區永豐路5號","121.461083333333","24.9890916666667","6501300","土城區"
"236002","339-SR","2017/09/16 07:29:14","新北市土城區石門路108號","121.453693333333","24.94936","6501300","土城區"
