"lineid","car","time","location","longitude","latitude","cityid","cityname"
"241031","208-UY","2017/08/10 08:29:36","新北市永和區國光路5號","121.520358333333","25.0083066666667","6500200","三重區"
"241031","209-UY","2017/08/10 06:36:38","新北市永和區保生路55號","121.504588333333","25.0107483333333","6500200","三重區"
"241031","395-TH","2017/08/10 08:29:46","新北市永和區永利路86號","121.52077","25.0041","6500200","三重區"
"241031","693-BX","2017/08/10 08:29:29","新北市永和區光復街11號","121.516443333333","25.0170016666667","6500200","三重區"
"241031","695-BX","2017/08/10 08:29:45","新北市永和區福和路1號","121.525381666667","25.0092866666667","6500200","三重區"
"241031","840-RS","2017/08/10 08:29:46","新北市永和區竹林路75巷33弄47號","121.521308333333","25.0146783333333","6500200","三重區"
"241031","841-RS","2017/08/10 08:29:39","新北市永和區秀朗路一段64號","121.515131666667","25.0064066666667","6500200","三重區"
"241031","845-RS","2017/08/10 08:29:32","新北市永和區保生路22巷17號","121.507116666667","25.008135","6500200","三重區"
"241031","077-UY","2017/08/10 02:35:58","新北市五股區中興路二段83巷26-6號","121.460033333333","25.0750133333333","6500200","三重區"
"241031","247-BX","2017/08/10 00:19:18","新北市五股區中興路二段83巷26-6號","121.460071666667","25.0751866666667","6500200","三重區"
"241031","653-BX","2017/08/10 08:29:37","新北市五股區明德路12巷1號","121.433266666667","25.0716383333333","6500200","三重區"
"232007","290-BY","2017/08/10 08:29:36","新北市坪林區九芎林32號","121.702503333333","24.9215533333333","6502000","坪林區"
"232014","705-BZ","2017/08/10 08:17:17","新北市坪林區北宜路八段6號","121.701125","24.9357933333333","6502000","坪林區"
"232018","758-BX","2017/08/10 07:49:47","新北市坪林區坪雙路一段43號","121.711565","24.9425883333333","6502000","坪林區"
"244012","069-UM","2017/08/10 08:29:34","新北市林口區佳林路165-3號","121.386386666667","25.0792183333333","6501700","林口區"
"244006","080-UY","2017/08/10 08:29:38","新北市林口區湖子15-5號","121.386396666667","25.0906233333333","6501700","林口區"
"244003","248-BX","2017/08/10 08:29:43","新北市林口區下福里157-1號","121.301508333333","25.11566","6501700","林口區"
"241031","402-UM","2017/08/10 07:48:44","新北市林口區粉寮69號","121.405108333333","25.0909183333333","6500200","三重區"
"244018","403-UM","2017/08/10 08:29:39","新北市林口區公園路225號","121.373798333333","25.0742383333333","6501700","林口區"
"244008","410-SL","2017/08/10 08:29:29","新北市林口區文化一路二段183號","121.383575","25.081625","6501700","林口區"
"241031","140-BX","2017/08/10 08:29:30","新北市石門區海灣新城20號","121.52599","25.2847916666667","6500200","三重區"
"244022","483-VK","2017/08/10 08:29:42","新北市林口區東明三街360號","121.391408333333","25.07039","6501700","林口區"
"244016","485-VK","2017/08/10 08:29:32","新北市林口區公園路177號","121.37076","25.072035","6501700","林口區"
"241031","658-BX","2017/08/10 08:29:43","新北市林口區竹林路432號","121.388801666667","25.0849916666667","6500200","三重區"
"244010","701-TV","2017/08/10 08:29:42","新北市林口區中正路180號","121.392065","25.0775016666667","6501700","林口區"
"244024","837-TS","2017/08/10 08:29:32","新北市林口區八德路318號","121.360176666667","25.06669","6501700","林口區"
"244020","838-TS","2017/08/10 08:29:30","新北市林口區自強一街113號","121.40085","25.076395","6501700","林口區"
"222006","289-BY","2017/08/10 08:29:41","新北市深坑區風格街31巷33號","121.62759","25.0177016666667","6501800","深坑區"
"241031","659-BX","2017/08/10 08:13:42","新北市深坑區文山路三段48-1號","121.609928333333","24.9985766666667","6500200","三重區"
"241031","188-VK","2017/08/10 02:22:50","新北市新店區安華路28-1號","121.51996","24.96133","6500200","三重區"
"241031","189-VK","2017/08/08 03:24:53","新北市新店區安華路28-1號","121.519805","24.9611233333333","6500200","三重區"
"231008","192-VK","2017/08/10 08:29:33","新北市新店區新烏路三段99巷8號","121.553175","24.9020666666667","6500600","新店區"
"231069","719-UM","2017/08/10 08:29:29","新北市新店區新潭路二段21號","121.526676666667","24.9262466666667","6500600","新店區"
"241031","897-TW","2017/08/10 02:04:53","新北市中和區興南路三段47巷32-6號","121.49703","24.97786","6500200","三重區"
"241031","AKT-0513","2017/08/10 08:29:45","新北市新店區寶橋路252號","121.551956666667","24.9791716666667","6500200","三重區"
"241031","186-VK","2017/08/10 00:55:18","新北市中和區員山路36巷13號","121.484043333333","24.9908433333333","6500200","三重區"
"241031","467-BY","2017/08/10 08:29:42","新北市中和區中正路171號","121.497786666667","24.9936366666667","6500200","三重區"
"241031","800-TS","2017/08/10 08:16:42","新北市中和區員山路36巷2-1號","121.48268","24.9905416666667","6500200","三重區"
"241031","911-UM","2017/08/10 08:29:49","新北市中和區圓通路296巷1號","121.487226666667","24.9883966666667","6500200","三重區"
"241031","073-UY","2017/08/10 08:12:02","新北市板橋區溪城路90-2號","121.428955","24.9803433333333","6500200","三重區"
"226005","5620-A6","2017/08/10 08:29:40","新北市平溪區南山里南山坪125號","121.785721666667","25.0449283333333","6502400","平溪區"
"226002","7418-A5","2017/08/10 08:28:40","新北市平溪區東勢里芊蓁坑4號","121.742573333333","25.000905","6502400","平溪區"
"226003","AGD-0702","2017/08/10 08:29:30","新北市平溪區十分里十分街45號","121.774465","25.04078","6502400","平溪區"
"223006","022-BY","2017/08/10 08:29:28","新北市深坑區昇高坑路43號","121.629281666667","24.9970833333333","6501900","石碇區"
"223002","198-BX","2017/08/10 08:21:37","新北市石碇區北宜路五段80號","121.646551666667","24.9517483333333","6501900","石碇區"
"223003","205-TH","2017/08/10 08:29:44","新北市石碇區北宜路六段塗潭巷23號","121.651078333333","24.93402","6501900","石碇區"
"223008","406-TH","2017/08/10 08:29:39","新北市石碇區串空湖8-2號","121.669805","25.0013216666667","6501900","石碇區"
"223001","437-BY","2017/08/10 08:29:41","新北市石碇區北宜路六段十三股巷1-1號","121.646351666667","24.9440233333333","6501900","石碇區"
"223004","660-BX","2017/08/10 08:29:39","新北市石碇區碇坪路一段170號","121.666528333333","24.9859616666667","6501900","石碇區"
"223007","661-BX","2017/08/10 08:29:30","新北市石碇區靜安路一段138號","121.663893333333","25.0074433333333","6501900","石碇區"
"241031","642-TC","2017/08/10 08:29:18","新北市雙溪區三貂里政光路3-1號","121.850818333333","25.0633633333333","6500200","三重區"
"241031","400-TW","2017/08/10 08:06:18","新北市雙溪區三貂里政光路3-1號","121.850858333333","25.0630416666667","6500200","三重區"
"253003","6232-TK","2017/08/10 08:29:43","新北市石門區內石門50-1號","121.572103333333","25.2619383333333","6502200","石門區"
"253001","6251-TK","2017/08/10 08:29:35","新北市石門區下員坑42號","121.517548333333","25.277695","6502200","石門區"
"253002","637-UY","2017/08/10 08:26:55","新北市石門區九芎林5-3號","121.559535","25.2686","6502200","石門區"
"253004","8270-PC","2017/08/10 08:29:28","新北市石門區阿里荖5-2號","121.60925","25.277755","6502200","石門區"
"241031","011-UM","2017/08/10 08:25:04","新北市八里區荖阡坑路65-3號","121.403736666667","25.13186","6500200","三重區"
"241031","550-UM","2017/08/10 06:58:25","新北市萬里區萬里里獅頭路23號","121.69375","25.17831","6500200","三重區"
"252004","702-TV","2017/08/10 08:29:02","新北市三芝區興華里車埕59號","121.49868","25.1969516666667","6502100","三芝區"
"252007","AAC-283","2017/08/10 08:29:35","新北市三芝區蘭陽街27號","121.474301666667","25.2423316666667","6502100","三芝區"
"241031","361-BY","2017/08/10 08:02:44","新北市三峽區中山路459巷163-1號","121.349348333333","24.9335366666667","6500200","三重區"
"237001","159-UY","2017/08/10 08:29:43","新北市三峽區大德路85號","121.377118333333","24.9432883333333","6500900","三峽區"
"241031","159-BY","2017/08/10 08:29:31","新北市三峽區詩朗54-2號","121.361893333333","24.8470066666667","6500200","三重區"
"241031","572-TV","2017/08/10 01:36:04","新北市三峽區中山路459巷163-3號","121.348786666667","24.9328383333333","6500200","三重區"
"241031","682-BX","2017/08/10 08:29:40","新北市樹林區中山路三段210-2號","121.380668333333","24.9670183333333","6500200","三重區"
"241031","756-BX","2017/08/10 08:29:45","新北市三峽區有木107-2號","121.434223333333","24.8606233333333","6500200","三重區"
"241031","760-BX","2017/08/10 08:29:08","新北市三峽區插角250號","121.426113333333","24.858545","6500200","三重區"
"241031","138-TH","2017/08/10 08:29:33","新北市土城區中央路四段56-5號","121.420088333333","24.9603","6500200","三重區"
"236009","165-UM","2017/08/10 08:29:35","新北市土城區石門路81號","121.463836666667","24.9601333333333","6501300","土城區"
"241031","269-VK","2017/08/10 08:29:32","新北市樹林區中正路105號","121.42519","25.0010416666667","6500200","三重區"
"241031","270-VK","2017/08/10 06:47:15","新北市土城區城林路6巷80號","121.438451666667","24.979865","6500200","三重區"
"236003","339-SR","2017/08/10 08:29:42","新北市土城區中央路四段303號","121.41111","24.9520016666667","6501300","土城區"
"241031","370-SL","2017/08/10 08:27:17","新北市土城區青雲路35號","121.460108333333","24.9887433333333","6500200","三重區"
"241031","371-SL","2017/08/10 08:16:09","新北市土城區福安街28號","121.41961","24.9649716666667","6500200","三重區"
"236005","498-BY","2017/08/10 08:29:34","新北市土城區大暖路3號","121.42254","24.9613866666667","6501300","土城區"
"241031","913-UM","2017/08/10 06:48:53","新北市土城區城林路6巷80號","121.438475","24.9796916666667","6500200","三重區"
"242020","AAC-296","2017/08/10 08:29:36","新北市新莊區建興街67號","121.449933333333","25.03795","6500500","新莊區"
"242028","986-R7","2017/08/10 08:29:27","新北市新莊區中平路202-1號","121.44487","25.0488283333333","6500500","新莊區"
"242047","751-BX","2017/08/10 08:29:41","新北市新莊區萬安街75號","121.42127","25.0238466666667","6500500","新莊區"
"242024","615-BX","2017/08/10 08:29:33","新北市新莊區五權一路72號","121.458728333333","25.0665833333333","6500500","新莊區"
"242022","613-BX","2017/08/10 08:29:33","新北市新莊區幸福東路135號","121.460775","25.0493516666667","6500500","新莊區"
"242026","612-BX","2017/08/10 08:29:34","新北市新莊區中原路1號","121.459681666667","25.0544966666667","6500500","新莊區"
"242035","566-BX","2017/08/10 08:29:41","新北市新莊區後港一路65號","121.426461666667","25.026605","6500500","新莊區"
"242040","497-BY","2017/08/10 08:29:31","新北市新莊區中正路692-8號","121.41993","25.0285183333333","6500500","新莊區"
"242003","442-UM","2017/08/10 08:29:48","新北市新莊區自由街8號","121.455806666667","25.047835","6500500","新莊區"
"242045","441-UM","2017/08/10 08:29:33","新北市新莊區福營路197號","121.430973333333","25.0305233333333","6500500","新莊區"
"242049","440-UM","2017/08/10 08:29:45","新北市新莊區民本街43巷19號","121.429025","25.0183466666667","6500500","新莊區"
"242030","415-TV","2017/08/10 08:29:33","新北市新莊區新泰路277巷9號","121.445338333333","25.04021","6500500","新莊區"
"242001","413-TV","2017/08/10 08:29:42","新北市新莊區新莊路173號","121.456048333333","25.0359316666667","6500500","新莊區"
"242038","400-BY","2017/08/10 08:29:29","新北市新莊區民安西路38巷13號","121.426843333333","25.0206883333333","6500500","新莊區"
"242059","362-BY","2017/08/10 08:29:40","新北市新莊區新樹路255號","121.434883333333","25.0220433333333","6500500","新莊區"
"242057","353-BY","2017/08/10 08:29:34","新北市新莊區壽山路160巷21號","121.417466666667","25.03187","6500500","新莊區"
"242018","135-UY","2017/08/10 08:29:47","新北市新莊區明中街51巷4號","121.456458333333","25.0394216666667","6500500","新莊區"
"242043","172-VK","2017/08/10 08:29:29","新北市新莊區雙鳳路135號","121.412871666667","25.02736","6500500","新莊區"
"242006","173-VK","2017/08/10 08:29:41","新北市新莊區中華路二段62號","121.454065","25.0462266666667","6500500","新莊區"
"242012","175-VK","2017/08/10 08:29:38","新北市新莊區中泰街109號","121.44866","25.0465533333333","6500500","新莊區"
"242055","176-VK","2017/08/10 08:29:45","新北市新莊區泰豐街11巷9號","121.448036666667","25.031305","6500500","新莊區"
"241031","233-RS","2017/08/10 08:29:30","新北市樹林區八德街445-1號","121.40504","24.96936","6500200","三重區"
"242010","346-TH","2017/08/10 08:29:44","新北市新莊區中榮街56巷13弄2號","121.449181666667","25.0534166666667","6500500","新莊區"
"242033","347-TH","2017/08/10 08:29:33","新北市新莊區福海街22號","121.44533","25.03392","6500500","新莊區"
"242016","348-TH","2017/08/10 08:29:35","新北市新莊區中和街60巷3號","121.448185","25.0448033333333","6500500","新莊區"
"242052","349-TH","2017/08/10 08:29:36","新北市新莊區民安西路488號","121.432551666667","25.0073433333333","6500500","新莊區"
"242014","350-TH","2017/08/10 08:29:34","新北市新莊區中和街59巷24號","121.446448333333","25.0466583333333","6500500","新莊區"
"242008","351-TH","2017/08/10 08:29:47","新北市新莊區中華路二段290號","121.452513333333","25.0537983333333","6500500","新莊區"
"241031","417-VK","2017/08/10 08:29:39","桃園市龜山區宏德司法新村4號","121.33162","24.9794333333333","6500200","三重區"
"241031","277-VK","2017/08/10 08:29:31","新北市汐止區汐萬路一段256巷3號","121.652485","25.0746366666667","6500200","三重區"
"241031","488-VK","2017/08/10 08:29:27","新北市汐止區長江街一段100巷1號","121.656226666667","25.0697283333333","6500200","三重區"
"241031","567-BX","2017/08/10 03:57:08","新北市汐止區汐萬路一段256巷3號","121.652543333333","25.0745833333333","6500200","三重區"
"241031","647-BX","2017/08/10 08:29:12","新北市汐止區汐萬路一段256巷3號","121.652535","25.0745033333333","6500200","三重區"
"241031","258-TC","2017/08/10 07:58:04","新北市板橋區大觀路二段435-10號","121.445416666667","24.994535","6500200","三重區"
"241031","282-UM","2017/08/10 08:29:42","新北市八里區荖阡坑路22-7號","121.398566666667","25.1359683333333","6500200","三重區"
"241031","489-QN","2017/08/10 08:18:40","新北市板橋區民生路二段89-6號","121.470461666667","25.0192566666667","6500200","三重區"
"241031","806-UM","2017/08/10 07:52:58","新北市板橋區華東街1-10號","121.448643333333","24.9947466666667","6500200","三重區"
