"lineid","car","time","location","longitude","latitude","cityid","cityname"
"241031","208-UY","2017/08/10 08:39:16","新北市永和區民權路22號","121.520278333333","24.9993116666667","6500200","三重區"
"241031","209-UY","2017/08/10 06:36:38","新北市永和區保生路55號","121.504588333333","25.0107483333333","6500200","三重區"
"241031","395-TH","2017/08/10 08:39:26","新北市永和區民權路58巷2弄1號","121.519488333333","24.99836","6500200","三重區"
"241031","693-BX","2017/08/10 08:39:29","新北市永和區仁愛路306巷18弄15號","121.503195","25.00933","6500200","三重區"
"241031","695-BX","2017/08/10 08:39:25","新北市永和區福和路1號","121.525405","25.0093083333333","6500200","三重區"
"241031","840-RS","2017/08/10 08:39:26","新北市永和區福和路224號","121.519218333333","25.0076983333333","6500200","三重區"
"241031","841-RS","2017/08/10 08:39:19","新北市永和區永和路一段82號","121.512993333333","25.0065016666667","6500200","三重區"
"241031","845-RS","2017/08/10 08:39:12","新北市永和區仁愛路306巷18弄7號","121.502911666667","25.0089516666667","6500200","三重區"
"241031","077-UY","2017/08/10 02:35:58","新北市五股區中興路二段83巷26-6號","121.460033333333","25.0750133333333","6500200","三重區"
"241031","247-BX","2017/08/10 00:19:18","新北市五股區中興路二段83巷26-6號","121.460071666667","25.0751866666667","6500200","三重區"
"241031","653-BX","2017/08/10 08:39:17","新北市五股區明德路12巷1號","121.433261666667","25.07158","6500200","三重區"
"232018","758-BX","2017/08/10 08:39:11","新北市坪林區坪雙路一段35號","121.711656666667","24.9427433333333","6502000","坪林區"
"244012","069-UM","2017/08/10 08:39:14","新北市林口區中山路18號","121.396108333333","25.0783533333333","6501700","林口區"
"244006","080-UY","2017/08/10 08:39:18","新北市林口區林口路270號","121.386356666667","25.0846133333333","6501700","林口區"
"244003","248-BX","2017/08/10 08:39:23","新北市林口區下福里99-2號","121.287426666667","25.1171716666667","6501700","林口區"
"241031","402-UM","2017/08/10 07:48:44","新北市林口區粉寮69號","121.405108333333","25.0909183333333","6500200","三重區"
"244018","403-UM","2017/08/10 08:39:19","新北市林口區文化一路一段135巷12號","121.37331","25.0722483333333","6501700","林口區"
"244008","410-SL","2017/08/10 08:39:29","新北市林口區竹林路616號","121.386583333333","25.0820733333333","6501700","林口區"
"241031","140-BX","2017/08/10 08:39:30","新北市石門區老梅路52巷25弄2-1號","121.546268333333","25.2874216666667","6500200","三重區"
"244022","483-VK","2017/08/10 08:39:22","新北市林口區東明二街61號","121.38976","25.0694316666667","6501700","林口區"
"244016","485-VK","2017/08/10 08:39:12","新北市林口區文化一路一段21巷1號","121.369488333333","25.069565","6501700","林口區"
"241031","658-BX","2017/08/10 08:39:23","新北市林口區林口路296號","121.386085","25.085405","6500200","三重區"
"244010","701-TV","2017/08/10 08:39:22","新北市林口區中正路30巷6號","121.39591","25.0776816666667","6501700","林口區"
"244024","837-TS","2017/08/10 08:39:12","新北市林口區南勢四街71-3號","121.35482","25.06987","6501700","林口區"
"244020","838-TS","2017/08/10 08:39:10","新北市林口區自強二街1號","121.397431666667","25.078475","6501700","林口區"
"222006","289-BY","2017/08/10 08:39:21","新北市深坑區土庫尖路75-1號","121.631335","25.0182133333333","6501800","深坑區"
"241031","659-BX","2017/08/10 08:37:47","新北市深坑區文山路三段48-1號","121.610028333333","24.9985283333333","6500200","三重區"
"241031","188-VK","2017/08/10 02:22:50","新北市新店區安華路28-1號","121.51996","24.96133","6500200","三重區"
"241031","189-VK","2017/08/08 03:24:53","新北市新店區安華路28-1號","121.519805","24.9611233333333","6500200","三重區"
"231008","192-VK","2017/08/10 08:39:13","新北市新店區新烏路三段290巷1號","121.549276666667","24.8979433333333","6500600","新店區"
"231069","719-UM","2017/08/10 08:39:29","新北市新店區新潭路三段81巷2號","121.505365","24.9101583333333","6500600","新店區"
"241031","897-TW","2017/08/10 02:04:53","新北市中和區興南路三段47巷32-6號","121.49703","24.97786","6500200","三重區"
"241031","AKT-0513","2017/08/10 08:39:25","新北市新店區寶橋路235巷250-1號","121.552705","24.9854016666667","6500200","三重區"
"241031","186-VK","2017/08/10 00:55:18","新北市中和區員山路36巷13號","121.484043333333","24.9908433333333","6500200","三重區"
"241031","467-BY","2017/08/10 08:39:22","新北市中和區忠孝街5巷5號","121.509376666667","24.9830033333333","6500200","三重區"
"241031","800-TS","2017/08/10 08:37:04","新北市中和區員山路36巷2-1號","121.482641666667","24.9905233333333","6500200","三重區"
"241031","911-UM","2017/08/10 08:39:29","新北市中和區圓通路435-1號","121.487893333333","24.9861383333333","6500200","三重區"
"241031","073-UY","2017/08/10 08:12:02","新北市板橋區溪城路90-2號","121.428955","24.9803433333333","6500200","三重區"
"226005","5620-A6","2017/08/10 08:39:20","新北市平溪區十分里十分街96-2號","121.77658","25.0425866666667","6502400","平溪區"
"226002","7418-A5","2017/08/10 08:39:20","新北市平溪區東勢里芊蓁坑30號","121.727511666667","24.9791183333333","6502400","平溪區"
"226003","AGD-0702","2017/08/10 08:39:30","新北市平溪區十分里十分街281-1號","121.779858333333","25.0456166666667","6502400","平溪區"
"223006","022-BY","2017/08/10 08:39:27","新北市深坑區文山路一段10號","121.643105","25.00862","6501900","石碇區"
"223002","198-BX","2017/08/10 08:21:37","新北市石碇區北宜路五段80號","121.646551666667","24.9517483333333","6501900","石碇區"
"223003","205-TH","2017/08/10 08:32:13","新北市石碇區北宜路六段小金瓜寮巷2-1號","121.655523333333","24.935865","6501900","石碇區"
"223008","406-TH","2017/08/10 08:39:19","新北市石碇區十八重溪13號","121.677845","25.0112183333333","6501900","石碇區"
"223001","437-BY","2017/08/10 08:39:21","新北市石碇區北宜路六段塗潭巷23號","121.650855","24.93405","6501900","石碇區"
"223004","660-BX","2017/08/10 08:39:20","新北市石碇區崩山14號","121.673723333333","24.9729816666667","6501900","石碇區"
"223007","661-BX","2017/08/10 08:39:30","新北市石碇區十八重溪67號","121.673313333333","25.01322","6501900","石碇區"
"241031","642-TC","2017/08/10 08:39:25","新北市雙溪區三貂里政光路3-1號","121.850963333333","25.0631116666667","6500200","三重區"
"241031","400-TW","2017/08/10 08:06:18","新北市雙溪區三貂里政光路3-1號","121.850858333333","25.0630416666667","6500200","三重區"
"253003","6232-TK","2017/08/10 08:39:23","新北市石門區內石門20號","121.572213333333","25.27406","6502200","石門區"
"253001","6251-TK","2017/08/10 08:39:14","新北市石門區下員坑20號","121.511291666667","25.27887","6502200","石門區"
"253002","637-UY","2017/08/10 08:39:15","新北市石門區九芎林35-1號","121.56752","25.256135","6502200","石門區"
"253004","8270-PC","2017/08/10 08:38:48","新北市石門區竹子湖4號","121.616905","25.2615266666667","6502200","石門區"
"241031","011-UM","2017/08/10 08:25:04","新北市八里區荖阡坑路65-3號","121.403736666667","25.13186","6500200","三重區"
"241031","550-UM","2017/08/10 06:58:25","新北市萬里區萬里里獅頭路23號","121.69375","25.17831","6500200","三重區"
"252004","702-TV","2017/08/10 08:39:22","新北市三芝區興華里楓子林45-7號","121.501236666667","25.2046083333333","6502100","三芝區"
"252007","AAC-283","2017/08/10 08:39:15","新北市三芝區後厝里番子崙28號","121.478391666667","25.2464066666667","6502100","三芝區"
"241031","361-BY","2017/08/10 08:02:44","新北市三峽區中山路459巷163-1號","121.349348333333","24.9335366666667","6500200","三重區"
"237001","159-UY","2017/08/10 08:39:23","新北市三峽區大德路139號","121.375926666667","24.94477","6500900","三峽區"
"241031","159-BY","2017/08/10 08:39:31","新北市三峽區詩朗16-1號","121.371326666667","24.8523266666667","6500200","三重區"
"241031","572-TV","2017/08/10 01:36:04","新北市三峽區中山路459巷163-3號","121.348786666667","24.9328383333333","6500200","三重區"
"241031","682-BX","2017/08/10 08:39:20","新北市鶯歌區文化路324巷1-37號","121.352401666667","24.945815","6500200","三重區"
"241031","756-BX","2017/08/10 08:39:24","新北市三峽區有木130-1號","121.435598333333","24.8568633333333","6500200","三重區"
"241031","760-BX","2017/08/10 08:39:08","新北市三峽區有木252號","121.427826666667","24.8574216666667","6500200","三重區"
"241031","138-TH","2017/08/10 08:39:13","新北市土城區大安路126號","121.434015","24.9697633333333","6500200","三重區"
"236009","165-UM","2017/08/10 08:39:14","新北市土城區石門路95號","121.468535","24.95907","6501300","土城區"
"241031","269-VK","2017/08/10 08:39:12","新北市土城區城林路6巷80號","121.438535","24.97973","6500200","三重區"
"241031","270-VK","2017/08/10 06:47:15","新北市土城區城林路6巷80號","121.438451666667","24.979865","6500200","三重區"
"236003","339-SR","2017/08/10 08:39:22","新北市土城區中山路1-2號","121.412353333333","24.960505","6501300","土城區"
"241031","370-SL","2017/08/10 08:37:17","新北市土城區青雲路35號","121.46008","24.988775","6500200","三重區"
"241031","371-SL","2017/08/10 08:39:13","新北市土城區永寧路11號","121.430561666667","24.964135","6500200","三重區"
"236005","498-BY","2017/08/10 08:39:14","新北市土城區永安街53號","121.432828333333","24.963995","6501300","土城區"
"241031","913-UM","2017/08/10 08:39:11","新北市土城區城林路6巷80號","121.438443333333","24.9797233333333","6500200","三重區"
"242020","AAC-296","2017/08/10 08:39:16","新北市新莊區新興街68號","121.450823333333","25.037895","6500500","新莊區"
"242028","986-R7","2017/08/10 08:39:27","新北市新莊區中平路288-15號","121.444973333333","25.05125","6500500","新莊區"
"242047","751-BX","2017/08/10 08:39:21","新北市新莊區萬安街53號","121.421516666667","25.0244416666667","6500500","新莊區"
"242024","615-BX","2017/08/10 08:39:13","新北市新莊區五工三路94巷2號","121.458258333333","25.0655416666667","6500500","新莊區"
"242022","613-BX","2017/08/10 08:39:13","新北市新莊區化成路254號","121.46564","25.0472083333333","6500500","新莊區"
"242026","612-BX","2017/08/10 08:39:13","新北市新莊區幸福路67號","121.457155","25.049405","6500500","新莊區"
"242035","566-BX","2017/08/10 08:39:21","新北市新莊區後港一路31巷1弄1號","121.425158333333","25.0262966666667","6500500","新莊區"
"242040","497-BY","2017/08/10 08:39:11","新北市新莊區天祥街121巷19號","121.414266666667","25.02894","6500500","新莊區"
"242003","442-UM","2017/08/10 08:39:28","新北市新莊區復興路二段78號","121.455591666667","25.044185","6500500","新莊區"
"242045","441-UM","2017/08/10 08:39:12","新北市新莊區民安路46號","121.422561666667","25.0274533333333","6500500","新莊區"
"242049","440-UM","2017/08/10 08:39:24","新北市新莊區民本街22號","121.428183333333","25.01968","6500500","新莊區"
"242030","415-TV","2017/08/10 08:39:13","新北市新莊區新泰路277巷57弄11號","121.443145","25.0397783333333","6500500","新莊區"
"242001","413-TV","2017/08/10 08:39:22","新北市新莊區新泰路2-11號","121.450098333333","25.0325166666667","6500500","新莊區"
"242038","400-BY","2017/08/10 08:39:29","新北市新莊區民安路299巷55弄8號","121.429276666667","25.02389","6500500","新莊區"
"242059","362-BY","2017/08/10 08:39:20","新北市新莊區新樹路119號","121.437198333333","25.0264783333333","6500500","新莊區"
"242057","353-BY","2017/08/10 08:39:14","新北市新莊區中正路742-2號","121.413526666667","25.0229216666667","6500500","新莊區"
"242018","135-UY","2017/08/10 08:39:27","新北市新莊區中華路一段136巷14號","121.453256666667","25.0411683333333","6500500","新莊區"
"242043","172-VK","2017/08/10 08:39:28","新北市新莊區天泉二街26巷2號","121.414655","25.0256083333333","6500500","新莊區"
"242006","173-VK","2017/08/10 08:39:01","新北市新莊區思源路593巷6弄23號","121.457531666667","25.0597933333333","6500500","新莊區"
"242012","175-VK","2017/08/10 08:39:18","新北市新莊區中誠街91號","121.450166666667","25.04763","6500500","新莊區"
"242055","176-VK","2017/08/10 08:39:25","新北市新莊區瓊林路13-3號","121.448826666667","25.0309633333333","6500500","新莊區"
"241031","233-RS","2017/08/10 08:38:10","新北市樹林區中山路三段214號","121.3798","24.96758","6500200","三重區"
"242010","346-TH","2017/08/10 08:39:24","新北市新莊區中港路585號","121.451085","25.0523616666667","6500500","新莊區"
"242033","347-TH","2017/08/10 08:39:13","新北市新莊區景德路301號","121.447258333333","25.03351","6500500","新莊區"
"242016","348-TH","2017/08/10 08:39:15","新北市新莊區中華路二段3巷22號","121.453231666667","25.0463816666667","6500500","新莊區"
"242052","349-TH","2017/08/10 08:38:56","新北市新莊區民安西路415巷3號","121.430891666667","25.0089283333333","6500500","新莊區"
"242014","350-TH","2017/08/10 08:39:14","新北市新莊區中平路184巷10弄18號","121.44566","25.0483233333333","6500500","新莊區"
"242008","351-TH","2017/08/10 08:39:27","新北市新莊區昌平街71巷25號","121.45318","25.05364","6500500","新莊區"
"241031","417-VK","2017/08/10 08:39:19","桃園市龜山區宏德司法新村1號","121.331621666667","24.97945","6500200","三重區"
"241031","277-VK","2017/08/10 08:39:31","新北市汐止區汐萬路一段256巷3號","121.652506666667","25.0746433333333","6500200","三重區"
"241031","281-BY","2017/08/10 04:12:12","新北市汐止區汐萬路一段256巷1號","121.651671666667","25.074865","6500200","三重區"
"241031","488-VK","2017/08/10 08:39:27","新北市汐止區長江街一段100巷1號","121.656285","25.0697466666667","6500200","三重區"
"241031","567-BX","2017/08/10 03:57:08","新北市汐止區汐萬路一段256巷3號","121.652543333333","25.0745833333333","6500200","三重區"
"241031","647-BX","2017/08/10 08:29:12","新北市汐止區汐萬路一段256巷3號","121.652535","25.0745033333333","6500200","三重區"
"241031","753-BX","2017/08/10 00:31:57","新北市汐止區汐萬路一段256巷1號","121.65186","25.07482","6500200","三重區"
"241031","258-TC","2017/08/10 07:58:04","新北市板橋區大觀路二段435-10號","121.445416666667","24.994535","6500200","三重區"
"241031","281-UM","2017/08/10 08:39:20","新北市板橋區大觀路二段156巷71號","121.441048333333","25.000445","6500200","三重區"
"241031","282-UM","2017/08/10 08:39:22","新北市林口區太平里180號","121.368385","25.134395","6500200","三重區"
"241031","489-QN","2017/08/10 08:18:40","新北市板橋區民生路二段89-6號","121.470461666667","25.0192566666667","6500200","三重區"
"241031","755-RS","2017/08/10 08:39:21","新北市板橋區大觀路二段435-3號","121.445838333333","24.994805","6500200","三重區"
"241031","806-UM","2017/08/10 07:52:58","新北市板橋區華東街1-10號","121.448643333333","24.9947466666667","6500200","三重區"
