"lineid","car","time","location","longitude","latitude","cityid","cityname"
"241031","209-UY","2017/08/10 06:36:38","新北市永和區保生路55號","121.504588333333","25.0107483333333","6500200","三重區"
"241031","395-TH","2017/08/10 09:29:21","新北市永和區永貞路365號","121.5088","25.007875","6500200","三重區"
"241031","693-BX","2017/08/10 09:29:09","新北市永和區中正路129巷18號","121.515201666667","24.9984166666667","6500200","三重區"
"241031","695-BX","2017/08/10 09:29:25","新北市永和區福和路1號","121.52537","25.0092316666667","6500200","三重區"
"241031","840-RS","2017/08/10 09:29:26","新北市永和區保生路55-8號","121.504015","25.0103733333333","6500200","三重區"
"241031","841-RS","2017/08/10 09:29:19","新北市永和區保平路268巷14號","121.507966666667","25.006","6500200","三重區"
"241031","845-RS","2017/08/10 09:29:12","新北市永和區保平路196號","121.510185","25.0062016666667","6500200","三重區"
"241031","173-UM","2017/08/10 09:29:11","新北市八里區挖子尾街6號","121.415466666667","25.164245","6500200","三重區"
"241031","077-UY","2017/08/10 02:35:58","新北市五股區中興路二段83巷26-6號","121.460033333333","25.0750133333333","6500200","三重區"
"241031","247-BX","2017/08/10 00:19:18","新北市五股區中興路二段83巷26-6號","121.460071666667","25.0751866666667","6500200","三重區"
"241031","653-BX","2017/08/10 09:29:17","新北市五股區登林路貿商巷3弄15號","121.429701666667","25.0699383333333","6500200","三重區"
"244012","069-UM","2017/08/10 09:29:14","新北市林口區麗園二街1巷3-1號","121.376951666667","25.070205","6501700","林口區"
"244006","080-UY","2017/08/10 09:29:18","新北市林口區後湖17號","121.386945","25.09741","6501700","林口區"
"241031","402-UM","2017/08/10 09:29:10","新北市林口區粉寮69號","121.40511","25.0909916666667","6500200","三重區"
"244018","403-UM","2017/08/10 09:29:18","新北市林口區忠孝路581巷6號","121.375055","25.068615","6501700","林口區"
"244008","410-SL","2017/08/10 09:29:10","新北市林口區竹林路358巷7號","121.392095","25.08417","6501700","林口區"
"241031","140-BX","2017/08/10 09:27:39","新北市石門區中央路1-17號","121.56129","25.2910233333333","6500200","三重區"
"244022","483-VK","2017/08/10 09:29:22","新北市林口區文化三路二段211巷75號","121.374788333333","25.0837633333333","6501700","林口區"
"241031","658-BX","2017/08/10 09:29:23","新北市林口區寶林路106-1號","121.374078333333","25.0907816666667","6500200","三重區"
"244010","701-TV","2017/08/10 09:29:22","新北市林口區中正路345巷1弄1號","121.388","25.0773416666667","6501700","林口區"
"222006","289-BY","2017/08/10 09:29:21","新北市深坑區昇高坑路51-1號","121.630171666667","24.9940383333333","6501800","深坑區"
"241031","659-BX","2017/08/10 09:05:42","新北市深坑區文山路三段48-1號","121.609943333333","24.9986383333333","6500200","三重區"
"241031","188-VK","2017/08/10 02:22:50","新北市新店區安華路28-1號","121.51996","24.96133","6500200","三重區"
"241031","189-VK","2017/08/08 03:24:53","新北市新店區安華路28-1號","121.519805","24.9611233333333","6500200","三重區"
"231008","192-VK","2017/08/10 09:29:13","新北市新店區平廣路一段50號","121.533945","24.9009833333333","6500600","新店區"
"231069","719-UM","2017/08/10 09:29:09","新北市新店區新潭路三段215巷25號","121.508185","24.9040283333333","6500600","新店區"
"241031","897-TW","2017/08/10 09:29:15","新北市新店區安華路28-1號","121.519468333333","24.9608333333333","6500200","三重區"
"241031","AKT-0513","2017/08/10 09:27:42","新北市新店區永福路38-1號","121.552901666667","24.9293866666667","6500200","三重區"
"241031","186-VK","2017/08/10 00:55:18","新北市中和區員山路36巷13號","121.484043333333","24.9908433333333","6500200","三重區"
"241031","467-BY","2017/08/10 09:29:22","新北市中和區成功路139號","121.525816666667","24.9904016666667","6500200","三重區"
"241031","800-TS","2017/08/10 08:37:04","新北市中和區員山路36巷2-1號","121.482641666667","24.9905233333333","6500200","三重區"
"241031","073-UY","2017/08/10 08:12:02","新北市板橋區溪城路90-2號","121.428955","24.9803433333333","6500200","三重區"
"241031","198-BX","2017/08/10 09:29:21","新北市石碇區石崁1號","121.651728333333","25.0017033333333","6500200","三重區"
"241031","205-TH","2017/08/10 09:29:25","新北市石碇區北宜路四段30號","121.623653333333","24.9568633333333","6500200","三重區"
"223008","406-TH","2017/08/10 09:29:19","新北市石碇區光明路22號","121.69329","25.02702","6501900","石碇區"
"223001","437-BY","2017/08/10 09:29:21","新北市石碇區北宜路五段火燒樟巷6-1號","121.62457","24.95677","6501900","石碇區"
"223004","660-BX","2017/08/10 09:29:20","新北市石碇區崩山9號","121.67689","24.975765","6501900","石碇區"
"223007","661-BX","2017/08/10 09:20:30","新北市石碇區光明路17-2號","121.684278333333","25.0320616666667","6501900","石碇區"
"241031","642-TC","2017/08/10 08:39:46","新北市雙溪區三貂里政光路3-1號","121.850961666667","25.0631116666667","6500200","三重區"
"241031","400-TW","2017/08/10 08:06:18","新北市雙溪區三貂里政光路3-1號","121.850858333333","25.0630416666667","6500200","三重區"
"253003","6232-TK","2017/08/10 09:29:03","新北市石門區內石門67-3號","121.575845","25.2560316666667","6502200","石門區"
"253001","6251-TK","2017/08/10 09:29:14","新北市石門區八甲27-2號","121.527131666667","25.2777183333333","6502200","石門區"
"253002","637-UY","2017/08/10 09:29:15","新北市三芝區橫山里橫山31-1號","121.544455","25.25787","6502200","石門區"
"253004","8270-PC","2017/08/10 09:29:15","新北市石門區坪林28號","121.59592","25.2647133333333","6502200","石門區"
"241031","742-BX","2017/08/10 09:29:13","新北市金山區磺清路135號","121.639496666667","25.2275683333333","6500200","三重區"
"241031","011-UM","2017/08/10 09:29:15","新北市淡水區中正路二段31號","121.419256666667","25.1817083333333","6500200","三重區"
"241031","550-UM","2017/08/10 06:58:25","新北市萬里區萬里里獅頭路23號","121.69375","25.17831","6500200","三重區"
"252004","702-TV","2017/08/10 09:29:22","新北市三芝區店子里店子48-3號","121.503403333333","25.2065783333333","6502100","三芝區"
"252007","AAC-283","2017/08/10 09:29:15","新北市三芝區新庄里新庄子125-1號","121.508873333333","25.2674983333333","6502100","三芝區"
"241031","170-UY","2017/08/10 09:29:10","新北市金山區磺清路121號","121.639531666667","25.227975","6500200","三重區"
"241031","361-BY","2017/08/10 08:02:44","新北市三峽區中山路459巷163-1號","121.349348333333","24.9335366666667","6500200","三重區"
"237001","159-UY","2017/08/10 09:29:23","新北市三峽區國際一街39號","121.373066666667","24.9419583333333","6500900","三峽區"
"241031","159-BY","2017/08/10 09:29:11","新北市三峽區金敏5號","121.385711666667","24.8744066666667","6500200","三重區"
"241031","572-TV","2017/08/10 01:36:04","新北市三峽區中山路459巷163-3號","121.348786666667","24.9328383333333","6500200","三重區"
"241031","682-BX","2017/08/10 09:27:33","新北市三峽區中山路459巷163-3號","121.34871","24.933165","6500200","三重區"
"241031","756-BX","2017/08/10 09:29:24","新北市三峽區有木60號","121.43315","24.8628033333333","6500200","三重區"
"241031","760-BX","2017/08/10 09:29:08","新北市三峽區金敏30號","121.387795","24.8734933333333","6500200","三重區"
"241031","138-TH","2017/08/10 09:29:26","新北市土城區金城路二段23-3號","121.447665","24.9762683333333","6500200","三重區"
"236009","165-UM","2017/08/10 09:29:14","新北市土城區中央路三段134號","121.433835","24.96567","6501300","土城區"
"241031","270-VK","2017/08/10 06:47:15","新北市土城區城林路6巷80號","121.438451666667","24.979865","6500200","三重區"
"236003","339-SR","2017/08/10 09:29:22","新北市土城區中央路二段89號","121.44233","24.97814","6501300","土城區"
"241031","370-SL","2017/08/10 09:26:37","新北市土城區青雲路18號","121.460116666667","24.9888483333333","6500200","三重區"
"241031","371-SL","2017/08/10 09:29:13","新北市土城區裕民路32巷7號","121.44763","24.9879983333333","6500200","三重區"
"236005","498-BY","2017/08/10 09:29:14","新北市土城區承天路62巷5-1號","121.439961666667","24.9608883333333","6501300","土城區"
"241031","913-UM","2017/08/10 08:39:11","新北市土城區城林路6巷80號","121.438443333333","24.9797233333333","6500200","三重區"
"242020","AAC-296","2017/08/10 09:29:16","新北市新莊區中華路一段10號","121.451978333333","25.0370016666667","6500500","新莊區"
"242028","986-R7","2017/08/10 09:29:07","新北市新莊區中華路二段37號","121.453471666667","25.046465","6500500","新莊區"
"242047","751-BX","2017/08/10 09:29:21","新北市新莊區四維路212巷4弄10號","121.421251666667","25.02066","6500500","新莊區"
"242022","613-BX","2017/08/10 09:29:13","新北市新莊區復興路三段19號","121.460546666667","25.0445266666667","6500500","新莊區"
"242035","566-BX","2017/08/10 09:29:21","新北市新莊區後港一路56巷8號","121.426446666667","25.025835","6500500","新莊區"
"242040","497-BY","2017/08/10 09:29:11","新北市新莊區天祥街47巷27號","121.416168333333","25.0279033333333","6500500","新莊區"
"242003","442-UM","2017/08/10 09:29:08","新北市新莊區頭前路20號","121.467863333333","25.0525033333333","6500500","新莊區"
"242045","441-UM","2017/08/10 09:29:12","新北市新莊區中正路新雅巷2弄15號","121.41791","25.02493","6500500","新莊區"
"242030","415-TV","2017/08/10 09:29:13","新北市新莊區義豐街1號","121.441105","25.0345233333333","6500500","新莊區"
"242001","413-TV","2017/08/10 09:29:22","新北市新莊區中港路33號","121.455145","25.037605","6500500","新莊區"
"242059","362-BY","2017/08/10 09:29:20","新北市新莊區新樹路271號","121.434301666667","25.0207316666667","6500500","新莊區"
"242057","353-BY","2017/08/10 09:29:14","新北市新莊區龍安路278巷22號","121.421701666667","25.018505","6500500","新莊區"
"242043","172-VK","2017/08/10 09:29:09","新北市新莊區中正路新建巷14號","121.413961666667","25.0223766666667","6500500","新莊區"
"242055","176-VK","2017/08/10 09:29:25","新北市新莊區新莊路751巷50號","121.442736666667","25.03142","6500500","新莊區"
"241031","233-RS","2017/08/10 09:14:13","新北市新莊區環河路48-7號","121.436915","25.0098216666667","6500200","三重區"
"242033","347-TH","2017/08/10 09:29:13","新北市新莊區建中街90巷3弄3號","121.446655","25.0371116666667","6500500","新莊區"
"242052","349-TH","2017/08/10 09:29:16","新北市新莊區西盛街344巷1號","121.427791666667","25.0140183333333","6500500","新莊區"
"241031","276-VK","2017/08/10 08:57:40","新北市汐止區汐萬路一段256巷3號","121.653416666667","25.0746233333333","6500200","三重區"
"241031","277-VK","2017/08/10 08:46:10","新北市汐止區汐萬路一段256巷3號","121.65253","25.0746283333333","6500200","三重區"
"241031","281-BY","2017/08/10 08:43:22","新北市汐止區康寧街901號","121.651695","25.0750933333333","6500200","三重區"
"241031","488-VK","2017/08/10 09:29:27","新北市汐止區連興街28號","121.655296666667","25.063625","6500200","三重區"
"241031","567-BX","2017/08/10 03:57:08","新北市汐止區汐萬路一段256巷3號","121.652543333333","25.0745833333333","6500200","三重區"
"241031","647-BX","2017/08/10 09:23:58","新北市汐止區康寧街901號","121.651271666667","25.0749283333333","6500200","三重區"
"241031","753-BX","2017/08/10 00:31:57","新北市汐止區汐萬路一段256巷1號","121.65186","25.07482","6500200","三重區"
"241031","258-TC","2017/08/10 07:58:04","新北市板橋區大觀路二段435-10號","121.445416666667","24.994535","6500200","三重區"
"241031","281-UM","2017/08/10 09:29:20","新北市板橋區民生路三段285號","121.464061666667","25.030275","6500200","三重區"
"241031","489-QN","2017/08/10 09:29:27","新北市板橋區民生路二段89-6號","121.470485","25.01932","6500200","三重區"
"241031","755-RS","2017/08/10 09:03:35","新北市板橋區溪城路90-2號","121.428805","24.9805583333333","6500200","三重區"
"241031","806-UM","2017/08/10 09:09:49","新北市板橋區華東街1-10號","121.448583333333","24.9948633333333","6500200","三重區"
