"lineid","car","time","location","longitude","latitude","cityid","cityname"
"234044","148-BY","2017/08/10 13:09:55","新北市永和區永元路54號","121.522508333333","25.0010716666667","6500400","永和區"
"234012","149-BY","2017/08/10 13:09:48","新北市永和區仁愛路152號","121.51058","25.0128666666667","6500400","永和區"
"234005","207-UY","2017/08/10 13:09:47","新北市永和區中山路一段141號","121.51036","25.0097783333333","6500400","永和區"
"241031","209-UY","2017/08/10 06:36:38","新北市永和區保生路55號","121.504588333333","25.0107483333333","6500200","三重區"
"234078","298-R6","2017/08/10 13:10:01","新北市永和區福和路57巷14弄8-1號","121.52235","25.0072666666667","6500400","永和區"
"234036","336-UY","2017/08/10 13:09:50","新北市永和區民樂街69巷16號","121.528128333333","24.9976883333333","6500400","永和區"
"234062","337-UY","2017/08/10 13:09:46","新北市永和區秀朗路二段52號","121.521988333333","25.0020083333333","6500400","永和區"
"234084","338-UY","2017/08/10 13:09:52","新北市永和區永貞路150號","121.517883333333","25.004415","6500400","永和區"
"241031","395-TH","2017/08/10 13:09:57","新北市永和區保生路55號","121.504698333333","25.0100066666667","6500200","三重區"
"234068","552-UM","2017/08/10 13:10:02","新北市永和區豫溪街135號","121.519653333333","25.010275","6500400","永和區"
"234052","553-UM","2017/08/10 13:10:00","新北市永和區中興街133巷4號","121.518691666667","25.0125216666667","6500400","永和區"
"241031","693-BX","2017/08/10 10:30:33","新北市永和區福和路1號","121.526703333333","25.0100116666667","6500200","三重區"
"241031","695-BX","2017/08/10 13:09:45","新北市永和區福和路1號","121.52538","25.009285","6500200","三重區"
"234015","745-BX","2017/08/10 13:10:00","新北市永和區文化路90巷3弄2號","121.513816666667","25.0155733333333","6500400","永和區"
"234028","746-BX","2017/08/10 13:10:02","新北市永和區厚德街91號","121.523901666667","24.9987933333333","6500400","永和區"
"241031","840-RS","2017/08/10 13:10:02","新北市永和區環河西路一段1號","121.515365","25.01808","6500200","三重區"
"241031","841-RS","2017/08/10 13:09:48","新北市永和區保生路55號","121.504231666667","25.0107566666667","6500200","三重區"
"234060","AAD-866","2017/08/10 13:09:52","新北市永和區安樂路304巷7號","121.514398333333","25.0052233333333","6500400","永和區"
"241031","845-RS","2017/08/10 13:09:45","新北市永和區保生路55-1號","121.504625","25.0109583333333","6500200","三重區"
"234040","862-TW","2017/08/10 13:10:01","新北市永和區永和路一段49巷3弄24號","121.511946666667","25.0062933333333","6500400","永和區"
"234048","863-TW","2017/08/10 13:09:57","新北市永和區保福路二段94巷17號","121.510865","25.013945","6500400","永和區"
"234025","9371-KE","2017/08/10 13:10:01","新北市永和區秀朗路一段10巷19號","121.513446666667","25.006215","6500400","永和區"
"234010","9373-KE","2017/08/10 13:09:54","新北市永和區仁愛路31巷2弄2號","121.51419","25.0130383333333","6500400","永和區"
"248015","026-BX","2017/08/10 13:09:47","新北市五股區成泰路三段221巷18號","121.445706666667","25.0934683333333","6501500","五股區"
"248005","077-UY","2017/08/10 13:09:57","新北市五股區中興路二段82號","121.460786666667","25.077265","6501500","五股區"
"248007","095-VK","2017/08/10 13:09:48","新北市五股區中興路二段182巷15弄13-1號","121.457151666667","25.081195","6501500","五股區"
"248017","225-UY","2017/08/10 13:09:56","新北市五股區新五路二段347號","121.443368333333","25.086335","6501500","五股區"
"248011","247-BX","2017/08/10 13:09:57","新北市五股區芳洲路49號","121.441545","25.083535","6501500","五股區"
"248013","261-SL","2017/08/10 13:09:53","新北市五股區成泰路一段189巷27號","121.433623333333","25.07629","6501500","五股區"
"248003","677-BX","2017/08/10 13:10:05","新北市五股區成泰路二段116號","121.437973333333","25.0833683333333","6501500","五股區"
"248001","678-BX","2017/08/10 13:09:58","新北市五股區新五路二段259號","121.442523333333","25.084975","6501500","五股區"
"248009","682-TV","2017/08/10 13:09:53","新北市五股區新五路二段139號","121.439105","25.080505","6501500","五股區"
"234022","9380-KE","2017/08/10 13:10:02","新北市永和區中興街10巷29號","121.516438333333","25.011015","6500400","永和區"
"234076","969-R7","2017/08/10 13:09:53","新北市永和區中正路164號","121.515075","24.996515","6500400","永和區"
"234072","AAC-211","2017/08/10 13:09:55","新北市永和區竹林路133號","121.520128333333","25.010935","6500400","永和區"
"234066","AAC-212","2017/08/10 13:09:42","新北市永和區永和路一段95號","121.513611666667","25.0075066666667","6500400","永和區"
"234001","AAC-295","2017/08/10 13:09:45","新北市永和區永和路二段8號","121.514558333333","25.0101766666667","6500400","永和區"
"241031","069-UM","2017/08/10 11:37:06","新北市林口區粉寮69號","121.405005","25.090855","6500200","三重區"
"244003","248-BX","2017/08/10 13:09:43","新北市林口區民生路42號","121.376323333333","25.0867983333333","6501700","林口區"
"241031","402-UM","2017/08/10 11:05:40","新北市林口區粉寮69號","121.405073333333","25.090965","6500200","三重區"
"244018","403-UM","2017/08/10 10:48:32","新北市林口區粉寮69號","121.405083333333","25.0907883333333","6501700","林口區"
"241031","410-SL","2017/08/10 10:32:16","新北市林口區粉寮69號","121.405093333333","25.0908433333333","6500200","三重區"
"241031","658-BX","2017/08/10 13:10:01","新北市林口區粉寮路二段24號","121.402811666667","25.0863116666667","6500200","三重區"
"244025","837-TS","2017/08/10 10:22:43","新北市林口區粉寮路二段160巷28號","121.4052","25.0907616666667","6501700","林口區"
"243005","AAD-798","2017/08/10 13:10:02","新北市泰山區犁頭窠18號","121.421386666667","25.0519916666667","6501600","泰山區"
"243001","297-R6","2017/08/10 12:31:25","新北市泰山區黎明路25號","121.421975","25.0609133333333","6501600","泰山區"
"243007","380-SR","2017/08/10 12:42:07","新北市泰山區犁頭窠3-1號","121.422158333333","25.0604416666667","6501600","泰山區"
"241031","421-VK","2017/08/10 12:17:11","新北市泰山區黎明路25號","121.42216","25.0606366666667","6500200","三重區"
"243008","680-BX","2017/08/10 11:13:02","新北市泰山區犁頭窠3-1號","121.422258333333","25.0604733333333","6501600","泰山區"
"231025","0291-UT","2017/08/10 13:10:02","新北市新店區安華路28-1號","121.5191","24.960625","6500600","新店區"
"231028","046-UY","2017/08/10 13:09:43","新北市新店區安華路28-1號","121.519523333333","24.96085","6500600","新店區"
"231029","106-UY","2017/08/10 13:09:50","新北市新店區安華路28-1號","121.519423333333","24.96084","6500600","新店區"
"231018","107-UY","2017/08/10 13:09:56","新北市新店區安華路28-1號","121.519596666667","24.961305","6500600","新店區"
"231011","108-UY","2017/08/10 13:10:04","新北市新店區安華路28-1號","121.51953","24.9612533333333","6500600","新店區"
"231035","110-UY","2017/08/10 13:09:54","新北市新店區安華路28-1號","121.51964","24.9613","6500600","新店區"
"231021","187-VK","2017/08/10 13:09:51","新北市新店區安華路28-1號","121.519491666667","24.9612333333333","6500600","新店區"
"241031","188-VK","2017/08/10 02:22:50","新北市新店區安華路28-1號","121.51996","24.96133","6500200","三重區"
"241031","189-VK","2017/08/08 03:24:53","新北市新店區安華路28-1號","121.519805","24.9611233333333","6500200","三重區"
"231008","192-VK","2017/08/10 13:09:58","新北市新店區新烏路一段73號","121.546351666667","24.9427016666667","6500600","新店區"
"241031","256-BX","2017/08/10 13:09:55","新北市新店區安華路28-1號","121.519641666667","24.9611133333333","6500200","三重區"
"231010","278-BY","2017/08/10 13:09:56","新北市新店區安華路28-1號","121.51955","24.96122","6500600","新店區"
"241031","AAD-862","2017/08/10 13:10:01","新北市新店區安華路28-1號","121.519761666667","24.9612883333333","6500200","三重區"
"241031","355-BY","2017/08/10 09:56:41","新北市新店區安華路28-1號","121.519371666667","24.9609983333333","6500200","三重區"
"231027","3712-VJ","2017/08/10 13:09:47","新北市新店區安華路28-1號","121.519361666667","24.9605783333333","6500600","新店區"
"231024","3713-VJ","2017/08/10 13:10:04","新北市新店區安華路28-1號","121.519313333333","24.96061","6500600","新店區"
"231038","4715-K9","2017/08/10 13:10:02","新北市新店區安華路28-1號","121.519521666667","24.96055","6500600","新店區"
"231036","512-UM","2017/08/10 13:09:55","新北市新店區安華路28-1號","121.519541666667","24.9613033333333","6500600","新店區"
"231023","513-UM","2017/08/10 13:10:00","新北市新店區安華路28-1號","121.519643333333","24.9611166666667","6500600","新店區"
"241031","515-UM","2017/08/10 13:09:54","新北市新店區安華路28-1號","121.519525","24.9612983333333","6500200","三重區"
"231030","618-UM","2017/08/10 13:09:48","新北市新店區安和路一段21號","121.516981666667","24.9647416666667","6500600","新店區"
"231001","619-UM","2017/08/10 13:09:46","新北市新店區安華路28-1號","121.519476666667","24.960985","6500600","新店區"
"231003","641-BX","2017/08/10 13:09:50","新北市新店區光明街137號","121.539331666667","24.9620533333333","6500600","新店區"
"231034","645-TV","2017/08/10 13:09:48","新北市新店區安華路28-1號","121.51926","24.9605816666667","6500600","新店區"
"231013","719-UM","2017/08/10 13:09:50","新北市新店區安華路28-1號","121.519448333333","24.961185","6500600","新店區"
"231031","720-UM","2017/08/10 13:09:53","新北市新店區安華路28-1號","121.519305","24.961325","6500600","新店區"
"231005","897-TW","2017/08/10 13:09:58","新北市新店區安華路28-1號","121.51966","24.9608766666667","6500600","新店區"
"231006","898-TW","2017/08/10 13:09:51","新北市新店區安華路28-1號","121.519425","24.9608766666667","6500600","新店區"
"231004","899-TW","2017/08/10 13:09:50","新北市新店區安華路28-1號","121.519671666667","24.9606933333333","6500600","新店區"
"231037","AKT-0513","2017/08/10 13:09:56","新北市新店區安華路28-1號","121.519518333333","24.9606216666667","6500600","新店區"
"241031","478-VK","2017/08/10 13:09:45","新北市三重區正義北路125號","121.496821666667","25.066105","6500200","三重區"
"235030","003-UY","2017/08/10 13:10:02","新北市中和區廣福路10號","121.505631666667","25.00281","6500300","中和區"
"235028","005-UY","2017/08/10 13:10:00","新北市中和區中正路589巷15號","121.48589","24.9936516666667","6500300","中和區"
"235027","006-UY","2017/08/10 13:09:58","新北市中和區員山路36巷16-3號","121.48496","24.9913433333333","6500300","中和區"
"241031","096-UM","2017/08/10 13:09:28","新北市中和區員山路36巷16-3號","121.484738333333","24.9914566666667","6500200","三重區"
"235003","097-UM","2017/08/10 13:09:55","新北市中和區錦和路350-1號","121.490056666667","24.99361","6500300","中和區"
"235029","098-UM","2017/08/10 13:09:55","新北市中和區橋和路282號","121.496275","25.00687","6500300","中和區"
"241031","150-BY","2017/08/10 13:09:53","新北市中和區員山路36巷16-4號","121.485331666667","24.9918433333333","6500200","三重區"
"235022","151-BY","2017/08/10 13:09:59","新北市中和區圓通路367巷33弄6-1號","121.492893333333","24.9857233333333","6500300","中和區"
"241031","183-VK","2017/08/10 13:09:58","新北市中和區員山路36巷16-3號","121.485086666667","24.991325","6500200","三重區"
"235002","185-VK","2017/08/10 13:09:44","新北市中和區自立路35號","121.522141666667","24.9954683333333","6500300","中和區"
"241031","186-VK","2017/08/10 00:55:18","新北市中和區員山路36巷13號","121.484043333333","24.9908433333333","6500200","三重區"
"235031","255-BX","2017/08/10 13:09:43","新北市中和區中正路879號","121.484278333333","25.0040366666667","6500300","中和區"
"241031","293-VK","2017/08/10 13:09:54","新北市中和區員山路36巷16-3號","121.48515","24.9911866666667","6500200","三重區"
"235036","301-VK","2017/08/10 13:09:50","新北市中和區員山路36巷13號","121.484011666667","24.9910333333333","6500300","中和區"
"241031","352-BY","2017/08/10 13:09:49","新北市中和區員山路36巷16-3號","121.484788333333","24.9918333333333","6500200","三重區"
"235015","376-QA","2017/08/10 13:09:43","新北市中和區捷運路3號","121.509633333333","24.9893266666667","6500300","中和區"
"235032","377-QA","2017/08/10 13:09:54","新北市中和區員山路36巷16-3號","121.48515","24.9911433333333","6500300","中和區"
"241031","378-QA","2017/08/10 13:09:56","新北市中和區員山路36巷16-2號","121.485393333333","24.9915283333333","6500200","三重區"
"241031","467-BY","2017/08/10 13:09:57","新北市中和區中正路589巷15號","121.485685","24.9935666666667","6500200","三重區"
"241031","4979-A6","2017/08/10 00:59:29","新北市中和區員山路66-6號","121.483173333333","24.9924966666667","6500200","三重區"
"235033","4980-A6","2017/08/10 13:09:59","新北市中和區錦和路350-1號","121.490715","24.9934683333333","6500300","中和區"
"235006","551-UM","2017/08/10 13:10:01","新北市中和區景平路253號","121.508838333333","24.9929183333333","6500300","中和區"
"235034","558-UM","2017/08/10 13:09:54","新北市中和區員山路36巷16-7號","121.484891666667","24.9922083333333","6500300","中和區"
"241031","565-BX","2017/08/10 13:09:56","新北市中和區員山路36巷13號","121.484218333333","24.990945","6500200","三重區"
"235018","640-BX","2017/08/10 13:10:01","新北市中和區員山路57號","121.480793333333","24.9934216666667","6500300","中和區"
"235024","647-TV","2017/08/10 13:09:48","新北市中和區員山路36巷16-3號","121.484853333333","24.9914766666667","6500300","中和區"
"235011","732-UM","2017/08/10 13:09:51","新北市中和區員山路36巷13號","121.48416","24.9909816666667","6500300","中和區"
"241031","733-UM","2017/08/10 13:10:04","新北市中和區員山路36巷13號","121.48417","24.9908083333333","6500200","三重區"
"235026","800-TS","2017/08/10 13:09:37","新北市中和區建一路2號","121.487973333333","25.0044483333333","6500300","中和區"
"241031","801-TS","2017/08/10 10:42:25","新北市中和區員山路36巷16-2號","121.485106666667","24.99177","6500200","三重區"
"235005","802-TS","2017/08/10 13:09:52","新北市中和區錦和路350-1號","121.490478333333","24.9936266666667","6500300","中和區"
"241031","805-TS","2017/08/10 13:10:00","新北市中和區員山路36巷16號","121.484378333333","24.9914533333333","6500200","三重區"
"241031","896-TW","2017/08/10 13:09:47","新北市中和區員山路36巷16-3號","121.484983333333","24.9918033333333","6500200","三重區"
"235017","900-TW","2017/08/10 01:49:10","新北市中和區員山路36巷16-2號","121.485141666667","24.9916833333333","6500300","中和區"
"241031","157-BY","2017/08/10 12:11:08","新北市中和區員山路36巷13號","121.484098333333","24.99105","6500200","三重區"
"235001","AAC-213","2017/08/10 13:09:59","新北市中和區錦和路350-1號","121.49006","24.9935816666667","6500300","中和區"
"235023","AAC-215","2017/08/10 13:09:55","新北市中和區員山路36巷16-3號","121.485025","24.9913683333333","6500300","中和區"
"241031","013-TV","2017/08/10 13:09:59","新北市板橋區民生路二段16號","121.473016666667","25.01642","6500200","三重區"
"220013","072-UY","2017/08/10 13:09:53","新北市板橋區民生路二段36-1號","121.472531666667","25.0168916666667","6500100","板橋區"
"241031","073-UY","2017/08/10 08:12:02","新北市板橋區溪城路90-2號","121.428955","24.9803433333333","6500200","三重區"
"241031","546-UM","2017/08/10 13:09:47","新北市五股區中興路三段163號","121.449081666667","25.0810016666667","6500200","三重區"
"241031","402-BY","2017/08/10 13:09:45","新北市蘆洲區長樂路93號","121.462226666667","25.08747","6500200","三重區"
"241031","341-TH","2017/08/10 13:09:46","新北市五股區中興路三段163號","121.44933","25.0808216666667","6500200","三重區"
"241031","339-TH","2017/08/10 13:09:45","新北市五股區中興路三段5號","121.449293333333","25.0800733333333","6500200","三重區"
"241031","337-TH","2017/08/10 13:09:51","新北市五股區中興路三段2巷10號","121.449228333333","25.08101","6500200","三重區"
"241031","056-VK","2017/08/10 13:09:59","新北市五股區中興路三段2巷10號","121.449136666667","25.081045","6500200","三重區"
"241031","007-UY","2017/08/10 13:09:52","新北市五股區中興路三段163號","121.449195","25.0807433333333","6500200","三重區"
"241031","002-UY","2017/08/10 10:44:38","新北市五股區中興路三段163號","121.448811666667","25.08092","6500200","三重區"
"241031","001-UY","2017/08/10 09:52:27","新北市五股區中興路三段2巷10號","121.449201666667","25.0810366666667","6500200","三重區"
"241031","092-VK","2017/08/10 11:51:04","新北市中和區員山路36巷2-1號","121.482678333333","24.9904466666667","6500200","三重區"
"228005","097-TW","2017/08/10 13:09:55","新北市貢寮區仁理村仁和路49巷7號","121.923191666667","25.0539216666667","6502600","貢寮區"
"228004","212-TW","2017/08/10 13:10:02","新北市貢寮區吉林里內寮街71-1號","121.892826666667","24.97349","6502600","貢寮區"
"241031","642-TC","2017/08/10 13:09:56","新北市雙溪區三貂里政光路3-1號","121.850906666667","25.0631333333333","6500200","三重區"
"241031","400-TW","2017/08/10 08:06:18","新北市雙溪區三貂里政光路3-1號","121.850858333333","25.0630416666667","6500200","三重區"
"208004","AAC-292","2017/08/10 13:09:52","新北市金山區中山路192號","121.637901666667","25.221465","6502700","金山區"
"241031","011-UM","2017/08/10 10:18:28","新北市淡水區中正路二段31號","121.41928","25.181835","6500200","三重區"
"207002","749-BX","2017/08/10 13:04:19","新北市萬里區溪底里香員林路15-2號","121.63321","25.1631966666667","6502800","萬里區"
"252005","073-UM","2017/08/10 13:09:51","新北市三芝區智成街116號","121.505828333333","25.2553183333333","6502100","三芝區"
"241031","249-BX","2017/08/10 13:09:48","新北市淡水區淡金路五段172號","121.457291666667","25.2403716666667","6500200","三重區"
"207001","662-BX","2017/08/10 13:10:04","新北市萬里區萬里里瑪鋉路85號","121.688588333333","25.176875","6502800","萬里區"
"241031","361-BY","2017/08/10 13:09:59","新北市三峽區中山路459巷137號","121.349381666667","24.9335983333333","6500200","三重區"
"237009","210-TH","2017/08/10 13:07:01","新北市三峽區中山路459巷163-3號","121.348696666667","24.9330666666667","6500900","三峽區"
"241031","275-BY","2017/08/10 13:09:46","新北市三峽區中華路61號","121.37228","24.9304816666667","6500200","三重區"
"241031","159-BY","2017/08/10 13:09:48","新北市三峽區介壽路一段232號","121.378425","24.930415","6500200","三重區"
"241031","572-TV","2017/08/10 13:09:55","新北市三峽區中山路459巷163-3號","121.348955","24.9330866666667","6500200","三重區"
"241031","682-BX","2017/08/10 09:27:33","新北市三峽區中山路459巷163-3號","121.34871","24.933165","6500200","三重區"
"241031","756-BX","2017/08/10 10:11:06","新北市三峽區中山路459巷163-3號","121.348881666667","24.933085","6500200","三重區"
"241031","760-BX","2017/08/10 10:03:12","新北市三峽區中山路459巷163-3號","121.348863333333","24.9330466666667","6500200","三重區"
"241031","105-UM","2017/08/10 12:59:01","新北市土城區城林路6巷80號","121.438565","24.9798066666667","6500200","三重區"
"241031","107-UM","2017/08/10 12:51:06","新北市土城區城林路6巷80號","121.438355","24.97988","6500200","三重區"
"241031","138-TH","2017/08/10 11:03:01","新北市土城區永平街51號","121.428001666667","24.9591516666667","6500200","三重區"
"241031","270-VK","2017/08/10 13:06:09","新北市土城區城林路6巷80號","121.438426666667","24.9798366666667","6500200","三重區"
"241031","271-VK","2017/08/10 13:09:46","新北市土城區城林路6巷80號","121.438538333333","24.9799133333333","6500200","三重區"
"241031","370-SL","2017/08/10 13:04:03","新北市土城區永和街2巷8號","121.434368333333","24.9648083333333","6500200","三重區"
"241031","371-SL","2017/08/10 13:09:59","新北市土城區中央路三段108號","121.435593333333","24.9663416666667","6500200","三重區"
"236005","498-BY","2017/08/10 13:10:01","新北市土城區亞洲路70號","121.435086666667","24.973145","6501300","土城區"
"241031","AAC-216","2017/08/10 12:42:30","新北市土城區城林路6巷80號","121.438313333333","24.9797883333333","6500200","三重區"
"241031","233-RS","2017/08/10 13:09:46","新北市新莊區環河路48-7號","121.436896666667","25.0098466666667","6500200","三重區"
"241031","312-TH","2017/08/10 13:09:58","新北市樹林區育德街78-1號","121.387666666667","24.9681116666667","6500200","三重區"
"241031","308-TH","2017/08/10 13:09:53","新北市樹林區東豐街51號","121.414991666667","24.9754366666667","6500200","三重區"
"241031","527-UM","2017/08/10 11:46:46","新北市鶯歌區環河路177-23號","121.34498","24.9355833333333","6500200","三重區"
"241031","276-VK","2017/08/10 13:09:54","新北市汐止區汐萬路一段256巷3號","121.653215","25.0744383333333","6500200","三重區"
"241031","277-VK","2017/08/10 13:09:56","新北市汐止區橫科路2巷1號","121.616973333333","25.05156","6500200","三重區"
"221023","279-VK","2017/08/10 03:05:54","新北市汐止區康寧街901號","121.651703333333","25.07495","6501100","汐止區"
"241031","280-BY","2017/08/10 13:10:00","新北市汐止區龍安路40號","121.654408333333","25.0637933333333","6500200","三重區"
"241031","488-VK","2017/08/10 11:01:54","新北市汐止區汐萬路一段256巷3號","121.652666666667","25.07449","6500200","三重區"
"241031","567-BX","2017/08/10 12:14:12","新北市汐止區汐萬路一段150號","121.652891666667","25.0712316666667","6500200","三重區"
"241031","647-BX","2017/08/10 13:09:58","新北市汐止區秀峰路151巷3號","121.661085","25.0623566666667","6500200","三重區"
"221002","753-BX","2017/08/10 13:09:46","新北市汐止區福德一路342巷1弄7號","121.628955","25.0632266666667","6501100","汐止區"
"241031","256-TC","2017/08/10 13:09:57","新北市板橋區大觀路三段85巷55號","121.435136666667","24.9935833333333","6500200","三重區"
"241031","258-TC","2017/08/10 11:14:08","新北市板橋區金門街369巷95號","121.430118333333","24.980865","6500200","三重區"
"241031","259-TC","2017/08/10 12:34:41","新北市板橋區四川路二段130巷39弄1號","121.448936666667","24.995075","6500200","三重區"
"241031","267-BY","2017/08/10 13:09:52","新北市板橋區民生路二段161巷1號","121.470186666667","25.0200883333333","6500200","三重區"
"241031","276-BY","2017/08/10 12:13:19","新北市板橋區民生路二段36-1號","121.472581666667","25.0166966666667","6500200","三重區"
"241031","277-BY","2017/08/10 13:09:54","新北市板橋區華東街1-10號","121.448253333333","24.995075","6500200","三重區"
"241031","280-UM","2017/08/10 11:46:20","新北市板橋區民生路二段16-1號","121.473075","25.0163816666667","6500200","三重區"
"241031","281-UM","2017/08/10 11:23:44","新北市板橋區大觀路二段435-10號","121.44607","24.994275","6500200","三重區"
"241031","293-UM","2017/08/10 13:09:59","新北市板橋區民生路二段36-1號","121.472541666667","25.0167966666667","6500200","三重區"
"241031","296-UM","2017/08/10 12:17:01","新北市板橋區華東街1-9號","121.448113333333","24.9949033333333","6500200","三重區"
"241031","281-VK","2017/08/10 13:09:46","新北市新莊區瓊林路48-1號","121.446491666667","25.0289666666667","6500200","三重區"
"241031","305-R5","2017/08/10 13:09:59","新北市板橋區民生路二段16號","121.472983333333","25.0165333333333","6500200","三重區"
"241031","486-VK","2017/08/10 02:30:21","新北市板橋區民生路二段36-1號","121.47237","25.016725","6500200","三重區"
"241031","280-VK","2017/08/10 13:09:43","新北市新莊區環河路636-7號","121.43735","25.01117","6500200","三重區"
"220011","609-BX","2017/08/10 00:42:52","新北市板橋區民生路二段36-1號","121.472506666667","25.0167166666667","6500100","板橋區"
"220005","686-BX","2017/08/10 13:09:43","新北市板橋區民生路二段36-1號","121.472496666667","25.0167616666667","6500100","板橋區"
"241031","741-BX","2017/08/10 13:09:56","新北市板橋區民生路二段36-1號","121.472566666667","25.0168766666667","6500200","三重區"
"241031","755-RS","2017/08/10 11:00:36","新北市板橋區大觀路二段435-10號","121.445131666667","24.99451","6500200","三重區"
"241031","806-UM","2017/08/10 12:49:22","新北市板橋區華東街1-10號","121.448663333333","24.9948066666667","6500200","三重區"
"241031","830-TW","2017/08/10 12:26:45","新北市板橋區民生路二段120號","121.470291666667","25.0198","6500200","三重區"
"241031","895-R6","2017/08/10 13:09:48","新北市板橋區華東街1-10號","121.448728333333","24.9950666666667","6500200","三重區"
