"lineid","car","time","location","longitude","latitude","cityid","cityname"
"234044","148-BY","2017/08/10 13:31:55","新北市永和區秀朗路二段127號","121.524295","25.001685","6500400","永和區"
"234012","149-BY","2017/08/10 13:31:48","新北市永和區中山路一段184巷9弄19號","121.508326666667","25.008985","6500400","永和區"
"234005","207-UY","2017/08/10 13:31:47","新北市永和區永貞路375號","121.508358333333","25.0082916666667","6500400","永和區"
"241031","209-UY","2017/08/10 06:36:38","新北市永和區保生路55號","121.504588333333","25.0107483333333","6500200","三重區"
"234078","298-R6","2017/08/10 13:32:01","新北市永和區福和路7巷5弄7號","121.525588333333","25.00835","6500400","永和區"
"234036","336-UY","2017/08/10 13:31:50","新北市永和區民樂街21號","121.527603333333","25.0020266666667","6500400","永和區"
"234062","337-UY","2017/08/10 13:31:46","新北市永和區中正路368巷1弄59號","121.519728333333","25.00098","6500400","永和區"
"234084","338-UY","2017/08/10 13:31:52","新北市永和區永元路138號","121.52285","25.0030883333333","6500400","永和區"
"241031","395-TH","2017/08/10 13:31:57","新北市永和區成功路二段76號","121.52657","24.9991183333333","6500200","三重區"
"234068","552-UM","2017/08/10 13:32:02","新北市永和區永和路二段239號","121.515753333333","25.0146383333333","6500400","永和區"
"234052","553-UM","2017/08/10 13:32:00","新北市永和區竹林路27號","121.517348333333","25.0145816666667","6500400","永和區"
"241031","693-BX","2017/08/10 10:30:33","新北市永和區福和路1號","121.526703333333","25.0100116666667","6500200","三重區"
"241031","695-BX","2017/08/10 13:32:05","新北市永和區福和路1號","121.525426666667","25.00925","6500200","三重區"
"234015","745-BX","2017/08/10 13:32:00","新北市永和區環河西路一段51巷1號","121.514155","25.018165","6500400","永和區"
"234028","746-BX","2017/08/10 13:32:02","新北市永和區民權路1巷22號","121.521391666667","24.99826","6500400","永和區"
"241031","840-RS","2017/08/10 13:32:02","新北市永和區福和路8巷3號","121.52501","25.0091083333333","6500200","三重區"
"241031","841-RS","2017/08/10 13:31:48","新北市永和區大新街26號","121.515296666667","25.0084133333333","6500200","三重區"
"234060","AAD-866","2017/08/10 13:31:52","新北市永和區永貞路137號","121.51647","25.0042466666667","6500400","永和區"
"241031","845-RS","2017/08/10 13:31:45","新北市永和區新生路2-7號","121.509266666667","25.0170366666667","6500200","三重區"
"234040","862-TW","2017/08/10 13:32:01","新北市永和區水源街39巷20號","121.510513333333","25.0034316666667","6500400","永和區"
"234048","863-TW","2017/08/10 13:31:57","新北市永和區仁愛路130號","121.511261666667","25.0130483333333","6500400","永和區"
"234025","9371-KE","2017/08/10 13:31:53","新北市永和區中山路一段17巷4弄15號","121.513438333333","25.01015","6500400","永和區"
"234010","9373-KE","2017/08/10 13:31:54","新北市永和區仁愛路109巷4號","121.512273333333","25.0127333333333","6500400","永和區"
"249001","173-UM","2017/08/10 13:31:51","新北市八里區龍米路二段6號","121.449145","25.1386233333333","6502300","八里區"
"248015","026-BX","2017/08/10 13:31:47","新北市五股區凌雲路一段83巷7弄2號","121.449823333333","25.1007316666667","6501500","五股區"
"248005","077-UY","2017/08/10 13:31:57","新北市五股區四維路71號","121.46721","25.0720583333333","6501500","五股區"
"248007","095-VK","2017/08/10 13:31:48","新北市五股區四維路185巷1號","121.468155","25.0761183333333","6501500","五股區"
"248017","225-UY","2017/08/10 13:31:56","新北市五股區民義路二段52巷15-2號","121.411021666667","25.1110566666667","6501500","五股區"
"248011","247-BX","2017/08/10 13:31:57","新北市五股區御史路43巷1號","121.442315","25.0926783333333","6501500","五股區"
"248013","261-SL","2017/08/10 13:31:53","新北市五股區成泰路一段198號","121.435971666667","25.0786966666667","6501500","五股區"
"248003","677-BX","2017/08/10 13:32:05","新北市五股區民義路一段185-1號","121.431011666667","25.088515","6501500","五股區"
"248001","678-BX","2017/08/10 13:31:58","新北市五股區成泰路三段315-1號","121.447406666667","25.095185","6501500","五股區"
"248009","682-TV","2017/08/10 13:31:53","新北市五股區自強路85號","121.432561666667","25.071905","6501500","五股區"
"234022","9380-KE","2017/08/10 13:32:02","新北市永和區環河東路二段90號","121.523886666667","25.01059","6500400","永和區"
"234076","969-R7","2017/08/10 13:31:53","新北市永和區中正路316號","121.517858333333","24.9993566666667","6500400","永和區"
"234072","AAC-211","2017/08/10 13:31:55","新北市永和區福和路76巷6弄1號","121.52296","25.0084833333333","6500400","永和區"
"234066","AAC-212","2017/08/10 13:32:02","新北市永和區永貞路361巷1號","121.509031666667","25.007705","6500400","永和區"
"234001","AAC-295","2017/08/10 13:32:05","新北市永和區福和路353號","121.51472","25.00728","6500400","永和區"
"241031","069-UM","2017/08/10 11:37:06","新北市林口區粉寮69號","121.405005","25.090855","6500200","三重區"
"244003","248-BX","2017/08/10 13:30:43","新北市林口區瑞平里8鄰53號","121.342515","25.12247","6501700","林口區"
"241031","402-UM","2017/08/10 11:05:40","新北市林口區粉寮69號","121.405073333333","25.090965","6500200","三重區"
"244018","403-UM","2017/08/10 10:48:32","新北市林口區粉寮69號","121.405083333333","25.0907883333333","6501700","林口區"
"241031","410-SL","2017/08/10 10:32:16","新北市林口區粉寮69號","121.405093333333","25.0908433333333","6500200","三重區"
"241031","656-BX","2017/08/10 13:31:47","新北市林口區粉寮路17巷1號","121.398475","25.0807883333333","6500200","三重區"
"241031","658-BX","2017/08/10 13:32:01","新北市林口區忠孝二路55號","121.3643","25.06989","6500200","三重區"
"244025","837-TS","2017/08/10 10:22:43","新北市林口區粉寮路二段160巷28號","121.4052","25.0907616666667","6501700","林口區"
"243005","AAD-798","2017/08/10 13:32:02","新北市泰山區明志路三段206巷3號","121.42331","25.0379233333333","6501600","泰山區"
"243001","297-R6","2017/08/10 12:31:25","新北市泰山區黎明路25號","121.421975","25.0609133333333","6501600","泰山區"
"243007","380-SR","2017/08/10 13:31:49","新北市泰山區犁頭窠3-1號","121.42201","25.0602583333333","6501600","泰山區"
"241031","421-VK","2017/08/10 12:17:11","新北市泰山區黎明路25號","121.42216","25.0606366666667","6500200","三重區"
"243004","646-TV","2017/08/10 09:06:55","新北市泰山區黎明路26號","121.421238333333","25.0605283333333","6501600","泰山區"
"243008","680-BX","2017/08/10 11:13:02","新北市泰山區犁頭窠3-1號","121.422258333333","25.0604733333333","6501600","泰山區"
"231002","002-UM","2017/08/10 13:31:54","新北市新店區環河路62號","121.537043333333","24.9626316666667","6500600","新店區"
"231025","0291-UT","2017/08/10 13:32:02","新北市新店區中央七街61巷12號","121.528715","24.9762666666667","6500600","新店區"
"231028","046-UY","2017/08/10 13:31:43","新北市新店區安和路一段6號","121.517043333333","24.9647366666667","6500600","新店區"
"231029","106-UY","2017/08/10 13:31:50","新北市新店區安豐路39號","121.500463333333","24.9558766666667","6500600","新店區"
"231018","107-UY","2017/08/10 13:31:56","新北市新店區中央路206號","121.530301666667","24.9739983333333","6500600","新店區"
"231011","108-UY","2017/08/10 13:32:04","新北市新店區德正街23巷12-1號","121.54474","24.9721966666667","6500600","新店區"
"231035","110-UY","2017/08/10 13:31:54","新北市新店區安康路二段66號","121.514773333333","24.9636366666667","6500600","新店區"
"231021","187-VK","2017/08/10 13:31:51","新北市新店區北宜路一段170號","121.540666666667","24.953005","6500600","新店區"
"241031","188-VK","2017/08/10 02:22:50","新北市新店區安華路28-1號","121.51996","24.96133","6500200","三重區"
"241031","189-VK","2017/08/08 03:24:53","新北市新店區安華路28-1號","121.519805","24.9611233333333","6500200","三重區"
"231026","256-BX","2017/08/10 13:31:55","新北市新店區北宜路一段154號","121.540315","24.9537133333333","6500600","新店區"
"231010","278-BY","2017/08/10 13:31:37","新北市新店區自由街13號","121.53545","24.974885","6500600","新店區"
"231017","AAD-862","2017/08/10 13:31:56","新北市新店區北宜路二段52-1號","121.549231666667","24.95113","6500600","新店區"
"241031","355-BY","2017/08/10 09:56:41","新北市新店區安華路28-1號","121.519371666667","24.9609983333333","6500200","三重區"
"231027","3712-VJ","2017/08/10 13:31:47","新北市新店區新店後街74號","121.53763","24.9545","6500600","新店區"
"231024","3713-VJ","2017/08/10 13:32:04","新北市新店區中正路154巷6號","121.541846666667","24.972035","6500600","新店區"
"231038","4715-K9","2017/08/10 13:32:02","新北市新店區安華路30巷1號","121.519581666667","24.9592766666667","6500600","新店區"
"231036","512-UM","2017/08/10 13:31:55","新北市新店區安祥路142號","121.474143333333","24.9549566666667","6500600","新店區"
"231023","513-UM","2017/08/10 13:31:59","新北市新店區新店路14號","121.538031666667","24.95263","6500600","新店區"
"241031","515-UM","2017/08/10 13:17:53","新北市新店區安華路28-1號","121.519566666667","24.9612016666667","6500200","三重區"
"231030","618-UM","2017/08/10 13:31:48","新北市新店區安康路一段295號","121.522496666667","24.96371","6500600","新店區"
"231001","619-UM","2017/08/10 13:31:46","新北市新店區力行路15號","121.537071666667","24.9660866666667","6500600","新店區"
"231003","641-BX","2017/08/10 13:31:50","新北市新店區北新路一段96巷23號","121.542931666667","24.9690166666667","6500600","新店區"
"231034","645-TV","2017/08/10 13:31:48","新北市新店區車子路110號","121.505188333333","24.9520416666667","6500600","新店區"
"231013","719-UM","2017/08/10 13:31:50","新北市新店區中正路454-5號","121.534461666667","24.9790383333333","6500600","新店區"
"231031","720-UM","2017/08/10 13:31:53","新北市新店區安忠路57巷13號","121.513571666667","24.9572666666667","6500600","新店區"
"231005","897-TW","2017/08/10 13:31:59","新北市新店區北新路一段303號","121.541435","24.9675233333333","6500600","新店區"
"231006","898-TW","2017/08/10 13:31:53","新北市新店區安康路一段142號","121.52651","24.96289","6500600","新店區"
"231004","899-TW","2017/08/10 13:31:51","新北市新店區力行路11巷57號","121.538648333333","24.9618383333333","6500600","新店區"
"231037","AKT-0513","2017/08/10 13:31:56","新北市新店區薏仁坑路33號","121.493645","24.9626783333333","6500600","新店區"
"241031","478-VK","2017/08/10 13:31:45","新北市三重區三和路三段123號","121.493028333333","25.073365","6500200","三重區"
"235030","003-UY","2017/08/10 13:23:49","新北市中和區中山路二段122號","121.502628333333","25.0036133333333","6500300","中和區"
"235028","005-UY","2017/08/10 13:32:00","新北市中和區圓通路160-1號","121.497656666667","24.9955916666667","6500300","中和區"
"235027","006-UY","2017/08/10 13:31:58","新北市中和區連城路347巷6弄2號","121.488228333333","24.9954133333333","6500300","中和區"
"235020","096-UM","2017/08/10 13:31:48","新北市中和區新民街104號","121.480808333333","25.0083566666667","6500300","中和區"
"235003","097-UM","2017/08/10 13:31:55","新北市中和區景平路105號","121.516898333333","24.9919916666667","6500300","中和區"
"235029","098-UM","2017/08/10 13:31:55","新北市中和區莊敬路49巷10弄11號","121.502103333333","25.0055716666667","6500300","中和區"
"235004","150-BY","2017/08/10 13:31:50","新北市中和區安平路59號","121.509435","24.9951233333333","6500300","中和區"
"235022","151-BY","2017/08/10 13:31:59","新北市中和區圓通路369巷66號","121.490531666667","24.9824183333333","6500300","中和區"
"235019","183-VK","2017/08/10 13:31:57","新北市中和區民享街287-1號","121.470131666667","24.995435","6500300","中和區"
"235002","185-VK","2017/08/10 13:31:44","新北市中和區秀朗路三段128巷17弄4號","121.524283333333","24.9935316666667","6500300","中和區"
"235013","186-VK","2017/08/10 13:31:58","新北市中和區景安路100號","121.505493333333","24.99558","6500300","中和區"
"235031","255-BX","2017/08/10 13:32:03","新北市中和區員山路148巷39-4號","121.482485","24.9971516666667","6500300","中和區"
"241031","293-VK","2017/08/10 13:31:54","新北市中和區錦和路350-1號","121.490571666667","24.9935733333333","6500200","三重區"
"235036","301-VK","2017/08/10 13:31:50","新北市中和區連城路224號","121.491118333333","24.9964633333333","6500300","中和區"
"235007","352-BY","2017/08/10 13:31:49","新北市中和區景平路313號","121.506313333333","24.9931766666667","6500300","中和區"
"235015","376-QA","2017/08/10 13:31:43","新北市中和區興南路二段114巷12號","121.503961666667","24.9845833333333","6500300","中和區"
"235032","377-QA","2017/08/10 13:31:54","新北市中和區圓通路295-3號","121.494508333333","24.9918966666667","6500300","中和區"
"235025","378-QA","2017/08/10 13:31:56","新北市中和區民享街116巷11號","121.473835","24.9986916666667","6500300","中和區"
"241031","467-BY","2017/08/10 13:31:57","新北市中和區景德街61號","121.517248333333","24.9914566666667","6500200","三重區"
"235014","4979-A6","2017/08/10 13:20:30","新北市中和區南山路325號","121.50516","24.9913","6500300","中和區"
"235033","4980-A6","2017/08/10 13:31:59","新北市中和區連城路99巷71號","121.497353333333","24.9982866666667","6500300","中和區"
"235006","551-UM","2017/08/10 13:32:01","新北市中和區秀朗路三段128巷1弄15號","121.523703333333","24.9915716666667","6500300","中和區"
"235034","558-UM","2017/08/10 13:31:54","新北市中和區圓通路115號","121.499371666667","24.996405","6500300","中和區"
"235009","565-BX","2017/08/10 13:31:56","新北市中和區復興路37號","121.505213333333","24.9898866666667","6500300","中和區"
"235018","640-BX","2017/08/10 13:32:01","新北市中和區民享街105號","121.474875","24.9996416666667","6500300","中和區"
"235024","647-TV","2017/08/10 13:31:48","新北市中和區員山路395號","121.48122","25.0030366666667","6500300","中和區"
"235011","732-UM","2017/08/10 13:31:51","新北市中和區南山路234號","121.506678333333","24.9899366666667","6500300","中和區"
"235010","733-UM","2017/08/10 13:31:44","新北市中和區中正路305號","121.492401666667","24.993745","6500300","中和區"
"235026","800-TS","2017/08/10 13:31:57","新北市中和區景平路677巷5號","121.496185","25.0027233333333","6500300","中和區"
"241031","801-TS","2017/08/10 13:32:03","新北市中和區民享街97巷22號","121.475338333333","24.9999366666667","6500200","三重區"
"235005","802-TS","2017/08/10 13:31:52","新北市永和區中和路483-3號","121.510421666667","25.0020733333333","6500300","中和區"
"235016","805-TS","2017/08/10 13:32:00","新北市中和區興南路二段130號","121.504393333333","24.98333","6500300","中和區"
"235012","896-TW","2017/08/10 13:31:47","新北市中和區錦和路350-1號","121.490563333333","24.9935833333333","6500300","中和區"
"235017","900-TW","2017/08/10 13:31:49","新北市土城區金城路三段271號","121.4729","24.990525","6500300","中和區"
"241031","157-BY","2017/08/10 12:11:08","新北市中和區員山路36巷13號","121.484098333333","24.99105","6500200","三重區"
"235001","AAC-213","2017/08/10 13:31:59","新北市中和區景平路151巷59號","121.51487","24.9900516666667","6500300","中和區"
"235023","AAC-215","2017/08/10 13:31:55","新北市中和區員山路36巷16-3號","121.485091666667","24.9912683333333","6500300","中和區"
"220016","013-TV","2017/08/10 13:31:59","新北市板橋區民生路二段16號","121.472963333333","25.0164616666667","6500100","板橋區"
"220013","072-UY","2017/08/10 13:31:53","新北市板橋區民生路二段15-1號","121.472696666667","25.0164383333333","6500100","板橋區"
"220034","073-UY","2017/08/10 13:31:46","新北市板橋區華東街1-10號","121.448231666667","24.9950116666667","6500100","板橋區"
"241031","893-R6","2017/08/10 13:31:52","新北市五股區中興路三段163號","121.449245","25.08088","6500200","三重區"
"247009","546-UM","2017/08/10 13:31:47","新北市五股區中興路三段163號","121.449106666667","25.0808416666667","6501400","蘆洲區"
"241031","500-BY","2017/08/10 13:31:47","新北市五股區新五路三段260號","121.448545","25.0914","6500200","三重區"
"241031","402-BY","2017/08/10 13:31:44","新北市蘆洲區仁愛街81號","121.471226666667","25.093985","6500200","三重區"
"241031","341-TH","2017/08/10 13:31:47","新北市五股區中興路三段2巷10號","121.449156666667","25.081035","6500200","三重區"
"247007","339-TH","2017/08/10 13:32:05","新北市五股區成泰路三段436號","121.45532","25.0974683333333","6501400","蘆洲區"
"241031","337-TH","2017/08/10 13:31:52","新北市五股區新城三路45號","121.44886","25.092385","6500200","三重區"
"241031","336-TH","2017/08/10 13:31:50","新北市五股區中興路三段163號","121.44919","25.0809583333333","6500200","三重區"
"241031","335-TH","2017/08/10 13:31:47","新北市五股區中興路三段163號","121.449158333333","25.0809433333333","6500200","三重區"
"241031","057-VK","2017/08/10 13:31:56","新北市五股區中興路三段2巷10號","121.448321666667","25.08401","6500200","三重區"
"247003","056-VK","2017/08/10 13:32:00","新北市五股區工商路8號","121.440793333333","25.082755","6501400","蘆洲區"
"241031","053-VK","2017/08/10 13:31:56","新北市五股區中興路三段163號","121.44922","25.0808416666667","6500200","三重區"
"241031","007-UY","2017/08/10 13:31:52","新北市五股區中興路三段163號","121.449148333333","25.0807116666667","6500200","三重區"
"241031","002-UY","2017/08/10 13:31:59","新北市五股區中興路三段163號","121.44912","25.0807666666667","6500200","三重區"
"247015","001-UY","2017/08/10 13:32:00","新北市五股區中興路三段163號","121.44934","25.0809033333333","6501400","蘆洲區"
"241031","092-VK","2017/08/10 11:51:04","新北市中和區員山路36巷2-1號","121.482678333333","24.9904466666667","6500200","三重區"
"228005","097-TW","2017/08/10 13:31:55","新北市貢寮區美豐里文秀坑8號","121.902633333333","25.0505066666667","6502600","貢寮區"
"228004","212-TW","2017/08/10 13:26:23","新北市貢寮區龍崗里石壁坑街17號","121.91038","24.9895","6502600","貢寮區"
"241031","642-TC","2017/08/10 13:31:56","新北市雙溪區三貂里政光路3-1號","121.850815","25.0630916666667","6500200","三重區"
"241031","400-TW","2017/08/10 08:06:18","新北市雙溪區三貂里政光路3-1號","121.850858333333","25.0630416666667","6500200","三重區"
"208004","AAC-292","2017/08/10 13:31:52","新北市金山區南勢湖55號","121.61477","25.2146183333333","6502700","金山區"
"241031","011-UM","2017/08/10 10:18:28","新北市淡水區中正路二段31號","121.41928","25.181835","6500200","三重區"
"207002","749-BX","2017/08/10 13:31:59","新北市萬里區崁腳里崁腳路166號","121.645063333333","25.1558266666667","6502800","萬里區"
"252005","073-UM","2017/08/10 13:31:51","新北市三芝區福德里土地公埔67-6號","121.518625","25.227645","6502100","三芝區"
"241031","249-BX","2017/08/10 13:31:48","新北市淡水區中正東路二段131號","121.459456666667","25.1484383333333","6500200","三重區"
"207001","662-BX","2017/08/10 13:31:44","新北市萬里區大鵬里萬里加投14號","121.651743333333","25.2088266666667","6502800","萬里區"
"241031","361-BY","2017/08/10 13:21:57","新北市三峽區中山路459巷137號","121.349575","24.9336183333333","6500200","三重區"
"237009","210-TH","2017/08/10 13:31:57","新北市三峽區中山路22號","121.369341666667","24.9343716666667","6500900","三峽區"
"241031","275-BY","2017/08/10 13:31:46","新北市三峽區光明路62巷31-1號","121.374573333333","24.9306883333333","6500200","三重區"
"241031","159-BY","2017/08/10 13:31:48","新北市三峽區光明路71號","121.376005","24.9284133333333","6500200","三重區"
"241031","5529-G3","2017/08/10 13:31:49","新北市三峽區中山路459巷163-3號","121.348675","24.9329566666667","6500200","三重區"
"241031","682-BX","2017/08/10 09:27:33","新北市三峽區中山路459巷163-3號","121.34871","24.933165","6500200","三重區"
"241031","756-BX","2017/08/10 10:11:06","新北市三峽區中山路459巷163-3號","121.348881666667","24.933085","6500200","三重區"
"241031","760-BX","2017/08/10 10:03:12","新北市三峽區中山路459巷163-3號","121.348863333333","24.9330466666667","6500200","三重區"
"241031","105-UM","2017/08/10 12:59:01","新北市土城區城林路6巷80號","121.438565","24.9798066666667","6500200","三重區"
"241031","107-UM","2017/08/10 13:31:45","新北市土城區城林路6巷80號","121.438408333333","24.979855","6500200","三重區"
"241031","138-TH","2017/08/10 13:31:57","新北市土城區永寧路35號","121.430313333333","24.9623483333333","6500200","三重區"
"241031","270-VK","2017/08/10 13:06:09","新北市土城區城林路6巷80號","121.438426666667","24.9798366666667","6500200","三重區"
"241031","271-VK","2017/08/10 13:31:46","新北市土城區城林路6巷80號","121.43847","24.979825","6500200","三重區"
"241031","370-SL","2017/08/10 13:10:43","新北市土城區明德路一段371號","121.452893333333","24.979565","6500200","三重區"
"241031","371-SL","2017/08/10 13:31:59","新北市土城區裕生路102巷5號","121.446255","24.9847733333333","6500200","三重區"
"236005","498-BY","2017/08/10 13:32:01","新北市土城區慶祥街59巷1-1號","121.435891666667","24.972795","6501300","土城區"
"241031","912-UM","2017/08/10 13:31:51","新北市土城區城林路6巷80號","121.438443333333","24.979755","6500200","三重區"
"241031","AAC-216","2017/08/10 13:31:51","新北市土城區城林路6巷80號","121.438356666667","24.9797583333333","6500200","三重區"
"241031","233-RS","2017/08/10 13:32:06","新北市新莊區幸福路615號","121.451921666667","25.0491883333333","6500200","三重區"
"241031","312-TH","2017/08/10 13:31:58","新北市樹林區育德街78-1號","121.387651666667","24.9680616666667","6500200","三重區"
"241031","308-TH","2017/08/10 13:29:37","新北市樹林區育德街76巷1號","121.388788333333","24.9683166666667","6500200","三重區"
"241031","527-UM","2017/08/10 11:46:46","新北市鶯歌區環河路177-23號","121.34498","24.9355833333333","6500200","三重區"
"241031","276-VK","2017/08/10 13:21:16","新北市汐止區汐萬路一段256巷3號","121.653435","25.074645","6500200","三重區"
"241031","277-VK","2017/08/10 13:31:56","新北市汐止區大同路二段132-2號","121.651683333333","25.0638783333333","6500200","三重區"
"241031","280-BY","2017/08/10 13:32:00","新北市汐止區水源路一段56號","121.657348333333","25.065565","6500200","三重區"
"241031","488-VK","2017/08/10 11:01:54","新北市汐止區汐萬路一段256巷3號","121.652666666667","25.07449","6500200","三重區"
"241031","567-BX","2017/08/10 12:14:12","新北市汐止區汐萬路一段150號","121.652891666667","25.0712316666667","6500200","三重區"
"241031","647-BX","2017/08/10 13:31:58","台北市文山區老泉街45巷1號","121.56786","24.9769733333333","6500200","三重區"
"221002","753-BX","2017/08/10 13:31:46","新北市汐止區福德一路394號","121.627546666667","25.0608416666667","6501100","汐止區"
"220027","145-BY","2017/08/10 13:31:55","新北市板橋區華東街1-9號","121.448185","24.9948266666667","6500100","板橋區"
"241031","200-UY","2017/08/10 13:31:46","新北市板橋區華東街1-10號","121.448673333333","24.995045","6500200","三重區"
"220030","610-BX","2017/08/10 13:31:52","新北市板橋區華東街1-10號","121.448276666667","24.9949233333333","6500100","板橋區"
"241031","256-TC","2017/08/10 13:31:57","新北市板橋區大觀路二段265巷7-7號","121.443333333333","24.99427","6500200","三重區"
"241031","258-TC","2017/08/10 11:14:08","新北市板橋區金門街369巷95號","121.430118333333","24.980865","6500200","三重區"
"241031","259-TC","2017/08/10 13:31:57","新北市板橋區華東街1-10號","121.44862","24.994955","6500200","三重區"
"241031","267-BY","2017/08/10 13:31:52","新北市板橋區民生路二段161巷1號","121.4702","25.0200933333333","6500200","三重區"
"220056","276-BY","2017/08/10 13:32:01","新北市板橋區中山路一段27號","121.460416666667","25.0086166666667","6500100","板橋區"
"241031","277-BY","2017/08/10 13:31:54","新北市板橋區華東街1-10號","121.448283333333","24.9950783333333","6500200","三重區"
"241031","280-UM","2017/08/10 11:46:20","新北市板橋區民生路二段16-1號","121.473075","25.0163816666667","6500200","三重區"
"241031","281-UM","2017/08/10 13:31:47","新北市板橋區四川路二段14號","121.456113333333","24.996235","6500200","三重區"
"220019","283-VK","2017/08/10 13:31:46","新北市板橋區民生路二段56-1號","121.472423333333","25.0170066666667","6500100","板橋區"
"241031","285-VK","2017/08/10 13:31:52","新北市板橋區民生路二段30號","121.472541666667","25.0171433333333","6500200","三重區"
"241031","286-VK","2017/08/10 13:31:45","新北市板橋區華東街1-9號","121.44826","24.9948816666667","6500200","三重區"
"241031","287-VK","2017/08/10 13:31:54","新北市板橋區華東街1-10號","121.44834","24.9950366666667","6500200","三重區"
"241031","293-UM","2017/08/10 13:31:59","新北市板橋區民生路二段56-1號","121.472433333333","25.016945","6500200","三重區"
"241031","296-UM","2017/08/10 12:17:01","新北市板橋區華東街1-9號","121.448113333333","24.9949033333333","6500200","三重區"
"241031","281-VK","2017/08/10 13:31:46","新北市新莊區新泰路107號","121.44891","25.035015","6500200","三重區"
"241031","305-R5","2017/08/10 13:31:59","新北市板橋區民生路二段22號","121.472888333333","25.016535","6500200","三重區"
"241031","486-VK","2017/08/10 02:30:21","新北市板橋區民生路二段36-1號","121.47237","25.016725","6500200","三重區"
"241031","280-VK","2017/08/10 13:13:58","新北市新莊區環河路636-7號","121.43737","25.0112383333333","6500200","三重區"
"220104","560-BX","2017/08/10 13:32:06","新北市板橋區中正路1巷22號","121.455041666667","25.0113933333333","6500100","板橋區"
"220011","609-BX","2017/08/10 00:42:52","新北市板橋區民生路二段36-1號","121.472506666667","25.0167166666667","6500100","板橋區"
"241031","630-UY","2017/08/10 13:31:33","新北市板橋區華東街1-10號","121.44852","24.995405","6500200","三重區"
"220005","686-BX","2017/08/10 13:32:03","新北市板橋區民生路二段16號","121.472941666667","25.0164883333333","6500100","板橋區"
"220025","687-BX","2017/08/10 13:31:59","新北市板橋區大觀路三段50巷47號","121.432873333333","24.995845","6500100","板橋區"
"241031","741-BX","2017/08/10 13:31:56","新北市板橋區民生路二段56-1號","121.472531666667","25.01698","6500200","三重區"
"241031","755-RS","2017/08/10 11:00:36","新北市板橋區大觀路二段435-10號","121.445131666667","24.99451","6500200","三重區"
"241031","806-UM","2017/08/10 12:49:22","新北市板橋區華東街1-10號","121.448663333333","24.9948066666667","6500200","三重區"
"241031","830-TW","2017/08/10 13:31:55","新北市板橋區民生路二段120號","121.470721666667","25.0196533333333","6500200","三重區"
"220022","895-R6","2017/08/10 13:31:49","新北市板橋區南雅南路二段116號","121.45326","25.000305","6500100","板橋區"
"220021","985-R7","2017/08/10 13:31:46","新北市板橋區華東街1-10號","121.448343333333","24.9949633333333","6500100","板橋區"
