"lineid","car","time","location","longitude","latitude","cityid","cityname"
"234044","148-BY","2017/08/10 14:19:54","新北市永和區永元路120號","121.52278","25.0027033333333","6500400","永和區"
"234012","149-BY","2017/08/10 14:19:48","新北市永和區保生路40巷1號","121.505898333333","25.0082066666667","6500400","永和區"
"234005","207-UY","2017/08/10 14:19:47","新北市中和區保平路231號","121.507878333333","25.0044516666667","6500400","永和區"
"241031","209-UY","2017/08/10 13:53:28","新北市永和區保生路55號","121.504671666667","25.0107916666667","6500200","三重區"
"234078","298-R6","2017/08/10 14:20:01","新北市永和區國中路148號","121.52305","25.0069466666667","6500400","永和區"
"234036","336-UY","2017/08/10 14:19:50","新北市永和區成功路一段74號","121.526836666667","25.0033616666667","6500400","永和區"
"234062","337-UY","2017/08/10 14:19:46","新北市永和區得和路130號","121.519021666667","25.00016","6500400","永和區"
"234084","338-UY","2017/08/10 14:19:52","新北市永和區中正路611號","121.516255","25.0097116666667","6500400","永和區"
"241031","395-TH","2017/08/10 14:19:57","新北市永和區保生路55-8號","121.504033333333","25.0103233333333","6500200","三重區"
"234068","552-UM","2017/08/10 14:20:02","新北市永和區永亨路7號","121.519396666667","25.0057","6500400","永和區"
"234052","553-UM","2017/08/10 14:20:00","新北市永和區永和路二段336號","121.516435","25.0166083333333","6500400","永和區"
"241031","693-BX","2017/08/10 10:30:33","新北市永和區福和路1號","121.526703333333","25.0100116666667","6500200","三重區"
"241031","695-BX","2017/08/10 14:19:45","新北市永和區福和路1號","121.525425","25.00938","6500200","三重區"
"234015","745-BX","2017/08/10 14:20:00","新北市永和區仁愛路85號","121.513136666667","25.0132083333333","6500400","永和區"
"234028","746-BX","2017/08/10 14:19:42","新北市永和區民權路55號","121.519941666667","24.9968116666667","6500400","永和區"
"241031","838-RS","2017/08/10 14:19:49","新北市永和區竹林路124巷26號","121.518461666667","25.011245","6500200","三重區"
"241031","840-RS","2017/08/10 14:19:42","新北市永和區保生路55號","121.504465","25.01058","6500200","三重區"
"241031","841-RS","2017/08/10 14:19:48","新北市永和區永貞路354號","121.510288333333","25.00644","6500200","三重區"
"234060","AAD-866","2017/08/10 14:19:52","新北市永和區得和路51-4號","121.516896666667","25.0001483333333","6500400","永和區"
"241031","845-RS","2017/08/10 14:19:45","新北市永和區保順路27號","121.503906666667","25.010195","6500200","三重區"
"234040","862-TW","2017/08/10 14:20:01","新北市中和區安平路162號","121.512695","24.99858","6500400","永和區"
"234048","863-TW","2017/08/10 14:19:57","新北市永和區新生路2-7號","121.509415","25.016965","6500400","永和區"
"234025","9371-KE","2017/08/10 14:19:52","新北市中和區宜安路2號","121.513681666667","24.9955366666667","6500400","永和區"
"234010","9373-KE","2017/08/10 14:19:54","新北市永和區仁愛路352巷122弄30號","121.500666666667","25.0091666666667","6500400","永和區"
"248015","026-BX","2017/08/10 14:19:47","新北市五股區成洲五路12號","121.452388333333","25.1015483333333","6501500","五股區"
"248017","225-UY","2017/08/10 14:19:56","新北市五股區壟路14-2號","121.415593333333","25.0872966666667","6501500","五股區"
"248011","247-BX","2017/08/10 14:19:57","新北市五股區成泰路二段87號","121.438236666667","25.0841733333333","6501500","五股區"
"248003","677-BX","2017/08/10 14:19:45","新北市五股區五福路79號","121.432296666667","25.0900183333333","6501500","五股區"
"248001","678-BX","2017/08/10 14:19:58","新北市五股區成泰路三段625-2號","121.452678333333","25.1043266666667","6501500","五股區"
"248009","682-TV","2017/08/10 14:19:53","新北市五股區水碓一路23號","121.430603333333","25.071275","6501500","五股區"
"234022","9380-KE","2017/08/10 14:20:02","新北市永和區福和路1號","121.526705","25.0099966666667","6500400","永和區"
"234076","969-R7","2017/08/10 14:19:53","新北市永和區民族街81巷58號","121.520041666667","24.9965416666667","6500400","永和區"
"234072","AAC-211","2017/08/10 14:19:55","新北市永和區竹林路39巷10號","121.518378333333","25.0144916666667","6500400","永和區"
"234066","AAC-212","2017/08/10 14:19:42","新北市永和區保平路214巷5號","121.50919","25.00646","6500400","永和區"
"234001","AAC-295","2017/08/10 14:19:45","新北市永和區中正路529號","121.51689","25.00775","6500400","永和區"
"241031","069-UM","2017/08/10 11:37:06","新北市林口區粉寮69號","121.405005","25.090855","6500200","三重區"
"241031","402-UM","2017/08/10 13:38:46","新北市林口區粉寮69號","121.405038333333","25.090955","6500200","三重區"
"244018","403-UM","2017/08/10 10:48:32","新北市林口區粉寮69號","121.405083333333","25.0907883333333","6501700","林口區"
"241031","410-SL","2017/08/10 10:32:16","新北市林口區粉寮69號","121.405093333333","25.0908433333333","6500200","三重區"
"241031","656-BX","2017/08/10 14:19:47","新北市林口區中山路206號","121.38716","25.079135","6500200","三重區"
"241031","658-BX","2017/08/10 14:20:01","新北市林口區粉寮路37-7號","121.399413333333","25.0871316666667","6500200","三重區"
"244025","837-TS","2017/08/10 10:22:43","新北市林口區粉寮路二段160巷28號","121.4052","25.0907616666667","6501700","林口區"
"243005","AAD-798","2017/08/10 14:20:02","新北市泰山區明志路三段145巷7號","121.425481666667","25.04006","6501600","泰山區"
"243001","297-R6","2017/08/10 14:19:45","新北市泰山區和平街13巷27號","121.434456666667","25.06583","6501600","泰山區"
"243007","380-SR","2017/08/10 14:19:49","新北市泰山區明志路二段10號","121.429955","25.0535633333333","6501600","泰山區"
"243006","421-VK","2017/08/10 14:19:45","新北市泰山區泰林路二段85號","121.434793333333","25.0587283333333","6501600","泰山區"
"243002","548-UM","2017/08/10 14:19:56","新北市泰山區明志路二段7巷14號","121.430706666667","25.0532833333333","6501600","泰山區"
"243003","549-UM","2017/08/10 14:19:53","新北市泰山區貴子路76號","121.427061666667","25.04129","6501600","泰山區"
"243004","646-TV","2017/08/10 14:19:48","新北市泰山區仁義路220巷2號","121.4329","25.053865","6501600","泰山區"
"243008","680-BX","2017/08/10 14:19:47","新北市泰山區明志路三段158號","121.424455","25.0396383333333","6501600","泰山區"
"231002","002-UM","2017/08/10 14:19:54","新北市新店區中央路45號","121.532776666667","24.97763","6500600","新店區"
"231025","0291-UT","2017/08/10 14:20:02","新北市新店區二十張路96號","121.536155","24.9796783333333","6500600","新店區"
"231028","046-UY","2017/08/10 14:20:03","新北市新店區安和路二段166號","121.519498333333","24.973705","6500600","新店區"
"231029","106-UY","2017/08/10 14:19:50","新北市新店區安康路二段202-1號","121.510353333333","24.9596116666667","6500600","新店區"
"231018","107-UY","2017/08/10 14:19:56","新北市新店區中央四街52號","121.52769","24.9750016666667","6500600","新店區"
"231011","108-UY","2017/08/10 14:19:44","新北市新店區五峰路59-7號","121.547438333333","24.97011","6500600","新店區"
"231035","110-UY","2017/08/10 14:19:54","新北市新店區光華街5巷20號","121.517593333333","24.9682983333333","6500600","新店區"
"231021","187-VK","2017/08/10 14:19:51","新北市新店區新烏路一段141-1號","121.549358333333","24.9213683333333","6500600","新店區"
"241031","188-VK","2017/08/10 02:22:50","新北市新店區安華路28-1號","121.51996","24.96133","6500200","三重區"
"241031","189-VK","2017/08/08 03:24:53","新北市新店區安華路28-1號","121.519805","24.9611233333333","6500200","三重區"
"241031","192-VK","2017/08/10 14:19:50","新北市新店區安華路1-1號","121.519121666667","24.9604966666667","6500200","三重區"
"231017","AAD-862","2017/08/10 14:19:56","新北市新店區北宜路二段392巷11號","121.566665","24.953205","6500600","新店區"
"241031","355-BY","2017/08/10 09:56:41","新北市新店區安華路28-1號","121.519371666667","24.9609983333333","6500200","三重區"
"231027","3712-VJ","2017/08/10 14:19:47","新北市新店區檳榔路36巷14號","121.541125","24.9633816666667","6500600","新店區"
"231038","4715-K9","2017/08/10 14:20:02","新北市新店區安康路一段3-1號","121.534051666667","24.9604583333333","6500600","新店區"
"231036","512-UM","2017/08/10 14:19:55","新北市新店區安祥路109巷90弄76號","121.475933333333","24.95847","6500600","新店區"
"231023","513-UM","2017/08/10 14:19:59","新北市新店區光明街103號","121.539185","24.9611916666667","6500600","新店區"
"241031","515-UM","2017/08/10 13:17:53","新北市新店區安華路28-1號","121.519566666667","24.9612016666667","6500200","三重區"
"231030","618-UM","2017/08/10 14:19:48","新北市新店區安民街21號","121.5154","24.9648266666667","6500600","新店區"
"231001","619-UM","2017/08/10 14:19:46","新北市新店區北新路一段287號","121.541281666667","24.966985","6500600","新店區"
"231003","641-BX","2017/08/10 14:19:50","新北市新店區中興路一段216號","121.543931666667","24.9657283333333","6500600","新店區"
"231034","645-TV","2017/08/10 14:19:48","新北市新店區黎明路3號","121.50355","24.952455","6500600","新店區"
"231013","719-UM","2017/08/10 14:19:50","新北市新店區大豐路73號","121.5391","24.9794233333333","6500600","新店區"
"231031","720-UM","2017/08/10 14:19:53","新北市新店區溪洲路200-6號","121.529071666667","24.9680883333333","6500600","新店區"
"231005","897-TW","2017/08/10 14:19:58","新北市新店區中興路三段259號","121.542311666667","24.98455","6500600","新店區"
"231006","898-TW","2017/08/10 14:19:53","新北市新店區北宜路二段599號","121.568136666667","24.9555966666667","6500600","新店區"
"231004","899-TW","2017/08/10 14:19:50","新北市新店區北新路二段94號","121.542973333333","24.9730383333333","6500600","新店區"
"231037","AKT-0513","2017/08/10 14:19:56","新北市新店區薏仁坑路自強巷1號","121.497493333333","24.957865","6500600","新店區"
"241031","478-VK","2017/08/10 14:19:05","新北市五股區中直路17-3號","121.422091666667","25.111595","6500200","三重區"
"235030","003-UY","2017/08/10 14:19:56","新北市中和區中和路102號","121.502661666667","24.99965","6500300","中和區"
"235028","005-UY","2017/08/10 14:20:00","新北市中和區中和路38號","121.49994","25.0014516666667","6500300","中和區"
"235027","006-UY","2017/08/10 14:19:58","新北市中和區圓通路198巷6號","121.495686666667","24.9945033333333","6500300","中和區"
"235020","096-UM","2017/08/10 14:19:48","新北市中和區中山路三段2號","121.479915","25.006215","6500300","中和區"
"235003","097-UM","2017/08/10 14:19:55","新北市中和區秀峰街103巷6弄2號","121.520313333333","24.989795","6500300","中和區"
"235029","098-UM","2017/08/10 14:19:55","新北市中和區中山路二段2巷5弄4號","121.504358333333","25.0061933333333","6500300","中和區"
"235004","150-BY","2017/08/10 14:19:50","新北市中和區保健路123號","121.512333333333","24.9960733333333","6500300","中和區"
"235022","151-BY","2017/08/10 14:19:59","新北市中和區連城路469巷20號","121.483373333333","24.995125","6500300","中和區"
"235019","183-VK","2017/08/10 14:19:57","新北市中和區中山路三段209號","121.47188","25.0063166666667","6500300","中和區"
"235002","185-VK","2017/08/10 14:19:45","新北市中和區大仁街20巷37號","121.518926666667","24.9932233333333","6500300","中和區"
"235013","186-VK","2017/08/10 14:19:58","新北市中和區景新街228-6號","121.50817","24.9941883333333","6500300","中和區"
"235031","255-BX","2017/08/10 14:19:43","新北市中和區新生街168號","121.48367","25.0001416666667","6500300","中和區"
"235008","293-VK","2017/08/10 14:19:54","新北市中和區中興街208號","121.499733333333","24.990235","6500300","中和區"
"235036","301-VK","2017/08/10 14:19:50","新北市中和區福美路230號","121.499058333333","25.005315","6500300","中和區"
"235007","352-BY","2017/08/10 14:19:49","新北市中和區景平路290號","121.513045","24.992875","6500300","中和區"
"235015","376-QA","2017/08/10 14:19:43","新北市中和區景平路239巷45號","121.509031666667","24.9923083333333","6500300","中和區"
"235032","377-QA","2017/08/10 14:19:54","新北市中和區連城路139巷66號","121.496983333333","24.9968783333333","6500300","中和區"
"235025","378-QA","2017/08/10 14:19:56","新北市中和區員山路143巷42號","121.47875","24.9955016666667","6500300","中和區"
"241031","467-BY","2017/08/10 14:19:56","新北市中和區大勇街27巷2號","121.51736","24.9937966666667","6500200","三重區"
"235014","4979-A6","2017/08/10 14:12:31","新北市中和區復興路79號","121.503545","24.9900033333333","6500300","中和區"
"235033","4980-A6","2017/08/10 14:20:00","新北市中和區永和路39巷10號","121.497653333333","25.0049633333333","6500300","中和區"
"235006","551-UM","2017/08/10 14:20:01","新北市永和區民有街9號","121.516245","24.9969266666667","6500300","中和區"
"235034","558-UM","2017/08/10 14:19:54","新北市中和區枋寮街2號","121.502441666667","24.9997716666667","6500300","中和區"
"235009","565-BX","2017/08/10 14:19:56","新北市中和區景新街467巷35弄6號","121.514531666667","24.989085","6500300","中和區"
"235018","640-BX","2017/08/10 14:19:41","新北市中和區民德路142號","121.46865","25.00047","6500300","中和區"
"235024","647-TV","2017/08/10 14:19:47","新北市中和區自治街56號","121.475613333333","25.0033283333333","6500300","中和區"
"235011","732-UM","2017/08/10 14:19:51","新北市中和區景平路239巷36號","121.508336666667","24.9921566666667","6500300","中和區"
"235010","733-UM","2017/08/10 14:19:44","新北市中和區華新街182號","121.507205","24.9821816666667","6500300","中和區"
"235026","800-TS","2017/08/10 14:19:57","新北市中和區橋安街25號","121.492588333333","25.0045766666667","6500300","中和區"
"235021","801-TS","2017/08/10 14:20:03","新北市中和區員山路226巷3弄5號","121.481803333333","25.0011466666667","6500300","中和區"
"235005","802-TS","2017/08/10 14:19:52","新北市中和區宜安路118巷20號","121.510843333333","24.9986683333333","6500300","中和區"
"235016","805-TS","2017/08/10 14:20:00","新北市中和區興南路二段142巷19弄58號","121.502376666667","24.983265","6500300","中和區"
"235012","896-TW","2017/08/10 14:19:47","新北市中和區華新街109巷22號","121.508118333333","24.98029","6500300","中和區"
"235017","900-TW","2017/08/10 14:19:49","新北市中和區華安街30巷2號","121.466971666667","24.9976666666667","6500300","中和區"
"235035","911-UM","2017/08/10 14:19:48","新北市中和區中正路711號","121.484503333333","24.9984333333333","6500300","中和區"
"241031","157-BY","2017/08/10 12:11:08","新北市中和區員山路36巷13號","121.484098333333","24.99105","6500200","三重區"
"235001","AAC-213","2017/08/10 14:19:59","新北市中和區秀朗路三段60巷42號","121.524836666667","24.9950816666667","6500300","中和區"
"235023","AAC-215","2017/08/10 14:19:55","新北市中和區圓通路286巷5號","121.491488333333","24.99124","6500300","中和區"
"220016","013-TV","2017/08/10 14:19:59","新北市板橋區翠華街6巷84號","121.481786666667","25.024505","6500100","板橋區"
"220013","072-UY","2017/08/10 14:19:53","新北市板橋區民族路151巷77號","121.469573333333","25.00865","6500100","板橋區"
"220034","073-UY","2017/08/10 14:19:46","新北市板橋區中正路216巷110號","121.459113333333","25.019235","6500100","板橋區"
"220105","075-UY","2017/08/10 14:19:47","新北市板橋區文化路二段369巷17號","121.472273333333","25.0316316666667","6500100","板橋區"
"220017","AAD-861","2017/08/10 14:19:45","新北市板橋區大華街146巷2號","121.459385","25.004435","6500100","板橋區"
"220045","120-SR","2017/08/10 14:19:52","新北市板橋區大同街26巷34號","121.478418333333","25.0262983333333","6500100","板橋區"
"247019","893-R6","2017/08/10 14:19:52","新北市蘆洲區仁愛街100號","121.470276666667","25.094675","6501400","蘆洲區"
"247009","546-UM","2017/08/10 14:19:47","新北市蘆洲區三民路26巷49弄2號","121.477978333333","25.0831416666667","6501400","蘆洲區"
"247017","500-BY","2017/08/10 14:19:47","新北市蘆洲區民權路66號","121.474966666667","25.0872433333333","6501400","蘆洲區"
"241031","402-BY","2017/08/10 14:19:44","新北市蘆洲區中央路103-1號","121.472056666667","25.083975","6500200","三重區"
"247005","341-TH","2017/08/10 14:19:47","新北市蘆洲區九芎街136號","121.465103333333","25.079085","6501400","蘆洲區"
"247007","339-TH","2017/08/10 14:19:45","新北市蘆洲區中山一路225號","121.474001666667","25.0806133333333","6501400","蘆洲區"
"247023","337-TH","2017/08/10 14:19:52","新北市蘆洲區長榮路709號","121.461056666667","25.0928933333333","6501400","蘆洲區"
"247001","336-TH","2017/08/10 14:19:50","新北市蘆洲區永樂街83號","121.45594","25.0887283333333","6501400","蘆洲區"
"241031","335-TH","2017/08/10 14:19:47","新北市五股區中興路三段163號","121.449118333333","25.080885","6500200","三重區"
"247013","057-VK","2017/08/10 14:19:56","新北市蘆洲區中山二路137巷46號","121.47247","25.08052","6501400","蘆洲區"
"247003","056-VK","2017/08/10 14:19:59","新北市蘆洲區長安街172巷6號","121.459375","25.0833733333333","6501400","蘆洲區"
"241031","053-VK","2017/08/10 14:19:56","新北市五股區中興路三段163號","121.449211666667","25.08087","6500200","三重區"
"247011","007-UY","2017/08/10 14:19:52","新北市蘆洲區民權路28號","121.476573333333","25.08605","6501400","蘆洲區"
"247021","002-UY","2017/08/10 14:19:59","新北市蘆洲區民族路520號","121.469086666667","25.0899616666667","6501400","蘆洲區"
"247015","001-UY","2017/08/10 14:20:00","新北市蘆洲區光華路110巷18號","121.46683","25.0834183333333","6501400","蘆洲區"
"241031","092-VK","2017/08/10 14:19:07","新北市中和區員山路36巷2-1號","121.482613333333","24.99056","6500200","三重區"
"241031","5620-A6","2017/08/10 14:02:24","新北市平溪區新寮里頂寮子3號","121.771478333333","25.0513333333333","6500200","三重區"
"241031","7418-A5","2017/08/10 13:45:54","新北市平溪區望古里石灼坑13-1號","121.764586666667","25.0506866666667","6500200","三重區"
"228005","097-TW","2017/08/10 14:19:55","新北市貢寮區美豐里雞母嶺街67號","121.89653","25.06443","6502600","貢寮區"
"228004","212-TW","2017/08/10 14:19:43","新北市貢寮區雙玉里田寮洋街39號","121.924931666667","25.0139683333333","6502600","貢寮區"
"241031","642-TC","2017/08/10 14:19:56","新北市雙溪區三貂里政光路3-1號","121.850873333333","25.0631216666667","6500200","三重區"
"241031","400-TW","2017/08/10 08:06:18","新北市雙溪區三貂里政光路3-1號","121.850858333333","25.0630416666667","6500200","三重區"
"208004","AAC-292","2017/08/10 14:19:52","新北市金山區六股里下六股65號","121.614425","25.223595","6502700","金山區"
"241031","011-UM","2017/08/10 10:18:28","新北市淡水區中正路二段31號","121.41928","25.181835","6500200","三重區"
"207002","749-BX","2017/08/10 14:19:59","新北市萬里區溪底里溪底路21號","121.611491666667","25.1482666666667","6502800","萬里區"
"252005","073-UM","2017/08/10 14:19:51","新北市三芝區橫山里橫山33號","121.542843333333","25.2588066666667","6502100","三芝區"
"241031","249-BX","2017/08/10 14:19:48","新北市八里區中華路二段586號","121.397986666667","25.1441866666667","6500200","三重區"
"207001","662-BX","2017/08/10 14:20:04","新北市萬里區磺潭里清水18號","121.637848333333","25.1976983333333","6502800","萬里區"
"241031","361-BY","2017/08/10 14:19:59","新北市鶯歌區文化路246號","121.352811666667","24.9483483333333","6500200","三重區"
"237009","210-TH","2017/08/10 14:19:57","新北市三峽區和平街31號","121.370395","24.9353416666667","6500900","三峽區"
"241031","275-BY","2017/08/10 14:16:31","新北市三峽區復興路559號","121.356108333333","24.9406166666667","6500200","三重區"
"241031","159-BY","2017/08/10 14:02:13","新北市三峽區中山路459巷163-3號","121.348958333333","24.9331083333333","6500200","三重區"
"241031","5529-G3","2017/08/10 13:33:54","新北市三峽區中山路459巷137號","121.350025","24.93403","6500200","三重區"
"241031","682-BX","2017/08/10 09:27:33","新北市三峽區中山路459巷163-3號","121.34871","24.933165","6500200","三重區"
"241031","756-BX","2017/08/10 10:11:06","新北市三峽區中山路459巷163-3號","121.348881666667","24.933085","6500200","三重區"
"241031","760-BX","2017/08/10 10:03:12","新北市三峽區中山路459巷163-3號","121.348863333333","24.9330466666667","6500200","三重區"
"236066","105-UM","2017/08/10 14:19:49","新北市土城區明德路一段128巷8號","121.462988333333","24.9788833333333","6501300","土城區"
"236040","107-UM","2017/08/10 14:19:46","新北市土城區裕生路21巷6弄23號","121.448795","24.9868033333333","6501300","土城區"
"241031","138-TH","2017/08/10 14:19:57","新北市土城區中央路四段5號","121.425548333333","24.9628816666667","6500200","三重區"
"236076","166-UM","2017/08/10 14:19:52","新北市土城區永寧路32巷10弄26號","121.42841","24.96177","6501300","土城區"
"236028","253-BX","2017/08/10 14:19:49","新北市土城區順風路30號","121.440128333333","24.977085","6501300","土城區"
"236024","269-VK","2017/08/10 14:20:02","新北市土城區承天路67號","121.439628333333","24.9634466666667","6501300","土城區"
"236012","270-VK","2017/08/10 14:19:46","新北市土城區學府路一段172號","121.453836666667","24.9864516666667","6501300","土城區"
"236033","271-VK","2017/08/10 14:19:46","新北市土城區青雲路521巷8號","121.45924","24.9729033333333","6501300","土城區"
"241031","370-SL","2017/08/10 14:11:23","新北市土城區城林路6巷80號","121.438418333333","24.9795583333333","6500200","三重區"
"241031","371-SL","2017/08/10 14:19:59","新北市土城區金安街48巷37號","121.420511666667","24.9654833333333","6500200","三重區"
"236018","401-BY","2017/08/10 14:19:48","新北市土城區金城路二段392號","121.463686666667","24.98568","6501300","土城區"
"236005","498-BY","2017/08/10 14:19:41","新北市土城區中華路一段56巷26-1號","121.444215","24.989985","6501300","土城區"
"236056","912-UM","2017/08/10 14:19:51","新北市土城區中央路四段207號","121.414073333333","24.956025","6501300","土城區"
"236047","913-UM","2017/08/10 14:20:00","新北市土城區明德路一段280-1號","121.457313333333","24.977495","6501300","土城區"
"236060","915-UM","2017/08/10 14:19:55","新北市土城區金城路三段193-1號","121.470033333333","24.9888966666667","6501300","土城區"
"236052","AAC-216","2017/08/10 14:19:51","新北市土城區中華路二段193號","121.438211666667","24.9743883333333","6501300","土城區"
"241031","233-RS","2017/08/10 14:19:46","新北市新莊區自強街61號","121.454696666667","25.04712","6500200","三重區"
"241031","312-TH","2017/08/10 14:19:58","新北市樹林區育德街78-1號","121.387745","24.9681516666667","6500200","三重區"
"241031","308-TH","2017/08/10 13:29:37","新北市樹林區育德街76巷1號","121.388788333333","24.9683166666667","6500200","三重區"
"241031","661-UM","2017/08/10 14:19:56","新北市鶯歌區二甲路12-2號","121.345513333333","24.9347216666667","6500200","三重區"
"241031","527-UM","2017/08/10 11:46:46","新北市鶯歌區環河路177-23號","121.34498","24.9355833333333","6500200","三重區"
"241031","276-VK","2017/08/10 13:21:16","新北市汐止區汐萬路一段256巷3號","121.653435","25.074645","6500200","三重區"
"241031","277-VK","2017/08/10 14:19:45","新北市汐止區長江街235-5號","121.662991666667","25.0785716666667","6500200","三重區"
"241031","488-VK","2017/08/10 11:01:54","新北市汐止區汐萬路一段256巷3號","121.652666666667","25.07449","6500200","三重區"
"241031","567-BX","2017/08/10 12:14:12","新北市汐止區汐萬路一段150號","121.652891666667","25.0712316666667","6500200","三重區"
"241031","647-BX","2017/08/10 14:19:38","台北市文山區老泉街45巷18-1號","121.576645","24.9763016666667","6500200","三重區"
"220027","145-BY","2017/08/10 14:19:55","新北市板橋區民權路302巷19號","121.457836666667","25.0165533333333","6500100","板橋區"
"220028","200-UY","2017/08/10 14:19:46","新北市板橋區大觀路二段3巷2號","121.447278333333","25.003845","6500100","板橋區"
"220030","610-BX","2017/08/10 14:19:52","新北市板橋區金門街369巷58號","121.42798","24.9816233333333","6500100","板橋區"
"220023","256-TC","2017/08/10 14:19:57","新北市板橋區府中路163號","121.454958333333","25.0093116666667","6500100","板橋區"
"220052","257-TC","2017/08/10 14:19:50","新北市板橋區文化路一段188巷11號","121.466493333333","25.019355","6500100","板橋區"
"241031","258-TC","2017/08/10 11:14:08","新北市板橋區金門街369巷95號","121.430118333333","24.980865","6500200","三重區"
"220043","267-BY","2017/08/10 14:19:52","新北市板橋區宏國路1號","121.467073333333","25.0314033333333","6500100","板橋區"
"220004","276-BY","2017/08/10 14:19:46","新北市板橋區信義路68-1號","121.457308333333","24.9935433333333","6500100","板橋區"
"220020","277-BY","2017/08/10 14:19:54","新北市板橋區金門街260巷2號","121.429658333333","24.9869933333333","6500100","板橋區"
"241031","280-UM","2017/08/10 11:46:20","新北市板橋區民生路二段16-1號","121.473075","25.0163816666667","6500200","三重區"
"241031","281-UM","2017/08/10 14:19:47","新北市板橋區四川路二段橋頭1巷1號","121.4466","24.994425","6500200","三重區"
"220019","283-VK","2017/08/10 14:19:46","新北市板橋區重慶路327巷2號","121.464136666667","24.9983833333333","6500100","板橋區"
"220050","285-UM","2017/08/10 14:19:53","新北市板橋區莒光路188號","121.474128333333","25.0226","6500100","板橋區"
"220001","285-VK","2017/08/10 14:19:52","新北市板橋區縣民大道三段270巷9號","121.478416666667","25.0231","6500100","板橋區"
"220031","286-VK","2017/08/10 14:19:45","新北市板橋區大觀路二段174巷178號","121.44207","25.0035983333333","6500100","板橋區"
"220029","287-VK","2017/08/10 14:19:54","新北市板橋區南雅西路一段116號","121.452756666667","25.0065166666667","6500100","板橋區"
"220039","288-VK","2017/08/10 14:19:46","新北市板橋區四維路337號","121.462528333333","25.0296583333333","6500100","板橋區"
"220009","293-UM","2017/08/10 14:19:59","新北市板橋區光復街31巷5號","121.481603333333","25.0191483333333","6500100","板橋區"
"220022","295-UM","2017/08/10 14:20:00","新北市板橋區新民街39號","121.464","25.010675","6500100","板橋區"
"220032","296-UM","2017/08/10 14:19:48","新北市板橋區溪崑二街56巷3號","121.427958333333","24.991265","6500100","板橋區"
"220047","299-UM","2017/08/10 14:19:50","新北市板橋區民有街91號","121.464588333333","25.02759","6500100","板橋區"
"241031","281-VK","2017/08/10 14:19:46","新北市新莊區新興街35號","121.450701666667","25.0376833333333","6500200","三重區"
"220010","305-R5","2017/08/10 14:19:59","新北市板橋區三民路二段153巷36弄2號","121.48111","25.0141566666667","6500100","板橋區"
"220041","307-R5","2017/08/10 14:20:03","新北市板橋區松江街74號","121.468755","25.0279066666667","6500100","板橋區"
"241031","317-R6","2017/08/10 14:05:10","新北市板橋區民生路二段161巷3號","121.470131666667","25.0197433333333","6500200","三重區"
"220012","486-VK","2017/08/10 14:19:42","新北市板橋區板新路96號","121.47236","25.014555","6500100","板橋區"
"220038","487-VK","2017/08/10 14:19:44","新北市板橋區文化路二段15號","121.468673333333","25.0244283333333","6500100","板橋區"
"241031","280-VK","2017/08/10 13:13:58","新北市新莊區環河路636-7號","121.43737","25.0112383333333","6500200","三重區"
"220037","491-VK","2017/08/10 14:19:40","新北市板橋區文化路二段182巷3弄56號","121.472738333333","25.028815","6500100","板橋區"
"220104","560-BX","2017/08/10 14:19:46","新北市板橋區中正路431號","121.454273333333","25.0229166666667","6500100","板橋區"
"220011","609-BX","2017/08/10 14:19:59","新北市板橋區三民路二段202-17號","121.478826666667","25.0135316666667","6500100","板橋區"
"241031","630-UY","2017/08/10 13:31:33","新北市板橋區華東街1-10號","121.44852","24.995405","6500200","三重區"
"220040","637-BX","2017/08/10 14:19:47","新北市板橋區縣民大道三段187巷11號","121.479086666667","25.0251566666667","6500100","板橋區"
"220005","686-BX","2017/08/10 14:19:43","新北市板橋區重慶路293-1號","121.463268333333","24.9990366666667","6500100","板橋區"
"220025","687-BX","2017/08/10 14:19:59","新北市板橋區龍興街3號","121.442608333333","24.9993216666667","6500100","板橋區"
"220042","689-BX","2017/08/10 14:19:54","新北市板橋區漢生西路29號","121.46325","25.01829","6500100","板橋區"
"220002","741-BX","2017/08/10 14:19:56","新北市板橋區四川路一段199號","121.460598333333","25.003685","6500100","板橋區"
"241031","755-RS","2017/08/10 11:00:36","新北市板橋區大觀路二段435-10號","121.445131666667","24.99451","6500200","三重區"
"241031","806-UM","2017/08/10 13:54:27","新北市板橋區華東街1-10號","121.448605","24.99482","6500200","三重區"
"220014","829-TW","2017/08/10 14:19:50","新北市板橋區長安街138巷5弄62號","121.47415","25.00955","6500100","板橋區"
"220051","830-TW","2017/08/10 14:19:55","新北市板橋區文化路二段410巷2弄24-1號","121.47407","25.030135","6500100","板橋區"
"241031","831-TW","2017/08/10 01:15:46","新北市板橋區民生路二段120號","121.470951666667","25.0199766666667","6500200","三重區"
"220022","895-R6","2017/08/10 14:19:49","新北市板橋區林園街2號","121.454386666667","25.00928","6500100","板橋區"
"220021","985-R7","2017/08/10 14:19:46","新北市板橋區中正路187號","121.456425","25.016835","6500100","板橋區"
"220046","AAC-210","2017/08/10 14:19:49","新北市板橋區漢生西路89巷4弄2號","121.461135","25.0190983333333","6500100","板橋區"
"220018","AAC-253","2017/08/10 14:19:49","新北市板橋區忠孝路40號","121.460378333333","25.001855","6500100","板橋區"
