"lineid","car","time","location","longitude","latitude","cityid","cityname"
"234044","148-BY","2017/08/10 14:29:54","新北市永和區環河西路二段65號","121.506813333333","25.0153616666667","6500400","永和區"
"234005","207-UY","2017/08/10 14:29:47","新北市永和區中正路666巷2號","121.516815","25.009","6500400","永和區"
"241031","209-UY","2017/08/10 14:29:52","新北市永和區保生路55號","121.504683333333","25.0107816666667","6500200","三重區"
"234078","298-R6","2017/08/10 14:30:01","新北市永和區永貞路82號","121.520286666667","25.004975","6500400","永和區"
"234036","336-UY","2017/08/10 14:29:50","新北市永和區環河東路四段40號","121.528728333333","24.9988833333333","6500400","永和區"
"234062","337-UY","2017/08/10 14:29:46","新北市永和區中正路443號","121.516988333333","25.0052566666667","6500400","永和區"
"234084","338-UY","2017/08/10 14:29:52","新北市永和區永和路二段235號","121.51555","25.0143283333333","6500400","永和區"
"241031","395-TH","2017/08/10 14:29:57","新北市中和區永貞路292號","121.512806666667","25.0042566666667","6500200","三重區"
"234068","552-UM","2017/08/10 14:29:42","新北市永和區保生路64號","121.505035","25.008935","6500400","永和區"
"234052","553-UM","2017/08/10 14:30:00","新北市永和區光復街31-1號","121.516495","25.01783","6500400","永和區"
"241031","693-BX","2017/08/10 10:30:33","新北市永和區福和路1號","121.526703333333","25.0100116666667","6500200","三重區"
"241031","695-BX","2017/08/10 14:29:45","新北市永和區福和路1號","121.52535","25.009365","6500200","三重區"
"234028","746-BX","2017/08/10 14:30:01","新北市中和區中正路882號","121.483793333333","25.006675","6500400","永和區"
"241031","838-RS","2017/08/10 14:29:49","新北市永和區保安路145號","121.507051666667","25.0132","6500200","三重區"
"241031","840-RS","2017/08/10 14:30:02","新北市永和區保福路二段95號","121.51047","25.012835","6500200","三重區"
"241031","841-RS","2017/08/10 14:29:48","新北市永和區保平路246-1號","121.509093333333","25.0053066666667","6500200","三重區"
"234060","AAD-866","2017/08/10 14:29:52","新北市永和區安樂路194巷22號","121.516375","25.0010183333333","6500400","永和區"
"241031","845-RS","2017/08/10 14:29:45","新北市永和區保順路27號","121.503903333333","25.0102016666667","6500200","三重區"
"234040","862-TW","2017/08/10 14:29:40","新北市永和區安樂路467號","121.514285","25.0055233333333","6500400","永和區"
"234048","863-TW","2017/08/10 14:26:57","新北市永和區新生路147巷2弄10號","121.507353333333","25.0146583333333","6500400","永和區"
"234025","9371-KE","2017/08/10 14:29:53","新北市永和區安樂路144巷24號","121.515028333333","24.9995866666667","6500400","永和區"
"234010","9373-KE","2017/08/10 14:29:54","新北市永和區環河西路二段241-1號","121.5004","25.009705","6500400","永和區"
"248015","026-BX","2017/08/10 14:29:47","新北市五股區成泰路四段26號","121.454955","25.1082483333333","6501500","五股區"
"248007","095-VK","2017/08/10 14:29:48","新北市五股區中興路一段95巷10號","121.466493333333","25.0725333333333","6501500","五股區"
"248017","225-UY","2017/08/10 14:21:36","新北市五股區壟路16號","121.41531","25.0856183333333","6501500","五股區"
"248011","247-BX","2017/08/10 14:29:57","新北市五股區蓬萊路6巷43號","121.435868333333","25.0803033333333","6501500","五股區"
"248013","261-SL","2017/08/10 14:30:00","新北市五股區民義路一段157-10號","121.432186666667","25.087255","6501500","五股區"
"248003","677-BX","2017/08/10 14:29:45","新北市五股區五福路41號","121.433293333333","25.0894166666667","6501500","五股區"
"248001","678-BX","2017/08/10 14:29:58","新北市五股區成泰路三段436號","121.450846666667","25.0994883333333","6501500","五股區"
"248009","682-TV","2017/08/10 14:29:53","新北市五股區水碓一路23號","121.43058","25.0712733333333","6501500","五股區"
"234022","9380-KE","2017/08/10 14:29:42","新北市永和區保生路55-1號","121.504518333333","25.010895","6500400","永和區"
"234072","AAC-211","2017/08/10 14:29:55","新北市永和區環河東路一段126號","121.520715","25.0153916666667","6500400","永和區"
"234066","AAC-212","2017/08/10 14:30:02","新北市永和區保平路268巷23號","121.508016666667","25.005825","6500400","永和區"
"234001","AAC-295","2017/08/10 14:29:45","新北市永和區永和路一段156-1號","121.514148333333","25.0083983333333","6500400","永和區"
"241031","069-UM","2017/08/10 11:37:06","新北市林口區粉寮69號","121.405005","25.090855","6500200","三重區"
"241031","402-UM","2017/08/10 13:38:46","新北市林口區粉寮69號","121.405038333333","25.090955","6500200","三重區"
"244018","403-UM","2017/08/10 10:48:32","新北市林口區粉寮69號","121.405083333333","25.0907883333333","6501700","林口區"
"241031","410-SL","2017/08/10 10:32:16","新北市林口區粉寮69號","121.405093333333","25.0908433333333","6500200","三重區"
"241031","656-BX","2017/08/10 14:29:47","新北市林口區中山路202-6號","121.388008333333","25.0791416666667","6500200","三重區"
"241031","658-BX","2017/08/10 14:29:41","新北市林口區粉寮69號","121.404971666667","25.0909283333333","6500200","三重區"
"244025","837-TS","2017/08/10 10:22:43","新北市林口區粉寮路二段160巷28號","121.4052","25.0907616666667","6501700","林口區"
"243005","AAD-798","2017/08/10 14:29:42","新北市泰山區明志路二段383號","121.425035","25.0436883333333","6501600","泰山區"
"243001","297-R6","2017/08/10 14:29:45","新北市泰山區半山雅42號","121.430756666667","25.0676116666667","6501600","泰山區"
"243007","380-SR","2017/08/10 14:29:49","新北市泰山區民權街85號","121.428768333333","25.0496083333333","6501600","泰山區"
"243006","421-VK","2017/08/10 14:29:45","新北市泰山區仁愛路18號","121.43144","25.0541766666667","6501600","泰山區"
"243002","548-UM","2017/08/10 14:29:56","新北市泰山區明志路二段74號","121.428721666667","25.0524016666667","6501600","泰山區"
"243003","549-UM","2017/08/10 14:29:53","新北市泰山區貴子路55號","121.430158333333","25.0397","6501600","泰山區"
"243004","646-TV","2017/08/10 14:29:48","新北市泰山區全興路13號","121.432306666667","25.05893","6501600","泰山區"
"243008","680-BX","2017/08/10 14:29:47","新北市泰山區明志路三段275號","121.423008333333","25.036995","6501600","泰山區"
"231002","002-UM","2017/08/10 14:29:54","新北市新店區中央路97號","121.531141666667","24.9750566666667","6500600","新店區"
"231025","0291-UT","2017/08/10 14:30:01","新北市新店區民族路161號","121.537716666667","24.9767816666667","6500600","新店區"
"231028","046-UY","2017/08/10 14:29:43","新北市新店區安康路二段3-1號","121.516101666667","24.96374","6500600","新店區"
"231029","106-UY","2017/08/10 14:29:50","新北市新店區安康路二段382號","121.500453333333","24.957065","6500600","新店區"
"231018","107-UY","2017/08/10 14:29:56","新北市新店區中央二街63號","121.52671","24.97473","6500600","新店區"
"231011","108-UY","2017/08/10 14:29:44","新北市新店區中興路二段196號","121.548578333333","24.97387","6500600","新店區"
"231035","110-UY","2017/08/10 14:29:54","新北市新店區安光路11號","121.513663333333","24.9639283333333","6500600","新店區"
"231021","187-VK","2017/08/10 14:29:51","新北市新店區桂山路55-1號","121.564583333333","24.9010466666667","6500600","新店區"
"241031","188-VK","2017/08/10 02:22:50","新北市新店區安華路28-1號","121.51996","24.96133","6500200","三重區"
"241031","189-VK","2017/08/08 03:24:53","新北市新店區安華路28-1號","121.519805","24.9611233333333","6500200","三重區"
"231017","AAD-862","2017/08/10 14:29:56","新北市新店區北宜路三段106號","121.579766666667","24.9504266666667","6500600","新店區"
"241031","355-BY","2017/08/10 09:56:41","新北市新店區安華路28-1號","121.519371666667","24.9609983333333","6500200","三重區"
"231027","3712-VJ","2017/08/10 14:29:47","新北市新店區北新路二段183號","121.54273","24.9775116666667","6500600","新店區"
"231038","4715-K9","2017/08/10 14:29:42","新北市新店區溪洲路8巷120號","121.533175","24.9629783333333","6500600","新店區"
"231023","513-UM","2017/08/10 14:29:59","新北市新店區光明街198號","121.53968","24.962435","6500600","新店區"
"241031","515-UM","2017/08/10 13:17:53","新北市新店區安華路28-1號","121.519566666667","24.9612016666667","6500200","三重區"
"231030","618-UM","2017/08/10 14:29:48","新北市新店區安民街65巷1號","121.516135","24.9666033333333","6500600","新店區"
"231001","619-UM","2017/08/10 14:29:46","新北市新店區北新路一段96巷23號","121.543023333333","24.9687883333333","6500600","新店區"
"231003","641-BX","2017/08/10 14:29:50","新北市新店區中興路一段278號","121.545433333333","24.9682833333333","6500600","新店區"
"231034","645-TV","2017/08/10 14:29:48","新北市新店區黎明路51巷2號","121.501953333333","24.949165","6500600","新店區"
"231013","719-UM","2017/08/10 14:29:50","新北市新店區民權路108-4號","121.53611","24.983375","6500600","新店區"
"231031","720-UM","2017/08/10 14:29:53","新北市新店區安業街151巷19號","121.52066","24.974655","6500600","新店區"
"231005","897-TW","2017/08/10 14:29:58","新北市新店區中興路三段217號","121.543493333333","24.98216","6500600","新店區"
"231006","898-TW","2017/08/10 14:29:53","新北市新店區北宜路二段493號","121.562871666667","24.9538566666667","6500600","新店區"
"231004","899-TW","2017/08/10 14:29:50","新北市新店區中正路239號","121.539213333333","24.9731516666667","6500600","新店區"
"231037","AKT-0513","2017/08/10 14:29:56","新北市新店區安康路二段320巷15弄2號","121.504175","24.9591516666667","6500600","新店區"
"235030","003-UY","2017/08/10 14:29:56","新北市中和區中和路136號","121.503488333333","24.9993366666667","6500300","中和區"
"235028","005-UY","2017/08/10 14:30:00","新北市中和區南山路81巷19號","121.502516666667","24.9980633333333","6500300","中和區"
"235027","006-UY","2017/08/10 14:29:58","新北市中和區連城路227號","121.49413","24.997575","6500300","中和區"
"235020","096-UM","2017/08/10 14:29:48","新北市中和區員山路514巷1號","121.479306666667","25.0095","6500300","中和區"
"235003","097-UM","2017/08/10 14:29:55","新北市中和區秀峰街103巷7弄4號","121.51943","24.9889116666667","6500300","中和區"
"235029","098-UM","2017/08/10 14:29:55","新北市中和區福美路258號","121.498286666667","25.00515","6500300","中和區"
"235004","150-BY","2017/08/10 14:29:50","新北市中和區宜安路10號","121.51346","24.99562","6500300","中和區"
"235022","151-BY","2017/08/10 14:29:59","新北市中和區員山路36巷16-2號","121.485248333333","24.9916333333333","6500300","中和區"
"235019","183-VK","2017/08/10 14:29:57","新北市中和區莒光路37巷5號","121.47251","25.0052433333333","6500300","中和區"
"235002","185-VK","2017/08/10 14:29:45","新北市中和區大智街55巷31號","121.520563333333","24.9927366666667","6500300","中和區"
"235013","186-VK","2017/08/10 14:29:58","新北市中和區安和路19號","121.51091","24.993785","6500300","中和區"
"235031","255-BX","2017/08/10 14:30:03","新北市中和區連城路467-2號","121.483933333333","24.9962166666667","6500300","中和區"
"235008","293-VK","2017/08/10 14:29:54","新北市中和區中興街250號","121.499465","24.9881066666667","6500300","中和區"
"235036","301-VK","2017/08/10 14:29:50","新北市中和區中山路二段3巷22弄33號","121.505938333333","25.004145","6500300","中和區"
"235007","352-BY","2017/08/10 14:29:49","新北市中和區景平路310號","121.51249","24.99279","6500300","中和區"
"235015","376-QA","2017/08/10 14:29:43","新北市中和區南山路146巷7號","121.503458333333","24.9924283333333","6500300","中和區"
"235032","377-QA","2017/08/10 14:29:54","新北市中和區景平路493巷2-4號","121.49986","24.9977133333333","6500300","中和區"
"235025","378-QA","2017/08/10 14:29:56","新北市中和區民利街9巷2弄10號","121.480335","24.99867","6500300","中和區"
"241031","467-BY","2017/08/10 14:29:56","新北市中和區大勇街25巷39弄11號","121.51471","24.99414","6500200","三重區"
"235014","4979-A6","2017/08/10 14:12:31","新北市中和區復興路79號","121.503545","24.9900033333333","6500300","中和區"
"235033","4980-A6","2017/08/10 14:29:59","新北市中和區連城路144巷14弄17號","121.495381666667","24.9994683333333","6500300","中和區"
"235006","551-UM","2017/08/10 14:29:41","新北市中和區中和路378巷21號","121.51157","25.0017466666667","6500300","中和區"
"235034","558-UM","2017/08/10 14:29:54","新北市中和區連城路66-1號","121.497623333333","25.0015216666667","6500300","中和區"
"235009","565-BX","2017/08/10 14:29:56","新北市中和區景新街383巷30號","121.51358","24.9905983333333","6500300","中和區"
"235018","640-BX","2017/08/10 14:30:01","新北市中和區國光街111號","121.469936666667","25.0004633333333","6500300","中和區"
"235024","647-TV","2017/08/10 14:29:47","新北市中和區員山路294巷17號","121.48227","25.0023466666667","6500300","中和區"
"235011","732-UM","2017/08/10 14:29:51","新北市中和區景平路241巷64弄16號","121.507313333333","24.992545","6500300","中和區"
"235010","733-UM","2017/08/10 14:30:04","新北市中和區忠孝街37巷52號","121.511088333333","24.9849533333333","6500300","中和區"
"235026","800-TS","2017/08/10 14:29:57","新北市中和區中山路二段472號","121.488305","25.004575","6500300","中和區"
"235021","801-TS","2017/08/10 14:29:43","新北市中和區員山路423巷16號","121.480256666667","25.0026766666667","6500300","中和區"
"235005","802-TS","2017/08/10 14:29:52","新北市中和區安平路146號","121.512336666667","24.9982033333333","6500300","中和區"
"235016","805-TS","2017/08/10 14:30:00","新北市中和區華新街143巷21號","121.506573333333","24.9809133333333","6500300","中和區"
"235012","896-TW","2017/08/10 14:29:47","新北市中和區忠孝街2-18號","121.509806666667","24.9827033333333","6500300","中和區"
"235017","900-TW","2017/08/10 14:29:49","新北市中和區華順街32號","121.46682","24.9986283333333","6500300","中和區"
"235035","911-UM","2017/08/10 14:29:48","新北市中和區中正路637巷60弄61號","121.4854","24.992745","6500300","中和區"
"241031","157-BY","2017/08/10 12:11:08","新北市中和區員山路36巷13號","121.484098333333","24.99105","6500200","三重區"
"235001","AAC-213","2017/08/10 14:29:59","新北市中和區秀朗路三段10巷14弄63號","121.522926666667","24.9965916666667","6500300","中和區"
"235023","AAC-215","2017/08/10 14:29:55","新北市中和區圓通路252巷2-5號","121.493505","24.9914083333333","6500300","中和區"
"220016","013-TV","2017/08/10 14:29:59","新北市板橋區中山路二段531巷34號","121.482835","25.0223916666667","6500100","板橋區"
"220013","072-UY","2017/08/10 14:29:53","新北市板橋區國泰街76巷21號","121.467093333333","25.007035","6500100","板橋區"
"220034","073-UY","2017/08/10 14:29:46","新北市板橋區中正路250巷20號","121.456261666667","25.0194316666667","6500100","板橋區"
"220105","075-UY","2017/08/10 14:29:47","新北市板橋區江寧路三段125號","121.473428333333","25.0331433333333","6500100","板橋區"
"220017","AAD-861","2017/08/10 14:29:45","新北市板橋區華興街31巷6號","121.4583","25.0043083333333","6500100","板橋區"
"220045","120-SR","2017/08/10 14:29:52","新北市板橋區大同街5巷9號","121.47667","25.0270933333333","6500100","板橋區"
"247019","893-R6","2017/08/10 14:29:52","新北市蘆洲區民權路131巷2號","121.471678333333","25.0901066666667","6501400","蘆洲區"
"247009","546-UM","2017/08/10 14:29:47","新北市蘆洲區三民路26巷35號","121.477211666667","25.0830066666667","6501400","蘆洲區"
"247017","500-BY","2017/08/10 14:29:47","新北市蘆洲區民族路336巷14號","121.477313333333","25.090895","6501400","蘆洲區"
"241031","402-BY","2017/08/10 14:29:44","新北市蘆洲區忠孝路62號","121.471481666667","25.0849233333333","6500200","三重區"
"247005","341-TH","2017/08/10 14:29:47","新北市蘆洲區永安南路二段152號","121.46186","25.0788516666667","6501400","蘆洲區"
"247007","339-TH","2017/08/10 14:29:45","新北市蘆洲區中山一路61巷34號","121.47735","25.08077","6501400","蘆洲區"
"247023","337-TH","2017/08/10 14:29:57","新北市蘆洲區中正路263巷2號","121.467386666667","25.0873883333333","6501400","蘆洲區"
"247001","336-TH","2017/08/10 14:29:50","新北市蘆洲區永樂街38巷33弄44號","121.456938333333","25.0898","6501400","蘆洲區"
"241031","335-TH","2017/08/10 14:29:47","新北市五股區中興路三段163號","121.449298333333","25.080845","6500200","三重區"
"247013","057-VK","2017/08/10 14:29:56","新北市蘆洲區中山二路191號","121.470973333333","25.0806533333333","6501400","蘆洲區"
"247003","056-VK","2017/08/10 14:29:59","新北市蘆洲區長安街194巷24號","121.459903333333","25.0844566666667","6501400","蘆洲區"
"241031","053-VK","2017/08/10 14:29:56","新北市五股區中興路三段163號","121.449216666667","25.08086","6500200","三重區"
"247011","007-UY","2017/08/10 14:29:52","新北市蘆洲區復興路275號","121.481265","25.0901183333333","6501400","蘆洲區"
"247021","002-UY","2017/08/10 14:29:59","新北市蘆洲區三民路128巷29-2號","121.469993333333","25.0894283333333","6501400","蘆洲區"
"247015","001-UY","2017/08/10 14:30:00","新北市蘆洲區中正路185巷23弄1號","121.467118333333","25.0846516666667","6501400","蘆洲區"
"241031","092-VK","2017/08/10 14:22:24","新北市中和區員山路36巷2-1號","121.482741666667","24.9905783333333","6500200","三重區"
"241031","5620-A6","2017/08/10 14:29:14","新北市平溪區望古里石灼坑11號","121.763906666667","25.048725","6500200","三重區"
"241031","7418-A5","2017/08/10 13:45:54","新北市平溪區望古里石灼坑13-1號","121.764586666667","25.0506866666667","6500200","三重區"
"228005","097-TW","2017/08/10 14:29:55","新北市貢寮區美豐里巫里岸9-1號","121.901938333333","25.0700683333333","6502600","貢寮區"
"228004","212-TW","2017/08/10 14:29:43","新北市貢寮區雙玉里田寮洋街33-1號","121.932158333333","25.0135416666667","6502600","貢寮區"
"241031","642-TC","2017/08/10 14:29:56","新北市雙溪區三貂里政光路3-1號","121.850876666667","25.063095","6500200","三重區"
"241031","400-TW","2017/08/10 08:06:18","新北市雙溪區三貂里政光路3-1號","121.850858333333","25.0630416666667","6500200","三重區"
"208004","AAC-292","2017/08/10 14:29:52","新北市金山區重和里磺溪頭81號","121.59751","25.217595","6502700","金山區"
"241031","011-UM","2017/08/10 10:18:28","新北市淡水區中正路二段31號","121.41928","25.181835","6500200","三重區"
"207002","749-BX","2017/08/10 14:27:19","新北市萬里區溪底里福德坑路2-2號","121.624686666667","25.155835","6502800","萬里區"
"252005","073-UM","2017/08/10 14:29:30","新北市三芝區橫山里大坑29號","121.526331666667","25.2552083333333","6502100","三芝區"
"241031","249-BX","2017/08/10 14:29:48","新北市八里區龍米路二段129巷1號","121.445945","25.146925","6500200","三重區"
"207001","662-BX","2017/08/10 14:29:44","新北市萬里區磺潭里清水9號","121.640371666667","25.1998766666667","6502800","萬里區"
"241031","361-BY","2017/08/10 14:25:35","新北市三峽區中山路459巷137號","121.349368333333","24.9335566666667","6500200","三重區"
"237009","210-TH","2017/08/10 14:29:57","新北市三峽區民生街132號","121.372758333333","24.9349083333333","6500900","三峽區"
"241031","275-BY","2017/08/10 14:29:43","新北市三峽區中山路459巷163-3號","121.348881666667","24.9331933333333","6500200","三重區"
"241031","159-BY","2017/08/10 14:02:13","新北市三峽區中山路459巷163-3號","121.348958333333","24.9331083333333","6500200","三重區"
"241031","5529-G3","2017/08/10 13:33:54","新北市三峽區中山路459巷137號","121.350025","24.93403","6500200","三重區"
"241031","682-BX","2017/08/10 09:27:33","新北市三峽區中山路459巷163-3號","121.34871","24.933165","6500200","三重區"
"241031","756-BX","2017/08/10 10:11:06","新北市三峽區中山路459巷163-3號","121.348881666667","24.933085","6500200","三重區"
"241031","760-BX","2017/08/10 10:03:12","新北市三峽區中山路459巷163-3號","121.348863333333","24.9330466666667","6500200","三重區"
"236066","105-UM","2017/08/10 14:29:49","新北市土城區永豐路205-5號","121.474431666667","24.9777233333333","6501300","土城區"
"236040","107-UM","2017/08/10 14:29:46","新北市土城區裕民路61巷6號","121.449438333333","24.9880516666667","6501300","土城區"
"241031","138-TH","2017/08/10 14:29:57","新北市土城區中央路四段323號","121.410358333333","24.9508766666667","6500200","三重區"
"236076","166-UM","2017/08/10 14:29:52","新北市土城區永安街130號","121.429633333333","24.964165","6501300","土城區"
"236028","253-BX","2017/08/10 14:29:49","新北市土城區順風路7號","121.439988333333","24.9763366666667","6501300","土城區"
"236012","270-VK","2017/08/10 14:29:46","新北市土城區立清街69號","121.460343333333","24.9872516666667","6501300","土城區"
"236033","271-VK","2017/08/10 14:29:46","新北市土城區青雲路451巷6號","121.459598333333","24.9746733333333","6501300","土城區"
"241031","370-SL","2017/08/10 14:24:03","新北市土城區中華路二段2號","121.439138333333","24.97965","6500200","三重區"
"241031","371-SL","2017/08/10 14:29:59","新北市樹林區環河路600-1號","121.404661666667","24.9686133333333","6500200","三重區"
"236018","401-BY","2017/08/10 14:29:48","新北市土城區永豐路202巷14號","121.46641","24.9833716666667","6501300","土城區"
"236005","498-BY","2017/08/10 14:30:01","新北市土城區中華路一段185號","121.44333","24.9856633333333","6501300","土城區"
"236056","912-UM","2017/08/10 14:29:51","新北市土城區中央路四段408號","121.412198333333","24.95381","6501300","土城區"
"236047","913-UM","2017/08/10 14:30:00","新北市土城區青雲路453號","121.458723333333","24.97461","6501300","土城區"
"236060","915-UM","2017/08/10 14:29:55","新北市土城區延壽路44巷15號","121.471553333333","24.9929616666667","6501300","土城區"
"236052","AAC-216","2017/08/10 14:29:51","新北市土城區中華路二段175號","121.438578333333","24.9749633333333","6501300","土城區"
"241031","233-RS","2017/08/10 14:29:46","新北市新莊區中華路一段112號","121.452455","25.0404416666667","6500200","三重區"
"241031","312-TH","2017/08/10 14:29:58","新北市樹林區育德街78-1號","121.387793333333","24.9680966666667","6500200","三重區"
"241031","308-TH","2017/08/10 13:29:37","新北市樹林區育德街76巷1號","121.388788333333","24.9683166666667","6500200","三重區"
"241031","661-UM","2017/08/10 14:29:56","新北市鶯歌區二甲路12-2號","121.345588333333","24.9347666666667","6500200","三重區"
"241031","527-UM","2017/08/10 11:46:46","新北市鶯歌區環河路177-23號","121.34498","24.9355833333333","6500200","三重區"
"241031","276-VK","2017/08/10 13:21:16","新北市汐止區汐萬路一段256巷3號","121.653435","25.074645","6500200","三重區"
"241031","277-VK","2017/08/10 14:29:45","新北市汐止區長江街57巷1號","121.656311666667","25.07155","6500200","三重區"
"241031","488-VK","2017/08/10 11:01:54","新北市汐止區汐萬路一段256巷3號","121.652666666667","25.07449","6500200","三重區"
"241031","567-BX","2017/08/10 12:14:12","新北市汐止區汐萬路一段150號","121.652891666667","25.0712316666667","6500200","三重區"
"241031","647-BX","2017/08/10 14:29:58","新北市汐止區新台五路一段75號","121.64581","25.0607183333333","6500200","三重區"
"220027","145-BY","2017/08/10 14:29:55","新北市板橋區民權路202巷9弄40號","121.459636666667","25.01615","6500100","板橋區"
"220028","200-UY","2017/08/10 14:29:46","新北市板橋區大觀路二段19巷42號","121.448016666667","25.00305","6500100","板橋區"
"220030","610-BX","2017/08/10 14:29:52","新北市板橋區金門街262號","121.430048333333","24.9866166666667","6500100","板橋區"
"220023","256-TC","2017/08/10 14:29:57","新北市板橋區南雅南路一段5巷22號","121.456313333333","25.0053783333333","6500100","板橋區"
"220052","257-TC","2017/08/10 14:29:50","新北市板橋區文化路一段270巷3弄11號","121.468386666667","25.020995","6500100","板橋區"
"241031","258-TC","2017/08/10 11:14:08","新北市板橋區金門街369巷95號","121.430118333333","24.980865","6500200","三重區"
"220043","267-BY","2017/08/10 14:29:52","新北市板橋區吳鳳路50巷41號","121.468971666667","25.0302483333333","6500100","板橋區"
"220004","276-BY","2017/08/10 14:29:46","新北市板橋區干城路148-1號","121.45986","24.9927616666667","6500100","板橋區"
"220020","277-BY","2017/08/10 14:29:54","新北市板橋區金門街288-5號","121.429151666667","24.985715","6500100","板橋區"
"241031","280-UM","2017/08/10 11:46:20","新北市板橋區民生路二段16-1號","121.473075","25.0163816666667","6500200","三重區"
"241031","281-UM","2017/08/10 14:23:43","新北市板橋區大觀路二段435-10號","121.446045","24.9943416666667","6500200","三重區"
"220019","283-VK","2017/08/10 14:29:46","新北市板橋區大豐街132號","121.460913333333","25.001105","6500100","板橋區"
"220050","285-UM","2017/08/10 14:29:53","新北市板橋區縣民大道三段135號","121.477683333333","25.0233266666667","6500100","板橋區"
"220001","285-VK","2017/08/10 14:29:52","新北市板橋區富山街87號","121.476685","25.0218433333333","6500100","板橋區"
"220031","286-VK","2017/08/10 14:29:45","新北市板橋區大觀路二段174巷163弄3號","121.441506666667","25.003145","6500100","板橋區"
"220029","287-VK","2017/08/10 14:29:54","新北市板橋區大觀路一段75巷45號","121.449315","25.0040766666667","6500100","板橋區"
"220039","288-VK","2017/08/10 14:29:46","新北市板橋區長江路一段106巷12弄2號","121.459996666667","25.0290566666667","6500100","板橋區"
"220009","293-UM","2017/08/10 14:29:59","新北市板橋區中山路二段147號","121.475545","25.0165733333333","6500100","板橋區"
"220003","295-UM","2017/08/10 14:30:00","新北市板橋區實踐路65巷6-7號","121.464478333333","25.00652","6500100","板橋區"
"220032","296-UM","2017/08/10 14:29:48","新北市板橋區篤行路三段20-1號","121.42884","24.98722","6500100","板橋區"
"220047","299-UM","2017/08/10 14:29:50","新北市板橋區民生路三段281巷2弄8號","121.463601666667","25.0302316666667","6500100","板橋區"
"241031","281-VK","2017/08/10 14:29:46","新北市新莊區利濟街18號","121.453086666667","25.0333066666667","6500200","三重區"
"220010","305-R5","2017/08/10 14:29:59","新北市板橋區三民路二段181巷4弄1號","121.47987","25.01433","6500100","板橋區"
"220041","307-R5","2017/08/10 14:29:43","新北市板橋區光武街9號","121.468153333333","25.024605","6500100","板橋區"
"241031","317-R6","2017/08/10 14:05:10","新北市板橋區民生路二段161巷3號","121.470131666667","25.0197433333333","6500200","三重區"
"220012","486-VK","2017/08/10 14:30:02","新北市板橋區中山路一段107號","121.461846666667","25.0101766666667","6500100","板橋區"
"220038","487-VK","2017/08/10 14:29:44","新北市板橋區文化路一段213號","121.463596666667","25.0169233333333","6500100","板橋區"
"241031","280-VK","2017/08/10 13:13:58","新北市新莊區環河路636-7號","121.43737","25.0112383333333","6500200","三重區"
"220037","491-VK","2017/08/10 14:30:00","新北市板橋區雙十路二段37-1號","121.47683","25.025935","6500100","板橋區"
"220104","560-BX","2017/08/10 14:29:46","新北市板橋區中正路417號","121.454096666667","25.0227883333333","6500100","板橋區"
"220011","609-BX","2017/08/10 14:29:59","新北市板橋區三民路二段251號","121.478905","25.01212","6500100","板橋區"
"241031","630-UY","2017/08/10 13:31:33","新北市板橋區華東街1-10號","121.44852","24.995405","6500200","三重區"
"220040","637-BX","2017/08/10 14:29:47","新北市板橋區文聖街149巷10號","121.479033333333","25.0282416666667","6500100","板橋區"
"220005","686-BX","2017/08/10 14:29:43","新北市板橋區和平路161巷26-3號","121.463506666667","24.996885","6500100","板橋區"
"220025","687-BX","2017/08/10 14:29:59","新北市板橋區大觀路二段75號","121.446491666667","25.0022516666667","6500100","板橋區"
"220042","689-BX","2017/08/10 14:29:54","新北市板橋區雨農路32號","121.46121","25.0243266666667","6500100","板橋區"
"220002","741-BX","2017/08/10 14:29:56","新北市板橋區光明街60號","121.461153333333","25.0026483333333","6500100","板橋區"
"241031","755-RS","2017/08/10 11:00:36","新北市板橋區大觀路二段435-10號","121.445131666667","24.99451","6500200","三重區"
"241031","806-UM","2017/08/10 13:54:27","新北市板橋區華東街1-10號","121.448605","24.99482","6500200","三重區"
"220014","829-TW","2017/08/10 14:29:50","新北市板橋區漢生東路299巷23號","121.472853333333","25.0090133333333","6500100","板橋區"
"220051","830-TW","2017/08/10 14:29:55","新北市板橋區松柏街19號","121.474575","25.02989","6500100","板橋區"
"241031","831-TW","2017/08/10 01:15:46","新北市板橋區民生路二段120號","121.470951666667","25.0199766666667","6500200","三重區"
"220022","895-R6","2017/08/10 14:29:49","新北市板橋區後菜園街4號","121.457706666667","25.010465","6500100","板橋區"
"220021","985-R7","2017/08/10 14:29:46","新北市板橋區新生街89巷10號","121.457846666667","25.0222516666667","6500100","板橋區"
"220046","AAC-210","2017/08/10 14:29:49","新北市板橋區陽明街133號","121.463451666667","25.0239933333333","6500100","板橋區"
"220018","AAC-253","2017/08/10 14:29:49","新北市板橋區忠孝路164號","121.464268333333","25.0024683333333","6500100","板橋區"
