"lineid","car","time","location","longitude","latitude","cityid","cityname"
"234005","207-UY","2017/08/10 14:39:47","新北市永和區安樂路218號","121.515016666667","25.00211","6500400","永和區"
"241031","209-UY","2017/08/10 14:39:44","新北市永和區保生路55號","121.504633333333","25.0107766666667","6500200","三重區"
"234062","337-UY","2017/08/10 14:39:46","新北市永和區永貞路295號","121.51095","25.0056266666667","6500400","永和區"
"234084","338-UY","2017/08/10 14:39:52","新北市永和區光復街21號","121.51648","25.0173766666667","6500400","永和區"
"241031","395-TH","2017/08/10 14:39:57","新北市永和區永元路17巷25弄10號","121.52101","25.0017783333333","6500200","三重區"
"234052","553-UM","2017/08/10 14:40:00","新北市永和區環河東路一段82號","121.519601666667","25.0164066666667","6500400","永和區"
"241031","693-BX","2017/08/10 10:30:33","新北市永和區福和路1號","121.526703333333","25.0100116666667","6500200","三重區"
"241031","695-BX","2017/08/10 14:39:45","新北市永和區福和路1號","121.525335","25.009325","6500200","三重區"
"234028","746-BX","2017/08/10 14:39:41","新北市五股區成泰路一段98巷77號","121.450745","25.0772883333333","6500400","永和區"
"241031","838-RS","2017/08/10 14:36:42","新北市永和區保順路27號","121.503825","25.01044","6500200","三重區"
"241031","840-RS","2017/08/10 14:40:02","新北市永和區竹林路75巷25弄3號","121.520195","25.014225","6500200","三重區"
"241031","841-RS","2017/08/10 14:39:48","新北市永和區永貞路330號","121.511221666667","25.00547","6500200","三重區"
"234060","AAD-866","2017/08/10 14:39:52","新北市永和區中正路381號","121.517146666667","25.0037716666667","6500400","永和區"
"241031","845-RS","2017/08/10 14:39:45","新北市永和區保順路27號","121.503936666667","25.010225","6500200","三重區"
"234040","862-TW","2017/08/10 14:40:00","新北市永和區環河西路一段83號","121.512733333333","25.0182","6500400","永和區"
"234025","9371-KE","2017/08/10 14:39:52","新北市永和區中和路501巷5號","121.5105","25.002695","6500400","永和區"
"234010","9373-KE","2017/08/10 14:39:54","新北市永和區保生路55-1號","121.504515","25.0109216666667","6500400","永和區"
"248015","026-BX","2017/08/10 14:39:47","新北市五股區成泰路三段601巷21號","121.451711666667","25.10327","6501500","五股區"
"248007","095-VK","2017/08/10 14:39:48","新北市五股區四維路118巷10弄1號","121.468876666667","25.0743483333333","6501500","五股區"
"248017","225-UY","2017/08/10 14:21:36","新北市五股區壟路16號","121.41531","25.0856183333333","6501500","五股區"
"248011","247-BX","2017/08/10 14:39:57","新北市五股區民義路一段74號","121.436236666667","25.0846566666667","6501500","五股區"
"248013","261-SL","2017/08/10 14:40:03","新北市五股區五福路52巷26號","121.434498333333","25.0901866666667","6501500","五股區"
"248003","677-BX","2017/08/10 14:39:45","新北市五股區成泰路二段82號","121.437455","25.0823666666667","6501500","五股區"
"248001","678-BX","2017/08/10 14:39:58","新北市五股區成泰路三段283號","121.447228333333","25.094205","6501500","五股區"
"248009","682-TV","2017/08/10 14:39:53","新北市五股區登林路74-3號","121.431086666667","25.0693","6501500","五股區"
"234022","9380-KE","2017/08/10 14:34:48","新北市永和區保生路55-1號","121.504451666667","25.0109183333333","6500400","永和區"
"234066","AAC-212","2017/08/10 14:40:02","新北市永和區保平路290號","121.507993333333","25.0044633333333","6500400","永和區"
"234001","AAC-295","2017/08/10 14:39:45","新北市永和區中正路529號","121.516888333333","25.00773","6500400","永和區"
"241031","069-UM","2017/08/10 11:37:06","新北市林口區粉寮69號","121.405005","25.090855","6500200","三重區"
"241031","402-UM","2017/08/10 13:38:46","新北市林口區粉寮69號","121.405038333333","25.090955","6500200","三重區"
"244018","403-UM","2017/08/10 10:48:32","新北市林口區粉寮69號","121.405083333333","25.0907883333333","6501700","林口區"
"241031","410-SL","2017/08/10 10:32:16","新北市林口區粉寮69號","121.405093333333","25.0908433333333","6500200","三重區"
"241031","656-BX","2017/08/10 14:39:07","新北市林口區公園路149號","121.370011666667","25.0711416666667","6500200","三重區"
"241031","658-BX","2017/08/10 14:33:33","新北市林口區粉寮69號","121.404966666667","25.090925","6500200","三重區"
"244025","837-TS","2017/08/10 10:22:43","新北市林口區粉寮路二段160巷28號","121.4052","25.0907616666667","6501700","林口區"
"243005","AAD-798","2017/08/10 14:40:02","新北市泰山區應化街7號","121.423886666667","25.0436883333333","6501600","泰山區"
"243001","297-R6","2017/08/10 14:39:45","新北市泰山區明志路一段150號","121.433293333333","25.063005","6501600","泰山區"
"243007","380-SR","2017/08/10 14:39:49","新北市泰山區明志路二段214巷11號","121.426698333333","25.048815","6501600","泰山區"
"243006","421-VK","2017/08/10 14:39:46","新北市泰山區泰林路二段165號","121.43377","25.0605666666667","6501600","泰山區"
"243002","548-UM","2017/08/10 14:39:56","新北市泰山區明志路二段136巷9號","121.426608333333","25.051395","6501600","泰山區"
"243003","549-UM","2017/08/10 14:39:53","新北市泰山區明志路三段182巷9號","121.42355","25.0389883333333","6501600","泰山區"
"243004","646-TV","2017/08/10 14:39:48","新北市泰山區楓江路23-3號","121.434156666667","25.06246","6501600","泰山區"
"243008","680-BX","2017/08/10 14:39:47","新北市泰山區明志路三段514號","121.421066666667","25.0308283333333","6501600","泰山區"
"231002","002-UM","2017/08/10 14:39:54","新北市新店區中正路468-2號","121.533955","24.98007","6500600","新店區"
"231025","0291-UT","2017/08/10 14:39:41","新北市新店區民族路161號","121.53775","24.9768116666667","6500600","新店區"
"231028","046-UY","2017/08/10 14:40:03","新北市新店區安德街53號","121.51098","24.9621383333333","6500600","新店區"
"231029","106-UY","2017/08/10 14:39:50","新北市新店區安康路三段216號","121.488468333333","24.9518533333333","6500600","新店區"
"231018","107-UY","2017/08/10 14:39:56","新北市新店區中央二街5巷2號","121.528945","24.9730216666667","6500600","新店區"
"231011","108-UY","2017/08/10 14:39:44","新北市新店區寶宏路38號","121.549458333333","24.9755916666667","6500600","新店區"
"231035","110-UY","2017/08/10 14:39:54","新北市新店區安康路二段118-9號","121.512868333333","24.9634483333333","6500600","新店區"
"231021","187-VK","2017/08/10 14:39:51","新北市新店區新烏路三段65號","121.554291666667","24.9039366666667","6500600","新店區"
"241031","188-VK","2017/08/10 02:22:50","新北市新店區安華路28-1號","121.51996","24.96133","6500200","三重區"
"241031","189-VK","2017/08/08 03:24:53","新北市新店區安華路28-1號","121.519805","24.9611233333333","6500200","三重區"
"231017","AAD-862","2017/08/10 14:39:56","新北市新店區北宜路三段221號","121.592381666667","24.95329","6500600","新店區"
"241031","355-BY","2017/08/10 09:56:41","新北市新店區安華路28-1號","121.519371666667","24.9609983333333","6500200","三重區"
"231027","3712-VJ","2017/08/10 14:39:47","新北市新店區中正路76巷11弄22號","121.543661666667","24.9717983333333","6500600","新店區"
"231038","4715-K9","2017/08/10 14:40:02","新北市新店區溪洲路143-2號","121.528808333333","24.9638883333333","6500600","新店區"
"231036","512-UM","2017/08/10 14:39:55","新北市新店區安祥路106巷288號","121.472453333333","24.9582516666667","6500600","新店區"
"231023","513-UM","2017/08/10 14:39:59","新北市新店區檳榔路39號","121.542633333333","24.9634616666667","6500600","新店區"
"241031","515-UM","2017/08/10 13:17:53","新北市新店區安華路28-1號","121.519566666667","24.9612016666667","6500200","三重區"
"231030","618-UM","2017/08/10 14:39:48","新北市新店區安民街189-1號","121.516901666667","24.97112","6500600","新店區"
"231001","619-UM","2017/08/10 14:39:46","新北市新店區中正路30號","121.545183333333","24.9697383333333","6500600","新店區"
"231003","641-BX","2017/08/10 14:39:50","新北市新店區中興路二段37號","121.546186666667","24.969855","6500600","新店區"
"231034","645-TV","2017/08/10 14:39:48","新北市新店區黎明路51巷1號","121.502025","24.949325","6500600","新店區"
"231013","719-UM","2017/08/10 14:39:50","新北市新店區明德路22號","121.542183333333","24.97706","6500600","新店區"
"231005","897-TW","2017/08/10 14:39:58","新北市新店區北新路三段49號","121.541843333333","24.9805133333333","6500600","新店區"
"231006","898-TW","2017/08/10 14:39:53","新北市新店區北宜路二段235號","121.553716666667","24.9534366666667","6500600","新店區"
"231004","899-TW","2017/08/10 14:39:50","新北市新店區中正路263-2號","121.538473333333","24.973825","6500600","新店區"
"231037","AKT-0513","2017/08/10 14:39:56","新北市新店區安康路二段320巷6號","121.504901666667","24.9586583333333","6500600","新店區"
"235030","003-UY","2017/08/10 14:39:56","新北市中和區景安路85號","121.506226666667","24.99694","6500300","中和區"
"235028","005-UY","2017/08/10 14:40:00","新北市中和區南山路127巷17號","121.503028333333","24.9973266666667","6500300","中和區"
"235027","006-UY","2017/08/10 14:39:58","新北市中和區連勝街93號","121.495581666667","24.996325","6500300","中和區"
"235020","096-UM","2017/08/10 14:39:48","新北市中和區員山路581巷31弄22號","121.47661","25.0104433333333","6500300","中和區"
"235003","097-UM","2017/08/10 14:39:55","新北市永和區中正路74號","121.513588333333","24.9951216666667","6500300","中和區"
"235029","098-UM","2017/08/10 14:39:55","新北市中和區永和路56號","121.499345","25.00422","6500300","中和區"
"235004","150-BY","2017/08/10 14:39:50","新北市中和區安平路38號","121.509968333333","24.9949416666667","6500300","中和區"
"235022","151-BY","2017/08/10 14:39:59","新北市中和區員山路124巷6號","121.481683333333","24.99594","6500300","中和區"
"235019","183-VK","2017/08/10 14:39:57","新北市中和區德光路30號","121.470673333333","25.0044683333333","6500300","中和區"
"235002","185-VK","2017/08/10 14:39:45","新北市中和區立人街9號","121.521663333333","24.9939933333333","6500300","中和區"
"235013","186-VK","2017/08/10 14:39:58","新北市中和區安平路13號","121.509133333333","24.9941066666667","6500300","中和區"
"235031","255-BX","2017/08/10 14:39:43","新北市中和區新生街186巷4號","121.48339","24.9996583333333","6500300","中和區"
"235008","293-VK","2017/08/10 14:39:54","新北市中和區景安路192號","121.504316666667","24.991675","6500300","中和區"
"235036","301-VK","2017/08/10 14:39:50","新北市中和區中和路74號","121.500788333333","25.0001883333333","6500300","中和區"
"235007","352-BY","2017/08/10 14:39:49","新北市中和區景平路480號","121.505195","24.9937716666667","6500300","中和區"
"235015","376-QA","2017/08/10 14:40:03","新北市中和區中興街180巷52弄2號","121.498836666667","24.9887083333333","6500300","中和區"
"235032","377-QA","2017/08/10 14:39:54","新北市中和區永和路8號","121.500061666667","25.0030266666667","6500300","中和區"
"235025","378-QA","2017/08/10 14:39:56","新北市中和區員山路226巷22弄7號","121.481768333333","25.0000383333333","6500300","中和區"
"241031","467-BY","2017/08/10 14:39:56","新北市中和區景平路468號","121.505591666667","24.9935733333333","6500200","三重區"
"235014","4979-A6","2017/08/10 14:12:31","新北市中和區復興路79號","121.503545","24.9900033333333","6500300","中和區"
"235006","551-UM","2017/08/10 14:40:01","新北市中和區保健路2巷22號","121.507223333333","24.9976783333333","6500300","中和區"
"235034","558-UM","2017/08/10 14:39:54","新北市中和區中和路33號","121.500103333333","25.0016916666667","6500300","中和區"
"235009","565-BX","2017/08/10 14:39:56","新北市中和區景新街499號","121.51402","24.98701","6500300","中和區"
"235018","640-BX","2017/08/10 14:40:01","新北市中和區國光街102巷11弄11號","121.470581666667","25.0011116666667","6500300","中和區"
"235024","647-TV","2017/08/10 14:39:48","新北市中和區新生街114巷2號","121.483435","25.002465","6500300","中和區"
"235011","732-UM","2017/08/10 14:39:51","新北市中和區南山路230號","121.50653","24.99013","6500300","中和區"
"235010","733-UM","2017/08/10 14:39:44","新北市中和區忠孝街92號","121.511681666667","24.98447","6500300","中和區"
"235026","800-TS","2017/08/10 14:39:57","新北市中和區中山路二段526巷19號","121.485745","25.0056116666667","6500300","中和區"
"235021","801-TS","2017/08/10 14:39:43","新北市中和區員山路384號","121.480728333333","25.0044083333333","6500300","中和區"
"235005","802-TS","2017/08/10 14:39:52","新北市中和區景安路69號","121.506891666667","24.99775","6500300","中和區"
"235016","805-TS","2017/08/10 14:39:40","新北市中和區華新街143巷69弄14號","121.507558333333","24.97885","6500300","中和區"
"235012","896-TW","2017/08/10 14:39:47","新北市中和區忠孝街99-3號","121.511903333333","24.9860283333333","6500300","中和區"
"235017","900-TW","2017/08/10 14:39:49","新北市中和區民德路197號","121.468991666667","24.9982416666667","6500300","中和區"
"235035","911-UM","2017/08/10 14:39:48","新北市中和區中正路641號","121.48519","24.9956133333333","6500300","中和區"
"241031","157-BY","2017/08/10 12:11:08","新北市中和區員山路36巷13號","121.484098333333","24.99105","6500200","三重區"
"235001","AAC-213","2017/08/10 14:39:59","新北市永和區成功路二段152-2號","121.526525","24.9965416666667","6500300","中和區"
"235023","AAC-215","2017/08/10 14:39:55","新北市中和區圓通路268號","121.492655","24.9908416666667","6500300","中和區"
"220016","013-TV","2017/08/10 14:39:59","新北市板橋區中山路二段416巷37號","121.483125","25.0196266666667","6500100","板橋區"
"220013","072-UY","2017/08/10 14:39:53","新北市板橋區實踐路93巷75號","121.467165","25.0053116666667","6500100","板橋區"
"220034","073-UY","2017/08/10 14:39:46","新北市板橋區漢生西路89巷5弄6號","121.461198333333","25.01933","6500100","板橋區"
"220105","075-UY","2017/08/10 14:39:47","新北市板橋區雙十路三段19號","121.470766666667","25.0313533333333","6500100","板橋區"
"220017","AAD-861","2017/08/10 14:39:45","新北市板橋區稚暉街35號","121.457143333333","25.0041066666667","6500100","板橋區"
"220045","120-SR","2017/08/10 14:39:52","新北市板橋區民生路二段234巷20號","121.470021666667","25.0224583333333","6500100","板橋區"
"247019","893-R6","2017/08/10 14:39:52","新北市蘆洲區民義街68巷3號","121.473353333333","25.0897983333333","6501400","蘆洲區"
"247009","546-UM","2017/08/10 14:39:47","新北市蘆洲區信義路222巷8號","121.479553333333","25.0853433333333","6501400","蘆洲區"
"247017","500-BY","2017/08/10 14:39:47","新北市蘆洲區民族路314巷21號","121.47814","25.0905216666667","6501400","蘆洲區"
"241031","402-BY","2017/08/10 14:39:44","新北市蘆洲區復興路58號","121.473798333333","25.0861283333333","6500200","三重區"
"247005","341-TH","2017/08/10 14:39:47","新北市蘆洲區長安街46巷1弄2號","121.463591666667","25.0799516666667","6501400","蘆洲區"
"247007","339-TH","2017/08/10 14:39:45","新北市蘆洲區和平路15號","121.472681666667","25.0792166666667","6501400","蘆洲區"
"247023","337-TH","2017/08/10 14:40:00","新北市蘆洲區中山二路222巷17號","121.469326666667","25.08029","6501400","蘆洲區"
"247001","336-TH","2017/08/10 14:39:58","新北市蘆洲區永樂街38巷57弄37號","121.457185","25.090585","6501400","蘆洲區"
"241031","335-TH","2017/08/10 14:39:51","新北市五股區中興路三段163號","121.449071666667","25.0808383333333","6500200","三重區"
"247013","057-VK","2017/08/10 14:39:56","新北市蘆洲區中央路56號","121.473381666667","25.0835833333333","6501400","蘆洲區"
"247003","056-VK","2017/08/10 14:39:59","新北市蘆洲區長安街307號","121.45797","25.0852116666667","6501400","蘆洲區"
"241031","053-VK","2017/08/10 14:39:48","新北市五股區中興路三段163號","121.449265","25.080755","6500200","三重區"
"247011","007-UY","2017/08/10 14:39:52","新北市蘆洲區集賢路224巷62號","121.48093","25.0881233333333","6501400","蘆洲區"
"247021","002-UY","2017/08/10 14:39:38","新北市蘆洲區三民路256號","121.467781666667","25.0900183333333","6501400","蘆洲區"
"247015","001-UY","2017/08/10 14:40:00","新北市蘆洲區光華路73巷15號","121.468288333333","25.0822933333333","6501400","蘆洲區"
"241031","092-VK","2017/08/10 14:22:24","新北市中和區員山路36巷2-1號","121.482741666667","24.9905783333333","6500200","三重區"
"241031","5620-A6","2017/08/10 14:39:54","新北市平溪區新寮里頂寮子62-1號","121.773608333333","25.0508283333333","6500200","三重區"
"241031","7418-A5","2017/08/10 14:31:09","新北市平溪區望古里石灼坑13-1號","121.764253333333","25.04999","6500200","三重區"
"228005","097-TW","2017/08/10 14:39:55","新北市貢寮區美豐里雞母嶺街6-6號","121.902035","25.0641983333333","6502600","貢寮區"
"228004","212-TW","2017/08/10 14:39:42","新北市貢寮區福隆里龜壽谷街30-1號","121.947093333333","25.0132933333333","6502600","貢寮區"
"241031","642-TC","2017/08/10 14:39:56","新北市雙溪區三貂里政光路3-1號","121.850876666667","25.0631016666667","6500200","三重區"
"241031","400-TW","2017/08/10 08:06:18","新北市雙溪區三貂里政光路3-1號","121.850858333333","25.0630416666667","6500200","三重區"
"208004","AAC-292","2017/08/10 14:39:52","新北市金山區兩湖里倒照湖43號","121.589933333333","25.23544","6502700","金山區"
"241031","011-UM","2017/08/10 10:18:28","新北市淡水區中正路二段31號","121.41928","25.181835","6500200","三重區"
"207002","749-BX","2017/08/10 14:39:59","新北市萬里區崁腳里崁腳路73號","121.647586666667","25.1596066666667","6502800","萬里區"
"252005","073-UM","2017/08/10 14:39:51","新北市三芝區埔坪里埔頭坑91-1號","121.507786666667","25.2534816666667","6502100","三芝區"
"241031","249-BX","2017/08/10 14:39:48","新北市淡水區民權路119號","121.460115","25.1368433333333","6500200","三重區"
"207001","662-BX","2017/08/10 14:39:44","新北市萬里區雙興里豐稟路26號","121.641395","25.1877066666667","6502800","萬里區"
"241031","361-BY","2017/08/10 14:25:35","新北市三峽區中山路459巷137號","121.349368333333","24.9335566666667","6500200","三重區"
"237009","210-TH","2017/08/10 14:39:57","新北市三峽區中山路459巷58號","121.356121666667","24.9366366666667","6500900","三峽區"
"241031","275-BY","2017/08/10 14:39:43","新北市三峽區中山路459巷163-3號","121.348888333333","24.9331883333333","6500200","三重區"
"241031","159-BY","2017/08/10 14:02:13","新北市三峽區中山路459巷163-3號","121.348958333333","24.9331083333333","6500200","三重區"
"241031","5529-G3","2017/08/10 13:33:54","新北市三峽區中山路459巷137號","121.350025","24.93403","6500200","三重區"
"241031","682-BX","2017/08/10 09:27:33","新北市三峽區中山路459巷163-3號","121.34871","24.933165","6500200","三重區"
"241031","756-BX","2017/08/10 10:11:06","新北市三峽區中山路459巷163-3號","121.348881666667","24.933085","6500200","三重區"
"241031","760-BX","2017/08/10 10:03:12","新北市三峽區中山路459巷163-3號","121.348863333333","24.9330466666667","6500200","三重區"
"236066","105-UM","2017/08/10 14:39:49","新北市土城區永豐路342-1號","121.474461666667","24.976415","6501300","土城區"
"236040","107-UM","2017/08/10 14:39:46","新北市土城區學成路108巷11號","121.450221666667","24.98968","6501300","土城區"
"241031","138-TH","2017/08/10 14:39:37","新北市土城區永寧路12-2號","121.43014","24.9637116666667","6500200","三重區"
"236076","166-UM","2017/08/10 14:39:52","新北市土城區中央路四段25-10號","121.424446666667","24.96243","6501300","土城區"
"236028","253-BX","2017/08/10 14:39:49","新北市土城區中華路二段92號","121.438213333333","24.97449","6501300","土城區"
"236024","269-VK","2017/08/10 14:39:42","新北市土城區千歲路13號","121.440946666667","24.9695416666667","6501300","土城區"
"236012","270-VK","2017/08/10 14:39:46","新北市土城區清水路223號","121.46092","24.982345","6501300","土城區"
"236033","271-VK","2017/08/10 14:39:46","新北市土城區明德路一段291巷26號","121.460393333333","24.976025","6501300","土城區"
"241031","370-SL","2017/08/10 14:24:03","新北市土城區中華路二段2號","121.439138333333","24.97965","6500200","三重區"
"241031","371-SL","2017/08/10 14:34:59","新北市樹林區中山路三段210-2號","121.380696666667","24.9665633333333","6500200","三重區"
"236018","401-BY","2017/08/10 14:39:48","新北市土城區延吉街276號","121.465693333333","24.9842983333333","6501300","土城區"
"236005","498-BY","2017/08/10 14:39:41","新北市土城區城林路6巷80號","121.438563333333","24.9795883333333","6501300","土城區"
"236056","912-UM","2017/08/10 14:39:51","新北市土城區中央路四段27巷4號","121.424906666667","24.9625866666667","6501300","土城區"
"236047","913-UM","2017/08/10 14:40:00","新北市土城區明德路一段59號","121.465321666667","24.9845333333333","6501300","土城區"
"236060","915-UM","2017/08/10 14:39:55","新北市土城區延壽路75巷23弄2號","121.468895","24.9918","6501300","土城區"
"236052","AAC-216","2017/08/10 14:39:51","新北市土城區中華路一段145號","121.444108333333","24.9863716666667","6501300","土城區"
"241031","233-RS","2017/08/10 14:39:46","新北市新莊區瓊林南路77-41號","121.437383333333","25.012525","6500200","三重區"
"241031","312-TH","2017/08/10 14:39:58","新北市樹林區育德街78-1號","121.387878333333","24.968105","6500200","三重區"
"241031","308-TH","2017/08/10 13:29:37","新北市樹林區育德街76巷1號","121.388788333333","24.9683166666667","6500200","三重區"
"241031","661-UM","2017/08/10 14:39:56","新北市鶯歌區二甲路12-2號","121.345558333333","24.93477","6500200","三重區"
"241031","527-UM","2017/08/10 11:46:46","新北市鶯歌區環河路177-23號","121.34498","24.9355833333333","6500200","三重區"
"241031","276-VK","2017/08/10 13:21:16","新北市汐止區汐萬路一段256巷3號","121.653435","25.074645","6500200","三重區"
"241031","277-VK","2017/08/10 14:39:58","新北市汐止區大同路二段316號","121.655695","25.0668333333333","6500200","三重區"
"241031","280-BY","2017/08/10 14:40:00","新北市新店區安豐路24號","121.500703333333","24.95659","6500200","三重區"
"241031","488-VK","2017/08/10 11:01:54","新北市汐止區汐萬路一段256巷3號","121.652666666667","25.07449","6500200","三重區"
"241031","567-BX","2017/08/10 12:14:12","新北市汐止區汐萬路一段150號","121.652891666667","25.0712316666667","6500200","三重區"
"241031","647-BX","2017/08/10 14:39:58","新北市汐止區康寧街901號","121.651593333333","25.0749716666667","6500200","三重區"
"220027","145-BY","2017/08/10 14:39:55","新北市板橋區復興街113號","121.46025","25.0179783333333","6500100","板橋區"
"220028","200-UY","2017/08/10 14:39:46","新北市板橋區大觀路二段37巷180號","121.449538333333","25.00222","6500100","板橋區"
"220030","610-BX","2017/08/10 14:39:52","新北市板橋區金門街42號","121.433215","24.9933283333333","6500100","板橋區"
"220023","256-TC","2017/08/10 14:39:57","新北市板橋區中正路325巷3弄27號","121.454188333333","25.01841","6500100","板橋區"
"220052","257-TC","2017/08/10 14:39:50","新北市板橋區陽明街27巷12號","121.465348333333","25.02119","6500100","板橋區"
"241031","258-TC","2017/08/10 11:14:08","新北市板橋區金門街369巷95號","121.430118333333","24.980865","6500200","三重區"
"220043","267-BY","2017/08/10 14:39:52","新北市板橋區宏國路77巷1號","121.468913333333","25.0322333333333","6500100","板橋區"
"220004","276-BY","2017/08/10 14:39:46","新北市板橋區信義路1巷26弄50號","121.459641666667","24.9967183333333","6500100","板橋區"
"220020","277-BY","2017/08/10 14:39:54","新北市板橋區金門街287巷39號","121.432348333333","24.9875533333333","6500100","板橋區"
"241031","280-UM","2017/08/10 11:46:20","新北市板橋區民生路二段16-1號","121.473075","25.0163816666667","6500200","三重區"
"241031","281-UM","2017/08/10 14:23:43","新北市板橋區大觀路二段435-10號","121.446045","24.9943416666667","6500200","三重區"
"220019","283-VK","2017/08/10 14:39:46","新北市板橋區四川路一段283巷5號","121.459783333333","25.00132","6500100","板橋區"
"220050","285-UM","2017/08/10 14:39:53","新北市板橋區莊敬路220巷29弄2號","121.472671666667","25.0204733333333","6500100","板橋區"
"220001","285-VK","2017/08/10 14:39:52","新北市板橋區中山路二段152號","121.476671666667","25.0171283333333","6500100","板橋區"
"220031","286-VK","2017/08/10 14:39:45","新北市板橋區龍興街65巷64號","121.442246666667","25.00197","6500100","板橋區"
"220029","287-VK","2017/08/10 14:39:54","新北市板橋區大觀路一段29巷179弄12號","121.448983333333","25.004775","6500100","板橋區"
"220039","288-VK","2017/08/10 14:39:46","新北市板橋區長江路一段46號","121.458753333333","25.029135","6500100","板橋區"
"220009","293-UM","2017/08/10 14:39:59","新北市板橋區漢生東路113巷12弄3號","121.468103333333","25.015265","6500100","板橋區"
"220003","295-UM","2017/08/10 14:39:40","新北市板橋區重慶路290巷24號","121.462236666667","24.9988433333333","6500100","板橋區"
"220032","296-UM","2017/08/10 14:39:48","新北市板橋區滿平二街32號","121.425248333333","24.9875216666667","6500100","板橋區"
"220047","299-UM","2017/08/10 14:39:50","新北市板橋區四維路279巷60號","121.460566666667","25.0275633333333","6500100","板橋區"
"241031","281-VK","2017/08/10 14:39:45","新北市新莊區環河路636-7號","121.437338333333","25.01156","6500200","三重區"
"220010","305-R5","2017/08/10 14:39:59","新北市板橋區三民路二段81巷17號","121.480193333333","25.0168166666667","6500100","板橋區"
"220041","307-R5","2017/08/10 14:40:02","新北市板橋區陽明街78號","121.46457","25.0227383333333","6500100","板橋區"
"241031","317-R6","2017/08/10 14:05:10","新北市板橋區民生路二段161巷3號","121.470131666667","25.0197433333333","6500200","三重區"
"220012","486-VK","2017/08/10 14:39:42","新北市板橋區館前東路80號","121.461596666667","25.0074966666667","6500100","板橋區"
"220038","487-VK","2017/08/10 14:39:44","新北市板橋區國光路190號","121.461218333333","25.0183416666667","6500100","板橋區"
"241031","280-VK","2017/08/10 13:13:58","新北市新莊區環河路636-7號","121.43737","25.0112383333333","6500200","三重區"
"220037","491-VK","2017/08/10 14:40:00","新北市板橋區雙十路二段149號","121.474628333333","25.02807","6500100","板橋區"
"220104","560-BX","2017/08/10 14:39:46","新北市板橋區公館街252號","121.459923333333","25.021115","6500100","板橋區"
"220011","609-BX","2017/08/10 14:39:39","新北市板橋區三民路二段2號","121.479248333333","25.0182666666667","6500100","板橋區"
"241031","630-UY","2017/08/10 14:39:50","新北市板橋區華東街1-10號","121.448321666667","24.9950033333333","6500200","三重區"
"220040","637-BX","2017/08/10 14:39:47","新北市板橋區懷德街201巷16號","121.48153","25.0295516666667","6500100","板橋區"
"220005","686-BX","2017/08/10 14:40:03","新北市板橋區五權街7-1號","121.463961666667","24.9946433333333","6500100","板橋區"
"220025","687-BX","2017/08/10 14:39:59","新北市板橋區僑中二街52號","121.446641666667","25.0102716666667","6500100","板橋區"
"220042","689-BX","2017/08/10 14:39:54","新北市板橋區新海路360號","121.459746666667","25.024985","6500100","板橋區"
"220002","741-BX","2017/08/10 14:39:56","新北市板橋區忠孝路204號","121.465945","25.0026566666667","6500100","板橋區"
"241031","755-RS","2017/08/10 11:00:36","新北市板橋區大觀路二段435-10號","121.445131666667","24.99451","6500200","三重區"
"241031","806-UM","2017/08/10 13:54:27","新北市板橋區華東街1-10號","121.448605","24.99482","6500200","三重區"
"220014","829-TW","2017/08/10 14:39:50","新北市板橋區長安街259巷2號","121.473253333333","25.0105916666667","6500100","板橋區"
"220051","830-TW","2017/08/10 14:39:56","新北市板橋區雙十路二段70巷35號","121.476196666667","25.0287766666667","6500100","板橋區"
"241031","831-TW","2017/08/10 01:15:46","新北市板橋區民生路二段120號","121.470951666667","25.0199766666667","6500200","三重區"
"220022","895-R6","2017/08/10 14:39:49","新北市板橋區倉後街1-8號","121.455471666667","25.0090983333333","6500100","板橋區"
"220021","985-R7","2017/08/10 14:39:46","新北市板橋區瑞安街46巷3號","121.455268333333","25.0221516666667","6500100","板橋區"
"220046","AAC-210","2017/08/10 14:39:49","新北市板橋區幸福路32巷2弄7號","121.46175","25.021055","6500100","板橋區"
"220018","AAC-253","2017/08/10 14:39:49","新北市板橋區四川路一段84號","121.459648333333","25.0051283333333","6500100","板橋區"
