"lineid","car","time","location","longitude","latitude","cityid","cityname"
"241031","209-UY","2017/08/10 16:26:10","新北市永和區保順路33號","121.503793333333","25.0106366666667","6500200","三重區"
"241031","395-TH","2017/08/10 16:49:37","新北市永和區保生路55-8號","121.504036666667","25.0104016666667","6500200","三重區"
"241031","693-BX","2017/08/10 10:30:33","新北市永和區福和路1號","121.526703333333","25.0100116666667","6500200","三重區"
"241031","695-BX","2017/08/10 16:49:45","新北市永和區福和路1號","121.525391666667","25.0092766666667","6500200","三重區"
"241031","838-RS","2017/08/10 14:36:42","新北市永和區保順路27號","121.503825","25.01044","6500200","三重區"
"241031","840-RS","2017/08/10 16:40:38","新北市永和區保生路55-8號","121.504091666667","25.01034","6500200","三重區"
"241031","841-RS","2017/08/10 16:49:57","新北市永和區保生路55-8號","121.504108333333","25.0103683333333","6500200","三重區"
"241031","845-RS","2017/08/10 15:58:27","新北市永和區保順路27號","121.503881666667","25.0103166666667","6500200","三重區"
"249005","172-UM","2017/08/10 16:49:50","新北市八里區龍米路三段47-1號","121.424808333333","25.1577983333333","6502300","八里區"
"249001","173-UM","2017/08/10 16:49:51","新北市八里區博物館路10-1號","121.415291666667","25.1640233333333","6502300","八里區"
"249004","303-UY","2017/08/10 16:49:44","新北市八里區博物館路131號","121.40807","25.1586016666667","6502300","八里區"
"249002","305-UY","2017/08/10 16:49:44","新北市八里區大堀湖8號","121.42611","25.1509","6502300","八里區"
"249003","593-UM","2017/08/10 16:49:43","新北市八里區博物館路201號","121.404715","25.1558283333333","6502300","八里區"
"241031","069-UM","2017/08/10 11:37:06","新北市林口區粉寮69號","121.405005","25.090855","6500200","三重區"
"244007","080-UY","2017/08/10 16:49:54","新北市林口區中山路168-1號","121.38967","25.07894","6501700","林口區"
"241031","402-UM","2017/08/10 15:24:07","新北市林口區粉寮69號","121.405083333333","25.0910016666667","6500200","三重區"
"244018","403-UM","2017/08/10 16:40:48","新北市林口區粉寮69號","121.405113333333","25.0908316666667","6501700","林口區"
"241031","410-SL","2017/08/10 16:49:45","新北市林口區粉寮69號","121.405075","25.090825","6500200","三重區"
"241031","656-BX","2017/08/10 16:42:27","新北市林口區粉寮路二段160巷30號","121.405605","25.0910016666667","6500200","三重區"
"241031","658-BX","2017/08/10 16:32:35","新北市林口區粉寮69號","121.404986666667","25.0909483333333","6500200","三重區"
"244025","837-TS","2017/08/10 16:43:55","新北市林口區粉寮路二段160巷28號","121.405155","25.0907216666667","6501700","林口區"
"243009","297-R6","2017/08/10 16:04:46","新北市泰山區黎明路25號","121.422016666667","25.0610283333333","6501600","泰山區"
"243002","548-UM","2017/08/10 15:29:53","新北市泰山區黎明路25號","121.422228333333","25.0607366666667","6501600","泰山區"
"243016","680-BX","2017/08/10 15:58:25","新北市泰山區黎明路25號","121.421941666667","25.06059","6501600","泰山區"
"241031","188-VK","2017/08/10 02:22:50","新北市新店區安華路28-1號","121.51996","24.96133","6500200","三重區"
"241031","189-VK","2017/08/08 03:24:53","新北市新店區安華路28-1號","121.519805","24.9611233333333","6500200","三重區"
"231046","278-BY","2017/08/10 16:49:46","新北市新店區灣潭路15-12號","121.541863333333","24.9422233333333","6500600","新店區"
"241031","355-BY","2017/08/10 15:21:46","新北市新店區安華路28-1號","121.519005","24.960955","6500200","三重區"
"241031","515-UM","2017/08/10 13:17:53","新北市新店區安華路28-1號","121.519566666667","24.9612016666667","6500200","三重區"
"241011","013-R5","2017/08/10 16:49:54","新北市三重區仁愛街53巷137號","121.499481666667","25.07264","6500200","三重區"
"241028","022-UY","2017/08/10 16:49:45","新北市三重區光興街95號","121.497273333333","25.0599283333333","6500200","三重區"
"241008","059-VK","2017/08/10 16:49:53","新北市三重區永福街179巷25號","121.478031666667","25.07491","6500200","三重區"
"241009","060-VK","2017/08/10 16:49:46","新北市三重區三和路四段203巷217號","121.486728333333","25.0806816666667","6500200","三重區"
"241031","061-VK","2017/08/10 16:49:37","新北市三重區過圳街42-17號","121.48749","25.0607366666667","6500200","三重區"
"241015","062-VK","2017/08/10 16:49:40","新北市三重區文化北路43巷16號","121.499378333333","25.0656016666667","6500200","三重區"
"241017","063-VK","2017/08/10 16:49:41","新北市三重區國隆路6號","121.493453333333","25.06365","6500200","三重區"
"241024","065-VK","2017/08/10 16:49:54","新北市三重區中正北路317巷32號","121.475985","25.0731733333333","6500200","三重區"
"241002","090-VK","2017/08/10 16:49:43","新北市三重區仁義街205號","121.496826666667","25.0815333333333","6500200","三重區"
"241003","091-VK","2017/08/10 16:49:42","新北市三重區五華街87巷13號","121.492625","25.0836583333333","6500200","三重區"
"241006","156-TC","2017/08/10 16:49:50","新北市三重區力行路二段141號","121.483446666667","25.07717","6500200","三重區"
"241005","262-UM","2017/08/10 16:49:50","新北市三重區仁華街80巷11號","121.48466","25.0834133333333","6500200","三重區"
"241025","265-UM","2017/08/10 16:49:55","新北市三重區中正北路530巷7號","121.471993333333","25.0710933333333","6500200","三重區"
"241016","266-UM","2017/08/10 16:49:48","新北市三重區大同北路115巷4號","121.494098333333","25.06444","6500200","三重區"
"241022","267-UM","2017/08/10 16:49:41","新北市三重區中華路111巷20號","121.48436","25.06348","6500200","三重區"
"241018","268-UM","2017/08/10 16:49:44","新北市三重區安樂街76號","121.494963333333","25.0693666666667","6500200","三重區"
"241032","269-UM","2017/08/10 16:49:49","新北市三重區重陽路一段120巷30號","121.485405","25.0600416666667","6500200","三重區"
"241013","270-UM","2017/08/10 16:49:46","新北市三重區三和路三段101巷100號","121.497343333333","25.0733466666667","6500200","三重區"
"241026","271-UM","2017/08/10 16:49:53","新北市三重區文化南路10巷28號","121.500968333333","25.0623","6500200","三重區"
"241007","398-BY","2017/08/10 16:49:43","新北市三重區三和路四段181巷64號","121.484018333333","25.07951","6500200","三重區"
"241020","412-TH","2017/08/10 16:49:52","新北市三重區後竹圍街177號","121.485938333333","25.0719233333333","6500200","三重區"
"241004","475-VK","2017/08/10 16:49:47","新北市三重區仁愛街423-1號","121.490331666667","25.0814666666667","6500200","三重區"
"241019","478-VK","2017/08/10 16:49:45","新北市三重區力行路一段179巷22號","121.485231666667","25.0699933333333","6500200","三重區"
"241030","480-VK","2017/08/10 16:49:47","新北市三重區中正南路267號","121.492828333333","25.0526916666667","6500200","三重區"
"241014","543-UM","2017/08/10 16:49:41","新北市三重區長榮路75號","121.502595","25.0690433333333","6500200","三重區"
"241023","545-UM","2017/08/10 16:49:45","新北市三重區中華路76巷27號","121.482505","25.0626733333333","6500200","三重區"
"241001","547-UM","2017/08/10 16:49:46","新北市三重區仁政街72號","121.492568333333","25.0772416666667","6500200","三重區"
"241029","887-TS","2017/08/10 16:49:44","新北市三重區集美街175號","121.491393333333","25.0541033333333","6500200","三重區"
"241012","941-UM","2017/08/10 16:49:37","新北市三重區仁興街11巷40號","121.500765","25.07443","6500200","三重區"
"241033","AAC-255","2017/08/10 16:49:48","新北市三重區新北大道二段139巷13號","121.466471666667","25.0606533333333","6500200","三重區"
"241031","467-BY","2017/08/10 14:53:25","新北市中和區員山路36巷16-3號","121.484661666667","24.9915366666667","6500200","三重區"
"235024","647-TV","2017/08/10 15:16:16","新北市中和區員山路36巷16-3號","121.484845","24.9916733333333","6500300","中和區"
"235026","800-TS","2017/08/10 16:49:37","新北市中和區中正路571巷2弄11號","121.486108333333","24.993705","6500300","中和區"
"241031","157-BY","2017/08/10 12:11:08","新北市中和區員山路36巷13號","121.484098333333","24.99105","6500200","三重區"
"220013","072-UY","2017/08/10 16:47:29","新北市板橋區民生路二段15-1號","121.472738333333","25.01646","6500100","板橋區"
"247006","341-TH","2017/08/10 16:49:44","新北市蘆洲區長安街49巷8弄1號","121.462341666667","25.0786116666667","6501400","蘆洲區"
"247008","339-TH","2017/08/10 16:49:40","新北市蘆洲區中山一路176號","121.474165","25.0812433333333","6501400","蘆洲區"
"247002","336-TH","2017/08/10 16:49:54","新北市五股區凌雲路一段32號","121.452035","25.1007","6501400","蘆洲區"
"241031","335-TH","2017/08/10 16:49:48","新北市五股區中興路三段163號","121.449113333333","25.0809333333333","6500200","三重區"
"247014","057-VK","2017/08/10 16:49:52","新北市蘆洲區三民路91號","121.474138333333","25.08465","6501400","蘆洲區"
"247004","056-VK","2017/08/10 16:49:48","新北市蘆洲區長榮路98號","121.461866666667","25.0839116666667","6501400","蘆洲區"
"241031","053-VK","2017/08/10 16:49:53","新北市五股區中興路三段163號","121.449283333333","25.0808266666667","6500200","三重區"
"247016","001-UY","2017/08/10 16:49:52","新北市蘆洲區中正路57號","121.470513333333","25.0828033333333","6501400","蘆洲區"
"241031","092-VK","2017/08/10 14:22:24","新北市中和區員山路36巷2-1號","121.482741666667","24.9905783333333","6500200","三重區"
"228003","097-TW","2017/08/10 16:49:46","新北市貢寮區貢寮里朝陽街1-2號","121.912373333333","25.0212733333333","6502600","貢寮區"
"228001","212-TW","2017/08/10 16:49:50","新北市貢寮區貢寮里朝陽街1-2號","121.912305","25.0212466666667","6502600","貢寮區"
"228002","585-TW","2017/08/10 16:49:54","新北市貢寮區貢寮里朝陽街142號","121.905153333333","25.0234333333333","6502600","貢寮區"
"224006","676-BX","2017/08/10 16:49:58","新北市瑞芳區大寮路356-1號","121.784808333333","25.1032216666667","6501200","瑞芳區"
"224008","275-VK","2017/08/10 16:49:53","新北市瑞芳區民權街3-1號","121.809365","25.10836","6501200","瑞芳區"
"224007","273-VK","2017/08/10 16:49:49","新北市瑞芳區中央路48巷174號","121.759105","25.1032416666667","6501200","瑞芳區"
"224005","271-BY","2017/08/10 16:49:42","新北市瑞芳區洞頂路157號","121.861318333333","25.122705","6501200","瑞芳區"
"227004","642-TC","2017/08/10 16:49:52","新北市雙溪區外柑里外柑腳71號","121.807105","25.017605","6502500","雙溪區"
"227010","400-TW","2017/08/10 16:49:37","新北市雙溪區牡丹里五分10號","121.86659","25.0471","6502500","雙溪區"
"241031","011-UM","2017/08/10 10:18:28","新北市淡水區中正路二段31號","121.41928","25.181835","6500200","三重區"
"251007","179-VK","2017/08/10 16:49:46","新北市淡水區中正路二段31號","121.4193","25.181665","6501000","淡水區"
"251008","181-VK","2017/08/10 16:49:47","新北市淡水區樹梅坑9號","121.472723333333","25.1426716666667","6501000","淡水區"
"251014","182-VK","2017/08/10 16:49:52","新北市淡水區興仁路160號","121.451596666667","25.2203816666667","6501000","淡水區"
"251010","413-VK","2017/08/10 16:49:58","新北市淡水區中正路二段31號","121.419451666667","25.1815966666667","6501000","淡水區"
"251012","441-VK","2017/08/10 16:49:45","新北市淡水區中正路二段31號","121.419656666667","25.181465","6501000","淡水區"
"251016","442-VK","2017/08/10 16:49:41","新北市淡水區水頭42號","121.478123333333","25.1850983333333","6501000","淡水區"
"252002","178-VK","2017/08/10 16:49:52","新北市三芝區埔坪里埔頭坑79號","121.509506666667","25.2544833333333","6502100","三芝區"
"252001","702-TV","2017/08/10 16:49:54","新北市三芝區淡金路二段103號","121.504391666667","25.26136","6502100","三芝區"
"241031","361-BY","2017/08/10 15:19:40","新北市三峽區中山路459巷137號","121.349346666667","24.9335683333333","6500200","三重區"
"237009","210-TH","2017/08/10 15:32:11","新北市三峽區中山路459巷137號","121.34987","24.9338866666667","6500900","三峽區"
"241031","275-BY","2017/08/10 16:49:47","新北市三峽區中山路459巷137號","121.349961666667","24.9339466666667","6500200","三重區"
"241031","159-BY","2017/08/10 14:02:13","新北市三峽區中山路459巷163-3號","121.348958333333","24.9331083333333","6500200","三重區"
"241031","5529-G3","2017/08/10 16:49:36","新北市三峽區中山路459巷137號","121.350025","24.9340283333333","6500200","三重區"
"241031","682-BX","2017/08/10 09:27:33","新北市三峽區中山路459巷163-3號","121.34871","24.933165","6500200","三重區"
"241031","756-BX","2017/08/10 10:11:06","新北市三峽區中山路459巷163-3號","121.348881666667","24.933085","6500200","三重區"
"241031","760-BX","2017/08/10 10:03:12","新北市三峽區中山路459巷163-3號","121.348863333333","24.9330466666667","6500200","三重區"
"241031","138-TH","2017/08/10 15:54:30","新北市土城區永寧路36-1號","121.42807","24.9591616666667","6500200","三重區"
"241031","370-SL","2017/08/10 14:40:22","新北市土城區永平街72號","121.427048333333","24.9591933333333","6500200","三重區"
"241031","371-SL","2017/08/10 14:58:02","新北市土城區永平街51號","121.427578333333","24.9591666666667","6500200","三重區"
"242027","612-BX","2017/08/10 16:49:48","新北市新莊區新泰路357巷3弄57號","121.441978333333","25.0389983333333","6500500","新莊區"
"242042","497-BY","2017/08/10 16:49:39","新北市新莊區新泰路357巷3弄57號","121.442366666667","25.03935","6500500","新莊區"
"242046","441-UM","2017/08/10 16:49:43","新北市新莊區三和路12-21號","121.442058333333","25.0384833333333","6500500","新莊區"
"242031","415-TV","2017/08/10 16:49:55","新北市新莊區新泰路357巷3弄57號","121.442003333333","25.0393383333333","6500500","新莊區"
"242044","172-VK","2017/08/10 10:58:30","新北市新莊區三和路12-21號","121.442183333333","25.0386166666667","6500500","新莊區"
"241031","233-RS","2017/08/10 14:47:38","新北市新莊區環河路48-7號","121.436941666667","25.0097966666667","6500200","三重區"
"242011","346-TH","2017/08/10 15:57:52","新北市新莊區新泰路502巷30號","121.443345","25.0465216666667","6500500","新莊區"
"242017","348-TH","2017/08/10 16:49:38","新北市新莊區新泰路357巷3弄57號","121.44201","25.03964","6500500","新莊區"
"242009","351-TH","2017/08/10 16:49:41","新北市新莊區新泰路357巷3弄57號","121.442115","25.039425","6500500","新莊區"
"238010","601-UM","2017/08/10 16:49:49","新北市樹林區中山路三段206-2號","121.38294","24.9663966666667","6500700","樹林區"
"241031","308-TH","2017/08/10 13:29:37","新北市樹林區育德街76巷1號","121.388788333333","24.9683166666667","6500200","三重區"
"238025","303-VK","2017/08/10 16:49:45","新北市樹林區中正路22-1號","121.427881666667","24.9994333333333","6500700","樹林區"
"238004","283-BY","2017/08/10 16:49:56","新北市樹林區光武街7-3號","121.415768333333","25.0054066666667","6500700","樹林區"
"238001","282-BY","2017/08/10 16:49:48","新北市樹林區中正路22-1號","121.427718333333","24.9995933333333","6500700","樹林區"
"239007","AAC-297","2017/08/10 16:49:51","新北市鶯歌區二甲路13-16號","121.345038333333","24.9351866666667","6500800","鶯歌區"
"241031","661-UM","2017/08/10 15:41:49","新北市鶯歌區二甲路12-2號","121.34563","24.934695","6500200","三重區"
"239008","527-UM","2017/08/10 11:46:46","新北市鶯歌區環河路177-23號","121.34498","24.9355833333333","6500800","鶯歌區"
"239001","417-VK","2017/08/10 16:49:37","新北市鶯歌區二甲路12-2號","121.345541666667","24.9351466666667","6500800","鶯歌區"
"239003","360-BY","2017/08/10 16:49:41","新北市鶯歌區二甲路12-2號","121.345508333333","24.9351266666667","6500800","鶯歌區"
"239002","359-BY","2017/08/08 20:24:45","新北市鶯歌區二甲路12-2號","121.345503333333","24.9349766666667","6500800","鶯歌區"
"241031","276-VK","2017/08/10 13:21:16","新北市汐止區汐萬路一段256巷3號","121.653435","25.074645","6500200","三重區"
"241031","277-VK","2017/08/10 15:32:15","新北市汐止區汐萬路一段256巷3號","121.65252","25.07464","6500200","三重區"
"221021","299-VK","2017/08/10 14:59:33","新北市汐止區汐萬路一段170號","121.653075","25.07183","6501100","汐止區"
"241031","488-VK","2017/08/10 11:01:54","新北市汐止區汐萬路一段256巷3號","121.652666666667","25.07449","6500200","三重區"
"241031","567-BX","2017/08/10 12:14:12","新北市汐止區汐萬路一段150號","121.652891666667","25.0712316666667","6500200","三重區"
"241031","647-BX","2017/08/10 14:41:52","新北市汐止區康寧街901號","121.651591666667","25.0749983333333","6500200","三重區"
"241031","255-TC","2017/08/08 21:38:12","新北市板橋區民生路二段89-9號","121.47152","25.016955","6500200","三重區"
"241031","258-TC","2017/08/10 11:14:08","新北市板橋區金門街369巷95號","121.430118333333","24.980865","6500200","三重區"
"241031","280-UM","2017/08/10 14:44:56","新北市板橋區民生路二段22號","121.472855","25.01666","6500200","三重區"
"241031","281-UM","2017/08/10 14:23:43","新北市板橋區大觀路二段435-10號","121.446045","24.9943416666667","6500200","三重區"
"241031","281-VK","2017/08/10 16:28:27","新北市新莊區環河路636-7號","121.437358333333","25.0112233333333","6500200","三重區"
"241031","317-R6","2017/08/10 14:05:10","新北市板橋區民生路二段161巷3號","121.470131666667","25.0197433333333","6500200","三重區"
"241031","280-VK","2017/08/10 16:21:14","新北市新莊區環河路636-7號","121.437401666667","25.0112466666667","6500200","三重區"
"241031","755-RS","2017/08/10 11:00:36","新北市板橋區大觀路二段435-10號","121.445131666667","24.99451","6500200","三重區"
"241031","806-UM","2017/08/10 16:45:26","新北市板橋區華東街1-10號","121.448655","24.99489","6500200","三重區"
"241031","831-TW","2017/08/10 01:15:46","新北市板橋區民生路二段120號","121.470951666667","25.0199766666667","6500200","三重區"
"220018","AAC-253","2017/08/10 16:49:49","新北市三重區光復路二段87巷63號","121.475488333333","25.0584766666667","6500100","板橋區"
