"lineid","car","time","location","longitude","latitude","cityid","cityname"
"241031","209-UY","2017/08/10 16:26:10","新北市永和區保順路33號","121.503793333333","25.0106366666667","6500200","三重區"
"241031","395-TH","2017/08/10 16:57:43","新北市永和區保生路55-8號","121.504021666667","25.0103966666667","6500200","三重區"
"241031","693-BX","2017/08/10 10:30:33","新北市永和區福和路1號","121.526703333333","25.0100116666667","6500200","三重區"
"241031","695-BX","2017/08/10 16:59:45","新北市永和區福和路1號","121.525391666667","25.0092733333333","6500200","三重區"
"241031","838-RS","2017/08/10 14:36:42","新北市永和區保順路27號","121.503825","25.01044","6500200","三重區"
"241031","840-RS","2017/08/10 16:40:38","新北市永和區保生路55-8號","121.504091666667","25.01034","6500200","三重區"
"241031","841-RS","2017/08/10 16:53:15","新北市永和區保生路55-8號","121.504106666667","25.01037","6500200","三重區"
"241031","845-RS","2017/08/10 15:58:27","新北市永和區保順路27號","121.503881666667","25.0103166666667","6500200","三重區"
"249005","172-UM","2017/08/10 16:59:50","新北市八里區渡船頭5號","121.431211666667","25.1543166666667","6502300","八里區"
"249001","173-UM","2017/08/10 16:59:51","新北市八里區中山路三段106號","121.392515","25.1432533333333","6502300","八里區"
"249004","303-UY","2017/08/10 16:59:44","新北市八里區挖子尾街58號","121.415475","25.166285","6502300","八里區"
"249002","305-UY","2017/08/10 16:57:23","新北市八里區牛寮埔25號","121.432453333333","25.142985","6502300","八里區"
"249003","593-UM","2017/08/10 16:59:43","新北市八里區中山路二段301號","121.401053333333","25.1481016666667","6502300","八里區"
"241031","069-UM","2017/08/10 16:59:56","新北市林口區粉寮69號","121.405031666667","25.0908466666667","6500200","三重區"
"244007","080-UY","2017/08/10 16:59:54","新北市林口區中華路96號","121.384755","25.0904583333333","6501700","林口區"
"241031","402-UM","2017/08/10 15:24:07","新北市林口區粉寮69號","121.405083333333","25.0910016666667","6500200","三重區"
"244019","403-UM","2017/08/10 16:59:53","新北市林口區粉寮路37-1號","121.40106","25.0848816666667","6501700","林口區"
"244009","410-SL","2017/08/10 16:59:45","新北市林口區粉寮69號","121.405036666667","25.0908283333333","6501700","林口區"
"244023","483-VK","2017/08/10 16:59:49","新北市林口區粉寮69號","121.405043333333","25.090725","6501700","林口區"
"241031","656-BX","2017/08/10 16:42:27","新北市林口區粉寮路二段160巷30號","121.405605","25.0910016666667","6500200","三重區"
"241031","658-BX","2017/08/10 16:32:35","新北市林口區粉寮69號","121.404986666667","25.0909483333333","6500200","三重區"
"244025","837-TS","2017/08/10 16:59:15","新北市林口區粉寮路二段160巷28號","121.405135","25.09076","6501700","林口區"
"243009","297-R6","2017/08/10 16:04:46","新北市泰山區黎明路25號","121.422016666667","25.0610283333333","6501600","泰山區"
"243002","548-UM","2017/08/10 15:29:53","新北市泰山區黎明路25號","121.422228333333","25.0607366666667","6501600","泰山區"
"243016","680-BX","2017/08/10 15:58:25","新北市泰山區黎明路25號","121.421941666667","25.06059","6501600","泰山區"
"241031","188-VK","2017/08/10 02:22:50","新北市新店區安華路28-1號","121.51996","24.96133","6500200","三重區"
"241031","189-VK","2017/08/08 03:24:53","新北市新店區安華路28-1號","121.519805","24.9611233333333","6500200","三重區"
"231046","278-BY","2017/08/10 16:59:46","新北市新店區灣潭路15-2號","121.542603333333","24.943045","6500600","新店區"
"241031","355-BY","2017/08/10 15:21:46","新北市新店區安華路28-1號","121.519005","24.960955","6500200","三重區"
"241031","515-UM","2017/08/10 13:17:53","新北市新店區安華路28-1號","121.519566666667","24.9612016666667","6500200","三重區"
"241011","013-R5","2017/08/10 16:59:54","新北市三重區仁愛街55巷152號","121.499495","25.07305","6500200","三重區"
"241028","022-UY","2017/08/10 16:59:45","新北市三重區中正南路32號","121.493645","25.0601416666667","6500200","三重區"
"241008","059-VK","2017/08/10 16:59:53","新北市三重區永福街179巷38號","121.477665","25.07469","6500200","三重區"
"241009","060-VK","2017/08/10 16:59:46","新北市三重區仁美街107號","121.485785","25.080855","6500200","三重區"
"241031","061-VK","2017/08/10 16:59:57","新北市三重區三寧街16號","121.489115","25.059695","6500200","三重區"
"241015","062-VK","2017/08/10 16:59:40","新北市三重區福德北路82號","121.50167","25.0663666666667","6500200","三重區"
"241017","063-VK","2017/08/10 16:59:41","新北市三重區國隆路14號","121.492953333333","25.0638033333333","6500200","三重區"
"241024","065-VK","2017/08/10 16:59:54","新北市三重區國道路一段58巷20號","121.481113333333","25.0721316666667","6500200","三重區"
"241002","090-VK","2017/08/10 16:59:43","新北市三重區仁義街126號","121.497583333333","25.0802533333333","6500200","三重區"
"241003","091-VK","2017/08/10 16:59:42","新北市三重區碧華街317號","121.491125","25.0842233333333","6500200","三重區"
"241006","156-TC","2017/08/10 16:59:50","新北市三重區車路頭街117巷55號","121.485533333333","25.0755883333333","6500200","三重區"
"241005","262-UM","2017/08/10 16:59:50","新北市三重區仁華街82號","121.485255","25.0831966666667","6500200","三重區"
"241025","265-UM","2017/08/10 16:59:55","新北市三重區中正北路361-2號","121.472483333333","25.0717916666667","6500200","三重區"
"241016","266-UM","2017/08/10 16:59:48","新北市三重區大智街12號","121.495335","25.0644516666667","6500200","三重區"
"241022","267-UM","2017/08/10 16:59:46","新北市三重區中華路132號","121.48358","25.064075","6500200","三重區"
"241018","268-UM","2017/08/10 16:59:44","新北市三重區六張街126巷2弄9號","121.492405","25.0693266666667","6500200","三重區"
"241032","269-UM","2017/08/10 16:59:49","新北市三重區三民街7號","121.485763333333","25.0606833333333","6500200","三重區"
"241013","270-UM","2017/08/10 16:59:46","新北市三重區仁愛街83號","121.495811666667","25.0732733333333","6500200","三重區"
"241026","271-UM","2017/08/10 16:59:53","新北市三重區文化南路42號","121.50032","25.06017","6500200","三重區"
"241007","398-BY","2017/08/10 16:59:43","新北市三重區溪尾街160號","121.488865","25.0801716666667","6500200","三重區"
"241020","412-TH","2017/08/10 16:59:52","新北市三重區自強路三段45號","121.486985","25.07276","6500200","三重區"
"241004","475-VK","2017/08/10 16:59:45","新北市三重區五華街98巷8號","121.491921666667","25.0818766666667","6500200","三重區"
"241019","478-VK","2017/08/10 16:59:45","新北市三重區三張街104號","121.487923333333","25.0698983333333","6500200","三重區"
"241030","480-VK","2017/08/10 16:59:47","新北市三重區昌隆街50號","121.491433333333","25.05156","6500200","三重區"
"241014","543-UM","2017/08/10 16:59:41","新北市三重區三和路二段173巷139號","121.500996666667","25.0705816666667","6500200","三重區"
"241023","545-UM","2017/08/10 16:59:45","新北市三重區新北大道一段252號","121.4798","25.06167","6500200","三重區"
"241001","547-UM","2017/08/10 16:59:46","新北市三重區仁愛街180號","121.49413","25.07692","6500200","三重區"
"241029","887-TS","2017/08/10 16:59:44","新北市三重區集美街175號","121.49136","25.0540466666667","6500200","三重區"
"241012","941-UM","2017/08/10 16:59:57","新北市三重區仁壽街200號","121.500883333333","25.0749566666667","6500200","三重區"
"241033","AAC-255","2017/08/10 16:59:48","新北市三重區中興北街275號","121.469085","25.06075","6500200","三重區"
"241031","467-BY","2017/08/10 14:53:25","新北市中和區員山路36巷16-3號","121.484661666667","24.9915366666667","6500200","三重區"
"235024","647-TV","2017/08/10 15:16:16","新北市中和區員山路36巷16-3號","121.484845","24.9916733333333","6500300","中和區"
"235062","800-TS","2017/08/10 16:59:04","新北市中和區員山路36巷16-3號","121.485125","24.99136","6500300","中和區"
"241031","157-BY","2017/08/10 12:11:08","新北市中和區員山路36巷13號","121.484098333333","24.99105","6500200","三重區"
"220013","072-UY","2017/08/10 16:47:29","新北市板橋區民生路二段15-1號","121.472738333333","25.01646","6500100","板橋區"
"247020","893-R6","2017/08/10 16:59:53","新北市蘆洲區民族路422巷82弄12號","121.474075","25.09386","6501400","蘆洲區"
"247018","500-BY","2017/08/10 16:59:41","新北市蘆洲區民族路201巷32號","121.476788333333","25.0885966666667","6501400","蘆洲區"
"247006","341-TH","2017/08/10 16:59:44","新北市蘆洲區永安南路二段238號","121.460456666667","25.0797766666667","6501400","蘆洲區"
"247008","339-TH","2017/08/10 16:59:40","新北市蘆洲區中山一路197巷28號","121.475003333333","25.0798266666667","6501400","蘆洲區"
"247024","337-TH","2017/08/10 16:59:47","新北市蘆洲區長興路202號","121.46053","25.0874883333333","6501400","蘆洲區"
"247002","336-TH","2017/08/10 16:59:54","新北市蘆洲區長榮路309-1號","121.459461666667","25.0898216666667","6501400","蘆洲區"
"241031","335-TH","2017/08/10 16:59:48","新北市五股區中興路三段163號","121.44914","25.080885","6500200","三重區"
"247014","057-VK","2017/08/10 16:59:52","新北市蘆洲區中山二路36巷5號","121.474306666667","25.0825483333333","6501400","蘆洲區"
"247004","056-VK","2017/08/10 16:59:39","新北市蘆洲區長安街193巷41號","121.459196666667","25.08105","6501400","蘆洲區"
"241031","053-VK","2017/08/10 16:59:53","新北市五股區中興路三段163號","121.449271666667","25.0808116666667","6500200","三重區"
"247012","007-UY","2017/08/10 16:59:38","新北市蘆洲區信義路296號","121.477625","25.0875033333333","6501400","蘆洲區"
"247016","001-UY","2017/08/10 16:59:52","新北市蘆洲區光華路69號","121.468155","25.082605","6501400","蘆洲區"
"241031","092-VK","2017/08/10 14:22:24","新北市中和區員山路36巷2-1號","121.482741666667","24.9905783333333","6500200","三重區"
"228003","097-TW","2017/08/10 16:59:46","新北市貢寮區福隆里興隆街36號","121.94228","25.016665","6502600","貢寮區"
"228001","212-TW","2017/08/10 16:59:50","新北市貢寮區貢寮里朝陽街1-2號","121.912478333333","25.0212616666667","6502600","貢寮區"
"228002","585-TW","2017/08/10 16:59:54","新北市貢寮區貢寮里朝陽街1號","121.909921666667","25.0211866666667","6502600","貢寮區"
"224010","AGQ-8101","2017/08/10 09:51:40","新北市瑞芳區民權街3-1號","121.809125","25.10793","6501200","瑞芳區"
"224006","676-BX","2017/08/10 16:59:38","新北市瑞芳區大寮路356-1號","121.784788333333","25.103205","6501200","瑞芳區"
"224008","275-VK","2017/08/10 16:59:53","新北市瑞芳區九芎橋路198號","121.83415","25.1002066666667","6501200","瑞芳區"
"224007","273-VK","2017/08/10 16:59:49","新北市瑞芳區瑞竹路44號","121.763633333333","25.103355","6501200","瑞芳區"
"224005","271-BY","2017/08/10 16:59:42","新北市瑞芳區明里路54號","121.869101666667","25.1225266666667","6501200","瑞芳區"
"227004","642-TC","2017/08/10 16:59:52","新北市雙溪區長源里柑腳41-1號","121.803128333333","25.0130566666667","6502500","雙溪區"
"227010","400-TW","2017/08/10 16:59:37","新北市雙溪區牡丹里中正路103號","121.86172","25.04807","6502500","雙溪區"
"251004","009-UM","2017/08/10 16:59:51","新北市淡水區中正路二段31號","121.419363333333","25.181695","6501000","淡水區"
"241031","011-UM","2017/08/10 10:18:28","新北市淡水區中正路二段31號","121.41928","25.181835","6500200","三重區"
"251007","179-VK","2017/08/10 16:59:46","新北市淡水區真理街1號","121.438215","25.17298","6501000","淡水區"
"251008","181-VK","2017/08/10 16:59:47","新北市淡水區樹梅坑9號","121.4727","25.1426766666667","6501000","淡水區"
"251014","182-VK","2017/08/10 16:59:52","新北市淡水區淡金路四段472巷24號","121.452968333333","25.2239316666667","6501000","淡水區"
"251010","413-VK","2017/08/10 16:59:38","新北市淡水區沙崙路二段112號","121.433371666667","25.19871","6501000","淡水區"
"251012","441-VK","2017/08/10 16:59:45","新北市淡水區中正路二段31號","121.419703333333","25.1814883333333","6501000","淡水區"
"251016","442-VK","2017/08/10 16:59:41","新北市淡水區瓦坑3號","121.477578333333","25.180785","6501000","淡水區"
"251005","443-VK","2017/08/10 16:59:40","新北市淡水區中正路一段122號","121.422971666667","25.17845","6501000","淡水區"
"251006","561-UM","2017/08/10 16:59:39","新北市淡水區中正路二段31號","121.419571666667","25.181615","6501000","淡水區"
"251011","650-BX","2017/08/10 16:59:48","新北市淡水區馬偕街28-9號","121.437356666667","25.1730466666667","6501000","淡水區"
"252002","178-VK","2017/08/10 16:59:52","新北市三芝區忠孝街175號","121.50535","25.2614266666667","6502100","三芝區"
"252001","702-TV","2017/08/10 16:59:54","新北市三芝區淡金路二段20號","121.502686666667","25.2595866666667","6502100","三芝區"
"241031","361-BY","2017/08/10 15:19:40","新北市三峽區中山路459巷137號","121.349346666667","24.9335683333333","6500200","三重區"
"237009","210-TH","2017/08/10 16:58:50","新北市三峽區中山路459巷137號","121.349813333333","24.9339016666667","6500900","三峽區"
"241031","275-BY","2017/08/10 16:59:47","新北市三峽區中山路459巷137號","121.349963333333","24.9339483333333","6500200","三重區"
"241031","159-BY","2017/08/10 14:02:13","新北市三峽區中山路459巷163-3號","121.348958333333","24.9331083333333","6500200","三重區"
"241031","5529-G3","2017/08/10 16:59:56","新北市三峽區中山路459巷163-3號","121.348703333333","24.9329983333333","6500200","三重區"
"241031","682-BX","2017/08/10 09:27:33","新北市三峽區中山路459巷163-3號","121.34871","24.933165","6500200","三重區"
"241031","756-BX","2017/08/10 10:11:06","新北市三峽區中山路459巷163-3號","121.348881666667","24.933085","6500200","三重區"
"241031","760-BX","2017/08/10 10:03:12","新北市三峽區中山路459巷163-3號","121.348863333333","24.9330466666667","6500200","三重區"
"241031","138-TH","2017/08/10 15:54:30","新北市土城區永寧路36-1號","121.42807","24.9591616666667","6500200","三重區"
"241031","370-SL","2017/08/10 14:40:22","新北市土城區永平街72號","121.427048333333","24.9591933333333","6500200","三重區"
"241031","371-SL","2017/08/10 14:58:02","新北市土城區永平街51號","121.427578333333","24.9591666666667","6500200","三重區"
"242048","751-BX","2017/08/10 16:59:49","新北市新莊區新泰路357巷3弄57號","121.441913333333","25.0391216666667","6500500","新莊區"
"242023","613-BX","2017/08/10 16:59:50","新北市新莊區新泰路255巷83號","121.442128333333","25.039095","6500500","新莊區"
"242027","612-BX","2017/08/10 16:59:48","新北市新莊區新泰路357巷3弄57號","121.44214","25.0391916666667","6500500","新莊區"
"242036","566-BX","2017/08/10 16:59:49","新北市新莊區新泰路357巷3弄57號","121.442045","25.039035","6500500","新莊區"
"242042","497-BY","2017/08/10 16:59:39","新北市新莊區新泰路357巷3弄57號","121.4422","25.0394116666667","6500500","新莊區"
"242046","441-UM","2017/08/10 16:59:43","新北市新莊區三和路12-21號","121.44199","25.0381833333333","6500500","新莊區"
"242031","415-TV","2017/08/10 16:59:55","新北市新莊區新泰路357巷3弄57號","121.441963333333","25.0393066666667","6500500","新莊區"
"242061","362-BY","2017/08/10 16:59:40","新北市新莊區新泰路255巷83號","121.442286666667","25.0389683333333","6500500","新莊區"
"242019","135-UY","2017/08/10 16:59:39","新北市新莊區三和路12-21號","121.44188","25.038905","6500500","新莊區"
"242044","172-VK","2017/08/10 16:59:48","新北市新莊區三和路12-21號","121.442003333333","25.0385866666667","6500500","新莊區"
"242007","173-VK","2017/08/10 10:57:32","新北市新莊區三和路12-21號","121.442095","25.038525","6500500","新莊區"
"242013","175-VK","2017/08/10 16:59:53","新北市新莊區三和路12-21號","121.441966666667","25.0386716666667","6500500","新莊區"
"242056","176-VK","2017/08/10 16:59:54","新北市新莊區三和路12-21號","121.442025","25.0385433333333","6500500","新莊區"
"241031","233-RS","2017/08/10 14:47:38","新北市新莊區環河路48-7號","121.436941666667","25.0097966666667","6500200","三重區"
"242011","346-TH","2017/08/10 15:57:52","新北市新莊區新泰路502巷30號","121.443345","25.0465216666667","6500500","新莊區"
"242034","347-TH","2017/08/10 14:25:46","新北市新莊區三和路12-17號","121.441911666667","25.0375583333333","6500500","新莊區"
"242017","348-TH","2017/08/10 16:59:59","新北市新莊區新泰路357巷3弄57號","121.44201","25.0394883333333","6500500","新莊區"
"242009","351-TH","2017/08/10 16:59:42","新北市新莊區新泰路357巷3弄57號","121.44215","25.0394533333333","6500500","新莊區"
"238023","601-UM","2017/08/10 16:59:49","新北市樹林區中山路三段107-1號","121.399865","24.9746983333333","6500700","樹林區"
"241031","308-TH","2017/08/10 13:29:37","新北市樹林區育德街76巷1號","121.388788333333","24.9683166666667","6500200","三重區"
"238025","303-VK","2017/08/10 16:59:45","新北市樹林區中正路22-1號","121.427801666667","24.9994016666667","6500700","樹林區"
"238004","283-BY","2017/08/10 16:59:56","新北市樹林區光武街7-3號","121.415783333333","25.0053716666667","6500700","樹林區"
"238001","282-BY","2017/08/10 16:59:48","新北市樹林區大慶街99號","121.427573333333","24.9996116666667","6500700","樹林區"
"239007","AAC-297","2017/08/10 16:59:51","新北市鶯歌區環河路159號","121.34657","24.9379016666667","6500800","鶯歌區"
"241031","661-UM","2017/08/10 15:41:49","新北市鶯歌區二甲路12-2號","121.34563","24.934695","6500200","三重區"
"239008","527-UM","2017/08/10 11:46:46","新北市鶯歌區環河路177-23號","121.34498","24.9355833333333","6500800","鶯歌區"
"239005","526-UM","2017/08/10 16:59:45","新北市鶯歌區環河路81號","121.349628333333","24.9424416666667","6500800","鶯歌區"
"239001","417-VK","2017/08/10 16:59:37","新北市鶯歌區二甲路12-2號","121.345613333333","24.9350916666667","6500800","鶯歌區"
"239003","360-BY","2017/08/10 16:59:41","新北市鶯歌區尖山路101巷18號","121.348463333333","24.94106","6500800","鶯歌區"
"239002","359-BY","2017/08/10 16:59:40","新北市鶯歌區尖山路101巷11號","121.348653333333","24.9423633333333","6500800","鶯歌區"
"239004","193-VK","2017/08/10 16:59:53","新北市鶯歌區二甲路11-1號","121.344818333333","24.936995","6500800","鶯歌區"
"241031","276-VK","2017/08/10 13:21:16","新北市汐止區汐萬路一段256巷3號","121.653435","25.074645","6500200","三重區"
"241031","277-VK","2017/08/10 15:32:15","新北市汐止區汐萬路一段256巷3號","121.65252","25.07464","6500200","三重區"
"221021","299-VK","2017/08/10 14:59:33","新北市汐止區汐萬路一段170號","121.653075","25.07183","6501100","汐止區"
"241031","488-VK","2017/08/10 11:01:54","新北市汐止區汐萬路一段256巷3號","121.652666666667","25.07449","6500200","三重區"
"241031","567-BX","2017/08/10 12:14:12","新北市汐止區汐萬路一段150號","121.652891666667","25.0712316666667","6500200","三重區"
"241031","647-BX","2017/08/10 14:41:52","新北市汐止區康寧街901號","121.651591666667","25.0749983333333","6500200","三重區"
"241031","255-TC","2017/08/08 21:38:12","新北市板橋區民生路二段89-9號","121.47152","25.016955","6500200","三重區"
"241031","258-TC","2017/08/10 11:14:08","新北市板橋區金門街369巷95號","121.430118333333","24.980865","6500200","三重區"
"241031","280-UM","2017/08/10 14:44:56","新北市板橋區民生路二段22號","121.472855","25.01666","6500200","三重區"
"241031","281-UM","2017/08/10 14:23:43","新北市板橋區大觀路二段435-10號","121.446045","24.9943416666667","6500200","三重區"
"241031","281-VK","2017/08/10 16:28:27","新北市新莊區環河路636-7號","121.437358333333","25.0112233333333","6500200","三重區"
"241031","317-R6","2017/08/10 14:05:10","新北市板橋區民生路二段161巷3號","121.470131666667","25.0197433333333","6500200","三重區"
"241031","280-VK","2017/08/10 16:21:14","新北市新莊區環河路636-7號","121.437401666667","25.0112466666667","6500200","三重區"
"241031","755-RS","2017/08/10 11:00:36","新北市板橋區大觀路二段435-10號","121.445131666667","24.99451","6500200","三重區"
"241031","806-UM","2017/08/10 16:45:26","新北市板橋區華東街1-10號","121.448655","24.99489","6500200","三重區"
"241031","831-TW","2017/08/10 01:15:46","新北市板橋區民生路二段120號","121.470951666667","25.0199766666667","6500200","三重區"
"220018","AAC-253","2017/08/10 16:59:49","新北市板橋區民生路二段36-1號","121.472231666667","25.0168083333333","6500100","板橋區"
