"lineid","car","time","location","longitude","latitude","cityid","cityname"
"241031","209-UY","2017/08/10 16:26:10","新北市永和區保順路33號","121.503793333333","25.0106366666667","6500200","三重區"
"241031","395-TH","2017/08/10 16:57:43","新北市永和區保生路55-8號","121.504021666667","25.0103966666667","6500200","三重區"
"241031","693-BX","2017/08/10 10:30:33","新北市永和區福和路1號","121.526703333333","25.0100116666667","6500200","三重區"
"241031","695-BX","2017/08/10 17:39:45","新北市永和區福和路1號","121.525396666667","25.00926","6500200","三重區"
"241031","838-RS","2017/08/10 14:36:42","新北市永和區保順路27號","121.503825","25.01044","6500200","三重區"
"241031","840-RS","2017/08/10 17:18:16","新北市永和區福和路1號","121.526316666667","25.0097566666667","6500200","三重區"
"241031","841-RS","2017/08/10 16:53:15","新北市永和區保生路55-8號","121.504106666667","25.01037","6500200","三重區"
"241031","845-RS","2017/08/10 15:58:27","新北市永和區保順路27號","121.503881666667","25.0103166666667","6500200","三重區"
"234026","9371-KE","2017/08/10 17:39:50","新北市永和區中正路736號","121.515211666667","25.0102433333333","6500400","永和區"
"249005","172-UM","2017/08/10 17:39:50","新北市八里區荖阡坑路34號","121.402703333333","25.1295766666667","6502300","八里區"
"249001","173-UM","2017/08/10 17:39:51","新北市八里區龍米路二段170號","121.434495","25.15819","6502300","八里區"
"249004","303-UY","2017/08/10 17:39:44","新北市八里區民治街32號","121.414595","25.1574616666667","6502300","八里區"
"249002","305-UY","2017/08/10 17:39:43","新北市八里區石壁腳5號","121.438435","25.1337883333333","6502300","八里區"
"249003","593-UM","2017/08/10 17:39:43","新北市八里區中山路二段221號","121.403546666667","25.1493183333333","6502300","八里區"
"232011","375-UM","2017/08/10 17:39:44","新北市坪林區水柳腳32號","121.710448333333","24.93555","6502000","坪林區"
"244013","069-UM","2017/08/10 17:39:56","新北市林口區中正路555號","121.381111666667","25.0768716666667","6501700","林口區"
"244007","080-UY","2017/08/10 17:39:54","新北市林口區中華路283號","121.383808333333","25.0908416666667","6501700","林口區"
"241031","402-UM","2017/08/10 15:24:07","新北市林口區粉寮69號","121.405083333333","25.0910016666667","6500200","三重區"
"244019","403-UM","2017/08/10 17:39:53","新北市林口區忠孝路403號","121.370113333333","25.0709983333333","6501700","林口區"
"244009","410-SL","2017/08/10 17:39:45","新北市林口區中北三街291號","121.38253","25.0831316666667","6501700","林口區"
"244023","483-VK","2017/08/10 17:39:49","新北市林口區東明一街142巷18號","121.389821666667","25.0713883333333","6501700","林口區"
"244017","485-VK","2017/08/10 17:39:55","新北市林口區仁愛路二段201-1號","121.377371666667","25.0743066666667","6501700","林口區"
"241031","656-BX","2017/08/10 16:42:27","新北市林口區粉寮路二段160巷30號","121.405605","25.0910016666667","6500200","三重區"
"241031","658-BX","2017/08/10 16:32:35","新北市林口區粉寮69號","121.404986666667","25.0909483333333","6500200","三重區"
"244011","701-TV","2017/08/10 17:39:36","新北市林口區佳林路217號","121.383783333333","25.0765666666667","6501700","林口區"
"244025","837-TS","2017/08/10 17:39:54","新北市林口區文化三路一段394巷8號","121.366191666667","25.07293","6501700","林口區"
"244021","838-TS","2017/08/10 17:39:54","新北市林口區東林街14號","121.396396666667","25.0788833333333","6501700","林口區"
"243013","AAD-798","2017/08/10 17:39:49","新北市泰山區自強路7號","121.41795","25.0616966666667","6501600","泰山區"
"243009","297-R6","2017/08/10 16:04:46","新北市泰山區黎明路25號","121.422016666667","25.0610283333333","6501600","泰山區"
"243002","548-UM","2017/08/10 15:29:53","新北市泰山區黎明路25號","121.422228333333","25.0607366666667","6501600","泰山區"
"243016","680-BX","2017/08/10 15:58:25","新北市泰山區黎明路25號","121.421941666667","25.06059","6501600","泰山區"
"241031","188-VK","2017/08/10 02:22:50","新北市新店區安華路28-1號","121.51996","24.96133","6500200","三重區"
"241031","189-VK","2017/08/08 03:24:53","新北市新店區安華路28-1號","121.519805","24.9611233333333","6500200","三重區"
"231046","278-BY","2017/08/10 17:39:46","新北市新店區直潭路92號","121.530901666667","24.937635","6500600","新店區"
"241031","355-BY","2017/08/10 15:21:46","新北市新店區安華路28-1號","121.519005","24.960955","6500200","三重區"
"241031","515-UM","2017/08/10 13:17:53","新北市新店區安華路28-1號","121.519566666667","24.9612016666667","6500200","三重區"
"241011","013-R5","2017/08/10 17:39:54","新北市三重區龍門路246號","121.500868333333","25.073755","6500200","三重區"
"241017","063-VK","2017/08/10 17:39:41","新北市三重區大同北路34巷20號","121.494725","25.062415","6500200","三重區"
"241005","262-UM","2017/08/10 17:39:50","新北市三重區碧華街133號","121.486236666667","25.0819383333333","6500200","三重區"
"241016","266-UM","2017/08/10 17:39:48","新北市三重區正義北路15-4號","121.49761","25.0631566666667","6500200","三重區"
"241013","270-UM","2017/08/10 17:39:46","新北市三重區仁愛街141巷12號","121.495876666667","25.0755516666667","6500200","三重區"
"241007","398-BY","2017/08/10 17:39:43","新北市三重區力行路二段30巷32號","121.480386666667","25.0729433333333","6500200","三重區"
"241024","462-BY","2017/08/10 17:39:45","新北市三重區力行路二段2號","121.481826666667","25.0718866666667","6500200","三重區"
"241030","480-VK","2017/08/10 17:39:47","新北市三重區中正南路269號","121.492955","25.0524033333333","6500200","三重區"
"241014","543-UM","2017/08/10 17:39:41","新北市三重區長壽街186號","121.503745","25.068955","6500200","三重區"
"241023","545-UM","2017/08/10 17:39:45","新北市三重區中華路103號","121.483543333333","25.0633033333333","6500200","三重區"
"241012","941-UM","2017/08/10 17:39:37","新北市三重區仁興街39巷32號","121.500641666667","25.0763933333333","6500200","三重區"
"241033","AAC-255","2017/08/10 17:39:48","新北市三重區光復路一段111號","121.472061666667","25.0517383333333","6500200","三重區"
"235064","005-UY","2017/08/10 17:39:40","新北市中和區員山路36巷16-3號","121.485011666667","24.991335","6500300","中和區"
"241031","467-BY","2017/08/10 14:53:25","新北市中和區員山路36巷16-3號","121.484661666667","24.9915366666667","6500200","三重區"
"235024","647-TV","2017/08/10 15:16:16","新北市中和區員山路36巷16-3號","121.484845","24.9916733333333","6500300","中和區"
"235062","800-TS","2017/08/10 17:39:52","新北市中和區員山路36巷16-3號","121.485043333333","24.9914266666667","6500300","中和區"
"241031","157-BY","2017/08/10 12:11:08","新北市中和區員山路36巷13號","121.484098333333","24.99105","6500200","三重區"
"220013","072-UY","2017/08/10 16:47:29","新北市板橋區民生路二段15-1號","121.472738333333","25.01646","6500100","板橋區"
"247020","893-R6","2017/08/10 17:39:53","新北市蘆洲區民義街71巷7號","121.472845","25.0903983333333","6501400","蘆洲區"
"247010","546-UM","2017/08/10 17:39:47","新北市蘆洲區中山一路74巷7號","121.478781666667","25.0812433333333","6501400","蘆洲區"
"247018","500-BY","2017/08/10 17:39:51","新北市蘆洲區民權路61巷6號","121.473405","25.0878733333333","6501400","蘆洲區"
"247006","341-TH","2017/08/10 17:39:44","新北市蘆洲區長安街50號","121.463268333333","25.0797733333333","6501400","蘆洲區"
"247008","339-TH","2017/08/10 17:39:40","新北市蘆洲區和平路15號","121.472643333333","25.0792416666667","6501400","蘆洲區"
"247024","337-TH","2017/08/10 17:39:47","新北市蘆洲區光榮路95號","121.462655","25.0887433333333","6501400","蘆洲區"
"247002","336-TH","2017/08/10 17:39:54","新北市蘆洲區永平街32巷11弄20號","121.45827","25.09171","6501400","蘆洲區"
"241031","335-TH","2017/08/10 17:39:48","新北市五股區中興路三段163號","121.449166666667","25.080855","6500200","三重區"
"247014","057-VK","2017/08/10 17:39:52","新北市蘆洲區中正路39號","121.470938333333","25.08224","6501400","蘆洲區"
"247004","056-VK","2017/08/10 17:39:45","新北市蘆洲區長榮路151號","121.46163","25.0837716666667","6501400","蘆洲區"
"241031","053-VK","2017/08/10 17:39:50","新北市五股區中興路三段2巷10號","121.44925","25.0809916666667","6500200","三重區"
"247012","007-UY","2017/08/10 17:39:38","新北市蘆洲區復興路60巷1弄11號","121.475118333333","25.08623","6501400","蘆洲區"
"247022","002-UY","2017/08/10 17:39:57","新北市蘆洲區三民路277號","121.467771666667","25.0898366666667","6501400","蘆洲區"
"247016","001-UY","2017/08/10 17:39:51","新北市蘆洲區中正路185巷23弄8號","121.467076666667","25.08435","6501400","蘆洲區"
"241031","092-VK","2017/08/10 17:19:15","新北市中和區員山路36巷2-1號","121.482561666667","24.990545","6500200","三重區"
"228003","097-TW","2017/08/10 17:39:46","新北市貢寮區真理里延平街11號","121.924328333333","25.0547416666667","6502600","貢寮區"
"228001","212-TW","2017/08/10 17:39:50","新北市貢寮區仁理村仁愛路95-1號","121.927663333333","25.0554533333333","6502600","貢寮區"
"228002","585-TW","2017/08/10 17:39:54","新北市貢寮區福隆里外隆林街15-2號","121.95861","25.0039283333333","6502600","貢寮區"
"224010","AGQ-8101","2017/08/10 09:51:40","新北市瑞芳區民權街3-1號","121.809125","25.10793","6501200","瑞芳區"
"224006","676-BX","2017/08/10 17:39:38","新北市瑞芳區傑魚坑路12-1號","121.79462","25.110475","6501200","瑞芳區"
"241031","285-BY","2017/08/10 17:39:47","新北市瑞芳區崙頂路3號","121.84654","25.1068283333333","6500200","三重區"
"224008","275-VK","2017/08/10 17:39:53","新北市瑞芳區明燈路一段18巷30號","121.822378333333","25.10852","6501200","瑞芳區"
"224005","271-BY","2017/08/10 17:39:42","新北市瑞芳區海濱路8-6號","121.830905","25.1257583333333","6501200","瑞芳區"
"227004","642-TC","2017/08/10 17:39:52","新北市雙溪區共和里東榮街29號","121.866183333333","25.0336016666667","6502500","雙溪區"
"208002","742-BX","2017/08/10 17:39:41","新北市金山區磺清路135號","121.639515","25.2277766666667","6502700","金山區"
"251009","008-UM","2017/08/10 17:32:41","新北市淡水區重建街1巷1號","121.439781666667","25.1733183333333","6501000","淡水區"
"251004","009-UM","2017/08/10 17:39:51","新北市淡水區中正東路二段88巷37-28號","121.45941","25.1433133333333","6501000","淡水區"
"241031","011-UM","2017/08/10 10:18:28","新北市淡水區中正路二段31號","121.41928","25.181835","6500200","三重區"
"251007","179-VK","2017/08/10 17:39:46","新北市淡水區民生路124巷23號","121.464218333333","25.1376066666667","6501000","淡水區"
"251008","181-VK","2017/08/10 17:39:47","新北市淡水區八勢路30巷19號","121.462918333333","25.1536583333333","6501000","淡水區"
"251014","182-VK","2017/08/10 17:39:52","新北市淡水區公埔子15-1號","121.479643333333","25.2265933333333","6501000","淡水區"
"251010","413-VK","2017/08/10 17:39:58","新北市淡水區淡海路276號","121.420038333333","25.1883833333333","6501000","淡水區"
"251012","441-VK","2017/08/10 17:39:45","新北市淡水區北新路200巷8號","121.451725","25.1796833333333","6501000","淡水區"
"251016","442-VK","2017/08/10 17:39:41","新北市淡水區埤島75-1號","121.453911666667","25.1946116666667","6501000","淡水區"
"251005","443-VK","2017/08/10 17:39:47","新北市淡水區鄧公路33巷3號","121.45155","25.171135","6501000","淡水區"
"251001","559-UM","2017/08/10 17:39:35","新北市淡水區民權路92巷35-1號","121.462218333333","25.12671","6501000","淡水區"
"251006","561-UM","2017/08/10 17:39:39","新北市淡水區大信街24巷2號","121.44199","25.1767366666667","6501000","淡水區"
"251011","650-BX","2017/08/10 17:39:48","新北市淡水區小坪頂13-2號","121.48685","25.15616","6501000","淡水區"
"251002","672-BX","2017/08/10 17:39:54","新北市淡水區中山路151-9號","121.440216666667","25.1724933333333","6501000","淡水區"
"251003","766-UM","2017/08/10 17:39:50","新北市淡水區中山北路一段96號","121.442446666667","25.1763866666667","6501000","淡水區"
"207003","550-UM","2017/08/10 17:39:56","新北市萬里區野柳里東澳路62-1號","121.69383","25.201965","6502800","萬里區"
"241031","225-TW","2017/08/10 17:37:29","新北市萬里區中幅里中福路27-1號","121.679973333333","25.1678333333333","6500200","三重區"
"252002","178-VK","2017/08/10 17:39:52","新北市三芝區智成街106號","121.505626666667","25.2554416666667","6502100","三芝區"
"252001","702-TV","2017/08/10 17:39:54","新北市三芝區育英街1號","121.501646666667","25.2588183333333","6502100","三芝區"
"241031","361-BY","2017/08/10 15:19:40","新北市三峽區中山路459巷137號","121.349346666667","24.9335683333333","6500200","三重區"
"237009","210-TH","2017/08/10 17:39:53","新北市三峽區中山路459巷163-3號","121.348815","24.933145","6500900","三峽區"
"237013","252-BX","2017/08/10 17:39:52","新北市三峽區中華路8-1號","121.375056666667","24.9329416666667","6500900","三峽區"
"241031","275-BY","2017/08/10 17:39:46","新北市三峽區中山路459巷137號","121.349976666667","24.9339316666667","6500200","三重區"
"237008","302-VK","2017/08/10 17:39:53","新北市三峽區中山路333-5號","121.359618333333","24.93758","6500900","三峽區"
"241031","159-BY","2017/08/10 14:02:13","新北市三峽區中山路459巷163-3號","121.348958333333","24.9331083333333","6500200","三重區"
"241031","5529-G3","2017/08/10 17:39:36","新北市三峽區介壽路一段316-2號","121.380831666667","24.9302366666667","6500200","三重區"
"237011","572-TV","2017/08/10 17:39:34","新北市三峽區文化路266-13號","121.366055","24.93558","6500900","三峽區"
"237016","649-BX","2017/08/10 17:39:41","新北市三峽區白雞141號","121.3992","24.90527","6500900","三峽區"
"241031","682-BX","2017/08/10 09:27:33","新北市三峽區中山路459巷163-3號","121.34871","24.933165","6500200","三重區"
"237010","706-TV","2017/08/10 17:39:38","新北市三峽區中山路188號","121.363813333333","24.9368516666667","6500900","三峽區"
"241031","756-BX","2017/08/10 10:11:06","新北市三峽區中山路459巷163-3號","121.348881666667","24.933085","6500200","三重區"
"241031","760-BX","2017/08/10 10:03:12","新北市三峽區中山路459巷163-3號","121.348863333333","24.9330466666667","6500200","三重區"
"236042","107-UM","2017/08/10 17:39:39","新北市土城區城林路6巷80號","121.438563333333","24.9796816666667","6501300","土城區"
"241031","138-TH","2017/08/10 15:54:30","新北市土城區永寧路36-1號","121.42807","24.9591616666667","6500200","三重區"
"236014","270-VK","2017/08/10 17:39:37","新北市土城區城林路6巷80號","121.4386","24.979725","6501300","土城區"
"236037","271-VK","2017/08/10 17:39:54","新北市土城區城林路6巷80號","121.438426666667","24.9797316666667","6501300","土城區"
"241031","370-SL","2017/08/10 14:40:22","新北市土城區永平街72號","121.427048333333","24.9591933333333","6500200","三重區"
"241031","371-SL","2017/08/10 14:58:02","新北市土城區永平街51號","121.427578333333","24.9591666666667","6500200","三重區"
"242021","AAC-296","2017/08/10 17:39:45","新北市新莊區中華路一段72號","121.452058333333","25.0389483333333","6500500","新莊區"
"242029","986-R7","2017/08/10 17:39:56","新北市新莊區復興路2段141-1號","121.457511666667","25.0444266666667","6500500","新莊區"
"242048","751-BX","2017/08/10 17:39:49","新北市新莊區萬安街149巷2號","121.420463333333","25.0215833333333","6500500","新莊區"
"242025","615-BX","2017/08/10 17:39:57","新北市新莊區思源路114號","121.460138333333","25.046665","6500500","新莊區"
"242023","613-BX","2017/08/10 17:39:50","新北市新莊區公園路129-10號","121.457445","25.0409133333333","6500500","新莊區"
"242027","612-BX","2017/08/10 17:39:51","新北市新莊區福壽街114號","121.458043333333","25.050705","6500500","新莊區"
"242036","566-BX","2017/08/10 17:39:49","新北市新莊區建福路59巷43號","121.428508333333","25.0278083333333","6500500","新莊區"
"242042","497-BY","2017/08/10 17:39:44","新北市新莊區中正路514巷99號","121.43103","25.0344433333333","6500500","新莊區"
"242004","442-UM","2017/08/10 17:39:42","新北市新莊區自立街198號","121.45663","25.0454033333333","6500500","新莊區"
"242046","441-UM","2017/08/10 17:39:43","新北市新莊區建國一路21號","121.43392","25.0315716666667","6500500","新莊區"
"242051","440-UM","2017/08/10 17:39:39","新北市新莊區西盛街195號","121.428123333333","25.0172483333333","6500500","新莊區"
"242031","415-TV","2017/08/10 17:39:55","新北市新莊區新泰路321巷1弄2號","121.444786666667","25.0413783333333","6500500","新莊區"
"242002","413-TV","2017/08/10 17:39:55","新北市新莊區新莊路262號","121.451893333333","25.0340266666667","6500500","新莊區"
"242039","400-BY","2017/08/10 17:39:47","新北市新莊區民安東路9號","121.42779","25.02099","6500500","新莊區"
"242061","362-BY","2017/08/10 17:39:47","新北市新莊區瓊林南路73號","121.435203333333","25.015615","6500500","新莊區"
"242058","353-BY","2017/08/10 17:39:38","新北市新莊區中正路723-2號","121.423398333333","25.0292333333333","6500500","新莊區"
"242019","135-UY","2017/08/10 17:39:39","新北市新莊區中港路176號","121.454908333333","25.041895","6500500","新莊區"
"242044","172-VK","2017/08/10 17:39:48","新北市新莊區富國路65巷5號","121.419851666667","25.0265083333333","6500500","新莊區"
"242007","173-VK","2017/08/10 17:39:49","新北市新莊區中港路138巷7弄13號","121.455361666667","25.0413516666667","6500500","新莊區"
"242013","175-VK","2017/08/10 17:39:53","新北市新莊區中誠街119號","121.449458333333","25.0476316666667","6500500","新莊區"
"242056","176-VK","2017/08/10 17:39:54","新北市新莊區新泰路3巷33號","121.449046666667","25.0319616666667","6500500","新莊區"
"241031","233-RS","2017/08/10 17:02:20","新北市新莊區環河路48-7號","121.436883333333","25.0098016666667","6500200","三重區"
"242011","346-TH","2017/08/10 17:39:50","新北市新莊區中港路599號","121.451351666667","25.0529466666667","6500500","新莊區"
"242034","347-TH","2017/08/10 17:39:45","新北市新莊區新莊路462號","121.447188333333","25.0333416666667","6500500","新莊區"
"242017","348-TH","2017/08/10 17:39:50","新北市新莊區中和街30巷13號","121.448856666667","25.0438483333333","6500500","新莊區"
"242053","349-TH","2017/08/10 17:39:47","新北市新莊區新樹路699巷1-2號","121.432493333333","25.0020516666667","6500500","新莊區"
"242015","350-TH","2017/08/10 17:39:52","新北市新莊區新泰路339號","121.444786666667","25.0418533333333","6500500","新莊區"
"242009","351-TH","2017/08/10 17:39:42","新北市新莊區福壽街169巷3號","121.457303333333","25.0536666666667","6500500","新莊區"
"238015","755-BX","2017/08/10 17:39:47","新北市樹林區啟智街25號","121.420876666667","24.99334","6500700","樹林區"
"238023","601-UM","2017/08/10 17:39:53","新北市樹林區三福街42號","121.407885","25.01653","6500700","樹林區"
"238019","599-UM","2017/08/10 17:39:52","新北市樹林區太平路127巷10號","121.419763333333","24.9805933333333","6500700","樹林區"
"238018","571-TV","2017/08/10 17:39:45","新北市樹林區鎮前街143-2號","121.424005","24.9889833333333","6500700","樹林區"
"238024","5061-A6","2017/08/10 17:39:56","新北市樹林區忠孝街67巷7號","121.424723333333","24.981655","6500700","樹林區"
"238022","312-TH","2017/08/10 17:39:54","新北市樹林區和平街2巷15號","121.421188333333","24.9809833333333","6500700","樹林區"
"238021","311-TH","2017/08/10 17:39:40","新北市樹林區佳園路二段34號","121.391433333333","24.9622616666667","6500700","樹林區"
"241031","308-TH","2017/08/10 13:29:37","新北市樹林區育德街76巷1號","121.388788333333","24.9683166666667","6500200","三重區"
"238025","303-VK","2017/08/10 17:39:45","新北市樹林區保安街二段261號","121.412946666667","25.0052616666667","6500700","樹林區"
"238017","283-BY","2017/08/10 17:39:56","新北市樹林區中正路290號","121.414366666667","25.0105066666667","6500700","樹林區"
"238014","282-BY","2017/08/10 17:39:54","新北市樹林區保安街一段292號","121.419226666667","24.9974083333333","6500700","樹林區"
"238020","268-VK","2017/08/10 17:39:53","新北市樹林區千歲街186號","121.42928","25.0012983333333","6500700","樹林區"
"238026","172-UY","2017/08/10 17:39:43","新北市樹林區新興街19巷22號","121.401195","24.9732566666667","6500700","樹林區"
"238016","169-UY","2017/08/10 17:39:36","新北市樹林區育英街41號","121.421178333333","24.989185","6500700","樹林區"
"239007","AAC-297","2017/08/10 17:39:51","新北市鶯歌區永安街48號","121.337738333333","24.9566166666667","6500800","鶯歌區"
"239006","891-R6","2017/08/10 17:39:39","新北市鶯歌區永和街34巷10弄2號","121.333428333333","24.967265","6500800","鶯歌區"
"241031","661-UM","2017/08/10 15:41:49","新北市鶯歌區二甲路12-2號","121.34563","24.934695","6500200","三重區"
"239008","527-UM","2017/08/10 17:39:38","新北市鶯歌區大湖路732巷45號","121.333468333333","24.9781633333333","6500800","鶯歌區"
"239005","526-UM","2017/08/10 17:39:45","新北市鶯歌區鶯桃路二段22號","121.326108333333","24.9724216666667","6500800","鶯歌區"
"239001","417-VK","2017/08/10 17:39:57","新北市鶯歌區中正三路238號","121.33014","24.9367283333333","6500800","鶯歌區"
"239003","360-BY","2017/08/10 17:39:41","新北市鶯歌區鶯桃路206巷54號","121.338071666667","24.9602116666667","6500800","鶯歌區"
"239002","359-BY","2017/08/10 17:39:40","新北市鶯歌區育德街11號","121.344555","24.9551766666667","6500800","鶯歌區"
"239004","193-VK","2017/08/10 17:39:53","新北市鶯歌區三鶯路94號","121.35887","24.94366","6500800","鶯歌區"
"221008","489-VK","2017/08/10 17:39:48","新北市汐止區康寧街901號","121.65143","25.0750033333333","6501100","汐止區"
"221010","269-BY","2017/08/10 17:39:51","新北市汐止區康寧街901號","121.651643333333","25.0749683333333","6501100","汐止區"
"241031","276-VK","2017/08/10 13:21:16","新北市汐止區汐萬路一段256巷3號","121.653435","25.074645","6500200","三重區"
"241031","277-VK","2017/08/10 15:32:15","新北市汐止區汐萬路一段256巷3號","121.65252","25.07464","6500200","三重區"
"241031","280-BY","2017/08/10 17:39:43","新北市汐止區樟樹二路351號","121.643058333333","25.0737883333333","6500200","三重區"
"221021","299-VK","2017/08/10 14:59:33","新北市汐止區汐萬路一段170號","121.653075","25.07183","6501100","汐止區"
"241031","488-VK","2017/08/10 11:01:54","新北市汐止區汐萬路一段256巷3號","121.652666666667","25.07449","6500200","三重區"
"241031","567-BX","2017/08/10 12:14:12","新北市汐止區汐萬路一段150號","121.652891666667","25.0712316666667","6500200","三重區"
"241031","647-BX","2017/08/10 17:39:43","新北市汐止區中興路27巷4號","121.634913333333","25.060945","6500200","三重區"
"221018","753-BX","2017/08/10 17:39:56","新北市汐止區汐萬路一段16號","121.656113333333","25.067465","6501100","汐止區"
"241031","255-TC","2017/08/08 21:38:12","新北市板橋區民生路二段89-9號","121.47152","25.016955","6500200","三重區"
"241031","258-TC","2017/08/10 11:14:08","新北市板橋區金門街369巷95號","121.430118333333","24.980865","6500200","三重區"
"241031","280-UM","2017/08/10 14:44:56","新北市板橋區民生路二段22號","121.472855","25.01666","6500200","三重區"
"241031","281-UM","2017/08/10 14:23:43","新北市板橋區大觀路二段435-10號","121.446045","24.9943416666667","6500200","三重區"
"241031","281-VK","2017/08/10 16:28:27","新北市新莊區環河路636-7號","121.437358333333","25.0112233333333","6500200","三重區"
"241031","317-R6","2017/08/10 14:05:10","新北市板橋區民生路二段161巷3號","121.470131666667","25.0197433333333","6500200","三重區"
"241031","280-VK","2017/08/10 16:21:14","新北市新莊區環河路636-7號","121.437401666667","25.0112466666667","6500200","三重區"
"241031","755-RS","2017/08/10 11:00:36","新北市板橋區大觀路二段435-10號","121.445131666667","24.99451","6500200","三重區"
"241031","806-UM","2017/08/10 17:26:00","新北市板橋區華東街1-10號","121.448583333333","24.9948733333333","6500200","三重區"
"241031","831-TW","2017/08/10 01:15:46","新北市板橋區民生路二段120號","121.470951666667","25.0199766666667","6500200","三重區"
