"lineid","car","time","location","longitude","latitude","cityid","cityname"
"234046","148-BY","2017/08/10 19:59:45","新北市永和區永元路118號","121.522833333333","25.00251","6500400","永和區"
"234013","149-BY","2017/08/10 19:59:36","新北市永和區保生路55號","121.504726666667","25.010595","6500400","永和區"
"234007","207-UY","2017/08/10 19:59:53","新北市永和區保生路22巷17號","121.507168333333","25.0080933333333","6500400","永和區"
"241031","209-UY","2017/08/10 16:26:10","新北市永和區保順路33號","121.503793333333","25.0106366666667","6500200","三重區"
"234081","298-R6","2017/08/10 19:59:43","新北市永和區林森路112巷12弄12號","121.522785","25.0044833333333","6500400","永和區"
"234038","336-UY","2017/08/10 19:59:52","新北市永和區成功路一段115號","121.526883333333","25.0021816666667","6500400","永和區"
"234064","337-UY","2017/08/10 19:59:47","新北市永和區中正路368巷1弄20號","121.51904","25.00092","6500400","永和區"
"234086","338-UY","2017/08/10 19:59:50","新北市永和區福和路110號","121.522181666667","25.0078816666667","6500400","永和區"
"241031","395-TH","2017/08/10 16:57:43","新北市永和區保生路55-8號","121.504021666667","25.0103966666667","6500200","三重區"
"234070","552-UM","2017/08/10 19:59:49","新北市永和區永貞路10巷8號","121.520418333333","25.007245","6500400","永和區"
"234054","553-UM","2017/08/10 19:59:44","新北市永和區竹林路39巷42弄1號","121.520176666667","25.0152566666667","6500400","永和區"
"241031","693-BX","2017/08/10 18:07:50","新北市永和區福和路1號","121.526551666667","25.0098016666667","6500200","三重區"
"241031","695-BX","2017/08/10 18:06:08","新北市永和區福和路1號","121.526623333333","25.01006","6500200","三重區"
"234017","745-BX","2017/08/10 19:59:49","新北市永和區文化路121巷1號","121.512538333333","25.015165","6500400","永和區"
"234030","746-BX","2017/08/10 19:59:38","新北市永和區民權路49巷5弄25號","121.521178333333","24.997795","6500400","永和區"
"241031","838-RS","2017/08/10 19:59:40","新北市永和區環河東路一段124號","121.520803333333","25.015465","6500200","三重區"
"241031","840-RS","2017/08/10 17:18:16","新北市永和區福和路1號","121.526316666667","25.0097566666667","6500200","三重區"
"241031","841-RS","2017/08/10 16:53:15","新北市永和區保生路55-8號","121.504106666667","25.01037","6500200","三重區"
"234061","AAD-866","2017/08/10 19:59:51","新北市永和區中正路283巷12號","121.51725","25.0009833333333","6500400","永和區"
"241031","845-RS","2017/08/10 15:58:27","新北市永和區保順路27號","121.503881666667","25.0103166666667","6500200","三重區"
"234042","862-TW","2017/08/10 19:59:40","新北市永和區中和路335巷18弄16號","121.50795","25.0002516666667","6500400","永和區"
"234050","863-TW","2017/08/10 19:59:48","新北市永和區保安路292號","121.505123333333","25.0118466666667","6500400","永和區"
"234026","9371-KE","2017/08/10 19:59:49","新北市永和區保平路205號","121.5088","25.0050616666667","6500400","永和區"
"249005","172-UM","2017/08/10 19:59:50","新北市八里區楓林路2-2號","121.383361666667","25.13074","6502300","八里區"
"249001","173-UM","2017/08/10 19:59:46","新北市八里區中華路二段312號","121.40387","25.14826","6502300","八里區"
"249004","303-UY","2017/08/10 19:59:31","新北市八里區中華路一段333-1號","121.413421666667","25.15369","6502300","八里區"
"249002","305-UY","2017/08/10 19:59:23","新北市八里區龍米路一段87巷35-4號","121.452485","25.1232283333333","6502300","八里區"
"249003","593-UM","2017/08/10 19:59:45","新北市八里區中華路二段341-8號","121.399028333333","25.1447433333333","6502300","八里區"
"248016","026-BX","2017/08/10 19:59:46","新北市五股區成泰路三段577巷80弄24號","121.449518333333","25.1044116666667","6501500","五股區"
"248008","095-VK","2017/08/10 19:59:35","新北市三重區中正北路598巷4號","121.469713333333","25.0719","6501500","五股區"
"248020","225-UY","2017/08/10 19:59:35","新北市五股區凌雲路三段21-1號","121.430646666667","25.1095516666667","6501500","五股區"
"248012","247-BX","2017/08/10 19:59:42","新北市五股區民義路一段52號","121.436625","25.0842483333333","6501500","五股區"
"248014","261-SL","2017/08/10 19:59:51","新北市五股區五福路42巷5號","121.434065","25.0895433333333","6501500","五股區"
"248004","677-BX","2017/08/10 19:59:36","新北市五股區成泰路一段10號","121.434433333333","25.0674633333333","6501500","五股區"
"248002","678-BX","2017/08/10 19:59:35","新北市五股區成泰路三段436號","121.450805","25.0995016666667","6501500","五股區"
"248010","682-TV","2017/08/10 19:59:36","新北市五股區登林路100-1號","121.428151666667","25.0701016666667","6501500","五股區"
"234023","9380-KE","2017/08/10 19:59:38","新北市永和區中正路702巷18號","121.516495","25.0105383333333","6500400","永和區"
"234077","969-R7","2017/08/10 19:59:40","新北市永和區智光街94號","121.516166666667","24.9969283333333","6500400","永和區"
"234074","AAC-211","2017/08/10 19:59:42","新北市永和區豫溪街160巷1號","121.52336","25.0097033333333","6500400","永和區"
"234067","AAC-212","2017/08/10 19:59:34","新北市永和區中山路一段240號","121.507585","25.00768","6500400","永和區"
"234003","AAC-295","2017/08/10 19:59:42","新北市永和區永和路二段8號","121.514603333333","25.010305","6500400","永和區"
"241031","402-UM","2017/08/10 19:59:46","新北市林口區粉寮69號","121.405085","25.0909633333333","6500200","三重區"
"241031","656-BX","2017/08/10 16:42:27","新北市林口區粉寮路二段160巷30號","121.405605","25.0910016666667","6500200","三重區"
"241031","658-BX","2017/08/10 16:32:35","新北市林口區粉寮69號","121.404986666667","25.0909483333333","6500200","三重區"
"243013","AAD-798","2017/08/10 19:59:49","新北市泰山區明志路三段6巷16號","121.42387","25.043695","6501600","泰山區"
"243009","297-R6","2017/08/10 19:59:37","新北市泰山區楓江路16巷32號","121.434041666667","25.0614266666667","6501600","泰山區"
"243015","380-SR","2017/08/10 19:59:47","新北市泰山區明志路二段214巷16弄5號","121.426826666667","25.0494433333333","6501600","泰山區"
"243014","421-VK","2017/08/10 19:59:40","新北市泰山區泰林路二段175號","121.433685","25.060765","6501600","泰山區"
"243010","548-UM","2017/08/10 19:59:40","新北市泰山區中華街10巷1號","121.427885","25.05249","6501600","泰山區"
"243011","549-UM","2017/08/10 19:59:53","新北市泰山區明志路三段182巷56號","121.422761666667","25.0398416666667","6501600","泰山區"
"243012","646-TV","2017/08/10 19:59:46","新北市泰山區福興三街28號","121.43405","25.0575533333333","6501600","泰山區"
"243016","680-BX","2017/08/10 19:59:32","新北市泰山區貴陽街29號","121.422226666667","25.0330233333333","6501600","泰山區"
"222003","436-BY","2017/08/10 19:59:39","新北市深坑區埔新街14號","121.620725","25.003945","6501800","深坑區"
"222002","659-BX","2017/08/10 19:59:36","新北市深坑區北深路二段81巷8弄6號","121.618226666667","25.003175","6501800","深坑區"
"222001","696-SL","2017/08/10 19:59:50","新北市深坑區北深路三段164號","121.602261666667","25.0033516666667","6501800","深坑區"
"231041","001-UM","2017/08/10 19:59:36","新北市新店區民族路192號","121.535988333333","24.9754566666667","6500600","新店區"
"231056","0291-UT","2017/08/10 19:59:44","新北市新店區民權路42巷52號","121.538523333333","24.9839466666667","6500600","新店區"
"231059","046-UY","2017/08/10 19:59:35","新北市新店區安康路二段147號","121.511255","24.9598883333333","6500600","新店區"
"231061","047-UY","2017/08/10 19:59:44","新北市新店區安民街382號","121.516295","24.9765583333333","6500600","新店區"
"231060","106-UY","2017/08/10 19:59:44","新北市新店區安康路二段295號","121.502533333333","24.9575116666667","6500600","新店區"
"231051","107-UY","2017/08/10 19:59:39","新北市新店區中央五街22號","121.529283333333","24.9745066666667","6500600","新店區"
"231047","108-UY","2017/08/10 19:59:45","新北市新店區中興路二段228號","121.54789","24.9751583333333","6500600","新店區"
"231064","110-UY","2017/08/10 19:59:40","新北市新店區安民街123號","121.51634","24.9687133333333","6500600","新店區"
"231052","187-VK","2017/08/10 19:59:52","新北市新店區新烏路三段332號","121.5468","24.896235","6500600","新店區"
"241031","188-VK","2017/08/10 02:22:50","新北市新店區安華路28-1號","121.51996","24.96133","6500200","三重區"
"241031","189-VK","2017/08/08 03:24:53","新北市新店區安華路28-1號","121.519805","24.9611233333333","6500200","三重區"
"231057","256-BX","2017/08/10 19:59:43","新北市新店區花園二路一段11號","121.555496666667","24.932475","6500600","新店區"
"231063","268-BY","2017/08/10 19:59:52","新北市新店區達觀路41號","121.502821666667","24.938195","6500600","新店區"
"231050","AAD-862","2017/08/10 19:59:53","新北市新店區中生路61號","121.564726666667","24.9522933333333","6500600","新店區"
"241031","355-BY","2017/08/10 15:21:46","新北市新店區安華路28-1號","121.519005","24.960955","6500200","三重區"
"231055","3713-VJ","2017/08/10 19:59:48","新北市新店區中華路83巷67號","121.538331666667","24.9672483333333","6500600","新店區"
"231067","4772-VM","2017/08/10 19:59:48","新北市新店區秀山路11巷24號","121.531506666667","24.95867","6500600","新店區"
"231065","512-UM","2017/08/10 19:59:36","新北市新店區安祥路109巷8號","121.475435","24.95884","6500600","新店區"
"231054","513-UM","2017/08/10 19:59:38","新北市新店區光明街188號","121.539641666667","24.96227","6500600","新店區"
"241031","515-UM","2017/08/10 13:17:53","新北市新店區安華路28-1號","121.519566666667","24.9612016666667","6500200","三重區"
"231040","619-UM","2017/08/10 19:59:45","新北市新店區中正路58號","121.544353333333","24.9700716666667","6500600","新店區"
"231042","641-BX","2017/08/10 19:59:42","新北市新店區中興路二段89號","121.547038333333","24.9714233333333","6500600","新店區"
"231068","718-UY","2017/08/10 19:59:41","新北市新店區安華路28-1號","121.519391666667","24.9608216666667","6500600","新店區"
"231049","719-UM","2017/08/10 19:59:50","新北市新店區明德路42號","121.541413333333","24.97813","6500600","新店區"
"231062","720-UM","2017/08/10 19:59:51","新北市新店區華城路36巷1-3號","121.527381666667","24.95541","6500600","新店區"
"231044","897-TW","2017/08/10 19:59:49","新北市新店區中正路568號","121.533928333333","24.98797","6500600","新店區"
"231045","898-TW","2017/08/10 19:59:44","新北市新店區北宜路二段82-12號","121.554661666667","24.9535516666667","6500600","新店區"
"231043","899-TW","2017/08/10 19:59:34","新北市新店區中正路263-4號","121.538285","24.973765","6500600","新店區"
"231066","AKT-0513","2017/08/10 19:59:39","新北市新店區柴埕路38-8號","121.513253333333","24.9648466666667","6500600","新店區"
"241011","013-R5","2017/08/10 19:59:34","新北市三重區三和路二段196號","121.498476666667","25.06919","6500200","三重區"
"241028","022-UY","2017/08/10 19:59:46","新北市三重區中正南路28號","121.493641666667","25.0602683333333","6500200","三重區"
"241008","059-VK","2017/08/10 19:59:53","新北市三重區永福街177巷6-1號","121.478568333333","25.0750433333333","6500200","三重區"
"241009","060-VK","2017/08/10 19:59:45","新北市三重區三和路四段390巷8號","121.481701666667","25.0789033333333","6500200","三重區"
"241031","061-VK","2017/08/10 19:59:37","新北市三重區重新路四段184巷16號","121.487131666667","25.054975","6500200","三重區"
"241015","062-VK","2017/08/10 19:59:38","新北市三重區三和路二段27號","121.50107","25.0670166666667","6500200","三重區"
"241017","063-VK","2017/08/10 19:59:41","新北市三重區重陽路三段105號","121.490506666667","25.0683933333333","6500200","三重區"
"241024","065-VK","2017/08/10 19:59:50","新北市三重區力行路一段178巷17號","121.481411666667","25.0713666666667","6500200","三重區"
"241002","090-VK","2017/08/10 19:59:43","新北市三重區仁愛街347號","121.492051666667","25.0796916666667","6500200","三重區"
"241003","091-VK","2017/08/10 19:59:51","新北市三重區仁愛街445巷38號","121.49152","25.083435","6500200","三重區"
"241006","156-TC","2017/08/10 19:59:49","新北市三重區力行路二段76巷27號","121.480596666667","25.0735433333333","6500200","三重區"
"241005","262-UM","2017/08/10 19:59:49","新北市三重區溪尾街325巷21號","121.488598333333","25.0834383333333","6500200","三重區"
"241025","265-UM","2017/08/10 19:59:34","新北市三重區頂崁街210巷16號","121.476468333333","25.0676466666667","6500200","三重區"
"241016","266-UM","2017/08/10 19:59:47","新北市三重區正義北路23號","121.497611666667","25.0634366666667","6500200","三重區"
"241022","267-UM","2017/08/10 19:59:50","新北市三重區新北大道一段9號","121.488843333333","25.0606283333333","6500200","三重區"
"241018","268-UM","2017/08/10 19:59:44","新北市三重區雙園街116號","121.494618333333","25.0674216666667","6500200","三重區"
"241032","269-UM","2017/08/10 19:59:52","新北市三重區重陽路一段44巷91號","121.483851666667","25.057695","6500200","三重區"
"241013","270-UM","2017/08/10 19:59:46","新北市三重區三和路三段125巷17號","121.49344","25.0735266666667","6500200","三重區"
"241026","271-UM","2017/08/10 19:59:45","新北市三重區中央南路2號","121.50133","25.063135","6500200","三重區"
"241007","398-BY","2017/08/10 19:59:43","新北市三重區慈愛街83號","121.487251666667","25.0794533333333","6500200","三重區"
"241020","412-TH","2017/08/10 19:59:52","新北市三重區忠孝路一段87號","121.489956666667","25.0722033333333","6500200","三重區"
"241004","475-VK","2017/08/10 19:59:45","新北市三重區仁愛街425巷95號","121.492291666667","25.0826816666667","6500200","三重區"
"241019","478-VK","2017/08/10 19:59:45","新北市三重區六張街134號","121.490423333333","25.069145","6500200","三重區"
"241030","480-VK","2017/08/10 19:59:46","新北市三重區成功路187號","121.48576","25.0530216666667","6500200","三重區"
"241014","543-UM","2017/08/10 19:59:40","新北市三重區三和路二段105號","121.49933","25.0686066666667","6500200","三重區"
"241023","545-UM","2017/08/10 19:59:45","新北市三重區頂崁街172號","121.477638333333","25.065925","6500200","三重區"
"241001","547-UM","2017/08/10 19:59:37","新北市三重區仁愛街283巷39號","121.494393333333","25.0799166666667","6500200","三重區"
"241035","743-BX","2017/08/10 19:59:38","新北市三重區大榮街7號","121.49823","25.063055","6500200","三重區"
"241029","887-TS","2017/08/10 19:59:39","新北市三重區重安街1號","121.489875","25.058405","6500200","三重區"
"241012","941-UM","2017/08/10 19:59:36","新北市三重區仁厚街55號","121.500528333333","25.07659","6500200","三重區"
"241033","AAC-255","2017/08/10 19:59:44","新北市三重區中興北街77號","121.469528333333","25.0477366666667","6500200","三重區"
"235066","003-UY","2017/08/10 19:59:35","新北市中和區中山路二段69號","121.503888333333","25.004485","6500300","中和區"
"235056","096-UM","2017/08/10 19:59:50","新北市中和區中山路三段170巷4弄2號","121.472838333333","25.00685","6500300","中和區"
"235039","097-UM","2017/08/10 19:59:54","新北市中和區大勇街25巷21號","121.515596666667","24.9938266666667","6500300","中和區"
"235065","098-UM","2017/08/10 19:59:52","新北市中和區福祥路99號","121.49896","25.00623","6500300","中和區"
"235040","150-BY","2017/08/10 19:59:32","新北市中和區保健路19巷2弄1號","121.508428333333","24.99841","6500300","中和區"
"235058","151-BY","2017/08/10 19:59:46","新北市中和區員山路150巷2弄16號","121.481675","24.9978483333333","6500300","中和區"
"235055","183-VK","2017/08/10 19:59:45","新北市中和區德光路15巷18號","121.471313333333","25.0035266666667","6500300","中和區"
"235038","185-VK","2017/08/10 19:59:54","新北市中和區立人街69巷5號","121.520003333333","24.9938066666667","6500300","中和區"
"235049","186-VK","2017/08/10 19:59:44","新北市中和區景平路385巷81號","121.501045","24.9942816666667","6500300","中和區"
"235067","255-BX","2017/08/10 19:59:37","新北市中和區中正路751巷3弄14號","121.484343333333","24.9992416666667","6500300","中和區"
"235044","293-VK","2017/08/10 19:59:49","新北市中和區南山路176-19號","121.505356666667","24.990855","6500300","中和區"
"235072","301-VK","2017/08/10 19:59:46","新北市五股區五工一路101號","121.459248333333","25.068945","6500300","中和區"
"235043","352-BY","2017/08/10 19:59:37","新北市中和區興南路二段159巷7號","121.50531","24.9831316666667","6500300","中和區"
"235051","376-QA","2017/08/10 19:59:34","新北市中和區中興街233巷8弄1號","121.501183333333","24.9892016666667","6500300","中和區"
"235068","377-QA","2017/08/10 19:59:37","新北市中和區福美路301巷1號","121.497323333333","25.0047033333333","6500300","中和區"
"241031","467-BY","2017/08/10 14:53:25","新北市中和區員山路36巷16-3號","121.484661666667","24.9915366666667","6500200","三重區"
"235050","4979-A6","2017/08/10 19:59:11","新北市中和區景平路155號","121.513546666667","24.9923783333333","6500300","中和區"
"235069","4980-A6","2017/08/10 19:59:48","新北市中和區南山路37巷3弄1號","121.50269","24.9987883333333","6500300","中和區"
"235042","551-UM","2017/08/10 19:59:40","新北市中和區宜安路176號","121.508618333333","24.9991933333333","6500300","中和區"
"235070","558-UM","2017/08/10 19:59:42","新北市中和區連勝街46號","121.497866666667","24.9975916666667","6500300","中和區"
"235054","640-BX","2017/08/10 19:59:40","新北市中和區莒光路149號","121.47269","25.0012216666667","6500300","中和區"
"235060","647-TV","2017/08/10 19:59:49","新北市中和區員山路382號","121.480728333333","25.0043266666667","6500300","中和區"
"235047","732-UM","2017/08/10 19:59:43","新北市中和區和平街80號","121.507731666667","24.991275","6500300","中和區"
"235046","733-UM","2017/08/10 19:59:40","新北市中和區興南路一段93巷69號","121.510426666667","24.9868133333333","6500300","中和區"
"235057","801-TS","2017/08/10 19:59:34","新北市中和區員山路130號","121.481163333333","24.9963166666667","6500300","中和區"
"235041","802-TS","2017/08/10 19:59:52","新北市永和區中和路603號","121.51245","25.00417","6500300","中和區"
"235052","805-TS","2017/08/10 19:59:47","新北市中和區華新街144巷14號","121.507606666667","24.9830816666667","6500300","中和區"
"235048","896-TW","2017/08/10 19:59:48","新北市中和區興南路一段20-1號","121.511395","24.9911266666667","6500300","中和區"
"235053","900-TW","2017/08/10 19:59:39","新北市中和區民德路146巷14號","121.467795","25.0005483333333","6500300","中和區"
"241031","157-BY","2017/08/10 12:11:08","新北市中和區員山路36巷13號","121.484098333333","24.99105","6500200","三重區"
"235037","AAC-213","2017/08/10 19:59:44","新北市中和區自立路54號","121.523226666667","24.992095","6500300","中和區"
"235059","AAC-215","2017/08/10 19:59:48","新北市中和區圓通路305巷5弄28號","121.494201666667","24.9901616666667","6500300","中和區"
"220068","013-TV","2017/08/10 19:59:41","新北市板橋區光復街202巷6-1號","121.48593","25.02027","6500100","板橋區"
"220065","072-UY","2017/08/10 19:59:49","新北市板橋區海山路39號","121.46726","25.0097033333333","6500100","板橋區"
"220086","073-UY","2017/08/10 19:59:54","新北市板橋區館前西路162號","121.45268","25.0088066666667","6500100","板橋區"
"220106","075-UY","2017/08/10 19:59:45","新北市板橋區民治街71巷36號","121.480583333333","25.03277","6500100","板橋區"
"220069","AAD-861","2017/08/10 19:59:49","新北市板橋區南雅南路二段11-5號","121.454081666667","25.0023066666667","6500100","板橋區"
"220096","120-SR","2017/08/10 19:59:37","新北市板橋區莒光路16巷7號","121.469668333333","25.0242916666667","6500100","板橋區"
"247020","893-R6","2017/08/10 19:59:48","新北市蘆洲區民義街75號","121.473265","25.09012","6501400","蘆洲區"
"247018","500-BY","2017/08/10 19:59:41","新北市蘆洲區民族路290巷1號","121.478048333333","25.08985","6501400","蘆洲區"
"247008","339-TH","2017/08/10 19:59:47","新北市蘆洲區中山一路199號","121.47446","25.080965","6501400","蘆洲區"
"247024","337-TH","2017/08/10 19:59:50","新北市蘆洲區光榮路120巷31號","121.46583","25.08808","6501400","蘆洲區"
"247002","336-TH","2017/08/10 19:59:36","新北市蘆洲區長安街268號","121.45747","25.086805","6501400","蘆洲區"
"241031","335-TH","2017/08/10 19:59:36","新北市蘆洲區九芎街139巷8號","121.465816666667","25.07916","6500200","三重區"
"247014","057-VK","2017/08/10 19:59:46","新北市蘆洲區成功路115號","121.472493333333","25.0821166666667","6501400","蘆洲區"
"247004","056-VK","2017/08/10 19:59:33","新北市蘆洲區永康街77號","121.45576","25.0851933333333","6501400","蘆洲區"
"241031","053-VK","2017/08/10 19:59:53","新北市蘆洲區中正路186號","121.46693","25.088005","6500200","三重區"
"247012","007-UY","2017/08/10 19:59:38","新北市蘆洲區民族路236巷11號","121.47981","25.0885","6501400","蘆洲區"
"247016","001-UY","2017/08/10 19:59:32","新北市蘆洲區光華路92號","121.467685","25.0826266666667","6501400","蘆洲區"
"241031","092-VK","2017/08/10 17:19:15","新北市中和區員山路36巷2-1號","121.482561666667","24.990545","6500200","三重區"
"226004","312-R5","2017/08/10 19:59:50","新北市平溪區嶺腳里田子23號","121.746933333333","25.0281433333333","6502400","平溪區"
"228003","097-TW","2017/08/10 19:59:45","新北市貢寮區仁理村仁和路112號","121.922945","25.0510533333333","6502600","貢寮區"
"224010","AGQ-8101","2017/08/10 19:59:38","新北市瑞芳區豎崎路31號","121.843493333333","25.1085183333333","6501200","瑞芳區"
"227004","642-TC","2017/08/10 19:59:46","新北市雙溪區雙溪里長安街16號","121.865","25.0346733333333","6502500","雙溪區"
"227010","400-TW","2017/08/10 19:59:41","新北市雙溪區新基里新基南街25號","121.866243333333","25.0381683333333","6502500","雙溪區"
"253002","637-UY","2017/08/10 19:59:37","新北市石門區中山路64-1號","121.567473333333","25.2905416666667","6502200","石門區"
"208002","742-BX","2017/08/10 19:59:50","新北市金山區環金路23號","121.639935","25.2174066666667","6502700","金山區"
"208003","665-BX","2017/08/10 19:59:52","新北市金山區海興路107號","121.633976666667","25.2436316666667","6502700","金山區"
"251009","008-UM","2017/08/10 19:12:01","新北市淡水區中正路114號","121.441718333333","25.169555","6501000","淡水區"
"251004","009-UM","2017/08/10 19:59:51","新北市淡水區民族路50巷30號","121.460986666667","25.135665","6501000","淡水區"
"241031","011-UM","2017/08/10 10:18:28","新北市淡水區中正路二段31號","121.41928","25.181835","6500200","三重區"
"251008","181-VK","2017/08/10 19:59:47","新北市淡水區淡海路72巷24號","121.4243","25.1810566666667","6501000","淡水區"
"251014","182-VK","2017/08/10 19:59:49","新北市淡水區石頭厝14-1號","121.46349","25.2367116666667","6501000","淡水區"
"251010","413-VK","2017/08/10 19:59:38","新北市淡水區崁頂92號","121.429513333333","25.2023616666667","6501000","淡水區"
"251012","441-VK","2017/08/10 19:59:45","新北市淡水區下圭柔山96號","121.438623333333","25.2114216666667","6501000","淡水區"
"251016","442-VK","2017/08/10 19:59:41","新北市淡水區番子田16-13號","121.453751666667","25.23159","6501000","淡水區"
"251005","443-VK","2017/08/10 19:59:47","新北市淡水區學府路136巷8號","121.450988333333","25.172895","6501000","淡水區"
"251001","559-UM","2017/08/10 19:59:35","新北市淡水區水源街二段189-2號","121.456586666667","25.1764133333333","6501000","淡水區"
"251006","561-UM","2017/08/10 19:59:39","新北市淡水區水碓街46巷1號","121.444953333333","25.1773833333333","6501000","淡水區"
"251011","650-BX","2017/08/10 19:59:48","新北市淡水區崁頂55-3號","121.442341666667","25.19664","6501000","淡水區"
"207003","550-UM","2017/08/10 19:59:36","新北市萬里區磺潭里公館崙5號","121.641903333333","25.2142233333333","6502800","萬里區"
"241031","225-TW","2017/08/10 19:59:49","新北市萬里區北基里忠二街35號","121.685675","25.1757383333333","6500200","三重區"
"252002","178-VK","2017/08/10 19:59:52","新北市三芝區三民街39巷36號","121.505408333333","25.257595","6502100","三芝區"
"252001","702-TV","2017/08/10 19:59:34","新北市三芝區公正街66號","121.499833333333","25.2574816666667","6502100","三芝區"
"241031","361-BY","2017/08/10 15:19:40","新北市三峽區中山路459巷137號","121.349346666667","24.9335683333333","6500200","三重區"
"237004","078-UY","2017/08/10 19:59:37","新北市三峽區嘉添191號","121.36928","24.9113766666667","6500900","三峽區"
"237007","153-BY","2017/08/10 19:59:48","新北市三峽區二鬮路136巷20弄65號","121.357618333333","24.90963","6500900","三峽區"
"237009","210-TH","2017/08/10 19:59:52","新北市三峽區民族街78巷2弄8號","121.36836","24.9299866666667","6500900","三峽區"
"237012","275-BY","2017/08/10 19:59:46","新北市三峽區中華路3巷8-1號","121.374946666667","24.9311566666667","6500900","三峽區"
"237008","302-VK","2017/08/10 19:59:52","新北市三峽區中正路一段231號","121.372261666667","24.9268016666667","6500900","三峽區"
"241031","159-BY","2017/08/10 14:02:13","新北市三峽區中山路459巷163-3號","121.348958333333","24.9331083333333","6500200","三重區"
"237014","433-BY","2017/08/10 19:59:35","新北市三峽區正義街140-2號","121.36839","24.9160583333333","6500900","三峽區"
"237006","5529-G3","2017/08/10 19:59:35","新北市三峽區中正路二段168號","121.366031666667","24.9156566666667","6500900","三峽區"
"237016","649-BX","2017/08/10 19:59:41","新北市三峽區介壽路二段167號","121.394635","24.9359933333333","6500900","三峽區"
"241031","682-BX","2017/08/10 09:27:33","新北市三峽區中山路459巷163-3號","121.34871","24.933165","6500200","三重區"
"241031","756-BX","2017/08/10 10:11:06","新北市三峽區中山路459巷163-3號","121.348881666667","24.933085","6500200","三重區"
"241031","760-BX","2017/08/10 10:03:12","新北市三峽區中山路459巷163-3號","121.348863333333","24.9330466666667","6500200","三重區"
"237005","AKY-6261","2017/08/10 19:59:38","新北市三峽區民生街1巷17號","121.380445","24.935615","6500900","三峽區"
"236071","105-UM","2017/08/10 19:59:51","新北市土城區忠承路5-1號","121.442123333333","24.9679533333333","6501300","土城區"
"236042","107-UM","2017/08/10 19:59:49","新北市土城區學府路一段143巷10號","121.453948333333","24.9857366666667","6501300","土城區"
"241031","138-TH","2017/08/10 15:54:30","新北市土城區永寧路36-1號","121.42807","24.9591616666667","6500200","三重區"
"236078","166-UM","2017/08/10 19:59:43","新北市土城區福安街57號","121.418516666667","24.964325","6501300","土城區"
"236030","253-BX","2017/08/10 19:59:38","新北市土城區中央路一段250巷1-1號","121.444128333333","24.9847233333333","6501300","土城區"
"236026","269-VK","2017/08/10 19:59:50","新北市土城區中央路二段94號","121.44227","24.9785633333333","6501300","土城區"
"236014","270-VK","2017/08/10 19:59:35","新北市土城區廣福街128號","121.456326666667","24.9928533333333","6501300","土城區"
"236037","271-VK","2017/08/10 19:59:34","新北市土城區國際路69號","121.46685","24.9763716666667","6501300","土城區"
"241031","370-SL","2017/08/10 14:40:22","新北市土城區永平街72號","121.427048333333","24.9591933333333","6500200","三重區"
"241031","371-SL","2017/08/10 14:58:02","新北市土城區永平街51號","121.427578333333","24.9591666666667","6500200","三重區"
"236021","401-BY","2017/08/10 19:59:53","新北市土城區峰廷街14號","121.468766666667","24.9875533333333","6501300","土城區"
"236058","912-UM","2017/08/10 19:59:38","新北市土城區中央路一段155號","121.44651","24.9878233333333","6501300","土城區"
"236051","913-UM","2017/08/10 19:59:40","新北市土城區金城路三段190號","121.46837","24.987935","6501300","土城區"
"236062","915-UM","2017/08/10 19:59:35","新北市土城區延和路62巷15號","121.466246666667","24.9885016666667","6501300","土城區"
"236053","AAC-216","2017/08/10 19:59:44","新北市土城區金城路三段167號","121.46917","24.988555","6501300","土城區"
"242021","AAC-296","2017/08/10 19:59:43","新北市新莊區建中街14號","121.449516666667","25.0377","6500500","新莊區"
"242029","986-R7","2017/08/10 19:59:53","新北市新莊區中平路377巷1-6號","121.44459","25.0524916666667","6500500","新莊區"
"242048","751-BX","2017/08/10 19:59:49","新北市新莊區四維路6號","121.423968333333","25.0253016666667","6500500","新莊區"
"242025","615-BX","2017/08/10 19:59:40","新北市新莊區五工二路86巷52號","121.46088","25.0675666666667","6500500","新莊區"
"242023","613-BX","2017/08/10 19:59:36","新北市新莊區化成路372號","121.465895","25.0497633333333","6500500","新莊區"
"242027","612-BX","2017/08/10 19:59:43","新北市新莊區立信一街52號","121.443153333333","25.0494183333333","6500500","新莊區"
"242036","566-BX","2017/08/10 19:59:46","新北市新莊區建安街41巷2號","121.428938333333","25.0254366666667","6500500","新莊區"
"242042","497-BY","2017/08/10 19:59:40","新北市新莊區壽山路49-6號","121.414221666667","25.030745","6500500","新莊區"
"242004","442-UM","2017/08/10 19:59:53","新北市新莊區化成路346號","121.465755","25.0490016666667","6500500","新莊區"
"242051","440-UM","2017/08/10 19:59:44","新北市新莊區龍安路557號","121.427303333333","25.01792","6500500","新莊區"
"242031","415-TV","2017/08/10 19:59:40","新北市新莊區公園一路55號","121.443108333333","25.036085","6500500","新莊區"
"242002","413-TV","2017/08/10 19:59:35","新北市新莊區中正路217號","121.45101","25.0357633333333","6500500","新莊區"
"242039","400-BY","2017/08/10 19:59:54","新北市新莊區民安路287-1號","121.428928333333","25.0228333333333","6500500","新莊區"
"242061","362-BY","2017/08/10 19:59:48","新北市新莊區瓊泰路1號","121.445015","25.0285883333333","6500500","新莊區"
"242058","353-BY","2017/08/10 19:59:37","新北市新莊區八德街115號","121.42404","25.02082","6500500","新莊區"
"242019","135-UY","2017/08/10 19:59:51","新北市新莊區長青街37巷1號","121.456383333333","25.042215","6500500","新莊區"
"242044","172-VK","2017/08/10 19:59:48","新北市新莊區中正路746巷45-1號","121.411185","25.0252666666667","6500500","新莊區"
"242007","173-VK","2017/08/10 19:59:50","新北市新莊區思源路585號","121.459768333333","25.0593633333333","6500500","新莊區"
"242013","175-VK","2017/08/10 19:59:38","新北市新莊區幸福路602-1號","121.452281666667","25.0492533333333","6500500","新莊區"
"242056","176-VK","2017/08/10 19:59:54","新北市新莊區中正路347巷17弄2號","121.447311666667","25.03435","6500500","新莊區"
"241031","233-RS","2017/08/10 17:02:20","新北市新莊區環河路48-7號","121.436883333333","25.0098016666667","6500200","三重區"
"242011","346-TH","2017/08/10 19:59:52","新北市新莊區中港路531巷23號","121.450471666667","25.0514716666667","6500500","新莊區"
"242034","347-TH","2017/08/10 19:59:45","新北市新莊區建中街109號","121.446305","25.036495","6500500","新莊區"
"242017","348-TH","2017/08/10 19:59:38","新北市新莊區中安街33號","121.452526666667","25.04598","6500500","新莊區"
"242053","349-TH","2017/08/10 19:59:42","新北市新莊區西盛街416巷2號","121.427215","25.0122666666667","6500500","新莊區"
"242015","350-TH","2017/08/10 19:59:52","新北市新莊區復興路一段47巷4號","121.446986666667","25.0423583333333","6500500","新莊區"
"242009","351-TH","2017/08/10 19:59:45","新北市新莊區昌盛街4號","121.453151666667","25.0499516666667","6500500","新莊區"
"238015","755-BX","2017/08/10 19:59:37","新北市樹林區民和街1號","121.385216666667","24.9679766666667","6500700","樹林區"
"238023","601-UM","2017/08/10 19:59:48","新北市樹林區中正路755號","121.410575","25.0152416666667","6500700","樹林區"
"238021","311-TH","2017/08/10 19:59:39","新北市樹林區佳園路三段145巷36-22號","121.389081666667","24.9491","6500700","樹林區"
"241031","308-TH","2017/08/10 13:29:37","新北市樹林區育德街76巷1號","121.388788333333","24.9683166666667","6500200","三重區"
"238025","303-VK","2017/08/10 19:59:05","新北市樹林區中山路三段210-2號","121.380585","24.9676866666667","6500700","樹林區"
"238017","283-BY","2017/08/10 19:59:36","新北市樹林區保安街二段45巷21弄7號","121.414906666667","24.999865","6500700","樹林區"
"238020","268-VK","2017/08/10 19:59:33","新北市板橋區溪城路90-2號","121.42923","24.98006","6500700","樹林區"
"239006","891-R6","2017/08/10 19:59:39","新北市鶯歌區文化路55號","121.359101666667","24.955255","6500800","鶯歌區"
"221008","489-VK","2017/08/10 19:59:48","台北市內湖區康樂街125巷2號","121.619565","25.0733083333333","6501100","汐止區"
"221036","130-UY","2017/08/10 19:59:53","新北市汐止區忠孝東路258巷11弄2號","121.66374","25.0672","6501100","汐止區"
"221015","131-UY","2017/08/10 19:59:45","新北市汐止區橋東街46號","121.665578333333","25.0750566666667","6501100","汐止區"
"221010","269-BY","2017/08/10 19:59:51","新北市汐止區連峰街270號","121.644235","25.0814966666667","6501100","汐止區"
"241031","276-VK","2017/08/10 13:21:16","新北市汐止區汐萬路一段256巷3號","121.653435","25.074645","6500200","三重區"
"241031","277-VK","2017/08/10 15:32:15","新北市汐止區汐萬路一段256巷3號","121.65252","25.07464","6500200","三重區"
"241031","278-VK","2017/08/10 19:58:56","新北市汐止區大同路三段453號","121.678671666667","25.0713816666667","6500200","三重區"
"221023","279-VK","2017/08/10 03:05:54","新北市汐止區康寧街901號","121.651703333333","25.07495","6501100","汐止區"
"241031","280-BY","2017/08/10 19:59:43","新北市汐止區力行街59巷7號","121.61718","25.0496266666667","6500200","三重區"
"221027","281-BY","2017/08/10 19:59:53","新北市汐止區中正路74號","121.661613333333","25.0697483333333","6501100","汐止區"
"241031","297-VK","2017/08/10 19:59:45","新北市汐止區忠孝東路428號","121.6661","25.0719733333333","6500200","三重區"
"221029","298-VK","2017/08/10 19:59:39","新北市汐止區樟樹一路137巷23號","121.641078333333","25.0658966666667","6501100","汐止區"
"221021","299-VK","2017/08/10 14:59:33","新北市汐止區汐萬路一段170號","121.653075","25.07183","6501100","汐止區"
"241031","353-TW","2017/08/10 19:59:51","新北市汐止區福德一路176巷7弄2號","121.635106666667","25.066675","6500200","三重區"
"241031","488-VK","2017/08/10 11:01:54","新北市汐止區汐萬路一段256巷3號","121.652666666667","25.07449","6500200","三重區"
"241031","567-BX","2017/08/10 12:14:12","新北市汐止區汐萬路一段150號","121.652891666667","25.0712316666667","6500200","三重區"
"221035","622-UM","2017/08/10 19:59:51","新北市汐止區長江街39巷22號","121.65534","25.0720883333333","6501100","汐止區"
"221025","623-UM","2017/08/10 19:59:52","新北市汐止區秀峰路107號","121.660243333333","25.0633616666667","6501100","汐止區"
"241031","647-BX","2017/08/10 19:59:42","新北市汐止區東勢街190巷3號","121.633888333333","25.04161","6500200","三重區"
"221018","753-BX","2017/08/10 19:59:44","新北市汐止區茄苳路223號","121.67087","25.06878","6501100","汐止區"
"220079","145-BY","2017/08/10 19:59:44","新北市板橋區僑中一街124巷86-4號","121.447705","25.0183633333333","6500100","板橋區"
"220080","200-UY","2017/08/10 19:59:46","新北市板橋區大觀路二段55號","121.44673","25.0028183333333","6500100","板橋區"
"220082","610-BX","2017/08/10 19:59:51","新北市板橋區大觀路三段263號","121.429156666667","24.9921983333333","6500100","板橋區"
"241031","255-TC","2017/08/08 21:38:12","新北市板橋區民生路二段89-9號","121.47152","25.016955","6500200","三重區"
"220075","256-TC","2017/08/10 19:59:49","新北市板橋區金華街10巷48弄78-4號","121.460073333333","25.0203583333333","6500100","板橋區"
"220103","257-TC","2017/08/10 19:59:43","新北市板橋區自由路40號","121.465648333333","25.023235","6500100","板橋區"
"241031","258-TC","2017/08/10 11:14:08","新北市板橋區金門街369巷95號","121.430118333333","24.980865","6500200","三重區"
"220094","267-BY","2017/08/10 19:59:36","新北市板橋區漢生西路197-1號","121.463186666667","25.0244633333333","6500100","板橋區"
"220072","277-BY","2017/08/10 19:59:52","新北市板橋區金門街127巷18號","121.433751666667","24.99098","6500100","板橋區"
"241031","280-UM","2017/08/10 14:44:56","新北市板橋區民生路二段22號","121.472855","25.01666","6500200","三重區"
"241031","281-UM","2017/08/10 14:23:43","新北市板橋區大觀路二段435-10號","121.446045","24.9943416666667","6500200","三重區"
"220071","283-VK","2017/08/10 19:59:40","新北市板橋區五權街30巷14號","121.464255","24.9932533333333","6500100","板橋區"
"220101","285-UM","2017/08/10 19:59:36","新北市板橋區縣民大道三段33巷15號","121.473931666667","25.0211083333333","6500100","板橋區"
"220053","285-VK","2017/08/10 19:59:36","新北市板橋區永豐街43號","121.474361666667","25.0174766666667","6500100","板橋區"
"220083","286-VK","2017/08/10 19:59:41","新北市板橋區僑中二街10巷34號","121.445668333333","25.011195","6500100","板橋區"
"220081","287-VK","2017/08/10 19:59:54","新北市板橋區大觀路一段28巷107-1號","121.449901666667","25.0122066666667","6500100","板橋區"
"220090","288-VK","2017/08/10 19:59:40","新北市板橋區綠堤街53號","121.455303333333","25.02566","6500100","板橋區"
"220061","293-UM","2017/08/10 19:59:42","新北市板橋區觀光街17號","121.471501666667","25.01611","6500100","板橋區"
"220055","295-UM","2017/08/10 19:59:49","新北市板橋區國慶路149巷37弄4號","121.46074","24.9979983333333","6500100","板橋區"
"220084","296-UM","2017/08/10 19:59:51","新北市板橋區溪崑二街112巷2號","121.426396666667","24.98883","6500100","板橋區"
"220098","299-UM","2017/08/10 19:59:33","新北市板橋區漢生西路159號","121.463083333333","25.0233533333333","6500100","板橋區"
"241031","281-VK","2017/08/10 16:28:27","新北市新莊區環河路636-7號","121.437358333333","25.0112233333333","6500200","三重區"
"220062","305-R5","2017/08/10 19:59:54","新北市板橋區光復街33巷46號","121.482778333333","25.0188583333333","6500100","板橋區"
"220092","307-R5","2017/08/10 19:59:33","新北市板橋區四維路259巷57號","121.461213333333","25.02699","6500100","板橋區"
"241031","317-R6","2017/08/10 14:05:10","新北市板橋區民生路二段161巷3號","121.470131666667","25.0197433333333","6500200","三重區"
"220064","486-VK","2017/08/10 19:59:47","新北市板橋區館前東路112-1號","121.463375","25.0074166666667","6500100","板橋區"
"220089","487-VK","2017/08/10 19:59:36","新北市板橋區龍泉街55巷26號","121.45763","25.02516","6500100","板橋區"
"241031","280-VK","2017/08/10 16:21:14","新北市新莊區環河路636-7號","121.437401666667","25.0112466666667","6500200","三重區"
"220088","491-VK","2017/08/10 19:59:31","新北市板橋區文聖街64號","121.476795","25.0309583333333","6500100","板橋區"
"220035","560-BX","2017/08/10 19:59:49","新北市板橋區新生街87巷32號","121.456648333333","25.0221033333333","6500100","板橋區"
"220063","609-BX","2017/08/10 19:59:38","新北市板橋區中山路二段91號","121.47419","25.0160566666667","6500100","板橋區"
"220091","637-BX","2017/08/10 19:59:49","新北市板橋區文聖街101巷29號","121.478573333333","25.0298933333333","6500100","板橋區"
"220057","686-BX","2017/08/10 19:59:52","新北市板橋區廣和街71號","121.462653333333","24.9926416666667","6500100","板橋區"
"220093","689-BX","2017/08/10 19:59:34","新北市板橋區文化路二段560號","121.47645","25.03425","6500100","板橋區"
"220054","741-BX","2017/08/10 19:59:41","新北市板橋區忠孝路201巷62號","121.464901666667","25.0041383333333","6500100","板橋區"
"241031","755-RS","2017/08/10 11:00:36","新北市板橋區大觀路二段435-10號","121.445131666667","24.99451","6500200","三重區"
"241031","806-UM","2017/08/10 19:46:24","新北市板橋區華東街1-10號","121.44852","24.99479","6500200","三重區"
"220067","829-TW","2017/08/10 19:59:51","新北市板橋區長安街331巷93弄9號","121.47215","25.0123566666667","6500100","板橋區"
"220102","830-TW","2017/08/10 19:59:32","新北市板橋區文聖街58號","121.476671666667","25.03102","6500100","板橋區"
"241031","831-TW","2017/08/10 01:15:46","新北市板橋區民生路二段120號","121.470951666667","25.0199766666667","6500200","三重區"
"220074","895-R6","2017/08/10 19:59:34","新北市板橋區大東街24號","121.456568333333","25.0088533333333","6500100","板橋區"
"220073","985-R7","2017/08/10 19:59:51","新北市板橋區南雅西路二段198號","121.451745","25.0147266666667","6500100","板橋區"
"220097","AAC-210","2017/08/10 19:59:50","新北市板橋區光正街45巷17號","121.46175","25.0167","6500100","板橋區"
"220070","AAC-253","2017/08/10 19:59:41","新北市板橋區民族路83號","121.46566","25.0084533333333","6500100","板橋區"
