"lineid","car","time","location","longitude","latitude","cityid","cityname"
"234046","148-BY","2017/08/10 20:09:45","新北市永和區成功路二段3號","121.526861666667","25.0014233333333","6500400","永和區"
"234013","149-BY","2017/08/10 20:09:36","新北市永和區永貞路435號","121.506875","25.0098183333333","6500400","永和區"
"234007","207-UY","2017/08/10 20:09:33","新北市永和區保順路51巷6號","121.50281","25.0104766666667","6500400","永和區"
"241031","209-UY","2017/08/10 16:26:10","新北市永和區保順路33號","121.503793333333","25.0106366666667","6500200","三重區"
"234081","298-R6","2017/08/10 20:09:43","新北市永和區國中路101號","121.524243333333","25.0062366666667","6500400","永和區"
"234038","336-UY","2017/08/10 20:09:32","新北市永和區成功路一段93巷20弄7號","121.528353333333","25.0026033333333","6500400","永和區"
"234064","337-UY","2017/08/10 20:09:39","新北市永和區永利路85-1號","121.521448333333","25.0033233333333","6500400","永和區"
"234086","338-UY","2017/08/10 20:09:50","新北市永和區中正路533號","121.516871666667","25.0077766666667","6500400","永和區"
"241031","395-TH","2017/08/10 16:57:43","新北市永和區保生路55-8號","121.504021666667","25.0103966666667","6500200","三重區"
"234070","552-UM","2017/08/10 20:09:49","新北市永和區福和路258號","121.518295","25.007545","6500400","永和區"
"234054","553-UM","2017/08/10 20:09:52","新北市永和區博愛街31巷2號","121.518465","25.01585","6500400","永和區"
"241031","693-BX","2017/08/10 18:07:50","新北市永和區福和路1號","121.526551666667","25.0098016666667","6500200","三重區"
"241031","695-BX","2017/08/10 18:06:08","新北市永和區福和路1號","121.526623333333","25.01006","6500200","三重區"
"234017","745-BX","2017/08/10 20:09:49","新北市永和區文化路14號","121.515438333333","25.0150583333333","6500400","永和區"
"234030","746-BX","2017/08/10 20:09:41","新北市永和區民有街25巷6號","121.517323333333","24.996435","6500400","永和區"
"241031","838-RS","2017/08/10 20:09:40","新北市永和區保順路27號","121.503851666667","25.010435","6500200","三重區"
"241031","840-RS","2017/08/10 17:18:16","新北市永和區福和路1號","121.526316666667","25.0097566666667","6500200","三重區"
"241031","841-RS","2017/08/10 16:53:15","新北市永和區保生路55-8號","121.504106666667","25.01037","6500200","三重區"
"234061","AAD-866","2017/08/10 20:09:51","新北市永和區中正路283巷84號","121.515406666667","24.998935","6500400","永和區"
"241031","845-RS","2017/08/10 15:58:27","新北市永和區保順路27號","121.503881666667","25.0103166666667","6500200","三重區"
"234042","862-TW","2017/08/10 20:09:49","新北市永和區雙和街60號","121.50909","25.0034166666667","6500400","永和區"
"234050","863-TW","2017/08/10 20:09:48","新北市永和區環河西路二段89號","121.506668333333","25.01491","6500400","永和區"
"234026","9371-KE","2017/08/10 20:09:49","新北市永和區仁愛路352巷92弄2號","121.501175","25.0079016666667","6500400","永和區"
"249005","172-UM","2017/08/10 20:09:30","新北市八里區下罟子49-1號","121.38379","25.1375766666667","6502300","八里區"
"249001","173-UM","2017/08/10 20:09:46","新北市八里區中華路二段326號","121.403206666667","25.148015","6502300","八里區"
"249004","303-UY","2017/08/10 20:09:51","新北市八里區中山路一段189巷3號","121.411843333333","25.1581866666667","6502300","八里區"
"249002","305-UY","2017/08/10 20:09:43","新北市八里區龍米路一段30巷10號","121.457051666667","25.1171383333333","6502300","八里區"
"249003","593-UM","2017/08/10 20:09:45","新北市八里區中山路二段540巷3號","121.397121666667","25.1468616666667","6502300","八里區"
"248016","026-BX","2017/08/10 20:09:46","新北市五股區成泰路三段577巷80弄72號","121.448956666667","25.1047466666667","6501500","五股區"
"248020","225-UY","2017/08/10 20:09:35","新北市五股區凌雲路二段27號","121.440466666667","25.1022233333333","6501500","五股區"
"248012","247-BX","2017/08/10 20:09:42","新北市五股區民義路一段212號","121.430471666667","25.0894533333333","6501500","五股區"
"248014","261-SL","2017/08/10 20:09:31","新北市五股區五福路6巷19號","121.435318333333","25.0884816666667","6501500","五股區"
"248004","677-BX","2017/08/10 20:09:36","新北市五股區成泰路一段72-1號","121.435638333333","25.069935","6501500","五股區"
"248002","678-BX","2017/08/10 20:09:47","新北市五股區成泰路三段309號","121.44774","25.0947216666667","6501500","五股區"
"248010","682-TV","2017/08/10 20:09:42","新北市五股區成泰路一段7巷38號","121.432591666667","25.0670233333333","6501500","五股區"
"234023","9380-KE","2017/08/10 20:09:38","新北市永和區中正路627號","121.515608333333","25.0099566666667","6500400","永和區"
"234077","969-R7","2017/08/10 20:09:40","新北市永和區民享街23巷11號","121.516288333333","24.9952083333333","6500400","永和區"
"234074","AAC-211","2017/08/10 20:09:42","新北市永和區竹林路201巷22弄1號","121.522061666667","25.0093033333333","6500400","永和區"
"234067","AAC-212","2017/08/10 20:09:34","新北市永和區永貞路358號","121.510265","25.0065616666667","6500400","永和區"
"234003","AAC-295","2017/08/10 20:09:42","新北市永和區中正路620號","121.517046666667","25.0078633333333","6500400","永和區"
"241031","402-UM","2017/08/10 20:09:46","新北市林口區粉寮69號","121.405088333333","25.0909866666667","6500200","三重區"
"241031","656-BX","2017/08/10 16:42:27","新北市林口區粉寮路二段160巷30號","121.405605","25.0910016666667","6500200","三重區"
"241031","658-BX","2017/08/10 16:32:35","新北市林口區粉寮69號","121.404986666667","25.0909483333333","6500200","三重區"
"243013","AAD-798","2017/08/10 20:09:49","新北市泰山區明志路三段74巷23號","121.423893333333","25.04167","6501600","泰山區"
"243009","297-R6","2017/08/10 20:09:37","新北市泰山區泰林路二段116巷4弄3號","121.43529","25.0595216666667","6501600","泰山區"
"243015","380-SR","2017/08/10 20:09:33","新北市泰山區明志路一段384號","121.430761666667","25.0574416666667","6501600","泰山區"
"243014","421-VK","2017/08/10 20:09:41","新北市泰山區明志路一段133號","121.433431666667","25.0630483333333","6501600","泰山區"
"243010","548-UM","2017/08/10 20:09:40","新北市泰山區明志路二段136巷3-1號","121.427036666667","25.051035","6501600","泰山區"
"243011","549-UM","2017/08/10 20:09:37","新北市泰山區明志路三段531巷2號","121.421351666667","25.0297116666667","6501600","泰山區"
"243012","646-TV","2017/08/10 20:09:46","新北市泰山區楓江路58-5號","121.436208333333","25.0627266666667","6501600","泰山區"
"243016","680-BX","2017/08/10 20:09:52","新北市泰山區貴陽街4號","121.42146","25.0332416666667","6501600","泰山區"
"222003","436-BY","2017/08/10 20:09:39","新北市深坑區埔新街60號","121.62018","25.00248","6501800","深坑區"
"222002","659-BX","2017/08/10 20:09:36","新北市深坑區北深路三段22號","121.609283333333","25.0011416666667","6501800","深坑區"
"222001","696-SL","2017/08/10 20:09:40","新北市深坑區北深路三段183號","121.601381666667","25.003535","6501800","深坑區"
"231041","001-UM","2017/08/10 20:09:36","新北市新店區中正路468號","121.533983333333","24.9795816666667","6500600","新店區"
"231056","0291-UT","2017/08/10 20:09:44","新北市新店區明德路26巷4號","121.542158333333","24.977765","6500600","新店區"
"231059","046-UY","2017/08/10 20:09:35","新北市新店區安德街39號","121.511481666667","24.96249","6500600","新店區"
"231061","047-UY","2017/08/10 20:09:44","新北市新店區安興路35號","121.516206666667","24.9707616666667","6500600","新店區"
"231060","106-UY","2017/08/10 20:09:44","新北市新店區安康路三段42號","121.492945","24.9529416666667","6500600","新店區"
"231051","107-UY","2017/08/10 20:09:39","新北市新店區中央路236號","121.529245","24.9726166666667","6500600","新店區"
"231047","108-UY","2017/08/10 20:09:44","新北市新店區寶橋路59-1號","121.545205","24.9749516666667","6500600","新店區"
"231064","110-UY","2017/08/10 20:09:40","新北市新店區安康路二段118-5號","121.512348333333","24.9631966666667","6500600","新店區"
"231052","187-VK","2017/08/10 20:09:32","新北市新店區新烏路三段寶島巷2弄1號","121.55205","24.8986616666667","6500600","新店區"
"241031","188-VK","2017/08/10 02:22:50","新北市新店區安華路28-1號","121.51996","24.96133","6500200","三重區"
"241031","189-VK","2017/08/08 03:24:53","新北市新店區安華路28-1號","121.519805","24.9611233333333","6500200","三重區"
"231057","256-BX","2017/08/10 20:09:43","新北市新店區花園一路一段2號","121.553165","24.9323916666667","6500600","新店區"
"231063","268-BY","2017/08/10 20:09:32","新北市新店區黎明路66巷2號","121.502335","24.945605","6500600","新店區"
"231050","AAD-862","2017/08/10 20:09:33","新北市新店區中生路61號","121.56472","24.9522683333333","6500600","新店區"
"241031","355-BY","2017/08/10 15:21:46","新北市新店區安華路28-1號","121.519005","24.960955","6500200","三重區"
"231055","3713-VJ","2017/08/10 20:09:48","新北市新店區中華路42巷10號","121.540398333333","24.9685266666667","6500600","新店區"
"231067","4772-VM","2017/08/10 20:09:48","新北市新店區安康路一段35號","121.531635","24.9607716666667","6500600","新店區"
"231065","512-UM","2017/08/10 20:09:36","新北市新店區安祥路106巷327號","121.472481666667","24.9587266666667","6500600","新店區"
"231054","513-UM","2017/08/10 20:09:54","新北市新店區檳榔路40號","121.541588333333","24.9637516666667","6500600","新店區"
"241031","515-UM","2017/08/10 13:17:53","新北市新店區安華路28-1號","121.519566666667","24.9612016666667","6500200","三重區"
"231040","619-UM","2017/08/10 20:09:45","新北市新店區中正路106號","121.543066666667","24.97055","6500600","新店區"
"231042","641-BX","2017/08/10 20:09:42","新北市新店區中興路二段233號","121.547703333333","24.975045","6500600","新店區"
"231068","718-UY","2017/08/10 20:09:42","新北市新店區光明街181號","121.539726666667","24.9630816666667","6500600","新店區"
"231049","719-UM","2017/08/10 20:09:50","新北市新店區北新路二段171巷13號","121.542128333333","24.9763533333333","6500600","新店區"
"231062","720-UM","2017/08/10 20:09:51","新北市新店區安康路一段355-10號","121.520713333333","24.9639266666667","6500600","新店區"
"231044","897-TW","2017/08/10 20:09:49","新北市新店區寶慶街58巷6號","121.542138333333","24.9870316666667","6500600","新店區"
"231045","898-TW","2017/08/10 20:09:44","新北市新店區北宜路一段121-1號","121.540436666667","24.9538483333333","6500600","新店區"
"231043","899-TW","2017/08/10 20:09:54","新北市新店區民族路190號","121.536436666667","24.975615","6500600","新店區"
"231066","AKT-0513","2017/08/10 20:09:39","新北市新店區安民街121巷12號","121.51544","24.969195","6500600","新店區"
"241011","013-R5","2017/08/10 20:09:34","新北市三重區秀江街263號","121.495701666667","25.07155","6500200","三重區"
"241028","022-UY","2017/08/10 20:09:46","新北市三重區仁化街174號","121.494806666667","25.0570316666667","6500200","三重區"
"241008","059-VK","2017/08/10 20:09:53","新北市三重區永福街197巷35號","121.478278333333","25.0742933333333","6500200","三重區"
"241009","060-VK","2017/08/10 20:09:45","新北市三重區永福街62-4號","121.480866666667","25.077855","6500200","三重區"
"241031","061-VK","2017/08/10 20:09:37","新北市三重區過圳街9-1號","121.48877","25.0600766666667","6500200","三重區"
"241015","062-VK","2017/08/10 20:09:38","新北市三重區福德北路41號","121.50235","25.0648366666667","6500200","三重區"
"241017","063-VK","2017/08/10 20:09:41","新北市三重區自強路一段236號","121.493145","25.0669216666667","6500200","三重區"
"241024","065-VK","2017/08/10 20:09:50","新北市三重區中正北路294號","121.480136666667","25.0687966666667","6500200","三重區"
"241002","090-VK","2017/08/10 20:09:43","新北市三重區仁義街233號","121.496456666667","25.082345","6500200","三重區"
"241003","091-VK","2017/08/10 20:09:51","新北市三重區仁愛街423-3號","121.490175","25.081605","6500200","三重區"
"241006","156-TC","2017/08/10 20:09:50","新北市三重區力行路二段91巷1弄12號","121.483116666667","25.0758066666667","6500200","三重區"
"241005","262-UM","2017/08/10 20:09:49","新北市三重區溪尾街327號","121.488386666667","25.0848216666667","6500200","三重區"
"241025","265-UM","2017/08/10 20:09:34","新北市三重區中正北路428巷28號","121.474586666667","25.069825","6500200","三重區"
"241016","266-UM","2017/08/10 20:09:47","新北市三重區大同北路61號","121.495195","25.0633533333333","6500200","三重區"
"241022","267-UM","2017/08/10 20:09:50","新北市三重區新北大道一段50號","121.48759","25.0614833333333","6500200","三重區"
"241018","268-UM","2017/08/10 20:09:48","新北市三重區正義北路262號","121.495721666667","25.0685483333333","6500200","三重區"
"241032","269-UM","2017/08/10 20:09:52","新北市三重區捷運路73號","121.482846666667","25.055485","6500200","三重區"
"241013","270-UM","2017/08/10 20:09:46","新北市三重區三和路三段139巷35號","121.494098333333","25.0739833333333","6500200","三重區"
"241026","271-UM","2017/08/10 20:09:45","新北市三重區福德南路65巷2號","121.502505","25.060345","6500200","三重區"
"241007","398-BY","2017/08/10 20:09:43","新北市三重區仁美街50號","121.487108333333","25.0777533333333","6500200","三重區"
"241020","412-TH","2017/08/10 20:09:32","新北市三重區三和路三段170巷63號","121.490373333333","25.07264","6500200","三重區"
"241004","475-VK","2017/08/10 20:09:45","新北市三重區自強路四段112號","121.49167","25.08007","6500200","三重區"
"241019","478-VK","2017/08/10 20:09:45","新北市三重區大智街178號","121.491171666667","25.0699666666667","6500200","三重區"
"241030","480-VK","2017/08/10 20:09:46","新北市三重區成功路145巷35號","121.487833333333","25.0531616666667","6500200","三重區"
"241014","543-UM","2017/08/10 20:09:40","新北市三重區安和路39號","121.5011","25.069315","6500200","三重區"
"241023","545-UM","2017/08/10 20:09:45","新北市三重區頂崁街220巷2號","121.476976666667","25.0681","6500200","三重區"
"241001","547-UM","2017/08/10 20:09:37","新北市三重區溪尾街16號","121.491345","25.0754316666667","6500200","三重區"
"241035","743-BX","2017/08/10 20:09:38","新北市三重區平安街33號","121.498215","25.0642383333333","6500200","三重區"
"241029","887-TS","2017/08/10 20:09:39","新北市三重區光明路32巷9號","121.49181","25.0585816666667","6500200","三重區"
"241012","941-UM","2017/08/10 20:09:36","新北市三重區仁福街64巷30號","121.49753","25.0756016666667","6500200","三重區"
"241033","AAC-255","2017/08/10 20:09:50","新北市三重區光復路一段68巷8號","121.471583333333","25.0492916666667","6500200","三重區"
"235066","003-UY","2017/08/10 20:09:35","新北市中和區水源路127巷7號","121.50805","25.003595","6500300","中和區"
"235039","097-UM","2017/08/10 20:09:54","新北市中和區景平路278巷10號","121.514006666667","24.9928966666667","6500300","中和區"
"235065","098-UM","2017/08/10 20:09:32","新北市中和區福祥路85巷5號","121.498641666667","25.0057016666667","6500300","中和區"
"235040","150-BY","2017/08/10 20:09:32","新北市中和區保健路26巷19號","121.508586666667","24.9971733333333","6500300","中和區"
"235058","151-BY","2017/08/10 20:09:46","新北市中和區中正路657號","121.485048333333","24.9961916666667","6500300","中和區"
"235055","183-VK","2017/08/10 20:09:45","新北市中和區民生街23巷1弄1號","121.470821666667","25.005435","6500300","中和區"
"235038","185-VK","2017/08/10 20:09:34","新北市永和區民生路46巷50號","121.520893333333","24.9962933333333","6500300","中和區"
"235044","293-VK","2017/08/10 20:09:49","新北市中和區板南路187-1號","121.50086","24.99275","6500300","中和區"
"235072","301-VK","2017/08/10 20:09:46","新北市八里區商港路120號","121.392865","25.1500333333333","6500300","中和區"
"235051","376-QA","2017/08/10 20:09:34","新北市中和區復興路260號","121.503646666667","24.990435","6500300","中和區"
"235068","377-QA","2017/08/10 20:09:37","新北市中和區中山路二段276號","121.496605","25.0024566666667","6500300","中和區"
"241031","467-BY","2017/08/10 14:53:25","新北市中和區員山路36巷16-3號","121.484661666667","24.9915366666667","6500200","三重區"
"235050","4979-A6","2017/08/10 20:09:43","新北市中和區景新街290號","121.511156666667","24.9922133333333","6500300","中和區"
"235069","4980-A6","2017/08/10 20:09:48","新北市中和區景新街132巷8-4號","121.504586666667","24.99807","6500300","中和區"
"235042","551-UM","2017/08/10 20:09:40","新北市新店區安和路三段7號","121.51813","24.9804283333333","6500300","中和區"
"235070","558-UM","2017/08/10 20:09:42","新北市中和區圓通路140號","121.498301666667","24.99584","6500300","中和區"
"235054","640-BX","2017/08/10 20:09:40","新北市中和區莒光路11號","121.471948333333","25.0057333333333","6500300","中和區"
"235060","647-TV","2017/08/10 20:09:49","新北市中和區中正路1192號","121.48056","25.0102566666667","6500300","中和區"
"235046","733-UM","2017/08/10 20:09:40","新北市中和區忠孝街33號","121.510476666667","24.9832933333333","6500300","中和區"
"235041","802-TS","2017/08/10 20:09:41","新北市中和區中安街42號","121.513178333333","25.00271","6500300","中和區"
"235052","805-TS","2017/08/10 20:09:47","新北市中和區忠孝街37巷5號","121.510931666667","24.9834333333333","6500300","中和區"
"235048","896-TW","2017/08/10 20:09:48","新北市中和區景新街475號","121.51348","24.98781","6500300","中和區"
"235053","900-TW","2017/08/10 20:09:53","新北市中和區民德路246號","121.468086666667","24.99726","6500300","中和區"
"241031","157-BY","2017/08/10 12:11:08","新北市中和區員山路36巷13號","121.484098333333","24.99105","6500200","三重區"
"235037","AAC-213","2017/08/10 20:09:44","新北市中和區自立路99巷22弄27號","121.523331666667","24.9938133333333","6500300","中和區"
"235059","AAC-215","2017/08/10 20:09:48","新北市中和區圓通路335巷11號","121.493231666667","24.9894916666667","6500300","中和區"
"220068","013-TV","2017/08/10 20:09:41","新北市板橋區中山路二段318巷2弄2號","121.480371666667","25.019255","6500100","板橋區"
"220065","072-UY","2017/08/10 20:09:49","新北市板橋區中山路一段154巷25號","121.465441666667","25.0104883333333","6500100","板橋區"
"220106","075-UY","2017/08/10 20:09:47","新北市板橋區文化路二段548巷8弄15號","121.47621","25.0331083333333","6500100","板橋區"
"220069","AAD-861","2017/08/10 20:09:30","新北市板橋區大明街15巷9號","121.458711666667","25.00225","6500100","板橋區"
"220096","120-SR","2017/08/10 20:09:37","新北市板橋區莒光路79巷4號","121.472036666667","25.0243666666667","6500100","板橋區"
"247020","893-R6","2017/08/10 20:09:48","新北市蘆洲區民權路106巷5弄2-1號","121.474371666667","25.0891083333333","6501400","蘆洲區"
"247010","546-UM","2017/08/10 20:09:47","新北市蘆洲區集賢路378號","121.480431666667","25.0826983333333","6501400","蘆洲區"
"247018","500-BY","2017/08/10 20:09:41","新北市蘆洲區民族路267號","121.476188333333","25.09068","6501400","蘆洲區"
"247008","339-TH","2017/08/10 20:09:44","新北市蘆洲區集賢路300號","121.481455","25.0851783333333","6501400","蘆洲區"
"247024","337-TH","2017/08/10 20:09:50","新北市蘆洲區光明路102號","121.463386666667","25.087995","6501400","蘆洲區"
"247002","336-TH","2017/08/10 20:09:35","新北市蘆洲區永康街30號","121.458733333333","25.0856066666667","6501400","蘆洲區"
"241031","335-TH","2017/08/10 20:09:36","新北市蘆洲區中山二路266號","121.46906","25.0785616666667","6500200","三重區"
"247014","057-VK","2017/08/10 20:09:46","新北市蘆洲區中山二路224號","121.469746666667","25.079785","6501400","蘆洲區"
"247004","056-VK","2017/08/10 20:09:53","新北市蘆洲區永安南路二段328巷15弄8號","121.456366666667","25.0837216666667","6501400","蘆洲區"
"247022","053-VK","2017/08/10 20:09:52","新北市蘆洲區三民路173號","121.47104","25.0872866666667","6501400","蘆洲區"
"247012","007-UY","2017/08/10 20:09:38","新北市蘆洲區民族路236巷35號","121.480403333333","25.088685","6501400","蘆洲區"
"247016","001-UY","2017/08/10 20:09:32","新北市蘆洲區光華路150巷9號","121.465533333333","25.082765","6501400","蘆洲區"
"241031","092-VK","2017/08/10 17:19:15","新北市中和區員山路36巷2-1號","121.482561666667","24.990545","6500200","三重區"
"227004","642-TC","2017/08/10 20:09:46","新北市雙溪區魚行里新店58號","121.870208333333","25.032115","6502500","雙溪區"
"208003","665-BX","2017/08/10 20:09:49","新北市金山區永興里忠義路27號","121.631736666667","25.2610316666667","6502700","金山區"
"251009","008-UM","2017/08/10 20:09:41","新北市淡水區英專路32號","121.44562","25.1700633333333","6501000","淡水區"
"251004","009-UM","2017/08/10 20:09:31","新北市淡水區民族路31巷21-1號","121.461896666667","25.1365583333333","6501000","淡水區"
"241031","011-UM","2017/08/10 10:18:28","新北市淡水區中正路二段31號","121.41928","25.181835","6500200","三重區"
"251008","181-VK","2017/08/10 20:09:47","新北市淡水區沙崙路152巷17弄1號","121.424128333333","25.182165","6501000","淡水區"
"251014","182-VK","2017/08/10 20:09:32","新北市淡水區石頭厝3號","121.458661666667","25.235525","6501000","淡水區"
"251010","413-VK","2017/08/10 20:09:38","新北市淡水區新市二路二段108號","121.427963333333","25.195305","6501000","淡水區"
"251012","441-VK","2017/08/10 20:09:46","新北市淡水區淡金路三段224號","121.448945","25.204815","6501000","淡水區"
"251016","442-VK","2017/08/10 20:09:41","新北市淡水區番子田25-7號","121.456095","25.2308533333333","6501000","淡水區"
"251005","443-VK","2017/08/10 20:09:47","新北市淡水區學府路136巷41號","121.451985","25.1727133333333","6501000","淡水區"
"251001","559-UM","2017/08/10 20:09:35","新北市淡水區新市二路四段265號","121.445736666667","25.1924783333333","6501000","淡水區"
"251006","561-UM","2017/08/10 20:09:38","新北市淡水區北新路141巷60弄11號","121.44811","25.1796816666667","6501000","淡水區"
"251002","672-BX","2017/08/10 20:09:50","新北市淡水區中正路308號","121.437223333333","25.172405","6501000","淡水區"
"251003","766-UM","2017/08/10 20:09:50","新北市淡水區新市一路二段250號","121.443901666667","25.1829566666667","6501000","淡水區"
"207003","550-UM","2017/08/10 20:09:51","新北市萬里區大鵬里萬里加投166號","121.64339","25.2155566666667","6502800","萬里區"
"241031","225-TW","2017/08/10 20:09:49","新北市萬里區北基里愛二街1號","121.68226","25.1767533333333","6500200","三重區"
"252002","178-VK","2017/08/10 20:09:32","新北市三芝區三民街39巷5號","121.505431666667","25.257605","6502100","三芝區"
"252001","702-TV","2017/08/10 20:09:34","新北市三芝區公正街66號","121.499823333333","25.25748","6502100","三芝區"
"241031","361-BY","2017/08/10 15:19:40","新北市三峽區中山路459巷137號","121.349346666667","24.9335683333333","6500200","三重區"
"237007","153-BY","2017/08/10 20:09:48","新北市三峽區二鬮路136巷22弄17號","121.356788333333","24.9103566666667","6500900","三峽區"
"237009","210-TH","2017/08/10 20:09:32","新北市三峽區民族街28巷2-8號","121.36897","24.93068","6500900","三峽區"
"237012","275-BY","2017/08/10 20:09:46","新北市三峽區中華路76-1號","121.37104","24.9289866666667","6500900","三峽區"
"237008","302-VK","2017/08/10 20:09:32","新北市三峽區大同路209號","121.370716666667","24.927045","6500900","三峽區"
"241031","159-BY","2017/08/10 14:02:13","新北市三峽區中山路459巷163-3號","121.348958333333","24.9331083333333","6500200","三重區"
"237006","5529-G3","2017/08/10 20:09:35","新北市三峽區中正路二段269號","121.366303333333","24.91158","6500900","三峽區"
"241031","682-BX","2017/08/10 09:27:33","新北市三峽區中山路459巷163-3號","121.34871","24.933165","6500200","三重區"
"241031","756-BX","2017/08/10 10:11:06","新北市三峽區中山路459巷163-3號","121.348881666667","24.933085","6500200","三重區"
"241031","760-BX","2017/08/10 10:03:12","新北市三峽區中山路459巷163-3號","121.348863333333","24.9330466666667","6500200","三重區"
"237005","AKY-6261","2017/08/10 20:09:38","新北市三峽區三樹路98巷74弄91號","121.385086666667","24.9384583333333","6500900","三峽區"
"236071","105-UM","2017/08/10 20:09:51","新北市土城區中央路三段143號","121.433111666667","24.965455","6501300","土城區"
"236042","107-UM","2017/08/10 20:09:49","新北市土城區學成路22巷4號","121.453538333333","24.9872633333333","6501300","土城區"
"241031","138-TH","2017/08/10 15:54:30","新北市土城區永寧路36-1號","121.42807","24.9591616666667","6500200","三重區"
"236078","166-UM","2017/08/10 20:09:43","新北市土城區民族街32號","121.418735","24.9633916666667","6501300","土城區"
"236030","253-BX","2017/08/10 20:09:38","新北市土城區中央路一段118巷1弄1號","121.44615","24.98814","6501300","土城區"
"236026","269-VK","2017/08/10 20:09:50","新北市土城區裕生路71號","121.446981666667","24.98464","6501300","土城區"
"236014","270-VK","2017/08/10 20:09:35","新北市土城區德興街137號","121.455116666667","24.9916383333333","6501300","土城區"
"236037","271-VK","2017/08/10 20:09:36","新北市土城區延吉街296巷10號","121.46442","24.9846033333333","6501300","土城區"
"241031","370-SL","2017/08/10 14:40:22","新北市土城區永平街72號","121.427048333333","24.9591933333333","6500200","三重區"
"241031","371-SL","2017/08/10 14:58:02","新北市土城區永平街51號","121.427578333333","24.9591666666667","6500200","三重區"
"236021","401-BY","2017/08/10 20:09:33","新北市土城區延吉街137巷8號","121.470926666667","24.9857333333333","6501300","土城區"
"236058","912-UM","2017/08/10 20:09:37","新北市土城區中央路一段363號","121.443166666667","24.980955","6501300","土城區"
"236051","913-UM","2017/08/10 20:09:40","新北市土城區金城路三段27號","121.465345","24.9866133333333","6501300","土城區"
"236062","915-UM","2017/08/10 20:09:35","新北市土城區立德路135巷12號","121.464938333333","24.9869166666667","6501300","土城區"
"236053","AAC-216","2017/08/10 20:09:44","新北市土城區學成路21號","121.453016666667","24.9867766666667","6501300","土城區"
"242021","AAC-296","2017/08/10 20:09:34","新北市新莊區建中街46號","121.448528333333","25.0373616666667","6500500","新莊區"
"242029","986-R7","2017/08/10 20:09:53","新北市新莊區中平路380號","121.444693333333","25.0535366666667","6500500","新莊區"
"242048","751-BX","2017/08/10 20:09:49","新北市新莊區四維路152巷15號","121.422256666667","25.022995","6500500","新莊區"
"242025","615-BX","2017/08/10 20:09:51","新北市新莊區五權一路12巷25弄19號","121.458593333333","25.06468","6500500","新莊區"
"242023","613-BX","2017/08/10 20:09:46","新北市新莊區化成路548號","121.466228333333","25.053705","6500500","新莊區"
"242027","612-BX","2017/08/10 20:09:43","新北市新莊區幸福路795號","121.44635","25.0490483333333","6500500","新莊區"
"242036","566-BX","2017/08/10 20:09:46","新北市新莊區後港一路130巷29號","121.429876666667","25.0261866666667","6500500","新莊區"
"242042","497-BY","2017/08/10 20:09:41","新北市新莊區青山路一段200-3號","121.397993333333","25.0316616666667","6500500","新莊區"
"242004","442-UM","2017/08/10 20:09:53","新北市新莊區中原東路99號","121.461833333333","25.053765","6500500","新莊區"
"242046","441-UM","2017/08/10 20:09:39","新北市新莊區裕民街85巷11號","121.419178333333","25.0234033333333","6500500","新莊區"
"242051","440-UM","2017/08/10 20:09:44","新北市新莊區民安西路191號","121.426093333333","25.0155166666667","6500500","新莊區"
"242031","415-TV","2017/08/10 20:09:40","新北市新莊區中正路360號","121.443616666667","25.0343716666667","6500500","新莊區"
"242002","413-TV","2017/08/10 20:09:35","新北市新莊區中正路55-4號","121.461853333333","25.039625","6500500","新莊區"
"242039","400-BY","2017/08/10 20:09:50","新北市新莊區民安西路112號","121.4269","25.01873","6500500","新莊區"
"242061","362-BY","2017/08/10 20:09:44","新北市新莊區瓊林路59-77號","121.44402","25.0271533333333","6500500","新莊區"
"242058","353-BY","2017/08/10 20:09:37","新北市新莊區八德街169號","121.423336666667","25.0190683333333","6500500","新莊區"
"242019","135-UY","2017/08/10 20:09:39","新北市新莊區民樂街66號","121.458323333333","25.0422866666667","6500500","新莊區"
"242044","172-VK","2017/08/10 20:09:48","新北市新莊區中正路929巷7弄12號","121.411335","25.0203766666667","6500500","新莊區"
"242007","173-VK","2017/08/10 20:09:50","新北市新莊區思源路419巷1弄2號","121.459206666667","25.0522716666667","6500500","新莊區"
"242013","175-VK","2017/08/10 20:09:39","新北市新莊區幸福路670巷5號","121.45086","25.049675","6500500","新莊區"
"242056","176-VK","2017/08/10 20:09:53","新北市新莊區新莊路649巷15弄3號","121.44512","25.0315116666667","6500500","新莊區"
"241031","233-RS","2017/08/10 17:02:20","新北市新莊區環河路48-7號","121.436883333333","25.0098016666667","6500200","三重區"
"242011","346-TH","2017/08/10 20:09:32","新北市新莊區中信街67巷4號","121.448686666667","25.050875","6500500","新莊區"
"242034","347-TH","2017/08/10 20:09:45","新北市新莊區建中街81巷10弄14號","121.44669","25.0359216666667","6500500","新莊區"
"242017","348-TH","2017/08/10 20:09:38","新北市新莊區中港路352號","121.451811666667","25.0466633333333","6500500","新莊區"
"242053","349-TH","2017/08/10 20:09:42","新北市新莊區西盛街387巷11號","121.428481666667","25.01308","6500500","新莊區"
"242015","350-TH","2017/08/10 20:09:52","新北市新莊區中平路26巷25號","121.44626","25.043315","6500500","新莊區"
"242009","351-TH","2017/08/10 20:09:45","新北市新莊區昌盛街4號","121.453131666667","25.0498666666667","6500500","新莊區"
"238023","601-UM","2017/08/10 20:09:48","新北市樹林區文化街120巷5號","121.416013333333","24.9899133333333","6500700","樹林區"
"238021","311-TH","2017/08/10 20:09:39","新北市樹林區佳園路三段181巷99號","121.39143","24.9483966666667","6500700","樹林區"
"241031","308-TH","2017/08/10 13:29:37","新北市樹林區育德街76巷1號","121.388788333333","24.9683166666667","6500200","三重區"
"221008","489-VK","2017/08/10 20:09:48","台北市內湖區康樂街235號","121.623235","25.0782583333333","6501100","汐止區"
"221036","130-UY","2017/08/10 20:09:33","新北市汐止區新台五路二段112號","121.662755","25.0660833333333","6501100","汐止區"
"221015","131-UY","2017/08/10 20:09:45","新北市汐止區建成路17號","121.66448","25.0725783333333","6501100","汐止區"
"221010","269-BY","2017/08/10 20:09:31","新北市汐止區八連路一段179號","121.64236","25.0792666666667","6501100","汐止區"
"241031","276-VK","2017/08/10 13:21:16","新北市汐止區汐萬路一段256巷3號","121.653435","25.074645","6500200","三重區"
"241031","277-VK","2017/08/10 15:32:15","新北市汐止區汐萬路一段256巷3號","121.65252","25.07464","6500200","三重區"
"241031","278-VK","2017/08/10 20:09:36","新北市汐止區汐平路一段182號","121.690628333333","25.0662666666667","6500200","三重區"
"221023","279-VK","2017/08/10 03:05:54","新北市汐止區康寧街901號","121.651703333333","25.07495","6501100","汐止區"
"241031","280-BY","2017/08/10 20:09:43","新北市汐止區弘道街22-1號","121.6174","25.048695","6500200","三重區"
"221027","281-BY","2017/08/10 20:09:43","新北市汐止區中正路115號","121.660473333333","25.069395","6501100","汐止區"
"241031","297-VK","2017/08/10 20:09:45","新北市汐止區忠孝東路528號","121.667045","25.0763116666667","6500200","三重區"
"221029","298-VK","2017/08/10 20:09:39","新北市汐止區樟樹一路119巷8-5號","121.641363333333","25.0644433333333","6501100","汐止區"
"221021","299-VK","2017/08/10 14:59:33","新北市汐止區汐萬路一段170號","121.653075","25.07183","6501100","汐止區"
"241031","353-TW","2017/08/10 20:09:51","新北市汐止區中興路214巷1號","121.631181666667","25.0664483333333","6500200","三重區"
"241031","488-VK","2017/08/10 11:01:54","新北市汐止區汐萬路一段256巷3號","121.652666666667","25.07449","6500200","三重區"
"241031","567-BX","2017/08/10 12:14:12","新北市汐止區汐萬路一段150號","121.652891666667","25.0712316666667","6500200","三重區"
"221035","622-UM","2017/08/10 20:09:31","新北市汐止區長江街57巷22號","121.655965","25.0722083333333","6501100","汐止區"
"221025","623-UM","2017/08/10 20:09:52","新北市汐止區仁愛路1-6號","121.659188333333","25.0646916666667","6501100","汐止區"
"241031","647-BX","2017/08/10 20:09:42","新北市汐止區東勢街201巷104號","121.633528333333","25.0428916666667","6500200","三重區"
"221018","753-BX","2017/08/10 20:09:35","新北市汐止區茄福街29號","121.672316666667","25.0666383333333","6501100","汐止區"
"220080","200-UY","2017/08/10 20:09:46","新北市板橋區大觀路二段163巷1號","121.445676666667","25.0004166666667","6500100","板橋區"
"220082","610-BX","2017/08/10 20:09:51","新北市板橋區篤行路二段8-3號","121.431751666667","24.9928766666667","6500100","板橋區"
"241031","255-TC","2017/08/08 21:38:12","新北市板橋區民生路二段89-9號","121.47152","25.016955","6500200","三重區"
"220103","257-TC","2017/08/10 20:09:43","新北市板橋區雨農路16號","121.462078333333","25.02483","6500100","板橋區"
"241031","258-TC","2017/08/10 11:14:08","新北市板橋區金門街369巷95號","121.430118333333","24.980865","6500200","三重區"
"220072","277-BY","2017/08/10 20:09:52","新北市板橋區金門街121巷60號","121.434235","24.9912266666667","6500100","板橋區"
"241031","280-UM","2017/08/10 14:44:56","新北市板橋區民生路二段22號","121.472855","25.01666","6500200","三重區"
"241031","281-UM","2017/08/10 14:23:43","新北市板橋區大觀路二段435-10號","121.446045","24.9943416666667","6500200","三重區"
"220071","283-VK","2017/08/10 20:09:40","新北市中和區和平路200巷21號","121.464705","24.9949283333333","6500100","板橋區"
"220101","285-UM","2017/08/10 20:09:36","新北市板橋區莒光路171巷1弄18-4號","121.474523333333","25.0246633333333","6500100","板橋區"
"220083","286-VK","2017/08/10 20:09:41","新北市板橋區僑中二街88巷1號","121.446396666667","25.0094016666667","6500100","板橋區"
"220081","287-VK","2017/08/10 20:09:34","新北市板橋區僑中一街124巷20弄35號","121.447593333333","25.01392","6500100","板橋區"
"220090","288-VK","2017/08/10 20:09:40","新北市板橋區幸福路32巷54號","121.460375","25.0221816666667","6500100","板橋區"
"220061","293-UM","2017/08/10 20:09:43","新北市板橋區縣民大道二段200巷17號","121.470203333333","25.0174683333333","6500100","板橋區"
"220055","295-UM","2017/08/10 20:09:49","新北市板橋區仁愛路76巷1弄2號","121.46054","24.999425","6500100","板橋區"
"220098","299-UM","2017/08/10 20:09:53","新北市板橋區新海路72巷5弄19號","121.46167","25.0227416666667","6500100","板橋區"
"241031","281-VK","2017/08/10 16:28:27","新北市新莊區環河路636-7號","121.437358333333","25.0112233333333","6500200","三重區"
"220062","305-R5","2017/08/10 20:09:51","新北市板橋區中山路二段613號","121.48531","25.0224783333333","6500100","板橋區"
"220092","307-R5","2017/08/10 20:09:41","新北市板橋區文化路一段71-1號","121.460828333333","25.0140166666667","6500100","板橋區"
"241031","317-R6","2017/08/10 14:05:10","新北市板橋區民生路二段161巷3號","121.470131666667","25.0197433333333","6500200","三重區"
"220064","486-VK","2017/08/10 20:09:36","新北市板橋區長安街331巷86號","121.472285","25.0129016666667","6500100","板橋區"
"220089","487-VK","2017/08/10 20:09:52","新北市板橋區互助街71號","121.460353333333","25.0261383333333","6500100","板橋區"
"241031","280-VK","2017/08/10 16:21:14","新北市新莊區環河路636-7號","121.437401666667","25.0112466666667","6500200","三重區"
"220088","491-VK","2017/08/10 20:09:52","新北市板橋區懷德街189-1號","121.479825","25.029595","6500100","板橋區"
"220035","560-BX","2017/08/10 20:09:28","新北市板橋區新生街51號","121.457253333333","25.020985","6500100","板橋區"
"220057","686-BX","2017/08/10 20:09:45","新北市板橋區四川路二段2號","121.456608333333","24.9965766666667","6500100","板橋區"
"220093","689-BX","2017/08/10 20:09:34","新北市板橋區民生路三段252號","121.464395","25.0311566666667","6500100","板橋區"
"241031","755-RS","2017/08/10 11:00:36","新北市板橋區大觀路二段435-10號","121.445131666667","24.99451","6500200","三重區"
"241031","806-UM","2017/08/10 19:46:24","新北市板橋區華東街1-10號","121.44852","24.99479","6500200","三重區"
"220067","829-TW","2017/08/10 20:09:51","新北市板橋區中山路一段206巷89號","121.47189","25.0132766666667","6500100","板橋區"
"220102","830-TW","2017/08/10 20:09:52","新北市板橋區文聖街107號","121.477856666667","25.0293983333333","6500100","板橋區"
"241031","831-TW","2017/08/10 01:15:46","新北市板橋區民生路二段120號","121.470951666667","25.0199766666667","6500200","三重區"
"220074","895-R6","2017/08/10 20:09:53","新北市板橋區明德街22號","121.460095","25.0107333333333","6500100","板橋區"
"220073","985-R7","2017/08/10 20:09:50","新北市板橋區館前西路275號","121.452368333333","25.0084983333333","6500100","板橋區"
"220097","AAC-210","2017/08/10 20:09:30","新北市板橋區光正街18巷7號","121.462571666667","25.0175283333333","6500100","板橋區"
"220070","AAC-253","2017/08/10 20:09:41","新北市板橋區四川路一段131號","121.459836666667","25.0046666666667","6500100","板橋區"
