"lineid","car","time","location","longitude","latitude","cityid","cityname"
"241031","209-UY","2017/08/10 16:26:10","新北市永和區保順路33號","121.503793333333","25.0106366666667","6500200","三重區"
"241031","395-TH","2017/08/10 16:57:43","新北市永和區保生路55-8號","121.504021666667","25.0103966666667","6500200","三重區"
"241031","693-BX","2017/08/10 18:07:50","新北市永和區福和路1號","121.526551666667","25.0098016666667","6500200","三重區"
"241031","695-BX","2017/08/10 18:06:08","新北市永和區福和路1號","121.526623333333","25.01006","6500200","三重區"
"234017","745-BX","2017/08/10 21:18:29","新北市林口區太平里180號","121.368195","25.1343066666667","6500400","永和區"
"241031","838-RS","2017/08/10 20:10:30","新北市永和區保順路27號","121.503848333333","25.0104383333333","6500200","三重區"
"241031","840-RS","2017/08/10 17:18:16","新北市永和區福和路1號","121.526316666667","25.0097566666667","6500200","三重區"
"241031","841-RS","2017/08/10 16:53:15","新北市永和區保生路55-8號","121.504106666667","25.01037","6500200","三重區"
"241031","845-RS","2017/08/10 15:58:27","新北市永和區保順路27號","121.503881666667","25.0103166666667","6500200","三重區"
"241031","402-UM","2017/08/10 20:12:11","新北市林口區粉寮69號","121.405098333333","25.0909883333333","6500200","三重區"
"241031","656-BX","2017/08/10 16:42:27","新北市林口區粉寮路二段160巷30號","121.405605","25.0910016666667","6500200","三重區"
"241031","658-BX","2017/08/10 16:32:35","新北市林口區粉寮69號","121.404986666667","25.0909483333333","6500200","三重區"
"231059","046-UY","2017/08/10 21:19:35","新北市新店區安華路8號","121.519793333333","24.9616283333333","6500600","新店區"
"231061","047-UY","2017/08/10 21:19:44","新北市新店區溪園路379號","121.52305","24.9796933333333","6500600","新店區"
"231051","107-UY","2017/08/10 21:19:39","新北市新店區中正路700巷79號","121.536008333333","24.9933266666667","6500600","新店區"
"231047","108-UY","2017/08/10 21:19:44","新北市新店區中央路98-1號","121.531566666667","24.9756733333333","6500600","新店區"
"231064","110-UY","2017/08/10 21:19:40","新北市土城區延吉街111巷12弄15-5號","121.473751666667","24.9844616666667","6500600","新店區"
"241031","188-VK","2017/08/10 02:22:50","新北市新店區安華路28-1號","121.51996","24.96133","6500200","三重區"
"241031","189-VK","2017/08/08 03:24:53","新北市新店區安華路28-1號","121.519805","24.9611233333333","6500200","三重區"
"231063","268-BY","2017/08/10 21:19:32","新北市新店區玫瑰路57巷32號","121.496838333333","24.9463233333333","6500600","新店區"
"231050","AAD-862","2017/08/10 21:19:53","新北市新店區中華路117巷6弄2號","121.537826666667","24.968805","6500600","新店區"
"241031","355-BY","2017/08/10 15:21:46","新北市新店區安華路28-1號","121.519005","24.960955","6500200","三重區"
"231067","4772-VM","2017/08/10 21:19:48","新北市新店區薏仁坑路自強巷6號","121.496628333333","24.9584466666667","6500600","新店區"
"231065","512-UM","2017/08/10 21:19:36","新北市新店區車子路18-1號","121.506436666667","24.9544516666667","6500600","新店區"
"241031","515-UM","2017/08/10 13:17:53","新北市新店區安華路28-1號","121.519566666667","24.9612016666667","6500200","三重區"
"231040","619-UM","2017/08/10 21:19:45","新北市新店區光明街310號","121.540576666667","24.9650416666667","6500600","新店區"
"241011","013-R5","2017/08/10 21:19:34","新北市三重區龍濱路197號","121.50183","25.071415","6500200","三重區"
"241028","022-UY","2017/08/10 21:19:46","新北市三重區同安東街82號","121.49902","25.0575233333333","6500200","三重區"
"241008","059-VK","2017/08/10 21:19:53","新北市三重區自強路一段60號","121.497398333333","25.066755","6500200","三重區"
"241009","060-VK","2017/08/10 21:19:45","新北市三重區洛陽街41號","121.482223333333","25.0631316666667","6500200","三重區"
"241031","061-VK","2017/08/10 21:19:37","新北市三重區重新路五段408巷19號","121.475768333333","25.04555","6500200","三重區"
"241017","063-VK","2017/08/10 21:19:41","新北市三重區中正北路25巷25弄3號","121.493298333333","25.062685","6500200","三重區"
"241024","065-VK","2017/08/10 21:19:50","新北市三重區中正北路115巷6號","121.4841","25.06773","6500200","三重區"
"241002","090-VK","2017/08/10 21:19:43","新北市三重區五華街60號","121.494135","25.0813683333333","6500200","三重區"
"241003","091-VK","2017/08/10 21:19:51","新北市三重區仁義街220巷1號","121.495291666667","25.084215","6500200","三重區"
"241005","262-UM","2017/08/10 21:19:49","新北市三重區集英路78號","121.485851666667","25.0856283333333","6500200","三重區"
"241025","265-UM","2017/08/10 21:19:39","新北市三重區忠孝路三段40巷6-6號","121.481951666667","25.067015","6500200","三重區"
"241016","266-UM","2017/08/10 21:19:47","新北市三重區自強路一段99號","121.49582","25.0663066666667","6500200","三重區"
"241018","268-UM","2017/08/10 21:19:44","新北市三重區忠孝路二段34號","121.485891666667","25.0710016666667","6500200","三重區"
"241032","269-UM","2017/08/10 21:19:32","新北市三重區光復路二段73號","121.47225","25.05686","6500200","三重區"
"241013","270-UM","2017/08/10 21:19:46","新北市三重區仁愛街81號","121.495901666667","25.073065","6500200","三重區"
"241026","271-UM","2017/08/10 21:19:45","新北市三重區大同南路232號","121.496703333333","25.05615","6500200","三重區"
"241007","398-BY","2017/08/10 21:19:43","新北市三重區自強路三段47號","121.48686","25.07295","6500200","三重區"
"241004","475-VK","2017/08/10 21:19:45","新北市三重區仁愛街458巷13號","121.489506666667","25.0819266666667","6500200","三重區"
"241019","478-VK","2017/08/10 21:19:44","新北市三重區重陽路三段192-3號","121.490261666667","25.0687383333333","6500200","三重區"
"241030","480-VK","2017/08/10 21:19:46","新北市三重區五谷王北街83號","121.475853333333","25.0509716666667","6500200","三重區"
"241014","543-UM","2017/08/10 21:18:40","新北市三重區安和路111號","121.500733333333","25.0702083333333","6500200","三重區"
"241023","545-UM","2017/08/10 21:19:45","新北市三重區中正北路176巷27號","121.482608333333","25.065955","6500200","三重區"
"241012","941-UM","2017/08/10 21:19:36","新北市三重區龍門路284號","121.501966666667","25.0741366666667","6500200","三重區"
"241033","AAC-255","2017/08/10 21:19:44","新北市三重區光復路二段102巷23號","121.470396666667","25.0579816666667","6500200","三重區"
"241031","467-BY","2017/08/10 14:53:25","新北市中和區員山路36巷16-3號","121.484661666667","24.9915366666667","6500200","三重區"
"235026","800-TS","2017/08/10 20:56:42","新北市中和區員山路36巷16-3號","121.484888333333","24.9917016666667","6500300","中和區"
"241031","157-BY","2017/08/10 12:11:08","新北市中和區員山路36巷13號","121.484098333333","24.99105","6500200","三重區"
"247020","893-R6","2017/08/10 21:19:48","新北市蘆洲區民族路422巷82弄19號","121.474135","25.095265","6501400","蘆洲區"
"247010","546-UM","2017/08/10 21:19:39","新北市蘆洲區鷺江街23號","121.478845","25.0824516666667","6501400","蘆洲區"
"247018","500-BY","2017/08/10 21:19:40","新北市蘆洲區復興路105巷11號","121.47639","25.088345","6501400","蘆洲區"
"247008","339-TH","2017/08/10 21:19:44","新北市蘆洲區信義路73巷17號","121.475916666667","25.0808433333333","6501400","蘆洲區"
"247024","337-TH","2017/08/10 21:19:50","新北市蘆洲區光明路112號","121.463605","25.0881316666667","6501400","蘆洲區"
"247002","336-TH","2017/08/10 21:19:55","新北市蘆洲區永樂街33-1號","121.457896666667","25.088305","6501400","蘆洲區"
"247006","335-TH","2017/08/10 21:19:36","新北市蘆洲區長安街91號","121.462006666667","25.0803816666667","6501400","蘆洲區"
"247014","057-VK","2017/08/10 21:19:46","新北市蘆洲區保和街45號","121.470188333333","25.0862633333333","6501400","蘆洲區"
"247004","056-VK","2017/08/10 21:19:32","新北市蘆洲區永安南路二段320號","121.457041666667","25.0826466666667","6501400","蘆洲區"
"247022","053-VK","2017/08/10 21:19:52","新北市蘆洲區三民路247號","121.468791666667","25.0890466666667","6501400","蘆洲區"
"247012","007-UY","2017/08/10 21:19:37","新北市蘆洲區中興街114號","121.482298333333","25.0888716666667","6501400","蘆洲區"
"247016","001-UY","2017/08/10 21:19:32","新北市蘆洲區長興路50巷31號","121.464346666667","25.0843033333333","6501400","蘆洲區"
"241031","092-VK","2017/08/10 17:19:15","新北市中和區員山路36巷2-1號","121.482561666667","24.990545","6500200","三重區"
"251009","008-UM","2017/08/10 21:19:49","新北市淡水區民族路98號","121.462663333333","25.1354566666667","6501000","淡水區"
"251004","009-UM","2017/08/10 21:19:31","新北市淡水區民族路33號","121.462301666667","25.135765","6501000","淡水區"
"241031","011-UM","2017/08/10 10:18:28","新北市淡水區中正路二段31號","121.41928","25.181835","6500200","三重區"
"251008","181-VK","2017/08/10 21:19:47","新北市淡水區水源街二段228號","121.460301666667","25.1763783333333","6501000","淡水區"
"251014","182-VK","2017/08/10 21:19:52","新北市淡水區六塊厝3-2號","121.450491666667","25.2405916666667","6501000","淡水區"
"251010","413-VK","2017/08/10 21:19:37","新北市淡水區中正路一段156巷12號","121.421853333333","25.18081","6501000","淡水區"
"251012","441-VK","2017/08/10 21:19:44","新北市淡水區石頭埔8號","121.452625","25.2345133333333","6501000","淡水區"
"251016","442-VK","2017/08/10 21:19:41","新北市淡水區前洲子6-1號","121.442671666667","25.2190483333333","6501000","淡水區"
"251005","443-VK","2017/08/10 21:19:47","新北市淡水區英專路42-4號","121.445986666667","25.1703116666667","6501000","淡水區"
"251001","559-UM","2017/08/10 21:19:35","新北市淡水區中山北路二段191號","121.444306666667","25.1853816666667","6501000","淡水區"
"251011","650-BX","2017/08/10 21:19:48","新北市淡水區新民街152巷6弄22號","121.438831666667","25.178785","6501000","淡水區"
"251002","672-BX","2017/08/10 21:19:50","新北市淡水區學府路172巷21號","121.448296666667","25.17486","6501000","淡水區"
"251003","766-UM","2017/08/10 21:19:50","新北市淡水區新春街85巷25弄6號","121.438558333333","25.1839383333333","6501000","淡水區"
"241031","361-BY","2017/08/10 15:19:40","新北市三峽區中山路459巷137號","121.349346666667","24.9335683333333","6500200","三重區"
"237007","153-BY","2017/08/10 21:19:48","新北市三峽區中山路459巷163-3號","121.348823333333","24.9331683333333","6500900","三峽區"
"241031","159-BY","2017/08/10 14:02:13","新北市三峽區中山路459巷163-3號","121.348958333333","24.9331083333333","6500200","三重區"
"241031","682-BX","2017/08/10 09:27:33","新北市三峽區中山路459巷163-3號","121.34871","24.933165","6500200","三重區"
"241031","756-BX","2017/08/10 10:11:06","新北市三峽區中山路459巷163-3號","121.348881666667","24.933085","6500200","三重區"
"241031","760-BX","2017/08/10 10:03:12","新北市三峽區中山路459巷163-3號","121.348863333333","24.9330466666667","6500200","三重區"
"241031","138-TH","2017/08/10 15:54:30","新北市土城區永寧路36-1號","121.42807","24.9591616666667","6500200","三重區"
"241031","370-SL","2017/08/10 14:40:22","新北市土城區永平街72號","121.427048333333","24.9591933333333","6500200","三重區"
"241031","371-SL","2017/08/10 14:58:02","新北市土城區永平街51號","121.427578333333","24.9591666666667","6500200","三重區"
"241031","233-RS","2017/08/10 21:19:49","新北市新莊區環河路48-7號","121.436938333333","25.0097916666667","6500200","三重區"
"241031","308-TH","2017/08/10 13:29:37","新北市樹林區育德街76巷1號","121.388788333333","24.9683166666667","6500200","三重區"
"241031","276-VK","2017/08/10 13:21:16","新北市汐止區汐萬路一段256巷3號","121.653435","25.074645","6500200","三重區"
"241031","277-VK","2017/08/10 15:32:15","新北市汐止區汐萬路一段256巷3號","121.65252","25.07464","6500200","三重區"
"241031","488-VK","2017/08/10 11:01:54","新北市汐止區汐萬路一段256巷3號","121.652666666667","25.07449","6500200","三重區"
"241031","567-BX","2017/08/10 12:14:12","新北市汐止區汐萬路一段150號","121.652891666667","25.0712316666667","6500200","三重區"
"241031","255-TC","2017/08/08 21:38:12","新北市板橋區民生路二段89-9號","121.47152","25.016955","6500200","三重區"
"241031","258-TC","2017/08/10 11:14:08","新北市板橋區金門街369巷95號","121.430118333333","24.980865","6500200","三重區"
"241031","280-UM","2017/08/10 14:44:56","新北市板橋區民生路二段22號","121.472855","25.01666","6500200","三重區"
"241031","281-UM","2017/08/10 14:23:43","新北市板橋區大觀路二段435-10號","121.446045","24.9943416666667","6500200","三重區"
"241031","281-VK","2017/08/10 16:28:27","新北市新莊區環河路636-7號","121.437358333333","25.0112233333333","6500200","三重區"
"241031","317-R6","2017/08/10 14:05:10","新北市板橋區民生路二段161巷3號","121.470131666667","25.0197433333333","6500200","三重區"
"241031","280-VK","2017/08/10 16:21:14","新北市新莊區環河路636-7號","121.437401666667","25.0112466666667","6500200","三重區"
"241031","755-RS","2017/08/10 11:00:36","新北市板橋區大觀路二段435-10號","121.445131666667","24.99451","6500200","三重區"
"241031","806-UM","2017/08/10 20:40:11","新北市板橋區華東街1-10號","121.44847","24.9950683333333","6500200","三重區"
"241031","831-TW","2017/08/10 01:15:46","新北市板橋區民生路二段120號","121.470951666667","25.0199766666667","6500200","三重區"
"220070","AAC-253","2017/08/10 21:19:41","新北市林口區太平里180號","121.36656","25.1345733333333","6500100","板橋區"
