"lineid","car","time","location","longitude","latitude","cityid","cityname"
"235031","255-BX","2017/08/20 15:06:16","新北市中和區員山路36巷13號","121.484211666667","24.9915733333333","6500300","中和區"
"251013","179-VK","2017/08/20 17:09:21","新北市淡水區桂花樹1號","121.48286","25.196635","6501000","淡水區"
"251014","180-VK","2017/08/20 17:09:24","新北市淡水區八里堆9-6號","121.46536","25.2245316666667","6501000","淡水區"
"251015","182-VK","2017/08/20 17:09:13","新北市淡水區鄧公路46號","121.458821666667","25.1687916666667","6501000","淡水區"
"251016","442-VK","2017/08/20 17:09:12","新北市淡水區泉洲厝1-2號","121.480475","25.188155","6501000","淡水區"
"221012","278-VK","2017/08/20 13:20:09","新北市汐止區汐萬路一段256巷1號","121.651826666667","25.0749066666667","6501100","汐止區"
