"lineid","car","time","location","longitude","latitude","cityid","cityname"
"235031","255-BX","2017/08/20 15:06:16","新北市中和區員山路36巷13號","121.484211666667","24.9915733333333","6500300","中和區"
"251013","179-VK","2017/08/20 17:49:24","新北市淡水區泉洲厝30號","121.479703333333","25.190935","6501000","淡水區"
"251014","180-VK","2017/08/20 17:49:24","新北市淡水區公埔子16-6號","121.481023333333","25.2244933333333","6501000","淡水區"
"251015","182-VK","2017/08/20 17:49:13","新北市淡水區興福寮28-1號","121.492011666667","25.1637083333333","6501000","淡水區"
"251016","442-VK","2017/08/20 17:49:12","新北市淡水區埤島38號","121.45057","25.1963233333333","6501000","淡水區"
"221012","278-VK","2017/08/20 13:20:09","新北市汐止區汐萬路一段256巷1號","121.651826666667","25.0749066666667","6501100","汐止區"
