"lineid","car","time","location","longitude","latitude","cityid","cityname"
"235031","255-BX","2017/08/20 15:06:16","新北市中和區員山路36巷13號","121.484211666667","24.9915733333333","6500300","中和區"
"224011","AGQ-8101","2017/08/20 13:23:37","新北市瑞芳區民權街3-1號","121.809408333333","25.1082483333333","6501200","瑞芳區"
"251013","179-VK","2017/08/20 18:19:24","新北市淡水區行忠路592號","121.46898","25.199245","6501000","淡水區"
"251014","180-VK","2017/08/20 18:19:24","新北市淡水區南平16號","121.489035","25.2213466666667","6501000","淡水區"
"251015","182-VK","2017/08/20 18:19:13","新北市淡水區興福寮88巷1號","121.485645","25.1651","6501000","淡水區"
"251016","442-VK","2017/08/20 18:19:24","新北市淡水區淡金路三段228巷22-7號","121.449916666667","25.2048866666667","6501000","淡水區"
"221012","278-VK","2017/08/20 13:20:09","新北市汐止區汐萬路一段256巷1號","121.651826666667","25.0749066666667","6501100","汐止區"
