"lineid","car","time","location","longitude","latitude","cityid","cityname"
"235031","255-BX","2017/08/20 15:06:16","新北市中和區員山路36巷13號","121.484211666667","24.9915733333333","6500300","中和區"
"224011","AGQ-8101","2017/08/20 13:23:37","新北市瑞芳區民權街3-1號","121.809408333333","25.1082483333333","6501200","瑞芳區"
"251013","179-VK","2017/08/20 18:29:05","新北市淡水區椿子林20號","121.479995","25.2038116666667","6501000","淡水區"
"251014","180-VK","2017/08/20 18:29:24","新北市淡水區南平19-2號","121.493441666667","25.2165966666667","6501000","淡水區"
"251015","182-VK","2017/08/20 18:29:13","新北市淡水區興福寮88巷216號","121.485981666667","25.1665583333333","6501000","淡水區"
"251016","442-VK","2017/08/20 18:29:12","新北市淡水區下圭柔山114-11號","121.445478333333","25.2099","6501000","淡水區"
"221012","278-VK","2017/08/20 13:20:09","新北市汐止區汐萬路一段256巷1號","121.651826666667","25.0749066666667","6501100","汐止區"
