"lineid","car","time","location","longitude","latitude","cityid","cityname"
"235031","255-BX","2017/08/20 15:06:16","新北市中和區員山路36巷13號","121.484211666667","24.9915733333333","6500300","中和區"
"224011","AGQ-8101","2017/08/20 18:32:50","新北市瑞芳區街頂巷56-1號","121.844051666667","25.1076116666667","6501200","瑞芳區"
"251013","179-VK","2017/08/20 18:39:05","新北市淡水區小坑子頭1號","121.47908","25.2097733333333","6501000","淡水區"
"251014","180-VK","2017/08/20 18:39:24","新北市淡水區崙頂12-8號","121.495573333333","25.2172383333333","6501000","淡水區"
"251015","182-VK","2017/08/20 18:39:13","新北市淡水區興福寮66巷299號","121.485705","25.1618383333333","6501000","淡水區"
"251016","442-VK","2017/08/20 18:39:12","新北市淡水區下圭柔山84-1號","121.439513333333","25.2051","6501000","淡水區"
"221012","278-VK","2017/08/20 13:20:09","新北市汐止區汐萬路一段256巷1號","121.651826666667","25.0749066666667","6501100","汐止區"
