"lineid","car","time","location","longitude","latitude","cityid","cityname"
"235031","255-BX","2017/08/20 15:06:16","新北市中和區員山路36巷13號","121.484211666667","24.9915733333333","6500300","中和區"
"251013","179-VK","2017/08/20 21:19:24","新北市淡水區行忠路330號","121.46053","25.19974","6501000","淡水區"
"251014","180-VK","2017/08/20 21:19:24","新北市淡水區六塊厝3-2號","121.450481666667","25.2406016666667","6501000","淡水區"
"251015","182-VK","2017/08/20 21:19:12","新北市淡水區淡金路四段542巷83弄20號","121.456488333333","25.2266616666667","6501000","淡水區"
"251016","442-VK","2017/08/20 21:19:12","新北市淡水區前洲子1號","121.445741666667","25.2178633333333","6501000","淡水區"
"221012","278-VK","2017/08/20 20:25:07","新北市汐止區汐萬路一段256巷1號","121.651893333333","25.07482","6501100","汐止區"
