"lineid","car","time","location","longitude","latitude","cityid","cityname"
"253005","438-BY","2017/07/09 16:24:25","新北市石門區小坑9號","121.594326666667","25.288555","6502200","石門區"
"251013","179-VK","2017/07/09 16:49:52","新北市淡水區泉洲厝32號","121.489288333333","25.1925433333333","6501000","淡水區"
"251014","180-VK","2017/07/09 16:49:52","新北市淡水區興仁路128號","121.451616666667","25.218645","6501000","淡水區"
"251015","182-VK","2017/07/09 16:50:00","新北市淡水區忠愛街5-2號","121.460628333333","25.171685","6501000","淡水區"
"251016","442-VK","2017/07/09 16:50:03","新北市淡水區水頭42號","121.478176666667","25.1850333333333","6501000","淡水區"
