"lineid","car","time","location","longitude","latitude","cityid","cityname"
"253005","438-BY","2017/07/09 16:24:25","新北市石門區小坑9號","121.594326666667","25.288555","6502200","石門區"
"251013","179-VK","2017/07/09 16:57:52","新北市淡水區泉洲厝32號","121.489308333333","25.1925383333333","6501000","淡水區"
"251014","180-VK","2017/07/09 16:57:52","新北市淡水區興仁路162號","121.451626666667","25.2206783333333","6501000","淡水區"
"251015","182-VK","2017/07/09 16:58:00","新北市淡水區忠愛街11-2號","121.456068333333","25.1734783333333","6501000","淡水區"
"251016","442-VK","2017/07/09 16:58:03","新北市淡水區瓦坑7號","121.477728333333","25.181435","6501000","淡水區"
