"lineid","car","time","location","longitude","latitude","cityid","cityname"
"253005","438-BY","2017/07/09 16:24:25","新北市石門區小坑9號","121.594326666667","25.288555","6502200","石門區"
"251013","179-VK","2017/07/09 17:47:52","新北市淡水區泉洲厝30號","121.47973","25.1909","6501000","淡水區"
"251014","180-VK","2017/07/09 17:47:52","新北市淡水區公埔子16-6號","121.481031666667","25.22452","6501000","淡水區"
"251015","182-VK","2017/07/09 17:48:00","新北市淡水區興福寮28-1號","121.491908333333","25.16381","6501000","淡水區"
"251016","442-VK","2017/07/09 17:48:03","新北市淡水區埤島38號","121.450483333333","25.1962933333333","6501000","淡水區"
