"lineid","car","time","location","longitude","latitude","cityid","cityname"
"253005","438-BY","2017/07/09 16:24:25","新北市石門區小坑9號","121.594326666667","25.288555","6502200","石門區"
"251013","179-VK","2017/07/09 18:17:52","新北市淡水區行忠路590號","121.468066666667","25.1991566666667","6501000","淡水區"
"251014","180-VK","2017/07/09 18:17:52","新北市淡水區崙頂16-3號","121.487846666667","25.2219616666667","6501000","淡水區"
"251015","182-VK","2017/07/09 18:18:00","新北市淡水區興福寮88巷1號","121.48568","25.1650016666667","6501000","淡水區"
"251016","442-VK","2017/07/09 18:18:03","新北市淡水區淡金路三段228巷24號","121.449701666667","25.2049583333333","6501000","淡水區"
