"lineid","car","time","location","longitude","latitude","cityid","cityname"
"224011","AGQ-8101","2017/07/09 18:33:37","新北市瑞芳區崙頂路102號","121.844943333333","25.1072616666667","6501200","瑞芳區"
"224011","420-VK","2017/07/09 18:36:17","新北市瑞芳區明燈路一段1號","121.8288","25.1100866666667","6501200","瑞芳區"
"253005","438-BY","2017/07/09 16:24:25","新北市石門區小坑9號","121.594326666667","25.288555","6502200","石門區"
"251013","179-VK","2017/07/09 18:37:52","新北市淡水區小坑子頭5-1號","121.482328333333","25.2075116666667","6501000","淡水區"
"251014","180-VK","2017/07/09 18:38:07","新北市淡水區南平21-2號","121.497953333333","25.2163","6501000","淡水區"
"251015","182-VK","2017/07/09 18:38:00","新北市淡水區興福寮66巷579號","121.484401666667","25.1633066666667","6501000","淡水區"
"251016","442-VK","2017/07/09 18:38:02","新北市淡水區下圭柔山76號","121.443218333333","25.2054116666667","6501000","淡水區"
