"lineid","car","time","location","longitude","latitude","cityid","cityname"
"224011","AGQ-8101","2017/07/09 18:54:37","新北市瑞芳區輕便路216號","121.845113333333","25.10939","6501200","瑞芳區"
"224011","420-VK","2017/07/09 18:57:57","新北市瑞芳區崙頂路1-6號","121.847156666667","25.1046616666667","6501200","瑞芳區"
"253005","438-BY","2017/07/09 16:24:25","新北市石門區小坑9號","121.594326666667","25.288555","6502200","石門區"
"251013","179-VK","2017/07/09 18:57:52","新北市淡水區安子內3號","121.48685","25.2135516666667","6501000","淡水區"
"251014","180-VK","2017/07/09 18:57:52","新北市淡水區三角埔5號","121.49641","25.2230266666667","6501000","淡水區"
"251015","182-VK","2017/07/09 18:57:40","新北市淡水區糞箕湖131巷2號","121.488406666667","25.1732916666667","6501000","淡水區"
"251016","442-VK","2017/07/09 18:58:03","新北市淡水區淡金路三段333號","121.44882","25.206335","6501000","淡水區"
