"lineid","car","time","location","longitude","latitude","cityid","cityname"
"224011","AGQ-8101","2017/07/09 19:38:00","新北市瑞芳區基山街31巷10號","121.845426666667","25.1096083333333","6501200","瑞芳區"
"224011","420-VK","2017/07/09 19:37:57","新北市瑞芳區崙頂路3-1號","121.84702","25.1047116666667","6501200","瑞芳區"
"253005","438-BY","2017/07/09 16:24:25","新北市石門區小坑9號","121.594326666667","25.288555","6502200","石門區"
"251013","179-VK","2017/07/09 19:37:52","新北市淡水區店子後10號","121.460448333333","25.2190783333333","6501000","淡水區"
"251014","180-VK","2017/07/09 19:37:52","新北市淡水區桂竹圍4-3號","121.475125","25.232255","6501000","淡水區"
"251015","182-VK","2017/07/09 19:38:00","新北市淡水區北新路三段169-8號","121.49118","25.1903333333333","6501000","淡水區"
"251016","442-VK","2017/07/09 19:38:02","新北市淡水區淡金路三段350巷18號","121.450795","25.20839","6501000","淡水區"
