"lineid","car","time","location","longitude","latitude","cityid","cityname"
"224011","420-VK","2017/07/09 20:17:57","新北市瑞芳區崙頂路3-1號","121.847356666667","25.104295","6501200","瑞芳區"
"253005","438-BY","2017/07/09 16:24:25","新北市石門區小坑9號","121.594326666667","25.288555","6502200","石門區"
"251013","179-VK","2017/07/09 20:17:52","新北市淡水區相公山1-6號","121.473985","25.2070816666667","6501000","淡水區"
"251014","180-VK","2017/07/09 20:17:52","新北市淡水區石頭厝2-1號","121.458081666667","25.2357666666667","6501000","淡水區"
"251015","182-VK","2017/07/09 20:18:00","新北市淡水區埤島80-2號","121.449286666667","25.189355","6501000","淡水區"
"251016","442-VK","2017/07/09 20:18:02","新北市淡水區番子田16-12號","121.453835","25.2314216666667","6501000","淡水區"
