"lineid","car","time","location","longitude","latitude","cityid","cityname"
"224011","420-VK","2017/07/09 20:36:24","新北市瑞芳區明燈路二段64號","121.809563333333","25.107625","6501200","瑞芳區"
"253005","438-BY","2017/07/09 16:24:25","新北市石門區小坑9號","121.594326666667","25.288555","6502200","石門區"
"251013","179-VK","2017/07/09 20:37:52","新北市淡水區下圭柔山28巷13號","121.457721666667","25.2039116666667","6501000","淡水區"
"251014","180-VK","2017/07/09 20:37:52","新北市淡水區桂竹圍5-1號","121.472011666667","25.233195","6501000","淡水區"
"251015","182-VK","2017/07/09 20:38:00","新北市淡水區淡金路四段542巷17號","121.452725","25.227065","6501000","淡水區"
"251016","442-VK","2017/07/09 20:38:02","新北市淡水區後洲子16-1號","121.449508333333","25.22405","6501000","淡水區"
