"lineid","car","time","location","longitude","latitude","cityid","cityname"
"232005","290-BY","2017/07/10 06:57:51","新北市坪林區魚堀17-8號","121.703035","24.9182133333333","6502000","坪林區"
"232001","291-BY","2017/07/10 06:57:57","新北市坪林區下坑子口15號","121.715361666667","24.95112","6502000","坪林區"
"232010","375-UM","2017/07/10 06:58:08","新北市坪林區水聳淒坑13-2號","121.720821666667","24.9304","6502000","坪林區"
"232012","705-BZ","2017/07/10 06:57:54","新北市坪林區黃舉皮寮4-5號","121.687808333333","24.9411216666667","6502000","坪林區"
"232017","758-BX","2017/07/10 06:58:09","新北市坪林區九芎坑3-2號","121.730278333333","24.9622616666667","6502000","坪林區"
"244001","248-BX","2017/07/10 06:58:07","新北市林口區粉寮路一段98號","121.399616666667","25.081725","6501700","林口區"
"235010","733-UM","2017/07/10 06:57:59","新北市中和區和平街29-1號","121.507553333333","24.9909233333333","6500300","中和區"
"220034","015-TV","2017/07/10 06:58:02","新北市板橋區國光路67巷14號","121.458995","25.0187533333333","6500100","板橋區"
"223006","022-BY","2017/07/10 06:58:07","新北市石碇區新興坑21-1號","121.65093","25.0218483333333","6501900","石碇區"
"223002","198-BX","2017/07/10 06:57:53","新北市石碇區四分子路小粗坑巷7號","121.651843333333","24.9637866666667","6501900","石碇區"
"223003","205-TH","2017/07/10 06:57:54","新北市石碇區石碇東街147號","121.658956666667","24.989055","6501900","石碇區"
"223008","406-TH","2017/07/10 06:58:11","新北市石碇區雙溪84-1號","121.661295","25.00891","6501900","石碇區"
"223001","592-UM","2017/07/10 06:57:54","新北市石碇區石碇西街15號","121.659023333333","24.990645","6501900","石碇區"
"223004","660-BX","2017/07/10 06:58:01","新北市石碇區碇坪路一段37號","121.658028333333","24.9914766666667","6501900","石碇區"
"223007","661-BX","2017/07/10 06:58:00","新北市石碇區雙溪84-1號","121.661331666667","25.0089216666667","6501900","石碇區"
"227005","282-VK","2017/07/10 06:57:56","新北市雙溪區新基里自強路5號","121.866336666667","25.0390683333333","6502500","雙溪區"
"252006","073-UM","2017/07/10 06:57:55","新北市三芝區福德里埔尾2-1號","121.501666666667","25.2475666666667","6502100","三芝區"
"252004","249-BX","2017/07/10 06:58:02","新北市三芝區埔頭里埔頭37號","121.49857","25.2603633333333","6502100","三芝區"
"236007","165-UM","2017/07/10 06:58:03","新北市土城區永平街51號","121.427913333333","24.9591016666667","6501300","土城區"
"236001","339-SR","2017/07/10 06:57:53","新北市土城區永平街51號","121.427973333333","24.95917","6501300","土城區"
