"lineid","car","time","location","longitude","latitude","cityid","cityname"
"232005","290-BY","2017/07/10 07:07:51","新北市坪林區魚堀50號","121.70453","24.93091","6502000","坪林區"
"232001","291-BY","2017/07/10 07:07:57","新北市坪林區桶盤嶼8-2號","121.70655","24.9566983333333","6502000","坪林區"
"232010","375-UM","2017/07/10 07:07:48","新北市坪林區水聳淒坑24號","121.717828333333","24.9236933333333","6502000","坪林區"
"232012","705-BZ","2017/07/10 07:07:54","新北市坪林區黃舉皮寮8-1號","121.68907","24.9361883333333","6502000","坪林區"
"232017","758-BX","2017/07/10 07:05:50","新北市坪林區九芎坑2號","121.723173333333","24.9663033333333","6502000","坪林區"
"244001","248-BX","2017/07/10 07:08:07","新北市林口區中湖49-1號","121.37599","25.0902716666667","6501700","林口區"
"235010","733-UM","2017/07/10 07:07:59","新北市中和區和平街29-1號","121.507513333333","24.9909383333333","6500300","中和區"
"220034","015-TV","2017/07/10 07:08:02","新北市板橋區國光路51號","121.458031666667","25.0180233333333","6500100","板橋區"
"247002","402-BY","2017/07/10 07:08:05","新北市五股區中興路三段5號","121.449691666667","25.0794766666667","6501400","蘆洲區"
"226005","5620-A6","2017/07/10 07:08:05","新北市平溪區石底里石筍尖21號","121.730341666667","25.0257666666667","6502400","平溪區"
"226001","7418-A5","2017/07/10 07:08:05","新北市平溪區石底里石筍尖21號","121.730363333333","25.025645","6502400","平溪區"
"226003","AGD-0702","2017/07/10 07:07:51","新北市平溪區石底里石筍尖18號","121.730908333333","25.0259566666667","6502400","平溪區"
"223006","022-BY","2017/07/10 07:08:07","新北市石碇區新興坑1-1號","121.654123333333","25.0147166666667","6501900","石碇區"
"223002","198-BX","2017/07/10 07:07:53","新北市石碇區員山子1號","121.652278333333","24.9671966666667","6501900","石碇區"
"223003","205-TH","2017/07/10 07:07:54","新北市石碇區溪邊寮1-3號","121.658088333333","24.9775416666667","6501900","石碇區"
"223008","406-TH","2017/07/10 07:07:51","新北市石碇區十八重溪47號","121.674668333333","25.01282","6501900","石碇區"
"223001","592-UM","2017/07/10 07:07:54","新北市石碇區溪邊寮2-2號","121.657956666667","24.9773016666667","6501900","石碇區"
"223004","660-BX","2017/07/10 07:08:02","新北市石碇區石碇西街69號","121.656265","24.99168","6501900","石碇區"
"223007","661-BX","2017/07/10 07:08:10","新北市石碇區十八重溪63號","121.67513","25.013485","6501900","石碇區"
"223005","677-TV","2017/07/10 07:07:53","新北市石碇區碇坪路一段56號","121.657026666667","24.991485","6501900","石碇區"
"227005","282-VK","2017/07/10 07:07:56","新北市雙溪區新基里自強路5號","121.86634","25.0390733333333","6502500","雙溪區"
"252006","073-UM","2017/07/10 07:07:55","新北市三芝區福德里埔尾27號","121.502855","25.23998","6502100","三芝區"
"252004","249-BX","2017/07/10 07:08:02","新北市三芝區錫板里小坑子22號","121.49969","25.2315316666667","6502100","三芝區"
"236007","165-UM","2017/07/10 07:08:03","新北市土城區中華路一段201號","121.442956666667","24.9849983333333","6501300","土城區"
"236001","339-SR","2017/07/10 07:07:53","新北市土城區中央路三段112號","121.435433333333","24.9661433333333","6501300","土城區"
"242059","362-BY","2017/07/10 04:59:07","新北市新莊區新泰路255巷83號","121.442525","25.038715","6500500","新莊區"
