"lineid","car","time","location","longitude","latitude","cityid","cityname"
"244018","403-UM","2017/07/27 09:49:04","新北市林口區粉寮路60-16號","121.404425","25.0897366666667","6501700","林口區"
"244025","656-BX","2017/07/27 09:37:55","新北市林口區粉寮路二段160巷28號","121.405196666667","25.0907666666667","6501700","林口區"
"231069","189-VK","2017/07/27 11:09:35","新北市新店區新潭路一段160巷17號","121.529636666667","24.9319066666667","6500600","新店區"
"231008","192-VK","2017/07/27 11:09:41","新北市新店區廣興路5巷19號","121.545451666667","24.9144916666667","6500600","新店區"
"247001","402-BY","2017/07/27 10:27:44","新北市五股區中興路三段3-6號","121.449696666667","25.0788016666667","6501400","蘆洲區"
"242052","349-TH","2017/07/27 11:03:33","新北市新莊區三和路12-16號","121.442091666667","25.0374666666667","6500500","新莊區"
