"lineid","car","time","location","longitude","latitude","cityid","cityname"
"244018","403-UM","2017/07/27 09:49:04","新北市林口區粉寮路60-16號","121.404425","25.0897366666667","6501700","林口區"
"244025","656-BX","2017/07/27 09:37:55","新北市林口區粉寮路二段160巷28號","121.405196666667","25.0907666666667","6501700","林口區"
"243007","380-SR","2017/07/27 11:57:24","新北市泰山區黎明路25號","121.422375","25.0606733333333","6501600","泰山區"
"231008","192-VK","2017/07/27 11:57:41","新北市新店區成功路50巷1號","121.54422","24.9030866666667","6500600","新店區"
"247001","402-BY","2017/07/27 11:49:28","新北市五股區中興路三段3-6號","121.449843333333","25.0787166666667","6501400","蘆洲區"
"228004","212-TW","2017/07/27 11:59:30","新北市貢寮區貢寮里朝陽街1-2號","121.91222","25.021275","6502600","貢寮區"
"242052","349-TH","2017/07/27 11:59:34","新北市新莊區三和路12-16號","121.442006666667","25.0374583333333","6500500","新莊區"
