"lineid","car","time","location","longitude","latitude","cityid","cityname"
"234044","148-BY","2017/07/27 12:59:29","新北市永和區秀朗路二段196巷4號","121.526091666667","25.0006283333333","6500400","永和區"
"234012","149-BY","2017/07/27 12:59:23","新北市永和區信義路19號","121.514123333333","25.0119583333333","6500400","永和區"
"234005","207-UY","2017/07/27 12:59:10","新北市永和區中山路一段47號","121.513126666667","25.0105633333333","6500400","永和區"
"234078","298-R6","2017/07/27 12:59:26","新北市永和區永亨路67號","121.521276666667","25.0059716666667","6500400","永和區"
"234036","336-UY","2017/07/27 12:59:14","新北市永和區民樂街75巷2號","121.527391666667","24.9968316666667","6500400","永和區"
"234062","337-UY","2017/07/27 12:58:56","新北市永和區秀朗路一段154號","121.518318333333","25.00327","6500400","永和區"
"234084","338-UY","2017/07/27 12:59:11","新北市永和區永利路20號","121.518066666667","25.00582","6500400","永和區"
"234068","552-UM","2017/07/27 12:59:15","新北市永和區豫溪街57巷10弄12號","121.517935","25.0107683333333","6500400","永和區"
"234052","553-UM","2017/07/27 12:59:26","新北市永和區竹林路66巷15-7號","121.518255","25.0132466666667","6500400","永和區"
"234015","745-BX","2017/07/27 12:59:26","新北市永和區永和路二段299號","121.516018333333","25.0161916666667","6500400","永和區"
"234028","840-RS","2017/07/27 12:53:09","新北市永和區得和路422號","121.526266666667","24.9990566666667","6500400","永和區"
"234060","AAD-866","2017/07/27 12:59:28","新北市永和區福和路307號","121.516291666667","25.0071816666667","6500400","永和區"
"234040","862-TW","2017/07/27 12:59:09","新北市永和區永貞路306號","121.511881666667","25.0048633333333","6500400","永和區"
"234048","863-TW","2017/07/27 12:59:25","新北市永和區文化路147號","121.51082","25.0161816666667","6500400","永和區"
"234025","9371-KE","2017/07/27 12:59:12","新北市永和區永和路一段39號","121.51297","25.0061333333333","6500400","永和區"
"234010","9373-KE","2017/07/27 12:59:25","新北市永和區文化路9巷22弄58號","121.513836666667","25.01447","6500400","永和區"
"248013","025-BX","2017/07/27 12:59:16","新北市五股區中興路二段182巷3號","121.456681666667","25.0780733333333","6501500","五股區"
"248015","026-BX","2017/07/27 12:59:14","新北市五股區中興路二段83巷26-6號","121.459878333333","25.0752616666667","6501500","五股區"
"248005","077-UY","2017/07/27 12:59:23","新北市五股區中興路二段37巷28號","121.46018","25.0750233333333","6501500","五股區"
"248007","095-VK","2017/07/27 12:59:11","新北市五股區更洲路6號","121.458553333333","25.0786266666667","6501500","五股區"
"248017","225-UY","2017/07/27 12:59:15","新北市五股區中興路二段83巷26-6號","121.460061666667","25.075215","6501500","五股區"
"248011","247-BX","2017/07/24 21:17:55","新北市五股區中興路二段37巷28號","121.460251666667","25.0749983333333","6501500","五股區"
"248009","272-BY","2017/07/27 12:59:23","新北市五股區中興路二段161號","121.457751666667","25.0773183333333","6501500","五股區"
"248003","677-BX","2017/07/27 12:59:07","新北市五股區中興路二段182巷4號","121.457596666667","25.0788966666667","6501500","五股區"
"234022","9380-KE","2017/07/27 12:59:23","新北市永和區環河東路一段158號","121.521103333333","25.0145266666667","6500400","永和區"
"234076","969-R7","2017/07/27 12:59:19","新北市永和區民享街3號","121.51508","24.995625","6500400","永和區"
"234072","AAC-211","2017/07/27 12:59:21","新北市永和區環河東路二段96號","121.52404","25.0104166666667","6500400","永和區"
"234066","AAC-212","2017/07/27 12:59:13","新北市永和區中和路625號","121.51299","25.0048733333333","6500400","永和區"
"234001","AAC-295","2017/07/27 12:59:16","新北市永和區永平路29號","121.51322","25.008775","6500400","永和區"
"244003","248-BX","2017/07/27 12:59:11","新北市林口區粉寮路一段105號","121.397856666667","25.0802983333333","6501700","林口區"
"244018","403-UM","2017/07/27 09:49:04","新北市林口區粉寮路60-16號","121.404425","25.0897366666667","6501700","林口區"
"244025","656-BX","2017/07/27 09:37:55","新北市林口區粉寮路二段160巷28號","121.405196666667","25.0907666666667","6501700","林口區"
"243007","380-SR","2017/07/27 11:57:24","新北市泰山區黎明路25號","121.422375","25.0606733333333","6501600","泰山區"
"231002","002-UM","2017/07/27 12:59:22","新北市新店區安華路28-1號","121.519831666667","24.96083","6500600","新店區"
"231025","0291-UT","2017/07/27 12:59:25","新北市新店區安華路28-1號","121.519683333333","24.960735","6500600","新店區"
"231028","046-UY","2017/07/27 12:59:16","新北市新店區安華路28-1號","121.519556666667","24.96099","6500600","新店區"
"231030","047-UY","2017/07/27 12:59:24","新北市新店區安華路28-1號","121.519335","24.96085","6500600","新店區"
"231018","107-UY","2017/07/27 12:59:22","新北市新店區安華路28-1號","121.519491666667","24.96143","6500600","新店區"
"231011","108-UY","2017/07/27 12:59:15","新北市新店區安華路28-1號","121.519678333333","24.9609483333333","6500600","新店區"
"231021","187-VK","2017/07/27 12:59:19","新北市新店區安康路一段355-3號","121.519558333333","24.9615383333333","6500600","新店區"
"231007","189-VK","2017/07/27 12:00:48","新北市新店區安華路28-1號","121.519686666667","24.9611066666667","6500600","新店區"
"231017","AAD-862","2017/07/27 12:59:13","新北市新店區安華路28-1號","121.519773333333","24.9612183333333","6500600","新店區"
"231027","3712-VJ","2017/07/27 12:59:26","新北市新店區安華路28-1號","121.51914","24.9606183333333","6500600","新店區"
"231024","3713-VJ","2017/07/27 12:59:24","新北市新店區安華路28-1號","121.519286666667","24.9606633333333","6500600","新店區"
"231036","512-UM","2017/07/27 12:59:21","新北市新店區安華路28-1號","121.519505","24.961265","6500600","新店區"
"231023","513-UM","2017/07/27 12:59:18","新北市新店區安華路28-1號","121.519706666667","24.96121","6500600","新店區"
"231006","617-UM","2017/07/27 12:59:10","新北市新店區安華路28-1號","121.519441666667","24.961","6500600","新店區"
"231001","619-UM","2017/07/27 12:59:16","新北市新店區安華路28-1號","121.519551666667","24.9609383333333","6500600","新店區"
"231003","641-BX","2017/07/27 12:59:11","新北市新店區安華路28-1號","121.519578333333","24.9606083333333","6500600","新店區"
"231034","645-TV","2017/07/27 12:59:10","新北市新店區安華路28-1號","121.519321666667","24.9605583333333","6500600","新店區"
"231013","719-UM","2017/07/27 12:59:17","新北市新店區安康路一段355-3號","121.519765","24.9621783333333","6500600","新店區"
"231031","720-UM","2017/07/27 12:59:24","新北市新店區安華路28-1號","121.519383333333","24.9611866666667","6500600","新店區"
"231005","897-TW","2017/07/27 12:59:13","新北市新店區安華路28-1號","121.519533333333","24.9607416666667","6500600","新店區"
"231004","899-TW","2017/07/27 12:59:13","新北市新店區安華路28-1號","121.519171666667","24.9608183333333","6500600","新店區"
"231037","AKT-0513","2017/07/27 12:59:25","新北市新店區安華路1-1號","121.51958","24.9603466666667","6500600","新店區"
"235028","005-UY","2017/07/27 12:59:14","新北市中和區員山路36巷16-3號","121.48502","24.9912933333333","6500300","中和區"
"235029","098-UM","2017/07/27 12:59:11","新北市中和區員山路36巷16-3號","121.4852","24.9912083333333","6500300","中和區"
"235004","150-BY","2017/07/27 12:59:16","新北市中和區和城路一段271巷1號","121.48544","24.991755","6500300","中和區"
"235022","151-BY","2017/07/27 12:59:10","新北市中和區中正路589巷15號","121.486036666667","24.9935216666667","6500300","中和區"
"235002","185-VK","2017/07/27 12:59:21","新北市中和區秀朗路三段10巷14弄24-2號","121.52507","24.9970816666667","6500300","中和區"
"235031","255-BX","2017/07/27 12:59:18","新北市中和區中山路二段550號","121.483955","25.00532","6500300","中和區"
"235036","301-VK","2017/07/27 12:59:25","新北市中和區員山路36巷13號","121.484011666667","24.9910766666667","6500300","中和區"
"235035","783-BX","2017/07/27 12:59:22","新北市中和區連城路308號","121.483668333333","24.9962433333333","6500300","中和區"
"235026","800-TS","2017/07/27 12:59:17","新北市中和區員山路36巷16-2號","121.485245","24.9914633333333","6500300","中和區"
"235005","802-TS","2017/07/27 12:59:11","新北市中和區員山路36巷16-2號","121.485298333333","24.9916483333333","6500300","中和區"
"235023","AAC-215","2017/07/27 12:59:18","新北市中和區員山路36巷16-2號","121.48537","24.9916466666667","6500300","中和區"
"220013","072-UY","2017/07/27 12:59:18","新北市板橋區民生路二段15-1號","121.47272","25.0164766666667","6500100","板橋區"
"247001","402-BY","2017/07/27 12:59:22","新北市五股區中興路三段3-6號","121.44978","25.0788383333333","6501400","蘆洲區"
"228005","097-TW","2017/07/27 12:59:22","新北市貢寮區福連里香蘭街2-1號","121.971135","25.0244116666667","6502600","貢寮區"
"228004","212-TW","2017/07/27 12:59:29","新北市貢寮區吉林里內寮街57號","121.88655","24.986715","6502600","貢寮區"
"208004","AAC-292","2017/07/27 12:59:12","新北市金山區磺港里磺港路326號","121.645211666667","25.2292833333333","6502700","金山區"
"207002","749-BX","2017/07/27 12:58:15","新北市萬里區雙興里大坪路37-1號","121.627743333333","25.1704416666667","6502800","萬里區"
"207001","662-BX","2017/07/27 12:59:19","新北市萬里區萬里里獅頭路22-1號","121.692983333333","25.1781466666667","6502800","萬里區"
"236005","498-BY","2017/07/27 12:59:20","新北市土城區亞洲路22號","121.436313333333","24.9744983333333","6501300","土城區"
"242052","349-TH","2017/07/27 12:59:14","新北市新莊區新泰路152號","121.447688333333","25.0372533333333","6500500","新莊區"
"221032","280-BY","2017/07/27 12:59:22","新北市汐止區大同路二段383號","121.657653333333","25.0672583333333","6501100","汐止區"
"221031","353-TW","2017/07/27 12:59:24","新北市汐止區連興街52號","121.654035","25.062985","6501100","汐止區"
"221002","753-BX","2017/07/27 12:59:20","新北市汐止區康寧街631號","121.636913333333","25.0717533333333","6501100","汐止區"
"220005","686-BX","2017/07/27 12:58:24","新北市板橋區民生路二段36-1號","121.472556666667","25.0166016666667","6500100","板橋區"
