"lineid","car","time","location","longitude","latitude","cityid","cityname"
"234044","148-BY","2017/07/27 13:29:09","新北市永和區秀朗路二段88號","121.523421666667","25.00164","6500400","永和區"
"234012","149-BY","2017/07/27 13:29:04","新北市永和區信義路10號","121.514618333333","25.0119916666667","6500400","永和區"
"234005","207-UY","2017/07/27 13:29:10","新北市永和區中山路一段174號","121.509148333333","25.0089683333333","6500400","永和區"
"234078","298-R6","2017/07/27 13:29:11","新北市永和區福和路5-1號","121.52497","25.0087216666667","6500400","永和區"
"234036","336-UY","2017/07/27 13:29:14","新北市永和區成功路一段125巷6號","121.52724","25.001895","6500400","永和區"
"234062","337-UY","2017/07/27 13:29:16","新北市永和區中正路368巷1弄88號","121.520528333333","25.00078","6500400","永和區"
"234084","338-UY","2017/07/27 13:29:11","新北市永和區永利路88號","121.520751666667","25.0039533333333","6500400","永和區"
"234068","552-UM","2017/07/27 13:29:15","新北市永和區中興街3巷1號","121.515635","25.0121866666667","6500400","永和區"
"234052","553-UM","2017/07/27 13:29:26","新北市永和區復興街19巷6號","121.516208333333","25.0131833333333","6500400","永和區"
"234015","745-BX","2017/07/27 13:29:06","新北市永和區環河西路一段87號","121.512268333333","25.017955","6500400","永和區"
"234028","840-RS","2017/07/27 12:53:09","新北市永和區得和路422號","121.526266666667","24.9990566666667","6500400","永和區"
"234060","AAD-866","2017/07/27 13:29:08","新北市永和區中正路578號","121.517068333333","25.0065066666667","6500400","永和區"
"234040","862-TW","2017/07/27 13:29:09","新北市永和區中和路519巷4號","121.51097","25.0029533333333","6500400","永和區"
"234048","863-TW","2017/07/27 13:29:06","新北市永和區文化路121巷3號","121.512611666667","25.015035","6500400","永和區"
"234025","9371-KE","2017/07/27 13:29:12","新北市永和區中山路一段17巷4弄15號","121.513396666667","25.0101333333333","6500400","永和區"
"234010","9373-KE","2017/07/27 13:29:05","新北市永和區仁愛路141巷3弄2號","121.511745","25.0123216666667","6500400","永和區"
"248013","025-BX","2017/07/27 13:29:16","新北市五股區成泰路一段142號","121.434981666667","25.0758983333333","6501500","五股區"
"248015","026-BX","2017/07/27 13:29:14","新北市五股區凌雲路一段83巷34號","121.449305","25.1010183333333","6501500","五股區"
"248005","077-UY","2017/07/27 13:29:23","新北市五股區四維路25號","121.46716","25.0706183333333","6501500","五股區"
"248007","095-VK","2017/07/27 13:29:11","新北市五股區四維路185巷52號","121.462998333333","25.0778483333333","6501500","五股區"
"248011","247-BX","2017/07/27 13:25:34","新北市五股區御成路69號","121.441565","25.0926866666667","6501500","五股區"
"248017","261-SL","2017/07/27 13:29:09","新北市五股區新五路二段558號","121.443113333333","25.0859466666667","6501500","五股區"
"248009","272-BY","2017/07/27 13:29:03","新北市五股區明德路8號","121.43335","25.0716433333333","6501500","五股區"
"248001","655-BX","2017/07/27 13:29:06","新北市五股區西雲路150號","121.446235","25.0943283333333","6501500","五股區"
"248003","677-BX","2017/07/27 13:29:07","新北市五股區六合街2號","121.432243333333","25.0883683333333","6501500","五股區"
"234022","9380-KE","2017/07/27 13:29:19","新北市永和區竹林路91巷45號","121.521371666667","25.01288","6500400","永和區"
"234076","969-R7","2017/07/27 13:29:19","新北市永和區民治街69巷8號","121.517595","24.9976633333333","6500400","永和區"
"234072","AAC-211","2017/07/27 13:29:21","新北市永和區永和路二段105號","121.514845","25.0118433333333","6500400","永和區"
"234066","AAC-212","2017/07/27 13:29:13","新北市永和區保平路174巷16號","121.51044","25.0071633333333","6500400","永和區"
"234001","AAC-295","2017/07/27 13:29:16","新北市永和區永和路一段118號","121.513933333333","25.007895","6500400","永和區"
"244003","248-BX","2017/07/27 13:28:11","新北市林口區瑞平里8鄰53號","121.342568333333","25.122445","6501700","林口區"
"244018","403-UM","2017/07/27 09:49:04","新北市林口區粉寮路60-16號","121.404425","25.0897366666667","6501700","林口區"
"244025","656-BX","2017/07/27 09:37:55","新北市林口區粉寮路二段160巷28號","121.405196666667","25.0907666666667","6501700","林口區"
"243005","AAD-798","2017/07/27 13:29:12","新北市泰山區明志路三段206巷1號","121.423321666667","25.0379216666667","6501600","泰山區"
"243007","380-SR","2017/07/27 11:57:24","新北市泰山區黎明路25號","121.422375","25.0606733333333","6501600","泰山區"
"231002","002-UM","2017/07/27 13:29:03","新北市新店區環河路29巷1號","121.537023333333","24.9613266666667","6500600","新店區"
"231025","0291-UT","2017/07/27 13:29:25","新北市新店區中央七街59號","121.52817","24.9763833333333","6500600","新店區"
"231028","046-UY","2017/07/27 13:29:16","新北市新店區安和路一段2-2號","121.517095","24.9644816666667","6500600","新店區"
"231030","047-UY","2017/07/27 13:29:04","新北市新店區安康路一段361號","121.518048333333","24.964005","6500600","新店區"
"231029","106-UY","2017/07/27 13:29:09","新北市新店區車子路12號","121.505126666667","24.9545283333333","6500600","新店區"
"231018","107-UY","2017/07/27 13:29:22","新北市新店區中央路175-3號","121.534748333333","24.9697533333333","6500600","新店區"
"231011","108-UY","2017/07/27 13:29:15","新北市新店區德正街12號","121.543693333333","24.97248","6500600","新店區"
"231021","187-VK","2017/07/27 13:29:19","新北市新店區新烏路一段65號","121.546105","24.944025","6500600","新店區"
"231007","189-VK","2017/07/27 12:00:48","新北市新店區安華路28-1號","121.519686666667","24.9611066666667","6500600","新店區"
"231026","256-BX","2017/07/27 13:29:06","新北市新店區安康路一段222-2號","121.523135","24.963675","6500600","新店區"
"231010","278-BY","2017/07/27 13:29:03","新北市新店區中正路397號","121.534515","24.9774266666667","6500600","新店區"
"231017","AAD-862","2017/07/27 13:29:13","新北市新店區新烏路一段11巷7號","121.547381666667","24.9512716666667","6500600","新店區"
"231027","3712-VJ","2017/07/27 13:29:06","新北市新店區新店後街98號","121.537581666667","24.9551616666667","6500600","新店區"
"231024","3713-VJ","2017/07/27 13:29:19","新北市新店區北新路二段29巷2弄1號","121.54243","24.9727866666667","6500600","新店區"
"231036","512-UM","2017/07/27 13:29:22","新北市新店區安祥路190巷47號","121.476815","24.95557","6500600","新店區"
"231023","513-UM","2017/07/27 13:29:18","新北市新店區新店路13號","121.540301666667","24.952865","6500600","新店區"
"231035","515-UM","2017/07/27 13:29:20","新北市新店區安康路二段51-1號","121.514735","24.9635416666667","6500600","新店區"
"231006","617-UM","2017/07/27 13:29:10","新北市新店區安康路一段88號","121.528015","24.96197","6500600","新店區"
"231001","619-UM","2017/07/27 13:29:16","新北市新店區環河路116號","121.537063333333","24.9663566666667","6500600","新店區"
"231003","641-BX","2017/07/27 13:29:11","新北市新店區中正路106號","121.54316","24.970575","6500600","新店區"
"231034","645-TV","2017/07/27 13:29:10","新北市新店區車子路109號","121.505211666667","24.9521133333333","6500600","新店區"
"231013","719-UM","2017/07/27 13:29:17","新北市新店區中正路454-5號","121.534471666667","24.979045","6500600","新店區"
"231031","720-UM","2017/07/27 13:29:04","新北市新店區僑信路2巷16號","121.499016666667","24.95349","6500600","新店區"
"231005","897-TW","2017/07/27 13:29:14","新北市新店區北新路一段72號","121.541358333333","24.9671566666667","6500600","新店區"
"231004","899-TW","2017/07/27 13:29:13","新北市新店區安康路一段90號","121.527958333333","24.962045","6500600","新店區"
"231037","AKT-0513","2017/07/27 13:29:04","新北市新店區薏仁坑路31號","121.494803333333","24.9614","6500600","新店區"
"235030","003-UY","2017/07/27 13:29:08","新北市中和區中山路二段119號","121.502803333333","25.0036083333333","6500300","中和區"
"235028","005-UY","2017/07/27 13:29:14","新北市中和區圓通路139號","121.498956666667","24.9955016666667","6500300","中和區"
"235027","006-UY","2017/07/27 13:29:13","新北市中和區中正路545號","121.48737","24.9942516666667","6500300","中和區"
"235020","096-UM","2017/07/27 13:29:24","新北市中和區中山路二段513號","121.482188333333","25.0050833333333","6500300","中和區"
"235003","097-UM","2017/07/27 13:29:09","新北市中和區景新街289號","121.509766666667","24.993285","6500300","中和區"
"235029","098-UM","2017/07/27 13:29:10","新北市中和區莊敬路49巷18號","121.50165","25.0060166666667","6500300","中和區"
"235004","150-BY","2017/07/27 13:29:16","新北市中和區保健路50巷66號","121.509361666667","24.995165","6500300","中和區"
"235022","151-BY","2017/07/27 13:29:10","新北市中和區圓通路369巷72號","121.49013","24.982215","6500300","中和區"
"235019","183-VK","2017/07/27 13:29:07","新北市中和區民享街287號","121.470575","24.9958066666667","6500300","中和區"
"235002","185-VK","2017/07/27 13:29:21","新北市中和區大智街106巷1號","121.524318333333","24.9925883333333","6500300","中和區"
"235013","186-VK","2017/07/27 13:29:16","新北市中和區景安路142號","121.504993333333","24.994055","6500300","中和區"
"235031","255-BX","2017/07/27 13:29:18","新北市中和區新生街284號","121.483755","24.9967183333333","6500300","中和區"
"235008","293-VK","2017/07/27 13:29:20","新北市中和區中興街107號","121.499871666667","24.9923066666667","6500300","中和區"
"235036","301-VK","2017/07/27 13:29:25","新北市中和區錦和路166號","121.48986","24.9957783333333","6500300","中和區"
"235007","352-BY","2017/07/27 13:29:20","新北市中和區景平路333號","121.505708333333","24.993285","6500300","中和區"
"235015","376-QA","2017/07/27 13:29:08","新北市中和區興南路二段142巷12號","121.503375","24.9838183333333","6500300","中和區"
"235032","377-QA","2017/07/27 13:28:40","新北市中和區中正路288號","121.494546666667","24.993975","6500300","中和區"
"235025","378-QA","2017/07/27 13:28:59","新北市中和區民享街95-5號","121.474948333333","24.999985","6500300","中和區"
"235014","4979-A6","2017/07/27 13:28:50","新北市中和區信義街11巷24號","121.51159","24.9897216666667","6500300","中和區"
"235033","4980-A6","2017/07/27 13:29:18","新北市中和區連城路67號","121.497593333333","25.001395","6500300","中和區"
"235006","551-UM","2017/07/27 13:29:23","新北市中和區秀朗路三段150巷25號","121.523313333333","24.991025","6500300","中和區"
"235034","558-UM","2017/07/27 13:29:18","新北市中和區圓通路147號","121.498578333333","24.9956016666667","6500300","中和區"
"235009","565-BX","2017/07/27 13:29:06","新北市中和區景安路200巷6弄2號","121.503283333333","24.9917983333333","6500300","中和區"
"235018","640-BX","2017/07/27 13:29:20","新北市中和區民享街119巷2號","121.474478333333","24.9986766666667","6500300","中和區"
"235024","647-TV","2017/07/27 13:29:06","新北市中和區員山路105號","121.480891666667","24.9945266666667","6500300","中和區"
"235011","732-UM","2017/07/27 13:29:16","新北市中和區南山路300號","121.507788333333","24.987175","6500300","中和區"
"235010","733-UM","2017/07/27 13:29:08","新北市中和區中正路571巷2弄11號","121.486066666667","24.9935966666667","6500300","中和區"
"235035","783-BX","2017/07/27 13:29:19","新北市中和區永和路446-30號","121.485085","25.01188","6500300","中和區"
"235026","800-TS","2017/07/27 13:29:16","新北市中和區中山路二段298號","121.496146666667","25.00266","6500300","中和區"
"235021","801-TS","2017/07/27 13:29:15","新北市中和區民安街111巷24弄7號","121.476283333333","24.9989383333333","6500300","中和區"
"235005","802-TS","2017/07/27 13:29:11","新北市中和區中和路322號","121.509831666667","25.000815","6500300","中和區"
"235016","805-TS","2017/07/27 13:29:12","新北市中和區興南路二段133號","121.505288333333","24.984165","6500300","中和區"
"235012","896-TW","2017/07/27 13:29:21","新北市中和區和城路一段271巷1號","121.485493333333","24.9919","6500300","中和區"
"235017","900-TW","2017/07/27 13:29:25","新北市中和區莒光路211-41號","121.47013","24.9929366666667","6500300","中和區"
"235001","AAC-213","2017/07/27 13:29:05","新北市中和區景德街95-3號","121.515341666667","24.9912283333333","6500300","中和區"
"235023","AAC-215","2017/07/27 13:29:18","新北市中和區員山路36巷16-3號","121.485116666667","24.991515","6500300","中和區"
"220016","013-TV","2017/07/27 13:29:06","新北市板橋區民生路二段15-1號","121.47274","25.0164933333333","6500100","板橋區"
"220013","072-UY","2017/07/27 13:29:18","新北市板橋區民生路二段36-1號","121.472633333333","25.0165866666667","6500100","板橋區"
"220034","073-UY","2017/07/27 13:28:59","新北市板橋區華東街1-10號","121.448236666667","24.9950716666667","6500100","板橋區"
"247001","402-BY","2017/07/27 13:29:22","新北市蘆洲區中正路172號","121.468583333333","25.0861983333333","6501400","蘆洲區"
"247008","339-TH","2017/07/27 13:29:17","新北市五股區中興路三段5號","121.449548333333","25.0800083333333","6501400","蘆洲區"
"247001","336-TH","2017/07/27 13:29:04","新北市五股區中興路三段2巷10號","121.448681666667","25.081675","6501400","蘆洲區"
"228005","097-TW","2017/07/27 13:29:22","新北市貢寮區美豐里文秀坑8號","121.902631666667","25.05053","6502600","貢寮區"
"228004","212-TW","2017/07/27 13:24:09","新北市貢寮區龍崗里石壁坑街17-3號","121.910368333333","24.9888583333333","6502600","貢寮區"
"208004","AAC-292","2017/07/27 13:29:12","新北市金山區南勢湖66號","121.616166666667","25.214845","6502700","金山區"
"252005","073-UM","2017/07/27 13:29:03","新北市三芝區福德里土地公埔67-3號","121.519901666667","25.22777","6502100","三芝區"
"207001","662-BX","2017/07/27 13:29:19","新北市萬里區大鵬里萬里加投9號","121.653046666667","25.2089083333333","6502800","萬里區"
"236005","498-BY","2017/07/27 13:29:20","新北市土城區亞洲路11巷1弄34號","121.436326666667","24.971785","6501300","土城區"
"242052","349-TH","2017/07/27 13:29:14","新北市新莊區福營路397號","121.42229","25.02607","6500500","新莊區"
"221032","280-BY","2017/07/27 13:29:22","新北市汐止區水源路一段56號","121.657461666667","25.0655383333333","6501100","汐止區"
"221031","353-TW","2017/07/27 13:28:24","新北市汐止區水源路二段48號","121.654983333333","25.0565366666667","6501100","汐止區"
"221002","753-BX","2017/07/27 13:29:20","新北市汐止區福德一路392巷34號","121.626876666667","25.0621633333333","6501100","汐止區"
"220027","145-BY","2017/07/27 13:29:05","新北市板橋區大觀路二段11-12號","121.448713333333","24.9961383333333","6500100","板橋區"
"220030","610-BX","2017/07/27 13:29:08","新北市板橋區華東街1-10號","121.448276666667","24.9949033333333","6500100","板橋區"
"220004","276-BY","2017/07/27 13:29:21","新北市板橋區中山路一段24號","121.460315","25.00831","6500100","板橋區"
"220043","283-UM","2017/07/27 13:29:20","新北市板橋區民生路二段161巷1號","121.470095","25.020145","6500100","板橋區"
"220019","283-VK","2017/07/27 13:29:16","新北市板橋區民生路二段15-1號","121.472746666667","25.0164633333333","6500100","板橋區"
"220009","295-UM","2017/07/27 13:29:19","新北市板橋區民生路二段36-1號","121.472495","25.0167666666667","6500100","板橋區"
"220032","296-UM","2017/07/27 13:29:04","新北市板橋區華東街1-9號","121.448138333333","24.99494","6500100","板橋區"
"220064","486-VK","2017/07/27 02:34:11","新北市板橋區民生路二段22號","121.47276","25.0166016666667","6500100","板橋區"
"220011","609-BX","2017/07/27 13:29:17","新北市板橋區民生路二段36-1號","121.472595","25.016525","6500100","板橋區"
"220005","686-BX","2017/07/27 13:29:10","新北市板橋區民生路二段36-1號","121.472621666667","25.0165466666667","6500100","板橋區"
"220077","687-BX","2017/07/27 13:29:16","新北市板橋區大觀路二段435-5號","121.446911666667","24.99489","6500100","板橋區"
"220002","741-BX","2017/07/27 13:29:07","新北市板橋區民生路二段36-1號","121.472648333333","25.0165483333333","6500100","板橋區"
"220022","895-R6","2017/07/27 13:29:17","新北市板橋區南雅南路二段146號","121.451661666667","24.99613","6500100","板橋區"
"220073","985-R7","2017/07/27 13:28:47","新北市板橋區華東街1-10號","121.448331666667","24.9949183333333","6500100","板橋區"
