"lineid","car","time","location","longitude","latitude","cityid","cityname"
"234044","148-BY","2017/07/27 13:39:09","新北市永和區秀朗路二段110號","121.524215","25.00158","6500400","永和區"
"234012","149-BY","2017/07/27 13:39:04","新北市永和區永平路208號","121.509596666667","25.010215","6500400","永和區"
"234005","207-UY","2017/07/27 13:39:10","新北市永和區永和路一段127號","121.514028333333","25.0084966666667","6500400","永和區"
"234078","298-R6","2017/07/27 13:39:11","新北市永和區林森路20巷22號","121.52571","25.005975","6500400","永和區"
"234036","336-UY","2017/07/27 13:39:14","新北市永和區民樂街39巷18弄2號","121.528553333333","24.9995816666667","6500400","永和區"
"234062","337-UY","2017/07/27 13:39:16","新北市永和區秀朗路一段192巷6弄12號","121.519083333333","25.0023483333333","6500400","永和區"
"234084","338-UY","2017/07/27 13:39:11","新北市永和區林森路41巷1號","121.525138333333","25.0045683333333","6500400","永和區"
"234068","552-UM","2017/07/27 13:39:15","新北市永和區竹林路51號","121.518136666667","25.01392","6500400","永和區"
"234052","553-UM","2017/07/27 13:39:06","新北市永和區竹林路39巷10號","121.51836","25.0144233333333","6500400","永和區"
"234015","745-BX","2017/07/27 13:39:16","新北市永和區永和路二段425巷57弄7號","121.513546666667","25.01708","6500400","永和區"
"234028","840-RS","2017/07/27 12:53:09","新北市永和區得和路422號","121.526266666667","24.9990566666667","6500400","永和區"
"234060","AAD-866","2017/07/27 13:39:07","新北市永和區永貞路218-1號","121.515278333333","25.0039966666667","6500400","永和區"
"234040","862-TW","2017/07/27 13:39:09","新北市永和區中和路399號","121.508906666667","25.00023","6500400","永和區"
"234048","863-TW","2017/07/27 13:39:06","新北市永和區新生路83巷14號","121.508751666667","25.01574","6500400","永和區"
"234025","9371-KE","2017/07/27 13:39:12","新北市永和區和平街109巷6-1號","121.510698333333","25.0096483333333","6500400","永和區"
"234010","9373-KE","2017/07/27 13:39:05","新北市永和區保福路二段37號","121.510876666667","25.0114533333333","6500400","永和區"
"248013","025-BX","2017/07/27 13:39:16","新北市五股區民義路一段107巷32號","121.43274","25.0845666666667","6501500","五股區"
"248015","026-BX","2017/07/27 13:39:14","新北市五股區凌雲路一段149巷42號","121.44863","25.10092","6501500","五股區"
"248005","077-UY","2017/07/27 13:39:23","新北市五股區中興路一段57號","121.468023333333","25.07256","6501500","五股區"
"248007","095-VK","2017/07/27 13:39:11","新北市五股區中興路一段150巷5號","121.464623333333","25.0742333333333","6501500","五股區"
"248011","247-BX","2017/07/27 13:25:34","新北市五股區御成路69號","121.441565","25.0926866666667","6501500","五股區"
"248017","261-SL","2017/07/27 13:39:09","新北市五股區御史路138號","121.433376666667","25.0987233333333","6501500","五股區"
"248009","272-BY","2017/07/27 13:39:23","新北市五股區水碓五路175號","121.431248333333","25.074","6501500","五股區"
"248001","655-BX","2017/07/27 13:39:16","新北市五股區西雲路262號","121.449071666667","25.0974833333333","6501500","五股區"
"248003","677-BX","2017/07/27 13:39:07","新北市五股區民義路一段236-5號","121.427281666667","25.0914133333333","6501500","五股區"
"234022","9380-KE","2017/07/27 13:39:19","新北市永和區中正路702巷18號","121.516405","25.0105333333333","6500400","永和區"
"234076","969-R7","2017/07/27 13:39:19","新北市永和區中正路340號","121.518013333333","24.9999833333333","6500400","永和區"
"234072","AAC-211","2017/07/27 13:39:21","新北市永和區竹林路213巷44號","121.52311","25.009105","6500400","永和區"
"234066","AAC-212","2017/07/27 13:39:13","新北市永和區中山路一段197號","121.509033333333","25.0087666666667","6500400","永和區"
"234001","AAC-295","2017/07/27 13:39:16","新北市永和區秀朗路一段6號","121.51377","25.007185","6500400","永和區"
"244003","248-BX","2017/07/27 13:39:11","新北市林口區瑞樹坑58號","121.344223333333","25.1265616666667","6501700","林口區"
"244018","403-UM","2017/07/27 09:49:04","新北市林口區粉寮路60-16號","121.404425","25.0897366666667","6501700","林口區"
"244025","656-BX","2017/07/27 09:37:55","新北市林口區粉寮路二段160巷28號","121.405196666667","25.0907666666667","6501700","林口區"
"243002","267-VK","2017/07/27 13:39:04","新北市泰山區泰林路二段576號","121.422461666667","25.063615","6501600","泰山區"
"243005","AAD-798","2017/07/27 13:39:12","新北市泰山區明志路三段206巷3號","121.423316666667","25.0379516666667","6501600","泰山區"
"243007","380-SR","2017/07/27 13:39:13","新北市泰山區犁頭窠3-1號","121.422151666667","25.060445","6501600","泰山區"
"243006","421-VK","2017/07/27 13:39:12","新北市泰山區黎明路25號","121.421853333333","25.0609116666667","6501600","泰山區"
"243004","646-TV","2017/07/27 13:39:19","新北市泰山區泰林路二段262號","121.431663333333","25.0623233333333","6501600","泰山區"
"243008","680-BX","2017/07/27 13:39:13","新北市泰山區黎明路3號","121.42104","25.0634883333333","6501600","泰山區"
"231002","002-UM","2017/07/27 13:39:23","新北市新店區中央三街127號","121.523975","24.97683","6500600","新店區"
"231025","0291-UT","2017/07/27 13:39:05","新北市新店區中央六街56號","121.527895","24.9757133333333","6500600","新店區"
"231028","046-UY","2017/07/27 13:38:56","新北市新店區安和路二段155號","121.518993333333","24.9742133333333","6500600","新店區"
"231030","047-UY","2017/07/27 13:39:24","新北市新店區安康路一段70號","121.528408333333","24.9618116666667","6500600","新店區"
"231029","106-UY","2017/07/27 13:39:09","新北市新店區安康路二段239號","121.508145","24.9585566666667","6500600","新店區"
"231018","107-UY","2017/07/27 13:39:22","新北市新店區百忍街11號","121.53466","24.97555","6500600","新店區"
"231011","108-UY","2017/07/27 13:39:15","新北市新店區德正街27巷29弄14號","121.545768333333","24.971925","6500600","新店區"
"231021","187-VK","2017/07/27 13:39:19","新北市新店區永興路88-3號","121.544125","24.9329516666667","6500600","新店區"
"231007","189-VK","2017/07/27 12:00:48","新北市新店區安華路28-1號","121.519686666667","24.9611066666667","6500600","新店區"
"231026","256-BX","2017/07/27 13:39:06","新北市新店區光明街119號","121.539033333333","24.961625","6500600","新店區"
"231010","278-BY","2017/07/27 13:39:23","新北市新店區中正路307巷17號","121.535861666667","24.973575","6500600","新店區"
"231017","AAD-862","2017/07/27 13:39:13","新北市新店區竹林路2巷29弄7號","121.55043","24.9502783333333","6500600","新店區"
"231027","3712-VJ","2017/07/27 13:39:06","新北市新店區新店路13號","121.54039","24.9528866666667","6500600","新店區"
"231024","3713-VJ","2017/07/27 13:39:04","新北市新店區華興街38巷3號","121.537165","24.96915","6500600","新店區"
"231036","512-UM","2017/07/27 13:39:22","新北市新店區安祥路147巷10號","121.475373333333","24.955695","6500600","新店區"
"231023","513-UM","2017/07/27 13:39:18","新北市新店區新店路163號","121.537073333333","24.9555483333333","6500600","新店區"
"231035","515-UM","2017/07/27 13:39:20","新北市新店區安忠路77號","121.511206666667","24.9572","6500600","新店區"
"231006","617-UM","2017/07/27 13:39:17","新北市新店區北宜路一段83號","121.538566666667","24.95603","6500600","新店區"
"231001","619-UM","2017/07/27 13:39:16","新北市新店區中正路376號","121.53493","24.97677","6500600","新店區"
"231003","641-BX","2017/07/27 13:39:11","新北市新店區中正路72號","121.54405","24.9702633333333","6500600","新店區"
"231034","645-TV","2017/07/27 13:39:21","新北市新店區達觀路14巷1號","121.503578333333","24.94106","6500600","新店區"
"231013","719-UM","2017/07/27 13:39:17","新北市新店區中正路454-5號","121.534586666667","24.9790183333333","6500600","新店區"
"231031","720-UM","2017/07/27 13:39:24","新北市新店區莒光路61號","121.524076666667","24.9586166666667","6500600","新店區"
"231005","897-TW","2017/07/27 13:39:14","新北市新店區寶中路83號","121.547823333333","24.9806783333333","6500600","新店區"
"231004","899-TW","2017/07/27 13:39:13","新北市新店區北新路二段7號","121.542681666667","24.9713416666667","6500600","新店區"
"231037","AKT-0513","2017/07/27 13:39:04","新北市新店區薏仁坑路5號","121.499221666667","24.9589233333333","6500600","新店區"
"235030","003-UY","2017/07/27 13:39:08","新北市中和區水源路35號","121.504326666667","25.003575","6500300","中和區"
"235028","005-UY","2017/07/27 13:39:14","新北市中和區連城路89巷14號","121.497161666667","24.99921","6500300","中和區"
"235027","006-UY","2017/07/27 13:39:13","新北市中和區連城路347巷2弄2號","121.487936666667","24.9959333333333","6500300","中和區"
"235020","096-UM","2017/07/27 13:39:14","新北市中和區員山路466巷17弄3號","121.48056","25.0068483333333","6500300","中和區"
"235003","097-UM","2017/07/27 13:39:09","新北市中和區大勇街25巷38弄1號","121.515751666667","24.9938166666667","6500300","中和區"
"235029","098-UM","2017/07/27 13:39:10","新北市中和區莊敬路33巷36弄12號","121.50058","25.0064283333333","6500300","中和區"
"235004","150-BY","2017/07/27 13:39:16","新北市中和區安平路59號","121.509431666667","24.9952316666667","6500300","中和區"
"235022","151-BY","2017/07/27 13:39:10","新北市中和區員山路28-25號","121.480941666667","24.986665","6500300","中和區"
"235019","183-VK","2017/07/27 13:39:04","新北市中和區莒光路120巷2弄7號","121.471981666667","25.002125","6500300","中和區"
"235002","185-VK","2017/07/27 13:39:21","新北市中和區自強路52號","121.520121666667","24.9948016666667","6500300","中和區"
"235013","186-VK","2017/07/27 13:39:18","新北市中和區景安路179-3號","121.5052","24.99385","6500300","中和區"
"235031","255-BX","2017/07/27 13:39:18","新北市中和區新生街240號","121.483736666667","24.997955","6500300","中和區"
"235008","293-VK","2017/07/27 13:39:20","新北市中和區復興路301巷15號","121.501503333333","24.9897566666667","6500300","中和區"
"235036","301-VK","2017/07/27 13:37:44","新北市中和區連城路96號","121.496505","25.0000683333333","6500300","中和區"
"235007","352-BY","2017/07/27 13:39:20","新北市中和區景平路163號","121.512403333333","24.99241","6500300","中和區"
"235015","376-QA","2017/07/27 13:39:08","新北市中和區華新街143巷58號","121.506106666667","24.97954","6500300","中和區"
"235032","377-QA","2017/07/27 13:39:20","新北市中和區中正路211巷13弄7號","121.49714","24.9933166666667","6500300","中和區"
"235025","378-QA","2017/07/27 13:39:19","新北市中和區民享街90巷19號","121.474091666667","25.0001516666667","6500300","中和區"
"235014","4979-A6","2017/07/27 13:38:50","新北市中和區景新街496巷33弄4號","121.51358","24.9858566666667","6500300","中和區"
"235033","4980-A6","2017/07/27 13:39:18","新北市中和區南山路81巷8弄10號","121.502401666667","24.9976283333333","6500300","中和區"
"235006","551-UM","2017/07/27 13:39:23","新北市中和區成功路101巷5號","121.526501666667","24.9917333333333","6500300","中和區"
"235034","558-UM","2017/07/27 13:39:18","新北市中和區景平路429-2號","121.50131","24.9954766666667","6500300","中和區"
"235009","565-BX","2017/07/27 13:39:06","新北市中和區南山路236巷36弄5號","121.504111666667","24.98842","6500300","中和區"
"235018","640-BX","2017/07/27 13:39:20","新北市中和區民享街93-1號","121.474695","25.00052","6500300","中和區"
"235024","647-TV","2017/07/27 13:39:06","新北市中和區員山路477巷6號","121.48","25.0052583333333","6500300","中和區"
"235011","732-UM","2017/07/27 13:39:16","新北市中和區南山路320巷10弄21號","121.506821666667","24.9866916666667","6500300","中和區"
"235010","733-UM","2017/07/27 13:39:08","新北市中和區南山路421巷1弄34號","121.507115","24.990505","6500300","中和區"
"235035","783-BX","2017/07/27 13:39:16","新北市中和區中原街92號","121.488211666667","25.010295","6500300","中和區"
"235026","800-TS","2017/07/27 13:39:17","新北市中和區中山路二段312巷33弄16號","121.494831666667","25.0040233333333","6500300","中和區"
"235021","801-TS","2017/07/27 13:39:15","新北市中和區民安街42巷2號","121.479965","25.0006116666667","6500300","中和區"
"235005","802-TS","2017/07/27 13:39:11","新北市中和區中和路400巷27號","121.51192","25.0021366666667","6500300","中和區"
"235016","805-TS","2017/07/27 13:39:12","新北市中和區興南路三段46號","121.495708333333","24.9768066666667","6500300","中和區"
"235012","896-TW","2017/07/27 13:39:21","新北市中和區中正路81號","121.500703333333","24.9934916666667","6500300","中和區"
"235017","900-TW","2017/07/27 13:39:05","新北市土城區延壽路55巷1號","121.469786666667","24.99218","6500300","中和區"
"235001","AAC-213","2017/07/27 13:39:05","新北市中和區景德街97號","121.51569","24.9912583333333","6500300","中和區"
"235023","AAC-215","2017/07/27 13:39:18","新北市中和區員山路36巷16-2號","121.485273333333","24.9913366666667","6500300","中和區"
"220016","013-TV","2017/07/27 13:39:06","新北市板橋區民生路二段15-1號","121.472801666667","25.0163983333333","6500100","板橋區"
"220013","072-UY","2017/07/27 13:39:18","新北市板橋區民生路二段22號","121.472686666667","25.01663","6500100","板橋區"
"220034","073-UY","2017/07/27 13:39:19","新北市板橋區南雅西路二段192巷3號","121.452021666667","25.0144316666667","6500100","板橋區"
"247001","402-BY","2017/07/27 13:39:22","新北市蘆洲區民權路146號","121.472755","25.08929","6501400","蘆洲區"
"247007","339-TH","2017/07/27 13:39:17","新北市蘆洲區復興路323巷188號","121.476238333333","25.0969716666667","6501400","蘆洲區"
"247001","336-TH","2017/07/27 13:39:04","新北市五股區中興路三段2巷10號","121.448956666667","25.081565","6501400","蘆洲區"
"247013","057-VK","2017/07/27 13:39:07","新北市蘆洲區中正路516巷5號","121.460808333333","25.0978916666667","6501400","蘆洲區"
"247003","056-VK","2017/07/27 13:39:19","新北市蘆洲區永安南路二段292號","121.457178333333","25.08169","6501400","蘆洲區"
"247015","001-UY","2017/07/27 13:39:06","新北市五股區新城八路1號","121.447963333333","25.08919","6501400","蘆洲區"
"228005","097-TW","2017/07/27 13:39:22","新北市貢寮區美豐里文秀坑5-1號","121.902671666667","25.0505833333333","6502600","貢寮區"
"228004","212-TW","2017/07/27 13:38:09","新北市貢寮區龍崗里嵩陽街17號","121.907316666667","25.0086333333333","6502600","貢寮區"
"208004","AAC-292","2017/07/27 13:39:12","新北市金山區重和里三重橋13號","121.591308333333","25.1901633333333","6502700","金山區"
"207002","291-VK","2017/07/27 13:39:15","新北市萬里區萬里里瑪鋉路20號","121.688813333333","25.17687","6502800","萬里區"
"252005","073-UM","2017/07/27 13:37:03","新北市三芝區圓山里八連溪頭2-3號","121.523993333333","25.223165","6502100","三芝區"
"207001","662-BX","2017/07/27 13:39:19","新北市萬里區磺潭里公館崙36號","121.631045","25.2088866666667","6502800","萬里區"
"236076","166-UM","2017/07/27 13:39:11","新北市土城區城林路6巷80號","121.438588333333","24.9797233333333","6501300","土城區"
"236028","253-BX","2017/07/27 13:39:05","新北市土城區城林路6巷80號","121.438473333333","24.97986","6501300","土城區"
"236033","271-VK","2017/07/27 13:39:06","新北市土城區城林路6巷80號","121.43851","24.97976","6501300","土城區"
"236005","498-BY","2017/07/27 13:39:20","新北市土城區慶祥街19號","121.436746666667","24.9741966666667","6501300","土城區"
"236047","913-UM","2017/07/27 13:39:12","新北市土城區城林路6巷80號","121.438368333333","24.9797816666667","6501300","土城區"
"236060","915-UM","2017/07/27 13:39:19","新北市土城區城林路6巷80號","121.438431666667","24.9798433333333","6501300","土城區"
"236052","AAC-216","2017/07/27 13:39:08","新北市土城區城林路6巷80號","121.438431666667","24.979825","6501300","土城區"
"242052","349-TH","2017/07/27 13:39:14","新北市新莊區民安西路88巷5弄4號","121.425983333333","25.0196433333333","6500500","新莊區"
"221032","280-BY","2017/07/27 13:39:22","新北市汐止區仁愛路25號","121.659328333333","25.0637783333333","6501100","汐止區"
"221031","353-TW","2017/07/27 13:39:04","新北市汐止區水源路二段72巷31弄9號","121.655915","25.0547883333333","6501100","汐止區"
"221002","753-BX","2017/07/27 13:39:20","新北市汐止區福德二路233號","121.627108333333","25.0645683333333","6501100","汐止區"
"220027","145-BY","2017/07/27 13:39:05","新北市板橋區民權路202巷6弄8號","121.460371666667","25.0142616666667","6500100","板橋區"
"220028","200-UY","2017/07/27 13:39:08","新北市板橋區華東街1-9號","121.448286666667","24.994785","6500100","板橋區"
"220030","610-BX","2017/07/27 13:39:08","新北市板橋區華東街1-10號","121.44828","24.9948983333333","6500100","板橋區"
"220004","276-BY","2017/07/27 13:39:21","新北市板橋區四川路二段239號","121.45082","24.9939716666667","6500100","板橋區"
"220020","277-BY","2017/07/27 13:39:19","新北市板橋區華東街1-10號","121.448218333333","24.99506","6500100","板橋區"
"220043","283-UM","2017/07/27 13:39:20","新北市板橋區民生路二段161巷1號","121.470143333333","25.0201766666667","6500100","板橋區"
"220019","283-VK","2017/07/27 13:39:16","新北市板橋區民生路二段36-1號","121.472668333333","25.0165633333333","6500100","板橋區"
"220031","286-VK","2017/07/27 13:39:05","新北市板橋區華東街1-9號","121.448231666667","24.9948683333333","6500100","板橋區"
"220081","287-VK","2017/07/27 13:38:54","新北市板橋區華東街1-10號","121.448183333333","24.9950433333333","6500100","板橋區"
"220039","288-VK","2017/07/27 13:39:17","新北市板橋區民生路二段161巷9號","121.470288333333","25.019675","6500100","板橋區"
"220009","295-UM","2017/07/27 13:39:19","新北市板橋區民生路二段36-1號","121.472431666667","25.01684","6500100","板橋區"
"220032","296-UM","2017/07/27 13:39:04","新北市板橋區華東街1-9號","121.448158333333","24.9949383333333","6500100","板橋區"
"220023","297-UM","2017/07/27 13:39:07","新北市板橋區華東街1-9號","121.448136666667","24.99496","6500100","板橋區"
"220062","303-R5","2017/07/27 13:38:08","新北市板橋區民生路二段15-1號","121.472903333333","25.0162216666667","6500100","板橋區"
"220012","486-VK","2017/07/27 13:39:12","新北市板橋區民生路二段36-1號","121.472476666667","25.0168466666667","6500100","板橋區"
"220104","560-BX","2017/07/27 13:39:06","新北市板橋區西門街42號","121.454373333333","25.0095233333333","6500100","板橋區"
"220011","609-BX","2017/07/27 13:39:17","新北市板橋區民生路二段17號","121.472656666667","25.016355","6500100","板橋區"
"220005","686-BX","2017/07/27 13:39:10","新北市板橋區民生路二段36-1號","121.472656666667","25.0165583333333","6500100","板橋區"
"220077","687-BX","2017/07/27 13:39:16","新北市板橋區大觀路三段229號","121.430768333333","24.9923066666667","6500100","板橋區"
"220002","741-BX","2017/07/27 13:39:07","新北市板橋區中山路二段89巷5弄12號","121.472721666667","25.0167566666667","6500100","板橋區"
"220051","830-TW","2017/07/27 13:31:57","新北市板橋區中山路二段161號","121.475828333333","25.0167883333333","6500100","板橋區"
"220022","895-R6","2017/07/27 13:39:17","新北市板橋區南雅南路一段47號","121.455978333333","25.0061616666667","6500100","板橋區"
"220073","985-R7","2017/07/27 13:39:07","新北市板橋區華東街1-10號","121.448326666667","24.9949516666667","6500100","板橋區"
"220046","AAC-210","2017/07/27 13:39:03","新北市板橋區民生路二段161巷3號","121.470255","25.0198083333333","6500100","板橋區"
