"lineid","car","time","location","longitude","latitude","cityid","cityname"
"234044","148-BY","2017/07/27 13:59:09","新北市永和區永利路113號","121.5236","25.0026383333333","6500400","永和區"
"234012","149-BY","2017/07/27 13:59:03","新北市永和區保安路256號","121.50612","25.012565","6500400","永和區"
"234005","207-UY","2017/07/27 13:59:10","新北市中和區中和路326號","121.509658333333","25.0009066666667","6500400","永和區"
"234078","298-R6","2017/07/27 13:59:11","新北市永和區永亨路98號","121.522973333333","25.004675","6500400","永和區"
"234036","336-UY","2017/07/27 13:59:22","新北市永和區成功路二段80號","121.526641666667","24.9988666666667","6500400","永和區"
"234062","337-UY","2017/07/27 13:59:16","新北市永和區秀朗路一段196巷11號","121.51984","25.0026766666667","6500400","永和區"
"234084","338-UY","2017/07/27 13:59:10","新北市永和區中正路481號","121.516925","25.0064933333333","6500400","永和區"
"234068","552-UM","2017/07/27 13:59:15","新北市永和區福和路183巷2弄1號","121.519916666667","25.0071933333333","6500400","永和區"
"234052","553-UM","2017/07/27 13:59:06","新北市永和區竹林路39巷9號","121.518336666667","25.014505","6500400","永和區"
"234015","745-BX","2017/07/27 13:59:06","新北市永和區文化路121巷1號","121.512558333333","25.0151533333333","6500400","永和區"
"234028","840-RS","2017/07/27 12:53:09","新北市永和區得和路422號","121.526266666667","24.9990566666667","6500400","永和區"
"234060","AAD-866","2017/07/27 13:59:07","新北市永和區得和路66號","121.516246666667","24.9999616666667","6500400","永和區"
"234040","862-TW","2017/07/27 13:59:09","新北市永和區中和路335巷18弄7號","121.507678333333","25.0004066666667","6500400","永和區"
"234048","863-TW","2017/07/27 13:59:15","新北市永和區保安路250號","121.506253333333","25.0126533333333","6500400","永和區"
"234010","9373-KE","2017/07/27 13:59:05","新北市永和區保生路55-1號","121.504486666667","25.010945","6500400","永和區"
"248013","025-BX","2017/07/27 13:59:16","新北市五股區民義路一段107巷32號","121.432518333333","25.0846916666667","6501500","五股區"
"248015","026-BX","2017/07/27 13:59:14","新北市五股區成泰路三段543巷12弄11號","121.451283333333","25.1023716666667","6501500","五股區"
"248007","095-VK","2017/07/27 13:59:11","新北市五股區中興路一段118巷6弄15號","121.46628","25.0747883333333","6501500","五股區"
"248011","247-BX","2017/07/27 13:58:53","新北市五股區成泰路二段197巷1號","121.440556666667","25.087625","6501500","五股區"
"248017","261-SL","2017/07/27 13:59:09","新北市五股區民義路二段48巷2-10號","121.415636666667","25.101875","6501500","五股區"
"248009","272-BY","2017/07/27 13:59:03","新北市五股區水碓一路23號","121.430578333333","25.0713316666667","6501500","五股區"
"248001","655-BX","2017/07/27 13:59:06","新北市五股區凌雲路一段158巷14號","121.447793333333","25.10344","6501500","五股區"
"248003","677-BX","2017/07/27 13:59:07","新北市五股區民義路三段1號","121.403655","25.1129766666667","6501500","五股區"
"234022","9380-KE","2017/07/27 13:58:59","新北市永和區永和路二段276巷1號","121.516365","25.0153516666667","6500400","永和區"
"234076","969-R7","2017/07/27 13:59:17","新北市永和區民治街72巷6號","121.518266666667","24.9982116666667","6500400","永和區"
"234072","AAC-211","2017/07/27 13:59:01","新北市永和區豫溪街185號","121.522475","25.01041","6500400","永和區"
"234066","AAC-212","2017/07/27 13:59:13","新北市永和區永貞路339號","121.50957","25.00711","6500400","永和區"
"234001","AAC-295","2017/07/27 13:59:22","新北市永和區福和路316-1號","121.515963333333","25.0074566666667","6500400","永和區"
"244018","403-UM","2017/07/27 09:49:04","新北市林口區粉寮路60-16號","121.404425","25.0897366666667","6501700","林口區"
"244025","656-BX","2017/07/27 09:37:55","新北市林口區粉寮路二段160巷28號","121.405196666667","25.0907666666667","6501700","林口區"
"243002","267-VK","2017/07/27 13:59:04","新北市泰山區辭修路24號","121.429013333333","25.0581366666667","6501600","泰山區"
"243005","AAD-798","2017/07/27 13:59:19","新北市泰山區明志路三段342號","121.422","25.0353316666667","6501600","泰山區"
"243001","297-R6","2017/07/27 13:59:14","新北市泰山區泰林路二段290號","121.430918333333","25.0626716666667","6501600","泰山區"
"243007","380-SR","2017/07/27 13:59:13","新北市泰山區泰林路二段240號","121.432215","25.0620766666667","6501600","泰山區"
"243006","421-VK","2017/07/27 13:59:12","新北市泰山區黎明路2-5號","121.420861666667","25.0626166666667","6501600","泰山區"
"243003","549-UM","2017/07/27 13:59:13","新北市泰山區明志路二段298巷16-1號","121.425691666667","25.0468816666667","6501600","泰山區"
"243004","646-TV","2017/07/27 13:59:18","新北市泰山區福興三街158號","121.433001666667","25.0571816666667","6501600","泰山區"
"243008","680-BX","2017/07/27 13:59:14","新北市泰山區明志路二段177號","121.427508333333","25.050095","6501600","泰山區"
"231002","002-UM","2017/07/27 13:59:03","新北市新店區中正路707號","121.533805","24.991165","6500600","新店區"
"231025","0291-UT","2017/07/27 13:59:05","新北市新店區中正路401號","121.534376666667","24.9774916666667","6500600","新店區"
"231028","046-UY","2017/07/27 13:59:16","新北市新店區安和路三段125號","121.517281666667","24.98523","6500600","新店區"
"231030","047-UY","2017/07/27 13:59:05","新北市新店區吉安街35號","121.515815","24.96609","6500600","新店區"
"231029","106-UY","2017/07/27 13:59:09","新北市新店區安康路二段26號","121.515818333333","24.9637983333333","6500600","新店區"
"231018","107-UY","2017/07/27 13:59:02","新北市新店區中央路99號","121.531093333333","24.9750616666667","6500600","新店區"
"231011","108-UY","2017/07/27 13:59:15","新北市新店區中興路二段81號","121.546808333333","24.9711683333333","6500600","新店區"
"231021","187-VK","2017/07/27 13:59:19","新北市新店區自強路36號","121.546121666667","24.9259233333333","6500600","新店區"
"231007","189-VK","2017/07/27 12:00:48","新北市新店區安華路28-1號","121.519686666667","24.9611066666667","6500600","新店區"
"231026","256-BX","2017/07/27 13:59:06","新北市新店區環河路113-1號","121.53112","24.97109","6500600","新店區"
"231017","AAD-862","2017/07/27 13:59:13","新北市新店區北宜路二段82巷7弄2號","121.553666666667","24.9526166666667","6500600","新店區"
"231027","3712-VJ","2017/07/27 13:59:06","新北市新店區中興路一段34號","121.538701666667","24.9585783333333","6500600","新店區"
"231024","3713-VJ","2017/07/27 13:59:04","新北市新店區北新路一段271巷35號","121.539558333333","24.9670233333333","6500600","新店區"
"231038","4715-K9","2017/07/27 13:59:07","新北市新店區安康路一段32號","121.531511666667","24.9616816666667","6500600","新店區"
"231036","512-UM","2017/07/27 13:59:02","新北市新店區安祥路109巷3弄11號","121.478286666667","24.9613016666667","6500600","新店區"
"231023","513-UM","2017/07/27 13:59:18","新北市新店區文中路40號","121.539685","24.9565383333333","6500600","新店區"
"231035","515-UM","2017/07/27 13:59:20","新北市新店區安和路一段52巷2號","121.51765","24.96622","6500600","新店區"
"231006","617-UM","2017/07/27 13:59:10","新北市新店區北宜路二段207號","121.553121666667","24.9533066666667","6500600","新店區"
"231001","619-UM","2017/07/27 13:59:16","新北市新店區三民路24號","121.537115","24.9709733333333","6500600","新店區"
"231003","641-BX","2017/07/27 13:59:11","新北市新店區光明街36號","121.538691666667","24.95905","6500600","新店區"
"231034","645-TV","2017/07/27 13:59:10","新北市新店區達觀路8巷3-4號","121.503976666667","24.9429483333333","6500600","新店區"
"231013","719-UM","2017/07/27 13:59:17","新北市新店區明德路66號","121.541596666667","24.9795716666667","6500600","新店區"
"231031","720-UM","2017/07/27 13:59:10","新北市新店區華城路34-1號","121.528965","24.956735","6500600","新店區"
"231005","897-TW","2017/07/27 13:59:14","新北市新店區寶中路49-1號","121.546538333333","24.9800166666667","6500600","新店區"
"231004","899-TW","2017/07/27 13:59:13","新北市新店區寶橋路31號","121.544255","24.9744416666667","6500600","新店區"
"231037","AKT-0513","2017/07/27 13:59:04","新北市新店區安康路三段355巷27號","121.484951666667","24.949975","6500600","新店區"
"235030","003-UY","2017/07/27 13:59:19","新北市中和區中山路二段131巷5弄3號","121.502848333333","25.0028533333333","6500300","中和區"
"235028","005-UY","2017/07/27 13:59:14","新北市中和區泰和街35號","121.499166666667","24.9997166666667","6500300","中和區"
"235027","006-UY","2017/07/27 13:59:13","新北市中和區連城路319巷3弄1號","121.489195","24.9956716666667","6500300","中和區"
"235020","096-UM","2017/07/27 13:59:14","新北市中和區中正路1220巷7號","121.479726666667","25.0113766666667","6500300","中和區"
"235003","097-UM","2017/07/27 13:59:09","新北市中和區景平路64巷13弄3-1號","121.521885","24.9912816666667","6500300","中和區"
"235029","098-UM","2017/07/27 13:59:10","新北市中和區福祥路136號","121.498828333333","25.006935","6500300","中和區"
"235004","150-BY","2017/07/27 13:59:16","新北市中和區安平路93號","121.511046666667","24.9967116666667","6500300","中和區"
"235022","151-BY","2017/07/27 13:59:10","新北市中和區員山路77巷1弄1號","121.480626666667","24.99423","6500300","中和區"
"235019","183-VK","2017/07/27 13:59:04","新北市中和區民生街70號","121.46875","25.0049216666667","6500300","中和區"
"235002","185-VK","2017/07/27 13:59:01","新北市中和區大勇街43巷4號","121.517693333333","24.9947516666667","6500300","中和區"
"235013","186-VK","2017/07/27 13:59:16","新北市中和區景安路167巷23號","121.506595","24.99497","6500300","中和區"
"235031","255-BX","2017/07/27 13:59:18","新北市中和區新生街266號","121.483481666667","24.9972016666667","6500300","中和區"
"235008","293-VK","2017/07/27 13:59:20","新北市中和區中興街170號","121.499875","24.99138","6500300","中和區"
"235036","301-VK","2017/07/27 13:59:05","新北市中和區中山路二段259號","121.497235","25.00235","6500300","中和區"
"235007","352-BY","2017/07/27 13:59:20","新北市永和區成功路二段152-2號","121.526446666667","24.9966","6500300","中和區"
"235015","376-QA","2017/07/27 13:59:08","新北市中和區忠孝街11巷12號","121.509946666667","24.9832516666667","6500300","中和區"
"235032","377-QA","2017/07/27 13:59:20","新北市中和區圓通路289號","121.49507","24.99274","6500300","中和區"
"235025","378-QA","2017/07/27 13:59:19","新北市中和區民享街69巷7號","121.474625","25.0022683333333","6500300","中和區"
"235014","4979-A6","2017/07/27 13:54:50","新北市中和區華新街48號","121.507941666667","24.98412","6500300","中和區"
"235033","4980-A6","2017/07/27 13:59:18","新北市中和區中和路165巷3號","121.502838333333","25.0001466666667","6500300","中和區"
"235006","551-UM","2017/07/27 13:59:23","新北市中和區秀朗路三段22巷14號","121.525698333333","24.9962816666667","6500300","中和區"
"235034","558-UM","2017/07/27 13:59:18","新北市中和區圓通路14號","121.501526666667","24.9983166666667","6500300","中和區"
"235009","565-BX","2017/07/27 13:59:06","新北市中和區景安路204號","121.504073333333","24.9910616666667","6500300","中和區"
"235018","640-BX","2017/07/27 13:59:20","新北市中和區民享街35巷3號","121.474395","25.003875","6500300","中和區"
"235024","647-TV","2017/07/27 13:59:06","新北市中和區中山路三段218號","121.471336666667","25.0064583333333","6500300","中和區"
"235011","732-UM","2017/07/27 13:59:16","新北市中和區興南路二段54巷11弄4號","121.505635","24.9855066666667","6500300","中和區"
"235010","733-UM","2017/07/27 13:59:08","新北市中和區興南路二段5號","121.508131666667","24.9862366666667","6500300","中和區"
"235035","783-BX","2017/07/27 13:59:16","新北市中和區立德街55號","121.48798","25.0075416666667","6500300","中和區"
"235026","800-TS","2017/07/27 13:59:16","新北市中和區中山路二段366巷13-1號","121.491705","25.00456","6500300","中和區"
"235021","801-TS","2017/07/27 13:59:15","新北市中和區民安街25巷2弄1號","121.48055","25.0002216666667","6500300","中和區"
"235005","802-TS","2017/07/27 13:59:11","新北市中和區永貞路241號","121.513071666667","25.0038233333333","6500300","中和區"
"235016","805-TS","2017/07/27 13:59:12","新北市中和區興南路二段131-15號","121.50417","24.980225","6500300","中和區"
"235012","896-TW","2017/07/27 13:59:01","新北市中和區華新街48號","121.507981666667","24.98409","6500300","中和區"
"235017","900-TW","2017/07/27 13:59:05","新北市中和區民德路308號","121.467138333333","24.9952133333333","6500300","中和區"
"235001","AAC-213","2017/07/27 13:59:08","新北市中和區秀朗路三段128巷9弄3號","121.52445","24.993035","6500300","中和區"
"235023","AAC-215","2017/07/27 13:59:18","新北市中和區圓通路367巷20弄23號","121.491368333333","24.9883516666667","6500300","中和區"
"220016","013-TV","2017/07/27 13:58:47","新北市板橋區三民路一段31巷15號","121.479933333333","25.0231983333333","6500100","板橋區"
"220013","072-UY","2017/07/27 13:59:19","新北市板橋區民族路247巷9弄12號","121.471081666667","25.0083083333333","6500100","板橋區"
"220034","073-UY","2017/07/27 13:59:19","新北市板橋區民權路209號","121.457883333333","25.0148683333333","6500100","板橋區"
"220106","075-UY","2017/07/27 13:59:04","新北市板橋區文化路二段124巷28-2號","121.471253333333","25.0256533333333","6500100","板橋區"
"220098","120-SR","2017/07/27 13:58:59","新北市板橋區民有街14號","121.466306666667","25.0247983333333","6500100","板橋區"
"247019","893-R6","2017/07/27 13:59:17","新北市蘆洲區民族路422巷88號","121.473495","25.0938316666667","6501400","蘆洲區"
"247009","546-UM","2017/07/27 13:59:07","新北市蘆洲區集賢路224巷24號","121.481681666667","25.0872183333333","6501400","蘆洲區"
"247017","500-BY","2017/07/27 13:59:21","新北市蘆洲區民族路255巷26號","121.475898333333","25.0892083333333","6501400","蘆洲區"
"247001","402-BY","2017/07/27 13:59:03","新北市蘆洲區三民路52號","121.47531","25.0835416666667","6501400","蘆洲區"
"247005","341-TH","2017/07/27 13:59:11","新北市蘆洲區永安南路二段56號","121.465583333333","25.0777683333333","6501400","蘆洲區"
"247007","339-TH","2017/07/27 13:59:17","新北市三重區永安北路一段15號","121.47627","25.07508","6501400","蘆洲區"
"247001","336-TH","2017/07/27 13:59:04","新北市蘆洲區永平街32巷66號","121.460318333333","25.0932916666667","6501400","蘆洲區"
"247013","057-VK","2017/07/27 13:58:27","新北市蘆洲區中正路136號","121.469215","25.0851466666667","6501400","蘆洲區"
"247003","056-VK","2017/07/27 13:59:19","新北市蘆洲區長榮路28-1號","121.463458333333","25.082475","6501400","蘆洲區"
"247011","007-UY","2017/07/27 13:59:03","新北市蘆洲區民族路158號","121.479596666667","25.0862383333333","6501400","蘆洲區"
"247021","002-UY","2017/07/27 13:59:09","新北市蘆洲區中正路263巷2號","121.46727","25.0874883333333","6501400","蘆洲區"
"247015","001-UY","2017/07/27 13:59:06","新北市蘆洲區光華路22巷6號","121.469386666667","25.0836983333333","6501400","蘆洲區"
"228005","097-TW","2017/07/27 13:56:22","新北市貢寮區美豐里雞母嶺街52號","121.889946666667","25.06786","6502600","貢寮區"
"228004","212-TW","2017/07/27 13:59:09","新北市貢寮區龍崗里嵩陽街35-1號","121.90671","25.0175","6502600","貢寮區"
"208004","AAC-292","2017/07/27 13:59:12","新北市金山區重和里六股林口75號","121.601343333333","25.2169","6502700","金山區"
"207002","291-VK","2017/07/27 13:59:15","新北市萬里區崁腳里崁腳路172-1號","121.644066666667","25.15475","6502800","萬里區"
"252005","073-UM","2017/07/27 13:57:23","新北市三芝區圓山里內柑宅25-2號","121.538666666667","25.2272016666667","6502100","三芝區"
"207001","662-BX","2017/07/27 13:58:59","新北市萬里區磺潭里清水2-2號","121.64163","25.20265","6502800","萬里區"
"236066","105-UM","2017/07/27 13:59:08","新北市土城區城林路6巷80號","121.438398333333","24.9797583333333","6501300","土城區"
"236040","107-UM","2017/07/27 13:59:07","新北市土城區裕生路61號","121.44763","24.98609","6501300","土城區"
"236076","166-UM","2017/07/27 13:59:11","新北市土城區永寧路32巷8號","121.428995","24.9606583333333","6501300","土城區"
"236028","253-BX","2017/07/27 13:59:05","新北市土城區城林路6巷80號","121.438346666667","24.9797683333333","6501300","土城區"
"236024","269-VK","2017/07/27 13:59:14","新北市土城區承天路18號","121.439363333333","24.963575","6501300","土城區"
"236012","270-VK","2017/07/27 13:59:01","新北市土城區員林街71巷12號","121.445026666667","24.9773816666667","6501300","土城區"
"236033","271-VK","2017/07/27 13:59:06","新北市土城區中央路二段280號","121.440603333333","24.9740533333333","6501300","土城區"
"236018","401-BY","2017/07/27 13:59:13","新北市土城區城林路6巷80號","121.438581666667","24.9797766666667","6501300","土城區"
"236005","498-BY","2017/07/27 13:59:20","新北市土城區中央路二段61巷26號","121.443276666667","24.9787","6501300","土城區"
"236056","912-UM","2017/07/27 13:59:17","新北市土城區永寧路3號","121.43052","24.9646533333333","6501300","土城區"
"236047","913-UM","2017/07/27 13:59:12","新北市土城區城林路6巷80號","121.438393333333","24.97979","6501300","土城區"
"236060","915-UM","2017/07/27 13:59:19","新北市土城區城林路6巷80號","121.438348333333","24.9796083333333","6501300","土城區"
"236052","AAC-216","2017/07/27 13:59:08","新北市土城區中華路二段2號","121.439548333333","24.9795516666667","6501300","土城區"
"242052","349-TH","2017/07/27 13:59:14","新北市新莊區新樹路613號","121.43507","25.0045083333333","6500500","新莊區"
"221031","353-TW","2017/07/27 13:59:04","新北市汐止區南興路52號","121.652553333333","25.0600933333333","6501100","汐止區"
"220027","145-BY","2017/07/27 13:59:05","新北市板橋區民權路202巷7弄22號","121.459228333333","25.01501","6500100","板橋區"
"220037","146-RM","2017/07/27 13:59:12","新北市板橋區民生路二段208號","121.469618333333","25.0211533333333","6500100","板橋區"
"220028","200-UY","2017/07/27 13:59:08","新北市板橋區大觀路二段265巷3弄35號","121.444288333333","24.9978033333333","6500100","板橋區"
"220030","610-BX","2017/07/27 13:59:08","新北市板橋區篤行路三段76號","121.426865","24.9851933333333","6500100","板橋區"
"220050","245-BX","2017/07/27 13:59:15","新北市板橋區文化路二段1號","121.468273333333","25.023965","6500100","板橋區"
"220017","258-TC","2017/07/27 13:58:59","新北市板橋區大華街20號","121.458885","25.0061983333333","6500100","板橋區"
"220004","276-BY","2017/07/27 13:59:15","新北市板橋區信義路104號","121.458223333333","24.99275","6500100","板橋區"
"220020","277-BY","2017/07/27 13:59:19","新北市樹林區樹新路205-3號","121.42966","24.9979533333333","6500100","板橋區"
"220043","283-UM","2017/07/27 13:59:00","新北市板橋區文化路二段76號","121.469235","25.0250483333333","6500100","板橋區"
"220019","283-VK","2017/07/27 13:59:16","新北市板橋區民族路166號","121.464795","25.0084833333333","6500100","板橋區"
"220001","285-VK","2017/07/27 13:59:13","新北市板橋區成功路10號","121.475518333333","25.0170016666667","6500100","板橋區"
"220031","286-VK","2017/07/27 13:59:07","新北市板橋區大觀路一段38巷156弄147號","121.44377","25.0089383333333","6500100","板橋區"
"220029","287-VK","2017/07/27 13:59:14","新北市板橋區南雅西路二段100號","121.452438333333","25.0117666666667","6500100","板橋區"
"220039","288-VK","2017/07/27 13:59:17","新北市板橋區四維路177巷2弄2號","121.464101666667","25.02636","6500100","板橋區"
"220009","295-UM","2017/07/27 13:59:16","新北市板橋區富山街109巷28弄8號","121.475738333333","25.0215666666667","6500100","板橋區"
"220032","296-UM","2017/07/27 13:59:04","新北市板橋區大觀路二段156巷6號","121.441371666667","24.99942","6500100","板橋區"
"220023","297-UM","2017/07/27 13:59:07","新北市板橋區南興路3號","121.455156666667","25.00812","6500100","板橋區"
"220010","303-R5","2017/07/27 13:59:08","新北市中和區員山路611巷5弄9號","121.478561666667","25.01095","6500100","板橋區"
"220041","307-R5","2017/07/27 13:59:20","新北市板橋區文化路一段104巷1號","121.464903333333","25.01807","6500100","板橋區"
"220012","486-VK","2017/07/27 13:59:12","新北市板橋區漢生東路230號","121.467373333333","25.01387","6500100","板橋區"
"220038","487-VK","2017/07/27 13:59:16","新北市板橋區文化路二段26號","121.46891","25.0244766666667","6500100","板橋區"
"220104","560-BX","2017/07/27 13:59:06","新北市板橋區中正路341巷6號","121.454645","25.0203983333333","6500100","板橋區"
"220052","561-BX","2017/07/27 13:59:20","新北市板橋區縣民大道二段281號","121.470096666667","25.0179183333333","6500100","板橋區"
"220011","609-BX","2017/07/27 13:59:17","新北市板橋區民生路一段74號","121.47373","25.0153483333333","6500100","板橋區"
"220040","637-BX","2017/07/27 13:59:07","新北市板橋區萬板路165號","121.474065","25.02351","6500100","板橋區"
"220005","686-BX","2017/07/27 13:59:10","新北市板橋區民權路45號","121.462045","25.0113816666667","6500100","板橋區"
"220025","687-BX","2017/07/27 13:59:16","新北市板橋區大觀路二段431-1號","121.441233333333","24.9947383333333","6500100","板橋區"
"220042","689-BX","2017/07/27 13:59:08","新北市板橋區民生路三段11號","121.467865","25.0236416666667","6500100","板橋區"
"220002","741-BX","2017/07/27 13:59:07","新北市板橋區後埔街24號","121.460463333333","25.0064166666667","6500100","板橋區"
"220003","827-TW","2017/07/27 13:59:13","新北市板橋區民安街14號","121.46673","25.0116383333333","6500100","板橋區"
"220014","829-TW","2017/07/27 13:59:16","新北市板橋區三民路二段正隆巷30-1號","121.477236666667","25.0135016666667","6500100","板橋區"
"220051","830-TW","2017/07/27 13:59:17","新北市板橋區田單街2巷32號","121.48202","25.0277983333333","6500100","板橋區"
"220045","831-TW","2017/07/27 13:59:18","新北市板橋區莒光路60號","121.470988333333","25.0241283333333","6500100","板橋區"
"220022","895-R6","2017/07/27 13:58:56","新北市板橋區南雅南路一段121號","121.455151666667","25.0046516666667","6500100","板橋區"
"220021","985-R7","2017/07/27 13:59:07","新北市板橋區館前西路興義巷3號","121.455106666667","25.0082366666667","6500100","板橋區"
"220046","AAC-210","2017/07/27 13:59:03","新北市板橋區四維路137巷19號","121.464161666667","25.024785","6500100","板橋區"
"220018","AAC-253","2017/07/27 13:59:04","新北市板橋區中山路一段32號","121.460498333333","25.0085916666667","6500100","板橋區"
