"lineid","car","time","location","longitude","latitude","cityid","cityname"
"234044","148-BY","2017/07/27 14:09:12","新北市永和區成功路一段116號","121.526736666667","25.0024433333333","6500400","永和區"
"234012","149-BY","2017/07/27 14:09:03","新北市永和區永貞路435號","121.506875","25.0098483333333","6500400","永和區"
"234005","207-UY","2017/07/27 14:09:10","新北市中和區中和路232號","121.506653333333","24.99943","6500400","永和區"
"234078","298-R6","2017/07/27 14:09:16","新北市永和區國中路96號","121.524371666667","25.006245","6500400","永和區"
"234036","336-UY","2017/07/27 14:09:14","新北市永和區環河東路三段96號","121.528215","25.0041016666667","6500400","永和區"
"234062","337-UY","2017/07/27 14:09:16","新北市永和區永利路156號","121.522538333333","25.0028433333333","6500400","永和區"
"234084","338-UY","2017/07/27 14:09:15","新北市永和區福和路96號","121.522358333333","25.0080366666667","6500400","永和區"
"234068","552-UM","2017/07/27 14:09:15","新北市永和區福和路263巷13號","121.517948333333","25.0066966666667","6500400","永和區"
"234052","553-UM","2017/07/27 14:09:16","新北市永和區博愛街47巷2號","121.519576666667","25.0159166666667","6500400","永和區"
"234015","745-BX","2017/07/27 14:09:06","新北市永和區文化路9巷2號","121.515308333333","25.01505","6500400","永和區"
"234028","840-RS","2017/07/27 12:53:09","新北市永和區得和路422號","121.526266666667","24.9990566666667","6500400","永和區"
"234060","AAD-866","2017/07/27 14:09:09","新北市永和區安樂路72巷6號","121.515016666667","24.9985333333333","6500400","永和區"
"234040","862-TW","2017/07/27 14:09:09","新北市永和區雙和街16巷20號","121.509926666667","25.0027933333333","6500400","永和區"
"234048","863-TW","2017/07/27 14:09:06","新北市永和區環河西路二段101號","121.50643","25.0147883333333","6500400","永和區"
"234025","9371-KE","2017/07/27 14:09:12","新北市永和區安樂路272巷9弄7號","121.515071666667","25.0045633333333","6500400","永和區"
"234010","9373-KE","2017/07/27 14:09:05","新北市永和區仁愛路352巷112弄17號","121.501143333333","25.0086083333333","6500400","永和區"
"248013","025-BX","2017/07/27 14:09:16","新北市五股區民義路一段107巷32號","121.432481666667","25.0845566666667","6501500","五股區"
"248015","026-BX","2017/07/27 14:09:14","新北市五股區成泰路三段543巷54號","121.449605","25.1030833333333","6501500","五股區"
"248011","247-BX","2017/07/27 14:09:13","新北市五股區工商路18巷17號","121.440118333333","25.08398","6501500","五股區"
"248017","261-SL","2017/07/27 14:09:09","新北市五股區民義路二段22巷23號","121.421465","25.097895","6501500","五股區"
"248009","272-BY","2017/07/27 14:09:03","新北市五股區水碓一路23號","121.430583333333","25.0713116666667","6501500","五股區"
"248001","655-BX","2017/07/27 14:09:06","新北市五股區成泰路三段577巷13號","121.451746666667","25.1027183333333","6501500","五股區"
"248003","677-BX","2017/07/27 14:09:07","新北市五股區民義路一段185-4號","121.43177","25.0884616666667","6501500","五股區"
"234022","9380-KE","2017/07/27 14:08:59","新北市永和區博愛街32巷17-1號","121.51885","25.0152766666667","6500400","永和區"
"234076","969-R7","2017/07/27 14:08:59","新北市永和區民治街59巷8號","121.518191666667","24.99743","6500400","永和區"
"234072","AAC-211","2017/07/27 14:09:01","新北市永和區竹林路201巷22弄9號","121.522495","25.009425","6500400","永和區"
"234066","AAC-212","2017/07/27 14:09:13","新北市永和區永貞路313號","121.510091666667","25.0066033333333","6500400","永和區"
"234001","AAC-295","2017/07/27 14:09:16","新北市永和區永和路二段5號","121.514371666667","25.0100333333333","6500400","永和區"
"244003","248-BX","2017/07/27 14:09:11","新北市林口區嘉寶里42號","121.333505","25.122515","6501700","林口區"
"244018","403-UM","2017/07/27 09:49:04","新北市林口區粉寮路60-16號","121.404425","25.0897366666667","6501700","林口區"
"244025","656-BX","2017/07/27 09:37:55","新北市林口區粉寮路二段160巷28號","121.405196666667","25.0907666666667","6501700","林口區"
"243002","267-VK","2017/07/27 14:09:04","新北市泰山區明志路一段483巷1弄2號","121.431218333333","25.0552816666667","6501600","泰山區"
"243005","AAD-798","2017/07/27 14:09:12","新北市泰山區台麗街13巷1號","121.424463333333","25.03833","6501600","泰山區"
"243001","297-R6","2017/07/27 14:09:14","新北市泰山區明志路一段117巷9號","121.43414","25.0635916666667","6501600","泰山區"
"243007","380-SR","2017/07/27 14:09:14","新北市泰山區明志路一段452號","121.430711666667","25.055785","6501600","泰山區"
"243006","421-VK","2017/07/27 14:09:12","新北市泰山區泰林路二段435號","121.426138333333","25.0641466666667","6501600","泰山區"
"243003","549-UM","2017/07/27 14:09:13","新北市泰山區明志路二段354號","121.425333333333","25.0453733333333","6501600","泰山區"
"243004","646-TV","2017/07/27 14:09:18","新北市泰山區吳厝窠1號","121.428016666667","25.0587083333333","6501600","泰山區"
"243008","680-BX","2017/07/27 14:09:14","新北市泰山區明志路三段4號","121.424778333333","25.0436","6501600","泰山區"
"231002","002-UM","2017/07/27 14:09:03","新北市新店區中正路539-5號","121.533506666667","24.9864566666667","6500600","新店區"
"231025","0291-UT","2017/07/27 14:09:05","新北市新店區中正路328巷10號","121.537313333333","24.9753733333333","6500600","新店區"
"231028","046-UY","2017/07/27 14:09:16","新北市新店區安和路二段213號","121.517585","24.9755033333333","6500600","新店區"
"231030","047-UY","2017/07/27 14:09:04","新北市新店區安民街115巷28號","121.515093333333","24.9675716666667","6500600","新店區"
"231029","106-UY","2017/07/27 14:09:09","新北市新店區安康路二段144號","121.512465","24.9616733333333","6500600","新店區"
"231018","107-UY","2017/07/27 14:09:02","新北市新店區中央路133巷27弄38號","121.532358333333","24.9741833333333","6500600","新店區"
"231011","108-UY","2017/07/27 14:09:15","新北市新店區中興路一段252號","121.544401666667","24.9665733333333","6500600","新店區"
"231021","187-VK","2017/07/27 14:08:59","新北市新店區屈尺路83-1號","121.544463333333","24.922435","6500600","新店區"
"231007","189-VK","2017/07/27 12:00:48","新北市新店區安華路28-1號","121.519686666667","24.9611066666667","6500600","新店區"
"231017","AAD-862","2017/07/27 14:09:13","新北市新店區郵政路3巷5號","121.557328333333","24.9520733333333","6500600","新店區"
"231027","3712-VJ","2017/07/27 14:09:06","新北市新店區北宜路一段9號","121.538175","24.9582083333333","6500600","新店區"
"231038","4715-K9","2017/07/27 14:09:06","新北市新店區溪洲路121號","121.531511666667","24.9626833333333","6500600","新店區"
"231036","512-UM","2017/07/27 14:09:06","新北市新店區安祥路109巷45號","121.476805","24.959665","6500600","新店區"
"231023","513-UM","2017/07/27 14:09:18","新北市新店區北宜路一段41號","121.538278333333","24.9572433333333","6500600","新店區"
"231035","515-UM","2017/07/27 14:09:00","新北市新店區安和路一段52巷2號","121.517693333333","24.96624","6500600","新店區"
"231006","617-UM","2017/07/27 14:09:10","新北市新店區北宜路二段126號","121.556868333333","24.9539066666667","6500600","新店區"
"231001","619-UM","2017/07/27 14:09:16","新北市新店區中華路83號","121.539513333333","24.9685916666667","6500600","新店區"
"231003","641-BX","2017/07/27 14:09:11","新北市新店區中興路一段112號","121.54096","24.9616866666667","6500600","新店區"
"231034","645-TV","2017/07/27 14:09:10","新北市新店區黎明路3號","121.503293333333","24.9522983333333","6500600","新店區"
"231013","719-UM","2017/07/27 14:09:17","新北市新店區北新路三段65巷34弄29號","121.53991","24.9820233333333","6500600","新店區"
"231031","720-UM","2017/07/27 14:09:04","新北市新店區永業路3號","121.533953333333","24.956185","6500600","新店區"
"231005","897-TW","2017/07/27 14:09:14","新北市新店區中興路三段295號","121.542318333333","24.9850266666667","6500600","新店區"
"231004","899-TW","2017/07/27 14:09:13","新北市新店區北新路二段216號","121.542856666667","24.97699","6500600","新店區"
"231037","AKT-0513","2017/07/27 14:09:04","新北市新店區安康路三段165巷2弄9號","121.489036666667","24.9512616666667","6500600","新店區"
"235030","003-UY","2017/07/27 14:09:08","新北市中和區廣福路12-1號","121.505578333333","25.0027616666667","6500300","中和區"
"235028","005-UY","2017/07/27 14:09:14","新北市中和區泰和街38巷22號","121.498708333333","25.0010216666667","6500300","中和區"
"235027","006-UY","2017/07/27 14:09:13","新北市中和區中正路574號","121.486278333333","24.9946366666667","6500300","中和區"
"235020","096-UM","2017/07/27 14:09:14","新北市中和區員山路568號","121.479025","25.0108266666667","6500300","中和區"
"235003","097-UM","2017/07/27 14:09:09","新北市中和區秀峰街89號","121.521191666667","24.9902066666667","6500300","中和區"
"235029","098-UM","2017/07/27 14:09:11","新北市中和區中山路二段136巷4號","121.502008333333","25.003715","6500300","中和區"
"235004","150-BY","2017/07/27 14:09:16","新北市中和區保健路67巷3弄4號","121.509806666667","24.9974433333333","6500300","中和區"
"235022","151-BY","2017/07/27 14:09:10","新北市中和區員山路102號","121.481018333333","24.9954033333333","6500300","中和區"
"235019","183-VK","2017/07/27 14:09:04","新北市中和區德光路21號","121.470905","25.0043116666667","6500300","中和區"
"235002","185-VK","2017/07/27 14:09:01","新北市中和區自強路52號","121.520155","24.9948366666667","6500300","中和區"
"235013","186-VK","2017/07/27 14:09:16","新北市中和區明禮街36號","121.504303333333","24.99626","6500300","中和區"
"235031","255-BX","2017/07/27 14:09:18","新北市中和區新生街164號","121.483665","25.0002783333333","6500300","中和區"
"235008","293-VK","2017/07/27 14:09:20","新北市中和區中興街161巷7弄2號","121.50107","24.9909483333333","6500300","中和區"
"235036","301-VK","2017/07/27 14:09:05","新北市中和區莊敬路33巷2-2號","121.500431666667","25.005025","6500300","中和區"
"235007","352-BY","2017/07/27 14:09:00","新北市中和區景平路4號","121.524378333333","24.9901816666667","6500300","中和區"
"235015","376-QA","2017/07/27 14:09:08","新北市中和區興南路一段105巷20弄1號","121.510145","24.98581","6500300","中和區"
"235032","377-QA","2017/07/27 14:09:19","新北市中和區圓通路179號","121.497496666667","24.9949033333333","6500300","中和區"
"235025","378-QA","2017/07/27 14:09:19","新北市中和區中山路三段63巷9號","121.477143333333","25.0042016666667","6500300","中和區"
"235014","4979-A6","2017/07/27 14:09:09","新北市中和區復興路280巷18弄20號","121.501736666667","24.992225","6500300","中和區"
"235033","4980-A6","2017/07/27 14:09:18","新北市中和區景平路736巷1弄5號","121.49725","25.0040733333333","6500300","中和區"
"235006","551-UM","2017/07/27 14:09:03","新北市中和區自立路16巷2號","121.521733333333","24.993745","6500300","中和區"
"235034","558-UM","2017/07/27 14:09:18","新北市中和區中和路275號","121.505698333333","24.9999083333333","6500300","中和區"
"235009","565-BX","2017/07/27 14:09:06","新北市中和區景新街467巷20弄20號","121.514301666667","24.9878533333333","6500300","中和區"
"235018","640-BX","2017/07/27 14:09:20","新北市中和區國光街8巷2號","121.47178","25.0001966666667","6500300","中和區"
"235024","647-TV","2017/07/27 14:09:06","新北市中和區民治街128巷1號","121.475215","25.0029266666667","6500300","中和區"
"235011","732-UM","2017/07/27 14:09:16","新北市中和區興南路一段56巷11號","121.510195","24.9913316666667","6500300","中和區"
"235010","733-UM","2017/07/27 14:09:08","新北市中和區忠孝街1巷61號","121.50829","24.9846016666667","6500300","中和區"
"235035","783-BX","2017/07/27 14:09:16","新北市中和區立言街52號","121.48832","25.0067733333333","6500300","中和區"
"235026","800-TS","2017/07/27 14:09:16","新北市中和區橋和路102號","121.490781666667","25.005285","6500300","中和區"
"235021","801-TS","2017/07/27 14:09:15","新北市中和區民利街89號","121.47805","24.99807","6500300","中和區"
"235005","802-TS","2017/07/27 14:09:11","新北市中和區新興街17巷2號","121.512556666667","25.0025216666667","6500300","中和區"
"235016","805-TS","2017/07/27 14:09:12","新北市中和區興南路二段114巷2號","121.504335","24.9842283333333","6500300","中和區"
"235012","896-TW","2017/07/27 14:09:01","新北市中和區華新街109巷22號","121.508448333333","24.9805","6500300","中和區"
"235017","900-TW","2017/07/27 14:09:05","新北市中和區和平路208號","121.463858333333","24.9961033333333","6500300","中和區"
"235001","AAC-213","2017/07/27 14:09:05","新北市中和區自立路103號","121.522246666667","24.9947216666667","6500300","中和區"
"235023","AAC-215","2017/07/27 14:09:18","新北市中和區圓通路294巷17-5號","121.488648333333","24.9904366666667","6500300","中和區"
"220016","013-TV","2017/07/27 14:09:06","新北市板橋區中山路二段443巷76號","121.48078","25.02225","6500100","板橋區"
"220013","072-UY","2017/07/27 14:09:18","新北市板橋區民族路247巷3弄4號","121.470416666667","25.00775","6500100","板橋區"
"220034","073-UY","2017/07/27 14:09:19","新北市板橋區中正路236巷27號","121.457096666667","25.0192516666667","6500100","板橋區"
"220106","075-UY","2017/07/27 14:09:04","新北市板橋區文化路二段263巷16號","121.470988333333","25.0295866666667","6500100","板橋區"
"220047","120-SR","2017/07/27 14:08:59","新北市板橋區自由路51巷14弄5號","121.464625","25.02371","6500100","板橋區"
"247019","893-R6","2017/07/27 14:09:17","新北市蘆洲區民族路426巷19號","121.473093333333","25.0931133333333","6501400","蘆洲區"
"247009","546-UM","2017/07/27 14:09:07","新北市蘆洲區民族路22號","121.476108333333","25.0841966666667","6501400","蘆洲區"
"247017","500-BY","2017/07/27 14:09:01","新北市蘆洲區民族路227巷24弄3號","121.476243333333","25.0887133333333","6501400","蘆洲區"
"247001","402-BY","2017/07/27 14:09:03","新北市蘆洲區復興路58號","121.473841666667","25.0861833333333","6501400","蘆洲區"
"247005","341-TH","2017/07/27 14:09:11","新北市蘆洲區九芎街15巷8號","121.468013333333","25.0780083333333","6501400","蘆洲區"
"247007","339-TH","2017/07/27 14:09:17","新北市蘆洲區中山一路262號","121.471978333333","25.0796833333333","6501400","蘆洲區"
"247023","337-TH","2017/07/27 14:09:01","新北市蘆洲區光榮路70號","121.463301666667","25.0887266666667","6501400","蘆洲區"
"247001","336-TH","2017/07/27 14:09:04","新北市蘆洲區永平街33號","121.45846","25.0909816666667","6501400","蘆洲區"
"247013","057-VK","2017/07/27 14:09:07","新北市蘆洲區忠孝路86號","121.471496666667","25.0857883333333","6501400","蘆洲區"
"247003","056-VK","2017/07/27 14:08:59","新北市蘆洲區中華街6巷28號","121.462863333333","25.082235","6501400","蘆洲區"
"247011","007-UY","2017/07/27 14:09:03","新北市蘆洲區信義路321號","121.478291666667","25.0865533333333","6501400","蘆洲區"
"247021","002-UY","2017/07/27 14:09:09","新北市蘆洲區三民路193號","121.470556666667","25.08768","6501400","蘆洲區"
"247015","001-UY","2017/07/27 14:09:06","新北市蘆洲區光華路46巷34號","121.467986666667","25.0840783333333","6501400","蘆洲區"
"228005","097-TW","2017/07/27 14:09:02","新北市貢寮區美豐里雞母嶺街52號","121.891086666667","25.0663383333333","6502600","貢寮區"
"228004","212-TW","2017/07/27 14:09:09","新北市貢寮區雙玉里下雙溪街8號","121.916293333333","25.0139733333333","6502600","貢寮區"
"208004","AAC-292","2017/07/27 14:09:12","新北市金山區六股里下六股65號","121.614375","25.2235783333333","6502700","金山區"
"207002","291-VK","2017/07/27 14:09:15","新北市萬里區溪底里溪底路10號","121.615508333333","25.1480416666667","6502800","萬里區"
"252005","073-UM","2017/07/27 14:09:03","新北市三芝區橫山里橫山57-3號","121.536331666667","25.2523716666667","6502100","三芝區"
"207001","662-BX","2017/07/27 14:09:19","新北市萬里區磺潭里清水18號","121.63757","25.197995","6502800","萬里區"
"236066","105-UM","2017/07/27 14:09:08","新北市土城區金城路一段88巷24號","121.445936666667","24.9732033333333","6501300","土城區"
"236040","107-UM","2017/07/27 14:09:07","新北市土城區裕生路61號","121.447648333333","24.9861116666667","6501300","土城區"
"236076","166-UM","2017/07/27 14:09:11","新北市土城區永寧路37號","121.430105","24.9619966666667","6501300","土城區"
"236028","253-BX","2017/07/27 14:09:05","新北市土城區城林路6巷80號","121.438318333333","24.9797883333333","6501300","土城區"
"236024","269-VK","2017/07/27 14:09:14","新北市土城區承天路18號","121.439471666667","24.9635033333333","6501300","土城區"
"236012","270-VK","2017/07/27 14:09:01","新北市土城區青雲路39巷7號","121.460345","24.98759","6501300","土城區"
"236033","271-VK","2017/07/27 14:09:06","新北市土城區青雲路449-1號","121.45891","24.9746466666667","6501300","土城區"
"236018","401-BY","2017/07/27 14:09:13","新北市土城區城林路6巷80號","121.438595","24.9797633333333","6501300","土城區"
"236005","498-BY","2017/07/27 14:09:20","新北市土城區中央路一段2-1號","121.449806666667","24.9929633333333","6501300","土城區"
"236056","912-UM","2017/07/27 14:09:17","新北市土城區中央路四段60號","121.419801666667","24.9602283333333","6501300","土城區"
"236047","913-UM","2017/07/27 14:09:12","新北市土城區明德路一段398號","121.453256666667","24.9793683333333","6501300","土城區"
"236060","915-UM","2017/07/27 14:08:59","新北市土城區金城路二段217號","121.454718333333","24.9817133333333","6501300","土城區"
"236052","AAC-216","2017/07/27 14:09:08","新北市土城區中華路二段98號","121.438085","24.974455","6501300","土城區"
"221031","353-TW","2017/07/27 14:08:44","台北市南港區研究院路四段21巷2-1號","121.602393333333","25.02435","6501100","汐止區"
"220027","145-BY","2017/07/27 14:09:05","新北市板橋區公館街94-1號","121.461313333333","25.0166466666667","6500100","板橋區"
"220037","146-RM","2017/07/27 14:09:12","新北市板橋區莊敬路56號","121.47269","25.02697","6500100","板橋區"
"220028","200-UY","2017/07/27 14:09:08","新北市板橋區大觀路二段37巷300號","121.450263333333","25.0020366666667","6500100","板橋區"
"220030","610-BX","2017/07/27 14:09:08","新北市板橋區溪崑二街84號","121.427276666667","24.9896583333333","6500100","板橋區"
"220050","245-BX","2017/07/27 14:09:15","新北市板橋區莊敬路163號","121.471458333333","25.0245733333333","6500100","板橋區"
"220017","258-TC","2017/07/27 14:09:13","新北市板橋區華興街63號","121.45729","25.0048916666667","6500100","板橋區"
"220004","276-BY","2017/07/27 14:09:01","新北市板橋區信義路74巷1弄3號","121.457323333333","24.9931233333333","6500100","板橋區"
"220020","277-BY","2017/07/27 14:09:16","新北市板橋區金門街369巷57弄7-1號","121.429235","24.98411","6500100","板橋區"
"220043","283-UM","2017/07/27 14:09:20","新北市板橋區光武街106號","121.465885","25.0289983333333","6500100","板橋區"
"220019","283-VK","2017/07/27 14:09:16","新北市板橋區重慶路245巷43號","121.465015","25.00094","6500100","板橋區"
"220001","285-VK","2017/07/27 14:09:18","新北市板橋區懷仁街8號","121.476038333333","25.020055","6500100","板橋區"
"220031","286-VK","2017/07/27 14:09:05","新北市板橋區大觀路二段20巷2號","121.444895","25.0041033333333","6500100","板橋區"
"220029","287-VK","2017/07/27 14:09:14","新北市板橋區南雅西路二段110巷43號","121.452881666667","25.0130416666667","6500100","板橋區"
"220039","288-VK","2017/07/27 14:09:17","新北市板橋區裕民街45巷4號","121.461491666667","25.0283866666667","6500100","板橋區"
"220009","295-UM","2017/07/27 14:08:59","新北市板橋區中山路二段248號","121.478695","25.0182566666667","6500100","板橋區"
"220032","296-UM","2017/07/27 14:09:04","新北市板橋區大觀路三段59巷17弄6-1號","121.435191666667","24.9956166666667","6500100","板橋區"
"220023","297-UM","2017/07/27 14:09:07","新北市板橋區大智街71巷3弄3號","121.453531666667","25.0151983333333","6500100","板橋區"
"220010","303-R5","2017/07/27 14:09:19","新北市板橋區三民路二段245巷4弄8號","121.480903333333","25.0119583333333","6500100","板橋區"
"220041","307-R5","2017/07/27 14:09:00","新北市板橋區文化路二段225巷35號","121.469391666667","25.028325","6500100","板橋區"
"220012","486-VK","2017/07/27 14:09:03","新北市板橋區板新路29號","121.47449","25.0131283333333","6500100","板橋區"
"220038","487-VK","2017/07/27 14:09:16","新北市板橋區文化路二段453號","121.47553","25.0335","6500100","板橋區"
"220104","560-BX","2017/07/27 14:09:06","新北市板橋區中正路379巷2號","121.454001666667","25.0215733333333","6500100","板橋區"
"220052","561-BX","2017/07/27 14:09:14","新北市板橋區文化路一段188巷9弄21號","121.468475","25.0194966666667","6500100","板橋區"
"220011","609-BX","2017/07/27 14:09:17","新北市板橋區中山路二段311號","121.478898333333","25.0184966666667","6500100","板橋區"
"220040","637-BX","2017/07/27 14:09:07","新北市板橋區萬板路570號","121.481163333333","25.0267166666667","6500100","板橋區"
"220005","686-BX","2017/07/27 14:09:10","新北市板橋區重慶路38號","121.46137","25.0075883333333","6500100","板橋區"
"220025","687-BX","2017/07/27 14:09:16","新北市板橋區大觀路一段38巷156弄4號","121.442613333333","25.004515","6500100","板橋區"
"220042","689-BX","2017/07/27 14:09:08","新北市板橋區民生路三段261號","121.46435","25.0294533333333","6500100","板橋區"
"220002","741-BX","2017/07/27 14:09:07","新北市板橋區重慶路93巷47號","121.463361666667","25.005965","6500100","板橋區"
"220003","827-TW","2017/07/27 14:09:13","新北市板橋區中山路一段140號","121.463423333333","25.0109733333333","6500100","板橋區"
"220014","829-TW","2017/07/27 14:09:16","新北市板橋區中山路二段90巷43弄5號","121.476563333333","25.0150083333333","6500100","板橋區"
"220051","830-TW","2017/07/27 14:09:17","新北市板橋區田單街51號","121.482751666667","25.0278733333333","6500100","板橋區"
"220045","831-TW","2017/07/27 14:09:18","新北市板橋區雙十路二段47巷25號","121.475303333333","25.0256183333333","6500100","板橋區"
"220022","895-R6","2017/07/27 14:09:17","新北市板橋區林園街29號","121.453836666667","25.0097516666667","6500100","板橋區"
"220021","985-R7","2017/07/27 14:09:17","新北市板橋區中正路111號","121.456483333333","25.0150066666667","6500100","板橋區"
"220046","AAC-210","2017/07/27 14:09:03","新北市板橋區英士路76號","121.460135","25.02422","6500100","板橋區"
"220018","AAC-253","2017/07/27 14:09:04","新北市板橋區四川路一段256號","121.459085","25.001365","6500100","板橋區"
