"lineid","car","time","location","longitude","latitude","cityid","cityname"
"244018","403-UM","2017/07/27 09:49:04","新北市林口區粉寮路60-16號","121.404425","25.0897366666667","6501700","林口區"
"244025","656-BX","2017/07/27 09:37:55","新北市林口區粉寮路二段160巷28號","121.405196666667","25.0907666666667","6501700","林口區"
"231002","002-UM","2017/07/27 15:29:03","新北市新店區環河路114巷2號","121.536036666667","24.9645783333333","6500600","新店區"
"231025","0291-UT","2017/07/27 15:29:05","新北市新店區環河路105-12號","121.531866666667","24.9700066666667","6500600","新店區"
"231028","046-UY","2017/07/27 15:28:56","新北市新店區僑信路60號","121.499311666667","24.9496883333333","6500600","新店區"
"231030","047-UY","2017/07/27 15:29:04","新北市新店區新和街54號","121.519733333333","24.9853083333333","6500600","新店區"
"231029","106-UY","2017/07/27 15:29:09","新北市新店區錦秀路1號","121.478965","24.94598","6500600","新店區"
"231018","107-UY","2017/07/27 15:29:02","新北市新店區中央八街64號","121.527948333333","24.9766283333333","6500600","新店區"
"231011","108-UY","2017/07/27 15:28:55","新北市新店區寶慶街58巷3弄2號","121.5423","24.9874866666667","6500600","新店區"
"231039","110-UY","2017/07/27 15:28:58","新北市新店區寶元路一段85巷2號","121.543063333333","24.985525","6500600","新店區"
"231021","187-VK","2017/07/27 15:28:59","新北市新店區湖興路128-3號","121.567411666667","24.931965","6500600","新店區"
"231007","189-VK","2017/07/27 12:00:48","新北市新店區安華路28-1號","121.519686666667","24.9611066666667","6500600","新店區"
"231026","256-BX","2017/07/27 15:28:54","新北市新店區三民路20巷38號","121.538195","24.9715766666667","6500600","新店區"
"231036","512-UM","2017/07/27 15:29:02","新北市新店區安祥路67巷50弄15號","121.48425","24.9588183333333","6500600","新店區"
"231023","513-UM","2017/07/27 15:28:58","新北市新店區北新路一段96巷23號","121.542918333333","24.9686266666667","6500600","新店區"
"231035","515-UM","2017/07/27 15:29:00","新北市新店區安興路69號","121.515956666667","24.97519","6500600","新店區"
"231003","641-BX","2017/07/27 15:28:50","新北市新店區寶高路118號","121.554443333333","24.97599","6500600","新店區"
"231034","645-TV","2017/07/27 15:28:50","新北市新店區富貴街14巷1號","121.493988333333","24.948865","6500600","新店區"
"231031","720-UM","2017/07/27 15:29:04","新北市新店區裕合街74號","121.490323333333","24.9485066666667","6500600","新店區"
"231005","897-TW","2017/07/27 15:28:53","新北市新店區民權路90巷36號","121.53696","24.98434","6500600","新店區"
"231004","899-TW","2017/07/27 15:28:53","新北市新店區建國路105號","121.540081666667","24.9775366666667","6500600","新店區"
"231037","AKT-0513","2017/07/27 15:28:44","新北市新店區安興路112號","121.51467","24.977655","6500600","新店區"
"241013","270-UM","2017/07/27 15:29:01","新北市三重區重新路四段121號","121.484876666667","25.0525083333333","6500200","三重區"
"235030","003-UY","2017/07/27 15:29:08","新北市中和區光華街62號","121.505628333333","25.0036116666667","6500300","中和區"
"235036","301-VK","2017/07/27 15:29:05","新北市林口區太平里180號","121.36821","25.1347966666667","6500300","中和區"
"235014","4979-A6","2017/07/27 15:25:50","新北市中和區南華路89號","121.505623333333","24.9974316666667","6500300","中和區"
"235033","4980-A6","2017/07/27 15:28:58","新北市中和區連城路347巷43號","121.488605","24.9947766666667","6500300","中和區"
"235034","558-UM","2017/07/27 15:28:38","新北市中和區中正路358號","121.493666666667","24.9938833333333","6500300","中和區"
"235011","732-UM","2017/07/27 15:28:56","新北市中和區中正路589巷9號","121.485796666667","24.9940183333333","6500300","中和區"
"235012","896-TW","2017/07/27 15:29:01","新北市中和區興南路二段32巷1號","121.507338333333","24.9856616666667","6500300","中和區"
"235001","AAC-213","2017/07/27 15:29:05","新北市中和區成功路53號","121.526163333333","24.99281","6500300","中和區"
"235023","AAC-215","2017/07/27 15:28:58","新北市中和區圓通路356-10號","121.485248333333","24.986825","6500300","中和區"
"247001","402-BY","2017/07/27 15:29:02","新北市八里區訊塘路1號","121.398175","25.1444133333333","6501400","蘆洲區"
"247013","057-VK","2017/07/27 15:29:07","新北市八里區中山路三段409號","121.368726666667","25.1357566666667","6501400","蘆洲區"
"228005","097-TW","2017/07/27 15:29:02","新北市貢寮區貢寮里朝陽街1-2號","121.912363333333","25.021265","6502600","貢寮區"
"208004","AAC-292","2017/07/27 15:28:52","新北市金山區南勢9號","121.63447","25.2169366666667","6502700","金山區"
"252005","073-UM","2017/07/27 15:28:03","新北市三芝區埔坪里埔頭坑41號","121.504351666667","25.2646416666667","6502100","三芝區"
"207001","662-BX","2017/07/27 15:28:59","新北市萬里區龜吼里美崙路95號","121.684666666667","25.1849433333333","6502800","萬里區"
"236066","105-UM","2017/07/27 15:29:08","新北市土城區學士路377號","121.445681666667","24.97679","6501300","土城區"
"236040","107-UM","2017/07/27 15:29:07","新北市土城區學府路一段150號","121.454628333333","24.9869033333333","6501300","土城區"
"236076","166-UM","2017/07/27 15:28:51","新北市土城區溪頭路51-4號","121.411943333333","24.95489","6501300","土城區"
"236028","253-BX","2017/07/27 15:29:05","新北市土城區中央路一段254號","121.444186666667","24.98452","6501300","土城區"
"236024","269-VK","2017/07/27 15:28:54","新北市土城區員林街71巷2號","121.444448333333","24.9771733333333","6501300","土城區"
"236012","270-VK","2017/07/27 15:29:01","新北市土城區廣明街21號","121.455611666667","24.9925066666667","6501300","土城區"
"236033","271-VK","2017/07/27 15:29:06","新北市土城區明德路一段137-4號","121.465301666667","24.9809183333333","6501300","土城區"
"236018","401-BY","2017/07/27 15:28:52","新北市土城區金城路三段200-5號","121.468828333333","24.98761","6501300","土城區"
"236056","912-UM","2017/07/27 15:28:56","新北市土城區金城路一段1號","121.43901","24.96883","6501300","土城區"
"236047","913-UM","2017/07/27 15:29:12","新北市土城區青雲路309號","121.459043333333","24.9791533333333","6501300","土城區"
"236060","915-UM","2017/07/27 15:29:04","新北市土城區金城路三段163巷16號","121.468803333333","24.9891183333333","6501300","土城區"
"236052","AAC-216","2017/07/27 15:28:48","新北市土城區延和路40號","121.46511","24.9887066666667","6501300","土城區"
"238002","755-BX","2017/07/27 15:28:52","新北市樹林區復興路196號","121.420081666667","24.991055","6500700","樹林區"
"238010","601-UM","2017/07/27 15:29:03","新北市樹林區中正路433-2號","121.414596666667","25.0083716666667","6500700","樹林區"
"238006","599-UM","2017/07/27 15:28:58","新北市樹林區太平路13號","121.419045","24.983655","6500700","樹林區"
"238005","571-TV","2017/07/27 15:29:01","新北市樹林區樹新路147號","121.428653333333","24.9966483333333","6500700","樹林區"
"238011","5061-A6","2017/07/27 15:28:54","新北市樹林區太平路221號","121.418568333333","24.9773866666667","6500700","樹林區"
"238009","312-TH","2017/07/27 15:28:52","新北市樹林區忠孝街12號","121.423405","24.982565","6500700","樹林區"
"238008","311-TH","2017/07/27 15:29:05","新北市樹林區西圳街一段165巷13號","121.395461666667","24.9620383333333","6500700","樹林區"
"238012","303-VK","2017/07/27 15:29:08","新北市樹林區中山路一段145號","121.422223333333","24.9895033333333","6500700","樹林區"
"238004","283-BY","2017/07/27 15:28:51","新北市樹林區武林街6-1號","121.418321666667","25.0020366666667","6500700","樹林區"
"238001","282-BY","2017/07/27 15:28:59","新北市樹林區大安路11號","121.42505","25.0004483333333","6500700","樹林區"
"238007","268-VK","2017/07/27 01:40:28","新北市樹林區中山路三段204號","121.386808333333","24.9682583333333","6500700","樹林區"
"238013","172-UY","2017/07/27 15:28:58","新北市樹林區中山路三段89號","121.400231666667","24.974485","6500700","樹林區"
"238003","169-UY","2017/07/27 15:28:57","新北市樹林區長壽街4號","121.423903333333","24.9932816666667","6500700","樹林區"
"221031","353-TW","2017/07/27 15:11:50","新北市汐止區汐萬路一段256巷3號","121.652918333333","25.0745066666667","6501100","汐止區"
"220050","245-BX","2017/07/27 15:28:55","新北市板橋區觀光街79巷2號","121.469151666667","25.017245","6500100","板橋區"
"220017","258-TC","2017/07/27 15:28:59","新北市板橋區貴興路117號","121.455588333333","25.002425","6500100","板橋區"
"220031","286-VK","2017/07/27 15:29:05","新北市板橋區僑中二街104巷34號","121.444713333333","25.0081016666667","6500100","板橋區"
"220029","287-VK","2017/07/27 15:28:54","新北市板橋區龍興街95巷1號","121.443991666667","25.0022883333333","6500100","板橋區"
"220038","487-VK","2017/07/27 15:28:56","新北市板橋區四維路253號","121.463553333333","25.0278683333333","6500100","板橋區"
"220052","561-BX","2017/07/27 15:28:54","新北市板橋區漢生東路23巷56弄15號","121.466466666667","25.018175","6500100","板橋區"
"220011","609-BX","2017/07/27 15:29:09","新北市板橋區中山路二段88號","121.475216666667","25.01626","6500100","板橋區"
"220025","687-BX","2017/07/27 15:28:56","新北市樹林區八德街247巷24-1號","121.421191666667","24.9741416666667","6500100","板橋區"
"220042","689-BX","2017/07/27 15:28:48","新北市板橋區長江路一段11號","121.458001666667","25.028845","6500100","板橋區"
"220051","830-TW","2017/07/27 15:29:09","新北市板橋區文化路一段184號","121.465836666667","25.019605","6500100","板橋區"
"220018","AAC-253","2017/07/27 15:29:04","新北市板橋區四川路二段245巷81號","121.45266","24.9928866666667","6500100","板橋區"
