"lineid","car","time","location","longitude","latitude","cityid","cityname"
"244018","403-UM","2017/07/27 09:49:04","新北市林口區粉寮路60-16號","121.404425","25.0897366666667","6501700","林口區"
"244025","656-BX","2017/07/27 09:37:55","新北市林口區粉寮路二段160巷28號","121.405196666667","25.0907666666667","6501700","林口區"
"231030","047-UY","2017/07/27 15:49:04","新北市新店區永安街28-2號","121.517523333333","24.9864483333333","6500600","新店區"
"231029","106-UY","2017/07/27 15:48:48","新北市新店區薏仁坑路自強巷1號","121.496806666667","24.9581466666667","6500600","新店區"
"231018","107-UY","2017/07/27 15:49:02","新北市新店區中正路468號","121.534038333333","24.9795383333333","6500600","新店區"
"231011","108-UY","2017/07/27 15:48:55","新北市新店區文化路22-1號","121.543588333333","24.9797566666667","6500600","新店區"
"231021","187-VK","2017/07/27 15:48:59","新北市新店區新烏路一段87巷9號","121.546338333333","24.9420316666667","6500600","新店區"
"231007","189-VK","2017/07/27 12:00:48","新北市新店區安華路28-1號","121.519686666667","24.9611066666667","6500600","新店區"
"231026","256-BX","2017/07/27 15:48:54","新北市新店區三民路77號","121.536","24.9715166666667","6500600","新店區"
"231046","278-BY","2017/07/27 15:48:50","新北市新店區安華路28-1號","121.520046666667","24.9609833333333","6500600","新店區"
"231017","AAD-862","2017/07/27 15:48:53","新北市新店區中華路52號","121.539601666667","24.9685233333333","6500600","新店區"
"231038","4715-K9","2017/07/27 15:48:52","新北市新店區安康路二段71號","121.513788333333","24.963115","6500600","新店區"
"231035","515-UM","2017/07/27 15:49:00","新北市新店區安民街379巷16號","121.515543333333","24.9767333333333","6500600","新店區"
"231003","641-BX","2017/07/27 15:48:50","新北市新店區寶興路60巷8號","121.549626666667","24.9716483333333","6500600","新店區"
"231034","645-TV","2017/07/27 15:48:50","新北市新店區玫瑰路57巷21號","121.496493333333","24.9463216666667","6500600","新店區"
"231013","719-UM","2017/07/27 15:49:02","新北市新店區永業路81巷5弄8號","121.530465","24.94917","6500600","新店區"
"231031","720-UM","2017/07/27 15:49:04","新北市新店區雙城路60巷6號","121.491853333333","24.9476533333333","6500600","新店區"
"231037","AKT-0513","2017/07/27 15:49:04","新北市新店區安興路105號","121.514706666667","24.977705","6500600","新店區"
"241011","013-R5","2017/07/27 15:48:56","新北市三重區文化北路248號","121.497381666667","25.0698716666667","6500200","三重區"
"241028","022-UY","2017/07/27 15:48:50","新北市三重區中正南路43號","121.49393","25.0597683333333","6500200","三重區"
"241015","062-VK","2017/07/27 15:48:55","新北市三重區重新路四段121號","121.485106666667","25.05203","6500200","三重區"
"241017","063-VK","2017/07/27 15:48:53","新北市三重區大仁街5號","121.491636666667","25.0637733333333","6500200","三重區"
"241024","065-VK","2017/07/27 15:48:56","新北市三重區新北大道一段250號","121.479926666667","25.0612066666667","6500200","三重區"
"241026","066-VK","2017/07/27 15:48:59","新北市三重區環河南路112號","121.498283333333","25.0561966666667","6500200","三重區"
"241003","156-TC","2017/07/27 15:48:55","新北市三重區重新路四段121號","121.48484","25.0523983333333","6500200","三重區"
"241005","262-UM","2017/07/27 15:48:57","新北市三重區環河南路100號","121.500328333333","25.0573866666667","6500200","三重區"
"241016","266-UM","2017/07/27 15:48:48","新北市三重區重新路四段121號","121.485165","25.0520166666667","6500200","三重區"
"241022","267-UM","2017/07/27 15:49:02","新北市三重區重新路四段121號","121.48464","25.0523583333333","6500200","三重區"
"241018","268-UM","2017/07/27 15:48:56","新北市三重區過圳街7巷1號","121.489521666667","25.0586133333333","6500200","三重區"
"241013","270-UM","2017/07/27 15:49:01","新北市三重區六張街28號","121.49532","25.07059","6500200","三重區"
"241007","398-BY","2017/07/27 15:48:53","新北市三重區重新路四段121號","121.485213333333","25.0520516666667","6500200","三重區"
"241023","545-UM","2017/07/27 15:48:49","新北市三重區三陽路170-1號","121.481741666667","25.0573466666667","6500200","三重區"
"241001","547-UM","2017/07/27 15:49:04","新北市三重區重新路四段121號","121.484588333333","25.0523083333333","6500200","三重區"
"241006","AAD-863","2017/07/27 15:48:58","新北市三重區重新路四段121號","121.484695","25.052155","6500200","三重區"
"241012","941-UM","2017/07/27 15:49:06","新北市三重區自強路一段69號","121.497621666667","25.0669383333333","6500200","三重區"
"241029","942-UM","2017/07/27 15:48:59","新北市三重區大同南路242號","121.49694","25.05592","6500200","三重區"
"241033","AAC-255","2017/07/27 15:48:59","新北市三重區光復路一段54巷1號","121.471953333333","25.0484983333333","6500200","三重區"
"235036","301-VK","2017/07/27 15:48:45","新北市五股區新城三路45號","121.448638333333","25.0925766666667","6500300","中和區"
"235033","4980-A6","2017/07/27 15:48:58","新北市中和區連城路469巷70弄4號","121.483305","24.9936233333333","6500300","中和區"
"235023","AAC-215","2017/07/27 15:48:58","新北市中和區員山路31-4號","121.480333333333","24.9876183333333","6500300","中和區"
"247001","402-BY","2017/07/27 15:49:02","新北市五股區成泰路三段101-1號","121.444118333333","25.09037","6501400","蘆洲區"
"224007","273-VK","2017/07/27 10:16:59","新北市瑞芳區大寮路356-1號","121.784635","25.103375","6501200","瑞芳區"
"224005","271-BY","2017/07/27 15:48:48","新北市瑞芳區中山路266號","121.799141666667","25.1080483333333","6501200","瑞芳區"
"227010","642-TC","2017/07/27 15:49:02","新北市雙溪區牡丹里中正路58巷34號","121.86618","25.0419916666667","6502500","雙溪區"
"227004","400-TW","2017/07/27 15:48:55","新北市雙溪區平林里外平林44號","121.852926666667","25.0363366666667","6502500","雙溪區"
"252005","073-UM","2017/07/27 15:32:29","新北市三芝區埔坪里埔頭坑41號","121.504341666667","25.2646233333333","6502100","三芝區"
"252007","AAC-283","2017/07/27 15:49:06","新北市三芝區錫板里南勢崗5-5號","121.480655","25.2628716666667","6502100","三芝區"
"236066","105-UM","2017/07/27 15:48:48","新北市土城區大安路142號","121.43348","24.9708066666667","6501300","土城區"
"236076","166-UM","2017/07/27 15:48:51","新北市土城區福安街104號","121.41732","24.96405","6501300","土城區"
"236028","253-BX","2017/07/27 15:49:05","新北市土城區學成路128巷9號","121.449388333333","24.989995","6501300","土城區"
"236024","269-VK","2017/07/27 15:48:54","新北市土城區中央路一段249巷12號","121.445913333333","24.9855516666667","6501300","土城區"
"236012","270-VK","2017/07/27 15:49:01","新北市土城區廣明街70號","121.455078333333","24.993745","6501300","土城區"
"236018","401-BY","2017/07/27 15:48:52","新北市土城區","121.472975","24.9881883333333","6501300","土城區"
"236056","912-UM","2017/07/27 15:48:56","新北市土城區中央路一段226號","121.444791666667","24.9852566666667","6501300","土城區"
"236047","913-UM","2017/07/27 15:49:04","新北市土城區清水路259號","121.462963333333","24.9844066666667","6501300","土城區"
"236052","AAC-216","2017/07/27 15:48:48","新北市土城區中央路一段45巷2弄1號","121.448651666667","24.99018","6501300","土城區"
"238002","755-BX","2017/07/27 15:48:52","新北市樹林區啟智街34號","121.42074","24.9933316666667","6500700","樹林區"
"238010","601-UM","2017/07/27 15:49:03","新北市樹林區龍興街13巷19號","121.403883333333","25.0166833333333","6500700","樹林區"
"238006","599-UM","2017/07/27 15:48:58","新北市樹林區國凱街112號","121.42181","24.979635","6500700","樹林區"
"238005","571-TV","2017/07/27 15:49:04","新北市樹林區中華路68號","121.419888333333","24.9815033333333","6500700","樹林區"
"238011","5061-A6","2017/07/27 15:48:54","新北市樹林區山佳街57號","121.392906666667","24.9725583333333","6500700","樹林區"
"238009","312-TH","2017/07/27 15:48:52","新北市樹林區中華路185-2號","121.42017","24.98177","6500700","樹林區"
"238008","311-TH","2017/07/27 15:49:05","新北市樹林區柑園街一段262-2號","121.390698333333","24.9565066666667","6500700","樹林區"
"238012","303-VK","2017/07/27 15:49:08","新北市樹林區中山路一段174號","121.421926666667","24.9889366666667","6500700","樹林區"
"238004","283-BY","2017/07/27 15:49:02","新北市樹林區光華街14巷2號","121.413311666667","25.0032833333333","6500700","樹林區"
"238001","282-BY","2017/07/27 15:49:03","新北市樹林區千歲街61巷6號","121.426343333333","24.9980383333333","6500700","樹林區"
"238007","268-VK","2017/07/27 01:40:28","新北市樹林區中山路三段204號","121.386808333333","24.9682583333333","6500700","樹林區"
"238013","172-UY","2017/07/27 15:49:01","新北市樹林區中洲街20巷1弄6號","121.397641666667","24.9717433333333","6500700","樹林區"
"238003","169-UY","2017/07/27 15:48:57","新北市樹林區復興路337號","121.417773333333","24.98778","6500700","樹林區"
"221031","353-TW","2017/07/27 15:11:50","新北市汐止區汐萬路一段256巷3號","121.652918333333","25.0745066666667","6501100","汐止區"
"220038","487-VK","2017/07/27 15:48:56","新北市板橋區長江路一段190號","121.46223","25.03046","6500100","板橋區"
"220018","AAC-253","2017/07/27 15:49:04","新北市板橋區金門街215巷121-1號","121.434018333333","24.9865416666667","6500100","板橋區"
