"lineid","car","time","location","longitude","latitude","cityid","cityname"
"234026","9371-KE","2017/07/27 17:49:46","新北市永和區中山路一段101號","121.511176666667","25.01043","6500400","永和區"
"234011","9373-KE","2017/07/27 17:49:39","新北市永和區福和路1號","121.526061666667","25.0092433333333","6500400","永和區"
"249005","172-UM","2017/07/27 17:49:49","新北市八里區荖阡坑路41-10號","121.402436666667","25.132855","6502300","八里區"
"249004","303-UY","2017/07/27 17:49:31","新北市八里區中華路一段79巷9號","121.42094","25.1563516666667","6502300","八里區"
"249002","305-UY","2017/07/27 17:49:40","新北市八里區龍形五街37巷3號","121.448556666667","25.13257","6502300","八里區"
"249003","593-UM","2017/07/27 17:49:29","新北市八里區中山路二段210巷21號","121.404668333333","25.1524916666667","6502300","八里區"
"249001","759-BX","2017/07/27 17:49:42","新北市八里區龍米路二段131號","121.445483333333","25.1473366666667","6502300","八里區"
"248014","025-BX","2017/07/27 17:49:35","新北市五股區中興路二段63巷17號","121.460273333333","25.0752766666667","6501500","五股區"
"248016","026-BX","2017/07/27 17:49:49","新北市五股區中興路二段83巷26-6號","121.459995","25.07524","6501500","五股區"
"248006","077-UY","2017/07/27 17:49:43","新北市五股區中興路二段37巷28號","121.46011","25.0749416666667","6501500","五股區"
"248008","095-VK","2017/07/27 17:49:41","新北市五股區中興路二段83巷26-6號","121.460128333333","25.0751916666667","6501500","五股區"
"248020","261-SL","2017/07/27 17:49:47","新北市五股區中興路二段83巷26-3號","121.460173333333","25.07531","6501500","五股區"
"248010","272-BY","2017/07/27 17:49:49","新北市五股區中興路二段37巷28號","121.460145","25.0749183333333","6501500","五股區"
"232011","375-UM","2017/07/27 17:49:35","新北市坪林區北宜路八段66號","121.705136666667","24.9352416666667","6502000","坪林區"
"244013","069-UM","2017/07/27 17:49:42","新北市林口區中正路525巷17號","121.383316666667","25.076825","6501700","林口區"
"244007","080-UY","2017/07/27 17:49:38","新北市林口區林口路226號","121.386775","25.08377","6501700","林口區"
"244018","403-UM","2017/07/27 09:49:04","新北市林口區粉寮路60-16號","121.404425","25.0897366666667","6501700","林口區"
"244009","410-SL","2017/07/27 17:49:34","新北市林口區文化一路二段360號","121.384506666667","25.0836466666667","6501700","林口區"
"244023","483-VK","2017/07/27 17:49:51","新北市林口區東湖路52號","121.387943333333","25.0741133333333","6501700","林口區"
"244017","485-VK","2017/07/27 17:49:51","新北市林口區忠孝路377號","121.369366666667","25.071475","6501700","林口區"
"244025","656-BX","2017/07/27 17:49:38","新北市林口區忠孝三路42號","121.360188333333","25.0699566666667","6501700","林口區"
"244019","657-BX","2017/07/27 17:49:50","新北市林口區文化一路一段89-5號","121.371915","25.07036","6501700","林口區"
"244011","701-TV","2017/07/27 17:49:38","新北市林口區中興街12號","121.388795","25.0773283333333","6501700","林口區"
"244021","838-TS","2017/07/27 17:49:41","新北市林口區仁愛路一段139巷29號","121.397383333333","25.07121","6501700","林口區"
"222003","436-BY","2017/07/27 17:49:48","新北市深坑區阿柔洋60-1號","121.608605","24.998515","6501800","深坑區"
"222002","659-BX","2017/07/27 17:49:49","新北市深坑區平埔街22巷17弄1號","121.614866666667","25.000785","6501800","深坑區"
"231007","189-VK","2017/07/27 12:00:48","新北市新店區安華路28-1號","121.519686666667","24.9611066666667","6500600","新店區"
"231046","278-BY","2017/07/27 17:49:44","新北市新店區康雅崙路68號","121.533598333333","24.9280516666667","6500600","新店區"
"241017","063-VK","2017/07/27 17:49:33","新北市三重區新北大道一段6號","121.488853333333","25.061415","6500200","三重區"
"241005","262-UM","2017/07/27 17:49:37","新北市三重區溪尾街242巷33號","121.486776666667","25.08178","6500200","三重區"
"241016","266-UM","2017/07/27 17:49:48","新北市三重區重新路二段94號","121.496945","25.0617616666667","6500200","三重區"
"241024","462-BY","2017/07/27 17:49:32","新北市三重區力行路二段9巷10號","121.482951666667","25.0721916666667","6500200","三重區"
"241012","941-UM","2017/07/27 17:49:46","新北市三重區河邊北街379-1號","121.501703333333","25.076445","6500200","三重區"
"241033","AAC-255","2017/07/27 17:49:39","新北市三重區光復路一段7號","121.472086666667","25.0471383333333","6500200","三重區"
"235064","005-UY","2017/07/27 17:49:36","新北市中和區員山路36巷16-3號","121.485078333333","24.9913716666667","6500300","中和區"
"235067","255-BX","2017/07/27 17:49:34","新北市中和區員山路36巷16-3號","121.485083333333","24.9914883333333","6500300","中和區"
"235036","301-VK","2017/07/27 17:49:51","新北市中和區員山路36巷12號","121.484028333333","24.9908133333333","6500300","中和區"
"235062","800-TS","2017/07/27 17:49:39","新北市中和區員山路36巷16-3號","121.484983333333","24.99127","6500300","中和區"
"247020","893-R6","2017/07/27 17:49:49","新北市蘆洲區民權路188-2號","121.471631666667","25.0908133333333","6501400","蘆洲區"
"247010","546-UM","2017/07/27 17:49:35","新北市蘆洲區民族路72號","121.477493333333","25.0847766666667","6501400","蘆洲區"
"247018","500-BY","2017/07/27 17:49:37","新北市蘆洲區復興路231號","121.480018333333","25.08989","6501400","蘆洲區"
"247006","341-TH","2017/07/27 17:49:40","新北市蘆洲區中華街48號","121.46197","25.08048","6501400","蘆洲區"
"247008","339-TH","2017/07/27 17:49:52","新北市蘆洲區中山一路196號","121.473805","25.08086","6501400","蘆洲區"
"247024","337-TH","2017/07/27 17:49:31","新北市蘆洲區光榮路67號","121.461286666667","25.088705","6501400","蘆洲區"
"247002","336-TH","2017/07/27 17:49:45","新北市蘆洲區永平街32巷33弄18號","121.458735","25.092445","6501400","蘆洲區"
"247014","057-VK","2017/07/27 17:49:36","新北市蘆洲區長榮路106號","121.461936666667","25.0840516666667","6501400","蘆洲區"
"247012","007-UY","2017/07/27 17:49:31","新北市蘆洲區民族路165號","121.479273333333","25.088325","6501400","蘆洲區"
"247022","002-UY","2017/07/27 17:49:50","新北市蘆洲區中正路408號","121.463061666667","25.09351","6501400","蘆洲區"
"247016","001-UY","2017/07/27 17:49:51","新北市蘆洲區中正路185巷86弄2號","121.465611666667","25.08398","6501400","蘆洲區"
"228003","097-TW","2017/07/27 17:49:46","新北市貢寮區真理里延平街86號","121.92536","25.05882","6502600","貢寮區"
"228001","212-TW","2017/07/27 17:49:32","新北市貢寮區仁理村仁愛路95-1號","121.927715","25.0554666666667","6502600","貢寮區"
"228002","585-TW","2017/07/27 17:49:37","新北市貢寮區福隆里外隆林街16-4號","121.957656666667","25.0052716666667","6502600","貢寮區"
"224006","676-BX","2017/07/27 17:49:43","新北市瑞芳區傑魚坑路264號","121.789126666667","25.1090333333333","6501200","瑞芳區"
"224002","639-TC","2017/07/27 17:49:33","新北市瑞芳區民權街3-1號","121.809415","25.1081433333333","6501200","瑞芳區"
"224009","285-BY","2017/07/27 17:49:49","新北市瑞芳區金光路372號","121.84973","25.1105083333333","6501200","瑞芳區"
"224008","275-VK","2017/07/27 17:49:49","新北市瑞芳區明燈路一段184號","121.818338333333","25.1081616666667","6501200","瑞芳區"
"224007","273-VK","2017/07/27 17:49:32","新北市瑞芳區靜安路四段12巷3號","121.797385","25.087325","6501200","瑞芳區"
"224005","271-BY","2017/07/27 17:49:40","新北市瑞芳區瑞濱路22號","121.826953333333","25.12169","6501200","瑞芳區"
"253006","032-BX","2017/07/27 17:49:51","新北市石門區中央路3-1號","121.56579","25.2914083333333","6502200","石門區"
"208003","665-BX","2017/07/27 17:49:37","新北市金山區磺清路135號","121.639416666667","25.2276683333333","6502700","金山區"
"251009","008-UM","2017/07/27 17:40:02","新北市淡水區中正路38-1號","121.44374","25.16927","6501000","淡水區"
"251004","009-UM","2017/07/27 17:49:46","新北市淡水區民權一街17巷15號","121.459461666667","25.1366333333333","6501000","淡水區"
"251007","179-VK","2017/07/27 17:49:52","新北市淡水區民生路48號","121.461763333333","25.1379766666667","6501000","淡水區"
"251008","181-VK","2017/07/27 17:49:50","新北市淡水區八勢路一段156號","121.46808","25.15648","6501000","淡水區"
"251014","182-VK","2017/07/27 17:49:49","新北市淡水區公埔子16-6號","121.481025","25.2245716666667","6501000","淡水區"
"251010","413-VK","2017/07/27 17:49:54","新北市淡水區中正路二段55號","121.41715","25.1865016666667","6501000","淡水區"
"251012","441-VK","2017/07/27 17:49:38","新北市淡水區北投子48號","121.462723333333","25.1821266666667","6501000","淡水區"
"251016","442-VK","2017/07/27 17:49:44","新北市淡水區埤島38號","121.450566666667","25.1963316666667","6501000","淡水區"
"251005","443-VK","2017/07/27 17:49:40","新北市淡水區學府路96號","121.449626666667","25.1716466666667","6501000","淡水區"
"251001","559-UM","2017/07/27 17:49:49","新北市淡水區民權路92巷35-1號","121.46218","25.1265883333333","6501000","淡水區"
"251006","561-UM","2017/07/27 17:49:53","新北市淡水區新生街51巷51號","121.441361666667","25.1761583333333","6501000","淡水區"
"251011","650-BX","2017/07/27 17:49:25","新北市淡水區吳(仔)厝38號","121.479478333333","25.1496383333333","6501000","淡水區"
"251002","672-BX","2017/07/27 17:49:54","新北市淡水區中山路70-1號","121.443125","25.1705133333333","6501000","淡水區"
"251003","766-UM","2017/07/27 17:49:46","新北市淡水區大忠街25號","121.44393","25.1760816666667","6501000","淡水區"
"207003","550-UM","2017/07/27 17:49:41","新北市萬里區野柳里東澳路66號","121.692846666667","25.2009883333333","6502800","萬里區"
"207004","225-TW","2017/07/27 17:49:49","新北市萬里區萬里里瑪鋉頂街100-1號","121.687746666667","25.1804116666667","6502800","萬里區"
"252005","073-UM","2017/07/27 15:32:29","新北市三芝區埔坪里埔頭坑41號","121.504341666667","25.2646233333333","6502100","三芝區"
"252002","178-VK","2017/07/27 17:49:36","新北市三芝區智成街73號","121.504446666667","25.25599","6502100","三芝區"
"252001","292-VK","2017/07/27 17:49:39","新北市三芝區淡金路一段32號","121.500216666667","25.259265","6502100","三芝區"
"208002","170-UY","2017/07/27 17:49:32","新北市金山區磺清路135號","121.63936","25.22765","6502700","金山區"
"237004","078-UY","2017/07/27 17:49:41","新北市三峽區中山路124號","121.365538333333","24.935965","6500900","三峽區"
"237009","210-TH","2017/07/27 17:49:37","新北市三峽區大勇路3巷32號","121.367568333333","24.9368566666667","6500900","三峽區"
"237013","252-BX","2017/07/27 17:49:41","新北市三峽區愛國路14號","121.374273333333","24.9336333333333","6500900","三峽區"
"237012","275-BY","2017/07/27 17:49:41","新北市三峽區文化路90號","121.371713333333","24.9362216666667","6500900","三峽區"
"237008","302-VK","2017/07/27 17:49:48","新北市三峽區中園街237-1號","121.366813333333","24.91954","6500900","三峽區"
"237006","5529-G3","2017/07/27 17:49:37","新北市三峽區介壽路二段136巷106弄16號","121.391823333333","24.9332883333333","6500900","三峽區"
"237011","572-TV","2017/07/27 17:42:03","新北市三峽區中山路96號","121.366558333333","24.935385","6500900","三峽區"
"237016","649-BX","2017/07/27 17:49:44","新北市三峽區白雞62號","121.386658333333","24.912255","6500900","三峽區"
"237010","706-TV","2017/07/27 17:49:34","新北市三峽區和平街57號","121.370198333333","24.93632","6500900","三峽區"
"237005","AKY-6261","2017/07/27 17:49:37","新北市三峽區中山路459巷163-3號","121.349183333333","24.9334033333333","6500900","三峽區"
"236071","105-UM","2017/07/27 17:49:37","新北市土城區青雲路322巷28號","121.45749","24.9748283333333","6501300","土城區"
"236042","107-UM","2017/07/27 17:49:45","新北市土城區城林路6巷80號","121.438465","24.9797433333333","6501300","土城區"
"236078","166-UM","2017/07/27 17:49:48","新北市土城區城林路6巷80號","121.438628333333","24.9797383333333","6501300","土城區"
"236030","253-BX","2017/07/27 17:49:34","新北市土城區城林路6巷80號","121.438505","24.9798533333333","6501300","土城區"
"236026","269-VK","2017/07/27 17:49:52","新北市土城區中華路二段281號","121.437578333333","24.96953","6501300","土城區"
"236014","270-VK","2017/07/27 17:49:46","新北市土城區城林路6巷80號","121.438565","24.9795483333333","6501300","土城區"
"236037","271-VK","2017/07/27 17:49:34","新北市土城區城林路6巷80號","121.4385","24.9797483333333","6501300","土城區"
"236021","401-BY","2017/07/27 17:49:42","新北市土城區城林路6巷80號","121.438495","24.9797916666667","6501300","土城區"
"236058","912-UM","2017/07/27 17:49:40","新北市土城區中華路二段2號","121.439148333333","24.979745","6501300","土城區"
"236051","913-UM","2017/07/27 17:49:44","新北市土城區城林路6巷80號","121.43855","24.9796833333333","6501300","土城區"
"236062","915-UM","2017/07/27 17:49:38","新北市土城區城林路6巷80號","121.438633333333","24.9796883333333","6501300","土城區"
"236053","AAC-216","2017/07/27 17:49:44","新北市土城區城林路6巷80號","121.438468333333","24.979545","6501300","土城區"
"242021","AAC-296","2017/07/27 17:49:53","新北市新莊區中港路137號","121.45523","25.0404633333333","6500500","新莊區"
"242048","751-BX","2017/07/27 17:49:50","新北市新莊區萬安街142號","121.420175","25.02125","6500500","新莊區"
"242029","705-TV","2017/07/27 17:49:53","新北市新莊區復興路一段27號","121.446263333333","25.041765","6500500","新莊區"
"242025","615-BX","2017/07/27 17:49:44","新北市三重區光復路二段168-2號","121.47165","25.061335","6500500","新莊區"
"242023","613-BX","2017/07/27 17:49:49","新北市新莊區福樂街58號","121.457861666667","25.0461033333333","6500500","新莊區"
"242027","612-BX","2017/07/27 17:49:46","新北市新莊區福壽街139號","121.457981666667","25.0526566666667","6500500","新莊區"
"242036","566-BX","2017/07/27 17:49:43","新北市新莊區建福路59巷3號","121.427","25.0274283333333","6500500","新莊區"
"242004","442-UM","2017/07/27 17:49:41","新北市新莊區思源路177巷4號","121.459318333333","25.04535","6500500","新莊區"
"242046","441-UM","2017/07/27 17:49:49","新北市新莊區建國一路52號","121.434085","25.0310766666667","6500500","新莊區"
"242051","440-UM","2017/07/27 17:49:39","新北市新莊區西盛街311巷10號","121.428646666667","25.0151866666667","6500500","新莊區"
"242031","415-TV","2017/07/27 17:49:40","新北市新莊區新泰路321巷32號","121.443178333333","25.0412916666667","6500500","新莊區"
"242002","413-TV","2017/07/27 17:49:38","新北市新莊區景德路93號","121.45195","25.0347583333333","6500500","新莊區"
"242039","400-BY","2017/07/27 17:49:43","新北市新莊區民安路168號","121.424955","25.02412","6500500","新莊區"
"242061","362-BY","2017/07/27 17:49:44","新北市新莊區瓊林南路220號","121.433455","25.0056133333333","6500500","新莊區"
"242058","353-BY","2017/07/27 17:49:49","新北市新莊區中正路730-5號","121.41482","25.0235683333333","6500500","新莊區"
"242042","132-UY","2017/07/27 17:49:40","新北市新莊區中正路618號","121.423718333333","25.0293366666667","6500500","新莊區"
"242034","133-UY","2017/07/27 17:49:51","新北市新莊區新莊路692號","121.440728333333","25.0327216666667","6500500","新莊區"
"242019","135-UY","2017/07/27 17:49:45","新北市新莊區民樂街79號","121.457905","25.0428083333333","6500500","新莊區"
"242044","172-VK","2017/07/27 17:49:41","新北市新莊區中正路853-6號","121.419718333333","25.0277266666667","6500500","新莊區"
"242007","173-VK","2017/07/27 17:49:37","新北市新莊區福壽街59巷3號","121.457865","25.049115","6500500","新莊區"
"242013","175-VK","2017/07/27 17:49:51","新北市新莊區中誠街171號","121.448138333333","25.0473816666667","6500500","新莊區"
"242056","176-VK","2017/07/27 17:49:42","新北市新莊區瓊林路40巷10號","121.447683333333","25.0302833333333","6500500","新莊區"
"242011","346-TH","2017/07/27 17:49:48","新北市新莊區中港路699號","121.450741666667","25.057105","6500500","新莊區"
"242017","348-TH","2017/07/27 17:49:50","新北市新莊區永安街76號","121.45086","25.0446533333333","6500500","新莊區"
"242053","349-TH","2017/07/27 17:49:45","新北市新莊區新樹路575號","121.432855","25.0069883333333","6500500","新莊區"
"242015","350-TH","2017/07/27 17:49:51","新北市新莊區新泰路442號","121.443306666667","25.0447633333333","6500500","新莊區"
"242009","351-TH","2017/07/27 17:49:42","新北市新莊區昌平街59巷8號","121.454433333333","25.053255","6500500","新莊區"
"238015","755-BX","2017/07/27 17:49:33","新北市樹林區長壽街19巷1號","121.421985","24.9940483333333","6500700","樹林區"
"238023","601-UM","2017/07/27 17:49:43","新北市樹林區三福街68號","121.404873333333","25.0163883333333","6500700","樹林區"
"238018","571-TV","2017/07/27 17:49:41","新北市樹林區鎮前街1號","121.426058333333","24.99299","6500700","樹林區"
"238022","312-TH","2017/07/27 17:49:51","新北市樹林區太順街62巷6弄2號","121.41786","24.9796083333333","6500700","樹林區"
"238021","311-TH","2017/07/27 17:49:31","新北市樹林區柑園街一段253巷26號","121.396906666667","24.9534166666667","6500700","樹林區"
"238025","303-VK","2017/07/27 17:49:48","新北市樹林區三俊街81巷2號","121.415691666667","25.0154283333333","6500700","樹林區"
"238017","283-BY","2017/07/27 17:49:51","新北市樹林區三德街11號","121.413098333333","25.012925","6500700","樹林區"
"238014","282-BY","2017/07/27 17:49:39","新北市樹林區保安街一段313巷20-1號","121.417041666667","24.997475","6500700","樹林區"
"238026","172-UY","2017/07/27 17:49:38","新北市樹林區中洲街30巷6弄4號","121.397375","24.971375","6500700","樹林區"
"238016","169-UY","2017/07/27 17:49:37","新北市樹林區復興路286號","121.417581666667","24.987795","6500700","樹林區"
"239007","AAC-297","2017/07/27 17:49:38","新北市鶯歌區鶯桃路122號","121.33846","24.9544616666667","6500800","鶯歌區"
"239006","891-R6","2017/07/27 17:49:41","新北市鶯歌區永和街115巷40號","121.33325","24.9694166666667","6500800","鶯歌區"
"239008","527-UM","2017/07/27 17:49:41","新北市鶯歌區香賓街21號","121.337465","24.979695","6500800","鶯歌區"
"239005","526-UM","2017/07/27 17:49:35","新北市鶯歌區鳳吉五街27號","121.327211666667","24.9726766666667","6500800","鶯歌區"
"239001","417-VK","2017/07/27 17:49:40","新北市鶯歌區中正三路444號","121.323661666667","24.9346133333333","6500800","鶯歌區"
"239003","360-BY","2017/07/27 17:49:52","新北市鶯歌區永吉街46巷37號","121.334721666667","24.9575583333333","6500800","鶯歌區"
"239002","359-BY","2017/07/27 17:49:37","新北市鶯歌區光明街107號","121.344476666667","24.9557866666667","6500800","鶯歌區"
"239004","193-VK","2017/07/27 17:49:47","新北市鶯歌區尖山路38號","121.351091666667","24.95052","6500800","鶯歌區"
"221008","489-VK","2017/07/27 17:49:36","新北市汐止區康寧街901號","121.651415","25.0750133333333","6501100","汐止區"
"221036","130-UY","2017/07/27 17:49:39","新北市汐止區長江街267號","121.664396666667","25.079835","6501100","汐止區"
"221015","131-UY","2017/07/27 17:49:46","新北市汐止區汐萬路一段165號","121.653","25.0710366666667","6501100","汐止區"
"221010","269-BY","2017/07/27 17:49:43","新北市汐止區汐萬路一段418巷1弄13號","121.650308333333","25.078095","6501100","汐止區"
"221012","278-VK","2017/07/27 15:08:56","新北市汐止區汐萬路一段256巷1號","121.651885","25.0749383333333","6501100","汐止區"
"221023","279-VK","2017/07/27 02:19:45","新北市汐止區康寧街901號","121.651723333333","25.0749416666667","6501100","汐止區"
"221032","280-BY","2017/07/27 17:49:41","新北市汐止區大同路一段138號","121.631103333333","25.05523","6501100","汐止區"
"221038","297-VK","2017/07/27 17:49:53","新北市汐止區康寧街901號","121.650743333333","25.07531","6501100","汐止區"
"221029","298-VK","2017/07/27 17:49:13","新北市汐止區康寧街901號","121.6517","25.0749583333333","6501100","汐止區"
"221021","299-VK","2017/07/27 17:31:46","新北市汐止區汐萬路一段256巷3號","121.652206666667","25.0749633333333","6501100","汐止區"
"221031","353-TW","2017/07/27 17:49:33","新北市汐止區工建路202號","121.637055","25.0628033333333","6501100","汐止區"
"221035","622-UM","2017/07/27 17:49:47","新北市汐止區汐萬路一段213號","121.652016666667","25.0722966666667","6501100","汐止區"
"221025","623-UM","2017/07/27 17:49:32","新北市汐止區大同路二段173號","121.651695","25.0644216666667","6501100","汐止區"
"221033","647-BX","2017/07/27 17:49:40","新北市汐止區大同路一段142-1號","121.631281666667","25.0553633333333","6501100","汐止區"
"221018","753-BX","2017/07/27 17:49:47","新北市汐止區忠孝東路382巷3弄1號","121.665713333333","25.0697716666667","6501100","汐止區"
"220042","689-BX","2017/07/27 16:34:46","新北市板橋區民生路二段120號","121.470455","25.0195383333333","6500100","板橋區"
