"lineid","car","time","location","longitude","latitude","cityid","cityname"
"234046","148-BY","2017/07/27 18:49:42","新北市永和區永元路52巷52號","121.524498333333","25.0005716666667","6500400","永和區"
"234013","149-BY","2017/07/27 18:49:29","新北市永和區保福路二段133巷34號","121.508846666667","25.013395","6500400","永和區"
"234007","207-UY","2017/07/27 18:49:40","新北市永和區文化路2號","121.515593333333","25.015","6500400","永和區"
"234081","298-R6","2017/07/27 18:49:43","新北市永和區永利路83-1號","121.521353333333","25.0034033333333","6500400","永和區"
"234038","336-UY","2017/07/27 18:49:40","新北市永和區成功路二段152-2號","121.526518333333","24.996525","6500400","永和區"
"234064","337-UY","2017/07/27 18:49:31","新北市永和區環河東路二段92號","121.524423333333","25.0106316666667","6500400","永和區"
"234086","338-UY","2017/07/27 18:49:46","新北市中和區安樂路101-3號","121.513521666667","24.99514","6500400","永和區"
"234070","552-UM","2017/07/27 18:49:40","新北市永和區竹林路96巷21號","121.518631666667","25.01189","6500400","永和區"
"234054","553-UM","2017/07/27 18:49:42","新北市永和區竹林路66巷2號","121.518235","25.0134183333333","6500400","永和區"
"234017","745-BX","2017/07/27 18:49:42","新北市永和區忠孝街26巷8號","121.515323333333","25.016795","6500400","永和區"
"234030","840-RS","2017/07/27 18:49:40","新北市永和區得和路419號","121.526015","24.99933","6500400","永和區"
"234061","AAD-866","2017/07/27 18:49:42","新北市永和區中正路507號","121.516723333333","25.0069983333333","6500400","永和區"
"234042","862-TW","2017/07/27 18:49:34","新北市永和區永貞路308號","121.511878333333","25.00489","6500400","永和區"
"234050","863-TW","2017/07/27 18:49:29","新北市永和區保安路2號","121.510748333333","25.0174683333333","6500400","永和區"
"234026","9371-KE","2017/07/27 18:49:46","新北市永和區自由街56號","121.513771666667","25.006055","6500400","永和區"
"234011","9373-KE","2017/07/27 18:49:39","新北市永和區文化路124號","121.513081666667","25.01526","6500400","永和區"
"249005","172-UM","2017/07/27 18:49:29","新北市八里區長道坑17號","121.396278333333","25.1155716666667","6502300","八里區"
"249004","303-UY","2017/07/27 18:49:31","新北市八里區忠孝路411號","121.41543","25.16014","6502300","八里區"
"249002","305-UY","2017/07/27 18:49:40","新北市八里區頂寮二街138號","121.449276666667","25.1294383333333","6502300","八里區"
"249001","759-BX","2017/07/27 18:49:42","新北市八里區龍米路二段3-1號","121.448843333333","25.1390466666667","6502300","八里區"
"248016","026-BX","2017/07/27 18:49:29","新北市五股區凌雲路一段83巷40號","121.449198333333","25.101205","6501500","五股區"
"248006","077-UY","2017/07/27 18:49:43","新北市五股區四維路1巷3-1號","121.466386666667","25.070205","6501500","五股區"
"248008","095-VK","2017/07/27 18:49:41","新北市五股區中興路一段147號","121.465196666667","25.0735366666667","6501500","五股區"
"248012","247-BX","2017/07/27 18:49:40","新北市五股區成泰路二段147巷34-1號","121.437158333333","25.0885383333333","6501500","五股區"
"248020","261-SL","2017/07/27 18:49:47","新北市五股區凌雲路三段94-2號","121.426748333333","25.12174","6501500","五股區"
"248010","272-BY","2017/07/27 18:49:36","新北市五股區水碓七路81號","121.4297","25.0722116666667","6501500","五股區"
"248002","655-BX","2017/07/27 18:49:42","新北市五股區成泰路三段454號","121.451436666667","25.1003133333333","6501500","五股區"
"248004","677-BX","2017/07/27 18:49:38","新北市五股區民義路二段50-5號","121.410841666667","25.1041066666667","6501500","五股區"
"234023","9380-KE","2017/07/27 18:49:45","新北市永和區竹林路119巷53弄2號","121.522288333333","25.0118916666667","6500400","永和區"
"234077","969-R7","2017/07/27 18:49:42","新北市永和區中正路2巷17號","121.513441666667","24.9934233333333","6500400","永和區"
"234074","AAC-211","2017/07/27 18:49:41","新北市永和區福和路1號","121.526481666667","25.0099066666667","6500400","永和區"
"234067","AAC-212","2017/07/27 18:49:36","新北市永和區中和路625號","121.512948333333","25.0050266666667","6500400","永和區"
"234003","AAC-295","2017/07/27 18:49:34","新北市永和區中正路651號","121.515133333333","25.0101883333333","6500400","永和區"
"232011","375-UM","2017/07/27 18:49:39","新北市坪林區坪林街55號","121.711445","24.9375933333333","6502000","坪林區"
"244013","069-UM","2017/07/27 18:49:42","新北市林口區文化一路一段120號","121.374105","25.071925","6501700","林口區"
"244007","080-UY","2017/07/27 18:49:38","新北市林口區太平嶺1鄰3號","121.379578333333","25.111635","6501700","林口區"
"244018","403-UM","2017/07/27 09:49:04","新北市林口區粉寮路60-16號","121.404425","25.0897366666667","6501700","林口區"
"244009","410-SL","2017/07/27 18:49:34","新北市林口區竹林路320巷11號","121.391223333333","25.0822016666667","6501700","林口區"
"244023","483-VK","2017/07/27 18:49:31","新北市林口區文化三路二段41巷2號","121.372821666667","25.0795916666667","6501700","林口區"
"244017","485-VK","2017/07/27 18:49:31","新北市林口區文化二路一段20巷50-3號","121.365175","25.066395","6501700","林口區"
"244025","656-BX","2017/07/27 18:49:37","新北市林口區南勢里57-3號","121.360311666667","25.0779983333333","6501700","林口區"
"244019","657-BX","2017/07/27 18:49:29","新北市林口區麗園二街38巷65號","121.380008333333","25.06814","6501700","林口區"
"244011","701-TV","2017/07/27 18:49:38","新北市林口區中正路6號","121.396371666667","25.077455","6501700","林口區"
"244021","838-TS","2017/07/27 18:49:40","新北市林口區工六路28號","121.398373333333","25.0787383333333","6501700","林口區"
"243013","AAD-798","2017/07/27 18:49:34","新北市泰山區明志路三段206巷3號","121.423318333333","25.0379333333333","6501600","泰山區"
"243015","380-SR","2017/07/27 18:49:32","新北市泰山區美寧街57巷37弄2號","121.429476666667","25.06506","6501600","泰山區"
"243011","549-UM","2017/07/27 18:49:30","新北市泰山區黎明路23-1號","121.42137","25.0612083333333","6501600","泰山區"
"243012","646-TV","2017/07/27 18:49:33","新北市泰山區福興三街13號","121.434398333333","25.0577683333333","6501600","泰山區"
"243016","680-BX","2017/07/27 18:49:25","新北市泰山區明志路二段137號","121.427623333333","25.05069","6501600","泰山區"
"222003","436-BY","2017/07/27 18:49:28","新北市深坑區翠谷街17巷40號","121.62527","25.010145","6501800","深坑區"
"222001","628-TS","2017/07/27 18:49:46","新北市深坑區松柏街30巷2號","121.638638333333","25.011205","6501800","深坑區"
"222002","659-BX","2017/07/27 18:49:29","新北市深坑區文山路一段62巷3號","121.622905","25.0008616666667","6501800","深坑區"
"231041","002-UM","2017/07/27 18:49:35","新北市新店區安華路28-1號","121.519665","24.9608183333333","6500600","新店區"
"231056","0291-UT","2017/07/27 18:49:33","新北市新店區建國路198巷2號","121.538156666667","24.98036","6500600","新店區"
"231059","046-UY","2017/07/27 18:49:34","新北市新店區安華路28-1號","121.519556666667","24.9608316666667","6500600","新店區"
"231061","047-UY","2017/07/27 18:49:36","新北市新店區安忠路57巷26弄76號","121.51257","24.9571166666667","6500600","新店區"
"231060","106-UY","2017/07/27 18:49:35","新北市新店區安華路28-1號","121.519683333333","24.9607733333333","6500600","新店區"
"231051","107-UY","2017/07/27 18:49:40","新北市新店區中央路63號","121.532613333333","24.9770066666667","6500600","新店區"
"231047","108-UY","2017/07/27 18:49:30","新北市新店區德正街24號","121.54386","24.9721016666667","6500600","新店區"
"231052","187-VK","2017/07/27 18:49:33","新北市新店區新烏路一段171號","121.545021666667","24.9343783333333","6500600","新店區"
"231007","189-VK","2017/07/27 12:00:48","新北市新店區安華路28-1號","121.519686666667","24.9611066666667","6500600","新店區"
"231063","268-BY","2017/07/27 18:49:31","新北市新店區車子路109號","121.505248333333","24.9521166666667","6500600","新店區"
"231046","278-BY","2017/07/27 18:49:44","新北市新店區直潭路57號","121.532976666667","24.9423716666667","6500600","新店區"
"231050","AAD-862","2017/07/27 18:49:42","新北市新店區安康路一段50-1號","121.529635","24.9613483333333","6500600","新店區"
"231058","3712-VJ","2017/07/27 18:49:38","新北市新店區北宜路一段105巷4弄1號","121.539766666667","24.9556283333333","6500600","新店區"
"231055","3713-VJ","2017/07/27 18:49:31","新北市新店區新生街22號","121.53979","24.9665616666667","6500600","新店區"
"231067","4772-VM","2017/07/27 18:49:25","新北市新店區安康路一段76巷34-1號","121.528361666667","24.96354","6500600","新店區"
"231065","512-UM","2017/07/27 18:49:33","新北市新店區車子路10-4號","121.504981666667","24.9545633333333","6500600","新店區"
"231054","513-UM","2017/07/27 18:49:42","新北市新店區安康路一段65號","121.530423333333","24.9610583333333","6500600","新店區"
"231064","515-UM","2017/07/27 18:49:42","新北市新店區安華路28-1號","121.519666666667","24.96132","6500600","新店區"
"231045","617-UM","2017/07/27 18:49:38","新北市新店區安華路28-1號","121.519725","24.96134","6500600","新店區"
"231040","619-UM","2017/07/27 18:49:43","新北市新店區安康路一段69號","121.530265","24.96108","6500600","新店區"
"231042","641-BX","2017/07/27 18:49:41","新北市新店區中正路71號","121.543521666667","24.9699333333333","6500600","新店區"
"231049","719-UM","2017/07/27 18:49:42","新北市新店區中正路454-5號","121.534443333333","24.9790383333333","6500600","新店區"
"231062","720-UM","2017/07/27 18:49:33","新北市新店區安忠路101號","121.510873333333","24.956115","6500600","新店區"
"231044","897-TW","2017/07/27 18:49:33","新北市新店區寶橋路97號","121.547045","24.97634","6500600","新店區"
"231043","899-TW","2017/07/27 18:49:40","新北市新店區安康路一段85號","121.529316666667","24.9614683333333","6500600","新店區"
"231066","AKT-0513","2017/07/27 18:49:41","新北市新店區安豐路22巷3-1號","121.502505","24.9555116666667","6500600","新店區"
"241020","413-TH","2017/07/27 18:49:24","新北市三重區忠孝路二段34號","121.485731666667","25.071025","6500200","三重區"
"235066","003-UY","2017/07/27 18:49:35","新北市中和區水源路18巷4號","121.503985","25.0032683333333","6500300","中和區"
"235064","005-UY","2017/07/27 18:49:36","新北市中和區連城路75巷2-12號","121.497741666667","24.999465","6500300","中和區"
"235063","006-UY","2017/07/27 18:49:26","新北市中和區連城路347巷4弄28號","121.487106666667","24.9956566666667","6500300","中和區"
"235056","096-UM","2017/07/27 18:49:42","新北市中和區員山路514號","121.479128333333","25.0088633333333","6500300","中和區"
"235039","097-UM","2017/07/27 18:49:30","新北市永和區中正路1號","121.513671666667","24.99546","6500300","中和區"
"235065","098-UM","2017/07/27 18:49:31","新北市中和區莊敬路49巷29弄10號","121.50125","25.006495","6500300","中和區"
"235040","150-BY","2017/07/27 18:49:35","新北市中和區保健路106巷7號","121.512501666667","24.995815","6500300","中和區"
"235058","151-BY","2017/07/27 18:49:27","新北市中和區連城路567-1號","121.479348333333","24.9944833333333","6500300","中和區"
"235055","183-VK","2017/07/27 18:49:42","新北市中和區民生街21-6號","121.470773333333","25.0056216666667","6500300","中和區"
"235038","185-VK","2017/07/27 18:49:30","新北市中和區大勇街60巷30號","121.519355","24.9945566666667","6500300","中和區"
"235049","186-VK","2017/07/27 18:49:28","新北市中和區景安路130號","121.505048333333","24.9944533333333","6500300","中和區"
"235067","255-BX","2017/07/27 18:49:34","新北市中和區中山路二段449巷1弄9-2號","121.483866666667","25.003995","6500300","中和區"
"235044","293-VK","2017/07/27 18:49:33","新北市中和區復興路280巷18弄8號","121.502206666667","24.99167","6500300","中和區"
"235072","301-VK","2017/07/27 18:49:39","新北市永和區中山路一段289號","121.506791666667","25.0069383333333","6500300","中和區"
"235043","352-BY","2017/07/27 18:49:34","新北市中和區景平路2-1號","121.525638333333","24.9907233333333","6500300","中和區"
"235051","376-QA","2017/07/27 18:49:43","新北市中和區華新街143巷106弄10號","121.505871666667","24.9791066666667","6500300","中和區"
"235068","377-QA","2017/07/27 18:49:24","新北市中和區中正路211巷40號","121.49802","24.9925683333333","6500300","中和區"
"235061","378-QA","2017/07/27 18:49:34","新北市中和區民享街30巷1號","121.47403","25.0034366666667","6500300","中和區"
"235050","4979-A6","2017/07/27 18:46:23","新北市中和區忠孝街60巷17號","121.512075","24.983585","6500300","中和區"
"235069","4980-A6","2017/07/27 18:49:31","新北市中和區景平路457號","121.500658333333","24.9964716666667","6500300","中和區"
"235042","551-UM","2017/07/27 18:49:40","新北市中和區秀朗路三段70巷32號","121.52566","24.9944683333333","6500300","中和區"
"235070","558-UM","2017/07/27 18:49:35","新北市中和區景平路580號","121.501423333333","24.9955533333333","6500300","中和區"
"235045","565-BX","2017/07/27 18:49:39","新北市中和區南山路234號","121.506606666667","24.9899966666667","6500300","中和區"
"235054","640-BX","2017/07/27 18:49:27","新北市中和區民享街52號","121.473935","25.0024933333333","6500300","中和區"
"235060","647-TV","2017/07/27 18:49:45","新北市中和區中山路三段168號","121.472925","25.0063933333333","6500300","中和區"
"235047","732-UM","2017/07/27 18:49:39","新北市中和區興南路二段74巷10號","121.50511","24.9849083333333","6500300","中和區"
"235046","733-UM","2017/07/27 18:49:32","新北市中和區仁愛街36巷55號","121.511451666667","24.9862883333333","6500300","中和區"
"235062","800-TS","2017/07/27 18:49:39","新北市中和區中山路二段312巷1弄2號","121.495588333333","25.0027466666667","6500300","中和區"
"235057","801-TS","2017/07/27 18:49:30","新北市中和區民安街22巷8-1號","121.480203333333","25.0009633333333","6500300","中和區"
"235041","802-TS","2017/07/27 18:49:27","新北市中和區宜安路161號","121.508865","24.9989916666667","6500300","中和區"
"235052","805-TS","2017/07/27 18:49:42","新北市中和區興南路二段399巷98弄40號","121.499086666667","24.976915","6500300","中和區"
"235048","896-TW","2017/07/27 18:49:42","新北市中和區華新街2-6號","121.507378333333","24.985125","6500300","中和區"
"235053","900-TW","2017/07/27 18:49:33","新北市中和區華福街41號","121.466321666667","24.99674","6500300","中和區"
"235037","AAC-213","2017/07/27 18:49:43","新北市中和區景德街68號","121.51699","24.9915216666667","6500300","中和區"
"235059","AAC-215","2017/07/27 18:49:34","新北市中和區圓通路393巷2號","121.489526666667","24.9889516666667","6500300","中和區"
"220068","013-TV","2017/07/27 18:49:44","新北市板橋區民生路二段36-1號","121.472351666667","25.01693","6500100","板橋區"
"220065","072-UY","2017/07/27 18:49:35","新北市板橋區民生路二段15-1號","121.472715","25.0164466666667","6500100","板橋區"
"220086","073-UY","2017/07/27 18:49:29","新北市板橋區南雅西路二段180巷18號","121.452378333333","25.013925","6500100","板橋區"
"220106","075-UY","2017/07/27 18:49:42","新北市板橋區民生路二段120號","121.470411666667","25.019605","6500100","板橋區"
"220098","120-SR","2017/07/27 18:49:28","新北市板橋區民生路二段120號","121.47038","25.0196833333333","6500100","板橋區"
"247006","341-TH","2017/07/27 18:49:40","新北市五股區中興路三段163號","121.449275","25.080635","6501400","蘆洲區"
"247002","336-TH","2017/07/27 18:49:24","新北市五股區中興路二段182巷50號","121.453651666667","25.0808366666667","6501400","蘆洲區"
"247014","057-VK","2017/07/27 18:37:12","新北市五股區中興路三段163號","121.449246666667","25.080695","6501400","蘆洲區"
"226004","312-R5","2017/07/27 18:49:23","新北市平溪區靜安路二段396號","121.738691666667","25.0244783333333","6502400","平溪區"
"228003","097-TW","2017/07/27 18:49:26","新北市貢寮區和美里龍洞街35-2號","121.916826666667","25.11172","6502600","貢寮區"
"228001","212-TW","2017/07/27 18:49:32","新北市貢寮區仁理村研海街12-1號","121.923755","25.0516583333333","6502600","貢寮區"
"228002","585-TW","2017/07/27 18:49:37","新北市貢寮區福隆里東興街6-11號","121.950745","25.0210716666667","6502600","貢寮區"
"224010","AGQ-8101","2017/07/27 18:49:36","新北市瑞芳區基山街2號","121.845111666667","25.1097983333333","6501200","瑞芳區"
"224006","676-BX","2017/07/27 18:49:36","新北市瑞芳區中正路88號","121.805388333333","25.1077016666667","6501200","瑞芳區"
"224011","420-VK","2017/07/27 18:49:39","新北市瑞芳區崙頂路1-6號","121.847078333333","25.1047416666667","6501200","瑞芳區"
"224009","285-BY","2017/07/27 18:49:28","新北市瑞芳區祈堂路53-1號","121.859533333333","25.1104233333333","6501200","瑞芳區"
"224008","275-VK","2017/07/27 18:49:36","新北市瑞芳區逢甲路284號","121.803513333333","25.11151","6501200","瑞芳區"
"224007","273-VK","2017/07/27 18:49:32","新北市瑞芳區大埔路146-1號","121.761655","25.1010616666667","6501200","瑞芳區"
"224005","271-BY","2017/07/27 18:49:40","新北市瑞芳區建基路一段4號","121.820566666667","25.12092","6501200","瑞芳區"
"227010","642-TC","2017/07/27 18:49:42","新北市雙溪區牡丹里聖南26號","121.856581666667","25.0531633333333","6502500","雙溪區"
"227004","400-TW","2017/07/27 18:49:45","新北市雙溪區平林里梅竹蹊28號","121.861635","25.0360316666667","6502500","雙溪區"
"253006","032-BX","2017/07/27 18:49:30","新北市石門區下員坑15號","121.511641666667","25.2850116666667","6502200","石門區"
"253005","295-VK","2017/07/27 18:49:40","新北市石門區中山路28-3號","121.565745","25.2898483333333","6502200","石門區"
"208001","742-BX","2017/07/27 18:49:28","新北市金山區文化三路66巷2弄7號","121.634443333333","25.2257316666667","6502700","金山區"
"208003","665-BX","2017/07/27 18:49:37","新北市金山區中山路340號","121.633478333333","25.2252783333333","6502700","金山區"
"251014","182-VK","2017/07/27 18:49:29","新北市淡水區北勢子13-2號","121.486678333333","25.2227483333333","6501000","淡水區"
"251010","413-VK","2017/07/27 18:49:34","新北市淡水區沙崙路9號","121.421008333333","25.18126","6501000","淡水區"
"251012","441-VK","2017/07/27 18:49:38","新北市淡水區大義街3號","121.443803333333","25.1781233333333","6501000","淡水區"
"251016","442-VK","2017/07/27 18:49:44","新北市淡水區下圭柔山71-3號","121.447073333333","25.2061383333333","6501000","淡水區"
"251001","559-UM","2017/07/27 18:49:42","新北市淡水區自強路94號","121.462505","25.1288216666667","6501000","淡水區"
"251011","650-BX","2017/07/27 18:49:25","新北市淡水區鄧公路12-2號","121.449871666667","25.170015","6501000","淡水區"
"251002","672-BX","2017/07/27 18:49:33","新北市淡水區學府路61號","121.44819","25.169525","6501000","淡水區"
"251003","766-UM","2017/07/27 18:49:46","新北市淡水區中山北路一段149巷24號","121.442876666667","25.17792","6501000","淡水區"
"207003","550-UM","2017/07/27 18:49:41","新北市萬里區大鵬里頂社1號","121.657013333333","25.209715","6502800","萬里區"
"207004","225-TW","2017/07/27 18:49:29","新北市萬里區萬里里獅頭路23號","121.693268333333","25.1782483333333","6502800","萬里區"
"252005","073-UM","2017/07/27 15:32:29","新北市三芝區埔坪里埔頭坑41號","121.504341666667","25.2646233333333","6502100","三芝區"
"252002","178-VK","2017/07/27 18:49:36","新北市三芝區智成街70號","121.504833333333","25.2560916666667","6502100","三芝區"
"252003","249-BX","2017/07/27 18:49:28","新北市三芝區後厝里大片頭106號","121.457745","25.241035","6502100","三芝區"
"252001","292-VK","2017/07/27 18:49:39","新北市三芝區中正路三段9號","121.502881666667","25.254025","6502100","三芝區"
"208002","170-UY","2017/07/27 18:49:32","新北市金山區信義路62號","121.635713333333","25.2189583333333","6502700","金山區"
"237004","078-UY","2017/07/27 18:49:41","新北市三峽區有木107-2號","121.43399","24.8606183333333","6500900","三峽區"
"237007","153-BY","2017/07/27 18:49:44","新北市三峽區柑樹路2巷3號","121.362348333333","24.9057633333333","6500900","三峽區"
"237009","210-TH","2017/07/27 18:49:37","新北市三峽區民權街203號","121.367748333333","24.9284633333333","6500900","三峽區"
"237013","252-BX","2017/07/27 18:49:41","新北市三峽區光明路69巷25號","121.376768333333","24.929245","6500900","三峽區"
"237012","275-BY","2017/07/27 18:49:41","新北市三峽區三樹路340號","121.38396","24.9433266666667","6500900","三峽區"
"237008","302-VK","2017/07/27 18:49:28","新北市三峽區白雞33-3號","121.37557","24.9121183333333","6500900","三峽區"
"237014","433-BY","2017/07/27 18:49:25","新北市三峽區和平街95號","121.37026","24.9378683333333","6500900","三峽區"
"237006","5529-G3","2017/07/27 18:49:37","新北市三峽區溪東路215號","121.405935","24.932895","6500900","三峽區"
"237011","572-TV","2017/07/27 18:13:18","新北市三峽區橫溪路1號","121.396048333333","24.9361833333333","6500900","三峽區"
"237016","649-BX","2017/07/27 18:49:44","新北市三峽區建安37號","121.446645","24.9271833333333","6500900","三峽區"
"237010","706-TV","2017/07/27 18:49:34","新北市三峽區復興路321號","121.36487","24.93876","6500900","三峽區"
"237005","AKY-6261","2017/07/27 18:49:37","新北市三峽區文化路81號","121.371513333333","24.936115","6500900","三峽區"
"236071","105-UM","2017/07/27 18:49:37","新北市土城區延和路21巷21號","121.463855","24.988905","6501300","土城區"
"236042","107-UM","2017/07/27 18:49:45","新北市土城區裕民路92巷25弄2號","121.44954","24.98597","6501300","土城區"
"236078","166-UM","2017/07/27 18:49:28","新北市土城區中央路四段125巷13-2號","121.416838333333","24.9570333333333","6501300","土城區"
"236030","253-BX","2017/07/27 18:49:34","新北市土城區忠義路26巷19號","121.43987","24.969835","6501300","土城區"
"236026","269-VK","2017/07/27 18:49:31","新北市土城區中央路二段237號","121.440218333333","24.972115","6501300","土城區"
"236014","270-VK","2017/07/27 18:49:26","新北市土城區金城路二段354巷10號","121.460833333333","24.9844216666667","6501300","土城區"
"236037","271-VK","2017/07/27 18:49:34","新北市土城區明德路一段295號","121.460085","24.977175","6501300","土城區"
"236021","401-BY","2017/07/27 18:49:42","新北市土城區延吉街253巷7號","121.467813333333","24.9845083333333","6501300","土城區"
"236058","912-UM","2017/07/27 18:49:40","新北市土城區中央路三段141-1號","121.433453333333","24.96542","6501300","土城區"
"236051","913-UM","2017/07/27 18:49:37","新北市土城區青雲路10-1號","121.460218333333","24.9889366666667","6501300","土城區"
"236062","915-UM","2017/07/27 18:49:38","新北市土城區金城路三段207巷6弄14號","121.470741666667","24.9901883333333","6501300","土城區"
"236053","AAC-216","2017/07/27 18:49:44","新北市土城區裕民路157號","121.452308333333","24.9858483333333","6501300","土城區"
"242061","362-BY","2017/07/27 18:49:44","新北市新莊區新泰路255巷83號","121.442195","25.0388616666667","6500500","新莊區"
"238023","601-UM","2017/07/27 18:49:43","新北市樹林區三福街114號","121.406408333333","25.0163233333333","6500700","樹林區"
"238018","571-TV","2017/07/27 18:49:41","新北市樹林區樹新路13號","121.426643333333","24.993945","6500700","樹林區"
"238024","5061-A6","2017/07/27 18:49:29","新北市樹林區太平路247巷1號","121.419233333333","24.9750683333333","6500700","樹林區"
"238022","312-TH","2017/07/27 18:49:31","新北市樹林區中華路379巷78弄3號","121.413388333333","24.9772233333333","6500700","樹林區"
"238021","311-TH","2017/07/27 18:49:31","新北市樹林區西圳街二段30號","121.388503333333","24.9617466666667","6500700","樹林區"
"238020","268-VK","2017/07/27 01:40:28","新北市樹林區中山路三段204號","121.386808333333","24.9682583333333","6500700","樹林區"
"238026","172-UY","2017/07/27 18:49:38","新北市樹林區中和街46號","121.389228333333","24.9739033333333","6500700","樹林區"
"238016","169-UY","2017/07/27 18:49:37","新北市樹林區文化街23號","121.419265","24.9876733333333","6500700","樹林區"
"239007","AAC-297","2017/07/27 18:49:38","新北市鶯歌區中正一路建德巷28號","121.364585","24.9577566666667","6500800","鶯歌區"
"239008","527-UM","2017/07/27 18:49:41","新北市鶯歌區國際二路20巷17號","121.337026666667","24.9754216666667","6500800","鶯歌區"
"239005","526-UM","2017/07/27 18:49:35","新北市鶯歌區鳳吉一街20號","121.325498333333","24.9734566666667","6500800","鶯歌區"
"239001","417-VK","2017/07/27 18:49:40","新北市鶯歌區尖山埔路279號","121.343785","24.9497533333333","6500800","鶯歌區"
"239003","360-BY","2017/07/27 18:49:32","新北市鶯歌區永和街61號","121.332805","24.967685","6500800","鶯歌區"
"239004","193-VK","2017/07/27 18:49:27","新北市鶯歌區中正三路156巷8-8號","121.332645","24.9407366666667","6500800","鶯歌區"
"221008","489-VK","2017/07/27 18:26:19","新北市汐止區康寧街901號","121.651436666667","25.0750733333333","6501100","汐止區"
"221036","130-UY","2017/07/27 18:49:39","新北市汐止區忠孝東路314巷19弄14號","121.664986666667","25.0685583333333","6501100","汐止區"
"221015","131-UY","2017/07/27 18:49:26","新北市汐止區鄉長路一段55巷9號","121.66538","25.0761016666667","6501100","汐止區"
"221010","269-BY","2017/07/27 18:49:43","新北市汐止區汐萬路三段21號","121.643108333333","25.09193","6501100","汐止區"
"221012","278-VK","2017/07/27 18:49:41","新北市汐止區汐萬路一段256巷3號","121.653416666667","25.0747983333333","6501100","汐止區"
"221023","279-VK","2017/07/27 02:19:45","新北市汐止區康寧街901號","121.651723333333","25.0749416666667","6501100","汐止區"
"221032","280-BY","2017/07/27 18:49:43","新北市汐止區橫科路40-2號","121.620798333333","25.0504066666667","6501100","汐止區"
"221027","281-BY","2017/07/27 18:49:36","新北市汐止區汐萬路一段256巷1號","121.651921666667","25.0748566666667","6501100","汐止區"
"221038","297-VK","2017/07/27 18:49:34","新北市汐止區汐萬路一段256巷3號","121.653435","25.07477","6501100","汐止區"
"221029","298-VK","2017/07/27 18:49:33","新北市汐止區工建路64號","121.640568333333","25.0631083333333","6501100","汐止區"
"221021","299-VK","2017/07/27 18:42:07","新北市汐止區新興路53巷5號","121.657525","25.0632183333333","6501100","汐止區"
"221031","353-TW","2017/07/27 18:49:33","新北市汐止區福德一路274號","121.632136666667","25.0640066666667","6501100","汐止區"
"221035","622-UM","2017/07/27 18:49:35","新北市汐止區汐萬路一段144-2號","121.653066666667","25.0711033333333","6501100","汐止區"
"221025","623-UM","2017/07/27 18:49:32","新北市汐止區仁愛路73號","121.661061666667","25.0628566666667","6501100","汐止區"
"221033","647-BX","2017/07/27 18:49:40","新北市汐止區南勢街3號","121.627075","25.0374133333333","6501100","汐止區"
"221002","707-TV","2017/07/27 18:49:35","新北市汐止區大同路一段183號","121.632943333333","25.0568916666667","6501100","汐止區"
"221018","753-BX","2017/07/27 18:49:27","新北市汐止區茄苳路66號","121.666591666667","25.0706666666667","6501100","汐止區"
"220079","145-BY","2017/07/27 18:49:40","新北市板橋區民權路202巷7弄3號","121.459925","25.014715","6500100","板橋區"
"220080","200-UY","2017/07/27 18:49:26","新北市板橋區大觀路二段265巷72弄1號","121.442453333333","24.996835","6500100","板橋區"
"220082","610-BX","2017/07/27 18:49:28","新北市板橋區篤行路二段139號","121.429773333333","24.9882833333333","6500100","板橋區"
"220101","245-BX","2017/07/27 16:52:00","新北市板橋區民生路二段120號","121.47045","25.0195966666667","6500100","板橋區"
"220069","258-TC","2017/07/27 18:49:29","新北市板橋區民生路二段15號","121.472516666667","25.016035","6500100","板橋區"
"220056","276-BY","2017/07/27 18:49:34","新北市板橋區四川路二段36號","121.4538","24.99551","6500100","板橋區"
"220072","277-BY","2017/07/27 18:49:37","新北市板橋區大觀路三段63號","121.433636666667","24.9954166666667","6500100","板橋區"
"220094","283-UM","2017/07/27 18:49:28","新北市板橋區民生路二段188號","121.469906666667","25.020365","6500100","板橋區"
"220071","283-VK","2017/07/27 18:49:29","新北市板橋區民生路二段17號","121.472463333333","25.0163416666667","6500100","板橋區"
"220053","285-VK","2017/07/27 18:49:42","新北市板橋區民生路二段56-1號","121.472345","25.0170033333333","6500100","板橋區"
"220083","286-VK","2017/07/27 18:49:40","新北市板橋區大觀路二段22巷20號","121.445686666667","25.003625","6500100","板橋區"
"220081","287-VK","2017/07/27 18:49:26","新北市板橋區南雅西路二段131號","121.452363333333","25.0112566666667","6500100","板橋區"
"220090","288-VK","2017/07/27 18:49:34","新北市板橋區民生路二段188號","121.47037","25.0202583333333","6500100","板橋區"
"220061","295-UM","2017/07/27 18:49:43","新北市板橋區縣民大道三段32號","121.471551666667","25.0186933333333","6500100","板橋區"
"220084","296-UM","2017/07/27 18:49:44","新北市板橋區大觀路二段148巷64號","121.441875","25.0006616666667","6500100","板橋區"
"220075","297-UM","2017/07/27 18:49:34","新北市板橋區大觀路一段28巷98號","121.450561666667","25.0110283333333","6500100","板橋區"
"220092","307-R5","2017/07/27 18:49:39","新北市板橋區民生路二段120號","121.47056","25.0200866666667","6500100","板橋區"
"220064","486-VK","2017/07/27 16:39:32","新北市板橋區民生路二段36-1號","121.472573333333","25.0165966666667","6500100","板橋區"
"220089","487-VK","2017/07/27 18:49:32","新北市板橋區民生路二段120號","121.470828333333","25.0198","6500100","板橋區"
"220035","560-BX","2017/07/27 18:49:28","新北市板橋區中正路275巷59-4號","121.452988333333","25.0179783333333","6500100","板橋區"
"220103","561-BX","2017/07/27 18:49:34","新北市板橋區民生路二段120號","121.470398333333","25.0198033333333","6500100","板橋區"
"220063","609-BX","2017/07/27 16:43:09","新北市板橋區民生路二段36-1號","121.472575","25.0165233333333","6500100","板橋區"
"220091","637-BX","2017/07/27 18:49:43","新北市板橋區民生路二段180號","121.470853333333","25.020225","6500100","板橋區"
"220057","686-BX","2017/07/27 18:49:32","新北市板橋區民生路二段36-1號","121.472435","25.0165433333333","6500100","板橋區"
"220077","687-BX","2017/07/27 18:49:44","新北市板橋區大觀路二段174巷181號","121.442145","25.0038383333333","6500100","板橋區"
"220093","689-BX","2017/07/27 18:49:26","新北市板橋區民生路二段120號","121.470378333333","25.0195666666667","6500100","板橋區"
"220054","741-BX","2017/07/27 18:49:31","新北市板橋區民生路二段36-1號","121.472133333333","25.0166933333333","6500100","板橋區"
"220055","827-TW","2017/07/27 18:49:43","新北市板橋區民生路二段15-1號","121.472805","25.0163683333333","6500100","板橋區"
"220067","829-TW","2017/07/27 18:49:35","新北市板橋區民生路二段17號","121.472455","25.0163583333333","6500100","板橋區"
"220102","830-TW","2017/07/27 18:49:36","新北市板橋區莊敬路208巷8弄9號","121.470586666667","25.0204733333333","6500100","板橋區"
"220096","831-TW","2017/07/27 16:28:18","新北市板橋區民生路二段161巷9號","121.47027","25.0195783333333","6500100","板橋區"
"220074","895-R6","2017/07/27 18:49:27","新北市板橋區南門街36號","121.45701","25.0083566666667","6500100","板橋區"
"220073","985-R7","2017/07/27 18:49:40","新北市板橋區館前西路121號","121.456726666667","25.0075766666667","6500100","板橋區"
"220097","AAC-210","2017/07/27 18:49:33","新北市板橋區民生路二段161巷5號","121.470275","25.01978","6500100","板橋區"
"220070","AAC-253","2017/07/27 18:49:38","新北市板橋區民生路二段36-1號","121.472435","25.01658","6500100","板橋區"
