"lineid","car","time","location","longitude","latitude","cityid","cityname"
"234046","148-BY","2017/07/27 18:59:41","新北市永和區秀朗路二段148巷7弄16號","121.525846666667","25.0002883333333","6500400","永和區"
"234013","149-BY","2017/07/27 18:59:29","新北市永和區中山路一段60巷10號","121.513176666667","25.0110266666667","6500400","永和區"
"234007","207-UY","2017/07/27 18:59:36","新北市永和區中山路一段68號","121.51259","25.0107266666667","6500400","永和區"
"234081","298-R6","2017/07/27 18:59:43","新北市永和區永亨路59號","121.521031666667","25.0060383333333","6500400","永和區"
"234038","336-UY","2017/07/27 18:59:41","新北市永和區民樂街92巷2號","121.527265","24.9972933333333","6500400","永和區"
"234064","337-UY","2017/07/27 18:59:31","新北市永和區秀朗路一段156號","121.518323333333","25.00337","6500400","永和區"
"234086","338-UY","2017/07/27 18:59:26","新北市永和區中正路397號","121.517255","25.004165","6500400","永和區"
"234070","552-UM","2017/07/27 18:59:35","新北市永和區豫溪街95巷8號","121.518101666667","25.0107733333333","6500400","永和區"
"234054","553-UM","2017/07/27 18:59:42","新北市永和區竹林路66巷2號","121.51825","25.0133383333333","6500400","永和區"
"234017","745-BX","2017/07/27 18:59:22","新北市永和區永和路二段299號","121.516101666667","25.0162083333333","6500400","永和區"
"234030","840-RS","2017/07/27 18:59:40","新北市永和區四維街66號","121.52413","24.9982683333333","6500400","永和區"
"234061","AAD-866","2017/07/27 18:59:42","新北市永和區福和路313號","121.516101666667","25.007165","6500400","永和區"
"234042","862-TW","2017/07/27 18:59:34","新北市永和區永貞路308號","121.511806666667","25.0048716666667","6500400","永和區"
"234050","863-TW","2017/07/27 18:59:29","新北市永和區文化路192巷12弄3號","121.511113333333","25.0166916666667","6500400","永和區"
"234026","9371-KE","2017/07/27 18:59:26","新北市永和區安樂路475號","121.514185","25.0056366666667","6500400","永和區"
"234011","9373-KE","2017/07/27 18:59:39","新北市永和區文化路128號","121.512993333333","25.0153166666667","6500400","永和區"
"249005","172-UM","2017/07/27 18:59:29","新北市八里區長道坑11號","121.396318333333","25.123105","6502300","八里區"
"249002","305-UY","2017/07/27 18:59:40","新北市八里區龍形一街33巷6-2號","121.44923","25.1294883333333","6502300","八里區"
"249001","759-BX","2017/07/27 18:59:42","新北市八里區龍米路二段228-1號","121.432791666667","25.1583866666667","6502300","八里區"
"248016","026-BX","2017/07/27 18:59:29","新北市五股區成泰路三段543巷18號","121.450886666667","25.1022366666667","6501500","五股區"
"248006","077-UY","2017/07/27 18:59:43","新北市五股區中興路一段75號","121.467416666667","25.0728133333333","6501500","五股區"
"248008","095-VK","2017/07/27 18:59:41","新北市五股區中興路一段118巷6弄9號","121.466258333333","25.0745866666667","6501500","五股區"
"248012","247-BX","2017/07/27 18:59:40","新北市五股區工商路34號","121.439548333333","25.0837216666667","6501500","五股區"
"248020","261-SL","2017/07/27 18:59:26","新北市五股區凌雲路三段57號","121.425276666667","25.12502","6501500","五股區"
"248010","272-BY","2017/07/27 18:59:29","新北市五股區水碓一路23號","121.430643333333","25.0713633333333","6501500","五股區"
"248002","655-BX","2017/07/27 18:59:42","新北市五股區凌雲路一段150號","121.449115","25.1024516666667","6501500","五股區"
"248004","677-BX","2017/07/27 18:59:36","新北市五股區民義路二段50-4號","121.411578333333","25.10327","6501500","五股區"
"234023","9380-KE","2017/07/27 18:59:25","新北市永和區竹林路75巷25弄3號","121.520083333333","25.01408","6500400","永和區"
"234077","969-R7","2017/07/27 18:59:42","新北市永和區民治街82號","121.51745","24.9983666666667","6500400","永和區"
"234074","AAC-211","2017/07/27 18:59:41","新北市永和區環河東路二段100號","121.524115","25.0102983333333","6500400","永和區"
"234067","AAC-212","2017/07/27 18:59:36","新北市永和區中和路625號","121.512943333333","25.0049666666667","6500400","永和區"
"234003","AAC-295","2017/07/27 18:59:34","新北市永和區和平街38號","121.512933333333","25.0099733333333","6500400","永和區"
"232011","375-UM","2017/07/27 18:59:39","新北市坪林區水聳淒坑19-1號","121.71246","24.9347733333333","6502000","坪林區"
"244013","069-UM","2017/07/27 18:59:42","新北市林口區麗園一街6巷4-2號","121.375473333333","25.069905","6501700","林口區"
"244007","080-UY","2017/07/27 18:59:38","新北市林口區太平里22號","121.376426666667","25.115805","6501700","林口區"
"244018","403-UM","2017/07/27 09:49:04","新北市林口區粉寮路60-16號","121.404425","25.0897366666667","6501700","林口區"
"244009","410-SL","2017/07/27 18:59:35","新北市林口區竹林路366巷2號","121.391803333333","25.084865","6501700","林口區"
"244023","483-VK","2017/07/27 18:59:31","新北市林口區文林六街27巷19號","121.370553333333","25.0812833333333","6501700","林口區"
"244017","485-VK","2017/07/27 18:59:31","新北市林口區文化二路一段120巷1-1號","121.368135","25.070595","6501700","林口區"
"244025","656-BX","2017/07/27 18:59:38","新北市林口區文化北路一段409-1號","121.364333333333","25.0763266666667","6501700","林口區"
"244019","657-BX","2017/07/27 18:59:29","新北市林口區麗園二街42巷14號","121.381711666667","25.0670733333333","6501700","林口區"
"244011","701-TV","2017/07/27 18:59:38","新北市林口區中興街3-1號","121.38905","25.077715","6501700","林口區"
"243010","267-VK","2017/07/27 18:59:26","新北市泰山區辭修路24號","121.429038333333","25.0582016666667","6501600","泰山區"
"243013","AAD-798","2017/07/27 18:59:34","新北市泰山區明志路三段319號","121.422376666667","25.0359083333333","6501600","泰山區"
"243009","297-R6","2017/07/27 18:59:38","新北市泰山區泰林路二段353號","121.428291666667","25.06367","6501600","泰山區"
"243015","380-SR","2017/07/27 18:59:38","新北市泰山區明志路一段203號","121.432796666667","25.061395","6501600","泰山區"
"243014","421-VK","2017/07/27 18:59:41","新北市泰山區泰林路二段593號","121.421753333333","25.0635183333333","6501600","泰山區"
"243011","549-UM","2017/07/27 18:59:30","新北市泰山區明志路二段298巷16-1號","121.425696666667","25.046715","6501600","泰山區"
"243012","646-TV","2017/07/27 18:59:33","新北市泰山區仁德路114號","121.432793333333","25.0570316666667","6501600","泰山區"
"243016","680-BX","2017/07/27 18:59:46","新北市泰山區明志路二段194號","121.427411666667","25.0497066666667","6501600","泰山區"
"222003","436-BY","2017/07/27 18:59:28","新北市深坑區深南路51-1號","121.621366666667","25.01015","6501800","深坑區"
"222001","628-TS","2017/07/27 18:59:26","新北市深坑區翠谷街1號","121.626036666667","25.0072733333333","6501800","深坑區"
"222002","659-BX","2017/07/27 18:59:29","新北市深坑區文山路一段31巷2號","121.629913333333","25.0033016666667","6501800","深坑區"
"231041","002-UM","2017/07/27 18:59:35","新北市新店區環河路62號","121.537053333333","24.96267","6500600","新店區"
"231056","0291-UT","2017/07/27 18:59:33","新北市新店區大同街34號","121.538901666667","24.9806683333333","6500600","新店區"
"231059","046-UY","2017/07/27 18:59:34","新北市新店區安康路一段266巷4號","121.519833333333","24.9640733333333","6500600","新店區"
"231061","047-UY","2017/07/27 18:59:36","新北市新店區安康路一段355-4號","121.517361666667","24.96381","6500600","新店區"
"231060","106-UY","2017/07/27 18:59:35","新北市新店區車子路10-4號","121.504938333333","24.954555","6500600","新店區"
"231051","107-UY","2017/07/27 18:59:40","新北市新店區百忍街3號","121.534928333333","24.9755033333333","6500600","新店區"
"231047","108-UY","2017/07/27 18:59:30","新北市新店區德正街27巷29弄14號","121.545771666667","24.9719383333333","6500600","新店區"
"231052","187-VK","2017/07/27 18:59:33","新北市新店區屈尺路2號","121.549268333333","24.922655","6500600","新店區"
"231007","189-VK","2017/07/27 12:00:48","新北市新店區安華路28-1號","121.519686666667","24.9611066666667","6500600","新店區"
"231063","268-BY","2017/07/27 18:59:31","新北市新店區車子路109號","121.505225","24.952125","6500600","新店區"
"231046","278-BY","2017/07/27 18:59:27","新北市新店區直潭四街46號","121.533123333333","24.9414016666667","6500600","新店區"
"231050","AAD-862","2017/07/27 18:59:42","新北市新店區北宜路二段30巷5弄2號","121.548001666667","24.9508466666667","6500600","新店區"
"231058","3712-VJ","2017/07/27 18:59:38","新北市新店區中興路一段183號","121.543043333333","24.9648583333333","6500600","新店區"
"231055","3713-VJ","2017/07/27 18:59:31","新北市新店區力行路68號","121.539013333333","24.966175","6500600","新店區"
"231067","4772-VM","2017/07/27 18:59:25","新北市新店區安康路一段291巷50號","121.523153333333","24.9615216666667","6500600","新店區"
"231065","512-UM","2017/07/27 18:59:33","新北市新店區建業路90-1號","121.479675","24.956045","6500600","新店區"
"231054","513-UM","2017/07/27 18:59:42","新北市新店區新店路13號","121.540311666667","24.9529033333333","6500600","新店區"
"231064","515-UM","2017/07/27 18:59:42","新北市新店區安康路一段266巷4號","121.519798333333","24.9640433333333","6500600","新店區"
"231045","617-UM","2017/07/27 18:59:38","新北市新店區北新路一段2-18號","121.538538333333","24.9601116666667","6500600","新店區"
"231040","619-UM","2017/07/27 18:59:43","新北市新店區中正路376號","121.534901666667","24.9767866666667","6500600","新店區"
"231042","641-BX","2017/07/27 18:59:41","新北市新店區中興路一段266號","121.54483","24.9673166666667","6500600","新店區"
"231049","719-UM","2017/07/27 18:59:42","新北市新店區二十張路137號","121.535618333333","24.9791333333333","6500600","新店區"
"231062","720-UM","2017/07/27 18:59:32","新北市新店區吉安街43號","121.515328333333","24.965975","6500600","新店區"
"231044","897-TW","2017/07/27 18:59:33","新北市新店區寶中路72號","121.547836666667","24.980615","6500600","新店區"
"231043","899-TW","2017/07/27 18:59:40","新北市新店區北新路二段1號","121.542641666667","24.9712566666667","6500600","新店區"
"231066","AKT-0513","2017/07/27 18:59:41","新北市新店區安祥路86號","121.491123333333","24.9564833333333","6500600","新店區"
"241020","413-TH","2017/07/27 18:59:45","新北市三重區忠孝路二段51號","121.485681666667","25.071035","6500200","三重區"
"241029","942-UM","2017/07/27 18:59:44","新北市三重區重安街15-1號","121.490263333333","25.0574816666667","6500200","三重區"
"235066","003-UY","2017/07/27 18:59:35","新北市中和區中山路二段131巷5弄2號","121.502841666667","25.002805","6500300","中和區"
"235064","005-UY","2017/07/27 18:59:36","新北市中和區泰和街44巷1號","121.498731666667","25.0000566666667","6500300","中和區"
"235063","006-UY","2017/07/27 18:59:26","新北市中和區連城路319巷3弄2號","121.489228333333","24.9955033333333","6500300","中和區"
"235056","096-UM","2017/07/27 18:59:42","新北市中和區新民街85號","121.48142","25.0080633333333","6500300","中和區"
"235039","097-UM","2017/07/27 18:59:30","新北市中和區宜安路52巷12號","121.512208333333","24.9969983333333","6500300","中和區"
"235065","098-UM","2017/07/27 18:59:31","新北市中和區中山路二段2巷45弄12號","121.501941666667","25.0067783333333","6500300","中和區"
"235040","150-BY","2017/07/27 18:59:35","新北市中和區宜安路23巷27號","121.512153333333","24.9949033333333","6500300","中和區"
"235058","151-BY","2017/07/27 18:59:27","新北市中和區員山路143巷9號","121.480316666667","24.9960433333333","6500300","中和區"
"235055","183-VK","2017/07/27 18:59:42","新北市中和區民生街85巷6弄1號","121.469253333333","25.0039766666667","6500300","中和區"
"235038","185-VK","2017/07/27 18:59:30","新北市中和區大勇街43巷13號","121.51698","24.9946283333333","6500300","中和區"
"235049","186-VK","2017/07/27 18:59:28","新北市中和區景新街210巷2弄10號","121.506855","24.9941883333333","6500300","中和區"
"235067","255-BX","2017/07/27 18:59:33","新北市中和區中正路839巷2號","121.484563333333","25.00251","6500300","中和區"
"235044","293-VK","2017/07/27 18:59:33","新北市中和區復興路348號","121.499923333333","24.99042","6500300","中和區"
"235072","301-VK","2017/07/27 18:59:39","新北市中和區中山路二段258號","121.497575","25.002435","6500300","中和區"
"235043","352-BY","2017/07/27 18:59:35","新北市中和區秀朗路三段103號","121.526403333333","24.994755","6500300","中和區"
"235051","376-QA","2017/07/27 18:59:23","新北市中和區忠孝街106巷25號","121.513096666667","24.9843716666667","6500300","中和區"
"235068","377-QA","2017/07/27 18:59:24","新北市中和區圓通路240巷10弄15號","121.494748333333","24.99323","6500300","中和區"
"235061","378-QA","2017/07/27 18:59:34","新北市中和區民享街69巷8號","121.474696666667","25.002155","6500300","中和區"
"235050","4979-A6","2017/07/27 18:59:43","新北市中和區華新街56號","121.50795","24.9839533333333","6500300","中和區"
"235069","4980-A6","2017/07/27 18:59:31","新北市中和區中和路217巷16號","121.50467","25.0002983333333","6500300","中和區"
"235042","551-UM","2017/07/27 18:59:40","新北市中和區秀朗路三段24-1號","121.526223333333","24.9963083333333","6500300","中和區"
"235070","558-UM","2017/07/27 18:58:15","新北市中和區南山路22號","121.50188","24.99828","6500300","中和區"
"235045","565-BX","2017/07/27 18:59:36","新北市中和區景新街467巷3號","121.513643333333","24.9881816666667","6500300","中和區"
"235054","640-BX","2017/07/27 18:59:27","新北市中和區民治街24號","121.475076666667","25.0040633333333","6500300","中和區"
"235060","647-TV","2017/07/27 18:59:25","新北市中和區民治街6巷1號","121.474901666667","25.0053716666667","6500300","中和區"
"235047","732-UM","2017/07/27 18:59:39","新北市中和區興南路二段34巷8號","121.506641666667","24.985785","6500300","中和區"
"235046","733-UM","2017/07/27 18:59:32","新北市中和區興南路二段5號","121.508113333333","24.9862383333333","6500300","中和區"
"235062","800-TS","2017/07/27 18:59:39","新北市中和區中山路二段312巷23號","121.495733333333","25.0034416666667","6500300","中和區"
"235057","801-TS","2017/07/27 18:59:30","新北市中和區民利街25號","121.48021","24.9990333333333","6500300","中和區"
"235041","802-TS","2017/07/27 18:59:27","新北市中和區中安街178巷13弄7號","121.510506666667","24.9984916666667","6500300","中和區"
"235052","805-TS","2017/07/27 18:59:42","新北市中和區興南路二段347-2號","121.501223333333","24.9806383333333","6500300","中和區"
"235048","896-TW","2017/07/27 18:59:42","新北市中和區華新街109巷5號","121.509098333333","24.9819983333333","6500300","中和區"
"235053","900-TW","2017/07/27 18:59:33","新北市中和區華順街135巷5號","121.465761666667","24.9960716666667","6500300","中和區"
"235037","AAC-213","2017/07/27 18:59:43","新北市中和區秀朗路三段128巷9弄1號","121.524503333333","24.9930333333333","6500300","中和區"
"235059","AAC-215","2017/07/27 18:59:34","新北市中和區圓通路367巷20弄7號","121.49191","24.988395","6500300","中和區"
"220068","013-TV","2017/07/27 18:59:44","新北市板橋區三民路一段31巷36弄9號","121.481061666667","25.0227483333333","6500100","板橋區"
"220065","072-UY","2017/07/27 18:59:35","新北市板橋區漢生東路326巷2弄1號","121.47148","25.0077983333333","6500100","板橋區"
"220086","073-UY","2017/07/27 18:59:40","新北市板橋區大智街26號","121.45549","25.0149366666667","6500100","板橋區"
"220106","075-UY","2017/07/27 18:59:42","新北市板橋區文化路二段124巷28-2號","121.47124","25.025645","6500100","板橋區"
"220098","120-SR","2017/07/27 18:59:28","新北市板橋區民有街18號","121.466226666667","25.0250033333333","6500100","板橋區"
"247006","341-TH","2017/07/27 18:59:35","新北市五股區中興路三段163號","121.44926","25.0807166666667","6501400","蘆洲區"
"247024","337-TH","2017/07/27 18:57:38","新北市五股區中興路三段163號","121.449125","25.0807983333333","6501400","蘆洲區"
"247002","336-TH","2017/07/27 18:59:45","新北市五股區中興路三段163號","121.449245","25.0808766666667","6501400","蘆洲區"
"247014","057-VK","2017/07/27 18:59:39","新北市五股區中興路三段163號","121.449323333333","25.0804133333333","6501400","蘆洲區"
"226004","312-R5","2017/07/27 18:59:44","新北市平溪區靜安路二段530巷7號","121.74517","25.0273583333333","6502400","平溪區"
"228003","097-TW","2017/07/27 18:59:26","新北市貢寮區和美里龍洞街60號","121.914233333333","25.1162466666667","6502600","貢寮區"
"228001","212-TW","2017/07/27 18:59:32","新北市貢寮區仁理村保健街73號","121.923736666667","25.0516816666667","6502600","貢寮區"
"228002","585-TW","2017/07/27 18:59:37","新北市貢寮區福隆里東興街106巷23弄1號","121.946308333333","25.0182216666667","6502600","貢寮區"
"224010","AGQ-8101","2017/07/27 18:59:35","新北市瑞芳區基山街36號","121.844831666667","25.1084016666667","6501200","瑞芳區"
"224006","676-BX","2017/07/27 18:59:37","新北市瑞芳區民族街24-1號","121.80677","25.1069366666667","6501200","瑞芳區"
"224011","420-VK","2017/07/27 18:59:39","新北市瑞芳區崙頂路1-6號","121.847085","25.1047316666667","6501200","瑞芳區"
"224009","285-BY","2017/07/27 18:59:28","新北市瑞芳區祈堂路53-1號","121.859588333333","25.1107766666667","6501200","瑞芳區"
"224008","275-VK","2017/07/27 18:59:36","新北市瑞芳區明燈路三段291號","121.798401666667","25.11258","6501200","瑞芳區"
"224007","273-VK","2017/07/27 18:59:32","新北市瑞芳區中央路48巷162號","121.759293333333","25.103385","6501200","瑞芳區"
"224005","271-BY","2017/07/27 18:59:40","新北市瑞芳區濱二路66-6號","121.831126666667","25.1196983333333","6501200","瑞芳區"
"227010","642-TC","2017/07/27 18:59:42","新北市雙溪區牡丹里中正路58巷18號","121.866358333333","25.0415616666667","6502500","雙溪區"
"227004","400-TW","2017/07/27 18:59:45","新北市雙溪區平林里康福家園10號","121.858768333333","25.037315","6502500","雙溪區"
"253006","032-BX","2017/07/27 18:59:30","新北市石門區下員坑42-1號","121.517781666667","25.27791","6502200","石門區"
"253005","295-VK","2017/07/27 18:59:40","新北市石門區中山路33號","121.567088333333","25.290905","6502200","石門區"
"208001","742-BX","2017/07/27 18:59:28","新北市金山區中山路92號","121.640101666667","25.219","6502700","金山區"
"208003","665-BX","2017/07/27 18:59:37","新北市金山區中正路21號","121.636008333333","25.2222433333333","6502700","金山區"
"251009","008-UM","2017/07/27 18:59:42","新北市淡水區重建街38號","121.439861666667","25.1712783333333","6501000","淡水區"
"251014","182-VK","2017/07/27 18:59:38","新北市淡水區小中寮32-1號","121.491616666667","25.226065","6501000","淡水區"
"251010","413-VK","2017/07/27 18:59:34","新北市淡水區中正路二段22巷47號","121.421513333333","25.1825933333333","6501000","淡水區"
"251012","441-VK","2017/07/27 18:59:38","新北市淡水區新興街109號","121.440633333333","25.1808616666667","6501000","淡水區"
"251016","442-VK","2017/07/27 18:59:36","新北市淡水區淡金路三段325號","121.449048333333","25.20606","6501000","淡水區"
"251005","443-VK","2017/07/27 18:59:40","新北市淡水區新市二路三段16號","121.431918333333","25.1944966666667","6501000","淡水區"
"251001","559-UM","2017/07/27 18:59:29","新北市淡水區自強路60號","121.463163333333","25.1275833333333","6501000","淡水區"
"251011","650-BX","2017/07/27 18:59:25","新北市淡水區中正東路二段143巷2弄1號","121.460703333333","25.1473766666667","6501000","淡水區"
"251002","672-BX","2017/07/27 18:59:33","新北市淡水區中正東路55-8號","121.446886666667","25.1678883333333","6501000","淡水區"
"251003","766-UM","2017/07/27 18:59:26","新北市淡水區中山北路一段149巷24號","121.442868333333","25.17792","6501000","淡水區"
"207003","550-UM","2017/07/27 18:59:41","新北市萬里區大鵬里頂社24-1號","121.65742","25.21037","6502800","萬里區"
"207004","225-TW","2017/07/27 18:59:29","新北市萬里區萬里里獅頭路23號","121.693261666667","25.1782366666667","6502800","萬里區"
"252005","073-UM","2017/07/27 15:32:29","新北市三芝區埔坪里埔頭坑41號","121.504341666667","25.2646233333333","6502100","三芝區"
"252002","178-VK","2017/07/27 18:59:36","新北市三芝區中正路一段67號","121.504071666667","25.257305","6502100","三芝區"
"252003","249-BX","2017/07/27 18:59:28","新北市三芝區後厝里北勢子44-6號","121.467786666667","25.2500483333333","6502100","三芝區"
"252001","292-VK","2017/07/27 18:59:39","新北市三芝區中興街二段260號","121.501685","25.2530416666667","6502100","三芝區"
"208002","170-UY","2017/07/27 18:59:32","新北市金山區仁愛路37-13號","121.635803333333","25.2202966666667","6502700","金山區"
"237004","078-UY","2017/07/27 18:59:41","新北市三峽區有木176號","121.445453333333","24.8323366666667","6500900","三峽區"
"237007","153-BY","2017/07/27 18:59:32","新北市三峽區大埔路181號","121.366775","24.905065","6500900","三峽區"
"237013","252-BX","2017/07/27 18:59:41","新北市三峽區光明路69巷25號","121.376751666667","24.9292316666667","6500900","三峽區"
"237012","275-BY","2017/07/27 18:59:40","新北市三峽區三樹路222巷60號","121.382398333333","24.9423083333333","6500900","三峽區"
"237008","302-VK","2017/07/27 18:59:28","新北市三峽區白雞28-1號","121.370345","24.9121883333333","6500900","三峽區"
"237014","433-BY","2017/07/27 18:59:25","新北市三峽區復興路480巷7-2號","121.358055","24.9399116666667","6500900","三峽區"
"237006","5529-G3","2017/07/27 18:59:37","新北市三峽區溪東路233巷2弄3號","121.406973333333","24.933565","6500900","三峽區"
"237011","572-TV","2017/07/27 18:13:18","新北市三峽區橫溪路1號","121.396048333333","24.9361833333333","6500900","三峽區"
"237016","649-BX","2017/07/27 18:59:24","新北市三峽區建安89-2號","121.455331666667","24.9207783333333","6500900","三峽區"
"237010","706-TV","2017/07/27 18:59:34","新北市三峽區國光街352號","121.371451666667","24.9395966666667","6500900","三峽區"
"237005","AKY-6261","2017/07/27 18:59:37","新北市三峽區中山路459巷163-1號","121.349238333333","24.93348","6500900","三峽區"
"236071","105-UM","2017/07/27 18:59:37","新北市土城區青雲路147-2號","121.458946666667","24.9836216666667","6501300","土城區"
"236042","107-UM","2017/07/27 18:59:25","新北市土城區學府路一段256巷15號","121.450865","24.9849083333333","6501300","土城區"
"236078","166-UM","2017/07/27 18:59:28","新北市土城區中央路四段125巷2弄17-1號","121.416351666667","24.9567883333333","6501300","土城區"
"236030","253-BX","2017/07/27 18:59:34","新北市土城區慶利街18號","121.439608333333","24.97368","6501300","土城區"
"236026","269-VK","2017/07/27 18:59:31","新北市土城區中正路56巷12號","121.443996666667","24.9748966666667","6501300","土城區"
"236014","270-VK","2017/07/27 18:59:31","新北市土城區延和路13巷1號","121.463505","24.9884616666667","6501300","土城區"
"236037","271-VK","2017/07/27 18:59:34","新北市土城區明德路一段197號","121.46387","24.9787783333333","6501300","土城區"
"236021","401-BY","2017/07/27 18:59:41","新北市土城區明峰街50號","121.467685","24.98651","6501300","土城區"
"236058","912-UM","2017/07/27 18:59:40","新北市土城區金城路二段58號","121.452218333333","24.9796133333333","6501300","土城區"
"236051","913-UM","2017/07/27 18:59:44","新北市土城區青雲路316號","121.458955","24.9779233333333","6501300","土城區"
"236062","915-UM","2017/07/27 18:59:38","新北市土城區延和路41巷6弄20號","121.466658333333","24.9903983333333","6501300","土城區"
"236053","AAC-216","2017/07/27 18:59:44","新北市土城區裕民路71號","121.44961","24.9875666666667","6501300","土城區"
"238023","601-UM","2017/07/27 18:59:43","新北市樹林區工興街14巷1號","121.398746666667","25.0138383333333","6500700","樹林區"
"238018","571-TV","2017/07/27 18:59:41","新北市樹林區鎮前街259號","121.420663333333","24.9863216666667","6500700","樹林區"
"238022","312-TH","2017/07/27 18:59:31","新北市樹林區東興街14-2號","121.410063333333","24.9784866666667","6500700","樹林區"
"238021","311-TH","2017/07/27 18:59:31","新北市樹林區西圳街二段80巷1號","121.385863333333","24.95866","6500700","樹林區"
"238020","268-VK","2017/07/27 01:40:28","新北市樹林區中山路三段204號","121.386808333333","24.9682583333333","6500700","樹林區"
"238026","172-UY","2017/07/27 18:59:38","新北市樹林區信和街136-2號","121.39089","24.9722066666667","6500700","樹林區"
"238016","169-UY","2017/07/27 18:59:37","新北市樹林區文化街23號","121.41928","24.9876666666667","6500700","樹林區"
"239007","AAC-297","2017/07/27 18:59:38","新北市鶯歌區成功街42號","121.358091666667","24.9577366666667","6500800","鶯歌區"
"239006","891-R6","2017/07/27 18:59:41","新北市鶯歌區鶯桃路296巷109號","121.33672","24.9620066666667","6500800","鶯歌區"
"239008","527-UM","2017/07/27 18:59:41","新北市鶯歌區國際二路18巷2號","121.337223333333","24.9749416666667","6500800","鶯歌區"
"239005","526-UM","2017/07/27 18:59:35","新北市鶯歌區大湖路361巷50號","121.330871666667","24.97756","6500800","鶯歌區"
"239001","417-VK","2017/07/27 18:59:40","新北市鶯歌區永明街60巷48號","121.340605","24.9553516666667","6500800","鶯歌區"
"239003","360-BY","2017/07/27 18:59:32","新北市鶯歌區鶯桃路658巷49-2號","121.330836666667","24.9702566666667","6500800","鶯歌區"
"239004","193-VK","2017/07/27 18:59:27","新北市鶯歌區中正三路194巷2-3號","121.332613333333","24.9385283333333","6500800","鶯歌區"
"221008","489-VK","2017/07/27 18:59:33","新北市汐止區康寧街753巷2弄22號","121.640066666667","25.07449","6501100","汐止區"
"221036","130-UY","2017/07/27 18:59:40","新北市汐止區南昌街2巷15號","121.66282","25.0687116666667","6501100","汐止區"
"221015","131-UY","2017/07/27 18:59:26","新北市汐止區鄉長路一段33-8號","121.665388333333","25.0749133333333","6501100","汐止區"
"221010","269-BY","2017/07/27 18:59:43","新北市汐止區康寧街901號","121.65153","25.0749966666667","6501100","汐止區"
"221012","278-VK","2017/07/27 18:59:41","新北市汐止區康寧街901號","121.650865","25.0751933333333","6501100","汐止區"
"221023","279-VK","2017/07/27 02:19:45","新北市汐止區康寧街901號","121.651723333333","25.0749416666667","6501100","汐止區"
"221032","280-BY","2017/07/27 18:59:41","新北市汐止區橫科路407巷81弄5號","121.628986666667","25.0479833333333","6501100","汐止區"
"221027","281-BY","2017/07/27 18:56:55","新北市汐止區康寧街901號","121.650898333333","25.07527","6501100","汐止區"
"221038","297-VK","2017/07/27 18:53:40","新北市汐止區康寧街901號","121.650745","25.07532","6501100","汐止區"
"221029","298-VK","2017/07/27 18:59:33","新北市汐止區樟樹一路254號","121.64245","25.0672533333333","6501100","汐止區"
"221021","299-VK","2017/07/27 18:42:07","新北市汐止區新興路53巷5號","121.657525","25.0632183333333","6501100","汐止區"
"221031","353-TW","2017/07/27 18:59:33","新北市汐止區福德一路300巷20號","121.630721666667","25.0641833333333","6501100","汐止區"
"221035","622-UM","2017/07/27 18:59:35","新北市汐止區汐萬路一段256巷3號","121.652313333333","25.0746483333333","6501100","汐止區"
"221025","623-UM","2017/07/27 18:59:32","新北市汐止區汐萬路一段256巷1號","121.652045","25.0747833333333","6501100","汐止區"
"221002","707-TV","2017/07/27 18:59:35","新北市汐止區大同路一段2號","121.621013333333","25.0550416666667","6501100","汐止區"
"221018","753-BX","2017/07/27 18:59:27","新北市汐止區大同路二段373號","121.657308333333","25.0672566666667","6501100","汐止區"
"220079","145-BY","2017/07/27 18:59:35","新北市板橋區民權路202巷10弄1號","121.460496666667","25.0153883333333","6500100","板橋區"
"220088","146-RM","2017/07/27 18:59:31","新北市板橋區民生路二段148號","121.471396666667","25.0198966666667","6500100","板橋區"
"220080","200-UY","2017/07/27 18:59:26","新北市板橋區大觀路二段265巷3弄13-1號","121.443388333333","24.998175","6500100","板橋區"
"220082","610-BX","2017/07/27 18:59:28","新北市板橋區篤行路三段8號","121.429298333333","24.98777","6500100","板橋區"
"220101","245-BX","2017/07/27 16:52:00","新北市板橋區民生路二段120號","121.47045","25.0195966666667","6500100","板橋區"
"220069","258-TC","2017/07/27 18:59:29","新北市板橋區大華街11號","121.458973333333","25.0061883333333","6500100","板橋區"
"220056","276-BY","2017/07/27 18:59:34","新北市板橋區信義路147號","121.458153333333","24.9930316666667","6500100","板橋區"
"220072","277-BY","2017/07/27 18:59:37","新北市板橋區大觀路三段50巷59號","121.431818333333","24.995985","6500100","板橋區"
"220094","283-UM","2017/07/27 18:59:28","新北市板橋區文化路二段76號","121.46945","25.0250566666667","6500100","板橋區"
"220071","283-VK","2017/07/27 18:59:29","新北市板橋區忠孝路176巷48號","121.465443333333","25.00171","6500100","板橋區"
"220053","285-VK","2017/07/27 18:59:42","新北市板橋區中山路二段157號","121.475595","25.0167633333333","6500100","板橋區"
"220083","286-VK","2017/07/27 18:59:40","新北市板橋區大觀路一段38巷156弄124-1號","121.44332","25.0079","6500100","板橋區"
"220081","287-VK","2017/07/27 18:59:26","新北市板橋區南雅西路二段98-5號","121.452385","25.011445","6500100","板橋區"
"220090","288-VK","2017/07/27 18:59:34","新北市板橋區四維路177巷2弄1號","121.464021666667","25.02623","6500100","板橋區"
"220061","295-UM","2017/07/27 18:59:43","新北市板橋區富山街103號","121.476266666667","25.0218783333333","6500100","板橋區"
"220084","296-UM","2017/07/27 18:59:27","新北市板橋區大觀路二段156巷50號","121.441248333333","25.0003616666667","6500100","板橋區"
"220075","297-UM","2017/07/27 18:59:34","新北市板橋區館前西路213巷17號","121.454296666667","25.008095","6500100","板橋區"
"220010","305-R5","2017/07/27 18:59:29","新北市板橋區民享街53號","121.47598","25.01502","6500100","板橋區"
"220092","307-R5","2017/07/27 18:59:39","新北市板橋區文化路一段90號","121.464321666667","25.0177266666667","6500100","板橋區"
"220064","486-VK","2017/07/27 18:59:43","新北市板橋區漢生東路178號","121.467211666667","25.0145466666667","6500100","板橋區"
"220089","487-VK","2017/07/27 18:59:32","新北市板橋區文化路二段317號","121.472161666667","25.0299066666667","6500100","板橋區"
"220035","560-BX","2017/07/27 18:59:28","新北市板橋區中正路277號","121.455423333333","25.018915","6500100","板橋區"
"220103","561-BX","2017/07/27 18:59:34","新北市板橋區民生路二段123號","121.470685","25.0185616666667","6500100","板橋區"
"220063","609-BX","2017/07/27 18:59:40","新北市板橋區中山路二段213號","121.47659","25.0171133333333","6500100","板橋區"
"220091","637-BX","2017/07/27 18:59:23","新北市板橋區莒光路165巷16號","121.474075","25.0243916666667","6500100","板橋區"
"220057","686-BX","2017/07/27 18:59:31","新北市板橋區民權路45號","121.462066666667","25.01119","6500100","板橋區"
"220077","687-BX","2017/07/27 18:59:44","新北市板橋區龍興街24號","121.442963333333","25.00025","6500100","板橋區"
"220093","689-BX","2017/07/27 18:59:26","新北市板橋區民生路二段232號","121.468968333333","25.0220966666667","6500100","板橋區"
"220054","741-BX","2017/07/27 18:59:31","新北市板橋區後埔街13號","121.4604","25.006765","6500100","板橋區"
"220055","827-TW","2017/07/27 18:59:44","新北市板橋區中山路一段160-6號","121.466541666667","25.01231","6500100","板橋區"
"220067","829-TW","2017/07/27 18:59:35","新北市板橋區三民路二段正隆巷12弄20號","121.47762","25.013655","6500100","板橋區"
"220102","830-TW","2017/07/27 18:59:37","新北市板橋區縣民大道三段133巷35號","121.47698","25.02466","6500100","板橋區"
"220096","831-TW","2017/07/27 18:59:30","新北市板橋區莒光路76號","121.471513333333","25.0241316666667","6500100","板橋區"
"220074","895-R6","2017/07/27 18:59:27","新北市板橋區林園街59號","121.453665","25.0103283333333","6500100","板橋區"
"220073","985-R7","2017/07/27 18:59:42","新北市板橋區中正路169號","121.456661666667","25.0163066666667","6500100","板橋區"
"220097","AAC-210","2017/07/27 18:59:33","新北市板橋區陽明街162號","121.463473333333","25.02443","6500100","板橋區"
"220070","AAC-253","2017/07/27 18:59:39","新北市板橋區中山路一段29號","121.460445","25.0086333333333","6500100","板橋區"
