"lineid","car","time","location","longitude","latitude","cityid","cityname"
"234046","148-BY","2017/07/27 19:09:42","新北市永和區永元路50號","121.522305","25.0010883333333","6500400","永和區"
"234013","149-BY","2017/07/27 19:09:29","新北市永和區保福路二段2號","121.511361666667","25.0108066666667","6500400","永和區"
"234007","207-UY","2017/07/27 19:09:36","新北市永和區中山路一段261號","121.507453333333","25.007395","6500400","永和區"
"234081","298-R6","2017/07/27 19:09:22","新北市永和區福和路57巷14弄1號","121.522675","25.006895","6500400","永和區"
"234038","336-UY","2017/07/27 19:09:41","新北市永和區民樂街59巷1-1號","121.527643333333","24.99833","6500400","永和區"
"234064","337-UY","2017/07/27 19:09:31","新北市永和區秀朗路二段33號","121.521261666667","25.0024466666667","6500400","永和區"
"234086","338-UY","2017/07/27 19:09:27","新北市永和區永貞路102號","121.519106666667","25.0046033333333","6500400","永和區"
"234070","552-UM","2017/07/27 19:09:35","新北市永和區豫溪街90號","121.518468333333","25.0099666666667","6500400","永和區"
"234054","553-UM","2017/07/27 19:09:42","新北市永和區竹林路72巷2號","121.51902","25.012885","6500400","永和區"
"234017","745-BX","2017/07/27 19:09:28","新北市永和區文化路90巷17號","121.513753333333","25.0161883333333","6500400","永和區"
"234030","840-RS","2017/07/27 19:09:40","新北市永和區厚德街22號","121.52562","24.99855","6500400","永和區"
"234061","AAD-866","2017/07/27 19:09:42","新北市永和區安樂路304巷2號","121.514443333333","25.004925","6500400","永和區"
"234042","862-TW","2017/07/27 19:09:38","新北市永和區保平路135號","121.510488333333","25.006115","6500400","永和區"
"234050","863-TW","2017/07/27 19:09:32","新北市永和區文化路135巷9號","121.510735","25.0143316666667","6500400","永和區"
"234026","9371-KE","2017/07/27 19:09:26","新北市永和區安樂路419號","121.514453333333","25.00404","6500400","永和區"
"234011","9373-KE","2017/07/27 19:09:41","新北市永和區文化路90巷34號","121.513551666667","25.0164133333333","6500400","永和區"
"249005","172-UM","2017/07/27 19:09:29","新北市八里區中華路三段98-1號","121.39266","25.13701","6502300","八里區"
"249001","759-BX","2017/07/27 19:09:42","新北市八里區龍米路二段203-9號","121.43244","25.1583083333333","6502300","八里區"
"248016","026-BX","2017/07/27 19:09:29","新北市五股區成泰路三段559巷36弄3號","121.450693333333","25.1028166666667","6501500","五股區"
"248012","247-BX","2017/07/27 19:09:40","新北市五股區中興路四段38巷9號","121.438805","25.0833033333333","6501500","五股區"
"248020","261-SL","2017/07/27 19:09:26","新北市五股區凌雲路三段57號","121.425281666667","25.12502","6501500","五股區"
"248010","272-BY","2017/07/27 19:09:29","新北市五股區水碓一路23號","121.430621666667","25.071225","6501500","五股區"
"248002","655-BX","2017/07/27 19:09:22","新北市五股區凌雲路一段158巷6號","121.447795","25.1029833333333","6501500","五股區"
"248004","677-BX","2017/07/27 19:09:36","新北市五股區六合街3號","121.431896666667","25.08855","6501500","五股區"
"234023","9380-KE","2017/07/27 19:09:39","新北市永和區中興街10巷60號","121.516433333333","25.0109583333333","6500400","永和區"
"234077","969-R7","2017/07/27 19:09:22","新北市永和區得和路219號","121.519536666667","25.0001933333333","6500400","永和區"
"234074","AAC-211","2017/07/27 19:09:41","新北市永和區竹林路239號","121.520945","25.0081516666667","6500400","永和區"
"234067","AAC-212","2017/07/27 19:09:36","新北市永和區永和路一段49號","121.512611666667","25.0065966666667","6500400","永和區"
"234003","AAC-295","2017/07/27 19:09:34","新北市永和區保福路一段90號","121.512116666667","25.0102916666667","6500400","永和區"
"244013","069-UM","2017/07/27 19:09:42","新北市林口區麗園二街23巷15-9號","121.379216666667","25.0702116666667","6501700","林口區"
"244018","403-UM","2017/07/27 09:49:04","新北市林口區粉寮路60-16號","121.404425","25.0897366666667","6501700","林口區"
"244009","410-SL","2017/07/27 19:09:34","新北市林口區台電新村81號","121.388393333333","25.0870933333333","6501700","林口區"
"244023","483-VK","2017/07/27 19:09:31","新北市林口區文化三路一段555巷50號","121.3697","25.076855","6501700","林口區"
"244025","656-BX","2017/07/27 19:09:38","新北市林口區文化北路一段542-1號","121.368121666667","25.0798333333333","6501700","林口區"
"244019","657-BX","2017/07/27 19:09:29","新北市林口區麗園二街1巷5-2號","121.377611666667","25.0701016666667","6501700","林口區"
"244011","701-TV","2017/07/27 19:09:38","新北市林口區中正路296巷2號","121.388558333333","25.0779366666667","6501700","林口區"
"243010","267-VK","2017/07/27 19:09:26","新北市泰山區明志路一段483巷1弄2號","121.43128","25.0553066666667","6501600","泰山區"
"243013","AAD-798","2017/07/27 19:09:34","新北市泰山區明志路三段277號","121.423098333333","25.0368116666667","6501600","泰山區"
"243009","297-R6","2017/07/27 19:09:25","新北市泰山區明志路一段117巷2號","121.433753333333","25.0633683333333","6501600","泰山區"
"243015","380-SR","2017/07/27 19:09:32","新北市泰山區明志路一段431號","121.430793333333","25.0565616666667","6501600","泰山區"
"243014","421-VK","2017/07/27 19:09:41","新北市泰山區泰林路二段328號","121.430158333333","25.0630233333333","6501600","泰山區"
"243011","549-UM","2017/07/27 19:09:30","新北市泰山區明志路二段358號","121.425433333333","25.0452766666667","6501600","泰山區"
"243012","646-TV","2017/07/27 19:09:33","新北市泰山區吳厝窠1號","121.427928333333","25.058535","6501600","泰山區"
"243016","680-BX","2017/07/27 19:09:25","新北市泰山區明志路三段1號","121.42487","25.0434633333333","6501600","泰山區"
"222003","436-BY","2017/07/27 19:09:32","新北市深坑區深南路156號","121.623998333333","25.0148133333333","6501800","深坑區"
"222001","628-TS","2017/07/27 19:09:26","新北市深坑區北深路一段300號","121.624211666667","25.0057266666667","6501800","深坑區"
"222002","659-BX","2017/07/27 19:09:29","新北市深坑區北深路一段199號","121.630771666667","25.0093433333333","6501800","深坑區"
"231041","002-UM","2017/07/27 19:09:35","新北市新店區溪園路405號","121.524056666667","24.9782233333333","6500600","新店區"
"231056","0291-UT","2017/07/27 19:09:33","新北市新店區二十張路46巷37弄21-1號","121.535721666667","24.981485","6500600","新店區"
"231059","046-UY","2017/07/27 19:09:34","新北市新店區安和路二段142號","121.519635","24.972685","6500600","新店區"
"231061","047-UY","2017/07/27 19:09:36","新北市新店區安康路一段155-1號","121.527506666667","24.9622166666667","6500600","新店區"
"231060","106-UY","2017/07/27 19:09:35","新北市新店區安康路二段250號","121.509121666667","24.9590766666667","6500600","新店區"
"231051","107-UY","2017/07/27 19:09:40","新北市新店區中正路407號","121.534348333333","24.977615","6500600","新店區"
"231047","108-UY","2017/07/27 19:09:30","新北市新店區德正街27巷29弄15號","121.545093333333","24.971875","6500600","新店區"
"231052","187-VK","2017/07/27 19:09:33","新北市新店區自強路61號","121.546355","24.9246433333333","6500600","新店區"
"231007","189-VK","2017/07/27 12:00:48","新北市新店區安華路28-1號","121.519686666667","24.9611066666667","6500600","新店區"
"231063","268-BY","2017/07/27 19:09:31","新北市新店區車子路134號","121.505093333333","24.9487883333333","6500600","新店區"
"231046","278-BY","2017/07/27 19:09:24","新北市新店區新潭路一段37-1號","121.523938333333","24.9416666666667","6500600","新店區"
"231050","AAD-862","2017/07/27 19:09:42","新北市新店區竹林路2巷31號","121.550455","24.9502266666667","6500600","新店區"
"231058","3712-VJ","2017/07/27 19:09:38","新北市新店區光明街138巷13弄2號","121.540133333333","24.9614583333333","6500600","新店區"
"231067","4772-VM","2017/07/27 19:09:25","新北市新店區安康路一段247巷27號","121.524593333333","24.962095","6500600","新店區"
"231065","512-UM","2017/07/27 19:09:33","新北市新店區安祥路147巷14號","121.47545","24.9558633333333","6500600","新店區"
"231054","513-UM","2017/07/27 19:09:22","新北市新店區新店路191號","121.53706","24.9561866666667","6500600","新店區"
"231064","515-UM","2017/07/27 19:09:37","新北市新店區安忠路59號","121.512181666667","24.9586816666667","6500600","新店區"
"231045","617-UM","2017/07/27 19:09:38","新北市新店區北宜路一段154號","121.540356666667","24.9536633333333","6500600","新店區"
"231040","619-UM","2017/07/27 19:09:23","新北市新店區三民路98-3號","121.533931666667","24.9733966666667","6500600","新店區"
"231042","641-BX","2017/07/27 19:09:21","新北市新店區中興路一段115號","121.541306666667","24.96278","6500600","新店區"
"231049","719-UM","2017/07/27 19:09:22","新北市新店區二十張路25巷18弄9號","121.539325","24.9816816666667","6500600","新店區"
"231062","720-UM","2017/07/27 19:09:32","新北市新店區安平路13巷1號","121.524376666667","24.9656","6500600","新店區"
"231044","897-TW","2017/07/27 19:09:33","新北市新店區寶中路45-3號","121.544768333333","24.9793533333333","6500600","新店區"
"231043","899-TW","2017/07/27 19:09:40","新北市新店區寶橋路132號","121.547253333333","24.9761366666667","6500600","新店區"
"231066","AKT-0513","2017/07/27 19:09:21","新北市新店區安康路三段359巷12弄2號","121.484485","24.9500283333333","6500600","新店區"
"241026","066-VK","2017/07/27 19:09:39","新北市三重區泉州街57號","121.494546666667","25.0548233333333","6500200","三重區"
"241020","413-TH","2017/07/27 19:09:24","新北市三重區忠孝路二段51號","121.485653333333","25.0710216666667","6500200","三重區"
"241035","743-BX","2017/07/27 19:09:43","新北市三重區捷運路36號","121.483205","25.0544733333333","6500200","三重區"
"241029","942-UM","2017/07/27 19:09:39","新北市三重區重安街83號","121.492513333333","25.055775","6500200","三重區"
"235066","003-UY","2017/07/27 19:09:35","新北市中和區廣福路12-5號","121.50538","25.00261","6500300","中和區"
"235064","005-UY","2017/07/27 19:09:36","新北市中和區泰和街38巷17號","121.498845","25.000725","6500300","中和區"
"235063","006-UY","2017/07/27 19:09:26","新北市中和區中正路558號","121.486828333333","24.99461","6500300","中和區"
"235056","096-UM","2017/07/27 19:09:22","新北市中和區員山路534號","121.478823333333","25.0099133333333","6500300","中和區"
"235039","097-UM","2017/07/27 19:09:30","新北市永和區安樂路132號","121.51411","25.0001233333333","6500300","中和區"
"235065","098-UM","2017/07/27 19:09:31","新北市中和區勝利路35巷3弄2號","121.499145","25.0071233333333","6500300","中和區"
"235040","150-BY","2017/07/27 19:09:35","新北市中和區保健路48巷3號","121.510023333333","24.99691","6500300","中和區"
"235058","151-BY","2017/07/27 19:09:27","新北市中和區員山路82巷10弄1號","121.48162","24.9940533333333","6500300","中和區"
"235055","183-VK","2017/07/27 19:09:22","新北市中和區德光路77巷21號","121.469956666667","25.0033333333333","6500300","中和區"
"235038","185-VK","2017/07/27 19:09:30","新北市中和區自強路52號","121.520141666667","24.99484","6500300","中和區"
"235049","186-VK","2017/07/27 19:09:28","新北市中和區景安路139號","121.505688333333","24.9955633333333","6500300","中和區"
"235067","255-BX","2017/07/27 19:09:33","新北市中和區新生街213號","121.483938333333","24.9996333333333","6500300","中和區"
"235044","293-VK","2017/07/27 19:09:33","新北市中和區中興街161巷2弄2號","121.500225","24.99086","6500300","中和區"
"235072","301-VK","2017/07/27 19:09:39","新北市中和區福祥路7號","121.499421666667","25.0032333333333","6500300","中和區"
"235043","352-BY","2017/07/27 19:09:35","新北市中和區景平路38號","121.523155","24.9906233333333","6500300","中和區"
"235051","376-QA","2017/07/27 19:09:43","新北市中和區忠孝街19巷19號","121.50979","24.9841266666667","6500300","中和區"
"235068","377-QA","2017/07/27 19:09:44","新北市中和區板南路252號","121.496188333333","24.9954116666667","6500300","中和區"
"235061","378-QA","2017/07/27 19:09:34","新北市中和區民享街2巷7號","121.473511666667","25.0056083333333","6500300","中和區"
"235050","4979-A6","2017/07/27 19:09:23","新北市中和區景安路220巷16號","121.502843333333","24.99141","6500300","中和區"
"235069","4980-A6","2017/07/27 19:09:33","新北市中和區中山路二段181號","121.500746666667","25.0027616666667","6500300","中和區"
"235042","551-UM","2017/07/27 19:09:20","新北市中和區立人街69巷17號","121.520481666667","24.993475","6500300","中和區"
"235070","558-UM","2017/07/27 19:09:35","新北市中和區安和路205號","121.505966666667","24.9987116666667","6500300","中和區"
"235045","565-BX","2017/07/27 19:09:36","新北市中和區景新街467巷20弄9號","121.51469","24.98765","6500300","中和區"
"235054","640-BX","2017/07/27 19:09:27","新北市中和區民享街86巷31號","121.472808333333","25.0004166666667","6500300","中和區"
"235060","647-TV","2017/07/27 19:09:25","新北市中和區民享街91-12號","121.474698333333","25.0007216666667","6500300","中和區"
"235047","732-UM","2017/07/27 19:09:39","新北市中和區興南路二段55號","121.507051666667","24.9853483333333","6500300","中和區"
"235046","733-UM","2017/07/27 19:09:32","新北市中和區忠孝街1巷82號","121.508231666667","24.984935","6500300","中和區"
"235071","783-BX","2017/07/27 19:09:21","新北市中和區連城路467-5號","121.483636666667","24.9961033333333","6500300","中和區"
"235062","800-TS","2017/07/27 19:09:39","新北市中和區中山路二段406號","121.490165","25.00388","6500300","中和區"
"235057","801-TS","2017/07/27 19:09:30","新北市中和區民利街99號","121.477625","24.9977316666667","6500300","中和區"
"235041","802-TS","2017/07/27 19:09:27","新北市中和區宜安路120號","121.510225","24.9979566666667","6500300","中和區"
"235052","805-TS","2017/07/27 19:09:42","新北市中和區興南路二段142巷19弄38號","121.50257","24.9834583333333","6500300","中和區"
"235048","896-TW","2017/07/27 19:09:42","新北市中和區忠孝街2-9號","121.509273333333","24.9830116666667","6500300","中和區"
"235053","900-TW","2017/07/27 19:09:33","新北市板橋區和平路178號","121.463391666667","24.9955283333333","6500300","中和區"
"235037","AAC-213","2017/07/27 19:09:43","新北市中和區秀朗路三段10巷16弄2號","121.524076666667","24.996235","6500300","中和區"
"235059","AAC-215","2017/07/27 19:09:34","新北市中和區圓通路294巷13號","121.488866666667","24.9900483333333","6500300","中和區"
"220068","013-TV","2017/07/27 19:09:44","新北市板橋區中山路二段443巷86號","121.480756666667","25.02274","6500100","板橋區"
"220065","072-UY","2017/07/27 19:09:35","新北市板橋區民族路221-1號","121.46961","25.00741","6500100","板橋區"
"220086","073-UY","2017/07/27 19:09:29","新北市板橋區中正路250巷18號","121.456148333333","25.01939","6500100","板橋區"
"220106","075-UY","2017/07/27 19:09:42","新北市板橋區文化路二段317號","121.472176666667","25.0298116666667","6500100","板橋區"
"220098","120-SR","2017/07/27 19:09:31","新北市板橋區自由路51巷14弄7號","121.464613333333","25.023785","6500100","板橋區"
"247006","341-TH","2017/07/27 19:09:41","新北市五股區中興路三段2巷10號","121.449148333333","25.0810516666667","6501400","蘆洲區"
"247024","337-TH","2017/07/27 18:57:38","新北市五股區中興路三段163號","121.449125","25.0807983333333","6501400","蘆洲區"
"247002","336-TH","2017/07/27 19:09:24","新北市五股區中興路三段163號","121.449238333333","25.0809016666667","6501400","蘆洲區"
"247014","057-VK","2017/07/27 19:09:25","新北市五股區成泰路三段544-1號","121.454245","25.1014933333333","6501400","蘆洲區"
"226004","312-R5","2017/07/27 19:09:44","新北市平溪區南山里南山坪23號","121.77113","25.0361766666667","6502400","平溪區"
"228003","097-TW","2017/07/27 19:09:26","新北市貢寮區和美里和美街40-1號","121.912565","25.09008","6502600","貢寮區"
"228001","212-TW","2017/07/27 19:09:32","新北市貢寮區真理里新港街10號","121.925465","25.0543166666667","6502600","貢寮區"
"228002","585-TW","2017/07/27 19:09:37","新北市貢寮區福隆里福隆街36號","121.945126666667","25.017485","6502600","貢寮區"
"224010","AGQ-8101","2017/07/27 19:05:35","新北市瑞芳區金光路372號","121.848825","25.1107533333333","6501200","瑞芳區"
"224006","676-BX","2017/07/27 19:09:36","新北市瑞芳區三爪子坑路106巷1-2號","121.808031666667","25.1048283333333","6501200","瑞芳區"
"224011","420-VK","2017/07/27 19:09:39","新北市瑞芳區崙頂路3-1號","121.847015","25.104685","6501200","瑞芳區"
"224009","285-BY","2017/07/27 19:09:28","新北市瑞芳區長仁路32號","121.866143333333","25.1181566666667","6501200","瑞芳區"
"224008","275-VK","2017/07/27 19:09:36","新北市瑞芳區瑞芳街118號","121.801441666667","25.1108816666667","6501200","瑞芳區"
"224005","271-BY","2017/07/27 19:09:40","新北市瑞芳區瑞芳街32-10號","121.822305","25.120945","6501200","瑞芳區"
"227010","642-TC","2017/07/27 19:09:22","新北市雙溪區牡丹里中正路43號","121.864805","25.038605","6502500","雙溪區"
"227004","400-TW","2017/07/27 19:09:25","新北市雙溪區平林里梅竹蹊56-4號","121.860748333333","25.0366733333333","6502500","雙溪區"
"253006","032-BX","2017/07/27 19:09:30","新北市石門區海灣新城39號","121.526923333333","25.2845433333333","6502200","石門區"
"253005","295-VK","2017/07/27 19:09:40","新北市石門區阿里磅1號","121.589755","25.29104","6502200","石門區"
"208001","742-BX","2017/07/27 19:09:28","新北市金山區福德街2號","121.639425","25.22185","6502700","金山區"
"208003","665-BX","2017/07/27 19:09:37","新北市金山區中正路137號","121.632365","25.221465","6502700","金山區"
"251009","008-UM","2017/07/27 19:09:22","新北市淡水區清水街178號","121.440751666667","25.1707516666667","6501000","淡水區"
"251007","179-VK","2017/07/27 19:09:32","新北市淡水區民生路145巷54號","121.467803333333","25.1388683333333","6501000","淡水區"
"251014","182-VK","2017/07/27 19:09:29","新北市淡水區北勢子9號","121.482868333333","25.2282333333333","6501000","淡水區"
"251010","413-VK","2017/07/27 19:09:34","新北市淡水區中正路一段156巷3號","121.421078333333","25.1802983333333","6501000","淡水區"
"251016","442-VK","2017/07/27 19:09:24","新北市淡水區淡金路三段170號","121.448625","25.2025716666667","6501000","淡水區"
"251005","443-VK","2017/07/27 19:09:40","新北市淡水區中山路128號","121.441698333333","25.1709766666667","6501000","淡水區"
"251001","559-UM","2017/07/27 19:09:29","新北市淡水區民權路16號","121.463383333333","25.124575","6501000","淡水區"
"251011","650-BX","2017/07/27 19:09:25","新北市淡水區中正東路二段143巷2弄1號","121.460693333333","25.1473666666667","6501000","淡水區"
"251002","672-BX","2017/07/27 19:09:33","新北市淡水區中山路88號","121.442856666667","25.1704533333333","6501000","淡水區"
"251003","766-UM","2017/07/27 19:09:26","新北市淡水區中山北路一段76號","121.44219","25.1759516666667","6501000","淡水區"
"207003","550-UM","2017/07/27 19:09:41","新北市萬里區大鵬里萬里加投24-2號","121.649145","25.207325","6502800","萬里區"
"207004","225-TW","2017/07/27 19:09:29","新北市萬里區萬里里瑪鋉下街46號","121.69147","25.1792116666667","6502800","萬里區"
"252005","073-UM","2017/07/27 15:32:29","新北市三芝區埔坪里埔頭坑41號","121.504341666667","25.2646233333333","6502100","三芝區"
"252002","178-VK","2017/07/27 19:09:36","新北市三芝區中正路一段3號","121.50267","25.2589933333333","6502100","三芝區"
"252003","249-BX","2017/07/27 19:09:28","新北市三芝區錫板里海尾14-15號","121.477285","25.2585166666667","6502100","三芝區"
"252001","292-VK","2017/07/27 19:09:39","新北市三芝區長勤街45巷2號","121.500353333333","25.255115","6502100","三芝區"
"208002","170-UY","2017/07/27 19:09:32","新北市金山區仁愛路67巷28號","121.634005","25.2208466666667","6502700","金山區"
"237004","078-UY","2017/07/27 19:09:41","新北市三峽區有木205-1號","121.439061666667","24.8514883333333","6500900","三峽區"
"237007","153-BY","2017/07/27 19:09:24","新北市三峽區中正路二段203號","121.365986666667","24.91345","6500900","三峽區"
"237013","252-BX","2017/07/27 19:09:41","新北市三峽區光明路69巷27號","121.376871666667","24.9292783333333","6500900","三峽區"
"237012","275-BY","2017/07/27 19:09:40","新北市三峽區三樹路222巷254弄68-21號","121.39401","24.9444633333333","6500900","三峽區"
"237008","302-VK","2017/07/27 19:09:28","新北市三峽區中正路一段362號","121.371211666667","24.9241483333333","6500900","三峽區"
"237014","433-BY","2017/07/27 19:09:25","新北市三峽區隆恩街245號","121.357755","24.9411","6500900","三峽區"
"237006","5529-G3","2017/07/27 19:09:36","新北市三峽區溪東路233巷47弄2號","121.410631666667","24.9345983333333","6500900","三峽區"
"237011","572-TV","2017/07/27 18:13:18","新北市三峽區橫溪路1號","121.396048333333","24.9361833333333","6500900","三峽區"
"237016","649-BX","2017/07/27 19:09:24","新北市三峽區建安25-2號","121.445978333333","24.9274383333333","6500900","三峽區"
"237010","706-TV","2017/07/27 19:09:34","新北市三峽區國光街54-1號","121.374335","24.9382183333333","6500900","三峽區"
"237005","AKY-6261","2017/07/27 19:09:37","新北市三峽區中山路459巷163-3號","121.348681666667","24.9329183333333","6500900","三峽區"
"236071","105-UM","2017/07/27 19:09:37","新北市土城區中央路一段291巷14號","121.445016666667","24.983685","6501300","土城區"
"236078","166-UM","2017/07/27 19:09:28","新北市土城區龍泉路10-1號","121.409601666667","24.949155","6501300","土城區"
"236026","269-VK","2017/07/27 19:09:31","新北市土城區中正路1號","121.44207","24.9751116666667","6501300","土城區"
"236014","270-VK","2017/07/27 19:09:26","新北市土城區學府路一段75巷2號","121.456941666667","24.9881266666667","6501300","土城區"
"236037","271-VK","2017/07/27 19:09:34","新北市土城區仁愛路12號","121.460206666667","24.98084","6501300","土城區"
"236021","401-BY","2017/07/27 19:09:41","新北市土城區延峰街36巷2號","121.469575","24.98471","6501300","土城區"
"236058","912-UM","2017/07/27 19:09:40","新北市土城區金城路二段252號","121.45717","24.9833116666667","6501300","土城區"
"236051","913-UM","2017/07/27 19:09:24","新北市土城區明德路一段398-1號","121.453641666667","24.9790633333333","6501300","土城區"
"236053","AAC-216","2017/07/27 19:09:26","新北市土城區學成路58號","121.45223","24.9877283333333","6501300","土城區"
"238015","755-BX","2017/07/27 19:09:38","新北市樹林區備內街158巷56號","121.408306666667","24.9899366666667","6500700","樹林區"
"238023","601-UM","2017/07/27 19:09:23","新北市樹林區大慶街61號","121.396081666667","25.0135866666667","6500700","樹林區"
"238018","571-TV","2017/07/27 19:09:21","新北市樹林區八德街69號","121.419553333333","24.982115","6500700","樹林區"
"238022","312-TH","2017/07/27 19:09:31","新北市樹林區中山路二段151巷17號","121.4076","24.97789","6500700","樹林區"
"238021","311-TH","2017/07/27 19:09:30","新北市樹林區柑園街二段328巷2弄40號","121.373761666667","24.9522633333333","6500700","樹林區"
"238017","283-BY","2017/07/27 19:09:31","新北市樹林區中山路三段35號","121.401348333333","24.9753766666667","6500700","樹林區"
"238020","268-VK","2017/07/27 01:40:28","新北市樹林區中山路三段204號","121.386808333333","24.9682583333333","6500700","樹林區"
"238026","172-UY","2017/07/27 19:09:38","新北市樹林區地政街8巷10弄2號","121.393683333333","24.9712166666667","6500700","樹林區"
"238016","169-UY","2017/07/27 19:09:37","新北市樹林區復興路335巷6弄17號","121.417753333333","24.9870083333333","6500700","樹林區"
"239007","AAC-297","2017/07/27 19:09:38","新北市鶯歌區中正一路236號","121.354208333333","24.957","6500800","鶯歌區"
"239006","891-R6","2017/07/27 19:09:41","新北市鶯歌區鶯桃路271號","121.335335","24.9599833333333","6500800","鶯歌區"
"239008","527-UM","2017/07/27 19:09:21","新北市鶯歌區國際二路6巷18號","121.339138333333","24.9738433333333","6500800","鶯歌區"
"239005","526-UM","2017/07/27 19:09:35","新北市鶯歌區大湖路382號","121.345568333333","24.973115","6500800","鶯歌區"
"239001","417-VK","2017/07/27 19:09:40","新北市鶯歌區鶯桃路133號","121.33799","24.9547516666667","6500800","鶯歌區"
"239003","360-BY","2017/07/27 19:09:32","新北市鶯歌區鶯桃路391號","121.33338","24.963825","6500800","鶯歌區"
"239004","193-VK","2017/07/27 19:09:27","新北市鶯歌區中正三路318巷39號","121.327271666667","24.9364266666667","6500800","鶯歌區"
"221008","489-VK","2017/07/27 19:09:34","新北市汐止區康寧街432號","121.630883333333","25.0680816666667","6501100","汐止區"
"221036","130-UY","2017/07/27 19:09:39","新北市汐止區忠孝東路282號","121.663761666667","25.0682316666667","6501100","汐止區"
"221015","131-UY","2017/07/27 19:09:26","新北市汐止區康寧街901號","121.651176666667","25.0751316666667","6501100","汐止區"
"221010","269-BY","2017/07/27 19:09:23","新北市汐止區康寧街901號","121.651515","25.074975","6501100","汐止區"
"221012","278-VK","2017/07/27 19:09:41","新北市汐止區康寧街901號","121.650848333333","25.07515","6501100","汐止區"
"221023","279-VK","2017/07/27 02:19:45","新北市汐止區康寧街901號","121.651723333333","25.0749416666667","6501100","汐止區"
"221032","280-BY","2017/07/27 19:09:41","新北市汐止區橫科路367巷26號","121.62338","25.04831","6501100","汐止區"
"221027","281-BY","2017/07/27 18:56:55","新北市汐止區康寧街901號","121.650898333333","25.07527","6501100","汐止區"
"221038","297-VK","2017/07/27 18:53:40","新北市汐止區康寧街901號","121.650745","25.07532","6501100","汐止區"
"221029","298-VK","2017/07/27 19:09:33","新北市汐止區汐萬路一段256巷3號","121.652555","25.074535","6501100","汐止區"
"221021","299-VK","2017/07/27 18:42:07","新北市汐止區新興路53巷5號","121.657525","25.0632183333333","6501100","汐止區"
"221031","353-TW","2017/07/27 19:09:33","新北市汐止區中興路181巷29弄8號","121.629741666667","25.0658716666667","6501100","汐止區"
"221025","623-UM","2017/07/27 19:09:31","新北市汐止區康寧街901號","121.651466666667","25.0749716666667","6501100","汐止區"
"221002","707-TV","2017/07/27 19:09:15","台北市南港區南港路一段28號","121.618671666667","25.0549716666667","6501100","汐止區"
"221018","753-BX","2017/07/27 19:09:27","新北市汐止區汐萬路一段256巷3號","121.652985","25.07439","6501100","汐止區"
"220079","145-BY","2017/07/27 19:09:35","新北市板橋區民權路260巷7號","121.458343333333","25.0154283333333","6500100","板橋區"
"220088","146-RM","2017/07/27 19:09:11","新北市板橋區莊敬路48-2號","121.472608333333","25.0270716666667","6500100","板橋區"
"220080","200-UY","2017/07/27 19:09:40","新北市板橋區大觀路二段153巷46弄20號","121.449251666667","24.9999733333333","6500100","板橋區"
"220082","610-BX","2017/07/27 19:09:28","新北市板橋區溪崑二街22巷30號","121.428103333333","24.99192","6500100","板橋區"
"220101","245-BX","2017/07/27 19:09:38","新北市板橋區莊敬路208巷8弄6號","121.470735","25.020695","6500100","板橋區"
"220069","258-TC","2017/07/27 19:09:29","新北市板橋區大華街14號","121.458466666667","25.00603","6500100","板橋區"
"220056","276-BY","2017/07/27 19:09:34","新北市板橋區信義路74巷1弄1號","121.457245","24.9931316666667","6500100","板橋區"
"220072","277-BY","2017/07/27 19:09:37","新北市板橋區金門街369巷57弄8號","121.42929","24.9839966666667","6500100","板橋區"
"220094","283-UM","2017/07/27 19:09:28","新北市板橋區光武街108-5號","121.465681666667","25.02918","6500100","板橋區"
"220071","283-VK","2017/07/27 19:09:34","新北市板橋區忠孝路154巷32號","121.464048333333","25.0017133333333","6500100","板橋區"
"220053","285-VK","2017/07/27 19:09:42","新北市板橋區懷仁街14巷6號","121.475776666667","25.0198966666667","6500100","板橋區"
"220083","286-VK","2017/07/27 19:09:40","新北市板橋區僑中二街152號","121.44492","25.0042283333333","6500100","板橋區"
"220081","287-VK","2017/07/27 19:09:26","新北市板橋區光華街39巷26號","121.453033333333","25.0130233333333","6500100","板橋區"
"220090","288-VK","2017/07/27 19:09:34","新北市板橋區裕民街50號","121.46155","25.0287316666667","6500100","板橋區"
"220061","295-UM","2017/07/27 19:09:23","新北市板橋區中山路二段273號","121.477715","25.01793","6500100","板橋區"
"220084","296-UM","2017/07/27 19:09:27","新北市板橋區篤行路二段90巷12號","121.43101","24.9918666666667","6500100","板橋區"
"220075","297-UM","2017/07/27 19:09:37","新北市板橋區南雅南路一段1巷38號","121.457261666667","25.00663","6500100","板橋區"
"220010","305-R5","2017/07/27 19:09:29","新北市板橋區三民路二段245巷57號","121.480746666667","25.0125966666667","6500100","板橋區"
"220092","307-R5","2017/07/27 19:09:39","新北市板橋區文化路二段225巷60弄40號","121.469158333333","25.02934","6500100","板橋區"
"220064","486-VK","2017/07/27 19:09:43","新北市板橋區民生路一段35號","121.475636666667","25.012555","6500100","板橋區"
"220089","487-VK","2017/07/27 19:09:35","新北市板橋區文化路二段389號","121.473596666667","25.03152","6500100","板橋區"
"220035","560-BX","2017/07/27 19:09:31","新北市板橋區中正路399巷10號","121.45357","25.0224183333333","6500100","板橋區"
"220103","561-BX","2017/07/27 19:09:34","新北市板橋區文化路一段188巷9弄108號","121.468441666667","25.0194433333333","6500100","板橋區"
"220063","609-BX","2017/07/27 19:09:40","新北市板橋區三民路二段253-1號","121.478968333333","25.0118","6500100","板橋區"
"220091","637-BX","2017/07/27 19:09:39","新北市板橋區萬板路710號","121.481908333333","25.0271316666667","6500100","板橋區"
"220057","686-BX","2017/07/27 19:09:31","新北市板橋區館前東路53號","121.461353333333","25.0074116666667","6500100","板橋區"
"220077","687-BX","2017/07/27 19:09:24","新北市板橋區大觀路二段48號","121.445413333333","25.000745","6500100","板橋區"
"220093","689-BX","2017/07/27 19:09:28","新北市板橋區民生路三段255號","121.464541666667","25.02931","6500100","板橋區"
"220054","741-BX","2017/07/27 19:09:31","新北市板橋區重慶路93巷47號","121.463388333333","25.0059683333333","6500100","板橋區"
"220055","827-TW","2017/07/27 19:09:24","新北市板橋區中山路一段124號","121.463246666667","25.0108633333333","6500100","板橋區"
"220067","829-TW","2017/07/27 19:09:35","新北市板橋區中山路二段90巷43弄9號","121.476745","25.0150866666667","6500100","板橋區"
"220102","830-TW","2017/07/27 19:09:37","新北市板橋區萬板路818巷20號","121.482923333333","25.0267066666667","6500100","板橋區"
"220096","831-TW","2017/07/27 19:09:30","新北市板橋區雙十路二段47巷6號","121.476136666667","25.0260916666667","6500100","板橋區"
"220074","895-R6","2017/07/27 19:09:32","新北市板橋區文昌街2號","121.456008333333","25.0102916666667","6500100","板橋區"
"220073","985-R7","2017/07/27 19:09:34","新北市板橋區中正路273號","121.455608333333","25.01883","6500100","板橋區"
"220097","AAC-210","2017/07/27 19:09:33","新北市板橋區新海路135巷33號","121.459881666667","25.022865","6500100","板橋區"
"220070","AAC-253","2017/07/27 19:09:39","新北市板橋區四川路一段142號","121.459893333333","25.00363","6500100","板橋區"
