"lineid","car","time","location","longitude","latitude","cityid","cityname"
"244018","403-UM","2017/07/27 09:49:04","新北市林口區粉寮路60-16號","121.404425","25.0897366666667","6501700","林口區"
"244025","742-UY","2017/07/27 20:37:34","新北市林口區粉寮路二段160巷28號","121.405211666667","25.090765","6501700","林口區"
"231059","046-UY","2017/07/27 21:09:14","新北市新店區僑義路24號","121.500585","24.950035","6500600","新店區"
"231061","047-UY","2017/07/27 21:09:16","新北市新店區永平街32號","121.516348333333","24.9839816666667","6500600","新店區"
"231060","106-UY","2017/07/27 21:09:15","新北市新店區安康路三段73號","121.492151666667","24.9520283333333","6500600","新店區"
"231051","107-UY","2017/07/27 21:09:20","新北市新店區復興路108-1號","121.531798333333","24.98946","6500600","新店區"
"231047","108-UY","2017/07/27 21:09:10","新北市新店區中興路三段156號","121.544526666667","24.9806016666667","6500600","新店區"
"231007","189-VK","2017/07/27 12:00:48","新北市新店區安華路28-1號","121.519686666667","24.9611066666667","6500600","新店區"
"231063","268-BY","2017/07/27 21:09:11","新北市新店區玫瑰路58巷1號","121.495433333333","24.946575","6500600","新店區"
"231050","AAD-862","2017/07/27 21:09:22","新北市新店區三民路20巷2號","121.537541666667","24.970705","6500600","新店區"
"231067","4772-VM","2017/07/27 21:09:20","新北市新店區安德街148巷40號","121.507556666667","24.9607733333333","6500600","新店區"
"231065","512-UM","2017/07/27 21:09:13","新北市新店區安祥路69巷41弄15號","121.482045","24.9609516666667","6500600","新店區"
"231054","513-UM","2017/07/27 21:09:22","新北市新店區大新街7巷23號","121.544191666667","24.96787","6500600","新店區"
"231040","619-UM","2017/07/27 21:09:23","新北市新店區北新路一段351號","121.542003333333","24.9693433333333","6500600","新店區"
"231042","641-BX","2017/07/27 21:09:21","新北市新店區寶興路60巷4號","121.549863333333","24.971905","6500600","新店區"
"231062","720-UM","2017/07/27 21:09:12","新北市新店區雙城路60巷1號","121.492098333333","24.9476883333333","6500600","新店區"
"241011","013-R5","2017/07/27 21:09:16","新北市三重區龍濱路168-1號","121.501206666667","25.0726366666667","6500200","三重區"
"241028","022-UY","2017/07/27 21:09:22","新北市三重區正義南路60-1號","121.498333333333","25.0606583333333","6500200","三重區"
"241009","060-VK","2017/07/27 21:09:19","新北市三重區忠孝路二段122號","121.482991666667","25.0687616666667","6500200","三重區"
"241031","061-VK","2017/07/27 21:09:08","新北市三重區重新路五段283號","121.479203333333","25.04917","6500200","三重區"
"241015","062-VK","2017/07/27 21:09:12","新北市三重區福德北路63號","121.50216","25.06553","6500200","三重區"
"241017","063-VK","2017/07/27 21:09:13","新北市三重區大仁街23號","121.492136666667","25.06455","6500200","三重區"
"241024","065-VK","2017/07/27 21:09:24","新北市三重區力行路二段4號","121.481643333333","25.0718433333333","6500200","三重區"
"241026","066-VK","2017/07/27 21:09:18","新北市三重區文化南路42號","121.500451666667","25.0602383333333","6500200","三重區"
"241002","090-VK","2017/07/27 21:09:23","新北市三重區五華街14號","121.494906666667","25.0802733333333","6500200","三重區"
"241003","156-TC","2017/07/27 21:09:15","新北市三重區進安街198號","121.493981666667","25.0860333333333","6500200","三重區"
"241005","262-UM","2017/07/27 21:09:17","新北市三重區三信路182號","121.488091666667","25.0861133333333","6500200","三重區"
"241014","265-UM","2017/07/27 21:09:15","新北市三重區長安街84號","121.501615","25.067495","6500200","三重區"
"241016","266-UM","2017/07/27 21:09:08","新北市三重區信義西街138號","121.495675","25.0642666666667","6500200","三重區"
"241022","267-UM","2017/07/27 21:09:17","新北市三重區中正北路64巷24號","121.486166666667","25.0636533333333","6500200","三重區"
"241018","268-UM","2017/07/27 21:09:11","新北市三重區正義北路332-1號","121.494366666667","25.0705233333333","6500200","三重區"
"241032","269-UM","2017/07/27 21:09:18","新北市三重區新北大道二段45號","121.469745","25.06155","6500200","三重區"
"241013","270-UM","2017/07/27 21:09:24","新北市三重區仁愛街125巷1號","121.496075","25.0751983333333","6500200","三重區"
"241025","271-UM","2017/07/27 21:09:16","新北市三重區中正北路208巷10弄4號","121.482373333333","25.06695","6500200","三重區"
"241007","398-BY","2017/07/27 21:09:10","新北市三重區三和路四段145巷81號","121.486411666667","25.078615","6500200","三重區"
"241008","412-TH","2017/07/27 21:09:20","新北市三重區文化北路156-2號","121.498038333333","25.0673933333333","6500200","三重區"
"241020","413-TH","2017/07/27 21:09:24","新北市三重區忠孝路二段34號","121.485946666667","25.07101","6500200","三重區"
"241004","475-VK","2017/07/27 21:09:21","新北市三重區仁愛街420號","121.490385","25.0814116666667","6500200","三重區"
"241019","478-VK","2017/07/27 21:09:13","新北市三重區自強路二段74巷21號","121.487986666667","25.0698433333333","6500200","三重區"
"241030","480-VK","2017/07/27 21:09:25","新北市三重區五谷王北街20巷15弄1號","121.475125","25.0484466666667","6500200","三重區"
"241023","545-UM","2017/07/27 21:09:09","新北市三重區忠孝路三段50巷41弄66號","121.482286666667","25.063715","6500200","三重區"
"241001","547-UM","2017/07/27 21:09:22","新北市三重區福隆路83號","121.491883333333","25.0780883333333","6500200","三重區"
"241006","AAD-863","2017/07/27 21:09:18","新北市三重區明志街135號","121.489241666667","25.063245","6500200","三重區"
"241012","941-UM","2017/07/27 21:09:05","新北市三重區仁信街27號","121.501263333333","25.0755116666667","6500200","三重區"
"241029","942-UM","2017/07/27 21:09:19","新北市三重區正義南路107號","121.498273333333","25.05853","6500200","三重區"
"241033","AAC-255","2017/07/27 21:09:16","新北市三重區中興北街283號","121.469251666667","25.0618366666667","6500200","三重區"
"235026","800-TS","2017/07/27 21:09:23","新北市中和區員山路36巷16-3號","121.485076666667","24.9913766666667","6500300","中和區"
"247020","893-R6","2017/07/27 21:09:20","新北市蘆洲區民族路436巷5號","121.472846666667","25.0928983333333","6501400","蘆洲區"
"247010","546-UM","2017/07/27 21:09:17","新北市蘆洲區鷺江街48號","121.477336666667","25.08323","6501400","蘆洲區"
"247018","500-BY","2017/07/27 21:09:24","新北市蘆洲區民族路408巷13號","121.474851666667","25.0920783333333","6501400","蘆洲區"
"247006","341-TH","2017/07/27 21:09:21","新北市蘆洲區和平路97巷7號","121.467936666667","25.0787183333333","6501400","蘆洲區"
"247008","339-TH","2017/07/27 21:09:14","新北市蘆洲區民生街47號","121.474985","25.07884","6501400","蘆洲區"
"247024","337-TH","2017/07/27 21:09:21","新北市蘆洲區長興路50巷1號","121.463716666667","25.0838066666667","6501400","蘆洲區"
"247002","336-TH","2017/07/27 21:09:22","新北市蘆洲區永平街20號","121.45915","25.0906383333333","6501400","蘆洲區"
"247014","057-VK","2017/07/27 21:09:25","新北市蘆洲區中央路155號","121.472605","25.0846816666667","6501400","蘆洲區"
"247004","056-VK","2017/07/27 21:09:18","新北市蘆洲區永安南路二段320號","121.45706","25.0826883333333","6501400","蘆洲區"
"247012","007-UY","2017/07/27 21:09:13","新北市蘆洲區民族路38號","121.476638333333","25.084345","6501400","蘆洲區"
"247022","002-UY","2017/07/27 21:09:25","新北市蘆洲區中正路263巷2號","121.467216666667","25.087655","6501400","蘆洲區"
"247016","001-UY","2017/07/27 21:09:15","新北市蘆洲區和平路165號","121.46668","25.0807966666667","6501400","蘆洲區"
"224011","420-VK","2017/07/27 20:35:34","新北市瑞芳區明燈路二段66號","121.80936","25.1076266666667","6501200","瑞芳區"
"251009","008-UM","2017/07/27 21:09:22","新北市淡水區民族路112巷40號","121.462015","25.134375","6501000","淡水區"
"251014","182-VK","2017/07/27 21:09:09","新北市淡水區溪口2-2號","121.44952","25.238555","6501000","淡水區"
"251010","413-VK","2017/07/27 21:09:14","新北市淡水區中正路一段63巷5-3號","121.423361666667","25.1773683333333","6501000","淡水區"
"251012","441-VK","2017/07/27 21:09:18","新北市淡水區淡金路五段83號","121.45487","25.2340383333333","6501000","淡水區"
"251016","442-VK","2017/07/27 21:09:24","新北市淡水區牛埔子1-5號","121.44563","25.22","6501000","淡水區"
"251005","443-VK","2017/07/27 21:09:19","新北市淡水區中正東路35巷28號","121.446878333333","25.1688016666667","6501000","淡水區"
"251001","559-UM","2017/07/27 21:09:09","新北市淡水區新市一路三段101巷16弄3號","121.446671666667","25.1838616666667","6501000","淡水區"
"251011","650-BX","2017/07/27 21:09:29","新北市淡水區新民街180巷7弄27號","121.436986666667","25.1798783333333","6501000","淡水區"
"251002","672-BX","2017/07/27 21:09:28","新北市淡水區水源街一段157號","121.447806666667","25.17163","6501000","淡水區"
"251003","766-UM","2017/07/27 21:09:26","新北市淡水區新春街103-10號","121.440616666667","25.1817733333333","6501000","淡水區"
"252005","073-UM","2017/07/27 21:08:06","新北市三芝區埔坪里埔頭坑41號","121.504333333333","25.2645483333333","6502100","三芝區"
"242048","751-BX","2017/07/27 21:09:10","新北市板橋區大觀路三段2巷17號","121.435188333333","24.9965216666667","6500500","新莊區"
"242023","613-BX","2017/07/27 21:09:18","新北市樹林區環河路10號","121.4272","24.97825","6500500","新莊區"
"221018","753-BX","2017/07/27 21:09:27","新北市汐止區汐萬路一段256巷1號","121.65203","25.07478","6501100","汐止區"
"220070","AAC-253","2017/07/27 21:08:59","新北市林口區太平里180號","121.366548333333","25.134155","6500100","板橋區"
