"lineid","car","time","location","longitude","latitude","cityid","cityname"
"244018","403-UM","2017/07/27 09:49:04","新北市林口區粉寮路60-16號","121.404425","25.0897366666667","6501700","林口區"
"244025","742-UY","2017/07/27 20:37:34","新北市林口區粉寮路二段160巷28號","121.405211666667","25.090765","6501700","林口區"
"231007","189-VK","2017/07/27 12:00:48","新北市新店區安華路28-1號","121.519686666667","24.9611066666667","6500600","新店區"
"231063","268-BY","2017/07/27 21:29:11","新北市新店區吉祥街7巷1號","121.497405","24.9475716666667","6500600","新店區"
"231050","AAD-862","2017/07/27 21:29:22","新北市新店區中正路241號","121.539201666667","24.9732083333333","6500600","新店區"
"241024","065-VK","2017/07/27 21:29:04","新北市三重區中正北路115巷6號","121.48404","25.0675733333333","6500200","三重區"
"241003","156-TC","2017/07/27 21:29:14","新北市三重區仁義街395號","121.494476666667","25.0854783333333","6500200","三重區"
"241005","262-UM","2017/07/27 21:29:16","新北市三重區仁華街73號","121.485281666667","25.0830183333333","6500200","三重區"
"241016","266-UM","2017/07/27 21:29:08","新北市三重區正義北路133號","121.496696666667","25.066365","6500200","三重區"
"241007","398-BY","2017/07/27 21:29:10","新北市三重區正義北路113號","121.49686","25.06567","6500200","三重區"
"235026","800-TS","2017/07/27 21:29:03","新北市中和區員山路36巷16-3號","121.48487","24.9915883333333","6500300","中和區"
"247020","893-R6","2017/07/27 21:27:41","新北市五股區中興路三段5號","121.450965","25.0801833333333","6501400","蘆洲區"
"247010","546-UM","2017/07/27 21:29:21","新北市蘆洲區三民路22號","121.476026666667","25.0826116666667","6501400","蘆洲區"
"247018","500-BY","2017/07/27 21:29:04","新北市蘆洲區保和街28號","121.470481666667","25.0865133333333","6501400","蘆洲區"
"247006","341-TH","2017/07/27 21:29:20","新北市五股區新五路三段260號","121.448198333333","25.0905666666667","6501400","蘆洲區"
"247008","339-TH","2017/07/27 21:29:14","新北市五股區中興路二段182巷15弄13-1號","121.457225","25.0812283333333","6501400","蘆洲區"
"247024","337-TH","2017/07/27 21:29:21","新北市五股區中興路三段2巷10號","121.448078333333","25.08454","6501400","蘆洲區"
"247014","057-VK","2017/07/27 21:29:05","新北市蘆洲區光復路52號","121.46382","25.0851766666667","6501400","蘆洲區"
"247012","007-UY","2017/07/27 21:28:13","新北市蘆洲區中正路507號","121.459681666667","25.09791","6501400","蘆洲區"
"247022","002-UY","2017/07/27 21:29:19","新北市蘆洲區永樂街2號","121.459431666667","25.0882583333333","6501400","蘆洲區"
"224011","420-VK","2017/07/27 20:35:34","新北市瑞芳區明燈路二段66號","121.80936","25.1076266666667","6501200","瑞芳區"
"251009","008-UM","2017/07/27 21:29:21","新北市淡水區民族路65巷60號","121.463573333333","25.1359416666667","6501000","淡水區"
"251004","009-UM","2017/07/27 21:29:12","新北市淡水區民族路4號","121.460336666667","25.1368233333333","6501000","淡水區"
"251008","181-VK","2017/07/27 21:29:14","新北市淡水區水源街二段126號","121.45322","25.17468","6501000","淡水區"
"251014","182-VK","2017/07/27 21:29:09","新北市淡水區六塊厝3-2號","121.4505","25.2405783333333","6501000","淡水區"
"251010","413-VK","2017/07/27 21:29:14","新北市淡水區沙崙路25巷21號","121.420611666667","25.1824033333333","6501000","淡水區"
"251012","441-VK","2017/07/27 21:29:18","新北市淡水區淡金路四段563號","121.451468333333","25.2302133333333","6501000","淡水區"
"251016","442-VK","2017/07/27 21:29:04","新北市淡水區淡金路三段329號","121.448948333333","25.2062433333333","6501000","淡水區"
"251005","443-VK","2017/07/27 21:29:19","新北市淡水區水源街一段85-1號","121.445225","25.1722883333333","6501000","淡水區"
"251001","559-UM","2017/07/27 21:29:09","新北市淡水區濱海路一段221號","121.437911666667","25.1898716666667","6501000","淡水區"
"251006","561-UM","2017/07/27 21:29:08","新北市淡水區公明街51號","121.443388333333","25.168765","6501000","淡水區"
"251011","650-BX","2017/07/27 21:29:05","新北市淡水區新民街164號","121.437081666667","25.1783283333333","6501000","淡水區"
"251002","672-BX","2017/07/27 21:29:08","新北市淡水區學府路172巷21號","121.448278333333","25.174935","6501000","淡水區"
"251003","766-UM","2017/07/27 21:29:25","新北市淡水區崁頂15-5號","121.438988333333","25.1858916666667","6501000","淡水區"
"252005","073-UM","2017/07/27 21:28:46","新北市三芝區埔坪里埔頭坑41號","121.504325","25.2645116666667","6502100","三芝區"
"242023","613-BX","2017/07/27 21:22:18","新北市樹林區中山路三段214號","121.380021666667","24.96769","6500500","新莊區"
"220070","AAC-253","2017/07/27 21:29:19","新北市八里區商港路12號","121.39677","25.1444066666667","6500100","板橋區"
