"lineid","car","time","location","longitude","latitude","cityid","cityname"
"251013","180-VK","2017/09/27 19:46:06","新北市淡水區頂田寮13號","121.46242","25.2140566666667","6501000","淡水區"
"251015","182-VK","2017/09/27 19:45:59","新北市淡水區泉洲厝26號","121.484071666667","25.1908783333333","6501000","淡水區"
"221012","276-VK","2017/09/27 13:09:19","新北市汐止區汐萬路一段256巷3號","121.65345","25.0746233333333","6501100","汐止區"
"220056","276-BY","2017/09/27 13:19:26","新北市板橋區華東街1-9號","121.448185","24.9948983333333","6500100","板橋區"
"242001","281-VK","2017/09/27 15:44:44","新北市新莊區環河路636-7號","121.437366666667","25.011265","6500500","新莊區"
