"lineid","car","time","location","longitude","latitude","cityid","cityname"
"248005","653-BX","2017/06/16 09:49:49","新北市五股區成泰路一段198號","121.435861666667","25.0785466666667","6501500","五股區"
"222005","289-BY","2017/06/16 09:49:39","新北市深坑區平埔街22巷19號","121.614718333333","25.00105","6501800","深坑區"
"231009","192-VK","2017/06/16 09:49:40","新北市新店區平廣路一段202巷5弄6號","121.514721666667","24.89032","6500600","新店區"
"247002","402-BY","2017/06/16 09:49:51","新北市蘆洲區民族路33巷2號","121.47788","25.0853383333333","6501400","蘆洲區"
"227005","282-VK","2017/06/16 09:30:45","新北市雙溪區泰平里溪尾寮2-2號","121.819486666667","24.963775","6502500","雙溪區"
"252003","249-BX","2017/06/16 09:49:12","新北市金山區中正路136號","121.631986666667","25.2215066666667","6502100","三芝區"
"236071","105-UM","2017/06/16 06:43:39","新北市土城區城林路6巷80號","121.43834","24.9796566666667","6501300","土城區"
"236042","107-UM","2017/06/16 06:55:04","新北市土城區城林路6巷80號","121.438391666667","24.9798066666667","6501300","土城區"
"236007","137-TH","2017/06/16 07:11:18","新北市土城區城林路6巷80號","121.438741666667","24.9796166666667","6501300","土城區"
"236078","166-UM","2017/06/16 06:46:50","新北市土城區城林路6巷80號","121.438328333333","24.9797733333333","6501300","土城區"
"236006","498-BY","2017/06/16 09:49:49","新北市土城區中央路二段388號","121.439638333333","24.9711633333333","6501300","土城區"
"236051","913-UM","2017/06/16 06:52:03","新北市土城區城林路6巷80號","121.438331666667","24.9798466666667","6501300","土城區"
