"lineid","car","time","location","longitude","latitude","cityid","cityname"
"234044","148-BY","2017/06/16 13:59:27","新北市永和區成功路一段61號","121.527058333333","25.0035683333333","6500400","永和區"
"234012","149-BY","2017/06/16 13:59:28","新北市永和區仁愛路271號","121.506083333333","25.00984","6500400","永和區"
"234005","207-UY","2017/06/16 13:59:30","新北市中和區中和路232號","121.506786666667","24.9995266666667","6500400","永和區"
"234078","298-R6","2017/06/16 13:59:24","新北市永和區林森路112巷12弄8號","121.52254","25.00439","6500400","永和區"
"234036","336-UY","2017/06/16 13:59:28","新北市永和區成功路一段74號","121.526686666667","25.0034666666667","6500400","永和區"
"234062","337-UY","2017/06/16 13:59:27","新北市永和區秀朗路一段192巷3號","121.519483333333","25.0025266666667","6500400","永和區"
"234084","338-UY","2017/06/16 13:59:31","新北市永和區福和路94號","121.522433333333","25.008035","6500400","永和區"
"234068","552-UM","2017/06/16 13:59:25","新北市永和區永安街14號","121.519023333333","25.0061733333333","6500400","永和區"
"234052","553-UM","2017/06/16 13:59:18","新北市永和區竹林路39巷30號","121.519468333333","25.0150183333333","6500400","永和區"
"234015","745-BX","2017/06/16 13:59:29","新北市永和區永和路二段185號","121.515056666667","25.013475","6500400","永和區"
"234028","746-BX","2017/06/16 13:59:29","新北市永和區民權路49巷37號","121.521993333333","24.9976883333333","6500400","永和區"
"234060","AAD-866","2017/06/16 13:59:29","新北市永和區中正路151巷5弄2-1號","121.515683333333","24.998775","6500400","永和區"
"234040","862-TW","2017/06/16 13:59:30","新北市永和區雙和街43號","121.50888","25.002895","6500400","永和區"
"234048","863-TW","2017/06/16 13:59:19","新北市永和區保安路260號","121.505941666667","25.0123766666667","6500400","永和區"
"234025","9371-KE","2017/06/16 13:59:30","新北市永和區自由街47號","121.514001666667","25.0059483333333","6500400","永和區"
"234010","9373-KE","2017/06/16 13:59:20","新北市永和區仁愛路352巷124號","121.500273333333","25.0085833333333","6500400","永和區"
"248019","225-UY","2017/06/16 13:59:15","新北市五股區凌雲路三段57號","121.425328333333","25.1250266666667","6501500","五股區"
"234022","9380-KE","2017/06/16 13:59:31","新北市永和區博愛街32巷23號","121.51891","25.01514","6500400","永和區"
"234076","969-R7","2017/06/16 13:59:18","新北市永和區民治街59巷10號","121.518493333333","24.99727","6500400","永和區"
"234072","AAC-211","2017/06/16 13:59:24","新北市永和區豫溪街160巷1號","121.52325","25.0096733333333","6500400","永和區"
"234066","AAC-212","2017/06/16 13:59:26","新北市永和區中山路一段277號","121.507088333333","25.0070583333333","6500400","永和區"
"234001","AAC-295","2017/06/16 13:57:37","新北市永和區福和路343號","121.515498333333","25.00721","6500400","永和區"
"244004","248-BX","2017/06/16 13:59:21","新北市林口區頂福82號","121.327618333333","25.1042916666667","6501700","林口區"
"222005","289-BY","2017/06/16 09:56:55","新北市深坑區深坑街85號","121.614628333333","25.0013033333333","6501800","深坑區"
"231002","002-UM","2017/06/16 13:59:21","新北市新店區中正路676號","121.533951666667","24.98978","6500600","新店區"
"231025","0291-UT","2017/06/16 13:59:20","新北市新店區中正路351號","121.53526","24.9759566666667","6500600","新店區"
"231028","046-UY","2017/06/16 13:59:28","新北市新店區安和路三段123號","121.517375","24.985155","6500600","新店區"
"231030","047-UY","2017/06/16 13:59:24","新北市新店區安民街65巷21-2號","121.515181666667","24.9674366666667","6500600","新店區"
"231029","106-UY","2017/06/16 13:59:22","新北市新店區安康路二段1-3號","121.516876666667","24.96388","6500600","新店區"
"231018","107-UY","2017/06/16 13:59:14","新北市新店區中央路116號","121.531103333333","24.9751283333333","6500600","新店區"
"231012","108-UY","2017/06/16 13:59:26","新北市新店區五峰路93號","121.546185","24.967285","6500600","新店區"
"231022","187-VK","2017/06/16 13:59:16","新北市新店區屈尺路75號","121.545635","24.9226466666667","6500600","新店區"
"231026","256-BX","2017/06/16 13:59:24","新北市新店區中央路151號","121.52939","24.9723733333333","6500600","新店區"
"231034","268-BY","2017/06/16 13:59:26","新北市新店區達觀路6號","121.504983333333","24.9425466666667","6500600","新店區"
"231016","AAD-862","2017/06/16 13:59:20","新北市新店區郵政路4巷8號","121.556866666667","24.95165","6500600","新店區"
"231027","3712-VJ","2017/06/16 13:59:30","新北市新店區北宜路一段3號","121.538526666667","24.9583833333333","6500600","新店區"
"231024","3713-VJ","2017/06/16 13:59:22","新北市新店區力行路12號","121.5394","24.9646366666667","6500600","新店區"
"231038","4715-K9","2017/06/16 13:59:30","新北市新店區溪洲路121號","121.531263333333","24.9628633333333","6500600","新店區"
"231036","512-UM","2017/06/16 13:59:33","新北市新店區安祥路109巷6弄47號","121.47553","24.9573166666667","6500600","新店區"
"231023","513-UM","2017/06/16 13:59:30","新北市新店區文中路40號","121.539713333333","24.9566016666667","6500600","新店區"
"231035","515-UM","2017/06/16 13:59:28","新北市新店區安康路二段74號","121.514355","24.9635233333333","6500600","新店區"
"231006","617-UM","2017/06/16 13:59:19","新北市新店區北宜路二段205號","121.553061666667","24.95341","6500600","新店區"
"231001","619-UM","2017/06/16 13:59:17","新北市新店區三民路43號","121.537148333333","24.9709366666667","6500600","新店區"
"231003","641-BX","2017/06/16 13:59:22","新北市新店區中興路一段38號","121.538905","24.959085","6500600","新店區"
"231013","719-UM","2017/06/16 13:59:25","新北市新店區明德路64號","121.541581666667","24.9794016666667","6500600","新店區"
"231032","720-UM","2017/06/16 13:59:21","新北市新店區華城路6號","121.530118333333","24.9604016666667","6500600","新店區"
"231005","897-TW","2017/06/16 13:59:15","新北市新店區中興路三段176號","121.544266666667","24.9811516666667","6500600","新店區"
"231004","899-TW","2017/06/16 13:59:15","新北市新店區北新路二段162號","121.54298","24.9756533333333","6500600","新店區"
"231037","AKT-0513","2017/06/16 13:59:32","新北市新店區安康路三段207巷19號","121.488441666667","24.9508116666667","6500600","新店區"
"235030","003-UY","2017/06/16 13:59:21","新北市中和區水源路6巷22號","121.503163333333","25.0031083333333","6500300","中和區"
"235028","005-UY","2017/06/16 13:59:24","新北市中和區泰和街44巷28號","121.498448333333","25.0008966666667","6500300","中和區"
"235027","006-UY","2017/06/16 13:59:26","新北市中和區中正路464號","121.49012","24.9943516666667","6500300","中和區"
"235020","096-UM","2017/06/16 13:59:28","新北市板橋區三民路二段228號","121.478861666667","25.011415","6500300","中和區"
"235003","097-UM","2017/06/16 13:59:18","新北市中和區景平路64巷13弄22號","121.521525","24.9914833333333","6500300","中和區"
"235029","098-UM","2017/06/16 13:59:24","新北市中和區勝利路35巷3弄17號","121.499725","25.007375","6500300","中和區"
"235004","150-BY","2017/06/16 13:59:16","新北市中和區保健路46巷20弄1號","121.5089","24.99606","6500300","中和區"
"235022","151-BY","2017/06/16 13:59:21","新北市中和區連城路583巷1號","121.478831666667","24.9941883333333","6500300","中和區"
"235019","183-VK","2017/06/16 13:59:17","新北市板橋區民族路276巷3弄4號","121.470003333333","25.0061633333333","6500300","中和區"
"235002","185-VK","2017/06/16 13:59:34","新北市中和區大勇街43巷4號","121.51768","24.994735","6500300","中和區"
"235013","186-VK","2017/06/16 13:59:22","新北市中和區景安路177巷35號","121.506976666667","24.9947666666667","6500300","中和區"
"235031","255-BX","2017/06/16 13:59:24","新北市中和區新生街203號","121.483755","24.99994","6500300","中和區"
"235036","301-VK","2017/06/16 13:59:12","新北市永和區中山路一段336號","121.505975","25.0063983333333","6500300","中和區"
"235007","352-BY","2017/06/16 13:59:22","新北市永和區成功路二段195號","121.52656","24.9963283333333","6500300","中和區"
"235015","376-QA","2017/06/16 13:59:26","新北市中和區忠孝街4號","121.510043333333","24.9827233333333","6500300","中和區"
"235032","377-QA","2017/06/16 13:59:27","新北市中和區圓通路291巷2號","121.495276666667","24.9925633333333","6500300","中和區"
"235025","378-QA","2017/06/16 13:59:23","新北市中和區民治街130巷1號","121.475255","25.0025416666667","6500300","中和區"
"235014","4979-A6","2017/06/16 13:59:28","新北市中和區忠孝街58巷8號","121.511855","24.9833633333333","6500300","中和區"
"235033","4980-A6","2017/06/16 13:59:14","新北市中和區南山路7號","121.502098333333","24.99952","6500300","中和區"
"235006","551-UM","2017/06/16 13:59:28","新北市中和區秀朗路三段50巷2弄7號","121.52592","24.9959033333333","6500300","中和區"
"235034","558-UM","2017/06/16 13:59:24","新北市中和區南山路6號","121.502023333333","24.99867","6500300","中和區"
"235009","565-BX","2017/06/16 13:59:30","新北市中和區景新街320號","121.511585","24.9913133333333","6500300","中和區"
"235018","640-BX","2017/06/16 13:59:28","新北市中和區民享街29-1號","121.47402","25.0042483333333","6500300","中和區"
"235024","647-TV","2017/06/16 13:59:32","新北市中和區中山路三段168號","121.472928333333","25.0064116666667","6500300","中和區"
"235011","732-UM","2017/06/16 13:59:22","新北市中和區興南路二段54巷11弄2號","121.505693333333","24.9856533333333","6500300","中和區"
"235010","733-UM","2017/06/16 13:59:16","新北市中和區興南路二段11號","121.508211666667","24.9861933333333","6500300","中和區"
"235035","783-BX","2017/06/16 13:59:19","新北市中和區立德街56號","121.48837","25.007425","6500300","中和區"
"235026","800-TS","2017/06/16 13:59:20","新北市中和區中山路二段342號","121.493603333333","25.0023233333333","6500300","中和區"
"235021","801-TS","2017/06/16 13:59:26","新北市中和區民安街25巷12弄28號","121.479651666667","24.9997733333333","6500300","中和區"
"235016","805-TS","2017/06/16 13:59:30","新北市中和區興南路二段131-10號","121.504056666667","24.9807933333333","6500300","中和區"
"235012","896-TW","2017/06/16 13:59:27","新北市中和區華新街67號","121.508085","24.9840233333333","6500300","中和區"
"235017","900-TW","2017/06/16 13:59:26","新北市中和區民德路306巷11號","121.466775","24.9953733333333","6500300","中和區"
"235005","157-BY","2017/06/16 13:59:22","新北市中和區永貞路239巷11號","121.512735","25.003275","6500300","中和區"
"235001","AAC-213","2017/06/16 13:59:27","新北市中和區自立路179號","121.523521666667","24.99194","6500300","中和區"
"235023","AAC-215","2017/06/16 13:59:26","新北市中和區圓通路369巷19弄7號","121.49131","24.9884516666667","6500300","中和區"
"220016","013-TV","2017/06/16 13:59:26","新北市板橋區中山路二段467號","121.481908333333","25.0205666666667","6500100","板橋區"
"220013","072-UY","2017/06/16 13:59:24","新北市板橋區漢生東路324號","121.471675","25.00792","6500100","板橋區"
"220034","073-UY","2017/06/16 13:59:33","新北市板橋區中正路236巷5號","121.456105","25.0190833333333","6500100","板橋區"
"220105","075-UY","2017/06/16 13:59:20","新北市板橋區文化路二段28號","121.469115","25.0248033333333","6500100","板橋區"
"220017","AAD-861","2017/06/16 13:59:26","新北市板橋區大華街11號","121.458971666667","25.00617","6500100","板橋區"
"247019","893-R6","2017/06/16 13:59:26","新北市蘆洲區民族路422巷82弄2號","121.473583333333","25.0936433333333","6501400","蘆洲區"
"247009","546-UM","2017/06/16 13:59:16","新北市蘆洲區集賢路224巷14-1號","121.481905","25.08707","6501400","蘆洲區"
"247017","500-BY","2017/06/16 13:59:23","新北市蘆洲區民族路327巷112弄1號","121.475215","25.0897966666667","6501400","蘆洲區"
"247002","402-BY","2017/06/16 13:59:13","新北市蘆洲區民權路5號","121.476596666667","25.0857983333333","6501400","蘆洲區"
"247005","341-TH","2017/06/16 13:59:23","新北市蘆洲區永安南路二段76號","121.46461","25.07821","6501400","蘆洲區"
"247007","339-TH","2017/06/16 13:59:33","新北市三重區永安北路一段13號","121.47618","25.0750016666667","6501400","蘆洲區"
"247001","336-TH","2017/06/16 13:59:26","新北市蘆洲區永平街32巷74號","121.46054","25.093665","6501400","蘆洲區"
"247013","057-VK","2017/06/16 13:59:15","新北市蘆洲區中正路168號","121.468693333333","25.086005","6501400","蘆洲區"
"247003","056-VK","2017/06/16 13:59:25","新北市蘆洲區中華街6號","121.46355","25.0816483333333","6501400","蘆洲區"
"247011","007-UY","2017/06/16 13:59:14","新北市蘆洲區民族路154號","121.479706666667","25.08605","6501400","蘆洲區"
"247015","001-UY","2017/06/16 13:59:29","新北市蘆洲區光華路16號","121.469606666667","25.083555","6501400","蘆洲區"
"208004","AAC-292","2017/06/16 13:59:12","新北市金山區六股里下六股65號","121.614438333333","25.2236533333333","6502700","金山區"
"207001","463-BY","2017/06/16 13:59:25","新北市萬里區磺潭里清水18號","121.63779","25.1977833333333","6502800","萬里區"
"252002","178-VK","2017/06/16 09:51:20","新北市三芝區埔坪里埔頭坑41號","121.504638333333","25.264565","6502100","三芝區"
"236067","105-UM","2017/06/16 13:59:29","新北市土城區員福街50號","121.440476666667","24.979105","6501300","土城區"
"236041","107-UM","2017/06/16 13:59:29","新北市土城區中央路二段134號","121.442008333333","24.9775166666667","6501300","土城區"
"236007","137-TH","2017/06/16 07:11:18","新北市土城區城林路6巷80號","121.438741666667","24.9796166666667","6501300","土城區"
"236077","166-UM","2017/06/16 13:59:31","新北市土城區永寧路35號","121.43007","24.9620583333333","6501300","土城區"
"236029","253-BX","2017/06/16 13:59:16","新北市土城區興城路75號","121.44013","24.97072","6501300","土城區"
"236025","269-VK","2017/06/16 13:59:22","新北市土城區承天路22號","121.439645","24.9632966666667","6501300","土城區"
"236013","270-VK","2017/06/16 13:59:19","新北市土城區城林路6巷80號","121.438195","24.979515","6501300","土城區"
"236035","271-VK","2017/06/16 13:59:28","新北市土城區中央路二段280號","121.440663333333","24.97421","6501300","土城區"
"236019","401-BY","2017/06/16 13:59:31","新北市土城區城林路6巷80號","121.438561666667","24.9798033333333","6501300","土城區"
"236006","498-BY","2017/06/16 13:59:19","新北市土城區中央路一段365巷30弄2號","121.446431666667","24.9799733333333","6501300","土城區"
"236057","912-UM","2017/06/16 13:59:32","新北市土城區大安路2號","121.432811666667","24.9655483333333","6501300","土城區"
"236046","913-UM","2017/06/16 13:59:12","新北市土城區城林路6巷80號","121.438398333333","24.979795","6501300","土城區"
"236061","915-UM","2017/06/16 13:59:26","新北市土城區城林路6巷80號","121.438736666667","24.9796733333333","6501300","土城區"
"236054","AAC-216","2017/06/16 13:59:14","新北市土城區城林路6巷80號","121.438506666667","24.97964","6501300","土城區"
"238020","308-TH","2017/06/16 13:41:04","新北市樹林區育德街121巷5號","121.388826666667","24.968335","6500700","樹林區"
"221038","297-VK","2017/06/16 13:59:22","新北市新店區車子路10-3號","121.504496666667","24.954555","6501100","汐止區"
"221002","753-BX","2017/06/16 13:59:31","台北市文山區新光路二段23巷15號","121.594825","25.0022733333333","6501100","汐止區"
"220027","145-BY","2017/06/16 13:59:20","新北市板橋區民權路260巷1弄6號","121.4581","25.015835","6500100","板橋區"
"220042","146-RM","2017/06/16 13:59:34","新北市板橋區民生路三段46號","121.467368333333","25.0251016666667","6500100","板橋區"
"220028","200-UY","2017/06/16 13:59:30","新北市板橋區大觀路二段265巷3弄29號","121.444053333333","24.9979133333333","6500100","板橋區"
"220030","610-BX","2017/06/16 13:59:13","新北市板橋區篤行路三段8號","121.429306666667","24.9878033333333","6500100","板橋區"
"220050","245-BX","2017/06/16 13:59:18","新北市板橋區文化路二段22號","121.468866666667","25.02443","6500100","板橋區"
"220039","257-TC","2017/06/16 13:59:29","新北市板橋區民生路三段68-1號","121.466743333333","25.0257983333333","6500100","板橋區"
"220020","277-BY","2017/06/16 13:59:32","新北市樹林區樹新路205-3號","121.429646666667","24.9979383333333","6500100","板橋區"
"220012","280-UM","2017/06/16 13:59:21","新北市板橋區縣民大道二段118號","121.467336666667","25.0158216666667","6500100","板橋區"
"220043","283-UM","2017/06/16 13:59:27","新北市板橋區文化路二段76號","121.46945","25.02492","6500100","板橋區"
"220019","283-VK","2017/06/16 13:59:29","新北市板橋區忠孝路176巷21號","121.465118333333","25.0017583333333","6500100","板橋區"
"220038","285-UM","2017/06/16 13:59:29","新北市板橋區文化路二段317號","121.472223333333","25.029745","6500100","板橋區"
"220001","285-VK","2017/06/16 13:59:12","新北市板橋區中山路二段89巷66號","121.473653333333","25.0175516666667","6500100","板橋區"
"220031","286-VK","2017/06/16 13:59:28","新北市板橋區大觀路一段38巷156弄67號","121.442273333333","25.007","6500100","板橋區"
"220029","287-VK","2017/06/16 13:59:22","新北市板橋區光華街19巷76號","121.452696666667","25.0119066666667","6500100","板橋區"
"220009","293-UM","2017/06/16 13:59:23","新北市板橋區永豐街122號","121.47646","25.0208083333333","6500100","板橋區"
"220032","296-UM","2017/06/16 13:59:25","新北市板橋區龍興街63巷1號","121.442813333333","25.0013683333333","6500100","板橋區"
"220023","297-UM","2017/06/16 13:59:33","新北市板橋區南興路52號","121.454395","25.0074266666667","6500100","板橋區"
"220046","299-UM","2017/06/16 13:59:32","新北市板橋區陽明街162號","121.463425","25.02442","6500100","板橋區"
"220004","303-R5","2017/06/16 13:59:16","新北市板橋區信義路116號","121.458365","24.992525","6500100","板橋區"
"220010","305-R5","2017/06/16 13:56:44","新北市板橋區三民路二段228號","121.478741666667","25.0114383333333","6500100","板橋區"
"220041","307-R5","2017/06/16 13:59:24","新北市板橋區漢生東路15號","121.46476","25.0173266666667","6500100","板橋區"
"220047","317-R6","2017/06/16 13:59:32","新北市板橋區民有街34號","121.465953333333","25.025485","6500100","板橋區"
"220037","491-VK","2017/06/16 01:36:41","新北市板橋區民生路二段184號","121.470996666667","25.0200116666667","6500100","板橋區"
"220104","560-BX","2017/06/16 13:59:23","新北市板橋區中正路343號","121.45476","25.0205266666667","6500100","板橋區"
"220052","561-BX","2017/06/16 13:59:26","新北市板橋區縣民大道二段279號","121.470096666667","25.017855","6500100","板橋區"
"220011","609-BX","2017/06/16 13:59:29","新北市板橋區中山路二段229號","121.476843333333","25.017225","6500100","板橋區"
"220040","637-BX","2017/06/16 13:59:22","新北市板橋區莒光路165巷4-4號","121.474043333333","25.023995","6500100","板橋區"
"220005","686-BX","2017/06/16 13:59:30","新北市板橋區館前西路4-1號","121.459185","25.0071366666667","6500100","板橋區"
"220025","687-BX","2017/06/16 13:59:21","新北市板橋區龍興街71巷53號","121.441556666667","25.0026833333333","6500100","板橋區"
"220002","741-BX","2017/06/16 13:59:14","新北市板橋區後埔街41號","121.460591666667","25.00605","6500100","板橋區"
"220003","827-TW","2017/06/16 13:59:31","新北市板橋區中山路一段269號","121.468965","25.01349","6500100","板橋區"
"220014","829-TW","2017/06/16 13:59:27","新北市板橋區三民路二段正隆巷12弄1號","121.478095","25.0129633333333","6500100","板橋區"
"220051","830-TW","2017/06/16 13:59:26","新北市板橋區萬板路706號","121.481493333333","25.027475","6500100","板橋區"
"220045","831-TW","2017/06/16 13:59:27","新北市板橋區莊敬路100號","121.471196666667","25.02437","6500100","板橋區"
"220022","895-R6","2017/06/16 13:59:27","新北市板橋區西門街59號","121.454391666667","25.009175","6500100","板橋區"
"220021","985-R7","2017/06/16 13:59:28","新北市板橋區館前西路152-2號","121.455266666667","25.0084433333333","6500100","板橋區"
"220018","AAC-253","2017/06/16 13:59:28","新北市板橋區四川路一段107-4號","121.459861666667","25.00507","6500100","板橋區"
