"lineid","car","time","location","longitude","latitude","cityid","cityname"
"234048","863-TW","2017/06/16 15:29:19","新北市八里區中華路二段390號","121.402101666667","25.1469316666667","6500400","永和區"
"222005","289-BY","2017/06/16 09:56:55","新北市深坑區深坑街85號","121.614628333333","25.0013033333333","6501800","深坑區"
"231002","002-UM","2017/06/16 15:29:21","新北市新店區力行路15號","121.53686","24.9657816666667","6500600","新店區"
"231025","0291-UT","2017/06/16 15:29:20","新北市新店區中央一街22號","121.527863333333","24.97306","6500600","新店區"
"231028","046-UY","2017/06/16 15:29:28","新北市新店區僑仁路2號","121.499516666667","24.951415","6500600","新店區"
"231030","047-UY","2017/06/16 15:29:24","新北市新店區新和街59巷2號","121.520123333333","24.98565","6500600","新店區"
"231029","106-UY","2017/06/16 15:29:22","新北市新店區安康路三段578-1號","121.481301666667","24.9487033333333","6500600","新店區"
"231018","107-UY","2017/06/16 15:29:14","新北市新店區中央八街110號","121.525965","24.9779833333333","6500600","新店區"
"231012","108-UY","2017/06/16 15:29:26","新北市新店區寶元路一段63巷48號","121.542423333333","24.98661","6500600","新店區"
"231022","187-VK","2017/06/16 15:29:16","新北市新店區新烏路一段231號","121.54905","24.93068","6500600","新店區"
"231026","256-BX","2017/06/16 15:29:19","新北市新店區三民路20巷2號","121.537576666667","24.9707233333333","6500600","新店區"
"231034","268-BY","2017/06/16 15:29:26","新北市新店區富貴街12巷2號","121.494085","24.9493833333333","6500600","新店區"
"231016","AAD-862","2017/06/16 15:29:20","新北市新店區明山路45號","121.563836666667","24.9559483333333","6500600","新店區"
"231038","4715-K9","2017/06/16 15:29:21","新北市新店區安華路28-1號","121.519503333333","24.9605433333333","6500600","新店區"
"231036","512-UM","2017/06/16 15:29:13","新北市新店區安祥路69巷54弄10號","121.482108333333","24.9591816666667","6500600","新店區"
"231023","513-UM","2017/06/16 15:29:30","新北市新店區北新路一段96巷23號","121.542816666667","24.9686933333333","6500600","新店區"
"231035","515-UM","2017/06/16 15:29:28","新北市新店區安興路141號","121.51675","24.9797116666667","6500600","新店區"
"231001","619-UM","2017/06/16 15:29:26","新北市新店區北新路一段99號","121.539085","24.9619966666667","6500600","新店區"
"231003","641-BX","2017/06/16 15:29:22","新北市新店區寶高路120巷1-1號","121.554615","24.9759266666667","6500600","新店區"
"231039","718-UY","2017/06/16 15:29:26","新北市新店區寶元路一段74巷1號","121.544105","24.9840966666667","6500600","新店區"
"231032","720-UM","2017/06/16 15:29:21","新北市新店區裕合街82號","121.490331666667","24.9485683333333","6500600","新店區"
"231005","897-TW","2017/06/16 15:29:26","新北市新店區建國路297號","121.536963333333","24.98634","6500600","新店區"
"231004","899-TW","2017/06/16 15:29:15","新北市新店區民族路105號","121.538436666667","24.9774383333333","6500600","新店區"
"231037","AKT-0513","2017/06/16 15:29:31","新北市新店區安興路91巷28-1號","121.512096666667","24.9746883333333","6500600","新店區"
"241017","063-VK","2017/06/16 15:29:14","新北市三重區重新路四段121號","121.484796666667","25.05197","6500200","三重區"
"241011","270-UM","2017/06/16 15:29:25","新北市三重區重新路四段121號","121.485025","25.0520116666667","6500200","三重區"
"241020","412-TH","2017/06/16 15:29:24","新北市三重區三陽路170-1號","121.481526666667","25.0577766666667","6500200","三重區"
"241014","543-UM","2017/06/16 15:29:15","新北市三重區重新路四段121號","121.485073333333","25.0525216666667","6500200","三重區"
"235036","301-VK","2017/06/16 15:29:12","新北市中和區員山路36巷12號","121.483976666667","24.9909383333333","6500300","中和區"
"235014","4979-A6","2017/06/16 15:29:28","新北市中和區景平路385巷9弄7號","121.502406666667","24.994025","6500300","中和區"
"235033","4980-A6","2017/06/16 15:29:14","新北市中和區員山路226巷3弄14號","121.48188","25.00112","6500300","中和區"
"235034","558-UM","2017/06/16 15:29:24","新北市中和區中正路434號","121.491388333333","24.9942766666667","6500300","中和區"
"235018","640-BX","2017/06/16 15:29:28","新北市中和區連城路607號","121.478163333333","24.9931283333333","6500300","中和區"
"235035","783-BX","2017/06/16 15:29:18","新北市中和區立德街13-9號","121.489736666667","25.0067","6500300","中和區"
"235001","AAC-213","2017/06/16 15:29:27","新北市中和區自立路26號","121.522491666667","24.9930366666667","6500300","中和區"
"235023","AAC-215","2017/06/16 15:29:26","新北市中和區圓通路356-2號","121.484406666667","24.986945","6500300","中和區"
"247002","402-BY","2017/06/16 15:29:13","新北市五股區新五路二段372巷20號","121.447806666667","25.0868633333333","6501400","蘆洲區"
"227011","400-TW","2017/06/16 15:29:25","新北市雙溪區三貂里政光路3-1號","121.850915","25.0631","6502500","雙溪區"
"207003","550-UM","2017/06/16 14:45:57","新北市萬里區萬里里獅頭路23號","121.693808333333","25.1782466666667","6502800","萬里區"
"252002","178-VK","2017/06/16 09:51:20","新北市三芝區埔坪里埔頭坑41號","121.504638333333","25.264565","6502100","三芝區"
"236067","105-UM","2017/06/16 15:29:29","新北市土城區水源街32巷16號","121.441281666667","24.9758866666667","6501300","土城區"
"236041","107-UM","2017/06/16 15:29:09","新北市土城區學府路一段121號","121.455266666667","24.987275","6501300","土城區"
"236007","137-TH","2017/06/16 07:11:18","新北市土城區城林路6巷80號","121.438741666667","24.9796166666667","6501300","土城區"
"236077","166-UM","2017/06/16 15:29:11","新北市土城區中央路四段321巷32-2號","121.411768333333","24.9512516666667","6501300","土城區"
"236029","253-BX","2017/06/16 15:29:16","新北市土城區中央路一段253號","121.445136666667","24.9856566666667","6501300","土城區"
"236025","269-VK","2017/06/16 15:29:22","新北市土城區中央路一段286號","121.443533333333","24.982535","6501300","土城區"
"236013","270-VK","2017/06/16 15:29:19","新北市土城區廣興街15號","121.456048333333","24.9916733333333","6501300","土城區"
"236035","271-VK","2017/06/16 15:29:28","新北市土城區延吉街296巷1弄1號","121.464488333333","24.984355","6501300","土城區"
"236019","401-BY","2017/06/16 15:29:26","新北市土城區峰廷街3號","121.469031666667","24.9873366666667","6501300","土城區"
"236057","912-UM","2017/06/16 15:29:12","新北市土城區中央路二段194號","121.441895","24.9759966666667","6501300","土城區"
"236046","913-UM","2017/06/16 15:29:12","新北市土城區青雲路148號","121.459043333333","24.9832816666667","6501300","土城區"
"236061","915-UM","2017/06/16 15:29:26","新北市土城區延和路116號","121.467415","24.9899683333333","6501300","土城區"
"236054","AAC-216","2017/06/16 15:29:15","新北市土城區延和路40號","121.465108333333","24.988625","6501300","土城區"
"220050","245-BX","2017/06/16 15:29:17","新北市板橋區漢生東路83巷1號","121.466268333333","25.0159683333333","6500100","板橋區"
"220038","285-UM","2017/06/16 15:29:09","新北市板橋區四維路357號","121.462183333333","25.0302783333333","6500100","板橋區"
"220031","286-VK","2017/06/16 15:29:28","新北市板橋區僑中二街106巷16號","121.44516","25.0077616666667","6500100","板橋區"
"220052","561-BX","2017/06/16 15:29:24","新北市板橋區漢生東路53巷29號","121.466641666667","25.0174683333333","6500100","板橋區"
