"lineid","car","time","location","longitude","latitude","cityid","cityname"
"234048","863-TW","2017/06/16 15:49:19","新北市中和區永和路220巷32號","121.492005","25.0083016666667","6500400","永和區"
"222005","289-BY","2017/06/16 09:56:55","新北市深坑區深坑街85號","121.614628333333","25.0013033333333","6501800","深坑區"
"231030","047-UY","2017/06/16 15:49:24","新北市新店區永平街89號","121.51641","24.9855716666667","6500600","新店區"
"231018","107-UY","2017/06/16 15:49:14","新北市新店區復興路102號","121.532075","24.988785","6500600","新店區"
"231012","108-UY","2017/06/16 15:33:26","新北市新店區寶元路一段105號","121.545566666667","24.9831766666667","6500600","新店區"
"231022","187-VK","2017/06/16 15:49:16","新北市新店區光明街119號","121.539071666667","24.9616383333333","6500600","新店區"
"231026","256-BX","2017/06/16 15:49:19","新北市新店區三民路34-1號","121.536485","24.9714316666667","6500600","新店區"
"231034","268-BY","2017/06/16 15:49:25","新北市新店區吉祥街15巷1號","121.49777","24.9456383333333","6500600","新店區"
"231046","278-BY","2017/06/16 15:49:14","新北市新店區安康路一段355-3號","121.519711666667","24.961585","6500600","新店區"
"231016","AAD-862","2017/06/16 15:49:20","新北市新店區中華路28號","121.540231666667","24.9678483333333","6500600","新店區"
"231038","4715-K9","2017/06/16 15:49:21","新北市新店區安康路二段128號","121.512633333333","24.9624433333333","6500600","新店區"
"231036","512-UM","2017/06/16 15:49:13","新北市新店區薏仁坑路自強巷1號","121.497665","24.95767","6500600","新店區"
"231035","515-UM","2017/06/16 15:49:28","新北市新店區安民街365巷7弄2號","121.51592","24.9753416666667","6500600","新店區"
"231001","619-UM","2017/06/16 15:49:17","新北市新店區薏仁坑路自強巷1號","121.49786","24.95766","6500600","新店區"
"231003","641-BX","2017/06/16 15:49:22","新北市新店區寶興路60巷4號","121.549811666667","24.9718116666667","6500600","新店區"
"231039","718-UY","2017/06/16 15:49:26","新北市新店區北宜路一段2號","121.537833333333","24.9586333333333","6500600","新店區"
"231013","719-UM","2017/06/16 15:49:27","新北市新店區永業路81巷5弄33號","121.531061666667","24.9498766666667","6500600","新店區"
"231037","AKT-0513","2017/06/16 15:49:11","新北市新店區安興路105號","121.514728333333","24.9778633333333","6500600","新店區"
"241028","022-UY","2017/06/16 15:49:27","新北市三重區中正南路42號","121.493786666667","25.0600433333333","6500200","三重區"
"241015","062-VK","2017/06/16 15:49:26","新北市三重區重新路四段121號","121.485125","25.0520033333333","6500200","三重區"
"241017","063-VK","2017/06/16 15:49:14","新北市三重區大仁街20-1號","121.491648333333","25.06344","6500200","三重區"
"241024","065-VK","2017/06/16 15:49:28","新北市三重區忠孝路三段84巷1號","121.480286666667","25.0647783333333","6500200","三重區"
"241026","066-VK","2017/06/16 15:49:17","新北市三重區泉州街84巷18號","121.495718333333","25.0542383333333","6500200","三重區"
"241003","091-VK","2017/06/16 15:49:11","新北市三重區泉州街84巷18號","121.495851666667","25.0542983333333","6500200","三重區"
"241005","262-UM","2017/06/16 15:49:31","新北市三重區環河南路261號","121.490458333333","25.0499016666667","6500200","三重區"
"241013","265-UM","2017/06/16 15:49:23","新北市三重區正義北路291號","121.494798333333","25.0706366666667","6500200","三重區"
"241016","266-UM","2017/06/16 15:49:28","新北市三重區重新路四段121號","121.485198333333","25.0520566666667","6500200","三重區"
"241022","267-UM","2017/06/16 15:49:23","新北市三重區重新路四段121號","121.484681666667","25.0518916666667","6500200","三重區"
"241018","268-UM","2017/06/16 15:49:11","新北市三重區重新路三段80號","121.493165","25.0610783333333","6500200","三重區"
"241011","270-UM","2017/06/16 15:49:25","新北市三重區文化北路248號","121.497508333333","25.07006","6500200","三重區"
"241020","412-TH","2017/06/16 15:49:24","新北市三重區忠孝路二段67號","121.484821666667","25.070555","6500200","三重區"
"241014","543-UM","2017/06/16 15:49:15","新北市三重區重新路四段121號","121.485101666667","25.0520383333333","6500200","三重區"
"241023","545-UM","2017/06/16 15:49:19","新北市三重區名源街37巷4號","121.480395","25.0600583333333","6500200","三重區"
"241006","AAD-863","2017/06/16 15:49:23","新北市三重區新北大道一段250號","121.479968333333","25.060985","6500200","三重區"
"241012","887-TS","2017/06/16 15:49:28","新北市三重區自強路一段64號","121.497191666667","25.0667083333333","6500200","三重區"
"241029","942-UM","2017/06/16 15:49:10","新北市三重區正義南路181巷1號","121.499073333333","25.0572016666667","6500200","三重區"
"241033","AAC-255","2017/06/16 15:49:18","新北市三重區光復路一段24號","121.472016666667","25.0472033333333","6500200","三重區"
"235026","800-TS","2017/06/16 15:49:20","新北市中和區永和路191巷5號","121.491321666667","25.0069583333333","6500300","中和區"
"235001","AAC-213","2017/06/16 15:49:27","新北市中和區成功路139號","121.525748333333","24.9904166666667","6500300","中和區"
"235023","AAC-215","2017/06/16 15:49:26","新北市中和區員山路49-11號","121.480098333333","24.9913316666667","6500300","中和區"
"247002","402-BY","2017/06/16 15:49:13","新北市林口區太平里180號","121.366991666667","25.1337583333333","6501400","蘆洲區"
"224007","273-VK","2017/06/16 15:32:12","新北市瑞芳區大寮路356-1號","121.78497","25.1032066666667","6501200","瑞芳區"
"224005","271-BY","2017/06/16 15:48:54","新北市瑞芳區中山路251號","121.79855","25.1089583333333","6501200","瑞芳區"
"227003","642-TC","2017/06/16 15:49:25","新北市雙溪區平林里外平林44號","121.852921666667","25.0363233333333","6502500","雙溪區"
"227011","400-TW","2017/06/16 15:49:25","新北市雙溪區牡丹里中正路54號","121.865423333333","25.04011","6502500","雙溪區"
"207003","550-UM","2017/06/16 14:45:57","新北市萬里區萬里里獅頭路23號","121.693808333333","25.1782466666667","6502800","萬里區"
"252002","178-VK","2017/06/16 09:51:20","新北市三芝區埔坪里埔頭坑41號","121.504638333333","25.264565","6502100","三芝區"
"236067","105-UM","2017/06/16 15:49:29","新北市土城區中山路34號","121.425076666667","24.9640233333333","6501300","土城區"
"236007","137-TH","2017/06/16 07:11:18","新北市土城區城林路6巷80號","121.438741666667","24.9796166666667","6501300","土城區"
"236077","166-UM","2017/06/16 15:49:11","新北市土城區福安街82號","121.418045","24.9642816666667","6501300","土城區"
"236025","269-VK","2017/06/16 15:49:22","新北市土城區中央路一段211巷6弄11號","121.44666","24.986025","6501300","土城區"
"236013","270-VK","2017/06/16 15:49:27","新北市土城區廣明街41巷2弄20號","121.454828333333","24.99356","6501300","土城區"
"236019","401-BY","2017/06/16 15:49:26","新北市土城區延吉街111巷12弄15-3號","121.471543333333","24.9849883333333","6501300","土城區"
"236057","912-UM","2017/06/16 15:49:12","新北市土城區中央路二段49號","121.442768333333","24.9797733333333","6501300","土城區"
"236046","913-UM","2017/06/16 15:49:12","新北市土城區清水路109號","121.457273333333","24.9816883333333","6501300","土城區"
"236054","AAC-216","2017/06/16 15:49:14","新北市土城區中華路一段41-1號","121.445871666667","24.988615","6501300","土城區"
