"lineid","car","time","location","longitude","latitude","cityid","cityname"
"249005","172-UM","2017/06/16 17:09:12","新北市八里區大堀湖28號","121.419885","25.14574","6502300","八里區"
"249001","173-UM","2017/06/16 17:09:18","新北市八里區中華路二段201號","121.405683333333","25.1497733333333","6502300","八里區"
"249004","303-UY","2017/06/16 17:09:20","新北市八里區忠孝路351-1號","121.416725","25.1612616666667","6502300","八里區"
"249002","305-UY","2017/06/16 17:09:08","新北市八里區米倉14號","121.439541666667","25.1498933333333","6502300","八里區"
"249003","593-UM","2017/06/16 17:09:23","新北市八里區中山路二段413號","121.397338333333","25.1462683333333","6502300","八里區"
"244007","080-UY","2017/06/16 17:09:14","新北市林口區菁埔26-68號","121.37655","25.09528","6501700","林口區"
"244019","403-UM","2017/06/16 17:09:16","新北市林口區仁愛路118號","121.382956666667","25.0747633333333","6501700","林口區"
"244023","483-VK","2017/06/16 17:09:11","新北市林口區粉寮路二段30號","121.403021666667","25.08649","6501700","林口區"
"244017","485-VK","2017/06/16 17:05:05","新北市林口區粉寮69號","121.405016666667","25.09085","6501700","林口區"
"244011","701-TV","2017/06/16 17:09:10","新北市林口區粉寮路二段160巷28號","121.405186666667","25.0907916666667","6501700","林口區"
"244021","838-TS","2017/06/16 17:09:11","新北市林口區粉寮路二段66-1號","121.404056666667","25.0877983333333","6501700","林口區"
"222005","289-BY","2017/06/16 09:56:55","新北市深坑區深坑街85號","121.614628333333","25.0013033333333","6501800","深坑區"
"241028","022-UY","2017/06/16 17:09:27","新北市三重區重新路三段110號","121.492261666667","25.060305","6500200","三重區"
"241008","059-VK","2017/06/16 17:09:18","新北市三重區力行路二段136巷9號","121.482016666667","25.0756966666667","6500200","三重區"
"241009","060-VK","2017/06/16 17:09:22","新北市三重區三和路四段219號","121.481808333333","25.0798","6500200","三重區"
"241031","061-VK","2017/06/16 17:09:20","新北市三重區重陽路一段113巷1弄17號","121.487568333333","25.0593983333333","6500200","三重區"
"241015","062-VK","2017/06/16 17:09:26","新北市三重區長生街38號","121.499701666667","25.0664533333333","6500200","三重區"
"241017","063-VK","2017/06/16 17:09:14","新北市三重區中正北路105號","121.4894","25.063185","6500200","三重區"
"241024","065-VK","2017/06/16 17:09:28","新北市三重區大勇街82巷28號","121.479361666667","25.0722483333333","6500200","三重區"
"241026","066-VK","2017/06/16 17:09:19","新北市三重區重新路一段102號","121.501033333333","25.06328","6500200","三重區"
"241002","090-VK","2017/06/16 17:09:21","新北市三重區仁義街225巷5號","121.496856666667","25.0823133333333","6500200","三重區"
"241003","091-VK","2017/06/16 17:09:11","新北市三重區仁義街252號","121.493826666667","25.0859783333333","6500200","三重區"
"241005","262-UM","2017/06/16 17:09:11","新北市三重區仁愛街705號","121.482738333333","25.08067","6500200","三重區"
"241013","265-UM","2017/06/16 17:09:23","新北市三重區仁福街52號","121.497466666667","25.0746233333333","6500200","三重區"
"241016","266-UM","2017/06/16 17:09:08","新北市三重區大仁街23號","121.491826666667","25.06458","6500200","三重區"
"241022","267-UM","2017/06/16 17:09:23","新北市三重區重陽路二段20號","121.486698333333","25.0624366666667","6500200","三重區"
"241018","268-UM","2017/06/16 17:09:11","新北市三重區正義北路332-1號","121.49431","25.0704283333333","6500200","三重區"
"241032","269-UM","2017/06/16 17:09:23","新北市三重區興華街97號","121.484163333333","25.05983","6500200","三重區"
"241011","270-UM","2017/06/16 17:09:24","新北市三重區龍濱路285號","121.501146666667","25.0733183333333","6500200","三重區"
"241025","271-UM","2017/06/16 17:09:13","新北市三重區中正北路560巷38號","121.470948333333","25.0700066666667","6500200","三重區"
"241007","398-BY","2017/06/16 17:09:13","新北市三重區三和路四段163巷33號","121.484283333333","25.07894","6500200","三重區"
"241020","412-TH","2017/06/16 17:09:24","新北市三重區自強路三段72號","121.486826666667","25.0734916666667","6500200","三重區"
"241004","475-VK","2017/06/16 17:09:18","新北市三重區五華街104巷13號","121.491616666667","25.0820916666667","6500200","三重區"
"241019","478-VK","2017/06/16 17:09:12","新北市三重區自強路二段74巷63號","121.487021666667","25.0695","6500200","三重區"
"241030","480-VK","2017/06/16 17:09:07","新北市三重區集成路33號","121.489036666667","25.0525","6500200","三重區"
"241014","543-UM","2017/06/16 17:09:15","新北市三重區介壽路39巷160號","121.50203","25.07066","6500200","三重區"
"241023","545-UM","2017/06/16 17:09:19","新北市三重區忠孝路三段84巷1號","121.480246666667","25.06452","6500200","三重區"
"241001","547-UM","2017/06/16 17:09:12","新北市三重區仁愛街245巷17號","121.494101666667","25.078285","6500200","三重區"
"241006","AAD-863","2017/06/16 17:09:23","新北市三重區三和路四段264巷2弄13號","121.485165","25.0768183333333","6500200","三重區"
"241012","887-TS","2017/06/16 17:09:08","新北市三重區仁壽街168號","121.50025","25.074585","6500200","三重區"
"241029","942-UM","2017/06/16 17:09:10","新北市三重區重安街99-2號","121.493725","25.0554266666667","6500200","三重區"
"241033","AAC-255","2017/06/16 17:09:18","新北市三重區中興北街271號","121.469203333333","25.06063","6500200","三重區"
"235064","005-UY","2017/06/16 17:09:18","新北市中和區員山路36巷16-3號","121.485063333333","24.99133","6500300","中和區"
"235062","800-TS","2017/06/16 16:52:09","新北市中和區員山路36巷16-3號","121.485013333333","24.9914783333333","6500300","中和區"
"247020","893-R6","2017/06/16 17:09:17","新北市蘆洲區仁愛街62巷22號","121.472171666667","25.0943333333333","6501400","蘆洲區"
"247010","546-UM","2017/06/16 17:09:12","新北市蘆洲區民族路38號","121.476711666667","25.0842283333333","6501400","蘆洲區"
"247018","500-BY","2017/06/16 17:09:25","新北市蘆洲區復興路85號","121.476513333333","25.0874583333333","6501400","蘆洲區"
"247006","341-TH","2017/06/16 17:09:25","新北市蘆洲區長安街108巷37號","121.462256666667","25.0826666666667","6501400","蘆洲區"
"247008","339-TH","2017/06/16 17:09:24","新北市蘆洲區信義路30巷73號","121.474868333333","25.0776716666667","6501400","蘆洲區"
"247024","337-TH","2017/06/16 17:09:21","新北市蘆洲區光華路190號","121.464613333333","25.0819283333333","6501400","蘆洲區"
"247002","336-TH","2017/06/16 17:09:22","新北市蘆洲區永樂街83號","121.455895","25.08871","6501400","蘆洲區"
"247013","057-VK","2017/06/16 17:09:09","新北市蘆洲區得勝街50號","121.473255","25.08363","6501400","蘆洲區"
"247004","056-VK","2017/06/16 17:09:27","新北市蘆洲區永安南路二段276號","121.458016666667","25.080905","6501400","蘆洲區"
"247012","007-UY","2017/06/16 17:09:28","新北市蘆洲區信義路268號","121.47811","25.0869516666667","6501400","蘆洲區"
"247022","002-UY","2017/06/16 17:09:12","新北市蘆洲區民族路411號","121.468965","25.0898316666667","6501400","蘆洲區"
"247016","001-UY","2017/06/16 17:09:19","新北市蘆洲區正和街96巷47號","121.467268333333","25.0817866666667","6501400","蘆洲區"
"228002","663-BX","2017/06/16 17:09:18","新北市貢寮區龍崗里嵩陽街38號","121.909211666667","25.0165633333333","6502600","貢寮區"
"228001","670-TC","2017/06/16 17:09:10","新北市貢寮區仁理村研海街62-2號","121.925586666667","25.0453966666667","6502600","貢寮區"
"228003","828-UM","2017/06/16 17:09:08","新北市貢寮區福隆里東興街31-1號","121.952385","25.020675","6502600","貢寮區"
"224010","AGQ-8101","2017/06/16 08:48:06","新北市瑞芳區民權街3-1號","121.809435","25.10824","6501200","瑞芳區"
"224006","676-BX","2017/06/16 17:09:23","新北市瑞芳區大寮路116-1號","121.779446666667","25.0987383333333","6501200","瑞芳區"
"224009","285-BY","2017/06/16 17:09:21","新北市瑞芳區輕便路124號","121.844623333333","25.1121566666667","6501200","瑞芳區"
"224007","273-VK","2017/06/16 17:09:28","新北市瑞芳區粗坑口路100-7號","121.759886666667","25.09932","6501200","瑞芳區"
"224005","271-BY","2017/06/16 17:07:14","新北市瑞芳區南雅路1號","121.895638333333","25.1199016666667","6501200","瑞芳區"
"227003","642-TC","2017/06/16 17:09:24","新北市雙溪區外柑里外柑腳71號","121.807055","25.0176066666667","6502500","雙溪區"
"227011","400-TW","2017/06/16 17:09:25","新北市雙溪區三貂里子崙坑1-6號","121.849858333333","25.05757","6502500","雙溪區"
"251004","009-UM","2017/06/16 17:09:22","新北市淡水區中山路8號","121.444891666667","25.1688816666667","6501000","淡水區"
"251005","010-UM","2017/06/16 17:09:16","新北市淡水區鄧公路23巷1-5號","121.45025","25.169965","6501000","淡水區"
"251002","012-UM","2017/06/16 17:09:19","新北市淡水區中正路二段31號","121.419251666667","25.1818866666667","6501000","淡水區"
"251013","180-VK","2017/06/16 17:09:18","新北市淡水區大埤頭6號","121.482743333333","25.19745","6501000","淡水區"
"251008","181-VK","2017/06/16 17:09:25","新北市淡水區民生路169號","121.46967","25.1421383333333","6501000","淡水區"
"251015","182-VK","2017/06/16 17:09:21","新北市淡水區鄧公路33巷1號","121.451413333333","25.1711866666667","6501000","淡水區"
"251010","413-VK","2017/06/16 17:09:23","新北市淡水區中正路二段31號","121.419481666667","25.1817116666667","6501000","淡水區"
"251012","441-VK","2017/06/16 17:09:23","新北市淡水區新民街一段79號","121.431475","25.18381","6501000","淡水區"
"251006","561-UM","2017/06/16 17:09:15","新北市淡水區新生街30巷13號","121.438955","25.1732883333333","6501000","淡水區"
"251009","575-R6","2017/06/16 17:09:06","新北市淡水區三民街19號","121.438986666667","25.17186","6501000","淡水區"
"251011","650-BX","2017/06/16 17:09:26","新北市淡水區坪頂路52巷2號","121.458048333333","25.1624883333333","6501000","淡水區"
"207003","550-UM","2017/06/16 17:09:21","新北市萬里區萬里里獅頭路23號","121.693271666667","25.1782533333333","6502800","萬里區"
"252002","178-VK","2017/06/16 17:09:13","新北市三芝區智成街120號","121.50601","25.2553433333333","6502100","三芝區"
"236007","137-TH","2017/06/16 07:11:18","新北市土城區城林路6巷80號","121.438741666667","24.9796166666667","6501300","土城區"
"242021","AAC-296","2017/06/16 17:09:16","新北市新莊區新泰路357巷3弄57號","121.44224","25.039405","6500500","新莊區"
"242048","751-BX","2017/06/16 17:09:15","新北市新莊區中正路471號","121.441915","25.0339383333333","6500500","新莊區"
"242025","615-BX","2017/06/16 17:09:13","新北市新莊區新泰路255巷83號","121.442191666667","25.039065","6500500","新莊區"
"242023","613-BX","2017/06/16 17:09:08","新北市新莊區新泰路255巷83號","121.442245","25.038695","6500500","新莊區"
"242027","612-BX","2017/06/16 00:20:20","新北市新莊區新泰路255巷83號","121.442328333333","25.0392483333333","6500500","新莊區"
"242037","566-BX","2017/06/16 17:09:18","新北市新莊區三和路12-14號","121.442311666667","25.0372383333333","6500500","新莊區"
"242041","497-BY","2017/06/16 17:09:19","新北市新莊區三和路12-12號","121.442235","25.0370883333333","6500500","新莊區"
"242005","442-UM","2017/06/16 17:09:27","新北市新莊區三和路12-21號","121.44205","25.038795","6500500","新莊區"
"242046","441-UM","2017/06/16 17:09:20","新北市新莊區三和路12-21號","121.442373333333","25.0379183333333","6500500","新莊區"
"242050","440-UM","2017/06/16 17:09:24","新北市新莊區新泰路357巷3弄37號","121.442036666667","25.0403833333333","6500500","新莊區"
"242032","415-TV","2017/06/16 17:09:10","新北市新莊區新泰路357巷3弄57號","121.442103333333","25.0392533333333","6500500","新莊區"
"242002","413-TV","2017/06/16 17:09:24","新北市新莊區新泰路255巷83號","121.442241666667","25.038865","6500500","新莊區"
"242039","400-BY","2017/06/16 17:09:20","新北市新莊區新泰路357巷3弄1號","121.442421666667","25.041415","6500500","新莊區"
"242060","362-BY","2017/06/16 17:09:15","新北市新莊區新泰路255巷83號","121.442316666667","25.03866","6500500","新莊區"
"242011","132-UY","2017/06/16 17:09:09","新北市新莊區三和路12-21號","121.442105","25.0386966666667","6500500","新莊區"
"242019","135-UY","2017/06/16 17:09:18","新北市新莊區新泰路255巷83號","121.44217","25.0388533333333","6500500","新莊區"
"242044","172-VK","2017/06/16 17:09:14","新北市新莊區中正路471號","121.441775","25.0338933333333","6500500","新莊區"
"242013","175-VK","2017/06/16 17:09:17","新北市新莊區三和路12-21號","121.442135","25.03871","6500500","新莊區"
"242056","176-VK","2017/06/16 17:09:22","新北市新莊區三和路12-21號","121.442248333333","25.0379483333333","6500500","新莊區"
"242034","347-TH","2017/06/16 13:40:38","新北市新莊區三和路12-18號","121.442075","25.0376533333333","6500500","新莊區"
"242017","348-TH","2017/06/16 17:09:10","新北市新莊區新泰路357巷3弄57號","121.442118333333","25.03959","6500500","新莊區"
"242054","349-TH","2017/06/16 17:09:16","新北市新莊區三和路12-16號","121.442226666667","25.03735","6500500","新莊區"
"242015","350-TH","2017/06/16 17:09:21","新北市新莊區新泰路255巷83號","121.442101666667","25.0388966666667","6500500","新莊區"
"242009","351-TH","2017/06/16 17:09:06","新北市新莊區新泰路357巷3弄57號","121.442188333333","25.039345","6500500","新莊區"
"238015","755-BX","2017/06/16 17:09:15","新北市樹林區八德街1148號","121.390778333333","24.9684466666667","6500700","樹林區"
"238023","601-UM","2017/06/16 17:09:24","新北市樹林區八德街828-9號","121.392808333333","24.96858","6500700","樹林區"
"238019","599-UM","2017/06/16 17:09:28","新北市樹林區八德街584號","121.398681666667","24.969975","6500700","樹林區"
"238018","571-TV","2017/06/16 17:09:16","新北市樹林區八德街495-2號","121.401193333333","24.9693216666667","6500700","樹林區"
"238024","5061-A6","2017/06/16 17:09:24","新北市樹林區中洲街41號","121.396885","24.9713333333333","6500700","樹林區"
"238021","311-TH","2017/06/16 17:09:13","新北市樹林區佳園路二段22號","121.39192","24.9634766666667","6500700","樹林區"
"238025","303-VK","2017/06/16 17:09:27","新北市樹林區八德街828-10號","121.392756666667","24.968545","6500700","樹林區"
"238014","282-BY","2017/06/16 17:09:09","新北市樹林區八德街1172號","121.390276666667","24.9683183333333","6500700","樹林區"
"238020","268-VK","2017/06/16 17:09:09","新北市樹林區中洲街30巷6弄18號","121.396983333333","24.970835","6500700","樹林區"
"238026","172-UY","2017/06/16 17:09:16","新北市樹林區八德街328號","121.409326666667","24.9697966666667","6500700","樹林區"
"238016","169-UY","2017/06/16 17:09:05","新北市樹林區中山路二段185-4號","121.404783333333","24.977835","6500700","樹林區"
"239007","AAC-297","2017/06/16 17:09:09","新北市鶯歌區中正一路53號","121.352345","24.95399","6500800","鶯歌區"
"239006","891-R6","2017/06/16 17:09:29","新北市鶯歌區八德路2巷39號","121.336791666667","24.94654","6500800","鶯歌區"
"239008","527-UM","2017/06/16 17:09:25","新北市鶯歌區文化路134號","121.352011666667","24.9514466666667","6500800","鶯歌區"
"239005","526-UM","2017/06/16 17:09:19","新北市鶯歌區德昌二街71號","121.333386666667","24.9580916666667","6500800","鶯歌區"
"239001","417-VK","2017/06/16 17:09:06","新北市鶯歌區尖山路140巷6弄6號","121.346875","24.9489683333333","6500800","鶯歌區"
"239003","360-BY","2017/06/16 17:09:10","新北市鶯歌區八德路16號","121.33065","24.955455","6500800","鶯歌區"
"239002","359-BY","2017/06/16 17:09:12","新北市鶯歌區建國路244號","121.348003333333","24.9535266666667","6500800","鶯歌區"
"239004","193-VK","2017/06/16 17:09:22","新北市鶯歌區文化路324巷1-10號","121.351335","24.9451766666667","6500800","鶯歌區"
