"lineid","car","time","location","longitude","latitude","cityid","cityname"
"234013","149-BY","2017/06/16 18:19:18","新北市永和區福和路1號","121.526466666667","25.0099833333333","6500400","永和區"
"234007","207-UY","2017/06/16 18:19:08","新北市永和區新生路28巷9號","121.508093333333","25.016405","6500400","永和區"
"234081","298-R6","2017/06/16 18:19:18","新北市永和區福和路1號","121.525891666667","25.00927","6500400","永和區"
"234042","862-TW","2017/06/16 18:19:16","新北市永和區福和路1號","121.526128333333","25.0097383333333","6500400","永和區"
"234026","9371-KE","2017/06/16 18:19:12","新北市永和區豫溪街42巷19號","121.515348333333","25.0088983333333","6500400","永和區"
"234011","9373-KE","2017/06/16 18:19:12","新北市永和區保安路36號","121.51042","25.0170016666667","6500400","永和區"
"249005","172-UM","2017/06/16 18:19:12","新北市八里區荖阡坑路15-10號","121.400331666667","25.1401683333333","6502300","八里區"
"249001","173-UM","2017/06/16 18:19:18","新北市八里區龍米路一段135號","121.452081666667","25.1270016666667","6502300","八里區"
"249004","303-UY","2017/06/16 18:19:20","新北市八里區龍米路二段232巷3號","121.431555","25.1589633333333","6502300","八里區"
"249002","305-UY","2017/06/16 18:19:08","新北市八里區龍形二街32號","121.450671666667","25.133085","6502300","八里區"
"249003","593-UM","2017/06/16 18:19:23","新北市八里區松子腳4-3號","121.402956666667","25.14421","6502300","八里區"
"248014","025-BX","2017/06/16 18:19:26","新北市五股區成泰路一段138號","121.43508","25.0755666666667","6501500","五股區"
"248016","026-BX","2017/06/16 18:19:24","新北市五股區成泰路三段493號","121.449285","25.09933","6501500","五股區"
"248006","077-UY","2017/06/16 18:19:04","新北市五股區中興路一段164-1號","121.464216666667","25.0740466666667","6501500","五股區"
"248008","095-VK","2017/06/16 18:19:09","新北市五股區更洲路32巷8弄17號","121.459291666667","25.0796233333333","6501500","五股區"
"248018","225-UY","2017/06/16 18:19:18","新北市五股區御史路205-1號","121.431398333333","25.1004866666667","6501500","五股區"
"248012","247-BX","2017/06/15 21:21:57","新北市五股區中興路二段37巷26號","121.460528333333","25.0749716666667","6501500","五股區"
"248004","677-BX","2017/06/16 18:19:20","新北市五股區成泰路二段149號","121.439126666667","25.0855233333333","6501500","五股區"
"248002","678-BX","2017/06/16 18:19:06","新北市五股區西雲路45號","121.443458333333","25.090865","6501500","五股區"
"248010","682-TV","2017/06/16 18:19:24","新北市五股區成泰路一段189巷5號","121.434605","25.076385","6501500","五股區"
"232011","375-UM","2017/06/16 18:17:44","新北市坪林區坪雙路一段43號","121.711825","24.9425583333333","6502000","坪林區"
"244013","069-UM","2017/06/16 18:19:18","新北市林口區中山路160巷5號","121.390901666667","25.0793333333333","6501700","林口區"
"244007","080-UY","2017/06/16 17:55:14","新北市林口區竹林路153號","121.388648333333","25.079795","6501700","林口區"
"244019","403-UM","2017/06/16 18:19:16","新北市林口區文化一路一段100巷10弄1號","121.373911666667","25.070735","6501700","林口區"
"244023","483-VK","2017/06/16 18:19:11","新北市林口區東湖路206號","121.382976666667","25.0734616666667","6501700","林口區"
"244017","485-VK","2017/06/16 18:19:16","新北市林口區八德路48巷1號","121.366775","25.0662583333333","6501700","林口區"
"244009","656-BX","2017/06/16 18:19:18","新北市林口區中山路303號","121.38396","25.0804133333333","6501700","林口區"
"244011","701-TV","2017/06/16 18:19:10","新北市林口區中正路74巷5弄3號","121.394521666667","25.07791","6501700","林口區"
"244025","837-TS","2017/06/16 18:19:24","新北市林口區南勢七街28-10號","121.355585","25.0690183333333","6501700","林口區"
"244021","838-TS","2017/06/16 18:19:11","新北市林口區自強一街41號","121.398981666667","25.0778","6501700","林口區"
"243013","AAD-798","2017/06/16 18:19:25","新北市泰山區南林路99巷1-1號","121.415353333333","25.0509366666667","6501600","泰山區"
"222005","289-BY","2017/06/16 09:56:55","新北市深坑區深坑街85號","121.614628333333","25.0013033333333","6501800","深坑區"
"222003","436-BY","2017/06/16 18:19:19","新北市深坑區文山路二段3號","121.623088333333","25.0003866666667","6501800","深坑區"
"222002","659-BX","2017/06/16 18:19:10","新北市深坑區雲鄉路15號","121.621771666667","24.99981","6501800","深坑區"
"222001","696-SL","2017/06/16 18:19:19","新北市深坑區北深路二段51號","121.618975","25.004005","6501800","深坑區"
"231041","002-UM","2017/06/16 18:19:11","新北市新店區安華路28-1號","121.519808333333","24.9608116666667","6500600","新店區"
"231056","0291-UT","2017/06/16 18:19:12","新北市新店區環河路116號","121.537108333333","24.966935","6500600","新店區"
"231059","046-UY","2017/06/16 18:19:16","新北市新店區安華路28-1號","121.519505","24.9607316666667","6500600","新店區"
"231060","106-UY","2017/06/16 18:19:22","新北市新店區安華路28-1號","121.519661666667","24.960775","6500600","新店區"
"231051","107-UY","2017/06/16 18:19:11","新北市新店區安華路1-1號","121.519543333333","24.960375","6500600","新店區"
"231048","108-UY","2017/06/16 18:19:18","新北市新店區安華路28-1號","121.519766666667","24.960875","6500600","新店區"
"231053","187-VK","2017/06/16 18:19:16","新北市新店區安康路一段202號","121.524266666667","24.9634483333333","6500600","新店區"
"231057","256-BX","2017/06/16 18:19:04","新北市新店區安華路28-1號","121.519776666667","24.9611716666667","6500600","新店區"
"231063","268-BY","2017/06/16 18:19:25","新北市新店區安華路1-1號","121.519388333333","24.960475","6500600","新店區"
"231046","278-BY","2017/06/16 18:19:13","新北市新店區直潭七街60號","121.532276666667","24.9398933333333","6500600","新店區"
"231058","3712-VJ","2017/06/16 18:19:17","新北市新店區安康路一段35號","121.531843333333","24.960685","6500600","新店區"
"231055","3713-VJ","2017/06/16 18:19:22","新北市新店區安康路一段198號","121.52438","24.96347","6500600","新店區"
"231067","4772-VM","2017/06/16 18:19:19","新北市新店區安華路28-1號","121.51921","24.9606283333333","6500600","新店區"
"231065","512-UM","2017/06/16 18:19:22","新北市新店區安華路28-1號","121.519361666667","24.9613316666667","6500600","新店區"
"231054","513-UM","2017/06/16 18:19:17","新北市新店區安華路28-1號","121.519668333333","24.9611466666667","6500600","新店區"
"231064","515-UM","2017/06/16 16:50:09","新北市新店區安華路28-1號","121.519788333333","24.9610916666667","6500600","新店區"
"231045","617-UM","2017/06/16 18:19:14","新北市新店區安華路28-1號","121.519373333333","24.96099","6500600","新店區"
"231040","619-UM","2017/06/16 18:19:06","新北市新店區安華路28-1號","121.519673333333","24.960975","6500600","新店區"
"231042","641-BX","2017/06/16 18:19:13","新北市新店區安華路1-1號","121.51949","24.9604133333333","6500600","新店區"
"231049","719-UM","2017/06/16 18:19:09","新北市新店區安華路28-1號","121.519495","24.9611283333333","6500600","新店區"
"231062","720-UM","2017/06/16 18:19:06","新北市新店區安康路一段355-3號","121.519451666667","24.9615933333333","6500600","新店區"
"231044","897-TW","2017/06/16 18:19:22","新北市新店區安華路28-1號","121.519795","24.9606266666667","6500600","新店區"
"231043","899-TW","2017/06/16 18:19:24","新北市新店區安華路28-1號","121.519061666667","24.9609533333333","6500600","新店區"
"241013","265-UM","2017/06/16 18:19:23","新北市八里區中山路三段382號","121.36871","25.13583","6500200","三重區"
"241033","AAC-255","2017/06/16 18:19:18","新北市三重區光復路一段68巷19號","121.470373333333","25.0493816666667","6500200","三重區"
"235066","003-UY","2017/06/16 18:19:20","新北市中和區中和路12號","121.499746666667","25.0021016666667","6500300","中和區"
"235064","005-UY","2017/06/16 18:19:18","新北市中和區中正路122號","121.499755","24.9937316666667","6500300","中和區"
"235063","006-UY","2017/06/16 18:19:09","新北市中和區中正路637巷60弄61號","121.485486666667","24.993085","6500300","中和區"
"235056","096-UM","2017/06/16 18:19:16","新北市中和區員山路611巷11弄3號","121.478495","25.0105233333333","6500300","中和區"
"235039","097-UM","2017/06/16 18:19:09","新北市中和區中正路275號","121.495495","24.9937916666667","6500300","中和區"
"235065","098-UM","2017/06/16 18:19:09","新北市中和區橋和路116號","121.491271666667","25.0056233333333","6500300","中和區"
"235040","150-BY","2017/06/16 18:19:13","新北市中和區中正路273-4號","121.495723333333","24.9934233333333","6500300","中和區"
"235058","151-BY","2017/06/16 18:19:11","新北市中和區圓通路367巷2號","121.49133","24.989475","6500300","中和區"
"235055","183-VK","2017/06/16 18:19:15","新北市中和區員山路36巷16-3號","121.485025","24.9913216666667","6500300","中和區"
"235038","185-VK","2017/06/16 18:19:18","新北市中和區大智街26號","121.520991666667","24.992085","6500300","中和區"
"235049","186-VK","2017/06/16 18:19:10","新北市中和區員山路36巷16-8號","121.48541","24.9924683333333","6500300","中和區"
"235072","301-VK","2017/06/16 18:19:11","新北市中和區中正路637巷52弄1號","121.485533333333","24.9935816666667","6500300","中和區"
"235051","376-QA","2017/06/16 18:19:08","新北市中和區復興路319號","121.500945","24.9902666666667","6500300","中和區"
"235061","378-QA","2017/06/16 18:19:23","新北市中和區國光街215巷46號","121.467388333333","24.999795","6500300","中和區"
"235050","4979-A6","2017/06/16 15:46:45","新北市中和區員山路36巷13號","121.48425","24.9912183333333","6500300","中和區"
"235069","4980-A6","2017/06/16 18:19:05","新北市中和區連城路127巷1號","121.496305","24.9990383333333","6500300","中和區"
"235042","551-UM","2017/06/16 18:19:15","新北市中和區景平路123號","121.515411666667","24.99217","6500300","中和區"
"235070","558-UM","2017/06/16 18:19:16","新北市中和區中正路406號","121.492398333333","24.993985","6500300","中和區"
"235045","565-BX","2017/06/16 18:19:07","新北市中和區中正路17巷2號","121.502711666667","24.9931766666667","6500300","中和區"
"235060","647-TV","2017/06/16 18:19:07","新北市中和區員山路75號","121.480793333333","24.9942133333333","6500300","中和區"
"235047","732-UM","2017/06/16 18:13:45","新北市中和區員山路36巷13號","121.48418","24.9909333333333","6500300","中和區"
"235071","783-BX","2017/06/16 18:19:19","新北市中和區員山路36巷16-3號","121.485216666667","24.9912333333333","6500300","中和區"
"235062","800-TS","2017/06/16 18:19:14","新北市中和區橋和路121號","121.492253333333","25.0059666666667","6500300","中和區"
"235057","801-TS","2017/06/16 18:19:22","新北市中和區員山路75號","121.480845","24.9941166666667","6500300","中和區"
"235052","805-TS","2017/06/16 18:19:08","新北市中和區中正路19號","121.502881666667","24.99332","6500300","中和區"
"235037","AAC-213","2017/06/16 18:19:10","新北市中和區景平路149號","121.513985","24.9921316666667","6500300","中和區"
"247006","341-TH","2017/06/16 18:19:25","新北市八里區中山路三段372號","121.368761666667","25.1362466666667","6501400","蘆洲區"
"247014","057-VK","2017/06/16 18:19:09","新北市八里區中山路三段323號","121.37772","25.1388966666667","6501400","蘆洲區"
"226004","205-ST","2017/06/16 18:19:18","新北市平溪區薯榔里一坑路68號","121.712928333333","25.022615","6502400","平溪區"
"228002","663-BX","2017/06/16 18:19:18","新北市貢寮區福連里福興街24-1號","121.991145","25.01207","6502600","貢寮區"
"228001","670-TC","2017/06/16 18:19:10","新北市貢寮區真理里新港街26巷55弄2-1號","121.927345","25.0528733333333","6502600","貢寮區"
"228003","828-UM","2017/06/16 18:19:08","新北市貢寮區真理里美艷山街61-3號","121.923175","25.0697466666667","6502600","貢寮區"
"224006","676-BX","2017/06/16 18:19:04","新北市瑞芳區民權街3-2號","121.808126666667","25.107365","6501200","瑞芳區"
"224002","639-TC","2017/06/16 18:19:13","新北市瑞芳區三爪子坑路151號","121.810595","25.1062766666667","6501200","瑞芳區"
"224011","420-VK","2017/06/16 18:19:04","新北市瑞芳區崙頂路3-1號","121.846955","25.104715","6501200","瑞芳區"
"224009","285-BY","2017/06/16 18:19:21","新北市瑞芳區金光路131號","121.85397","25.10683","6501200","瑞芳區"
"224007","273-VK","2017/06/16 18:19:26","新北市瑞芳區頂埔巷17-1號","121.766461666667","25.1030033333333","6501200","瑞芳區"
"224005","271-BY","2017/06/16 18:19:14","新北市瑞芳區深澳路1號","121.816243333333","25.128375","6501200","瑞芳區"
"227003","642-TC","2017/06/16 18:19:24","新北市雙溪區共和里中山路2號","121.863835","25.0338266666667","6502500","雙溪區"
"227011","400-TW","2017/06/16 18:19:10","新北市雙溪區牡丹里牡丹73號","121.851756666667","25.059345","6502500","雙溪區"
"253006","032-BX","2017/06/16 18:19:05","新北市石門區老梅路91號","121.546571666667","25.289265","6502200","石門區"
"253005","295-VK","2017/06/16 18:19:16","新北市石門區中央路5號","121.566365","25.2915566666667","6502200","石門區"
"208001","742-BX","2017/06/16 18:19:21","新北市金山區自強路11號","121.640386666667","25.2165583333333","6502700","金山區"
"208003","665-BX","2017/06/16 18:19:05","新北市金山區中山路16號","121.641708333333","25.2179883333333","6502700","金山區"
"251004","009-UM","2017/06/16 18:19:03","新北市淡水區民權路227號","121.458153333333","25.13087","6501000","淡水區"
"251005","010-UM","2017/06/16 18:19:16","新北市淡水區中正東路35巷21號","121.44667","25.1689233333333","6501000","淡水區"
"251001","011-UM","2017/06/16 18:19:20","新北市淡水區自強路152號","121.465183333333","25.1337783333333","6501000","淡水區"
"251002","012-UM","2017/06/16 18:19:19","新北市淡水區中正東路一段53號","121.452625","25.1626966666667","6501000","淡水區"
"251013","180-VK","2017/06/16 18:19:18","新北市淡水區行忠路790號","121.473685","25.1996783333333","6501000","淡水區"
"251008","181-VK","2017/06/16 18:19:05","新北市淡水區忠愛街12號","121.457371666667","25.175205","6501000","淡水區"
"251015","182-VK","2017/06/16 18:19:21","新北市淡水區興福寮88巷1號","121.485695","25.16509","6501000","淡水區"
"251010","413-VK","2017/06/16 18:19:23","新北市淡水區淡海路180巷12-2號","121.42043","25.184365","6501000","淡水區"
"251012","441-VK","2017/06/16 18:19:23","新北市淡水區北新路二段77-5號","121.4805","25.1856116666667","6501000","淡水區"
"251006","561-UM","2017/06/16 18:19:15","新北市淡水區新生街51巷30號","121.440726666667","25.1758233333333","6501000","淡水區"
"251009","575-R6","2017/06/16 18:19:26","新北市淡水區崁頂142號","121.431075","25.2057766666667","6501000","淡水區"
"251011","650-BX","2017/06/16 18:19:26","新北市淡水區坪頂路50號","121.457845","25.16251","6501000","淡水區"
"251003","673-BX","2017/06/16 18:19:15","新北市淡水區北新路137號","121.449401666667","25.178885","6501000","淡水區"
"207003","550-UM","2017/06/16 18:19:21","新北市萬里區野柳里港東路62-1號","121.687558333333","25.2038133333333","6502800","萬里區"
"207004","225-TW","2017/06/16 18:19:18","新北市萬里區中幅里中福路39-1號","121.677473333333","25.1660533333333","6502800","萬里區"
"252002","178-VK","2017/06/16 18:19:13","新北市三芝區中山路二段38號","121.503026666667","25.2551666666667","6502100","三芝區"
"252003","249-BX","2017/06/16 18:19:05","新北市三芝區錫板里南勢崗6號","121.479398333333","25.26213","6502100","三芝區"
"252001","292-VK","2017/06/16 18:19:17","新北市三芝區中興街二段2號","121.498268333333","25.2566516666667","6502100","三芝區"
"208002","170-UY","2017/06/16 18:19:20","新北市金山區磺清路135號","121.639403333333","25.2274033333333","6502700","金山區"
"237004","078-UY","2017/06/16 18:19:06","新北市三峽區五寮169號","121.359243333333","24.857585","6500900","三峽區"
"237007","153-BY","2017/06/16 18:19:23","新北市三峽區中正路二段582號","121.359331666667","24.9059483333333","6500900","三峽區"
"237009","210-TH","2017/06/16 18:19:21","新北市三峽區大仁路34巷8號","121.365801666667","24.9381283333333","6500900","三峽區"
"237013","252-BX","2017/06/16 18:19:17","新北市三峽區永安街77巷6號","121.375688333333","24.9293266666667","6500900","三峽區"
"237012","275-BY","2017/06/16 18:19:23","新北市三峽區民生街1巷5-14號","121.378836666667","24.9363133333333","6500900","三峽區"
"237008","302-VK","2017/06/16 18:19:25","新北市三峽區白雞64號","121.386311666667","24.91225","6500900","三峽區"
"237014","433-BY","2017/06/16 18:19:08","新北市三峽區復興路110巷2弄5號","121.372976666667","24.938025","6500900","三峽區"
"237006","5529-G3","2017/06/16 18:19:16","新北市三峽區溪東路240號","121.40826","24.93178","6500900","三峽區"
"237011","572-TV","2017/06/16 18:19:25","新北市三峽區溪東路301號","121.409418333333","24.93106","6500900","三峽區"
"237015","649-BX","2017/06/16 18:19:17","新北市三峽區紫微路42-1號","121.42226","24.9198616666667","6500900","三峽區"
"237010","706-TV","2017/06/16 18:19:17","新北市三峽區復興路489號","121.361021666667","24.9383016666667","6500900","三峽區"
"237005","AKY-6261","2017/06/16 18:19:21","新北市三峽區秀川街82號","121.37078","24.9336083333333","6500900","三峽區"
"236072","105-UM","2017/06/16 18:19:09","新北市土城區明德路一段95號","121.465685","24.9831433333333","6501300","土城區"
"236043","107-UM","2017/06/16 18:19:27","新北市土城區裕生路21巷1弄4號","121.44878","24.9872483333333","6501300","土城區"
"236007","137-TH","2017/06/16 07:11:18","新北市土城區城林路6巷80號","121.438741666667","24.9796166666667","6501300","土城區"
"236079","166-UM","2017/06/16 18:19:16","新北市土城區中央路三段235巷7號","121.429248333333","24.963875","6501300","土城區"
"236031","253-BX","2017/06/16 18:19:24","新北市土城區順風路23號","121.440598333333","24.976515","6501300","土城區"
"236027","269-VK","2017/06/16 18:19:09","新北市土城區承天路18號","121.43949","24.963445","6501300","土城區"
"236015","270-VK","2017/06/16 18:19:23","新北市土城區學府路一段109號","121.4558","24.9876366666667","6501300","土城區"
"236039","271-VK","2017/06/16 18:19:14","新北市土城區青雲路483巷10弄20號","121.459271666667","24.973025","6501300","土城區"
"236022","401-BY","2017/06/16 18:19:08","新北市土城區學士路123號","121.44627","24.9758616666667","6501300","土城區"
"236059","912-UM","2017/06/16 18:19:11","新北市土城區中央路四段201號","121.414588333333","24.9564133333333","6501300","土城區"
"236050","913-UM","2017/06/16 18:19:04","新北市土城區明德路一段375-1號","121.454911666667","24.9781233333333","6501300","土城區"
"236063","915-UM","2017/06/16 18:19:06","新北市土城區金城路二段228號","121.456455","24.982875","6501300","土城區"
"236055","AAC-216","2017/06/16 18:19:25","新北市土城區中華路二段100號","121.438163333333","24.974365","6501300","土城區"
"242021","AAC-296","2017/06/16 18:19:16","新北市新莊區新興街25號","121.450626666667","25.03734","6500500","新莊區"
"242029","986-R7","2017/06/16 18:19:07","新北市泰山區泰林路一段2號","121.442088333333","25.04762","6500500","新莊區"
"242025","615-BX","2017/06/16 18:19:20","新北市新莊區五權一路20號","121.457376666667","25.0649166666667","6500500","新莊區"
"242023","613-BX","2017/06/16 18:19:08","新北市泰山區泰林路一段2號","121.442073333333","25.0478383333333","6500500","新莊區"
"242027","612-BX","2017/06/16 18:19:22","新北市新莊區幸福路755號","121.448245","25.0490933333333","6500500","新莊區"
"242041","497-BY","2017/06/16 18:19:19","新北市新莊區天祥街71巷11號","121.415793333333","25.0290166666667","6500500","新莊區"
"242046","441-UM","2017/06/16 18:19:20","新北市新莊區建福路27號","121.426498333333","25.0289433333333","6500500","新莊區"
"242032","415-TV","2017/06/16 18:19:22","新北市新莊區新泰路357巷1弄51號","121.44278","25.0396066666667","6500500","新莊區"
"242002","413-TV","2017/06/16 18:19:24","新北市新莊區環漢路二段385號","121.451161666667","25.03264","6500500","新莊區"
"242060","362-BY","2017/06/16 18:19:15","新北市新莊區後港一路87號","121.427528333333","25.0267283333333","6500500","新莊區"
"242058","353-BY","2017/06/16 18:19:14","桃園市龜山區萬壽路一段42號","121.408855","25.01917","6500500","新莊區"
"242011","132-UY","2017/06/16 18:19:09","新北市新莊區中港路591巷24號","121.450036666667","25.0524033333333","6500500","新莊區"
"242044","172-VK","2017/06/16 18:19:14","新北市新莊區天泉二街11號","121.415008333333","25.024925","6500500","新莊區"
"242007","173-VK","2017/06/16 18:19:20","新北市新莊區自強街23巷9號","121.454063333333","25.0464133333333","6500500","新莊區"
"242056","176-VK","2017/06/16 18:19:21","新北市新莊區瓊泰路63巷21弄12號","121.442591666667","25.0282983333333","6500500","新莊區"
"242034","347-TH","2017/06/16 18:19:17","新北市新莊區新莊路751巷96號","121.44241","25.030485","6500500","新莊區"
"242054","349-TH","2017/06/16 18:19:16","新北市新莊區民安西路365號","121.4285","25.010415","6500500","新莊區"
"242015","350-TH","2017/06/16 18:19:22","新北市新莊區中平路172號","121.445341666667","25.0477216666667","6500500","新莊區"
"238015","755-BX","2017/06/16 18:19:15","新北市樹林區文德街1巷4號","121.419386666667","24.9911866666667","6500700","樹林區"
"238023","601-UM","2017/06/16 18:19:04","新北市樹林區三福街72號","121.404483333333","25.0162166666667","6500700","樹林區"
"238019","599-UM","2017/06/16 18:19:22","新北市樹林區國凱街136巷22號","121.423613333333","24.97965","6500700","樹林區"
"238018","571-TV","2017/06/16 18:19:16","新北市樹林區樹新路36-4號","121.428005","24.9952266666667","6500700","樹林區"
"238022","312-TH","2017/06/16 18:19:20","新北市樹林區太平路174巷32弄5號","121.417225","24.976635","6500700","樹林區"
"238021","311-TH","2017/06/16 18:19:13","新北市樹林區柑園街二段1號","121.38824","24.9558283333333","6500700","樹林區"
"238025","303-VK","2017/06/16 18:19:27","新北市樹林區保安街二段37號","121.4165","25.0000266666667","6500700","樹林區"
"238017","283-BY","2017/06/16 18:19:05","新北市樹林區中正路825號","121.409338333333","25.0172883333333","6500700","樹林區"
"238014","282-BY","2017/06/16 18:19:09","新北市樹林區潭興街89號","121.424635","24.9984033333333","6500700","樹林區"
"238020","268-VK","2017/06/16 18:19:09","新北市樹林區三龍街92號","121.41445","25.0185183333333","6500700","樹林區"
"238026","172-UY","2017/06/16 18:19:16","新北市樹林區佳園路一段50號","121.392921666667","24.9706683333333","6500700","樹林區"
"238016","169-UY","2017/06/16 18:19:25","新北市樹林區文化街18號","121.419683333333","24.9874816666667","6500700","樹林區"
"239007","AAC-297","2017/06/16 18:19:09","新北市鶯歌區重慶街102號","121.348005","24.9523183333333","6500800","鶯歌區"
"239006","891-R6","2017/06/16 18:19:09","新北市鶯歌區德昌街88號","121.332563333333","24.9601133333333","6500800","鶯歌區"
"239008","527-UM","2017/06/16 18:19:24","新北市鶯歌區朝陽街1號","121.336295","24.9766133333333","6500800","鶯歌區"
"239005","526-UM","2017/06/16 18:19:18","新北市鶯歌區鶯桃路668巷52弄23號","121.32985","24.97034","6500800","鶯歌區"
"239001","417-VK","2017/06/16 18:19:06","新北市鶯歌區國中街171-1號","121.337696666667","24.9388083333333","6500800","鶯歌區"
"239003","360-BY","2017/06/16 18:19:10","新北市鶯歌區福安街58號","121.33561","24.9652266666667","6500800","鶯歌區"
"239002","359-BY","2017/06/16 18:19:12","新北市鶯歌區中正一路168號","121.352556666667","24.956305","6500800","鶯歌區"
"239004","193-VK","2017/06/16 18:19:22","新北市鶯歌區尖山路193號","121.343693333333","24.9466216666667","6500800","鶯歌區"
"221036","130-UY","2017/06/16 18:19:14","新北市汐止區長興街一段11號","121.669588333333","25.0786316666667","6501100","汐止區"
"221015","131-UY","2017/06/16 18:19:12","新北市汐止區鄉長路二段23巷1號","121.667131666667","25.0826266666667","6501100","汐止區"
"221010","269-BY","2017/06/16 18:19:22","新北市汐止區汐萬路三段21號","121.643161666667","25.091885","6501100","汐止區"
"221012","278-VK","2017/06/16 18:19:19","新北市汐止區保長路35巷20號","121.67329","25.0800116666667","6501100","汐止區"
"221023","279-VK","2017/06/16 15:16:31","新北市汐止區汐萬路一段256巷1號","121.651706666667","25.07487","6501100","汐止區"
"221032","280-BY","2017/06/16 18:19:09","新北市汐止區民權街二段109巷14號","121.619518333333","25.04674","6501100","汐止區"
"221027","281-BY","2017/06/16 18:19:15","新北市汐止區和平街25號","121.662696666667","25.0707933333333","6501100","汐止區"
"221038","297-VK","2017/06/16 18:19:24","新北市汐止區環山路24號","121.65713","25.0600133333333","6501100","汐止區"
"221029","298-VK","2017/06/16 18:19:19","新北市汐止區樟樹二路330巷76號","121.643103333333","25.0700916666667","6501100","汐止區"
"221021","299-VK","2017/06/16 17:41:53","新北市汐止區汐萬路一段310號","121.650391666667","25.0747216666667","6501100","汐止區"
"221035","622-UM","2017/06/16 18:19:06","新北市汐止區大同路二段169巷26號","121.650946666667","25.065055","6501100","汐止區"
"221025","623-UM","2017/06/16 18:19:14","新北市汐止區勤進路16號","121.659633333333","25.0615266666667","6501100","汐止區"
"221033","647-BX","2017/06/16 18:19:04","新北市汐止區宜興街48號","121.622336666667","25.042235","6501100","汐止區"
"221002","707-TV","2017/06/16 18:19:14","新北市汐止區福德一路213巷35號","121.635798333333","25.0647266666667","6501100","汐止區"
"221018","753-BX","2017/06/16 18:19:26","新北市汐止區茄苳路72巷9號","121.666673333333","25.0701666666667","6501100","汐止區"
