"lineid","car","time","location","longitude","latitude","cityid","cityname"
"234046","148-BY","2017/06/16 18:59:15","新北市永和區秀朗路二段148巷3弄11號","121.526076666667","25.0011533333333","6500400","永和區"
"234013","149-BY","2017/06/16 18:59:18","新北市永和區信義路14-1號","121.514291666667","25.01206","6500400","永和區"
"234007","207-UY","2017/06/16 18:59:08","新北市永和區中山路一段91巷5號","121.511646666667","25.0105466666667","6500400","永和區"
"234081","298-R6","2017/06/16 18:59:18","新北市永和區永亨路83號","121.521985","25.0056866666667","6500400","永和區"
"234038","336-UY","2017/06/16 18:59:07","新北市永和區民樂街75巷1號","121.527405","24.9969616666667","6500400","永和區"
"234064","337-UY","2017/06/16 18:59:11","新北市永和區秀朗路一段172號","121.518756666667","25.00333","6500400","永和區"
"234086","338-UY","2017/06/16 18:59:07","新北市永和區中正路383號","121.517306666667","25.0038233333333","6500400","永和區"
"234070","552-UM","2017/06/16 18:59:09","新北市永和區中興街52巷1弄2號","121.516933333333","25.0111283333333","6500400","永和區"
"234054","553-UM","2017/06/16 18:59:09","新北市永和區竹林路66巷2號","121.518248333333","25.0133983333333","6500400","永和區"
"234017","745-BX","2017/06/16 18:59:13","新北市永和區永和路二段299號","121.516105","25.016085","6500400","永和區"
"234030","746-BX","2017/06/16 18:59:20","新北市永和區四維街40號","121.525365","24.9981","6500400","永和區"
"234061","AAD-866","2017/06/16 18:59:20","新北市永和區福和路301號","121.516428333333","25.007155","6500400","永和區"
"234042","862-TW","2017/06/16 18:59:16","新北市永和區永貞路308號","121.511911666667","25.0048983333333","6500400","永和區"
"234050","863-TW","2017/06/16 18:59:20","新北市永和區文化路147號","121.510785","25.0161166666667","6500400","永和區"
"234026","9371-KE","2017/06/16 18:59:12","新北市永和區自由街41-1號","121.514108333333","25.0059516666667","6500400","永和區"
"234011","9373-KE","2017/06/16 18:59:12","新北市永和區忠孝街11-1號","121.514821666667","25.0157416666667","6500400","永和區"
"249005","172-UM","2017/06/16 18:59:11","新北市八里區長道坑12-1號","121.395695","25.1208066666667","6502300","八里區"
"249001","173-UM","2017/06/16 18:59:18","新北市八里區龍米路二段203-1號","121.432738333333","25.15833","6502300","八里區"
"248014","025-BX","2017/06/16 18:59:06","新北市五股區成泰路二段252號","121.440545","25.0871766666667","6501500","五股區"
"248016","026-BX","2017/06/16 18:59:06","新北市五股區成泰路三段543巷18號","121.450905","25.102245","6501500","五股區"
"248006","077-UY","2017/06/16 18:59:25","新北市五股區中興路一段24號","121.468723333333","25.0724","6501500","五股區"
"248008","095-VK","2017/06/16 18:59:10","新北市五股區中興路一段118巷6弄1號","121.466205","25.0738916666667","6501500","五股區"
"248018","225-UY","2017/06/16 18:59:18","新北市五股區民義路一段305號","121.421355","25.0961083333333","6501500","五股區"
"248012","247-BX","2017/06/15 21:21:57","新北市五股區中興路二段37巷26號","121.460528333333","25.0749716666667","6501500","五股區"
"248004","677-BX","2017/06/16 18:59:20","新北市五股區民義路二段38號","121.418083333333","25.098155","6501500","五股區"
"248002","678-BX","2017/06/16 18:59:06","新北市五股區凌雲路一段95號","121.45047","25.101565","6501500","五股區"
"248010","682-TV","2017/06/16 18:59:24","新北市五股區水碓九路20號","121.427945","25.0717133333333","6501500","五股區"
"234023","9380-KE","2017/06/16 18:59:05","新北市永和區竹林路75巷45號","121.520836666667","25.01435","6500400","永和區"
"234077","969-R7","2017/06/16 18:59:07","新北市永和區中正路264號","121.516881666667","24.9986466666667","6500400","永和區"
"234074","AAC-211","2017/06/16 18:59:20","新北市永和區豫溪街217巷5號","121.524693333333","25.0095583333333","6500400","永和區"
"234067","AAC-212","2017/06/16 18:59:07","新北市永和區永和路一段22號","121.512948333333","25.0047816666667","6500400","永和區"
"234003","AAC-295","2017/06/16 18:57:16","新北市永和區和平街26號","121.513673333333","25.00993","6500400","永和區"
"232011","375-UM","2017/06/16 18:59:22","新北市坪林區水聳淒坑19-1號","121.712513333333","24.934805","6502000","坪林區"
"244013","069-UM","2017/06/16 18:59:18","新北市林口區文化一路一段133號","121.373903333333","25.0716483333333","6501700","林口區"
"244007","080-UY","2017/06/16 17:55:14","新北市林口區竹林路153號","121.388648333333","25.079795","6501700","林口區"
"244019","403-UM","2017/06/16 18:59:16","新北市林口區麗園二街47巷49號","121.382623333333","25.0695383333333","6501700","林口區"
"244023","483-VK","2017/06/16 18:59:11","新北市林口區文林六街20號","121.37116","25.0806433333333","6501700","林口區"
"244017","485-VK","2017/06/16 18:59:16","新北市林口區公園路59-1號","121.367295","25.0689683333333","6501700","林口區"
"244009","656-BX","2017/06/16 18:59:18","新北市林口區竹林路358巷19號","121.392841666667","25.0839983333333","6501700","林口區"
"244011","701-TV","2017/06/16 18:59:10","新北市林口區仁愛路一段258號","121.394278333333","25.0759183333333","6501700","林口區"
"244025","837-TS","2017/06/16 18:59:04","新北市林口區文化三路一段447巷59-1號","121.36729","25.074885","6501700","林口區"
"243013","AAD-798","2017/06/16 18:59:25","新北市泰山區明志路三段206巷1號","121.423418333333","25.03781","6501600","泰山區"
"243015","380-SR","2017/06/16 18:59:05","新北市泰山區泰林路二段256號","121.43193","25.0623","6501600","泰山區"
"243014","421-VK","2017/06/16 18:59:17","新北市泰山區黎明路17號","121.420831666667","25.0628416666667","6501600","泰山區"
"243010","548-UM","2017/06/16 18:59:22","新北市泰山區明志路一段352巷15弄30號","121.429163333333","25.058765","6501600","泰山區"
"243011","549-UM","2017/06/16 18:59:13","新北市泰山區明志路二段320巷2弄7號","121.426101666667","25.0465716666667","6501600","泰山區"
"243012","646-TV","2017/06/16 18:59:09","新北市泰山區福興三街33號","121.433895","25.0574133333333","6501600","泰山區"
"243016","680-BX","2017/06/16 18:59:20","新北市泰山區明志路二段152-1號","121.427586666667","25.05069","6501600","泰山區"
"222005","289-BY","2017/06/16 09:56:55","新北市深坑區深坑街85號","121.614628333333","25.0013033333333","6501800","深坑區"
"222003","436-BY","2017/06/16 18:59:19","新北市深坑區深南路51-1號","121.621336666667","25.010155","6501800","深坑區"
"222002","659-BX","2017/06/16 18:59:10","新北市深坑區文山路一段31巷2號","121.629825","25.0034116666667","6501800","深坑區"
"222001","696-SL","2017/06/16 18:59:19","新北市深坑區翠谷街17巷3弄9號","121.625325","25.0069166666667","6501800","深坑區"
"231041","002-UM","2017/06/16 18:59:11","新北市新店區環河路29巷1號","121.5367","24.9613083333333","6500600","新店區"
"231056","0291-UT","2017/06/16 18:59:12","新北市新店區大同街5號","121.539463333333","24.9799433333333","6500600","新店區"
"231059","046-UY","2017/06/16 18:59:16","新北市新店區安康路一段361號","121.518153333333","24.964045","6500600","新店區"
"231061","047-UY","2017/06/16 18:59:14","新北市新店區安康路一段323-3號","121.521088333333","24.9637883333333","6500600","新店區"
"231060","106-UY","2017/06/16 18:59:22","新北市新店區車子路10-4號","121.50501","24.9545633333333","6500600","新店區"
"231051","107-UY","2017/06/16 18:59:11","新北市新店區中正路366號","121.535315","24.97609","6500600","新店區"
"231048","108-UY","2017/06/16 18:59:18","新北市新店區德正街27巷29弄36號","121.545841666667","24.9723783333333","6500600","新店區"
"231053","187-VK","2017/06/16 18:59:16","新北市新店區屈尺路6號","121.549326666667","24.92385","6500600","新店區"
"231063","268-BY","2017/06/16 18:59:05","新北市新店區車子路109號","121.50523","24.9521083333333","6500600","新店區"
"231046","278-BY","2017/06/16 18:59:22","新北市新店區直潭四街46號","121.533121666667","24.941405","6500600","新店區"
"231050","AAD-862","2017/06/16 18:59:12","新北市新店區新烏路一段11巷21號","121.547883333333","24.9507666666667","6500600","新店區"
"231058","3712-VJ","2017/06/16 18:59:17","新北市新店區中興路一段180號","121.543141666667","24.96481","6500600","新店區"
"231055","3713-VJ","2017/06/16 18:59:22","新北市新店區新生街13巷26號","121.538953333333","24.966515","6500600","新店區"
"231067","4772-VM","2017/06/16 18:59:19","新北市新店區安康路一段291巷50號","121.523","24.9614416666667","6500600","新店區"
"231065","512-UM","2017/06/16 18:59:22","新北市新店區安祥路110巷17弄7-1號","121.473753333333","24.9547533333333","6500600","新店區"
"231054","513-UM","2017/06/16 18:59:17","新北市新店區新店路43號","121.539558333333","24.952655","6500600","新店區"
"231064","515-UM","2017/06/16 18:59:14","新北市新店區安康路一段302-3號","121.517853333333","24.9640433333333","6500600","新店區"
"231045","617-UM","2017/06/16 18:59:14","新北市新店區光明街55號","121.538658333333","24.9602366666667","6500600","新店區"
"231040","619-UM","2017/06/16 18:59:06","新北市新店區中正路438號","121.534173333333","24.9782616666667","6500600","新店區"
"231042","641-BX","2017/06/16 18:59:13","新北市新店區北新路一段128-3號","121.542411666667","24.9700416666667","6500600","新店區"
"231049","719-UM","2017/06/16 18:59:09","新北市新店區中正路454-5號","121.534458333333","24.9790333333333","6500600","新店區"
"231062","720-UM","2017/06/16 18:59:06","新北市新店區安康路二段320巷6號","121.504981666667","24.959875","6500600","新店區"
"231044","897-TW","2017/06/16 18:59:02","新北市新店區寶中路72號","121.547853333333","24.9806316666667","6500600","新店區"
"231043","899-TW","2017/06/16 18:59:24","新北市新店區北新路二段1號","121.54274","24.97128","6500600","新店區"
"231066","AKT-0513","2017/06/16 18:59:12","新北市新店區安祥路96號","121.488451666667","24.9602316666667","6500600","新店區"
"235066","003-UY","2017/06/16 18:59:20","新北市中和區中山路二段131巷5弄3號","121.502851666667","25.002875","6500300","中和區"
"235064","005-UY","2017/06/16 18:59:18","新北市中和區泰和街12號","121.499785","25.00102","6500300","中和區"
"235063","006-UY","2017/06/16 18:59:09","新北市中和區錦和路91-1號","121.490055","24.995685","6500300","中和區"
"235053","031-BX","2017/06/16 18:59:13","新北市中和區仁愛街36巷14號","121.510798333333","24.987655","6500300","中和區"
"235056","096-UM","2017/06/16 18:59:16","新北市中和區員山路466巷17弄14號","121.480515","25.0073566666667","6500300","中和區"
"235039","097-UM","2017/06/16 18:59:09","新北市中和區宜安路54號","121.511976666667","24.9967933333333","6500300","中和區"
"235065","098-UM","2017/06/16 18:59:09","新北市中和區中山路二段2巷45弄5號","121.50233","25.0065483333333","6500300","中和區"
"235040","150-BY","2017/06/16 18:59:14","新北市中和區宜安路6號","121.513556666667","24.995495","6500300","中和區"
"235058","151-BY","2017/06/16 18:59:11","新北市中和區員山路90號","121.480883333333","24.9944333333333","6500300","中和區"
"235055","183-VK","2017/06/16 18:59:15","新北市中和區德光路93號","121.468998333333","25.0034833333333","6500300","中和區"
"235038","185-VK","2017/06/16 18:59:18","新北市中和區大勇街39號","121.517588333333","24.9944033333333","6500300","中和區"
"235049","186-VK","2017/06/16 18:59:10","新北市中和區景安路167巷28號","121.50672","24.9949083333333","6500300","中和區"
"235067","255-BX","2017/06/16 18:59:06","新北市中和區中正路847號","121.484583333333","25.0026933333333","6500300","中和區"
"235044","293-VK","2017/06/16 18:59:11","新北市中和區中興街129號","121.49997","24.9916133333333","6500300","中和區"
"235072","301-VK","2017/06/16 18:59:11","新北市中和區景平路705號","121.496588333333","25.0035283333333","6500300","中和區"
"235051","376-QA","2017/06/16 18:59:08","新北市中和區忠孝街106巷52-1號","121.513713333333","24.9842633333333","6500300","中和區"
"235068","377-QA","2017/06/16 18:59:17","新北市中和區中正路211巷36弄26號","121.496865","24.992325","6500300","中和區"
"235061","378-QA","2017/06/16 18:59:23","新北市中和區民治街128巷7號","121.474805","25.002875","6500300","中和區"
"235050","4979-A6","2017/06/16 18:57:32","新北市中和區忠孝街13號","121.510036666667","24.9829366666667","6500300","中和區"
"235069","4980-A6","2017/06/16 18:59:05","新北市中和區枋寮街2號","121.502473333333","24.9998166666667","6500300","中和區"
"235042","551-UM","2017/06/16 18:59:15","新北市中和區秀朗路三段128巷36弄2號","121.524813333333","24.9936833333333","6500300","中和區"
"235070","558-UM","2017/06/16 18:59:16","新北市中和區中和路102號","121.502766666667","24.9996916666667","6500300","中和區"
"235045","565-BX","2017/06/16 18:59:07","新北市中和區捷運路57號","121.50913","24.9896316666667","6500300","中和區"
"235054","640-BX","2017/06/16 18:59:19","新北市中和區民享街77號","121.474158333333","25.0018716666667","6500300","中和區"
"235060","647-TV","2017/06/16 18:59:07","新北市中和區中山路三段153號","121.473556666667","25.0061216666667","6500300","中和區"
"235047","732-UM","2017/06/16 18:59:07","新北市中和區興南路二段66號","121.506218333333","24.9848316666667","6500300","中和區"
"235071","783-BX","2017/06/16 18:59:19","新北市中和區員山路36巷16-3號","121.485185","24.9912333333333","6500300","中和區"
"235062","800-TS","2017/06/16 18:59:14","新北市中和區中山路二段356號","121.492868333333","25.00295","6500300","中和區"
"235057","801-TS","2017/06/16 18:59:22","新北市中和區民利街14巷2號","121.480708333333","24.999515","6500300","中和區"
"235052","805-TS","2017/06/16 18:59:07","新北市中和區興南路二段347號","121.500106666667","24.980075","6500300","中和區"
"235012","896-TW","2017/06/16 18:59:13","新北市中和區華新街56號","121.508031666667","24.98399","6500300","中和區"
"235053","900-TW","2017/06/16 18:59:12","新北市中和區民德路290號","121.467573333333","24.9957216666667","6500300","中和區"
"235041","157-BY","2017/06/16 18:59:12","新北市中和區中安街166號","121.510845","25.0001166666667","6500300","中和區"
"235037","AAC-213","2017/06/16 18:59:10","新北市中和區自立路52號","121.523173333333","24.9920716666667","6500300","中和區"
"235059","AAC-215","2017/06/16 18:59:22","新北市中和區圓通路367巷40號","121.492011666667","24.9885666666667","6500300","中和區"
"220068","013-TV","2017/06/16 18:59:05","新北市板橋區中山路二段465巷28號","121.48144","25.0211616666667","6500100","板橋區"
"220065","072-UY","2017/06/16 18:59:18","新北市板橋區民族路247巷9弄46號","121.470886666667","25.00863","6500100","板橋區"
"220086","073-UY","2017/06/16 18:59:22","新北市板橋區大智街20號","121.455733333333","25.0149016666667","6500100","板橋區"
"220106","075-UY","2017/06/16 18:59:12","新北市板橋區文化路二段124巷24號","121.471135","25.0256783333333","6500100","板橋區"
"220069","AAD-861","2017/06/16 18:59:04","新北市板橋區中山路一段72號","121.461646666667","25.0099816666667","6500100","板橋區"
"247006","341-TH","2017/06/16 18:48:26","新北市五股區中興路三段163號","121.449265","25.0808883333333","6501400","蘆洲區"
"247014","057-VK","2017/06/16 18:39:51","新北市五股區中興路三段163號","121.449276666667","25.0807416666667","6501400","蘆洲區"
"226004","205-ST","2017/06/16 18:59:17","新北市平溪區靜安路三段52巷12號","121.763638333333","25.0335116666667","6502400","平溪區"
"228002","663-BX","2017/06/16 18:59:18","新北市貢寮區福隆里東興街106巷25弄1號","121.946383333333","25.0183333333333","6502600","貢寮區"
"228001","670-TC","2017/06/16 18:59:09","新北市貢寮區仁理村研海街12-1號","121.923798333333","25.0516316666667","6502600","貢寮區"
"228003","828-UM","2017/06/16 18:58:48","新北市貢寮區和美里龍洞街40號","121.914268333333","25.1113916666667","6502600","貢寮區"
"224010","AGQ-8101","2017/06/16 18:58:44","新北市瑞芳區汽車路9-7號","121.845145","25.109845","6501200","瑞芳區"
"224006","676-BX","2017/06/16 18:59:23","新北市瑞芳區中正路49號","121.806853333333","25.1071516666667","6501200","瑞芳區"
"224011","420-VK","2017/06/16 18:52:44","新北市瑞芳區崙頂路3-1號","121.84702","25.1046966666667","6501200","瑞芳區"
"224009","285-BY","2017/06/16 18:59:21","新北市瑞芳區山尖路54號","121.856556666667","25.115695","6501200","瑞芳區"
"224007","273-VK","2017/06/16 18:59:06","新北市瑞芳區大埔路270號","121.759381666667","25.1015283333333","6501200","瑞芳區"
"224005","271-BY","2017/06/16 18:59:22","新北市瑞芳區濱二路70號","121.829785","25.1201083333333","6501200","瑞芳區"
"227003","642-TC","2017/06/16 18:59:03","新北市雙溪區平林里康福家園17號","121.858846666667","25.0373533333333","6502500","雙溪區"
"227011","400-TW","2017/06/16 18:59:10","新北市雙溪區牡丹里中正路58巷23號","121.866451666667","25.0416433333333","6502500","雙溪區"
"253006","032-BX","2017/06/16 18:59:25","新北市石門區八甲11-3號","121.522311666667","25.2810516666667","6502200","石門區"
"253005","295-VK","2017/06/16 18:59:16","新北市石門區中山路33號","121.567106666667","25.2909433333333","6502200","石門區"
"208001","742-BX","2017/06/16 18:59:21","新北市金山區中山路79號","121.640415","25.2186516666667","6502700","金山區"
"208003","665-BX","2017/06/16 18:59:05","新北市金山區中正路27號","121.635296666667","25.2221316666667","6502700","金山區"
"251005","010-UM","2017/06/16 18:59:11","新北市淡水區馬偕街28-9號","121.437621666667","25.1729716666667","6501000","淡水區"
"251001","011-UM","2017/06/16 18:59:20","新北市淡水區民權路92巷35號","121.462578333333","25.1261183333333","6501000","淡水區"
"251002","012-UM","2017/06/16 18:59:19","新北市淡水區中正東路71號","121.447123333333","25.1675216666667","6501000","淡水區"
"251013","180-VK","2017/06/16 18:59:18","新北市淡水區頂田寮路1111號","121.490815","25.21328","6501000","淡水區"
"251015","182-VK","2017/06/16 18:59:21","新北市淡水區糞箕湖60號","121.485163333333","25.172345","6501000","淡水區"
"251010","413-VK","2017/06/16 18:59:23","新北市淡水區淡海路111號","121.421701666667","25.1827166666667","6501000","淡水區"
"251006","561-UM","2017/06/16 18:59:15","新北市淡水區崁頂128號","121.432115","25.204955","6501000","淡水區"
"251009","575-R6","2017/06/16 18:59:06","新北市淡水區重建街36號","121.439953333333","25.1712716666667","6501000","淡水區"
"251007","577-R6","2017/06/16 18:58:58","新北市淡水區民生路178號","121.46531","25.1387566666667","6501000","淡水區"
"251011","650-BX","2017/06/16 18:59:10","新北市淡水區中正東路一段2號","121.451985","25.16312","6501000","淡水區"
"251003","673-BX","2017/06/16 18:59:15","新北市淡水區中山北路一段149巷24號","121.442943333333","25.177945","6501000","淡水區"
"207003","550-UM","2017/06/16 18:59:21","新北市萬里區大鵬里頂社1-2號","121.657368333333","25.20972","6502800","萬里區"
"207004","225-TW","2017/06/16 18:59:18","新北市萬里區萬里里獅頭路23號","121.693243333333","25.1782683333333","6502800","萬里區"
"252002","178-VK","2017/06/16 18:59:12","新北市三芝區中正路一段67號","121.504015","25.2572983333333","6502100","三芝區"
"252003","249-BX","2017/06/16 18:59:05","新北市三芝區錫板里海尾15-10號","121.476076666667","25.2566933333333","6502100","三芝區"
"252001","292-VK","2017/06/16 18:59:17","新北市三芝區中興街二段260號","121.501753333333","25.25302","6502100","三芝區"
"208002","170-UY","2017/06/16 18:59:20","新北市金山區信義路27號","121.635725","25.2198583333333","6502700","金山區"
"237004","078-UY","2017/06/16 18:59:06","新北市三峽區有木205-1號","121.439048333333","24.8515616666667","6500900","三峽區"
"237007","153-BY","2017/06/16 18:59:03","新北市三峽區中正路二段245號","121.365996666667","24.91244","6500900","三峽區"
"237013","252-BX","2017/06/16 18:59:16","新北市三峽區光明路69巷25號","121.376668333333","24.9291816666667","6500900","三峽區"
"237012","275-BY","2017/06/16 18:59:03","新北市樹林區佳園路三段540號","121.381246666667","24.944125","6500900","三峽區"
"237008","302-VK","2017/06/16 18:59:25","新北市三峽區中正路一段474-4號","121.370505","24.9212366666667","6500900","三峽區"
"237014","433-BY","2017/06/16 18:59:08","新北市鶯歌區三鶯路5號","121.356885","24.9406433333333","6500900","三峽區"
"237006","5529-G3","2017/06/16 18:59:16","新北市三峽區溪東路215號","121.406243333333","24.9327816666667","6500900","三峽區"
"237011","572-TV","2017/06/16 18:59:25","新北市三峽區介壽路二段91-3號","121.391845","24.9354266666667","6500900","三峽區"
"237015","649-BX","2017/06/16 18:59:17","新北市三峽區建安107-5號","121.456801666667","24.922625","6500900","三峽區"
"237010","706-TV","2017/06/16 18:57:11","新北市三峽區民生街77號","121.374891666667","24.9358666666667","6500900","三峽區"
"237005","AKY-6261","2017/06/16 18:59:21","新北市三峽區中山路459巷163-3號","121.348666666667","24.932895","6500900","三峽區"
"236072","105-UM","2017/06/16 18:59:09","新北市土城區青雲路113號","121.458995","24.98479","6501300","土城區"
"236043","107-UM","2017/06/16 18:59:05","新北市土城區學府路一段229巷11號","121.451793333333","24.9837916666667","6501300","土城區"
"236007","137-TH","2017/06/16 07:11:18","新北市土城區城林路6巷80號","121.438741666667","24.9796166666667","6501300","土城區"
"236079","166-UM","2017/06/16 18:59:16","新北市土城區中央路四段133-1號","121.416051666667","24.9574883333333","6501300","土城區"
"236031","253-BX","2017/06/16 18:59:04","新北市土城區興城路112號","121.440226666667","24.9708633333333","6501300","土城區"
"236027","269-VK","2017/06/16 18:59:15","新北市土城區光明街38號","121.442108333333","24.973605","6501300","土城區"
"236015","270-VK","2017/06/16 18:59:03","新北市土城區延和路13巷8號","121.46378","24.9882533333333","6501300","土城區"
"236039","271-VK","2017/06/16 18:59:20","新北市土城區明德路一段240巷26弄36號","121.461256666667","24.97837","6501300","土城區"
"236022","401-BY","2017/06/16 18:59:08","新北市土城區明峰街50號","121.467691666667","24.9865083333333","6501300","土城區"
"236059","912-UM","2017/06/16 18:59:12","新北市土城區金城路二段12號","121.449223333333","24.9772516666667","6501300","土城區"
"236050","913-UM","2017/06/16 18:59:04","新北市土城區青雲路316號","121.458975","24.978435","6501300","土城區"
"236063","915-UM","2017/06/16 18:59:06","新北市土城區延和路41巷6弄18號","121.466761666667","24.9902116666667","6501300","土城區"
"236055","AAC-216","2017/06/16 18:59:25","新北市土城區裕民路28號","121.447815","24.988525","6501300","土城區"
"242054","349-TH","2017/06/16 18:59:16","新北市樹林區中山路三段202號","121.386626666667","24.968335","6500500","新莊區"
"238023","601-UM","2017/06/16 18:59:04","新北市樹林區工興街5號","121.399641666667","25.01567","6500700","樹林區"
"238019","599-UM","2017/06/16 18:59:20","新北市樹林區東榮街91巷4弄2號","121.41625","24.9820033333333","6500700","樹林區"
"238018","571-TV","2017/06/16 18:59:16","新北市樹林區鎮前街279-5號","121.418526666667","24.98522","6500700","樹林區"
"238024","5061-A6","2017/06/16 18:59:23","新北市樹林區八德街224號","121.415575","24.9718166666667","6500700","樹林區"
"238021","311-TH","2017/06/16 18:59:16","新北市樹林區西圳街二段56號","121.386985","24.9597583333333","6500700","樹林區"
"238025","303-VK","2017/06/16 18:59:10","新北市樹林區中山路三段202號","121.38651","24.9686","6500700","樹林區"
"238017","283-BY","2017/06/16 18:59:05","新北市樹林區光興街44號","121.409926666667","25.00277","6500700","樹林區"
"238014","282-BY","2017/06/16 18:59:22","新北市樹林區潭興街107巷2弄15號","121.42498","24.9995666666667","6500700","樹林區"
"238020","268-VK","2017/06/16 18:59:09","新北市樹林區俊英街190號","121.4259","25.0080433333333","6500700","樹林區"
"238026","172-UY","2017/06/16 18:59:16","新北市樹林區中和街24號","121.390403333333","24.97351","6500700","樹林區"
"238016","169-UY","2017/06/16 18:59:05","新北市樹林區日新街148巷37號","121.419326666667","24.9879233333333","6500700","樹林區"
"239007","AAC-297","2017/06/16 18:59:09","新北市鶯歌區中山路138巷17-5號","121.35132","24.95978","6500800","鶯歌區"
"239006","891-R6","2017/06/16 18:59:09","新北市鶯歌區鶯桃路91巷42弄2號","121.336923333333","24.9520683333333","6500800","鶯歌區"
"239008","527-UM","2017/06/16 18:59:12","新北市鶯歌區國際二路16巷5號","121.337618333333","24.9748533333333","6500800","鶯歌區"
"239005","526-UM","2017/06/16 18:59:18","新北市鶯歌區大湖路361巷36弄20號","121.329856666667","24.9773833333333","6500800","鶯歌區"
"239001","417-VK","2017/06/16 18:59:06","新北市鶯歌區鶯桃路182巷96弄28號","121.340038333333","24.956555","6500800","鶯歌區"
"239003","360-BY","2017/06/16 18:59:10","新北市鶯歌區鶯桃路658巷135號","121.332823333333","24.97139","6500800","鶯歌區"
"239002","359-BY","2017/06/16 18:59:12","新北市鶯歌區西湖街45巷17號","121.33994","24.9591916666667","6500800","鶯歌區"
"239004","193-VK","2017/06/16 18:59:02","新北市鶯歌區中正三路335巷16號","121.32856","24.9347583333333","6500800","鶯歌區"
"221036","130-UY","2017/06/16 18:59:14","新北市汐止區忠孝東路314巷13號","121.664533333333","25.06877","6501100","汐止區"
"221015","131-UY","2017/06/16 18:59:12","新北市汐止區汐萬路一段312號","121.650676666667","25.075365","6501100","汐止區"
"221010","269-BY","2017/06/16 18:59:09","新北市汐止區康寧街901號","121.651386666667","25.075015","6501100","汐止區"
"221012","278-VK","2017/06/16 18:59:19","新北市汐止區康寧街901號","121.65088","25.075345","6501100","汐止區"
"221023","279-VK","2017/06/16 18:59:17","新北市汐止區汐萬路一段310號","121.650178333333","25.0746216666667","6501100","汐止區"
"221032","280-BY","2017/06/16 18:59:09","新北市汐止區橫科路367巷26號","121.623385","25.048285","6501100","汐止區"
"221027","281-BY","2017/06/16 18:46:24","新北市汐止區康寧街901號","121.6509","25.0752883333333","6501100","汐止區"
"221029","298-VK","2017/06/16 18:59:19","新北市汐止區樟樹一路234號","121.642325","25.066745","6501100","汐止區"
"221021","299-VK","2017/06/16 18:58:12","新北市汐止區汐萬路一段256巷3號","121.652693333333","25.0752316666667","6501100","汐止區"
"221025","623-UM","2017/06/16 18:59:14","新北市汐止區康寧街901號","121.651088333333","25.0751516666667","6501100","汐止區"
"221033","647-BX","2017/06/16 18:59:04","新北市汐止區南勢街1巷1號","121.627131666667","25.0375066666667","6501100","汐止區"
"221002","707-TV","2017/06/16 18:59:14","新北市汐止區大同路一段2號","121.62111","25.0549066666667","6501100","汐止區"
"221018","753-BX","2017/06/16 18:59:06","新北市汐止區秀峰路57號","121.659906666667","25.0651433333333","6501100","汐止區"
"220079","145-BY","2017/06/16 18:59:16","新北市板橋區民權路202巷7弄26號","121.459076666667","25.0150016666667","6500100","板橋區"
"220093","146-RM","2017/06/16 18:59:15","新北市板橋區民生路二段210-1號","121.469521666667","25.0213183333333","6500100","板橋區"
"220080","200-UY","2017/06/16 18:59:21","新北市板橋區大觀路二段265巷3弄9號","121.44324","24.9982183333333","6500100","板橋區"
"220082","610-BX","2017/06/16 18:59:07","新北市板橋區篤行路三段87號","121.426718333333","24.9849783333333","6500100","板橋區"
"220101","245-BX","2017/06/16 18:59:11","新北市板橋區文化路二段182巷1弄2號","121.470815","25.0275266666667","6500100","板橋區"
"220090","257-TC","2017/06/16 18:59:18","新北市板橋區四維路130號","121.465276666667","25.02519","6500100","板橋區"
"220072","277-BY","2017/06/16 18:59:22","新北市板橋區篤行路一段10號","121.432115","24.9952933333333","6500100","板橋區"
"220064","280-UM","2017/06/16 18:59:13","新北市板橋區中山路一段185號","121.467728333333","25.0133933333333","6500100","板橋區"
"220094","283-UM","2017/06/16 18:59:17","新北市板橋區莒光路5號","121.469716666667","25.024915","6500100","板橋區"
"220071","283-VK","2017/06/16 18:59:20","新北市板橋區民族路61號","121.464915","25.0088516666667","6500100","板橋區"
"220089","285-UM","2017/06/16 18:59:14","新北市板橋區文化路二段362號","121.473065","25.0306666666667","6500100","板橋區"
"220053","285-VK","2017/06/16 18:59:09","新北市板橋區中山路二段89巷48號","121.473705","25.0172333333333","6500100","板橋區"
"220083","286-VK","2017/06/16 18:59:24","新北市板橋區大觀路一段38巷156弄135號","121.443528333333","25.0084816666667","6500100","板橋區"
"220081","287-VK","2017/06/16 18:59:20","新北市板橋區光華街15巷3號","121.453793333333","25.01179","6500100","板橋區"
"220061","293-UM","2017/06/16 18:59:11","新北市板橋區富山街109巷79號","121.475148333333","25.0210733333333","6500100","板橋區"
"220084","296-UM","2017/06/16 18:59:08","新北市板橋區大觀路二段156巷67號","121.441236666667","25.0003666666667","6500100","板橋區"
"220075","297-UM","2017/06/16 18:59:13","新北市板橋區後菜園街45號","121.456133333333","25.009845","6500100","板橋區"
"220097","299-UM","2017/06/16 18:59:08","新北市板橋區四維路132號","121.465255","25.0251966666667","6500100","板橋區"
"220056","303-R5","2017/06/16 18:59:23","新北市板橋區信義路53號","121.457133333333","24.9958133333333","6500100","板橋區"
"220062","305-R5","2017/06/16 15:21:02","新北市板橋區民生路二段15-1號","121.472806666667","25.0163566666667","6500100","板橋區"
"220092","307-R5","2017/06/16 18:59:22","新北市板橋區縣民大道二段190號","121.469101666667","25.0169383333333","6500100","板橋區"
"220098","317-R6","2017/06/16 18:59:18","新北市板橋區民有街16號","121.466315","25.0249533333333","6500100","板橋區"
"220088","491-VK","2017/06/16 18:58:05","新北市板橋區民生路二段148號","121.471276666667","25.0198733333333","6500100","板橋區"
"220035","560-BX","2017/06/16 18:59:25","新北市板橋區中正路242號","121.455618333333","25.019055","6500100","板橋區"
"220103","561-BX","2017/06/16 18:59:10","新北市板橋區民生路二段123號","121.470648333333","25.0185366666667","6500100","板橋區"
"220063","609-BX","2017/06/16 18:59:23","新北市板橋區中山路二段145號","121.475425","25.016535","6500100","板橋區"
"220091","637-BX","2017/06/16 18:59:11","新北市板橋區莒光路167-4號","121.47416","25.0236766666667","6500100","板橋區"
"220057","686-BX","2017/06/16 18:59:23","新北市板橋區民權路45號","121.462145","25.0112483333333","6500100","板橋區"
"220077","687-BX","2017/06/16 18:59:23","新北市板橋區龍興街37號","121.443005","25.00041","6500100","板橋區"
"220054","741-BX","2017/06/16 18:59:18","新北市板橋區中山路一段10號","121.460103333333","25.0080316666667","6500100","板橋區"
"220055","827-TW","2017/06/16 18:59:16","新北市板橋區中山路一段162號","121.466723333333","25.0122766666667","6500100","板橋區"
"220067","829-TW","2017/06/16 18:59:21","新北市板橋區三民路二段正隆巷12弄15-1號","121.477651666667","25.0134816666667","6500100","板橋區"
"220102","830-TW","2017/06/16 18:59:08","新北市板橋區萬板路710號","121.482001666667","25.0271483333333","6500100","板橋區"
"220096","831-TW","2017/06/16 18:59:17","新北市板橋區莒光路64號","121.471131666667","25.0241916666667","6500100","板橋區"
"220074","895-R6","2017/06/16 18:59:19","新北市板橋區南門街53號","121.457191666667","25.0083416666667","6500100","板橋區"
"220073","985-R7","2017/06/16 18:59:21","新北市板橋區中正路31號","121.456223333333","25.0128966666667","6500100","板橋區"
"220070","AAC-253","2017/06/16 18:59:02","新北市板橋區館前西路60號","121.458075","25.007075","6500100","板橋區"
