"lineid","car","time","location","longitude","latitude","cityid","cityname"
"234046","148-BY","2017/06/16 19:19:15","新北市永和區永元路18巷38弄1號","121.524051666667","25.0002533333333","6500400","永和區"
"234013","149-BY","2017/06/16 19:19:18","新北市永和區信義路39號","121.51332","25.0123233333333","6500400","永和區"
"234007","207-UY","2017/06/16 19:19:08","新北市永和區中山路一段240號","121.507666666667","25.0078833333333","6500400","永和區"
"234081","298-R6","2017/06/16 19:19:18","新北市永和區福和路50號","121.52344","25.0082316666667","6500400","永和區"
"234038","336-UY","2017/06/16 19:19:07","新北市永和區民樂街41巷1號","121.527548333333","25.0001633333333","6500400","永和區"
"234064","337-UY","2017/06/16 19:19:11","新北市永和區永元路17巷6弄2號","121.521395","25.0006916666667","6500400","永和區"
"234086","338-UY","2017/06/16 19:19:07","新北市永和區永利路38號","121.5187","25.0055333333333","6500400","永和區"
"234070","552-UM","2017/06/16 19:19:09","新北市永和區中正路666巷4號","121.516983333333","25.0089916666667","6500400","永和區"
"234054","553-UM","2017/06/16 19:19:09","新北市永和區中興街20號","121.516055","25.0118116666667","6500400","永和區"
"234017","745-BX","2017/06/16 19:19:13","新北市永和區文化路144巷31弄6號","121.512493333333","25.0167733333333","6500400","永和區"
"234030","746-BX","2017/06/16 19:19:20","新北市永和區民生路29號","121.522708333333","24.9984166666667","6500400","永和區"
"234061","AAD-866","2017/06/16 19:19:20","新北市永和區秀朗路一段175號","121.517076666667","25.0036466666667","6500400","永和區"
"234042","862-TW","2017/06/16 19:19:21","新北市永和區保平路151巷13號","121.510468333333","25.005235","6500400","永和區"
"234050","863-TW","2017/06/16 19:19:20","新北市永和區保福路二段88巷13號","121.51115","25.0135633333333","6500400","永和區"
"234026","9371-KE","2017/06/16 19:19:12","新北市永和區安樂路60號","121.515036666667","24.9980766666667","6500400","永和區"
"234011","9373-KE","2017/06/16 19:19:12","新北市永和區保福路二段23巷19號","121.510143333333","25.0112683333333","6500400","永和區"
"249005","172-UM","2017/06/16 19:19:11","新北市八里區中華路三段128號","121.392485","25.1362516666667","6502300","八里區"
"249001","173-UM","2017/06/16 19:19:18","新北市八里區中華路一段307號","121.416373333333","25.1554533333333","6502300","八里區"
"249003","593-UM","2017/06/16 19:19:17","新北市八里區中山路二段466巷22號","121.399018333333","25.1481566666667","6502300","八里區"
"248016","026-BX","2017/06/16 19:19:06","新北市五股區成洲五路12號","121.452353333333","25.10155","6501500","五股區"
"248018","225-UY","2017/06/16 19:19:18","新北市五股區壟路16-1號","121.414748333333","25.0854183333333","6501500","五股區"
"248012","247-BX","2017/06/15 21:21:57","新北市五股區中興路二段37巷26號","121.460528333333","25.0749716666667","6501500","五股區"
"248004","677-BX","2017/06/16 19:19:21","新北市五股區五福路69號","121.432558333333","25.0901033333333","6501500","五股區"
"248002","678-BX","2017/06/16 19:19:06","新北市五股區凌雲路一段158巷13號","121.447785","25.103485","6501500","五股區"
"248010","682-TV","2017/06/16 19:19:04","新北市五股區自強路90巷72號","121.43073","25.0713233333333","6501500","五股區"
"234023","9380-KE","2017/06/16 19:19:05","新北市永和區竹林路100-1號","121.519625","25.0120766666667","6500400","永和區"
"234077","969-R7","2017/06/16 19:19:07","新北市永和區民族街27巷18號","121.519651666667","24.999495","6500400","永和區"
"234074","AAC-211","2017/06/16 19:19:20","新北市永和區竹林路46號","121.517653333333","25.014255","6500400","永和區"
"234067","AAC-212","2017/06/16 19:19:07","新北市永和區保平路50巷8弄12號","121.511531666667","25.0077216666667","6500400","永和區"
"234003","AAC-295","2017/06/16 19:17:16","新北市永和區中山路一段117巷2號","121.510858333333","25.010235","6500400","永和區"
"244013","069-UM","2017/06/16 19:19:19","新北市林口區麗園一街11巷1號","121.376836666667","25.07053","6501700","林口區"
"244007","080-UY","2017/06/16 17:55:14","新北市林口區竹林路153號","121.388648333333","25.079795","6501700","林口區"
"244019","403-UM","2017/06/16 19:19:16","新北市林口區麗園二街12巷3-2號","121.37891","25.06952","6501700","林口區"
"244023","483-VK","2017/06/16 19:19:11","新北市林口區文化三路一段555巷2-99號","121.370096666667","25.0759083333333","6501700","林口區"
"244009","656-BX","2017/06/16 19:19:18","新北市林口區林口路66號","121.390218333333","25.0791716666667","6501700","林口區"
"244011","701-TV","2017/06/16 19:19:10","新北市林口區中山路95號","121.389516666667","25.0786433333333","6501700","林口區"
"244025","837-TS","2017/06/16 19:19:04","新北市林口區寶斗厝坑67-5號","121.338711666667","25.1109783333333","6501700","林口區"
"243013","AAD-798","2017/06/16 19:19:05","新北市泰山區明志路三段165號","121.424791666667","25.0393966666667","6501600","泰山區"
"243009","297-R6","2017/06/16 19:19:10","新北市泰山區和平街13巷12號","121.434426666667","25.06497","6501600","泰山區"
"243015","380-SR","2017/06/16 19:19:05","新北市泰山區公園路27巷2號","121.428815","25.0543633333333","6501600","泰山區"
"243014","421-VK","2017/06/16 19:19:22","新北市泰山區泰林路二段166號","121.433886666667","25.0604816666667","6501600","泰山區"
"243010","548-UM","2017/06/16 19:19:22","新北市泰山區明志路二段32巷2-1號","121.429386666667","25.053525","6501600","泰山區"
"243011","549-UM","2017/06/16 19:19:13","新北市泰山區貴子路15巷6弄2號","121.426761666667","25.0424716666667","6501600","泰山區"
"243012","646-TV","2017/06/16 19:19:09","新北市泰山區同義街49號","121.431773333333","25.0560266666667","6501600","泰山區"
"243016","680-BX","2017/06/16 19:19:20","新北市泰山區工專路10號","121.423923333333","25.03954","6501600","泰山區"
"222005","289-BY","2017/06/16 09:56:55","新北市深坑區深坑街85號","121.614628333333","25.0013033333333","6501800","深坑區"
"222003","436-BY","2017/06/16 19:19:19","新北市深坑區深南路204號","121.626651666667","25.0159916666667","6501800","深坑區"
"222002","659-BX","2017/06/16 19:19:10","新北市深坑區紅葉街10巷1號","121.633003333333","25.0118033333333","6501800","深坑區"
"222001","696-SL","2017/06/16 19:19:19","新北市深坑區北深路二段76號","121.617835","25.0036483333333","6501800","深坑區"
"231041","002-UM","2017/06/16 19:19:11","新北市新店區溪園路245-6號","121.525336666667","24.9832166666667","6500600","新店區"
"231059","046-UY","2017/06/16 19:19:16","新北市新店區安和路三段4號","121.51798","24.980825","6500600","新店區"
"231061","047-UY","2017/06/16 19:19:14","新北市新店區安康路一段266巷4號","121.520205","24.9640266666667","6500600","新店區"
"231060","106-UY","2017/06/16 19:19:22","新北市新店區安康路二段109號","121.512543333333","24.9618616666667","6500600","新店區"
"231051","107-UY","2017/06/16 19:19:11","新北市新店區百忍街88號","121.532905","24.9771233333333","6500600","新店區"
"231048","108-UY","2017/06/16 19:19:18","新北市新店區五峰路60號","121.545781666667","24.9682616666667","6500600","新店區"
"231053","187-VK","2017/06/16 19:19:16","新北市新店區自強路251號","121.548123333333","24.91966","6500600","新店區"
"231063","268-BY","2017/06/16 19:19:05","新北市新店區達觀路16號","121.50297","24.9408366666667","6500600","新店區"
"231046","278-BY","2017/06/16 19:19:13","新北市新店區華城路34-1號","121.52887","24.95638","6500600","新店區"
"231050","AAD-862","2017/06/16 19:19:12","新北市新店區竹林路97巷17號","121.554986666667","24.9491966666667","6500600","新店區"
"231058","3712-VJ","2017/06/16 19:19:17","新北市新店區檳榔路36巷15號","121.541241666667","24.963305","6500600","新店區"
"231055","3713-VJ","2017/06/16 19:19:22","新北市新店區安康路二段414巷2號","121.495915","24.9577833333333","6500600","新店區"
"231067","4772-VM","2017/06/16 19:19:19","新北市新店區安康路二段3-7號","121.51551","24.9636666666667","6500600","新店區"
"231065","512-UM","2017/06/16 19:19:22","新北市新店區安祥路110巷6號","121.474586666667","24.956885","6500600","新店區"
"231054","513-UM","2017/06/16 19:19:17","新北市新店區北宜路一段20號","121.537986666667","24.9570266666667","6500600","新店區"
"231064","515-UM","2017/06/16 19:19:14","新北市新店區安忠路57巷26弄54號","121.51199","24.9575416666667","6500600","新店區"
"231045","617-UM","2017/06/16 19:19:14","新北市新店區北宜路一段260號","121.545676666667","24.952765","6500600","新店區"
"231040","619-UM","2017/06/16 19:19:06","新北市新店區三民路66號","121.53496","24.972315","6500600","新店區"
"231042","641-BX","2017/06/16 19:19:13","新北市新店區北宜路一段3號","121.538456666667","24.9585933333333","6500600","新店區"
"231049","719-UM","2017/06/16 19:19:09","新北市新店區明德路64號","121.541591666667","24.9793966666667","6500600","新店區"
"231062","720-UM","2017/06/16 19:19:12","新北市新店區莒光路85巷8號","121.523505","24.9559366666667","6500600","新店區"
"231044","897-TW","2017/06/16 19:19:22","新北市新店區中興路三段326號","121.542045","24.98632","6500600","新店區"
"231043","899-TW","2017/06/16 19:19:04","新北市新店區寶橋路31號","121.544306666667","24.9742933333333","6500600","新店區"
"231066","AKT-0513","2017/06/16 19:19:12","新北市新店區安康路三段355巷33號","121.484933333333","24.9497533333333","6500600","新店區"
"241009","060-VK","2017/06/16 19:19:17","新北市三重區溪尾街230巷44號","121.486068333333","25.081095","6500200","三重區"
"241031","061-VK","2017/06/16 19:19:20","新北市三重區重新路四段242-1號","121.485655","25.0537016666667","6500200","三重區"
"241026","066-VK","2017/06/16 19:19:19","新北市三重區大同南路194號","121.496843333333","25.0569016666667","6500200","三重區"
"241022","267-UM","2017/06/16 19:19:21","新北市三重區重陽路二段72號","121.487256666667","25.06416","6500200","三重區"
"241032","269-UM","2017/06/16 19:19:03","新北市三重區新生街80號","121.484123333333","25.05937","6500200","三重區"
"241007","398-BY","2017/06/16 19:19:16","新北市三重區慈愛街43號","121.485401666667","25.078835","6500200","三重區"
"241020","412-TH","2017/06/16 19:19:20","新北市三重區大智街181號","121.48965","25.072785","6500200","三重區"
"241035","743-BX","2017/06/16 19:19:16","新北市三重區新北大道一段3-1號","121.49001","25.061455","6500200","三重區"
"241029","942-UM","2017/06/16 19:19:21","新北市三重區集美街238號","121.4924","25.0558033333333","6500200","三重區"
"235066","003-UY","2017/06/16 19:19:20","新北市中和區中和路119號","121.501575","25.0001583333333","6500300","中和區"
"235064","005-UY","2017/06/16 19:19:18","新北市中和區中和路40巷12號","121.499545","25.00127","6500300","中和區"
"235063","006-UY","2017/06/16 19:19:19","新北市中和區連城路249巷17弄2號","121.493865","24.996465","6500300","中和區"
"235053","031-BX","2017/06/16 19:19:13","新北市中和區忠孝街1巷2號","121.50891","24.9832333333333","6500300","中和區"
"235056","096-UM","2017/06/16 19:19:16","新北市中和區中正路1171號","121.481395","25.009405","6500300","中和區"
"235039","097-UM","2017/06/16 19:19:09","新北市中和區景平路64巷13弄3-1號","121.521855","24.991315","6500300","中和區"
"235065","098-UM","2017/06/16 19:19:09","新北市中和區莊敬路33號","121.500896666667","25.0049666666667","6500300","中和區"
"235040","150-BY","2017/06/16 19:19:13","新北市中和區保健路50巷6號","121.510265","24.9967266666667","6500300","中和區"
"235058","151-BY","2017/06/16 19:19:11","新北市中和區連城路477巷6弄19號","121.4823","24.99486","6500300","中和區"
"235055","183-VK","2017/06/16 19:19:15","新北市中和區德光路72號","121.469325","25.0037283333333","6500300","中和區"
"235038","185-VK","2017/06/16 19:19:18","新北市中和區大仁街20巷21號","121.518506666667","24.9933316666667","6500300","中和區"
"235049","186-VK","2017/06/16 19:19:10","新北市中和區景新街228號","121.508115","24.9944433333333","6500300","中和區"
"235067","255-BX","2017/06/16 19:19:06","新北市中和區新生街176巷22號","121.482643333333","24.999955","6500300","中和區"
"235044","293-VK","2017/06/16 19:19:11","新北市中和區中興街208號","121.499735","24.9902283333333","6500300","中和區"
"235072","301-VK","2017/06/16 19:19:11","新北市中和區連城路263-2號","121.491615","24.9962266666667","6500300","中和區"
"235051","376-QA","2017/06/16 19:19:08","新北市中和區仁愛街36巷20號","121.510925","24.9873766666667","6500300","中和區"
"235068","377-QA","2017/06/16 19:19:23","新北市中和區安邦街95號","121.497191666667","24.99613","6500300","中和區"
"235061","378-QA","2017/06/16 19:19:03","新北市中和區民有街61號","121.476321666667","25.0035183333333","6500300","中和區"
"235050","4979-A6","2017/06/16 19:18:12","新北市中和區復興路274巷20號","121.5027","24.99125","6500300","中和區"
"235069","4980-A6","2017/06/16 19:19:05","新北市中和區景平路736巷3弄7號","121.497425","25.0037333333333","6500300","中和區"
"235042","551-UM","2017/06/16 19:19:14","新北市永和區民有街3-2號","121.51596","24.9971716666667","6500300","中和區"
"235070","558-UM","2017/06/16 19:19:16","新北市中和區中和路96號","121.501338333333","25.00042","6500300","中和區"
"235045","565-BX","2017/06/16 19:19:07","新北市中和區景新街424號","121.512951666667","24.988875","6500300","中和區"
"235054","640-BX","2017/06/16 19:19:19","新北市中和區國光街114號","121.469878333333","25.0006983333333","6500300","中和區"
"235060","647-TV","2017/06/16 19:19:07","新北市中和區民有街21號","121.475751666667","25.0052466666667","6500300","中和區"
"235047","732-UM","2017/06/16 19:19:05","新北市中和區景平路239巷59弄17號","121.508931666667","24.991745","6500300","中和區"
"235071","783-BX","2017/06/16 19:19:19","新北市中和區中正路637巷42號","121.485555","24.994445","6500300","中和區"
"235057","801-TS","2017/06/16 19:19:22","新北市中和區民利街87號","121.47822","24.9980666666667","6500300","中和區"
"235052","805-TS","2017/06/16 19:19:10","新北市中和區興南路二段128巷1號","121.503991666667","24.983655","6500300","中和區"
"235012","896-TW","2017/06/16 19:19:13","新北市中和區忠孝街37-1號","121.5108","24.9833866666667","6500300","中和區"
"235053","900-TW","2017/06/16 19:19:12","新北市中和區華福街71巷32號","121.467726666667","24.99697","6500300","中和區"
"235041","157-BY","2017/06/16 19:19:12","新北市中和區宜安路131號","121.50958","24.9981433333333","6500300","中和區"
"235037","AAC-213","2017/06/16 19:19:10","新北市永和區民族街81巷62號","121.520371666667","24.9964166666667","6500300","中和區"
"235059","AAC-215","2017/06/16 19:19:22","新北市中和區錦和路195巷14號","121.491376666667","24.9909716666667","6500300","中和區"
"220068","013-TV","2017/06/16 19:19:08","新北市板橋區林森街1巷6號","121.482258333333","25.02412","6500100","板橋區"
"220065","072-UY","2017/06/16 19:19:18","新北市板橋區民族路219巷67號","121.46836","25.0091416666667","6500100","板橋區"
"220086","073-UY","2017/06/16 19:19:22","新北市板橋區中正路216巷150弄7號","121.460788333333","25.0191883333333","6500100","板橋區"
"220106","075-UY","2017/06/16 19:19:06","新北市板橋區雙十路三段48號","121.47103","25.0313416666667","6500100","板橋區"
"220069","AAD-861","2017/06/16 19:19:04","新北市板橋區華興街59號","121.457401666667","25.0048566666667","6500100","板橋區"
"247006","341-TH","2017/06/16 18:48:26","新北市五股區中興路三段163號","121.449265","25.0808883333333","6501400","蘆洲區"
"247014","057-VK","2017/06/16 19:19:11","新北市蘆洲區三民路165號","121.47132","25.0870683333333","6501400","蘆洲區"
"226004","205-ST","2017/06/16 19:19:17","新北市平溪區靜安路三段392巷3號","121.784421666667","25.0495383333333","6502400","平溪區"
"228002","663-BX","2017/06/16 19:19:18","新北市貢寮區龍門里復興街46-1號","121.928121666667","25.02921","6502600","貢寮區"
"228001","670-TC","2017/06/16 19:19:09","新北市貢寮區真理里新港街10號","121.92552","25.054365","6502600","貢寮區"
"228003","828-UM","2017/06/16 19:18:48","新北市貢寮區和美里和美街22-1號","121.912796666667","25.0826316666667","6502600","貢寮區"
"224010","AGQ-8101","2017/06/16 19:14:44","新北市瑞芳區基山街137號","121.843988333333","25.1083516666667","6501200","瑞芳區"
"224006","676-BX","2017/06/16 19:19:04","新北市瑞芳區中山路152號","121.802323333333","25.10654","6501200","瑞芳區"
"224011","420-VK","2017/06/16 19:19:04","新北市瑞芳區崙頂路1-6號","121.84711","25.1047716666667","6501200","瑞芳區"
"224005","271-BY","2017/06/16 19:19:14","新北市瑞芳區三爪子坑路65號","121.812608333333","25.107325","6501200","瑞芳區"
"227003","642-TC","2017/06/16 19:19:03","新北市雙溪區平林里梅竹蹊43號","121.860126666667","25.0358133333333","6502500","雙溪區"
"227011","400-TW","2017/06/16 19:19:10","新北市雙溪區新基里新基北街33號","121.869413333333","25.038435","6502500","雙溪區"
"253006","032-BX","2017/06/16 19:19:25","新北市石門區楓林23-10號","121.538658333333","25.291105","6502200","石門區"
"253005","295-VK","2017/06/16 19:19:16","新北市石門區阿里荖24號","121.60605","25.2798116666667","6502200","石門區"
"208001","742-BX","2017/06/16 19:19:21","新北市金山區民生路69號","121.640093333333","25.219655","6502700","金山區"
"208003","665-BX","2017/06/16 19:19:14","新北市金山區忠孝一路30號","121.638123333333","25.2198083333333","6502700","金山區"
"251005","010-UM","2017/06/16 19:19:11","新北市淡水區水源街一段29號","121.443166666667","25.1723116666667","6501000","淡水區"
"251001","011-UM","2017/06/16 19:19:20","新北市淡水區民權路99-5號","121.459913333333","25.13792","6501000","淡水區"
"251002","012-UM","2017/06/16 19:18:55","新北市淡水區中正東路71-8號","121.447486666667","25.1675383333333","6501000","淡水區"
"251013","180-VK","2017/06/16 19:19:18","新北市淡水區安子內12號","121.481523333333","25.21908","6501000","淡水區"
"251015","182-VK","2017/06/16 19:19:21","新北市淡水區南勢埔32巷2號","121.484436666667","25.1803233333333","6501000","淡水區"
"251010","413-VK","2017/06/16 19:19:23","新北市淡水區沙崙路30號","121.421488333333","25.1814766666667","6501000","淡水區"
"251006","561-UM","2017/06/16 19:19:15","新北市淡水區大信街33號","121.442025","25.1773066666667","6501000","淡水區"
"251009","575-R6","2017/06/16 19:19:06","新北市淡水區中山路181號","121.441195","25.1741433333333","6501000","淡水區"
"251007","577-R6","2017/06/16 19:17:46","新北市淡水區八勢路50巷12號","121.463388333333","25.1510283333333","6501000","淡水區"
"251011","650-BX","2017/06/16 19:19:10","新北市淡水區中正東路二段143巷2弄1號","121.460668333333","25.1473766666667","6501000","淡水區"
"251002","672-BX","2017/06/16 19:19:22","新北市淡水區學府路60號","121.448613333333","25.1699583333333","6501000","淡水區"
"251003","673-BX","2017/06/16 19:19:15","新北市淡水區中山北路一段204號","121.444638333333","25.1795866666667","6501000","淡水區"
"207003","550-UM","2017/06/16 19:19:21","新北市萬里區大鵬里萬里加投24號","121.649095","25.2077783333333","6502800","萬里區"
"207004","225-TW","2017/06/16 19:19:18","新北市萬里區萬里里瑪鋉路2號","121.687621666667","25.1749966666667","6502800","萬里區"
"252002","178-VK","2017/06/16 19:19:12","新北市三芝區淡金路二段18-1號","121.502633333333","25.2594983333333","6502100","三芝區"
"252003","249-BX","2017/06/16 19:19:05","新北市三芝區埔坪里埔頭坑41號","121.504616666667","25.2646666666667","6502100","三芝區"
"252001","292-VK","2017/06/16 19:19:17","新北市三芝區長勤街9巷9弄2號","121.501748333333","25.255","6502100","三芝區"
"208002","170-UY","2017/06/16 19:19:20","新北市金山區環金路376巷2號","121.631951666667","25.222125","6502700","金山區"
"237004","078-UY","2017/06/16 19:19:06","新北市三峽區有木206號","121.439123333333","24.8515216666667","6500900","三峽區"
"237007","153-BY","2017/06/16 19:19:03","新北市三峽區二鬮路57號","121.359845","24.9077233333333","6500900","三峽區"
"237009","210-TH","2017/06/16 19:19:21","新北市三峽區文化路129號","121.369786666667","24.9360016666667","6500900","三峽區"
"237013","252-BX","2017/06/16 19:19:16","新北市三峽區光明路75巷6號","121.377271666667","24.927975","6500900","三峽區"
"237012","275-BY","2017/06/16 19:19:23","新北市三峽區三樹路222巷254弄69-14號","121.394401666667","24.9434516666667","6500900","三峽區"
"237008","302-VK","2017/06/16 19:19:05","新北市三峽區光明路106巷33號","121.375696666667","24.926985","6500900","三峽區"
"237014","433-BY","2017/06/16 19:19:08","新北市三峽區中山路137號","121.365156666667","24.9361066666667","6500900","三峽區"
"237006","5529-G3","2017/06/16 19:19:15","新北市三峽區大同路14號","121.378051666667","24.9296333333333","6500900","三峽區"
"237011","572-TV","2017/06/16 19:19:04","新北市三峽區中正路一段500號","121.370196666667","24.9206516666667","6500900","三峽區"
"237015","649-BX","2017/06/16 19:19:17","新北市三峽區安坑13-3號","121.443706666667","24.9264916666667","6500900","三峽區"
"237010","706-TV","2017/06/16 19:19:11","新北市三峽區復興路19號","121.37404","24.9361733333333","6500900","三峽區"
"237005","AKY-6261","2017/06/16 19:19:21","新北市三峽區中山路459巷52-1號","121.356445","24.9369166666667","6500900","三峽區"
"236072","105-UM","2017/06/16 19:19:09","新北市土城區裕民路52-1號","121.448511666667","24.9879566666667","6501300","土城區"
"236043","107-UM","2017/06/16 19:19:25","新北市土城區學府路一段276號","121.450121666667","24.9830683333333","6501300","土城區"
"236007","137-TH","2017/06/16 07:11:18","新北市土城區城林路6巷80號","121.438741666667","24.9796166666667","6501300","土城區"
"236079","166-UM","2017/06/16 19:18:56","新北市土城區中央路四段321巷32-2號","121.411853333333","24.9512","6501300","土城區"
"236027","269-VK","2017/06/16 19:19:09","新北市土城區中央路二段177巷17號","121.443683333333","24.9762733333333","6501300","土城區"
"236015","270-VK","2017/06/16 19:19:23","新北市土城區學府路一段23巷28號","121.457676666667","24.98708","6501300","土城區"
"236059","912-UM","2017/06/16 19:19:20","新北市土城區金城路一段21號","121.439848333333","24.9691116666667","6501300","土城區"
"236050","913-UM","2017/06/16 19:19:04","新北市土城區明德路一段398-1號","121.453621666667","24.9790533333333","6501300","土城區"
"238015","755-BX","2017/06/16 19:19:12","新北市樹林區備內街65號","121.410878333333","24.9883383333333","6500700","樹林區"
"238023","601-UM","2017/06/16 19:19:24","新北市樹林區大慶街17號","121.397011666667","25.0143733333333","6500700","樹林區"
"238019","599-UM","2017/06/16 19:19:20","新北市樹林區鎮前街327-2號","121.417011666667","24.9844783333333","6500700","樹林區"
"238018","571-TV","2017/06/16 19:19:16","新北市樹林區太平路48號","121.41904","24.9825483333333","6500700","樹林區"
"238021","311-TH","2017/06/16 19:19:16","新北市樹林區柑園街二段378巷1號","121.3688","24.9498166666667","6500700","樹林區"
"238025","303-VK","2017/06/16 19:19:07","新北市樹林區中山路二段153號","121.406323333333","24.9788916666667","6500700","樹林區"
"238017","283-BY","2017/06/16 19:19:05","新北市樹林區光興街50號","121.409853333333","25.0027483333333","6500700","樹林區"
"238014","282-BY","2017/06/16 19:19:09","新北市樹林區中正路19號","121.427678333333","24.9992916666667","6500700","樹林區"
"238020","268-VK","2017/06/16 19:19:09","新北市樹林區俊英街155巷29號","121.423301666667","25.0122266666667","6500700","樹林區"
"238026","172-UY","2017/06/16 19:19:16","新北市樹林區西圳街一段118巷16號","121.394308333333","24.966105","6500700","樹林區"
"238016","169-UY","2017/06/16 19:19:05","新北市樹林區復興路322巷2號","121.416246666667","24.986835","6500700","樹林區"
"239007","AAC-297","2017/06/16 19:19:09","新北市鶯歌區大湖路326巷2弄18號","121.345861666667","24.9695866666667","6500800","鶯歌區"
"239006","891-R6","2017/06/16 19:19:09","新北市鶯歌區育英街200號","121.347055","24.9511333333333","6500800","鶯歌區"
"239008","527-UM","2017/06/16 19:19:05","新北市鶯歌區大湖路530巷2-2號","121.337618333333","24.9724","6500800","鶯歌區"
"239005","526-UM","2017/06/16 19:19:19","新北市鶯歌區中湖街287號","121.348403333333","24.9767816666667","6500800","鶯歌區"
"239001","417-VK","2017/06/16 19:19:06","新北市鶯歌區建國路588號","121.339956666667","24.9524116666667","6500800","鶯歌區"
"239003","360-BY","2017/06/16 19:19:10","新北市鶯歌區中正二路142號","121.347446666667","24.9501416666667","6500800","鶯歌區"
"239002","359-BY","2017/06/16 19:19:12","新北市鶯歌區大湖路185巷22號","121.342658333333","24.97046","6500800","鶯歌區"
"239004","193-VK","2017/06/16 19:19:22","新北市鶯歌區二甲路中心巷7號","121.337498333333","24.9358783333333","6500800","鶯歌區"
"221036","130-UY","2017/06/16 19:19:14","新北市汐止區汐萬路一段256巷3號","121.65338","25.074755","6501100","汐止區"
"221015","131-UY","2017/06/16 19:19:12","新北市汐止區康寧街901號","121.65162","25.074955","6501100","汐止區"
"221010","269-BY","2017/06/16 19:19:09","新北市汐止區康寧街901號","121.651291666667","25.075055","6501100","汐止區"
"221012","278-VK","2017/06/16 19:19:19","新北市汐止區汐萬路一段160號","121.652565","25.0715883333333","6501100","汐止區"
"221023","279-VK","2017/06/16 19:19:17","新北市汐止區康寧街901號","121.651295","25.0752383333333","6501100","汐止區"
"221027","281-BY","2017/06/16 18:46:24","新北市汐止區康寧街901號","121.6509","25.0752883333333","6501100","汐止區"
"221029","298-VK","2017/06/16 19:19:18","新北市汐止區康寧街901號","121.651638333333","25.0748766666667","6501100","汐止區"
"221021","299-VK","2017/06/16 19:19:12","新北市汐止區康寧街901號","121.651616666667","25.0749516666667","6501100","汐止區"
"221025","623-UM","2017/06/16 19:19:14","新北市汐止區康寧街901號","121.651293333333","25.0750466666667","6501100","汐止區"
"221033","647-BX","2017/06/16 19:19:04","新北市汐止區南勢街3號","121.62708","25.037415","6501100","汐止區"
"221002","707-TV","2017/06/16 19:19:14","新北市汐止區大同路一段312號","121.637041666667","25.0585983333333","6501100","汐止區"
"220079","145-BY","2017/06/16 19:19:24","新北市板橋區民權路302巷14號","121.457863333333","25.0164316666667","6500100","板橋區"
"220093","146-RM","2017/06/16 19:19:25","新北市板橋區文化路一段383號","121.467215","25.02175","6500100","板橋區"
"220080","200-UY","2017/06/16 19:19:15","新北市板橋區大觀路二段5-1號","121.447173333333","25.0038666666667","6500100","板橋區"
"220082","610-BX","2017/06/16 19:19:09","新北市板橋區溪崑二街96巷1號","121.426761666667","24.9889716666667","6500100","板橋區"
"220101","245-BX","2017/06/16 19:19:11","新北市板橋區莊敬路220巷1號","121.472566666667","25.021345","6500100","板橋區"
"220090","257-TC","2017/06/16 19:19:18","新北市板橋區長江路一段106巷13弄28號","121.461111666667","25.0295816666667","6500100","板橋區"
"220072","277-BY","2017/06/16 19:19:02","新北市板橋區金門街337巷5弄1號","121.429955","24.9850833333333","6500100","板橋區"
"220064","280-UM","2017/06/16 19:19:13","新北市板橋區中山路二段17號","121.472178333333","25.015005","6500100","板橋區"
"220094","283-UM","2017/06/16 19:19:17","新北市板橋區吳鳳路19-2號","121.467273333333","25.0307483333333","6500100","板橋區"
"220071","283-VK","2017/06/16 19:19:21","新北市板橋區重慶路245巷50弄28-2號","121.465238333333","24.999735","6500100","板橋區"
"220089","285-UM","2017/06/16 19:19:14","新北市板橋區文化路一段479巷44號","121.467805","25.0228533333333","6500100","板橋區"
"220053","285-VK","2017/06/16 19:19:09","新北市板橋區富山街26號","121.478125","25.0218933333333","6500100","板橋區"
"220083","286-VK","2017/06/16 19:19:06","新北市板橋區大觀路二段174巷173弄11號","121.441255","25.0038716666667","6500100","板橋區"
"220081","287-VK","2017/06/16 19:19:13","新北市板橋區南雅西路二段20號","121.452943333333","25.0094416666667","6500100","板橋區"
"220061","293-UM","2017/06/16 19:19:15","新北市板橋區中山路二段318巷20弄19號","121.480905","25.018825","6500100","板橋區"
"220084","296-UM","2017/06/16 19:19:12","新北市板橋區溪崑二街66巷34號","121.427195","24.9910333333333","6500100","板橋區"
"220075","297-UM","2017/06/16 19:19:13","新北市板橋區中正路275巷91號","121.451683333333","25.0182216666667","6500100","板橋區"
"220097","299-UM","2017/06/16 19:19:08","新北市板橋區漢生西路89巷5弄2號","121.461263333333","25.0191616666667","6500100","板橋區"
"220056","303-R5","2017/06/16 19:19:12","新北市板橋區信義路150巷11號","121.45867","24.99167","6500100","板橋區"
"220062","305-R5","2017/06/16 19:19:23","新北市板橋區三民路2段153巷8弄14-1號","121.481425","25.014865","6500100","板橋區"
"220092","307-R5","2017/06/16 19:19:24","新北市板橋區文化路二段225巷72弄34號","121.468716666667","25.029165","6500100","板橋區"
"220098","317-R6","2017/06/16 19:19:05","新北市板橋區民有街87號","121.464835","25.0275566666667","6500100","板橋區"
"220088","491-VK","2017/06/16 19:18:45","新北市板橋區雙十路二段161號","121.47431","25.0283383333333","6500100","板橋區"
"220035","560-BX","2017/06/16 19:19:25","新北市板橋區中正路360巷29號","121.455521666667","25.023525","6500100","板橋區"
"220103","561-BX","2017/06/16 19:19:10","新北市板橋區介壽街22-1號","121.467683333333","25.0200466666667","6500100","板橋區"
"220063","609-BX","2017/06/16 19:19:07","新北市板橋區三民路二段66號","121.479233333333","25.0172866666667","6500100","板橋區"
"220091","637-BX","2017/06/16 19:19:11","新北市板橋區縣民大道三段185號","121.479466666667","25.0247133333333","6500100","板橋區"
"220057","686-BX","2017/06/16 19:19:23","新北市板橋區國慶路280號","121.463366666667","24.9990166666667","6500100","板橋區"
"220077","687-BX","2017/06/16 19:19:23","新北市板橋區僑中一街2號","121.44933","25.011215","6500100","板橋區"
"220054","741-BX","2017/06/16 19:19:18","新北市板橋區實踐路32巷6號","121.462955","25.0071616666667","6500100","板橋區"
"220055","827-TW","2017/06/16 19:19:16","新北市板橋區館前東路154號","121.464573333333","25.007795","6500100","板橋區"
"220067","829-TW","2017/06/16 19:19:21","新北市板橋區長安街138巷1弄69號","121.474531666667","25.0107466666667","6500100","板橋區"
"220102","830-TW","2017/06/16 19:19:08","新北市板橋區文聖街121號","121.478053333333","25.0289316666667","6500100","板橋區"
"220096","831-TW","2017/06/16 19:19:17","新北市板橋區大同街26巷13號","121.478211666667","25.02688","6500100","板橋區"
"220074","895-R6","2017/06/16 19:19:22","新北市板橋區中正路69巷1弄7號","121.455881666667","25.0137083333333","6500100","板橋區"
"220073","985-R7","2017/06/16 19:19:18","新北市板橋區新生街89巷16號","121.457581666667","25.02241","6500100","板橋區"
"220070","AAC-253","2017/06/16 19:19:06","新北市板橋區忠孝路41-1號","121.46132","25.0020633333333","6500100","板橋區"
