"lineid","car","time","location","longitude","latitude","cityid","cityname"
"234046","148-BY","2017/06/16 19:39:15","新北市永和區秀朗路二段179號","121.525843333333","25.00154","6500400","永和區"
"234013","149-BY","2017/06/16 19:39:18","新北市永和區永平路236號","121.508781666667","25.0110916666667","6500400","永和區"
"234007","207-UY","2017/06/16 19:39:08","新北市中和區中和路472號","121.51233","25.00408","6500400","永和區"
"234081","298-R6","2017/06/16 19:39:20","新北市永和區國中路104巷6號","121.524746666667","25.00687","6500400","永和區"
"234038","336-UY","2017/06/16 19:39:07","新北市永和區民樂街39巷18弄44號","121.528365","24.9989583333333","6500400","永和區"
"234064","337-UY","2017/06/16 19:39:11","新北市永和區秀朗路二段24巷28弄9號","121.519568333333","25.00183","6500400","永和區"
"234086","338-UY","2017/06/16 19:39:07","新北市永和區成功路一段38巷12號","121.5263","25.0046183333333","6500400","永和區"
"234070","552-UM","2017/06/16 19:39:19","新北市永和區竹林路35號","121.517718333333","25.014295","6500400","永和區"
"234054","553-UM","2017/06/16 19:39:23","新北市永和區竹林路39巷21號","121.51892","25.0147666666667","6500400","永和區"
"234017","745-BX","2017/06/16 19:39:14","新北市永和區永和路二段425巷70號","121.513516666667","25.0171916666667","6500400","永和區"
"234030","746-BX","2017/06/16 19:39:20","新北市永和區民生路67巷20號","121.52369","24.9970716666667","6500400","永和區"
"234061","AAD-866","2017/06/16 19:39:20","新北市永和區中正路470號","121.517416666667","25.00317","6500400","永和區"
"234042","862-TW","2017/06/16 19:39:16","新北市永和區中和路305巷2弄2號","121.506636666667","25.00003","6500400","永和區"
"234050","863-TW","2017/06/16 19:39:23","新北市永和區保安路116號","121.509323333333","25.0157","6500400","永和區"
"234026","9371-KE","2017/06/16 19:39:12","新北市永和區中和路501巷6號","121.51058","25.002615","6500400","永和區"
"234011","9373-KE","2017/06/16 19:39:12","新北市永和區保生路55號","121.504715","25.0105833333333","6500400","永和區"
"249004","303-UY","2017/06/16 19:39:09","新北市八里區中山路一段268巷28號","121.414631666667","25.160635","6502300","八里區"
"249002","305-UY","2017/06/16 19:39:07","新北市八里區頂寮二街28號","121.450576666667","25.125285","6502300","八里區"
"249003","593-UM","2017/06/16 19:39:17","新北市八里區華峰三街31號","121.399305","25.1458816666667","6502300","八里區"
"248014","025-BX","2017/06/16 19:39:14","新北市五股區工商路166號","121.433555","25.0881466666667","6501500","五股區"
"248008","095-VK","2017/06/16 19:39:09","新北市五股區四維路118巷10弄2號","121.468768333333","25.0742933333333","6501500","五股區"
"248018","225-UY","2017/06/16 19:37:38","新北市五股區外寮路1-5號","121.426213333333","25.0769983333333","6501500","五股區"
"248012","247-BX","2017/06/15 21:21:57","新北市五股區中興路二段37巷26號","121.460528333333","25.0749716666667","6501500","五股區"
"248004","677-BX","2017/06/16 19:39:20","新北市五股區成泰路二段82號","121.437401666667","25.08225","6501500","五股區"
"248002","678-BX","2017/06/16 19:39:06","新北市五股區成泰路三段577巷49號","121.45072","25.1031583333333","6501500","五股區"
"248010","682-TV","2017/06/16 19:39:04","新北市五股區明德路12巷26弄7號","121.433001666667","25.072765","6501500","五股區"
"234023","9380-KE","2017/06/16 19:37:50","新北市永和區永利路69號","121.519798333333","25.00482","6500400","永和區"
"234077","969-R7","2017/06/16 19:39:09","新北市永和區民族街51號","121.518351666667","24.998205","6500400","永和區"
"234074","AAC-211","2017/06/16 19:39:20","新北市永和區竹林路213巷39號","121.523278333333","25.009155","6500400","永和區"
"234067","AAC-212","2017/06/16 19:39:07","新北市永和區永貞路418號","121.508795","25.0081166666667","6500400","永和區"
"234003","AAC-295","2017/06/16 19:37:16","新北市永和區自由街2號","121.514838333333","25.0072033333333","6500400","永和區"
"244007","080-UY","2017/06/16 17:55:14","新北市林口區竹林路153號","121.388648333333","25.079795","6501700","林口區"
"244019","403-UM","2017/06/16 19:39:15","新北市林口區中山路241號","121.385933333333","25.0793533333333","6501700","林口區"
"243013","AAD-798","2017/06/16 19:39:05","新北市泰山區應化街7號","121.42387","25.04372","6501600","泰山區"
"243009","297-R6","2017/06/16 19:39:23","新北市泰山區美寧街60號","121.43091","25.06469","6501600","泰山區"
"243015","380-SR","2017/06/16 19:39:05","新北市泰山區民權街62號","121.428668333333","25.0501766666667","6501600","泰山區"
"243014","421-VK","2017/06/16 19:39:17","新北市泰山區泰林路二段33-7號","121.435201666667","25.0564166666667","6501600","泰山區"
"243010","548-UM","2017/06/16 19:39:02","新北市泰山區仁義路220巷53號","121.432021666667","25.0526533333333","6501600","泰山區"
"243011","549-UM","2017/06/16 19:39:14","新北市泰山區明志路三段196巷21弄31號","121.422461666667","25.0381766666667","6501600","泰山區"
"243012","646-TV","2017/06/16 19:39:09","新北市泰山區仁愛路100巷58號","121.43384","25.0544033333333","6501600","泰山區"
"243016","680-BX","2017/06/16 19:39:20","新北市泰山區中山路三段114號","121.418025","25.0321883333333","6501600","泰山區"
"222005","289-BY","2017/06/16 09:56:55","新北市深坑區深坑街85號","121.614628333333","25.0013033333333","6501800","深坑區"
"222003","436-BY","2017/06/16 19:39:19","新北市深坑區深南路51-1號","121.621188333333","25.010075","6501800","深坑區"
"222002","659-BX","2017/06/16 19:39:10","新北市深坑區北深路一段177號","121.632458333333","25.010815","6501800","深坑區"
"222001","696-SL","2017/06/16 19:39:19","新北市深坑區北深路二段198號","121.613068333333","25.001585","6501800","深坑區"
"231041","002-UM","2017/06/16 19:39:11","新北市新店區中正路485號","121.533816666667","24.98186","6500600","新店區"
"231059","046-UY","2017/06/16 19:39:16","新北市新店區安和路二段203號","121.517828333333","24.9752116666667","6500600","新店區"
"231061","047-UY","2017/06/16 19:39:14","新北市新店區安民街259號","121.517333333333","24.9726433333333","6500600","新店區"
"231060","106-UY","2017/06/16 19:39:22","新北市新店區安康路二段139號","121.511785","24.9602233333333","6500600","新店區"
"231051","107-UY","2017/06/16 19:39:11","新北市新店區中央四街60號","121.527273333333","24.9752716666667","6500600","新店區"
"231048","108-UY","2017/06/16 19:39:18","新北市新店區中興路二段22號","121.54717","24.97046","6500600","新店區"
"231053","187-VK","2017/06/16 19:39:16","新北市新店區新烏路二段395號","121.551085","24.9096983333333","6500600","新店區"
"231057","256-BX","2017/06/16 19:39:07","新北市新店區橘園一路11號","121.547961666667","24.9339983333333","6500600","新店區"
"231063","268-BY","2017/06/16 19:39:05","新北市新店區達觀路27-1號","121.503978333333","24.9386","6500600","新店區"
"231046","278-BY","2017/06/16 19:39:13","新北市新店區自由街13號","121.535525","24.9748283333333","6500600","新店區"
"231050","AAD-862","2017/06/16 19:39:12","新北市新店區郵政路91號","121.554781666667","24.9515","6500600","新店區"
"231058","3712-VJ","2017/06/16 19:39:17","新北市新店區寶橋路85巷5弄3號","121.546005","24.9756316666667","6500600","新店區"
"231055","3713-VJ","2017/06/16 19:39:22","新北市新店區力行路11巷1號","121.539255","24.96461","6500600","新店區"
"231067","4772-VM","2017/06/16 19:39:19","新北市新店區安和路一段43號","121.517056666667","24.9655383333333","6500600","新店區"
"231065","512-UM","2017/06/16 19:39:22","新北市新店區安祥路109巷83號","121.477715","24.9602866666667","6500600","新店區"
"231054","513-UM","2017/06/16 19:39:17","新北市新店區北宜路一段43號","121.538463333333","24.9572233333333","6500600","新店區"
"231064","515-UM","2017/06/16 19:39:14","新北市新店區安和路一段52巷2-1號","121.517678333333","24.9664366666667","6500600","新店區"
"231045","617-UM","2017/06/16 19:39:15","新北市新店區北宜路二段126號","121.556836666667","24.9538033333333","6500600","新店區"
"231040","619-UM","2017/06/16 19:39:06","新北市新店區北新路一段90號","121.541875","24.9685216666667","6500600","新店區"
"231042","641-BX","2017/06/16 19:39:13","新北市新店區中興路一段216號","121.543853333333","24.965925","6500600","新店區"
"231049","719-UM","2017/06/16 19:39:16","新北市新店區大豐路49號","121.54006","24.9797416666667","6500600","新店區"
"231062","720-UM","2017/06/16 19:39:06","新北市新店區碧潭路60號","121.534478333333","24.9568933333333","6500600","新店區"
"231044","897-TW","2017/06/16 19:39:22","新北市新店區北新路三段147-1號","121.541125","24.9833133333333","6500600","新店區"
"231043","899-TW","2017/06/16 19:39:04","新北市新店區北新路二段108號","121.543095","24.9742566666667","6500600","新店區"
"231066","AKT-0513","2017/06/16 19:39:12","新北市新店區安康路三段23號","121.493295","24.9533066666667","6500600","新店區"
"241028","022-UY","2017/06/16 19:39:13","新北市三重區中正南路157號","121.493803333333","25.056125","6500200","三重區"
"241008","059-VK","2017/06/16 19:39:18","新北市三重區永福街125巷8號","121.478575","25.0771133333333","6500200","三重區"
"241009","060-VK","2017/06/16 19:39:17","新北市三重區三和路四段400巷34號","121.479943333333","25.0790683333333","6500200","三重區"
"241031","061-VK","2017/06/16 19:39:20","新北市三重區重新路四段250-1號","121.486013333333","25.0534166666667","6500200","三重區"
"241015","062-VK","2017/06/16 19:39:16","新北市三重區福德北路40號","121.50195","25.0653266666667","6500200","三重區"
"241017","063-VK","2017/06/16 19:39:13","新北市三重區重新路三段94號","121.492665","25.0609033333333","6500200","三重區"
"241026","066-VK","2017/06/16 19:39:19","新北市三重區文化南路65巷17號","121.499525","25.0607933333333","6500200","三重區"
"241013","265-UM","2017/06/16 19:39:23","新北市三重區仁愛街131號","121.495598333333","25.0748916666667","6500200","三重區"
"241022","267-UM","2017/06/16 19:39:21","新北市三重區中正北路109號","121.484825","25.0658883333333","6500200","三重區"
"241032","269-UM","2017/06/16 19:39:03","新北市三重區重陽路一段60巷34號","121.485123333333","25.0581983333333","6500200","三重區"
"241011","270-UM","2017/06/16 19:39:20","新北市三重區秀江街170號","121.498111666667","25.071725","6500200","三重區"
"241025","271-UM","2017/06/16 19:39:03","新北市三重區頂崁街210巷3號","121.476815","25.0676233333333","6500200","三重區"
"241007","398-BY","2017/06/16 19:39:16","新北市三重區三和路四段125巷76號","121.487283333333","25.0785783333333","6500200","三重區"
"241020","412-TH","2017/06/16 19:39:20","新北市三重區三和路四段20巷124號","121.48815","25.0730616666667","6500200","三重區"
"241019","478-VK","2017/06/16 19:39:14","新北市三重區六張街255巷15號","121.487075","25.0688583333333","6500200","三重區"
"241030","480-VK","2017/06/16 19:39:07","新北市三重區環河南路221巷17號","121.49151","25.0525333333333","6500200","三重區"
"241014","543-UM","2017/06/16 19:39:23","新北市三重區長榮路129號","121.50384","25.069405","6500200","三重區"
"241023","545-UM","2017/06/16 19:39:19","新北市三重區忠孝路三段99巷4號","121.480041666667","25.0642616666667","6500200","三重區"
"241006","AAD-863","2017/06/16 19:39:20","新北市三重區聯華街78號","121.485966666667","25.0753516666667","6500200","三重區"
"241035","743-BX","2017/06/16 19:39:16","新北市三重區信義西街24號","121.498601666667","25.0647733333333","6500200","三重區"
"241012","887-TS","2017/06/16 19:39:16","新北市三重區河邊北街375號","121.501926666667","25.07633","6500200","三重區"
"241029","942-UM","2017/06/16 19:39:21","新北市三重區光明路122號","121.492885","25.05589","6500200","三重區"
"235066","003-UY","2017/06/16 19:39:20","新北市中和區景新街133號","121.505828333333","24.9971983333333","6500300","中和區"
"235064","005-UY","2017/06/16 19:39:18","新北市中和區南山路129號","121.50213","24.9971666666667","6500300","中和區"
"235063","006-UY","2017/06/16 19:39:09","新北市中和區連城路203巷10弄4號","121.494911666667","24.997295","6500300","中和區"
"235053","031-BX","2017/06/16 19:39:13","新北市中和區忠孝街37巷44號","121.510643333333","24.9847033333333","6500300","中和區"
"235056","096-UM","2017/06/16 19:39:16","新北市中和區員山路581巷31弄3號","121.477161666667","25.0103","6500300","中和區"
"235039","097-UM","2017/06/16 19:39:09","新北市中和區秀峰街119巷2弄1號","121.519921666667","24.9904666666667","6500300","中和區"
"235065","098-UM","2017/06/16 19:39:09","新北市中和區中山路二段2巷7弄2號","121.504181666667","25.0066483333333","6500300","中和區"
"235040","150-BY","2017/06/16 19:39:13","新北市中和區宜安路92巷3號","121.510728333333","24.9978166666667","6500300","中和區"
"235058","151-BY","2017/06/16 19:39:11","新北市中和區員山路127-3號","121.481016666667","24.9957333333333","6500300","中和區"
"235055","183-VK","2017/06/16 19:39:15","新北市中和區中山路三段179巷5號","121.472971666667","25.0058316666667","6500300","中和區"
"235038","185-VK","2017/06/16 19:39:18","新北市中和區自強路52號","121.520241666667","24.9948283333333","6500300","中和區"
"235049","186-VK","2017/06/16 19:39:10","新北市中和區安平路16號","121.509256666667","24.9941683333333","6500300","中和區"
"235067","255-BX","2017/06/16 19:39:11","新北市中和區連城路451號","121.484723333333","24.9962116666667","6500300","中和區"
"235044","293-VK","2017/06/16 19:39:11","新北市中和區景安路192號","121.504343333333","24.991645","6500300","中和區"
"235072","301-VK","2017/06/16 19:39:11","新北市中和區錦和路93巷4弄2號","121.490433333333","24.9956783333333","6500300","中和區"
"235051","376-QA","2017/06/16 19:39:08","新北市中和區景新街142巷4號","121.504951666667","24.9975433333333","6500300","中和區"
"235068","377-QA","2017/06/16 19:36:43","新北市中和區圓通路158巷28號","121.498518333333","24.9970883333333","6500300","中和區"
"235061","378-QA","2017/06/16 19:39:03","新北市中和區民利街61巷15號","121.478721666667","24.998275","6500300","中和區"
"235050","4979-A6","2017/06/16 19:39:12","新北市中和區中正路637巷52弄1號","121.48546","24.9936083333333","6500300","中和區"
"235042","551-UM","2017/06/16 19:39:14","新北市中和區保健路29巷7號","121.508843333333","24.9981566666667","6500300","中和區"
"235070","558-UM","2017/06/16 19:38:56","新北市中和區南山路42巷8號","121.501685","24.997685","6500300","中和區"
"235045","565-BX","2017/06/16 19:39:07","新北市中和區景德街130號","121.514385","24.9910583333333","6500300","中和區"
"235054","640-BX","2017/06/16 19:39:19","新北市中和區國光街112巷17號","121.469696666667","25.002155","6500300","中和區"
"235060","647-TV","2017/06/16 19:39:07","新北市中和區中山路二段523巷25號","121.48209","25.0035583333333","6500300","中和區"
"235047","732-UM","2017/06/16 19:28:45","新北市中和區景平路241巷66號","121.507741666667","24.99225","6500300","中和區"
"235071","783-BX","2017/06/16 19:39:19","新北市中和區中正路839巷29號","121.483563333333","25.0023","6500300","中和區"
"235057","801-TS","2017/06/16 19:39:22","新北市中和區中山路三段1號","121.479893333333","25.00602","6500300","中和區"
"235052","805-TS","2017/06/16 19:39:07","新北市中和區華新街143巷62號","121.50625","24.9794133333333","6500300","中和區"
"235048","896-TW","2017/06/16 19:39:13","新北市中和區忠孝街27號","121.510413333333","24.9829516666667","6500300","中和區"
"235053","900-TW","2017/06/16 19:39:12","新北市中和區華順街2巷6號","121.467593333333","24.9989566666667","6500300","中和區"
"235041","157-BY","2017/06/16 19:39:12","新北市永和區中和路373號","121.508393333333","24.9997933333333","6500300","中和區"
"235037","AAC-213","2017/06/16 19:39:10","新北市中和區秀朗路三段60巷42號","121.52484","24.9951083333333","6500300","中和區"
"235059","AAC-215","2017/06/16 19:39:22","新北市中和區錦和路366號","121.490651666667","24.9911066666667","6500300","中和區"
"220068","013-TV","2017/06/16 19:39:08","新北市板橋區中山路二段416巷47弄30號","121.48366","25.019395","6500100","板橋區"
"220065","072-UY","2017/06/16 19:39:18","新北市板橋區國泰街111巷3號","121.465726666667","25.0062183333333","6500100","板橋區"
"220086","073-UY","2017/06/16 19:39:06","新北市板橋區國光路163號","121.460121666667","25.0182983333333","6500100","板橋區"
"220106","075-UY","2017/06/16 19:39:06","新北市板橋區雙十路三段19號","121.47079","25.031375","6500100","板橋區"
"220069","AAD-861","2017/06/16 19:39:04","新北市板橋區貴興路49號","121.457361666667","25.0033016666667","6500100","板橋區"
"247006","341-TH","2017/06/16 19:39:18","新北市五股區中興路二段182巷15弄13號","121.456881666667","25.0817233333333","6501400","蘆洲區"
"247008","339-TH","2017/06/16 19:39:02","新北市蘆洲區中山一路113號","121.476343333333","25.0815666666667","6501400","蘆洲區"
"247002","336-TH","2017/06/16 19:39:06","新北市五股區成泰路三段544-18號","121.452776666667","25.1033833333333","6501400","蘆洲區"
"247014","057-VK","2017/06/16 19:39:11","新北市蘆洲區中正路116號","121.469491666667","25.0846666666667","6501400","蘆洲區"
"247004","056-VK","2017/06/16 19:39:03","新北市蘆洲區中華街6巷14號","121.463101666667","25.0820283333333","6501400","蘆洲區"
"247016","001-UY","2017/06/16 19:39:21","新北市蘆洲區三民路378號","121.464118333333","25.091635","6501400","蘆洲區"
"226004","205-ST","2017/06/16 19:39:17","新北市平溪區靜安路三段86號","121.769905","25.0345933333333","6502400","平溪區"
"228001","670-TC","2017/06/16 19:39:09","新北市貢寮區真理里延平街49號","121.92466","25.05566","6502600","貢寮區"
"228003","828-UM","2017/06/16 19:38:28","新北市貢寮區真理里美艷山街53-2號","121.923203333333","25.0692416666667","6502600","貢寮區"
"224010","AGQ-8101","2017/06/16 19:35:53","新北市瑞芳區汽車路9-6號","121.845395","25.1097883333333","6501200","瑞芳區"
"224002","639-TC","2017/06/16 19:39:13","新北市瑞芳區民享新村8號","121.816986666667","25.1054566666667","6501200","瑞芳區"
"224011","420-VK","2017/06/16 19:39:24","新北市瑞芳區崙頂路1-6號","121.847135","25.1047533333333","6501200","瑞芳區"
"224008","275-VK","2017/06/16 19:39:05","新北市瑞芳區中山路257號","121.797268333333","25.109835","6501200","瑞芳區"
"224005","271-BY","2017/06/16 19:39:14","新北市瑞芳區明燈路二段66號","121.809413333333","25.1074766666667","6501200","瑞芳區"
"227003","642-TC","2017/06/16 19:39:03","新北市雙溪區雙溪里太平路62號","121.86513","25.035885","6502500","雙溪區"
"227011","400-TW","2017/06/16 19:39:10","新北市雙溪區新基里新基北街22號","121.867243333333","25.0389033333333","6502500","雙溪區"
"253006","032-BX","2017/06/16 19:39:05","新北市石門區小坑9號","121.594303333333","25.2884383333333","6502200","石門區"
"208001","742-BX","2017/06/16 19:39:21","新北市金山區重和里牛埔仔1-2號","121.6066","25.2227616666667","6502700","金山區"
"208003","665-BX","2017/06/16 19:39:05","新北市金山區忠孝一路28號","121.638175","25.2197316666667","6502700","金山區"
"251004","009-UM","2017/06/16 19:39:22","新北市淡水區民權路84號","121.459173333333","25.1335233333333","6501000","淡水區"
"251005","010-UM","2017/06/16 19:39:11","新北市淡水區原德路70號","121.442725","25.1728933333333","6501000","淡水區"
"251001","011-UM","2017/06/16 19:39:19","新北市淡水區水源街二段194號","121.457011666667","25.1757016666667","6501000","淡水區"
"251002","012-UM","2017/06/16 19:39:14","新北市淡水區中正東路71-8號","121.4475","25.16753","6501000","淡水區"
"251013","180-VK","2017/06/16 19:39:18","新北市淡水區店子後9號","121.460376666667","25.2185966666667","6501000","淡水區"
"251008","181-VK","2017/06/16 19:39:03","新北市淡水區中正路一段8巷1弄11號","121.428193333333","25.1758183333333","6501000","淡水區"
"251015","182-VK","2017/06/16 19:39:21","新北市淡水區大埤頭1-3號","121.492426666667","25.195055","6501000","淡水區"
"251010","413-VK","2017/06/16 19:39:03","新北市淡水區新市三路一段312號","121.430803333333","25.1971416666667","6501000","淡水區"
"251006","561-UM","2017/06/16 19:39:15","新北市淡水區中山北路一段207巷26號","121.443428333333","25.179195","6501000","淡水區"
"251009","575-R6","2017/06/16 19:39:06","新北市淡水區中山北路一段200號","121.44495","25.1793333333333","6501000","淡水區"
"251007","577-R6","2017/06/16 19:38:46","新北市淡水區中正東路一段65號","121.45265","25.1623616666667","6501000","淡水區"
"251011","650-BX","2017/06/16 19:39:10","新北市淡水區八勢一街32巷19號","121.461143333333","25.1555216666667","6501000","淡水區"
"251002","672-BX","2017/06/16 19:39:21","新北市淡水區中正路360號","121.434225","25.1742833333333","6501000","淡水區"
"207003","550-UM","2017/06/16 19:39:21","新北市萬里區大鵬里下社2-2號","121.647795","25.2164916666667","6502800","萬里區"
"207004","225-TW","2017/06/16 19:39:18","新北市萬里區萬里里瑪鋉路69號","121.688216666667","25.17634","6502800","萬里區"
"252002","178-VK","2017/06/16 19:39:12","新北市三芝區利民街16號","121.503605","25.2595616666667","6502100","三芝區"
"252001","292-VK","2017/06/16 19:39:17","新北市三芝區公正街9號","121.49979","25.2575083333333","6502100","三芝區"
"208002","170-UY","2017/06/16 19:39:20","新北市金山區四維路23號","121.635105","25.222815","6502700","金山區"
"237004","078-UY","2017/06/16 19:39:06","新北市三峽區插角1-1號","121.396546666667","24.8738016666667","6500900","三峽區"
"237007","153-BY","2017/06/16 19:39:23","新北市三峽區二鬮路57號","121.359853333333","24.9077516666667","6500900","三峽區"
"237009","210-TH","2017/06/16 19:39:21","新北市三峽區民權街153-1號","121.368331666667","24.9312183333333","6500900","三峽區"
"237013","252-BX","2017/06/16 19:39:16","新北市三峽區介壽路二段30號","121.390798333333","24.9352083333333","6500900","三峽區"
"237012","275-BY","2017/06/16 19:39:03","新北市三峽區民生街10號","121.376121666667","24.9367083333333","6500900","三峽區"
"237008","302-VK","2017/06/16 19:39:05","新北市三峽區永安街111號","121.374253333333","24.9286516666667","6500900","三峽區"
"237014","433-BY","2017/06/16 19:39:08","新北市三峽區添福14-38號","121.372635","24.9002833333333","6500900","三峽區"
"237006","5529-G3","2017/06/16 19:39:16","新北市三峽區中正路一段336巷15弄2號","121.369961666667","24.9249433333333","6500900","三峽區"
"237015","649-BX","2017/06/16 19:39:17","新北市三峽區溪東路281號","121.408945","24.9313883333333","6500900","三峽區"
"237005","AKY-6261","2017/06/16 19:39:21","新北市三峽區中山路169巷9號","121.364323333333","24.93598","6500900","三峽區"
"236072","105-UM","2017/06/16 19:39:09","新北市土城區裕民路185巷36弄10號","121.454341666667","24.9845266666667","6501300","土城區"
"236043","107-UM","2017/06/16 19:39:05","新北市土城區裕民路214巷16號","121.452786666667","24.9839516666667","6501300","土城區"
"236007","137-TH","2017/06/16 07:11:18","新北市土城區城林路6巷80號","121.438741666667","24.9796166666667","6501300","土城區"
"236079","166-UM","2017/06/16 19:39:16","新北市土城區中州路61號","121.41256","24.9578666666667","6501300","土城區"
"236031","253-BX","2017/06/16 19:39:06","新北市土城區福祥街61號","121.440965","24.9803066666667","6501300","土城區"
"236027","269-VK","2017/06/16 19:39:09","新北市土城區中央路二段61巷20號","121.443111666667","24.9787366666667","6501300","土城區"
"236039","271-VK","2017/06/16 19:39:20","新北市土城區清水路98巷3弄28號","121.458388333333","24.980835","6501300","土城區"
"236059","912-UM","2017/06/16 19:39:11","新北市土城區中央路二段63號","121.442736666667","24.9788966666667","6501300","土城區"
"236050","913-UM","2017/06/16 19:39:14","新北市土城區明德路一段51號","121.46524","24.984965","6501300","土城區"
"236063","915-UM","2017/06/16 19:39:06","新北市土城區延平街19號","121.468225","24.9911966666667","6501300","土城區"
"236055","AAC-216","2017/06/16 19:39:05","新北市土城區學府路一段225號","121.451275","24.9842366666667","6501300","土城區"
"242048","751-BX","2017/06/16 19:39:22","新北市新莊區後港一路4號","121.42451","25.0256316666667","6500500","新莊區"
"242041","497-BY","2017/06/16 19:39:19","新北市新莊區新北大道七段556號","121.412273333333","25.028995","6500500","新莊區"
"242005","442-UM","2017/06/16 19:39:15","新北市新莊區化成路11巷45號","121.463311666667","25.0434633333333","6500500","新莊區"
"242032","415-TV","2017/06/16 19:39:19","新北市新莊區新泰路213巷54號","121.44495","25.03845","6500500","新莊區"
"242013","175-VK","2017/06/16 19:39:06","新北市新莊區中誠街121巷9號","121.449535","25.047055","6500500","新莊區"
"242034","347-TH","2017/06/16 19:39:17","新北市新莊區新莊路773號","121.441948333333","25.0327583333333","6500500","新莊區"
"242017","348-TH","2017/06/16 19:39:10","新北市新莊區三和路12-21號","121.442326666667","25.0385966666667","6500500","新莊區"
"238015","755-BX","2017/06/16 19:39:18","新北市樹林區中興街20-4號","121.420833333333","24.990115","6500700","樹林區"
"238023","601-UM","2017/06/16 19:39:13","新北市樹林區三福街33號","121.408428333333","25.0166283333333","6500700","樹林區"
"238019","599-UM","2017/06/16 19:39:20","新北市樹林區中山路三段214號","121.380101666667","24.967885","6500700","樹林區"
"238018","571-TV","2017/06/16 19:39:16","新北市樹林區中華路79號","121.422886666667","24.982985","6500700","樹林區"
"238024","5061-A6","2017/06/16 19:39:04","新北市樹林區中山路三段67-5號","121.400475","24.97499","6500700","樹林區"
"238021","311-TH","2017/06/16 19:39:16","新北市三峽區大義路380號","121.37651","24.9485633333333","6500700","樹林區"
"238025","303-VK","2017/06/16 19:39:06","新北市樹林區中山路一段157號","121.422001666667","24.98874","6500700","樹林區"
"238017","283-BY","2017/06/16 19:39:07","新北市樹林區光興街155巷26號","121.40713","25.0030566666667","6500700","樹林區"
"238014","282-BY","2017/06/16 19:39:09","新北市樹林區千歲街4號","121.424978333333","24.99561","6500700","樹林區"
"238020","268-VK","2017/06/16 19:39:09","新北市樹林區俊英街121巷8號","121.424185","25.010275","6500700","樹林區"
"238026","172-UY","2017/06/16 19:39:16","新北市樹林區佳園路二段41號","121.391603333333","24.9625416666667","6500700","樹林區"
"239006","891-R6","2017/06/16 19:39:09","新北市鶯歌區文化路65號","121.35903","24.95665","6500800","鶯歌區"
"221036","130-UY","2017/06/16 19:39:14","新北市汐止區汐萬路一段256巷1號","121.651875","25.0748966666667","6501100","汐止區"
"221015","131-UY","2017/06/16 19:39:12","新北市汐止區康寧街901號","121.65149","25.0749616666667","6501100","汐止區"
"221010","269-BY","2017/06/16 19:39:09","新北市汐止區汐萬路一段407號","121.649341666667","25.0793","6501100","汐止區"
"221012","278-VK","2017/06/16 19:39:19","新北市汐止區汐平路一段5號","121.680743333333","25.071225","6501100","汐止區"
"221023","279-VK","2017/06/16 19:39:17","新北市汐止區民族六街21號","121.629831666667","25.0686516666667","6501100","汐止區"
"221032","280-BY","2017/06/16 19:39:08","新北市汐止區新台五路一段1號","121.646791666667","25.0609616666667","6501100","汐止區"
"221027","281-BY","2017/06/16 19:39:12","新北市汐止區忠孝東路9號","121.658321666667","25.0659583333333","6501100","汐止區"
"221038","297-VK","2017/06/16 19:39:04","新北市汐止區秀峰路9號","121.659268333333","25.066545","6501100","汐止區"
"221029","298-VK","2017/06/16 19:39:18","新北市汐止區汐萬路一段256巷1號","121.651643333333","25.0748033333333","6501100","汐止區"
"221021","299-VK","2017/06/16 19:34:52","新北市汐止區康寧街901號","121.650995","25.0751816666667","6501100","汐止區"
"221025","623-UM","2017/06/16 19:39:14","新北市汐止區福安街20巷1號","121.662628333333","25.0649916666667","6501100","汐止區"
"221033","647-BX","2017/06/16 19:39:04","新北市汐止區南勢街3號","121.627058333333","25.037385","6501100","汐止區"
"221002","707-TV","2017/06/16 19:39:14","新北市汐止區大同路一段330號","121.637735","25.058865","6501100","汐止區"
"220079","145-BY","2017/06/16 19:39:05","新北市板橋區復興街51號","121.458591666667","25.0175283333333","6500100","板橋區"
"220093","146-RM","2017/06/16 19:39:16","新北市板橋區裕民街151號","121.458535","25.02703","6500100","板橋區"
"220080","200-UY","2017/06/16 19:39:15","新北市板橋區大觀路二段37巷140號","121.449233333333","25.0016633333333","6500100","板橋區"
"220082","610-BX","2017/06/16 19:39:07","新北市板橋區大觀路三段175號","121.43207","24.99382","6500100","板橋區"
"220101","245-BX","2017/06/16 19:39:11","新北市板橋區莊敬路220巷60號","121.471583333333","25.0207883333333","6500100","板橋區"
"220090","257-TC","2017/06/16 19:39:18","新北市板橋區裕民街110號","121.45965","25.02778","6500100","板橋區"
"220072","277-BY","2017/06/16 19:39:02","新北市板橋區金門街253巷7號","121.432548333333","24.9886316666667","6500100","板橋區"
"220064","280-UM","2017/06/16 19:39:13","新北市板橋區中山路一段58號","121.461283333333","25.0097266666667","6500100","板橋區"
"220094","283-UM","2017/06/16 19:39:22","新北市板橋區銘傳街41-6號","121.46934","25.031525","6500100","板橋區"
"220071","283-VK","2017/06/16 19:39:20","新北市板橋區忠孝路48巷7弄1-3號","121.461001666667","25.0004816666667","6500100","板橋區"
"220089","285-UM","2017/06/16 19:39:14","新北市板橋區新海路135巷1號","121.46075","25.0234066666667","6500100","板橋區"
"220053","285-VK","2017/06/16 19:39:15","新北市板橋區中山路二段148巷28號","121.477186666667","25.016225","6500100","板橋區"
"220083","286-VK","2017/06/16 19:39:06","新北市板橋區大觀路一段38巷184號","121.441326666667","25.0044533333333","6500100","板橋區"
"220081","287-VK","2017/06/16 19:39:13","新北市板橋區大觀路一段75巷9號","121.447596666667","25.0044633333333","6500100","板橋區"
"220061","293-UM","2017/06/16 19:39:07","新北市板橋區中山路一段265巷36弄1號","121.469126666667","25.0151816666667","6500100","板橋區"
"220084","296-UM","2017/06/16 19:39:08","新北市板橋區滿平街84巷100弄5號","121.426281666667","24.9864566666667","6500100","板橋區"
"220075","297-UM","2017/06/16 19:39:13","新北市板橋區大勇街3巷1號","121.455058333333","25.017455","6500100","板橋區"
"220097","299-UM","2017/06/16 19:39:08","新北市板橋區幸福路32巷4弄14號","121.461435","25.021375","6500100","板橋區"
"220056","303-R5","2017/06/16 19:39:03","新北市板橋區信義路1巷16號","121.457783333333","24.9971333333333","6500100","板橋區"
"220062","305-R5","2017/06/16 19:39:02","新北市板橋區中山路二段288巷2弄5號","121.479635","25.018265","6500100","板橋區"
"220092","307-R5","2017/06/16 19:39:02","新北市板橋區松江街14號","121.469193333333","25.0262383333333","6500100","板橋區"
"220098","317-R6","2017/06/16 19:39:16","新北市板橋區四維路269巷62號","121.460755","25.0272083333333","6500100","板橋區"
"220088","491-VK","2017/06/16 19:39:06","新北市板橋區文化路二段499號","121.475918333333","25.0341933333333","6500100","板橋區"
"220035","560-BX","2017/06/16 19:39:05","新北市板橋區金華街85巷42號","121.459146666667","25.0213416666667","6500100","板橋區"
"220103","561-BX","2017/06/16 19:39:10","新北市板橋區文化路一段341號","121.466681666667","25.0208233333333","6500100","板橋區"
"220063","609-BX","2017/06/16 19:39:19","新北市板橋區中山路二段537號","121.483515","25.0214516666667","6500100","板橋區"
"220091","637-BX","2017/06/16 19:39:11","新北市板橋區懷德街191巷23號","121.480513333333","25.0298283333333","6500100","板橋區"
"220057","686-BX","2017/06/16 19:39:23","新北市板橋區重慶路368號","121.464436666667","24.997065","6500100","板橋區"
"220077","687-BX","2017/06/16 19:39:03","新北市板橋區僑中一街94號","121.446941666667","25.0117683333333","6500100","板橋區"
"220054","741-BX","2017/06/16 19:39:22","新北市板橋區光明街39號","121.461223333333","25.0026433333333","6500100","板橋區"
"220055","827-TW","2017/06/16 19:39:16","新北市板橋區國慶路149巷3弄1號","121.46124","24.9967616666667","6500100","板橋區"
"220067","829-TW","2017/06/16 19:39:22","新北市板橋區長安街251巷42號","121.471793333333","25.011625","6500100","板橋區"
"220102","830-TW","2017/06/16 19:39:08","新北市板橋區雙十路二段70巷2號","121.475503333333","25.0282783333333","6500100","板橋區"
"220096","831-TW","2017/06/16 19:39:17","新北市板橋區民生路二段226巷19號","121.470648333333","25.0219266666667","6500100","板橋區"
"220074","895-R6","2017/06/16 19:39:18","新北市板橋區民權路168號","121.459733333333","25.0131033333333","6500100","板橋區"
"220073","985-R7","2017/06/16 19:39:21","新北市板橋區國光路3號","121.45637","25.0173683333333","6500100","板橋區"
"220070","AAC-253","2017/06/16 19:39:02","新北市板橋區民族路166號","121.464795","25.0084","6500100","板橋區"
