"lineid","car","time","location","longitude","latitude","cityid","cityname"
"234046","148-BY","2017/06/16 19:49:15","新北市永和區秀朗路二段99號","121.523473333333","25.0017666666667","6500400","永和區"
"234013","149-BY","2017/06/16 19:49:21","新北市永和區永平路276號","121.508106666667","25.0117383333333","6500400","永和區"
"234007","207-UY","2017/06/16 19:49:07","新北市中和區中和路285號","121.506455","24.9996216666667","6500400","永和區"
"234081","298-R6","2017/06/16 19:49:18","新北市永和區國中路4號","121.524498333333","25.0043533333333","6500400","永和區"
"234038","336-UY","2017/06/16 19:49:07","新北市永和區成功路二段165號","121.5267","24.9971666666667","6500400","永和區"
"234064","337-UY","2017/06/16 19:49:11","新北市永和區中正路368巷8號","121.518121666667","25.00076","6500400","永和區"
"234086","338-UY","2017/06/16 19:49:07","新北市永和區永亨路71號","121.521518333333","25.0059016666667","6500400","永和區"
"234070","552-UM","2017/06/16 19:49:09","新北市永和區竹林路235號","121.52086","25.0082016666667","6500400","永和區"
"234054","553-UM","2017/06/16 19:49:09","新北市永和區竹林路75巷25弄6號","121.520276666667","25.0143333333333","6500400","永和區"
"234017","745-BX","2017/06/16 19:49:13","新北市永和區永和路二段299號","121.516016666667","25.0160966666667","6500400","永和區"
"234030","746-BX","2017/06/16 19:49:20","新北市永和區民生路47巷18號","121.523898333333","24.997455","6500400","永和區"
"234061","AAD-866","2017/06/16 19:49:20","新北市永和區中正路134號","121.514648333333","24.99608","6500400","永和區"
"234042","862-TW","2017/06/16 19:49:16","新北市永和區中和路335巷18弄32號","121.508168333333","25.00057","6500400","永和區"
"234050","863-TW","2017/06/16 19:49:20","新北市永和區保安路73號","121.508693333333","25.015","6500400","永和區"
"234026","9371-KE","2017/06/16 19:49:12","新北市永和區雙和街25巷4號","121.508913333333","25.001935","6500400","永和區"
"234011","9373-KE","2017/06/16 19:49:12","新北市永和區仁愛路352巷94號","121.501153333333","25.00794","6500400","永和區"
"249001","173-UM","2017/06/16 19:49:05","新北市八里區中華路二段252號","121.405365","25.14962","6502300","八里區"
"249004","303-UY","2017/06/16 19:49:09","新北市八里區仁愛路21號","121.413298333333","25.1609533333333","6502300","八里區"
"249002","305-UY","2017/06/16 19:49:07","新北市八里區頂寮五街20號","121.451331666667","25.1261066666667","6502300","八里區"
"249003","593-UM","2017/06/16 19:49:17","新北市八里區華峰三街72號","121.398496666667","25.1455516666667","6502300","八里區"
"248014","025-BX","2017/06/16 19:49:14","新北市五股區五福路32巷17號","121.434676666667","25.0897983333333","6501500","五股區"
"248008","095-VK","2017/06/16 19:49:10","新北市五股區四維路132號","121.467978333333","25.07508","6501500","五股區"
"248018","225-UY","2017/06/16 19:40:58","新北市五股區外寮路1-5號","121.426221666667","25.0769983333333","6501500","五股區"
"248012","247-BX","2017/06/15 21:21:57","新北市五股區中興路二段37巷26號","121.460528333333","25.0749716666667","6501500","五股區"
"248004","677-BX","2017/06/16 19:49:20","新北市五股區成泰路一段112號","121.43554","25.0730216666667","6501500","五股區"
"248002","678-BX","2017/06/16 19:49:06","新北市五股區成泰路四段15-7號","121.453215","25.1071","6501500","五股區"
"248010","682-TV","2017/06/16 19:49:24","新北市五股區登林路76-5號","121.430556666667","25.0694816666667","6501500","五股區"
"234023","9380-KE","2017/06/16 19:49:15","新北市永和區豫溪街57巷8弄6號","121.517665","25.0103783333333","6500400","永和區"
"234077","969-R7","2017/06/16 19:49:07","新北市永和區民權路29巷18號","121.520983333333","24.9979833333333","6500400","永和區"
"234074","AAC-211","2017/06/16 19:49:20","新北市永和區豫溪街189巷1號","121.522601666667","25.0102716666667","6500400","永和區"
"234067","AAC-212","2017/06/16 19:49:21","新北市永和區中山路一段191巷7弄5號","121.50949","25.0085416666667","6500400","永和區"
"234003","AAC-295","2017/06/16 19:47:55","新北市永和區自由街2號","121.514923333333","25.00721","6500400","永和區"
"244007","080-UY","2017/06/16 17:55:14","新北市林口區竹林路153號","121.388648333333","25.079795","6501700","林口區"
"243013","AAD-798","2017/06/16 19:49:05","新北市泰山區應化街7號","121.423873333333","25.0437233333333","6501600","泰山區"
"243009","297-R6","2017/06/16 19:49:23","新北市泰山區美寧街60號","121.430916666667","25.0646583333333","6501600","泰山區"
"243015","380-SR","2017/06/16 19:49:05","新北市泰山區明志路二段235號","121.42728","25.0482033333333","6501600","泰山區"
"243014","421-VK","2017/06/16 19:49:17","新北市泰山區泰林路二段33-7號","121.435188333333","25.056355","6501600","泰山區"
"243010","548-UM","2017/06/16 19:49:02","新北市泰山區民生路33號","121.430586666667","25.0522233333333","6501600","泰山區"
"243011","549-UM","2017/06/16 19:49:13","新北市泰山區明志路三段196巷21弄6號","121.422945","25.03922","6501600","泰山區"
"243012","646-TV","2017/06/16 19:49:09","新北市泰山區全興路13號","121.432348333333","25.0589283333333","6501600","泰山區"
"243016","680-BX","2017/06/16 19:49:20","新北市泰山區中山路三段114號","121.41787","25.0322116666667","6501600","泰山區"
"222005","289-BY","2017/06/16 09:56:55","新北市深坑區深坑街85號","121.614628333333","25.0013033333333","6501800","深坑區"
"222003","436-BY","2017/06/16 19:49:19","新北市深坑區深南路51-1號","121.621183333333","25.0099683333333","6501800","深坑區"
"222002","659-BX","2017/06/16 19:49:10","新北市深坑區北深路二段2巷1號","121.621413333333","25.0046133333333","6501800","深坑區"
"222001","696-SL","2017/06/16 19:49:19","新北市深坑區北深路三段64號","121.607953333333","25.0014033333333","6501800","深坑區"
"231041","002-UM","2017/06/16 19:49:11","新北市新店區中央路226號","121.529631666667","24.97283","6500600","新店區"
"231056","0291-UT","2017/06/16 19:49:12","新北市新店區中央路192號","121.53094","24.9747483333333","6500600","新店區"
"231059","046-UY","2017/06/16 19:49:16","新北市新店區安和路一段15號","121.516876666667","24.9640883333333","6500600","新店區"
"231061","047-UY","2017/06/16 19:49:14","新北市新店區安民街356號","121.516585","24.9759433333333","6500600","新店區"
"231060","106-UY","2017/06/16 19:49:21","新北市新店區安康路二段161號","121.510243333333","24.9593316666667","6500600","新店區"
"231051","107-UY","2017/06/16 19:49:17","新北市新店區中央三街84號","121.525803333333","24.9755166666667","6500600","新店區"
"231048","108-UY","2017/06/16 19:49:18","新北市新店區寶宏路3-6號","121.54927","24.976335","6500600","新店區"
"231053","187-VK","2017/06/16 19:49:16","新北市新店區新烏路三段118號","121.552685","24.9033316666667","6500600","新店區"
"231057","256-BX","2017/06/16 19:49:07","新北市新店區梅崗三路1號","121.558376666667","24.9312533333333","6500600","新店區"
"231063","268-BY","2017/06/16 19:49:05","新北市新店區黎明路3號","121.503625","24.9524633333333","6500600","新店區"
"231046","278-BY","2017/06/16 19:49:13","新北市新店區福園街10巷1號","121.532746666667","24.9727216666667","6500600","新店區"
"231050","AAD-862","2017/06/16 19:47:52","新北市新店區北宜路二段579巷15號","121.565105","24.95433","6500600","新店區"
"231055","3713-VJ","2017/06/16 19:49:22","新北市新店區新生街5巷4號","121.540111666667","24.96585","6500600","新店區"
"231067","4772-VM","2017/06/16 19:49:19","新北市新店區精忠路10-1號","121.5327","24.9590316666667","6500600","新店區"
"231065","512-UM","2017/06/16 19:49:22","新北市新店區安祥路109巷151弄12號","121.478103333333","24.958905","6500600","新店區"
"231054","513-UM","2017/06/16 19:49:17","新北市新店區光明街138巷4號","121.539476666667","24.96121","6500600","新店區"
"231064","515-UM","2017/06/16 19:49:14","新北市新店區安和路一段52巷2-1號","121.517698333333","24.966455","6500600","新店區"
"231045","617-UM","2017/06/16 19:49:14","新北市新店區中生路60號","121.564585","24.9527416666667","6500600","新店區"
"231040","619-UM","2017/06/16 19:49:06","新北市新店區北新路一段96巷23號","121.543041666667","24.96877","6500600","新店區"
"231042","641-BX","2017/06/16 19:48:53","新北市新店區中興路一段271號","121.545195","24.968015","6500600","新店區"
"231049","719-UM","2017/06/16 19:49:09","新北市新店區民權路88-5號","121.536313333333","24.9834616666667","6500600","新店區"
"231062","720-UM","2017/06/16 19:49:06","新北市新店區永業路103號","121.528668333333","24.94851","6500600","新店區"
"231044","897-TW","2017/06/16 19:49:02","新北市新店區復興路76號","121.537578333333","24.9869583333333","6500600","新店區"
"231043","899-TW","2017/06/16 19:49:24","新北市新店區中正路218號","121.540353333333","24.9725516666667","6500600","新店區"
"231066","AKT-0513","2017/06/16 19:49:12","新北市新店區安康路二段317-1號","121.499203333333","24.9564816666667","6500600","新店區"
"241028","022-UY","2017/06/16 19:49:13","新北市三重區中正南路157號","121.493761666667","25.0562316666667","6500200","三重區"
"241008","059-VK","2017/06/16 19:49:18","新北市三重區永福街98巷7號","121.479376666667","25.0759416666667","6500200","三重區"
"241009","060-VK","2017/06/16 19:49:17","新北市三重區三和路四段396巷36號","121.479865","25.078785","6500200","三重區"
"241031","061-VK","2017/06/16 19:49:20","新北市三重區重新路四段248號","121.486031666667","25.05339","6500200","三重區"
"241015","062-VK","2017/06/16 19:49:16","新北市三重區重新路一段1號","121.503811666667","25.06427","6500200","三重區"
"241017","063-VK","2017/06/16 19:49:13","新北市三重區重陽路三段5巷6號","121.489383333333","25.066175","6500200","三重區"
"241024","065-VK","2017/06/16 19:49:08","新北市三重區大勇街82巷7號","121.479595","25.0714083333333","6500200","三重區"
"241026","066-VK","2017/06/16 19:49:18","新北市三重區文化南路42號","121.500401666667","25.06024","6500200","三重區"
"241003","091-VK","2017/06/16 19:49:10","新北市三重區五華街93巷75號","121.493546666667","25.0847333333333","6500200","三重區"
"241005","262-UM","2017/06/16 19:49:17","新北市三重區溪尾街293號","121.487521666667","25.0830833333333","6500200","三重區"
"241013","265-UM","2017/06/16 19:49:23","新北市三重區仁愛街102巷8號","121.494866666667","25.074005","6500200","三重區"
"241016","266-UM","2017/06/16 19:49:20","新北市三重區正義北路48巷74號","121.495625","25.063375","6500200","三重區"
"241022","267-UM","2017/06/16 19:49:21","新北市三重區新北大道一段7號","121.489698333333","25.061435","6500200","三重區"
"241018","268-UM","2017/06/16 19:49:13","新北市三重區雙園街57巷1號","121.494866666667","25.06758","6500200","三重區"
"241032","269-UM","2017/06/16 19:49:03","新北市三重區重陽路一段60巷30弄1號","121.485406666667","25.057825","6500200","三重區"
"241011","270-UM","2017/06/16 19:49:20","新北市三重區三和路二段173巷43號","121.499146666667","25.070165","6500200","三重區"
"241025","271-UM","2017/06/16 19:49:03","新北市三重區頂崁街210巷16號","121.47648","25.0676416666667","6500200","三重區"
"241007","398-BY","2017/06/16 19:49:16","新北市三重區三和路四段135巷1-1號","121.484933333333","25.0780116666667","6500200","三重區"
"241020","412-TH","2017/06/16 19:49:20","新北市三重區後竹圍街43號","121.490623333333","25.0733383333333","6500200","三重區"
"241004","475-VK","2017/06/16 19:49:11","新北市三重區五華街74號","121.493483333333","25.082075","6500200","三重區"
"241019","478-VK","2017/06/16 19:49:14","新北市三重區力行路一段83號","121.486805","25.068025","6500200","三重區"
"241030","480-VK","2017/06/16 19:49:14","新北市三重區環河南路253號","121.491181666667","25.0505866666667","6500200","三重區"
"241014","543-UM","2017/06/16 19:49:04","新北市三重區長安街75號","121.501615","25.0673833333333","6500200","三重區"
"241023","545-UM","2017/06/16 19:49:19","新北市三重區頂崁街168號","121.477623333333","25.065915","6500200","三重區"
"241001","547-UM","2017/06/16 19:49:21","新北市三重區仁愛街327巷61號","121.49361","25.08033","6500200","三重區"
"241006","AAD-863","2017/06/16 19:49:20","新北市三重區力行路二段82號","121.48162","25.0738616666667","6500200","三重區"
"241035","743-BX","2017/06/16 19:49:16","新北市三重區重新路二段13巷6號","121.498285","25.062815","6500200","三重區"
"241012","887-TS","2017/06/16 19:49:18","新北市三重區仁興街28巷41號","121.498213333333","25.0751133333333","6500200","三重區"
"241029","942-UM","2017/06/16 19:49:21","新北市三重區光明路15號","121.491115","25.0587233333333","6500200","三重區"
"241033","AAC-255","2017/06/16 19:49:17","新北市三重區中興南街64號","121.470658333333","25.04408","6500200","三重區"
"235066","003-UY","2017/06/16 19:49:00","新北市中和區南工路20號","121.505536666667","25.0005183333333","6500300","中和區"
"235064","005-UY","2017/06/16 19:49:18","新北市中和區南山路32號","121.501993333333","24.9978816666667","6500300","中和區"
"235063","006-UY","2017/06/16 19:49:09","新北市中和區連城路263巷6弄2號","121.492181666667","24.995765","6500300","中和區"
"235053","031-BX","2017/06/16 19:49:13","新北市中和區四維街32號","121.512751666667","24.987035","6500300","中和區"
"235056","096-UM","2017/06/16 19:49:16","新北市中和區中山路三段114巷29號","121.475453333333","25.0083433333333","6500300","中和區"
"235039","097-UM","2017/06/16 19:49:09","新北市中和區秀峰街105號","121.52063","24.99026","6500300","中和區"
"235065","098-UM","2017/06/16 19:49:09","新北市中和區永和路62號","121.498886666667","25.0044166666667","6500300","中和區"
"235040","150-BY","2017/06/16 19:49:13","新北市中和區安平路38號","121.509848333333","24.9948633333333","6500300","中和區"
"235058","151-BY","2017/06/16 19:49:11","新北市中和區員山路142巷11號","121.481958333333","24.9965833333333","6500300","中和區"
"235055","183-VK","2017/06/16 19:49:15","新北市中和區中山路三段181巷18弄11號","121.47269","25.0047933333333","6500300","中和區"
"235038","185-VK","2017/06/16 19:49:18","新北市中和區自立路15巷8號","121.522938333333","24.9959066666667","6500300","中和區"
"235049","186-VK","2017/06/16 19:49:10","新北市中和區中正路2-1號","121.503371666667","24.99364","6500300","中和區"
"235067","255-BX","2017/06/16 19:49:06","新北市中和區新生街220巷15弄11-2號","121.482921666667","24.9978666666667","6500300","中和區"
"235044","293-VK","2017/06/16 19:49:11","新北市中和區興南路一段86號","121.509901666667","24.9892733333333","6500300","中和區"
"235072","301-VK","2017/06/16 19:49:11","新北市中和區橋和路152號","121.494021666667","25.0062566666667","6500300","中和區"
"235051","376-QA","2017/06/16 19:49:08","新北市中和區板南路132號","121.502436666667","24.9926316666667","6500300","中和區"
"235068","377-QA","2017/06/16 19:49:23","新北市中和區永和路24號","121.499466666667","25.0033683333333","6500300","中和區"
"235061","378-QA","2017/06/16 19:49:22","新北市中和區民安街2巷35弄12號","121.47975","25.00167","6500300","中和區"
"235050","4979-A6","2017/06/16 19:49:12","新北市中和區和平街164巷7號","121.505876666667","24.99261","6500300","中和區"
"235069","4980-A6","2017/06/16 19:49:05","新北市中和區錦和路350-1號","121.49072","24.993625","6500300","中和區"
"235042","551-UM","2017/06/16 19:49:14","新北市中和區保健路2巷26號","121.507133333333","24.9975916666667","6500300","中和區"
"235070","558-UM","2017/06/16 19:48:56","新北市中和區景平路634-15號","121.498163333333","24.99997","6500300","中和區"
"235045","565-BX","2017/06/16 19:49:07","新北市中和區安樂路1號","121.511613333333","24.9919633333333","6500300","中和區"
"235054","640-BX","2017/06/16 19:49:19","新北市中和區國光街107巷2弄32號","121.469296666667","24.999035","6500300","中和區"
"235060","647-TV","2017/06/16 19:49:07","新北市中和區員山路374號","121.480706666667","25.0041183333333","6500300","中和區"
"235047","732-UM","2017/06/16 19:28:45","新北市中和區景平路241巷66號","121.507741666667","24.99225","6500300","中和區"
"235071","783-BX","2017/06/16 19:49:19","新北市中和區永和路333巷3號","121.485373333333","25.01021","6500300","中和區"
"235057","801-TS","2017/06/16 19:49:02","新北市中和區員山路162號","121.481405","24.9997166666667","6500300","中和區"
"235052","805-TS","2017/06/16 19:49:10","新北市中和區華新街192巷10號","121.506583333333","24.9827483333333","6500300","中和區"
"235048","896-TW","2017/06/16 19:49:13","新北市中和區華新街2-6號","121.507461666667","24.985145","6500300","中和區"
"235053","900-TW","2017/06/16 19:49:12","新北市中和區國光街205巷2號","121.46672","25.0019366666667","6500300","中和區"
"235041","157-BY","2017/06/16 19:49:12","新北市中和區中和路350巷15弄2號","121.510576666667","25.00088","6500300","中和區"
"235037","AAC-213","2017/06/16 19:49:10","新北市中和區秀朗路三段10巷14弄63號","121.522928333333","24.99662","6500300","中和區"
"235059","AAC-215","2017/06/16 19:49:24","新北市中和區圓通路305巷6號","121.494066666667","24.9897683333333","6500300","中和區"
"220068","013-TV","2017/06/16 19:49:23","新北市板橋區光復街177號","121.485008333333","25.0208916666667","6500100","板橋區"
"220065","072-UY","2017/06/16 19:49:18","新北市板橋區國泰街39巷5弄22號","121.46901","25.006105","6500100","板橋區"
"220086","073-UY","2017/06/16 19:49:16","新北市板橋區南雅西路二段10號","121.453421666667","25.0092333333333","6500100","板橋區"
"220106","075-UY","2017/06/16 19:49:10","新北市板橋區文化路二段620號","121.478265","25.0356583333333","6500100","板橋區"
"220069","AAD-861","2017/06/16 19:49:04","新北市板橋區稚暉街18號","121.45598","25.0044466666667","6500100","板橋區"
"247006","341-TH","2017/06/16 19:49:18","新北市蘆洲區永安南路二段28號","121.467146666667","25.0771283333333","6501400","蘆洲區"
"247008","339-TH","2017/06/16 19:49:02","新北市蘆洲區信義路113巷1弄4號","121.478158333333","25.080495","6501400","蘆洲區"
"247002","336-TH","2017/06/16 19:49:07","新北市蘆洲區永平街27號","121.458731666667","25.0907616666667","6501400","蘆洲區"
"247014","057-VK","2017/06/16 19:49:22","新北市蘆洲區忠孝路39-1號","121.471265","25.0860333333333","6501400","蘆洲區"
"247004","056-VK","2017/06/16 19:49:03","新北市蘆洲區中原路68號","121.45851","25.0820916666667","6501400","蘆洲區"
"247016","001-UY","2017/06/16 19:49:21","新北市蘆洲區中正路201號","121.468551666667","25.08586","6501400","蘆洲區"
"228001","670-TC","2017/06/16 19:49:09","新北市貢寮區真理里新港街113-2號","121.926215","25.056565","6502600","貢寮區"
"228003","828-UM","2017/06/16 19:49:08","新北市貢寮區真理里美艷山街5-1號","121.92658","25.0597183333333","6502600","貢寮區"
"224010","AGQ-8101","2017/06/16 19:48:24","新北市瑞芳區石碑巷75號","121.842445","25.1078733333333","6501200","瑞芳區"
"224002","639-TC","2017/06/16 19:49:13","新北市瑞芳區員山子路員山巷1號","121.816903333333","25.1033116666667","6501200","瑞芳區"
"224011","420-VK","2017/06/16 19:49:04","新北市瑞芳區崙頂路1-6號","121.847085","25.1047383333333","6501200","瑞芳區"
"224008","275-VK","2017/06/16 19:49:05","新北市瑞芳區靜安路四段2巷1號","121.794305","25.0836616666667","6501200","瑞芳區"
"224005","271-BY","2017/06/16 19:49:14","新北市瑞芳區民權街3-2號","121.808056666667","25.1073533333333","6501200","瑞芳區"
"227003","642-TC","2017/06/16 19:49:23","新北市雙溪區雙溪里內挖路47號","121.863225","25.03682","6502500","雙溪區"
"227011","400-TW","2017/06/16 19:49:10","新北市雙溪區新基里朝陽街1號","121.866453333333","25.0386933333333","6502500","雙溪區"
"253006","032-BX","2017/06/16 19:49:05","新北市石門區小坑9號","121.59439","25.2883516666667","6502200","石門區"
"208001","742-BX","2017/06/16 19:49:01","新北市金山區重和里林口29號","121.596681666667","25.2100533333333","6502700","金山區"
"208003","665-BX","2017/06/16 19:49:05","新北市金山區清泉里清水路36號","121.629933333333","25.2309316666667","6502700","金山區"
"251004","009-UM","2017/06/16 19:49:22","新北市淡水區民權路185巷22號","121.460408333333","25.1337683333333","6501000","淡水區"
"251005","010-UM","2017/06/16 19:49:11","新北市淡水區學府路104號","121.449805","25.1717233333333","6501000","淡水區"
"251001","011-UM","2017/06/16 19:49:19","新北市淡水區淡金路二段62號","121.4511","25.1820366666667","6501000","淡水區"
"251002","012-UM","2017/06/16 19:49:14","新北市淡水區中正東路71-4號","121.447316666667","25.167395","6501000","淡水區"
"251013","180-VK","2017/06/16 19:49:18","新北市淡水區頂田寮路172號","121.460331666667","25.2153","6501000","淡水區"
"251008","181-VK","2017/06/16 19:49:23","新北市淡水區中正路一段24巷11號","121.426728333333","25.17704","6501000","淡水區"
"251015","182-VK","2017/06/16 19:49:21","新北市淡水區泉洲厝25-2號","121.484673333333","25.1895466666667","6501000","淡水區"
"251006","561-UM","2017/06/16 19:49:15","新北市淡水區大忠街5巷3號","121.443451666667","25.1768583333333","6501000","淡水區"
"251009","575-R6","2017/06/16 19:49:06","新北市淡水區中正路28號","121.444335","25.1690933333333","6501000","淡水區"
"251007","577-R6","2017/06/16 19:47:46","新北市淡水區竿蓁一街113號","121.455041666667","25.166605","6501000","淡水區"
"251011","650-BX","2017/06/16 19:49:10","新北市淡水區水源街二段177巷32弄20號","121.455656666667","25.17777","6501000","淡水區"
"207003","550-UM","2017/06/16 19:49:21","新北市萬里區大鵬里萬里加投45-1號","121.640845","25.2108483333333","6502800","萬里區"
"207004","225-TW","2017/06/16 19:49:18","新北市萬里區萬里里瑪鋉路238號","121.689028333333","25.1802583333333","6502800","萬里區"
"252002","178-VK","2017/06/16 19:49:12","新北市三芝區三民街27巷5號","121.504708333333","25.2582783333333","6502100","三芝區"
"252001","292-VK","2017/06/16 19:49:17","新北市三芝區公正街9號","121.499786666667","25.2575216666667","6502100","三芝區"
"208002","170-UY","2017/06/16 19:49:20","新北市金山區八德街11號","121.635051666667","25.2234916666667","6502700","金山區"
"237004","078-UY","2017/06/16 19:49:06","新北市三峽區添福141-3號","121.37433","24.9008233333333","6500900","三峽區"
"237007","153-BY","2017/06/16 19:49:23","新北市三峽區二鬮路136巷20弄83號","121.358255","24.90896","6500900","三峽區"
"237009","210-TH","2017/06/16 19:49:21","新北市三峽區中園街33號","121.36824","24.9265033333333","6500900","三峽區"
"237013","252-BX","2017/06/16 19:49:16","新北市三峽區溪北街38號","121.396838333333","24.9360833333333","6500900","三峽區"
"237012","275-BY","2017/06/16 19:49:23","新北市三峽區光明路17號","121.373131666667","24.9313233333333","6500900","三峽區"
"237008","302-VK","2017/06/16 19:49:05","新北市三峽區永安街177號","121.373226666667","24.9270316666667","6500900","三峽區"
"237014","433-BY","2017/06/16 19:49:08","新北市三峽區添福9-40號","121.372071666667","24.906795","6500900","三峽區"
"237006","5529-G3","2017/06/16 19:49:15","新北市三峽區正義街27巷7號","121.370178333333","24.91885","6500900","三峽區"
"237015","649-BX","2017/06/16 19:49:17","新北市三峽區橫溪路99巷71-1號","121.40096","24.937645","6500900","三峽區"
"237005","AKY-6261","2017/06/16 19:49:21","新北市三峽區長泰街52號","121.377881666667","24.93248","6500900","三峽區"
"236072","105-UM","2017/06/16 19:49:09","新北市土城區中正路2號","121.442303333333","24.9749683333333","6501300","土城區"
"236043","107-UM","2017/06/16 19:49:05","新北市土城區裕民路267號","121.455255","24.9824316666667","6501300","土城區"
"236007","137-TH","2017/06/16 07:11:18","新北市土城區城林路6巷80號","121.438741666667","24.9796166666667","6501300","土城區"
"236079","166-UM","2017/06/16 19:49:16","新北市土城區溪頭路90號","121.409451666667","24.9509633333333","6501300","土城區"
"236031","253-BX","2017/06/16 19:49:04","新北市土城區中央路一段318巷4弄12號","121.443236666667","24.9823833333333","6501300","土城區"
"236027","269-VK","2017/06/16 19:49:08","新北市土城區中央路二段61巷20號","121.443115","24.9787316666667","6501300","土城區"
"236039","271-VK","2017/06/16 19:49:09","新北市土城區國際路158巷54號","121.467955","24.9747933333333","6501300","土城區"
"236059","912-UM","2017/06/16 19:49:11","新北市土城區中央路二段24號","121.442805","24.98015","6501300","土城區"
"236050","913-UM","2017/06/16 19:49:19","新北市土城區青雲路309號","121.458998333333","24.9791383333333","6501300","土城區"
"236063","915-UM","2017/06/16 19:49:06","新北市土城區延平街33巷1號","121.46779","24.9917233333333","6501300","土城區"
"236055","AAC-216","2017/06/16 19:49:05","新北市土城區青雲路42號","121.459723333333","24.988365","6501300","土城區"
"242029","986-R7","2017/06/16 19:49:18","新北市新莊區中平路285號","121.444698333333","25.0503633333333","6500500","新莊區"
"242048","751-BX","2017/06/16 19:49:01","新北市新莊區建安街121巷12號","121.426326666667","25.0236433333333","6500500","新莊區"
"242023","613-BX","2017/06/16 19:49:16","新北市新莊區化成路49號","121.465186666667","25.044935","6500500","新莊區"
"242027","612-BX","2017/06/16 19:49:03","新北市新莊區幸福路914號","121.442405","25.0487566666667","6500500","新莊區"
"242037","566-BX","2017/06/16 19:49:17","新北市新莊區建安街44號","121.427513333333","25.0248516666667","6500500","新莊區"
"242041","497-BY","2017/06/16 19:49:19","新北市新莊區新北大道七段556號","121.412295","25.0290166666667","6500500","新莊區"
"242005","442-UM","2017/06/16 19:49:08","新北市新莊區化成路63巷3號","121.464835","25.0457116666667","6500500","新莊區"
"242050","440-UM","2017/06/16 19:49:07","新北市新莊區民全街9巷8號","121.428578333333","25.021735","6500500","新莊區"
"242032","415-TV","2017/06/16 19:49:20","新北市新莊區忠孝街80號","121.443948333333","25.03664","6500500","新莊區"
"242002","413-TV","2017/06/16 19:49:18","新北市新莊區新泰路49號","121.449481666667","25.0337533333333","6500500","新莊區"
"242039","400-BY","2017/06/16 19:49:16","新北市新莊區民安路299巷51號","121.429606666667","25.02374","6500500","新莊區"
"242060","362-BY","2017/06/16 19:49:04","新北市新莊區中正路384號","121.442036666667","25.0343416666667","6500500","新莊區"
"242058","353-BY","2017/06/16 19:49:20","新北市新莊區民安東路6號","121.427941666667","25.02088","6500500","新莊區"
"242044","172-VK","2017/06/16 19:49:17","新北市新莊區新北大道七段387號","121.41269","25.0261866666667","6500500","新莊區"
"242013","175-VK","2017/06/16 19:49:06","新北市新莊區中泰街38巷10號","121.45076","25.04736","6500500","新莊區"
"242056","176-VK","2017/06/16 19:49:01","新北市新莊區新泰路89號","121.448848333333","25.0344366666667","6500500","新莊區"
"242034","347-TH","2017/06/16 19:49:17","新北市新莊區仁愛街12號","121.444258333333","25.035255","6500500","新莊區"
"242017","348-TH","2017/06/16 19:49:10","新北市新莊區中華路一段226號","121.452575","25.04295","6500500","新莊區"
"242015","350-TH","2017/06/16 19:49:20","新北市新莊區中港一街142號","121.446851666667","25.044965","6500500","新莊區"
"238015","755-BX","2017/06/16 19:49:12","新北市樹林區日新街57號","121.422603333333","24.9915733333333","6500700","樹林區"
"238023","601-UM","2017/06/16 19:49:04","新北市樹林區三福街136號","121.405646666667","25.016","6500700","樹林區"
"238024","5061-A6","2017/06/16 19:49:04","新北市樹林區山佳街1號","121.394438333333","24.972935","6500700","樹林區"
"238021","311-TH","2017/06/16 19:48:57","新北市樹林區佳園路三段183號","121.385346666667","24.9479783333333","6500700","樹林區"
"238025","303-VK","2017/06/16 19:49:06","新北市樹林區中山路一段160-2號","121.412146666667","24.9828733333333","6500700","樹林區"
"238017","283-BY","2017/06/16 19:49:05","新北市樹林區保安街二段199號","121.414018333333","25.0034916666667","6500700","樹林區"
"238014","282-BY","2017/06/16 19:49:09","新北市樹林區千歲街46巷11號","121.4267","24.9966383333333","6500700","樹林區"
"238020","268-VK","2017/06/16 19:49:09","新北市樹林區千歲街109號","121.4292","25.00145","6500700","樹林區"
"221036","130-UY","2017/06/16 19:49:14","新北市汐止區汐萬路一段39號","121.655325","25.06864","6501100","汐止區"
"221015","131-UY","2017/06/16 19:49:11","新北市汐止區汐萬路一段37號","121.65541","25.0684983333333","6501100","汐止區"
"221010","269-BY","2017/06/16 19:49:09","新北市汐止區汐萬路一段333巷1號","121.64995","25.076215","6501100","汐止區"
"221012","278-VK","2017/06/16 19:49:19","新北市汐止區大同路三段579號","121.683256666667","25.0730566666667","6501100","汐止區"
"221023","279-VK","2017/06/16 19:49:22","新北市汐止區民族六街3巷1號","121.629531666667","25.0702833333333","6501100","汐止區"
"221032","280-BY","2017/06/16 19:49:08","新北市汐止區橫科路119號","121.620136666667","25.0502816666667","6501100","汐止區"
"221027","281-BY","2017/06/16 19:49:12","新北市汐止區秀峰路9號","121.659263333333","25.06633","6501100","汐止區"
"221038","297-VK","2017/06/16 19:49:04","新北市汐止區忠孝東路250號","121.662893333333","25.0673816666667","6501100","汐止區"
"221029","298-VK","2017/06/16 19:49:18","新北市汐止區康寧街901號","121.651481666667","25.0749066666667","6501100","汐止區"
"221021","299-VK","2017/06/16 19:49:02","新北市汐止區青山路41-1號","121.656553333333","25.0613633333333","6501100","汐止區"
"221025","623-UM","2017/06/16 19:49:14","新北市汐止區秀峰路81巷25號","121.661165","25.0646533333333","6501100","汐止區"
"221033","647-BX","2017/06/16 19:49:04","新北市汐止區東勢街71號","121.632195","25.0401933333333","6501100","汐止區"
"220079","145-BY","2017/06/16 19:49:05","新北市板橋區建國街54巷17號","121.459535","25.016955","6500100","板橋區"
"220093","146-RM","2017/06/16 19:49:22","新北市板橋區長江路二段215號","121.468006666667","25.0324216666667","6500100","板橋區"
"220080","200-UY","2017/06/16 19:49:21","新北市板橋區大觀路二段37巷264號","121.449888333333","25.0016516666667","6500100","板橋區"
"220082","610-BX","2017/06/16 19:49:08","新北市板橋區溪崑一街33號","121.43033","24.991315","6500100","板橋區"
"220101","245-BX","2017/06/16 19:49:11","新北市板橋區莊敬路263巷15號","121.473231666667","25.02178","6500100","板橋區"
"220090","257-TC","2017/06/16 19:49:18","新北市板橋區龍泉街54巷8弄3號","121.457091666667","25.0267866666667","6500100","板橋區"
"220072","277-BY","2017/06/16 19:49:22","新北市板橋區金門街175號","121.432616666667","24.990005","6500100","板橋區"
"220064","280-UM","2017/06/16 19:49:13","新北市板橋區館前東路112號","121.463451666667","25.007575","6500100","板橋區"
"220094","283-UM","2017/06/16 19:49:17","新北市板橋區吳鳳路91-1號","121.46664","25.0318966666667","6500100","板橋區"
"220071","283-VK","2017/06/16 19:49:20","新北市板橋區四川路一段467號","121.457225","24.99756","6500100","板橋區"
"220089","285-UM","2017/06/16 19:49:23","新北市板橋區龍泉街84-3號","121.456363333333","25.025425","6500100","板橋區"
"220053","285-VK","2017/06/16 19:49:09","新北市板橋區中山路二段60巷1弄25號","121.4751","25.015795","6500100","板橋區"
"220083","286-VK","2017/06/16 19:49:06","新北市板橋區龍興街65巷30號","121.442981666667","25.001685","6500100","板橋區"
"220081","287-VK","2017/06/16 19:49:13","新北市板橋區大觀路一段29巷131弄16號","121.450611666667","25.0049866666667","6500100","板橋區"
"220061","293-UM","2017/06/16 19:49:19","新北市板橋區中山路一段283巷2弄1號","121.470096666667","25.0145116666667","6500100","板橋區"
"220084","296-UM","2017/06/16 19:49:08","新北市板橋區滿平二街10巷2號","121.425443333333","24.9866833333333","6500100","板橋區"
"220075","297-UM","2017/06/16 19:49:20","新北市板橋區金華街10巷48弄7號","121.45727","25.0199233333333","6500100","板橋區"
"220097","299-UM","2017/06/16 19:49:08","新北市板橋區文化路一段285巷53號","121.463233333333","25.019785","6500100","板橋區"
"220056","303-R5","2017/06/16 19:49:20","新北市板橋區四川路二段99巷4弄1-2號","121.453121666667","24.9942033333333","6500100","板橋區"
"220062","305-R5","2017/06/16 19:49:10","新北市板橋區中山路二段416巷54弄16號","121.482193333333","25.01942","6500100","板橋區"
"220092","307-R5","2017/06/16 19:49:22","新北市板橋區文化路一段383號","121.467128333333","25.02163","6500100","板橋區"
"220098","317-R6","2017/06/16 19:49:05","新北市板橋區裕民街131號","121.45908","25.02736","6500100","板橋區"
"220088","491-VK","2017/06/16 19:48:45","新北市板橋區仁化街76號","121.476131666667","25.031895","6500100","板橋區"
"220035","560-BX","2017/06/16 19:49:05","新北市板橋區金華街72-3號","121.457605","25.0206816666667","6500100","板橋區"
"220103","561-BX","2017/06/16 19:49:23","新北市板橋區陽明街29巷10號","121.464846666667","25.0219383333333","6500100","板橋區"
"220063","609-BX","2017/06/16 19:49:07","新北市板橋區縣民大道三段310號","121.478641666667","25.02373","6500100","板橋區"
"220091","637-BX","2017/06/16 19:49:19","新北市板橋區懷德街127巷38-3號","121.480103333333","25.031475","6500100","板橋區"
"220057","686-BX","2017/06/16 19:49:22","新北市板橋區國慶路158巷9-3號","121.462015","24.9956283333333","6500100","板橋區"
"220077","687-BX","2017/06/16 19:49:12","新北市板橋區僑中一街102巷7弄20號","121.446043333333","25.0129516666667","6500100","板橋區"
"220054","741-BX","2017/06/16 19:49:18","新北市板橋區忠孝路239巷34號","121.467308333333","25.0035683333333","6500100","板橋區"
"220055","827-TW","2017/06/16 19:49:16","新北市板橋區國慶路49巷17號","121.459623333333","24.9963033333333","6500100","板橋區"
"220067","829-TW","2017/06/16 19:49:21","新北市板橋區長安街331巷19弄13號","121.473451666667","25.012255","6500100","板橋區"
"220102","830-TW","2017/06/16 19:49:08","新北市板橋區仁化街53號","121.475175","25.03178","6500100","板橋區"
"220096","831-TW","2017/06/16 19:49:17","新北市板橋區莒光路40巷18號","121.470125","25.02358","6500100","板橋區"
"220074","895-R6","2017/06/16 19:49:18","新北市板橋區府中路123號","121.456161666667","25.0094516666667","6500100","板橋區"
"220073","985-R7","2017/06/16 19:49:21","新北市板橋區國光路51號","121.458033333333","25.0180266666667","6500100","板橋區"
"220070","AAC-253","2017/06/16 19:49:22","新北市板橋區民族路105號","121.466746666667","25.0082233333333","6500100","板橋區"
