"lineid","car","time","location","longitude","latitude","cityid","cityname"
"234013","149-BY","2017/06/16 20:39:18","新北市新店區安業街8巷2號","121.514993333333","24.97771","6500400","永和區"
"234081","298-R6","2017/06/16 20:39:18","新北市永和區永貞路82號","121.520196666667","25.0050283333333","6500400","永和區"
"234030","746-BX","2017/06/16 20:39:20","新北市新店區薏仁坑路5號","121.499021666667","24.95906","6500400","永和區"
"234061","AAD-866","2017/06/16 20:39:20","新北市永和區秀朗路一段175號","121.517036666667","25.0036716666667","6500400","永和區"
"234042","862-TW","2017/06/16 20:39:16","新北市永和區福和路110號","121.522076666667","25.0079616666667","6500400","永和區"
"249001","173-UM","2017/06/16 20:39:05","新北市八里區下罟子23號","121.37666","25.138675","6502300","八里區"
"249004","303-UY","2017/06/16 20:39:09","新北市八里區中山路一段157巷41號","121.412831666667","25.1580583333333","6502300","八里區"
"234023","9380-KE","2017/06/16 20:39:15","新北市永和區保順路11號","121.504718333333","25.0094816666667","6500400","永和區"
"234067","AAC-212","2017/06/16 20:39:07","新北市永和區保平路290號","121.50802","25.0046716666667","6500400","永和區"
"244007","080-UY","2017/06/16 17:55:14","新北市林口區竹林路153號","121.388648333333","25.079795","6501700","林口區"
"243009","297-R6","2017/06/16 20:39:03","新北市泰山區泰林路二段542巷3弄1號","121.42338","25.0641516666667","6501600","泰山區"
"243010","548-UM","2017/06/16 20:39:22","新北市泰山區公園路60號","121.42563","25.0558583333333","6501600","泰山區"
"222005","289-BY","2017/06/16 09:56:55","新北市深坑區深坑街85號","121.614628333333","25.0013033333333","6501800","深坑區"
"222003","436-BY","2017/06/16 20:39:19","新北市深坑區文山路二段30巷35號","121.6145","24.99899","6501800","深坑區"
"222002","659-BX","2017/06/16 20:39:10","新北市深坑區萬福路43號","121.599308333333","25.00683","6501800","深坑區"
"222001","696-SL","2017/06/16 20:39:19","新北市深坑區北深路三段258號","121.599663333333","25.0044233333333","6501800","深坑區"
"231041","002-UM","2017/06/16 20:39:11","新北市新店區中正路543-4號","121.533723333333","24.9874933333333","6500600","新店區"
"231056","0291-UT","2017/06/16 20:39:12","新北市新店區中央六街33號","121.528963333333","24.97525","6500600","新店區"
"231059","046-UY","2017/06/16 20:39:16","新北市新店區吉祥街15巷60號","121.499803333333","24.9452583333333","6500600","新店區"
"231061","047-UY","2017/06/16 20:39:14","新北市新店區新和街92號","121.52067","24.9860516666667","6500600","新店區"
"231060","106-UY","2017/06/16 20:39:02","新北市新店區安康路三段567-1號","121.475595","24.9436816666667","6500600","新店區"
"231051","107-UY","2017/06/16 20:39:11","新北市新店區中央七街61巷1號","121.528115","24.9764983333333","6500600","新店區"
"231048","108-UY","2017/06/16 20:39:18","新北市新店區寶慶街76號","121.541606666667","24.986775","6500600","新店區"
"231053","187-VK","2017/06/16 20:39:16","新北市新店區廣興路7-1號","121.545916666667","24.9121366666667","6500600","新店區"
"231057","256-BX","2017/06/16 20:39:15","新北市新店區花園六路二段1-12號","121.553565","24.9332633333333","6500600","新店區"
"231063","268-BY","2017/06/16 20:39:05","新北市新店區玫瑰路4-1號","121.493608333333","24.95136","6500600","新店區"
"231050","AAD-862","2017/06/16 20:39:12","新北市新店區建國路85號","121.540465","24.97646","6500600","新店區"
"231058","3712-VJ","2017/06/16 20:39:17","新北市新店區平等街48巷21號","121.535263333333","24.9734883333333","6500600","新店區"
"231065","512-UM","2017/06/16 20:39:22","新北市新店區安祥路102巷128號","121.48654","24.9642533333333","6500600","新店區"
"231054","513-UM","2017/06/16 20:39:17","新北市新店區行政街12巷2號","121.542851666667","24.9665616666667","6500600","新店區"
"231064","515-UM","2017/06/16 20:39:14","新北市新店區安和路三段173號","121.515923333333","24.9861733333333","6500600","新店區"
"231045","617-UM","2017/06/16 20:39:14","新北市新店區長春路126號","121.556503333333","24.9615366666667","6500600","新店區"
"231040","619-UM","2017/06/16 20:39:06","新北市新店區中正路263巷8號","121.53832","24.9732366666667","6500600","新店區"
"231042","641-BX","2017/06/16 20:39:13","新北市新店區寶高路120巷1-1號","121.554623333333","24.9759383333333","6500600","新店區"
"231068","718-UY","2017/06/16 20:39:19","新北市新店區寶元路一段85巷10號","121.543145","24.986025","6500600","新店區"
"231049","719-UM","2017/06/16 20:39:09","新北市新店區永業路81巷5弄24號","121.530815","24.9495866666667","6500600","新店區"
"231062","720-UM","2017/06/16 20:39:06","新北市新店區安康路三段204-2號","121.488868333333","24.951755","6500600","新店區"
"231044","897-TW","2017/06/16 20:39:22","新北市新店區建國路293巷1號","121.536756666667","24.9861683333333","6500600","新店區"
"231043","899-TW","2017/06/16 20:39:04","新北市新店區建國路30號","121.540446666667","24.9745083333333","6500600","新店區"
"231066","AKT-0513","2017/06/16 20:39:12","新北市新店區安興路112號","121.514631666667","24.9776566666667","6500600","新店區"
"241028","022-UY","2017/06/16 20:39:13","新北市三重區光興街95號","121.49727","25.0598883333333","6500200","三重區"
"241008","059-VK","2017/06/16 20:39:18","新北市三重區下竹圍街42號","121.481026666667","25.0749116666667","6500200","三重區"
"241009","060-VK","2017/06/16 20:39:17","新北市三重區碧華街57號","121.484778333333","25.0813","6500200","三重區"
"241031","061-VK","2017/06/16 20:39:00","新北市三重區重陽路一段43巷30號","121.488286666667","25.0585416666667","6500200","三重區"
"241015","062-VK","2017/06/16 20:39:16","新北市三重區文化北路103號","121.497888333333","25.0684166666667","6500200","三重區"
"241017","063-VK","2017/06/16 20:39:13","新北市三重區大同北路261號","121.490901666667","25.0671483333333","6500200","三重區"
"241024","065-VK","2017/06/16 20:39:08","新北市三重區國道路一段85巷9號","121.479938333333","25.0724666666667","6500200","三重區"
"241026","066-VK","2017/06/16 20:39:18","新北市三重區和平街1號","121.50012","25.0623516666667","6500200","三重區"
"241002","090-VK","2017/06/16 20:39:01","新北市三重區仁義街167巷26號","121.497966666667","25.082085","6500200","三重區"
"241003","091-VK","2017/06/16 20:39:10","新北市三重區集賢路87-1號","121.49381","25.0870033333333","6500200","三重區"
"241005","262-UM","2017/06/16 20:39:17","新北市三重區五華街141巷57號","121.493405","25.0864883333333","6500200","三重區"
"241013","265-UM","2017/06/16 20:39:03","新北市三重區仁賢街4號","121.495586666667","25.074785","6500200","三重區"
"241016","266-UM","2017/06/16 20:39:20","新北市三重區長壽西街85號","121.495146666667","25.0670616666667","6500200","三重區"
"241022","267-UM","2017/06/16 20:39:21","新北市三重區新北大道一段46巷7號","121.487903333333","25.0620016666667","6500200","三重區"
"241018","268-UM","2017/06/16 20:39:13","新北市三重區重陽路四段25號","121.491361666667","25.069425","6500200","三重區"
"241032","269-UM","2017/06/16 20:39:23","新北市三重區重陽路一段120巷46號","121.485098333333","25.0601","6500200","三重區"
"241011","270-UM","2017/06/16 20:39:20","新北市三重區龍濱路219巷5號","121.502115","25.0720466666667","6500200","三重區"
"241025","271-UM","2017/06/16 20:39:03","新北市三重區頂崁街192巷23號","121.475991666667","25.0657483333333","6500200","三重區"
"241007","398-BY","2017/06/16 20:36:38","新北市三重區自強路四段34號","121.488728333333","25.0770066666667","6500200","三重區"
"241020","412-TH","2017/06/16 20:39:00","新北市三重區忠孝路一段101號","121.48955","25.0721583333333","6500200","三重區"
"241004","475-VK","2017/06/16 20:39:11","新北市三重區仁愛街406巷3號","121.490696666667","25.081255","6500200","三重區"
"241019","478-VK","2017/06/16 20:39:14","新北市三重區忠孝路一段10巷36號","121.4912","25.071295","6500200","三重區"
"241030","480-VK","2017/06/16 20:39:07","新北市三重區成功路73巷18號","121.489426666667","25.0519366666667","6500200","三重區"
"241014","543-UM","2017/06/16 20:39:03","新北市三重區萬壽街14號","121.499425","25.0694016666667","6500200","三重區"
"241023","545-UM","2017/06/16 20:39:19","新北市三重區頂崁街187巷10號","121.47803","25.0664566666667","6500200","三重區"
"241001","547-UM","2017/06/16 20:39:00","新北市三重區自強路三段110巷17號","121.486285","25.0746616666667","6500200","三重區"
"241006","AAD-863","2017/06/16 20:39:00","新北市三重區車路頭街139巷14號","121.484308333333","25.0761666666667","6500200","三重區"
"241035","743-BX","2017/06/16 20:39:16","新北市三重區正義北路185-1號","121.496523333333","25.0679216666667","6500200","三重區"
"241012","887-TS","2017/06/16 20:39:16","新北市三重區河邊北街190號","121.502758333333","25.0739516666667","6500200","三重區"
"241029","942-UM","2017/06/16 20:39:01","新北市三重區集美街126巷23號","121.489911666667","25.0537016666667","6500200","三重區"
"241033","AAC-255","2017/06/16 20:39:17","新北市三重區光復路二段1號","121.472253333333","25.0533533333333","6500200","三重區"
"235039","097-UM","2017/06/16 20:39:09","新北市中和區大勇街27巷16號","121.516705","24.9938916666667","6500300","中和區"
"235065","098-UM","2017/06/16 20:39:09","新北市中和區福美路312巷8號","121.496646666667","25.0052366666667","6500300","中和區"
"235072","301-VK","2017/06/16 20:39:10","新北市新莊區五工一路85號","121.461686666667","25.0675966666667","6500300","中和區"
"235050","4979-A6","2017/06/16 20:11:32","新北市中和區景平路334號","121.511891666667","24.9928433333333","6500300","中和區"
"235069","4980-A6","2017/06/16 20:39:05","新北市中和區新生街288號","121.483666666667","24.9964966666667","6500300","中和區"
"235026","800-TS","2017/06/16 20:39:14","新北市中和區員山路36巷16-3號","121.48499","24.9914683333333","6500300","中和區"
"235037","AAC-213","2017/06/16 20:39:10","新北市中和區秀朗路三段128巷17弄27號","121.523126666667","24.9934316666667","6500300","中和區"
"247020","893-R6","2017/06/16 20:39:09","新北市蘆洲區民族路446-5號","121.472615","25.0921516666667","6501400","蘆洲區"
"247010","546-UM","2017/06/16 20:39:04","新北市蘆洲區中山一路138號","121.476318333333","25.0816866666667","6501400","蘆洲區"
"247006","341-TH","2017/06/16 20:39:18","新北市蘆洲區和平路121巷8弄6號","121.466813333333","25.080055","6501400","蘆洲區"
"247008","339-TH","2017/06/16 20:39:21","新北市蘆洲區重陽一街1號","121.481786666667","25.08134","6501400","蘆洲區"
"247024","337-TH","2017/06/16 20:39:10","新北市蘆洲區長樂路239號","121.462435","25.091065","6501400","蘆洲區"
"247002","336-TH","2017/06/16 20:39:06","新北市蘆洲區環堤大道142號","121.455663333333","25.0884433333333","6501400","蘆洲區"
"247014","057-VK","2017/06/16 20:39:11","新北市蘆洲區成功路84號","121.473035","25.0813283333333","6501400","蘆洲區"
"247004","056-VK","2017/06/16 20:39:03","新北市蘆洲區長安街297號","121.45797","25.084845","6501400","蘆洲區"
"247012","007-UY","2017/06/16 20:39:10","新北市蘆洲區集賢路213號","121.483106666667","25.087105","6501400","蘆洲區"
"247022","002-UY","2017/06/16 20:39:15","新北市蘆洲區中正路263巷3號","121.467061666667","25.08717","6501400","蘆洲區"
"247016","001-UY","2017/06/16 20:39:00","新北市蘆洲區中山二路286號","121.468753333333","25.0778916666667","6501400","蘆洲區"
"224011","420-VK","2017/06/16 20:21:18","新北市瑞芳區明燈路二段66號","121.80937","25.10759","6501200","瑞芳區"
"251001","011-UM","2017/06/16 20:38:59","新北市淡水區水源街二段194號","121.457088333333","25.175575","6501000","淡水區"
"251002","012-UM","2017/06/16 20:39:14","新北市淡水區中正路二段31號","121.418943333333","25.181945","6501000","淡水區"
"251013","180-VK","2017/06/16 20:39:18","新北市淡水區下圭柔山28巷3號","121.457183333333","25.204265","6501000","淡水區"
"251010","413-VK","2017/06/16 20:39:03","新北市淡水區沙崙路181巷15號","121.423985","25.1843133333333","6501000","淡水區"
"251012","441-VK","2017/06/16 20:39:03","新北市淡水區興仁路104號","121.451721666667","25.2180716666667","6501000","淡水區"
"251006","561-UM","2017/06/16 20:39:15","新北市淡水區商工路30號","121.447336666667","25.1881783333333","6501000","淡水區"
"251009","575-R6","2017/06/16 20:39:07","新北市淡水區民權路187巷19號","121.460621666667","25.1335066666667","6501000","淡水區"
"251007","577-R6","2017/06/16 20:39:09","新北市淡水區忠愛街2-2號","121.455886666667","25.1717433333333","6501000","淡水區"
"251011","650-BX","2017/06/16 20:39:10","新北市淡水區新市一路一段361號","121.436265","25.1861983333333","6501000","淡水區"
"251002","672-BX","2017/06/16 20:39:21","新北市淡水區中正路32號","121.443876666667","25.16921","6501000","淡水區"
"251003","673-BX","2017/06/16 20:39:15","新北市淡水區新民街152巷6弄22號","121.438683333333","25.1785566666667","6501000","淡水區"
"252001","292-VK","2017/06/16 20:39:17","新北市三芝區長安街25號","121.501648333333","25.2560633333333","6502100","三芝區"
"236007","137-TH","2017/06/16 07:11:18","新北市土城區城林路6巷80號","121.438741666667","24.9796166666667","6501300","土城區"
"242021","AAC-296","2017/06/16 20:39:14","新北市新莊區公園路118號","121.451458333333","25.0398566666667","6500500","新莊區"
"242029","986-R7","2017/06/16 20:39:17","新北市新莊區昌平街31巷9號","121.454236666667","25.0513783333333","6500500","新莊區"
"242048","751-BX","2017/06/16 20:39:22","新北市新莊區中正路857-4號","121.419248333333","25.0278866666667","6500500","新莊區"
"242025","615-BX","2017/06/16 20:39:19","新北市新莊區化成路579巷1號","121.464391666667","25.066085","6500500","新莊區"
"242023","613-BX","2017/06/16 20:39:21","新北市新莊區化成路968號","121.465068333333","25.06353","6500500","新莊區"
"242027","612-BX","2017/06/16 20:39:03","新北市新莊區思源路63號","121.459995","25.0403816666667","6500500","新莊區"
"242037","566-BX","2017/06/16 20:39:17","新北市新莊區建安街16巷2號","121.428485","25.0265783333333","6500500","新莊區"
"242041","497-BY","2017/06/16 20:39:19","新北市新莊區天祥街45號","121.416733333333","25.0288583333333","6500500","新莊區"
"242005","442-UM","2017/06/16 20:39:08","新北市新莊區化成路389巷18號","121.464476666667","25.0583216666667","6500500","新莊區"
"242046","441-UM","2017/06/16 20:39:20","新北市新莊區富國路22巷19號","121.418343333333","25.0258233333333","6500500","新莊區"
"242050","440-UM","2017/06/16 20:39:07","新北市新莊區民安西路158號","121.426111666667","25.016305","6500500","新莊區"
"242032","415-TV","2017/06/16 20:39:19","新北市新莊區建國一路23號","121.433955","25.03139","6500500","新莊區"
"242002","413-TV","2017/06/16 20:39:18","新北市新莊區中港路五守新村37巷2號","121.454651666667","25.0389916666667","6500500","新莊區"
"242039","400-BY","2017/06/16 20:39:16","新北市新莊區瓊林路204-11號","121.43753","25.0212133333333","6500500","新莊區"
"242060","362-BY","2017/06/16 20:39:04","新北市新莊區新樹路258巷3-1號","121.432043333333","25.01574","6500500","新莊區"
"242058","353-BY","2017/06/16 20:39:00","新北市新莊區四維路121號","121.423111666667","25.02313","6500500","新莊區"
"242011","132-UY","2017/06/16 20:39:09","新北市新莊區中榮街124號","121.446566666667","25.0527266666667","6500500","新莊區"
"242019","135-UY","2017/06/16 20:39:05","新北市新莊區中港路170號","121.454978333333","25.0416316666667","6500500","新莊區"
"242044","172-VK","2017/06/16 20:38:57","新北市新莊區龍安路92號","121.417666666667","25.02075","6500500","新莊區"
"242007","173-VK","2017/06/16 20:39:11","新北市新莊區思源路195號","121.459838333333","25.0455916666667","6500500","新莊區"
"242013","175-VK","2017/06/16 20:39:06","新北市新莊區中和街191巷71號","121.44659","25.0513216666667","6500500","新莊區"
"242056","176-VK","2017/06/16 20:39:02","新北市新莊區瓊泰路94巷48號","121.44499","25.0294016666667","6500500","新莊區"
"242034","347-TH","2017/06/16 20:39:18","新北市新莊區中正路307號","121.448198333333","25.0352583333333","6500500","新莊區"
"242017","348-TH","2017/06/16 20:39:22","新北市新莊區中港三街141號","121.448113333333","25.04599","6500500","新莊區"
"242054","349-TH","2017/06/16 20:39:16","新北市新莊區西盛街324巷43號","121.426725","25.0146033333333","6500500","新莊區"
"242015","350-TH","2017/06/16 20:39:20","新北市新莊區中港一街153號","121.447606666667","25.0450416666667","6500500","新莊區"
"242009","351-TH","2017/06/16 20:39:11","新北市新莊區幸福路564巷2弄4號","121.454635","25.0495516666667","6500500","新莊區"
"238023","601-UM","2017/06/16 20:39:04","新北市樹林區育德街78-1號","121.387375","24.9682733333333","6500700","樹林區"
"221036","130-UY","2017/06/16 20:39:14","新北市汐止區新昌路48號","121.662558333333","25.0680083333333","6501100","汐止區"
"221015","131-UY","2017/06/16 20:39:11","新北市汐止區建成路52號","121.663778333333","25.07287","6501100","汐止區"
"221012","278-VK","2017/06/16 20:39:19","新北市汐止區大同路三段241號","121.672611666667","25.0766383333333","6501100","汐止區"
"221023","279-VK","2017/06/16 20:39:17","新北市汐止區康寧街753巷2弄10號","121.639398333333","25.0739733333333","6501100","汐止區"
"221032","280-BY","2017/06/16 20:39:08","新北市汐止區橫科路221巷19-1號","121.621501666667","25.0495116666667","6501100","汐止區"
"221027","281-BY","2017/06/16 20:39:17","新北市汐止區大同路二段403號","121.658195","25.0672716666667","6501100","汐止區"
"221038","297-VK","2017/06/16 20:39:04","新北市汐止區忠孝東路9號","121.65772","25.06573","6501100","汐止區"
"221029","298-VK","2017/06/16 20:38:39","新北市汐止區大同路一段509號","121.645145","25.0624416666667","6501100","汐止區"
"221021","299-VK","2017/06/16 20:30:12","新北市汐止區水源路一段284號","121.654141666667","25.0582483333333","6501100","汐止區"
"221035","622-UM","2017/06/16 20:39:20","新北市汐止區長江街101-5號","121.658703333333","25.0731666666667","6501100","汐止區"
"221025","623-UM","2017/06/16 20:39:14","新北市汐止區水源路二段271-1號","121.659126666667","25.0498716666667","6501100","汐止區"
"221033","647-BX","2017/06/16 20:39:04","台北市南港區合順街8巷7弄38號","121.620265","25.04186","6501100","汐止區"
"220083","286-VK","2017/06/16 20:39:06","新北市板橋區僑中二街104巷2號","121.445901666667","25.00792","6500100","板橋區"
"220081","287-VK","2017/06/16 20:39:13","新北市板橋區大觀路三段59巷17弄5-1號","121.435176666667","24.995195","6500100","板橋區"
"220103","561-BX","2017/06/16 20:39:10","新北市板橋區漢生東路73巷26號","121.467248333333","25.016965","6500100","板橋區"
