"lineid","car","time","location","longitude","latitude","cityid","cityname"
"244007","080-UY","2017/06/16 17:55:14","新北市林口區竹林路153號","121.388648333333","25.079795","6501700","林口區"
"222005","289-BY","2017/06/16 09:56:55","新北市深坑區深坑街85號","121.614628333333","25.0013033333333","6501800","深坑區"
"231059","046-UY","2017/06/16 21:19:16","新北市新店區薏仁坑路自強巷1號","121.496766666667","24.9579333333333","6500600","新店區"
"231061","047-UY","2017/06/16 21:19:14","新北市新店區薏仁坑路自強巷1號","121.49772","24.957715","6500600","新店區"
"231051","107-UY","2017/06/16 21:19:11","新北市新店區中正路700巷48號","121.535685","24.9918266666667","6500600","新店區"
"231048","108-UY","2017/06/16 21:19:18","新北市新店區安興路51號","121.516528333333","24.9718333333333","6500600","新店區"
"231063","268-BY","2017/06/16 21:19:04","新北市新店區玫瑰路57巷34號","121.496866666667","24.946335","6500600","新店區"
"231050","AAD-862","2017/06/16 21:19:11","新北市新店區中華路83巷2弄20號","121.538395","24.969145","6500600","新店區"
"231067","4772-VM","2017/06/16 21:18:59","新北市新店區安德街148巷12弄6號","121.508078333333","24.96032","6500600","新店區"
"231040","619-UM","2017/06/16 21:19:06","新北市新店區北新路一段235號","121.540751666667","24.9656766666667","6500600","新店區"
"231066","AKT-0513","2017/06/16 21:19:12","新北市新店區薏仁坑路自強巷6號","121.496416666667","24.9582616666667","6500600","新店區"
"241028","022-UY","2017/06/16 21:19:13","新北市三重區正義南路169號","121.49895","25.0574666666667","6500200","三重區"
"241008","059-VK","2017/06/16 21:19:18","新北市三重區自強路一段62號","121.497278333333","25.0666333333333","6500200","三重區"
"241009","060-VK","2017/06/16 21:19:17","新北市三重區忠孝路二段138號","121.48237","25.0682716666667","6500200","三重區"
"241031","061-VK","2017/06/16 21:19:00","新北市三重區五谷王南街46巷37號","121.475736666667","25.0455066666667","6500200","三重區"
"241017","063-VK","2017/06/16 21:19:13","新北市三重區國隆路23號","121.493093333333","25.06423","6500200","三重區"
"241024","065-VK","2017/06/16 21:19:08","新北市三重區中正北路145巷8弄2號","121.484063333333","25.0677766666667","6500200","三重區"
"241026","066-VK","2017/06/16 21:19:18","新北市三重區大同南路232號","121.496795","25.0561666666667","6500200","三重區"
"241002","090-VK","2017/06/16 21:19:21","新北市三重區五華街11號","121.494926666667","25.08033","6500200","三重區"
"241003","091-VK","2017/06/16 21:19:10","新北市三重區仁義街337-1號","121.49496","25.0848416666667","6500200","三重區"
"241005","262-UM","2017/06/16 21:19:17","新北市三重區三信路182號","121.488081666667","25.08607","6500200","三重區"
"241013","265-UM","2017/06/16 21:19:03","新北市三重區仁愛街62號","121.495896666667","25.07305","6500200","三重區"
"241016","266-UM","2017/06/16 21:19:20","新北市三重區自強路一段236號","121.493208333333","25.0671283333333","6500200","三重區"
"241022","267-UM","2017/06/16 21:19:01","新北市三重區新北大道一段7號","121.489608333333","25.06124","6500200","三重區"
"241018","268-UM","2017/06/16 21:19:13","新北市三重區忠孝路一段141號","121.488313333333","25.07199","6500200","三重區"
"241032","269-UM","2017/06/16 21:19:03","新北市三重區中興北街153號","121.469063333333","25.052515","6500200","三重區"
"241011","270-UM","2017/06/16 21:19:20","新北市三重區龍濱路191號","121.501891666667","25.0712766666667","6500200","三重區"
"241025","271-UM","2017/06/16 21:19:03","新北市三重區忠孝路三段40巷16弄10號","121.482303333333","25.0668383333333","6500200","三重區"
"241007","398-BY","2017/06/16 21:19:06","新北市三重區車路頭街90號","121.48437","25.0742133333333","6500200","三重區"
"241004","475-VK","2017/06/16 21:19:11","新北市三重區分子尾街85號","121.488878333333","25.08262","6500200","三重區"
"241019","478-VK","2017/06/16 21:19:14","新北市三重區重陽路三段7-3號","121.489186666667","25.0665533333333","6500200","三重區"
"241030","480-VK","2017/06/16 21:19:07","新北市三重區重新路五段430號","121.475121666667","25.0476983333333","6500200","三重區"
"241014","543-UM","2017/06/16 21:19:03","新北市三重區安和路46號","121.500796666667","25.06965","6500200","三重區"
"241023","545-UM","2017/06/16 21:18:59","新北市三重區忠孝路三段40巷21號","121.482571666667","25.06595","6500200","三重區"
"241001","547-UM","2017/06/16 21:19:20","新北市三重區福隆路44號","121.49231","25.0784083333333","6500200","三重區"
"241006","AAD-863","2017/06/16 21:19:20","新北市三重區重陽路二段67號","121.487811666667","25.0638016666667","6500200","三重區"
"241012","887-TS","2017/06/16 21:19:16","新北市三重區龍門路284號","121.501965","25.0741616666667","6500200","三重區"
"241033","AAC-255","2017/06/16 21:19:17","新北市三重區光復路二段102巷26號","121.47055","25.058085","6500200","三重區"
"235026","800-TS","2017/06/16 20:45:04","新北市中和區員山路36巷16-3號","121.484998333333","24.9914416666667","6500300","中和區"
"247020","893-R6","2017/06/16 21:19:09","新北市蘆洲區復興路323巷368號","121.474048333333","25.0941633333333","6501400","蘆洲區"
"247010","546-UM","2017/06/16 21:19:04","新北市蘆洲區鷺江街16-2號","121.47881","25.0824833333333","6501400","蘆洲區"
"247018","500-BY","2017/06/16 21:19:19","新北市蘆洲區復興路105巷11號","121.476456666667","25.0884166666667","6501400","蘆洲區"
"247006","341-TH","2017/06/16 21:19:18","新北市蘆洲區長安街66號","121.46278","25.080005","6501400","蘆洲區"
"247008","339-TH","2017/06/16 21:19:02","新北市蘆洲區民生街20號","121.475205","25.079015","6501400","蘆洲區"
"247024","337-TH","2017/06/16 21:19:10","新北市蘆洲區光明路130號","121.463773333333","25.088305","6501400","蘆洲區"
"247002","336-TH","2017/06/16 21:19:06","新北市蘆洲區永樂街38巷40號","121.45866","25.0901633333333","6501400","蘆洲區"
"247014","057-VK","2017/06/16 21:19:11","新北市蘆洲區保和街28號","121.470461666667","25.086565","6501400","蘆洲區"
"247004","056-VK","2017/06/16 21:19:03","新北市蘆洲區永安南路二段320號","121.456961666667","25.0826966666667","6501400","蘆洲區"
"247012","007-UY","2017/06/16 21:19:10","新北市蘆洲區中興街114號","121.482305","25.0888466666667","6501400","蘆洲區"
"247022","002-UY","2017/06/16 21:19:15","新北市蘆洲區三民路245號","121.468838333333","25.0889166666667","6501400","蘆洲區"
"247016","001-UY","2017/06/16 21:19:00","新北市蘆洲區光華路46巷53號","121.46727","25.08484","6501400","蘆洲區"
"224011","420-VK","2017/06/16 20:21:18","新北市瑞芳區明燈路二段66號","121.80937","25.10759","6501200","瑞芳區"
"251004","009-UM","2017/06/16 21:19:22","新北市淡水區民族路33巷16-19號","121.462358333333","25.1358683333333","6501000","淡水區"
"251005","010-UM","2017/06/16 21:19:11","新北市淡水區水源街一段122巷39號","121.447066666667","25.1703683333333","6501000","淡水區"
"251001","011-UM","2017/06/16 21:19:19","新北市淡水區沙崙路一段60號","121.431695","25.1904016666667","6501000","淡水區"
"251013","180-VK","2017/06/16 21:19:18","新北市淡水區行忠路328號","121.460513333333","25.19965","6501000","淡水區"
"251008","181-VK","2017/06/16 21:19:03","新北市淡水區水源街二段346巷1弄1號","121.464135","25.1755366666667","6501000","淡水區"
"251015","182-VK","2017/06/16 21:19:05","新北市淡水區淡金路四段542巷27-1號","121.453191666667","25.2271933333333","6501000","淡水區"
"251010","413-VK","2017/06/16 21:19:03","新北市淡水區中正路一段156巷12號","121.421791666667","25.1808166666667","6501000","淡水區"
"251012","441-VK","2017/06/16 21:19:03","新北市淡水區石頭埔8號","121.452585","25.23462","6501000","淡水區"
"251006","561-UM","2017/06/16 20:56:44","新北市淡水區中正路二段31號","121.419188333333","25.1818383333333","6501000","淡水區"
"251009","575-R6","2017/06/16 21:19:07","新北市淡水區民族路92號","121.462378333333","25.1355183333333","6501000","淡水區"
"251011","650-BX","2017/06/16 21:19:10","新北市淡水區新民街120巷29號","121.438888333333","25.1788266666667","6501000","淡水區"
"251002","672-BX","2017/06/16 21:18:15","新北市淡水區學府路172巷21號","121.448216666667","25.1749966666667","6501000","淡水區"
"251003","673-BX","2017/06/16 21:19:15","新北市淡水區崁頂15-5號","121.438931666667","25.1858883333333","6501000","淡水區"
"236007","137-TH","2017/06/16 07:11:18","新北市土城區城林路6巷80號","121.438741666667","24.9796166666667","6501300","土城區"
"220081","287-VK","2017/06/16 21:19:13","新北市板橋區大觀路二段265巷9-4號","121.442501666667","24.9945266666667","6500100","板橋區"
