"lineid","car","time","location","longitude","latitude","cityid","cityname"
"244007","080-UY","2017/06/16 17:55:14","新北市林口區竹林路153號","121.388648333333","25.079795","6501700","林口區"
"222005","289-BY","2017/06/16 09:56:55","新北市深坑區深坑街85號","121.614628333333","25.0013033333333","6501800","深坑區"
"241005","262-UM","2017/06/16 21:49:17","新北市三重區五華街141巷58號","121.493406666667","25.0867066666667","6500200","三重區"
"235026","800-TS","2017/06/16 20:45:04","新北市中和區員山路36巷16-3號","121.484998333333","24.9914416666667","6500300","中和區"
"247006","341-TH","2017/06/16 21:49:18","新北市林口區汕頭32號","121.366313333333","25.13473","6501400","蘆洲區"
"247014","057-VK","2017/06/16 21:49:11","新北市八里區中山路三段382號","121.36862","25.1358483333333","6501400","蘆洲區"
"224011","420-VK","2017/06/16 21:48:58","新北市瑞芳區中正路68-1號","121.806183333333","25.1075416666667","6501200","瑞芳區"
"251004","009-UM","2017/06/16 21:49:02","新北市淡水區自強路279-1號","121.461473333333","25.127895","6501000","淡水區"
"251005","010-UM","2017/06/16 21:49:10","新北市淡水區鄧公路30巷20號","121.453256666667","25.1697716666667","6501000","淡水區"
"251008","181-VK","2017/06/16 21:49:03","新北市淡水區學府路104號","121.449746666667","25.1716716666667","6501000","淡水區"
"251015","182-VK","2017/06/16 21:49:05","新北市淡水區新市二路四段265號","121.4458","25.1924616666667","6501000","淡水區"
"251010","413-VK","2017/06/16 21:49:03","新北市淡水區濱海路三段148巷50弄76號","121.430663333333","25.190355","6501000","淡水區"
"251012","441-VK","2017/06/16 21:49:02","新北市淡水區中山北路三段165-5號","121.445451666667","25.196855","6501000","淡水區"
"251006","561-UM","2017/06/16 21:48:58","新北市淡水區中正路119號","121.43935","25.1697966666667","6501000","淡水區"
"251009","575-R6","2017/06/16 21:49:07","新北市淡水區民族路35巷4號","121.46457","25.137135","6501000","淡水區"
"251007","577-R6","2017/06/16 21:49:05","新北市淡水區水源街二段177巷76號","121.452325","25.177275","6501000","淡水區"
"251011","650-BX","2017/06/16 21:49:10","新北市淡水區新民街322巷6-1號","121.436118333333","25.182925","6501000","淡水區"
"251002","672-BX","2017/06/16 21:49:19","新北市淡水區學府路209-4號","121.446536666667","25.1759066666667","6501000","淡水區"
"251003","673-BX","2017/06/16 21:49:15","新北市淡水區新春街103-5號","121.44018","25.1820183333333","6501000","淡水區"
"236007","137-TH","2017/06/16 07:11:18","新北市土城區城林路6巷80號","121.438741666667","24.9796166666667","6501300","土城區"
