"lineid","car","time","location","longitude","latitude","cityid","cityname"
"244007","080-UY","2017/06/16 17:55:14","新北市林口區竹林路153號","121.388648333333","25.079795","6501700","林口區"
"222005","289-BY","2017/06/16 09:56:55","新北市深坑區深坑街85號","121.614628333333","25.0013033333333","6501800","深坑區"
"235026","800-TS","2017/06/16 20:45:04","新北市中和區員山路36巷16-3號","121.484998333333","24.9914416666667","6500300","中和區"
"251004","009-UM","2017/06/16 22:29:02","新北市淡水區民族路33號","121.46235","25.13576","6501000","淡水區"
"251008","181-VK","2017/06/16 22:29:03","新北市淡水區學府路104號","121.449846666667","25.1717383333333","6501000","淡水區"
"251015","182-VK","2017/06/16 22:29:05","新北市淡水區水碓街7號","121.443135","25.1771316666667","6501000","淡水區"
"251007","577-R6","2017/06/16 22:29:05","新北市淡水區北新路180號","121.44942","25.1787833333333","6501000","淡水區"
"251011","650-BX","2017/06/16 22:29:10","新北市淡水區沙崙路200號","121.424671666667","25.1838816666667","6501000","淡水區"
"236007","137-TH","2017/06/16 07:11:18","新北市土城區城林路6巷80號","121.438741666667","24.9796166666667","6501300","土城區"
