"lineid","car","time","location","longitude","latitude","cityid","cityname"
"248005","653-BX","2017/09/19 09:29:34","新北市五股區登林路51-16號","121.430535","25.069215","6501500","五股區"
"222004","289-BY","2017/09/19 09:29:40","新北市深坑區向天湖12號","121.619933333333","24.99154","6501800","深坑區"
"231007","189-VK","2017/09/19 09:29:39","新北市新店區新潭路三段215巷25號","121.508116666667","24.9040683333333","6500600","新店區"
"231009","192-VK","2017/09/19 09:29:46","新北市新店區平廣路一段93號","121.52989","24.8981516666667","6500600","新店區"
"223002","198-BX","2017/09/19 09:29:39","新北市石碇區碇坪路一段93號","121.662238333333","24.9901366666667","6501900","石碇區"
"223007","661-BX","2017/09/19 09:29:38","台北市南港區研究院路三段281巷4-2號","121.606186666667","25.0272033333333","6501900","石碇區"
"227006","282-VK","2017/09/19 09:25:45","新北市雙溪區長源里柑腳58-1號","121.793888333333","25.0067766666667","6502500","雙溪區"
"227012","030-BX","2017/09/19 09:29:36","新北市坪林區柑腳坑22-2號","121.771968333333","24.9615533333333","6502500","雙溪區"
"252004","292-VK","2017/09/19 09:29:42","新北市三芝區福德里大水堀31號","121.510448333333","25.2157766666667","6502100","三芝區"
"252007","AAC-283","2017/09/19 09:29:44","新北市三芝區古庄里山豬堀13-2號","121.492856666667","25.2585166666667","6502100","三芝區"
"237001","159-UY","2017/09/19 09:29:33","新北市三峽區國學街30號","121.37321","24.9421783333333","6500900","三峽區"
"236006","498-BY","2017/09/19 09:29:37","新北市土城區承天路71巷4弄6號","121.441391666667","24.96306","6501300","土城區"
"239006","661-UM","2017/09/19 09:29:35","新北市鶯歌區中正一路478號","121.366901666667","24.9569833333333","6500800","鶯歌區"
