"lineid","car","time","location","longitude","latitude","cityid","cityname"
"231007","189-VK","2017/09/19 10:17:39","新北市新店區新潭路三段215巷25號","121.508135","24.9040716666667","6500600","新店區"
"231009","192-VK","2017/09/19 10:17:46","新北市新店區平廣路一段35巷7號","121.5336","24.9022916666667","6500600","新店區"
"223007","661-BX","2017/09/19 10:17:38","新北市深坑區北深路三段7號","121.610423333333","25.0008633333333","6501900","石碇區"
"227006","282-VK","2017/09/19 10:17:44","新北市雙溪區外柑里外柑腳32號","121.814241666667","25.0210616666667","6502500","雙溪區"
"227012","030-BX","2017/09/19 10:17:56","新北市雙溪區泰平里料角坑40號","121.793013333333","24.9595916666667","6502500","雙溪區"
"252004","292-VK","2017/09/19 10:17:42","新北市三芝區福德里埔尾13-1號","121.504291666667","25.244555","6502100","三芝區"
"252007","AAC-283","2017/09/19 10:17:44","新北市三芝區新庄里番社后11號","121.501355","25.26869","6502100","三芝區"
