"lineid","car","time","location","longitude","latitude","cityid","cityname"
"234044","148-BY","2017/09/19 13:08:55","新北市永和區永元路18巷23號","121.523476666667","25.0001966666667","6500400","永和區"
"234012","149-BY","2017/09/19 13:08:51","新北市永和區仁愛路114號","121.511775","25.0132266666667","6500400","永和區"
"234005","207-UY","2017/09/19 13:08:40","新北市永和區保生路3號","121.506631666667","25.00744","6500400","永和區"
"234078","298-R6","2017/09/19 13:08:53","新北市永和區福和路57巷14弄10號","121.522298333333","25.0073216666667","6500400","永和區"
"234036","336-UY","2017/09/19 13:08:52","新北市永和區民樂街69巷19號","121.528175","24.9977883333333","6500400","永和區"
"234062","337-UY","2017/09/19 13:08:42","新北市永和區永元路97號","121.522541666667","25.0021716666667","6500400","永和區"
"234084","338-UY","2017/09/19 13:08:45","新北市永和區永貞路90號","121.519583333333","25.0046083333333","6500400","永和區"
"234068","552-UM","2017/09/19 13:08:45","新北市永和區豫溪街135號","121.519688333333","25.010245","6500400","永和區"
"234052","553-UM","2017/09/19 13:08:39","新北市永和區中興街133巷7號","121.518283333333","25.0124883333333","6500400","永和區"
"234015","745-BX","2017/09/19 13:08:56","新北市永和區文化路90巷15弄1號","121.513805","25.0159783333333","6500400","永和區"
"234028","746-BX","2017/09/19 13:08:52","新北市永和區厚德街101號","121.523271666667","24.9989266666667","6500400","永和區"
"234060","AAD-866","2017/09/19 13:08:40","新北市永和區安樂路447號","121.51434","25.0049116666667","6500400","永和區"
"234040","862-TW","2017/09/19 13:08:54","新北市永和區永和路一段49巷3弄51號","121.512056666667","25.006315","6500400","永和區"
"234048","863-TW","2017/09/19 13:08:48","新北市永和區文化路135巷26弄1號","121.51066","25.0144016666667","6500400","永和區"
"234010","9372-KE","2017/09/19 13:08:43","新北市永和區文化路111號","121.512776666667","25.015255","6500400","永和區"
"234025","9371-KE","2017/09/19 13:08:41","新北市永和區秀朗路一段10巷19號","121.513455","25.0061533333333","6500400","永和區"
"248017","225-UY","2017/09/19 13:08:39","新北市五股區中興路三段198號","121.4418","25.0819383333333","6501500","五股區"
"234022","9380-KE","2017/09/19 13:08:39","新北市永和區竹林路124巷31號","121.518255","25.0112066666667","6500400","永和區"
"234076","969-R7","2017/09/19 13:08:44","新北市永和區中正路93號","121.515375","24.9972733333333","6500400","永和區"
"234072","AAC-211","2017/09/19 13:08:36","新北市永和區竹林路146號","121.520086666667","25.0108683333333","6500400","永和區"
"234066","AAC-212","2017/09/19 13:08:45","新北市永和區永和路一段49巷8號","121.512236666667","25.0070333333333","6500400","永和區"
"234001","AAC-295","2017/09/19 13:08:36","新北市永和區和平街19號","121.513541666667","25.009875","6500400","永和區"
"244002","657-BX","2017/09/19 13:08:44","新北市林口區中山路652號","121.374203333333","25.0869016666667","6501700","林口區"
"231002","002-UM","2017/09/19 13:08:45","新北市新店區安華路28-1號","121.51966","24.96069","6500600","新店區"
"231028","046-UY","2017/09/19 13:08:53","新北市新店區安華路28-1號","121.519486666667","24.9610316666667","6500600","新店區"
"231030","047-UY","2017/09/19 13:08:54","新北市新店區安華路28-1號","121.519073333333","24.9609266666667","6500600","新店區"
"231029","106-UY","2017/09/19 13:08:39","新北市新店區安華路28-1號","121.519693333333","24.96075","6500600","新店區"
"231018","107-UY","2017/09/19 13:08:49","新北市新店區安華路28-1號","121.519265","24.9613166666667","6500600","新店區"
"231012","108-UY","2017/09/19 13:08:45","新北市新店區安華路28-1號","121.519245","24.9612433333333","6500600","新店區"
"231069","189-VK","2017/09/19 12:02:29","新北市新店區安華路28-1號","121.519725","24.9610616666667","6500600","新店區"
"231015","215-TC","2017/09/19 13:08:49","新北市新店區安華路28-1號","121.519843333333","24.961105","6500600","新店區"
"231026","256-BX","2017/09/19 13:08:48","新北市新店區安華路28-1號","121.519726666667","24.961135","6500600","新店區"
"231034","268-BY","2017/09/19 13:08:47","新北市新店區安華路28-1號","121.519413333333","24.960545","6500600","新店區"
"231010","278-BY","2017/09/19 11:07:48","新北市新店區安華路28-1號","121.519355","24.9611566666667","6500600","新店區"
"231025","4716-K9","2017/09/19 13:08:46","新北市新店區安華路28-1號","121.519636666667","24.9612216666667","6500600","新店區"
"231038","4715-K9","2017/09/19 13:08:48","新北市新店區安華路1-1號","121.519181666667","24.96058","6500600","新店區"
"231036","512-UM","2017/09/19 03:06:39","新北市新店區安華路28-1號","121.519343333333","24.9612766666667","6500600","新店區"
"231035","515-UM","2017/09/19 13:08:44","新北市新店區安華路28-1號","121.519746666667","24.9611","6500600","新店區"
"231006","617-UM","2017/09/19 13:08:49","新北市新店區安華路28-1號","121.5194","24.9608933333333","6500600","新店區"
"231001","619-UM","2017/09/19 13:08:40","新北市新店區安華路28-1號","121.519421666667","24.96069","6500600","新店區"
"231003","641-BX","2017/09/19 13:08:48","新北市新店區安華路1-1號","121.519548333333","24.9604483333333","6500600","新店區"
"231013","719-UM","2017/09/19 13:08:56","新北市新店區安華路28-1號","121.519505","24.9612116666667","6500600","新店區"
"231032","720-UM","2017/09/19 13:08:54","新北市新店區安華路28-1號","121.519203333333","24.96118","6500600","新店區"
"231005","897-TW","2017/09/19 13:08:47","新北市新店區安華路28-1號","121.519536666667","24.9609566666667","6500600","新店區"
"231004","899-TW","2017/09/19 13:08:42","新北市新店區安華路28-1號","121.519098333333","24.9608916666667","6500600","新店區"
"235028","005-UY","2017/09/19 13:08:39","新北市中和區員山路36巷16-3號","121.4851","24.9912733333333","6500300","中和區"
"235029","098-UM","2017/09/19 13:08:50","新北市中和區中山路二段289號","121.496071666667","25.0020966666667","6500300","中和區"
"235004","150-BY","2017/09/19 13:08:37","新北市中和區和城路一段271巷1號","121.48545","24.9918966666667","6500300","中和區"
"235022","151-BY","2017/09/19 13:08:39","新北市中和區圓通路367巷33弄59號","121.495756666667","24.986115","6500300","中和區"
"235002","185-VK","2017/09/19 13:08:43","新北市永和區民生路67巷44號","121.52496","24.997205","6500300","中和區"
"235031","255-BX","2017/09/19 13:08:51","新北市中和區民樂路77號","121.484501666667","25.0013483333333","6500300","中和區"
"235015","376-QA","2017/09/19 05:42:08","新北市中和區員山路36巷13號","121.48418","24.9908383333333","6500300","中和區"
"235025","378-QA","2017/09/19 03:50:35","新北市中和區員山路36巷13號","121.484106666667","24.9913166666667","6500300","中和區"
"235033","4980-A6","2017/09/19 13:08:42","新北市中和區中正路637巷52弄1號","121.48543","24.9935733333333","6500300","中和區"
"235006","551-UM","2017/09/19 13:08:53","新北市中和區中正路571巷2弄11號","121.486188333333","24.993505","6500300","中和區"
"235018","640-BX","2017/09/19 13:08:43","新北市中和區中正路637巷52弄11號","121.484725","24.9937316666667","6500300","中和區"
"235011","732-UM","2017/09/19 13:08:41","新北市中和區員山路36巷16-2號","121.48517","24.9915883333333","6500300","中和區"
"235026","800-TS","2017/09/19 13:08:51","新北市中和區中山路二段359巷1號","121.488891666667","25.0041683333333","6500300","中和區"
"235027","911-UM","2017/09/19 12:55:47","新北市中和區員山路36巷16-3號","121.484985","24.9913216666667","6500300","中和區"
"235001","AAC-213","2017/09/19 13:08:43","新北市中和區南山路231號","121.503555","24.9933883333333","6500300","中和區"
"235023","AAC-215","2017/09/19 00:28:33","新北市中和區員山路36巷16-3號","121.484946666667","24.9912183333333","6500300","中和區"
"220034","073-UY","2017/09/19 13:08:42","新北市板橋區華東街1-10號","121.448228333333","24.9950483333333","6500100","板橋區"
"228004","212-TW","2017/09/19 13:08:44","新北市貢寮區吉林里內寮街75號","121.89128","24.9724333333333","6502600","貢寮區"
"228005","828-UM","2017/09/19 13:08:52","新北市貢寮區仁理村研海街62-2號","121.925521666667","25.0456666666667","6502600","貢寮區"
"208004","AAC-292","2017/09/19 13:08:44","新北市金山區中山路183號","121.63835","25.2210316666667","6502700","金山區"
"207002","749-BX","2017/09/19 13:08:40","新北市萬里區崁腳里崁腳路166號","121.645156666667","25.1560633333333","6502800","萬里區"
"252005","073-UM","2017/09/19 13:08:38","新北市三芝區八賢里八連溪33號","121.512145","25.2378866666667","6502100","三芝區"
"252003","249-BX","2017/09/19 13:08:39","新北市淡水區淡金路三段161號","121.448611666667","25.20283","6502100","三芝區"
"207001","662-BX","2017/09/19 13:08:36","新北市萬里區萬里里成功新村67號","121.689416666667","25.1743866666667","6502800","萬里區"
"236075","166-UM","2017/09/19 13:08:42","新北市土城區城林路6巷80號","121.438506666667","24.9798966666667","6501300","土城區"
"236006","498-BY","2017/09/19 13:08:52","新北市土城區亞洲路58巷3弄24號","121.434401666667","24.9731333333333","6501300","土城區"
"238008","308-TH","2017/09/19 13:08:43","新北市樹林區東豐街49巷8弄19號","121.414161666667","24.9751733333333","6500700","樹林區"
"221012","276-VK","2017/09/19 13:08:53","新北市汐止區汐萬路一段256巷3號","121.652866666667","25.074455","6501100","汐止區"
"221032","280-BY","2017/09/19 13:08:49","新北市汐止區龍安路183號","121.652836666667","25.062945","6501100","汐止區"
"221027","281-BY","2017/09/19 13:08:44","新北市汐止區大同路三段158號","121.673376666667","25.0758966666667","6501100","汐止區"
"221018","753-BX","2017/09/19 13:08:54","新北市汐止區福德一路342巷1弄10號","121.628951666667","25.0632966666667","6501100","汐止區"
"220010","303-R5","2017/09/19 13:08:52","新北市板橋區民生路二段120號","121.470473333333","25.019775","6500100","板橋區"
