"lineid","car","time","location","longitude","latitude","cityid","cityname"
"234044","148-BY","2017/09/19 13:18:55","新北市永和區得和路326號","121.523248333333","24.9995366666667","6500400","永和區"
"234012","149-BY","2017/09/19 13:18:51","新北市永和區信義路14號","121.514425","25.0121016666667","6500400","永和區"
"234005","207-UY","2017/09/19 13:18:57","新北市永和區中山路一段297號","121.50664","25.0068","6500400","永和區"
"234078","298-R6","2017/09/19 13:18:53","新北市永和區林森路10巷18弄2號","121.52594","25.006305","6500400","永和區"
"234036","336-UY","2017/09/19 13:18:52","新北市永和區成功路二段65號","121.527436666667","25.000125","6500400","永和區"
"234062","337-UY","2017/09/19 13:18:42","新北市永和區得和路243巷28弄19號","121.52127","25.001095","6500400","永和區"
"234084","338-UY","2017/09/19 13:18:45","新北市永和區永利路37號","121.518741666667","25.0055483333333","6500400","永和區"
"234068","552-UM","2017/09/19 13:18:45","新北市永和區中正路666巷19號","121.5175","25.0090966666667","6500400","永和區"
"234052","553-UM","2017/09/19 13:18:57","新北市永和區中興街37號","121.516271666667","25.01179","6500400","永和區"
"234015","745-BX","2017/09/19 13:18:56","新北市永和區環河西路一段95巷13號","121.511766666667","25.017295","6500400","永和區"
"234028","746-BX","2017/09/19 13:18:52","新北市永和區民生路53號","121.522673333333","24.99767","6500400","永和區"
"234060","AAD-866","2017/09/19 13:18:39","新北市永和區秀朗路一段120號","121.517036666667","25.00363","6500400","永和區"
"234040","862-TW","2017/09/19 13:18:49","新北市永和區永貞路287巷5號","121.510733333333","25.0050766666667","6500400","永和區"
"234048","863-TW","2017/09/19 13:18:47","新北市永和區仁愛路132號","121.511016666667","25.0132016666667","6500400","永和區"
"234010","9372-KE","2017/09/19 13:18:43","新北市永和區忠孝街34巷18號","121.51451","25.01681","6500400","永和區"
"234025","9371-KE","2017/09/19 13:18:41","新北市永和區豫溪街28巷22號","121.514955","25.0089616666667","6500400","永和區"
"248017","225-UY","2017/09/19 13:18:39","新北市五股區御史路56巷1號","121.441583333333","25.0941916666667","6501500","五股區"
"234022","9380-KE","2017/09/19 13:18:50","新北市永和區竹林路91巷43弄2號","121.521255","25.0128","6500400","永和區"
"234076","969-R7","2017/09/19 13:18:44","新北市永和區民有街23巷45號","121.517675","24.997185","6500400","永和區"
"234072","AAC-211","2017/09/19 13:18:56","新北市永和區永和路二段243號","121.515695","25.0147133333333","6500400","永和區"
"234066","AAC-212","2017/09/19 13:18:45","新北市永和區保平路32號","121.511888333333","25.007305","6500400","永和區"
"234001","AAC-295","2017/09/19 13:18:37","新北市永和區保福路一段47巷15號","121.512115","25.00919","6500400","永和區"
"244002","657-BX","2017/09/19 13:18:44","新北市林口區頂福20-18號","121.355366666667","25.092975","6501700","林口區"
"231002","002-UM","2017/09/19 13:18:45","新北市新店區安華路28-1號","121.51976","24.9607383333333","6500600","新店區"
"231024","0293-UT","2017/09/19 13:18:39","新北市新店區安康路一段355-3號","121.519775","24.9620716666667","6500600","新店區"
"231028","046-UY","2017/09/19 13:18:53","新北市新店區安華路28-1號","121.519495","24.96109","6500600","新店區"
"231030","047-UY","2017/09/19 13:18:54","新北市新店區安華路28-1號","121.519023333333","24.9609666666667","6500600","新店區"
"231029","106-UY","2017/09/19 13:18:39","新北市新店區安華路28-1號","121.519581666667","24.9607683333333","6500600","新店區"
"231018","107-UY","2017/09/19 13:18:49","新北市新店區安康路一段355-10號","121.52029","24.9638116666667","6500600","新店區"
"231012","108-UY","2017/09/19 13:18:45","新北市新店區安康路一段230-3號","121.522245","24.9637316666667","6500600","新店區"
"231020","187-VK","2017/09/19 13:18:45","新北市新店區安康路一段355-10號","121.520705","24.9638466666667","6500600","新店區"
"231069","189-VK","2017/09/19 12:02:29","新北市新店區安華路28-1號","121.519725","24.9610616666667","6500600","新店區"
"231015","215-TC","2017/09/19 13:18:49","新北市新店區安康路一段355號","121.519836666667","24.9628066666667","6500600","新店區"
"231026","256-BX","2017/09/19 13:18:48","新北市新店區安康路一段355號","121.52001","24.96365","6500600","新店區"
"231034","268-BY","2017/09/19 13:18:47","新北市新店區安華路1-1號","121.51938","24.9604833333333","6500600","新店區"
"231010","278-BY","2017/09/19 13:18:45","新北市新店區安康路一段240-1號","121.521726666667","24.9641033333333","6500600","新店區"
"231023","AAD-862","2017/09/19 13:18:01","新北市新店區安康路一段319號","121.522191666667","24.963615","6500600","新店區"
"231027","3712-VJ","2017/09/19 13:18:45","新北市新店區環河路3巷2號","121.538016666667","24.9610283333333","6500600","新店區"
"231025","4716-K9","2017/09/19 13:18:46","新北市新店區安華路28-1號","121.519653333333","24.9610716666667","6500600","新店區"
"231038","4715-K9","2017/09/19 13:18:48","新北市新店區安華路3號","121.519041666667","24.960455","6500600","新店區"
"231036","512-UM","2017/09/19 13:18:47","新北市新店區車子路10-4號","121.504845","24.9545833333333","6500600","新店區"
"231035","515-UM","2017/09/19 13:18:44","新北市新店區安華路28-1號","121.52002","24.9612716666667","6500600","新店區"
"231006","617-UM","2017/09/19 13:18:49","新北市新店區安華路28-1號","121.519433333333","24.9609166666667","6500600","新店區"
"231001","619-UM","2017/09/19 13:18:40","新北市新店區安華路28-1號","121.519498333333","24.9606966666667","6500600","新店區"
"231003","641-BX","2017/09/19 13:18:48","新北市新店區安康路一段3-1號","121.533985","24.9605983333333","6500600","新店區"
"231013","719-UM","2017/09/19 13:18:36","新北市新店區安康路一段323-1號","121.52161","24.9637916666667","6500600","新店區"
"231032","720-UM","2017/09/19 13:18:54","新北市新店區安華路30巷12-1號","121.51861","24.9582816666667","6500600","新店區"
"231005","897-TW","2017/09/19 13:18:47","新北市新店區安華路28-1號","121.519568333333","24.960665","6500600","新店區"
"231004","899-TW","2017/09/19 13:18:42","新北市新店區安華路28-1號","121.519125","24.960845","6500600","新店區"
"231037","AKT-0513","2017/09/19 13:18:46","新北市新店區安華路1-1號","121.519238333333","24.960545","6500600","新店區"
"235030","003-UY","2017/09/19 13:18:50","新北市中和區中山路二段64巷14弄1號","121.503388333333","25.0056533333333","6500300","中和區"
"235028","005-UY","2017/09/19 13:18:39","新北市中和區中正路219號","121.49652","24.9936416666667","6500300","中和區"
"235003","097-UM","2017/09/19 13:18:44","新北市中和區中正路57號","121.501623333333","24.9935166666667","6500300","中和區"
"235029","098-UM","2017/09/19 13:18:50","新北市中和區中山路二段64巷2號","121.503806666667","25.0049383333333","6500300","中和區"
"235004","150-BY","2017/09/19 13:18:37","新北市中和區中正路305號","121.49286","24.993965","6500300","中和區"
"235022","151-BY","2017/09/19 13:18:39","新北市中和區圓通路367巷65號","121.493201666667","24.982455","6500300","中和區"
"235019","183-VK","2017/09/19 13:18:56","新北市中和區員山路36巷16-3號","121.484896666667","24.9913233333333","6500300","中和區"
"235002","185-VK","2017/09/19 13:18:43","新北市中和區大智街27號","121.520193333333","24.991955","6500300","中和區"
"235031","255-BX","2017/09/19 13:18:51","新北市中和區員山路148巷42號","121.482476666667","24.997135","6500300","中和區"
"235036","301-VK","2017/09/19 13:18:52","新北市中和區中正路637巷52弄1號","121.485465","24.9933816666667","6500300","中和區"
"235007","352-BY","2017/09/19 13:18:46","新北市中和區中正路291號","121.493465","24.9939","6500300","中和區"
"235015","376-QA","2017/09/19 13:18:48","新北市中和區興南路一段86號","121.509958333333","24.9893583333333","6500300","中和區"
"235025","378-QA","2017/09/19 13:18:42","新北市中和區民德路266號","121.467996666667","24.99665","6500300","中和區"
"235014","4979-A6","2017/09/19 13:18:46","新北市中和區中正路83號","121.500636666667","24.9934816666667","6500300","中和區"
"235033","4980-A6","2017/09/19 13:18:42","新北市中和區安邦街35號","121.496206666667","24.9977333333333","6500300","中和區"
"235006","551-UM","2017/09/19 13:18:53","新北市中和區景平路159巷31號","121.513011666667","24.9910866666667","6500300","中和區"
"235034","558-UM","2017/09/19 13:18:53","新北市中和區中正路283號","121.493655","24.9937866666667","6500300","中和區"
"235009","565-BX","2017/09/19 13:18:42","新北市中和區中正路281號","121.494903333333","24.9937666666667","6500300","中和區"
"235018","640-BX","2017/09/19 13:18:43","新北市中和區莒光路203-2號","121.471791666667","24.998045","6500300","中和區"
"235024","647-TV","2017/09/19 13:18:50","新北市中和區員山路36巷16-3號","121.484675","24.99169","6500300","中和區"
"235011","732-UM","2017/09/19 13:18:41","新北市中和區建八路130號","121.488906666667","24.998595","6500300","中和區"
"235026","800-TS","2017/09/19 13:18:51","新北市中和區景平路999巷2號","121.495408333333","25.0060683333333","6500300","中和區"
"235005","802-TS","2017/09/19 13:18:47","新北市中和區景平路379號","121.504083333333","24.99344","6500300","中和區"
"235016","805-TS","2017/09/19 13:18:49","新北市中和區錦和路350-1號","121.490466666667","24.9935983333333","6500300","中和區"
"235017","900-TW","2017/09/19 13:18:42","新北市中和區員山路36巷16-5號","121.484875","24.99197","6500300","中和區"
"235027","911-UM","2017/09/19 12:55:47","新北市中和區員山路36巷16-3號","121.484985","24.9913216666667","6500300","中和區"
"235001","AAC-213","2017/09/19 13:18:55","新北市中和區景德街95號","121.515875","24.9913383333333","6500300","中和區"
"235023","AAC-215","2017/09/19 00:28:33","新北市中和區員山路36巷16-3號","121.484946666667","24.9912183333333","6500300","中和區"
"220034","073-UY","2017/09/19 13:18:42","新北市板橋區華東街1-10號","121.448243333333","24.99506","6500100","板橋區"
"247011","546-UM","2017/09/19 13:18:42","新北市五股區中興路三段2巷10號","121.44927","25.0809983333333","6501400","蘆洲區"
"228004","212-TW","2017/09/19 13:18:44","新北市貢寮區吉林里內寮街23號","121.9028","24.9852583333333","6502600","貢寮區"
"228005","828-UM","2017/09/19 13:18:52","新北市貢寮區美豐里丹裡街16-1號","121.913485","25.05711","6502600","貢寮區"
"208004","AAC-292","2017/09/19 13:18:44","新北市金山區南勢52號","121.62795","25.2206433333333","6502700","金山區"
"207002","749-BX","2017/09/19 13:18:40","新北市萬里區崁腳里崁腳路166號","121.645171666667","25.1560766666667","6502800","萬里區"
"252005","073-UM","2017/09/19 13:18:38","新北市三芝區圓山里木屐寮31-1號","121.529153333333","25.223955","6502100","三芝區"
"252003","249-BX","2017/09/19 13:18:39","新北市淡水區淡金路73號","121.456115","25.1619","6502100","三芝區"
"207001","662-BX","2017/09/19 13:18:45","新北市萬里區龜吼里玉田路56-1號","121.680675","25.1932833333333","6502800","萬里區"
"236006","498-BY","2017/09/19 13:18:36","新北市土城區亞洲路108巷6號","121.433931666667","24.972595","6501300","土城區"
"238008","308-TH","2017/09/19 13:18:43","新北市樹林區環河路250號","121.423365","24.9757383333333","6500700","樹林區"
"221012","276-VK","2017/09/19 13:18:53","新北市汐止區汐萬路一段256巷3號","121.65346","25.074575","6501100","汐止區"
"221032","280-BY","2017/09/19 13:18:49","新北市汐止區新興路3號","121.656716666667","25.06535","6501100","汐止區"
"221027","281-BY","2017/09/19 13:18:44","新北市汐止區大同路三段356號","121.680241666667","25.0711116666667","6501100","汐止區"
"221018","753-BX","2017/09/19 13:18:55","新北市汐止區福德一路392巷44號","121.626561666667","25.06258","6501100","汐止區"
"220010","303-R5","2017/09/19 13:18:52","新北市板橋區民生路二段120號","121.470333333333","25.0197533333333","6500100","板橋區"
"220022","895-R6","2017/09/19 13:18:56","新北市板橋區華東街1-9號","121.44815","24.9950766666667","6500100","板橋區"
