"lineid","car","time","location","longitude","latitude","cityid","cityname"
"249005","172-UM","2017/09/19 17:08:46","新北市八里區大堀湖28-1號","121.41982","25.1454216666667","6502300","八里區"
"249001","173-UM","2017/09/19 17:08:51","新北市八里區中華路二段312號","121.403758333333","25.1481833333333","6502300","八里區"
"249004","303-UY","2017/09/19 17:08:34","新北市八里區忠孝路298號","121.418315","25.1613783333333","6502300","八里區"
"249002","305-UY","2017/09/19 17:08:41","新北市八里區龍米路二段147巷7號","121.442271666667","25.1502583333333","6502300","八里區"
"249003","593-UM","2017/09/19 17:08:41","新北市八里區中山路二段369號","121.398828333333","25.147005","6502300","八里區"
"244009","410-SL","2017/09/19 17:08:54","新北市林口區粉寮路二段8-1號","121.40136","25.08507","6501700","林口區"
"244023","483-VK","2017/09/19 17:08:46","新北市林口區粉寮路37-1號","121.401093333333","25.0848966666667","6501700","林口區"
"244002","657-BX","2017/09/19 15:57:28","新北市林口區粉寮路二段160巷28號","121.405141666667","25.0907516666667","6501700","林口區"
"244021","838-TS","2017/09/19 17:08:52","新北市林口區粉寮路二段92號","121.404476666667","25.0886983333333","6501700","林口區"
"231069","189-VK","2017/09/19 12:02:29","新北市新店區安華路28-1號","121.519725","24.9610616666667","6500600","新店區"
"231046","278-BY","2017/09/19 17:08:39","新北市新店區直潭路92號","121.530908333333","24.9376233333333","6500600","新店區"
"231001","619-UM","2017/09/19 15:20:40","新北市新店區北新路一段12號","121.540763333333","24.96552","6500600","新店區"
"231005","897-TW","2017/09/19 16:00:13","新北市新店區安華路28-1號","121.519768333333","24.9608783333333","6500600","新店區"
"241011","013-R5","2017/09/19 17:08:52","新北市三重區龍門路46號","121.496408333333","25.072465","6500200","三重區"
"241028","022-UY","2017/09/19 17:08:38","新北市三重區重新路三段110號","121.492305","25.060275","6500200","三重區"
"241008","059-VK","2017/09/19 17:08:54","新北市三重區力行路二段136巷17弄2號","121.481605","25.0755583333333","6500200","三重區"
"241009","060-VK","2017/09/19 17:08:43","新北市三重區三和路四段217號","121.481681666667","25.0797983333333","6500200","三重區"
"241031","061-VK","2017/09/19 17:08:35","新北市三重區重陽路一段113巷2弄2號","121.487548333333","25.0599033333333","6500200","三重區"
"241015","062-VK","2017/09/19 17:08:41","新北市三重區長生街10號","121.499166666667","25.0663383333333","6500200","三重區"
"241017","063-VK","2017/09/19 17:08:53","新北市三重區新北大道一段6號","121.488853333333","25.0615783333333","6500200","三重區"
"241026","066-VK","2017/09/19 17:08:49","新北市三重區正義南路3號","121.497936666667","25.0618933333333","6500200","三重區"
"241002","090-VK","2017/09/19 17:08:50","新北市三重區仁義街204號","121.496433333333","25.0821033333333","6500200","三重區"
"241003","091-VK","2017/09/19 17:08:38","新北市三重區進安街198號","121.49391","25.08598","6500200","三重區"
"241005","262-UM","2017/09/19 17:08:39","新北市三重區仁愛街697號","121.482946666667","25.0810033333333","6500200","三重區"
"241016","266-UM","2017/09/19 17:08:47","新北市三重區中正北路85號","121.489693333333","25.0630716666667","6500200","三重區"
"241022","267-UM","2017/09/19 17:08:40","新北市三重區三民街111號","121.484823333333","25.0637583333333","6500200","三重區"
"241032","269-UM","2017/09/19 17:08:43","新北市三重區興華街48號","121.485066666667","25.059705","6500200","三重區"
"241013","270-UM","2017/09/19 17:08:50","新北市三重區仁昌街40號","121.497105","25.07431","6500200","三重區"
"241025","271-UM","2017/09/19 17:08:38","新北市三重區中正北路560巷49號","121.470908333333","25.0699883333333","6500200","三重區"
"241007","398-BY","2017/09/19 17:08:40","新北市三重區三和路四段155巷50號","121.484758333333","25.07885","6500200","三重區"
"241024","KEA-2210","2017/09/19 17:08:44","新北市三重區大勇街82巷26弄29號","121.478501666667","25.0719966666667","6500200","三重區"
"241020","413-TH","2017/09/19 17:08:52","新北市三重區自強路三段16號","121.486916666667","25.0721333333333","6500200","三重區"
"241004","475-VK","2017/09/19 17:08:37","新北市三重區仁愛街397巷106號","121.492831666667","25.082065","6500200","三重區"
"241019","478-VK","2017/09/19 17:08:45","新北市三重區自強路二段74巷25號","121.487751666667","25.0696633333333","6500200","三重區"
"241030","480-VK","2017/09/19 17:08:43","新北市三重區集成路13號","121.488715","25.0520316666667","6500200","三重區"
"241014","543-UM","2017/09/19 17:08:52","新北市三重區龍濱路197號","121.501878333333","25.071445","6500200","三重區"
"241023","545-UM","2017/09/19 17:08:42","新北市三重區忠孝路三段84巷1號","121.480263333333","25.0644683333333","6500200","三重區"
"241001","547-UM","2017/09/19 17:08:53","新北市三重區仁愛街255巷32號","121.49383","25.0787216666667","6500200","三重區"
"241006","AAD-863","2017/09/19 17:08:50","新北市三重區三和路四段264巷9號","121.485186666667","25.0769016666667","6500200","三重區"
"241018","887-TS","2017/09/19 17:08:54","新北市三重區六張街93號","121.492518333333","25.0699516666667","6500200","三重區"
"241012","941-UM","2017/09/19 17:08:38","新北市三重區仁信街2號","121.501611666667","25.0756616666667","6500200","三重區"
"241029","942-UM","2017/09/19 17:08:39","新北市三重區重新路四段65-10號","121.487156666667","25.0570166666667","6500200","三重區"
"241033","AAC-255","2017/09/19 17:08:51","新北市三重區中興北街271號","121.469133333333","25.0606533333333","6500200","三重區"
"235064","005-UY","2017/09/19 17:01:35","新北市中和區員山路36巷16-3號","121.485","24.991235","6500300","中和區"
"235062","800-TS","2017/09/19 16:27:54","新北市中和區員山路36巷16-2號","121.485243333333","24.9914566666667","6500300","中和區"
"220013","072-UY","2017/09/19 15:19:07","新北市板橋區華東街1-9號","121.448098333333","24.9948933333333","6500100","板橋區"
"220017","AAD-861","2017/09/19 15:25:24","新北市板橋區華東街1-10號","121.448333333333","24.9951566666667","6500100","板橋區"
"247022","893-R6","2017/09/19 17:08:40","新北市蘆洲區三民路226號","121.468621666667","25.089525","6501400","蘆洲區"
"247011","546-UM","2017/09/19 17:08:34","新北市蘆洲區信義路266巷5號","121.47844","25.087115","6501400","蘆洲區"
"247020","500-BY","2017/09/19 17:08:38","新北市蘆洲區仁愛街81號","121.47132","25.0938466666667","6501400","蘆洲區"
"247010","339-TH","2017/09/19 17:08:44","新北市蘆洲區民族路5號","121.475736666667","25.0840466666667","6501400","蘆洲區"
"247002","337-TH","2017/09/19 17:08:44","新北市蘆洲區永樂街52-2號","121.457408333333","25.0884333333333","6501400","蘆洲區"
"247004","336-TH","2017/09/19 17:08:49","新北市蘆洲區長安街207巷6號","121.459656666667","25.08197","6501400","蘆洲區"
"247016","057-VK","2017/09/19 17:08:47","新北市蘆洲區光華路65巷19號","121.46877","25.0822","6501400","蘆洲區"
"247006","056-VK","2017/09/19 17:08:50","新北市蘆洲區長安街108巷11號","121.461503333333","25.08208","6501400","蘆洲區"
"247008","053-VK","2017/09/19 17:08:46","新北市蘆洲區民生街53號","121.474853333333","25.0786933333333","6501400","蘆洲區"
"247014","007-UY","2017/09/19 17:08:40","新北市蘆洲區中央路28號","121.47355","25.0828633333333","6501400","蘆洲區"
"247024","002-UY","2017/09/19 17:08:35","新北市蘆洲區光復路16號","121.462996666667","25.08404","6501400","蘆洲區"
"247018","001-UY","2017/09/19 17:08:41","新北市蘆洲區復興路111-6號","121.476483333333","25.0882866666667","6501400","蘆洲區"
"228001","212-TW","2017/09/19 17:08:50","新北市貢寮區仁理村研海街62-2號","121.925663333333","25.04501","6502600","貢寮區"
"228002","663-BX","2017/09/19 17:08:45","新北市貢寮區龍崗里嵩陽街38號","121.90967","25.01671","6502600","貢寮區"
"228003","828-UM","2017/09/19 17:08:35","新北市貢寮區福隆里東興街6-1號","121.951463333333","25.02004","6502600","貢寮區"
"224010","AGQ-8101","2017/09/19 08:50:30","新北市瑞芳區明燈路二段89號","121.80961","25.1083716666667","6501200","瑞芳區"
"224006","676-BX","2017/09/19 17:08:54","新北市瑞芳區大寮路58-2號","121.781701666667","25.0980366666667","6501200","瑞芳區"
"224009","285-BY","2017/09/19 17:08:51","新北市瑞芳區輕便路124-2號","121.844713333333","25.1123566666667","6501200","瑞芳區"
"224008","275-VK","2017/09/19 17:08:50","新北市瑞芳區柴寮路8號","121.824661666667","25.0828033333333","6501200","瑞芳區"
"224007","273-VK","2017/09/19 17:08:35","新北市瑞芳區粗坑口路100-9號","121.759791666667","25.0993483333333","6501200","瑞芳區"
"224005","271-BY","2017/09/19 17:08:41","新北市瑞芳區鼻頭路209號","121.915023333333","25.1237966666667","6501200","瑞芳區"
"227009","642-TC","2017/09/19 17:08:44","新北市雙溪區牡丹里下坑29號","121.850098333333","25.0567916666667","6502500","雙溪區"
"227003","400-TW","2017/09/19 17:08:40","新北市雙溪區外柑里外柑腳51號","121.808538333333","25.0179933333333","6502500","雙溪區"
"251004","009-UM","2017/09/19 17:08:47","新北市淡水區中山路30號","121.444321666667","25.169805","6501000","淡水區"
"251014","180-VK","2017/09/19 17:08:48","新北市淡水區八里堆9-3號","121.464983333333","25.224375","6501000","淡水區"
"251008","181-VK","2017/09/19 17:08:43","新北市淡水區樹梅坑17號","121.471628333333","25.14406","6501000","淡水區"
"251010","413-VK","2017/09/19 17:08:43","新北市淡水區新市三路一段312號","121.430616666667","25.1967266666667","6501000","淡水區"
"251012","441-VK","2017/09/19 17:08:38","新北市淡水區新民街322巷1號","121.435238333333","25.18374","6501000","淡水區"
"251016","442-VK","2017/09/19 17:08:37","新北市淡水區口湖子2-8號","121.477388333333","25.18863","6501000","淡水區"
"251006","561-UM","2017/09/19 17:08:36","新北市淡水區中正路二段31號","121.419275","25.181715","6501000","淡水區"
"251009","575-R6","2017/09/19 17:08:48","新北市淡水區三民街17號","121.438995","25.1718016666667","6501000","淡水區"
"251007","577-R6","2017/09/19 17:08:48","新北市淡水區民權路41號","121.459676666667","25.1403683333333","6501000","淡水區"
"251011","650-BX","2017/09/19 17:08:50","新北市淡水區坪頂路48號","121.457853333333","25.1624083333333","6501000","淡水區"
"252002","178-VK","2017/09/19 17:08:52","新北市三芝區忠孝街11號","121.505925","25.25504","6502100","三芝區"
"252001","292-VK","2017/09/19 17:08:46","新北市三芝區淡金路一段4-5號","121.497966666667","25.2599766666667","6502100","三芝區"
"242032","AAC-296","2017/09/19 17:08:33","新北市新莊區新泰路357巷1弄57號","121.442548333333","25.0396716666667","6500500","新莊區"
"242029","986-R7","2017/09/19 17:08:49","新北市新莊區新泰路357巷3弄57號","121.442151666667","25.0392033333333","6500500","新莊區"
"242051","751-BX","2017/09/19 17:08:48","新北市新莊區新泰路357巷3弄45號","121.441895","25.0402033333333","6500500","新莊區"
"242025","615-BX","2017/09/19 17:08:35","新北市新莊區三和路12-21號","121.44211","25.038685","6500500","新莊區"
"242023","613-BX","2017/09/19 17:08:46","新北市新莊區新泰路255巷83號","121.442088333333","25.0389933333333","6500500","新莊區"
"242027","612-BX","2017/09/19 17:08:44","新北市新莊區新泰路255巷83號","121.442103333333","25.0389016666667","6500500","新莊區"
"242034","497-BY","2017/09/19 17:08:46","新北市新莊區新泰路357巷3弄57號","121.442088333333","25.0396833333333","6500500","新莊區"
"242044","442-UM","2017/09/19 17:08:43","新北市新莊區中正路589號","121.43403","25.0325316666667","6500500","新莊區"
"242048","441-UM","2017/09/19 17:08:46","新北市新莊區中正路400號","121.441663333333","25.0338483333333","6500500","新莊區"
"242054","440-UM","2017/09/19 17:08:43","新北市新莊區三和路12-21號","121.44182","25.0380083333333","6500500","新莊區"
"242005","413-TV","2017/09/19 17:08:47","新北市新莊區新泰路357巷3弄57號","121.441988333333","25.0393116666667","6500500","新莊區"
"242042","400-BY","2017/09/19 17:08:52","新北市新莊區新泰路357巷3弄43號","121.442496666667","25.040245","6500500","新莊區"
"242061","362-BY","2017/09/19 17:08:56","新北市新莊區新泰路255巷83號","121.442578333333","25.03892","6500500","新莊區"
"242058","353-BY","2017/09/19 17:08:47","新北市新莊區新泰路255巷83號","121.442245","25.0388333333333","6500500","新莊區"
"242007","132-UY","2017/09/19 17:02:37","新北市新莊區新泰路255巷83號","121.442376666667","25.0388033333333","6500500","新莊區"
"242037","133-UY","2017/09/19 17:08:34","新北市新莊區新泰路357巷1弄2號","121.442711666667","25.04121","6500500","新莊區"
"242021","135-UY","2017/09/19 17:08:40","新北市新莊區三和路12-21號","121.44182","25.0385966666667","6500500","新莊區"
"242046","172-VK","2017/09/19 05:00:39","新北市新莊區三和路12-21號","121.442028333333","25.0387216666667","6500500","新莊區"
"242009","173-VK","2017/09/19 13:49:38","新北市新莊區新泰路357巷3弄57號","121.442111666667","25.0392216666667","6500500","新莊區"
"242015","175-VK","2017/09/19 17:08:53","新北市新莊區三和路12-21號","121.442035","25.0385783333333","6500500","新莊區"
"242002","176-VK","2017/09/19 17:08:49","新北市新莊區三和路12-21號","121.441946666667","25.0386666666667","6500500","新莊區"
"242013","346-TH","2017/09/19 15:05:47","新北市新莊區三和路12-17號","121.44206","25.037505","6500500","新莊區"
"242039","347-TH","2017/09/19 14:56:59","新北市新莊區三和路12-17號","121.442021666667","25.0374883333333","6500500","新莊區"
"242019","348-TH","2017/09/19 02:05:02","新北市新莊區新泰路357巷3弄57號","121.442225","25.0396316666667","6500500","新莊區"
"242056","349-TH","2017/09/19 02:28:37","新北市新莊區三和路12-19號","121.442015","25.0377333333333","6500500","新莊區"
"242017","350-TH","2017/09/19 04:02:59","新北市新莊區三和路12-21號","121.441835","25.0388766666667","6500500","新莊區"
"238015","755-BX","2017/09/19 17:08:52","新北市樹林區八德街1010號","121.391416666667","24.9684833333333","6500700","樹林區"
"238023","601-UM","2017/09/19 17:08:44","新北市樹林區八德街606號","121.397343333333","24.9701466666667","6500700","樹林區"
"238019","599-UM","2017/09/19 17:08:34","新北市樹林區八德街1018號","121.391251666667","24.968455","6500700","樹林區"
"238018","571-TV","2017/09/19 17:08:47","新北市樹林區八德街495-3號","121.401618333333","24.969315","6500700","樹林區"
"238024","5061-A6","2017/09/19 17:08:38","新北市樹林區鎮前街160號","121.424465","24.9900683333333","6500700","樹林區"
"238021","KEA-2217","2017/09/19 17:08:45","新北市樹林區佳園路二段13號","121.393238333333","24.9640316666667","6500700","樹林區"
"238022","KEA-2213","2017/09/19 17:08:14","新北市樹林區八德街395號","121.415556666667","24.9717233333333","6500700","樹林區"
"238025","303-VK","2017/09/19 17:08:36","新北市樹林區八德街600號","121.397451666667","24.9703016666667","6500700","樹林區"
"238017","283-BY","2017/09/19 17:08:53","新北市樹林區佳園路一段75巷210號","121.397423333333","24.97049","6500700","樹林區"
"238014","282-BY","2017/09/19 17:08:43","新北市樹林區八德街1146號","121.390996666667","24.9684216666667","6500700","樹林區"
"238020","268-VK","2017/09/19 17:08:49","新北市樹林區佳園路一段75巷192號","121.397003333333","24.9707666666667","6500700","樹林區"
"238026","172-UY","2017/09/19 17:08:40","新北市樹林區八德街590號","121.397893333333","24.9700383333333","6500700","樹林區"
"239007","AAC-297","2017/09/19 17:08:45","新北市鶯歌區信義街58號","121.35338","24.955075","6500800","鶯歌區"
"239006","891-R6","2017/09/19 17:08:45","新北市鶯歌區八德路2巷20弄2號","121.336308333333","24.9466416666667","6500800","鶯歌區"
"239008","527-UM","2017/09/19 17:08:41","新北市鶯歌區文化路337號","121.351945","24.951535","6500800","鶯歌區"
"239005","526-UM","2017/09/19 17:08:48","新北市鶯歌區鶯桃路311號","121.333785","24.9606583333333","6500800","鶯歌區"
"239001","417-VK","2017/09/19 17:08:52","新北市鶯歌區尖山路140巷6弄1號","121.346495","24.9489533333333","6500800","鶯歌區"
"239003","360-BY","2017/09/19 17:08:44","新北市鶯歌區八德路50號","121.330138333333","24.9558683333333","6500800","鶯歌區"
"239002","359-BY","2017/09/19 17:08:50","新北市鶯歌區建國路247號","121.348188333333","24.95342","6500800","鶯歌區"
"239004","193-VK","2017/09/19 17:08:34","新北市鶯歌區文化路256巷20號","121.352046666667","24.947775","6500800","鶯歌區"
"221012","276-VK","2017/09/19 13:19:06","新北市汐止區汐萬路一段256巷3號","121.65346","25.074575","6501100","汐止區"
"220050","245-BX","2017/09/19 15:32:54","新北市板橋區民生路二段161巷1號","121.46999","25.01978","6500100","板橋區"
"220012","280-UM","2017/09/19 15:46:54","新北市板橋區華東街1-10號","121.448576666667","24.9949616666667","6500100","板橋區"
"220010","303-R5","2017/09/19 15:09:52","新北市板橋區民生路二段120號","121.47058","25.0197283333333","6500100","板橋區"
"220038","487-VK","2017/09/19 15:19:11","新北市板橋區四維路137巷17號","121.464265","25.0248866666667","6500100","板橋區"
"242011","280-VK","2017/09/19 17:08:44","新北市新莊區三和路12-21號","121.441985","25.0381483333333","6500500","新莊區"
"220052","561-BX","2017/09/19 15:30:40","新北市板橋區漢生東路53巷28號","121.466726666667","25.0173616666667","6500100","板橋區"
"220011","609-BX","2017/09/19 15:06:18","新北市板橋區中山路二段258號","121.478875","25.018315","6500100","板橋區"
"220042","689-BX","2017/09/19 15:17:11","新北市板橋區長江路一段351號","121.461205","25.0304033333333","6500100","板橋區"
"220051","830-TW","2017/09/19 15:14:52","新北市板橋區文化路一段322-1號","121.467881666667","25.02244","6500100","板橋區"
