"lineid","car","time","location","longitude","latitude","cityid","cityname"
"234026","9371-KE","2017/09/19 17:38:40","新北市永和區中正路748號","121.514805","25.0103033333333","6500400","永和區"
"234011","9373-KE","2017/09/19 17:38:48","新北市永和區福和路1號","121.525628333333","25.0093566666667","6500400","永和區"
"249005","172-UM","2017/09/19 17:38:46","新北市八里區荖阡坑路34號","121.402753333333","25.1297316666667","6502300","八里區"
"249001","173-UM","2017/09/19 17:38:51","新北市八里區龍米路二段159號","121.438885","25.1541233333333","6502300","八里區"
"249004","303-UY","2017/09/19 17:38:34","新北市八里區賢三街145號","121.414991666667","25.15693","6502300","八里區"
"249002","305-UY","2017/09/19 17:38:41","新北市八里區石壁腳19號","121.441706666667","25.1353866666667","6502300","八里區"
"249003","593-UM","2017/09/19 17:38:41","新北市八里區中山路二段215號","121.403706666667","25.1493816666667","6502300","八里區"
"232011","375-UM","2017/09/19 17:38:36","新北市坪林區北宜路八段349號","121.710608333333","24.9336666666667","6502000","坪林區"
"244013","069-UM","2017/09/19 17:38:43","新北市林口區中正路555號","121.381191666667","25.076935","6501700","林口區"
"244007","080-UY","2017/09/19 17:38:50","新北市林口區湖北里7號","121.389145","25.0923633333333","6501700","林口區"
"244009","410-SL","2017/09/19 17:38:54","新北市林口區文化一路二段299-1號","121.385511666667","25.08549","6501700","林口區"
"244023","483-VK","2017/09/19 17:38:47","新北市林口區東明一街100號","121.390928333333","25.0711383333333","6501700","林口區"
"244017","485-VK","2017/09/19 17:38:45","新北市林口區文化一路二段202號","121.383358333333","25.080645","6501700","林口區"
"244011","656-BX","2017/09/19 17:38:49","新北市林口區佳林路257號","121.382766666667","25.0761216666667","6501700","林口區"
"244002","657-BX","2017/09/19 15:57:28","新北市林口區粉寮路二段160巷28號","121.405141666667","25.0907516666667","6501700","林口區"
"244025","837-TS","2017/09/19 17:38:35","新北市林口區文化二路一段289-5號","121.367333333333","25.07173","6501700","林口區"
"244021","838-TS","2017/09/19 17:38:37","新北市林口區仁愛路一段26號","121.397461666667","25.0753616666667","6501700","林口區"
"231069","189-VK","2017/09/19 12:02:29","新北市新店區安華路28-1號","121.519725","24.9610616666667","6500600","新店區"
"231046","278-BY","2017/09/19 17:38:39","新北市新店區直潭路92號","121.530923333333","24.9376183333333","6500600","新店區"
"231001","619-UM","2017/09/19 15:20:40","新北市新店區北新路一段12號","121.540763333333","24.96552","6500600","新店區"
"231005","897-TW","2017/09/19 16:00:13","新北市新店區安華路28-1號","121.519768333333","24.9608783333333","6500600","新店區"
"241011","013-R5","2017/09/19 17:38:40","新北市三重區龍門路229號","121.501706666667","25.0739933333333","6500200","三重區"
"241017","063-VK","2017/09/19 17:38:53","新北市三重區大同北路3號","121.495461666667","25.062185","6500200","三重區"
"241003","091-VK","2017/09/19 17:38:38","新北市三重區自強路五段35號","121.493696666667","25.0812216666667","6500200","三重區"
"241005","262-UM","2017/09/19 17:38:52","新北市三重區碧華街277號","121.48988","25.083455","6500200","三重區"
"241016","266-UM","2017/09/19 17:38:47","新北市三重區正義北路15號","121.497713333333","25.062955","6500200","三重區"
"241007","398-BY","2017/09/19 17:38:40","新北市三重區國道路一段139號","121.476026666667","25.07359","6500200","三重區"
"241024","KEA-2210","2017/09/19 17:38:44","新北市三重區國道路一段58巷20號","121.481298333333","25.0720816666667","6500200","三重區"
"241014","543-UM","2017/09/19 17:38:52","新北市三重區長榮路75號","121.502583333333","25.069115","6500200","三重區"
"241023","545-UM","2017/09/19 17:38:42","新北市三重區中華路109號","121.483618333333","25.063405","6500200","三重區"
"241012","941-UM","2017/09/19 17:38:38","新北市三重區河邊北街379-1號","121.501695","25.0764633333333","6500200","三重區"
"241033","AAC-255","2017/09/19 17:38:51","新北市三重區光復路一段49號","121.472148333333","25.0487933333333","6500200","三重區"
"235064","005-UY","2017/09/19 17:38:48","新北市中和區員山路36巷16-3號","121.48501","24.9912916666667","6500300","中和區"
"235061","378-QA","2017/09/19 17:24:20","新北市中和區新生街290號","121.483635","24.9964266666667","6500300","中和區"
"235062","800-TS","2017/09/19 17:38:44","新北市中和區員山路36巷16-3號","121.485005","24.9915533333333","6500300","中和區"
"220013","072-UY","2017/09/19 15:19:07","新北市板橋區華東街1-9號","121.448098333333","24.9948933333333","6500100","板橋區"
"220017","AAD-861","2017/09/19 15:25:24","新北市板橋區華東街1-10號","121.448333333333","24.9951566666667","6500100","板橋區"
"247022","893-R6","2017/09/19 17:38:50","新北市蘆洲區民族路550號","121.467746666667","25.08911","6501400","蘆洲區"
"247011","546-UM","2017/09/19 17:38:54","新北市蘆洲區復興路60巷1弄22號","121.475511666667","25.0863666666667","6501400","蘆洲區"
"247020","500-BY","2017/09/19 17:38:38","新北市蘆洲區民族路331號","121.473773333333","25.0918066666667","6501400","蘆洲區"
"247010","339-TH","2017/09/19 17:38:43","新北市蘆洲區中山一路114號","121.477096666667","25.08146","6501400","蘆洲區"
"247002","337-TH","2017/09/19 17:38:44","新北市蘆洲區永平街32巷21弄1號","121.459093333333","25.0916616666667","6501400","蘆洲區"
"247004","336-TH","2017/09/19 17:38:50","新北市蘆洲區長榮路106號","121.46178","25.08417","6501400","蘆洲區"
"247016","057-VK","2017/09/19 17:38:47","新北市蘆洲區光華路46巷4號","121.46865","25.0832883333333","6501400","蘆洲區"
"247006","056-VK","2017/09/19 17:38:50","新北市蘆洲區永安南路二段100號","121.463155","25.078065","6501400","蘆洲區"
"247008","053-VK","2017/09/19 17:38:46","新北市蘆洲區民生街127號","121.472718333333","25.0790816666667","6501400","蘆洲區"
"247014","007-UY","2017/09/19 17:38:40","新北市蘆洲區中山二路76號","121.473221666667","25.0819683333333","6501400","蘆洲區"
"247024","002-UY","2017/09/19 17:38:55","新北市蘆洲區長樂路125-1號","121.462146666667","25.0880366666667","6501400","蘆洲區"
"247018","001-UY","2017/09/19 17:38:41","新北市蘆洲區三民路110巷41號","121.472653333333","25.08789","6501400","蘆洲區"
"228001","212-TW","2017/09/19 17:38:50","新北市貢寮區仁理村仁愛路95-1號","121.927666666667","25.0554433333333","6502600","貢寮區"
"228002","663-BX","2017/09/19 17:38:45","新北市貢寮區福隆里外隆林街16-4號","121.958271666667","25.0047083333333","6502600","貢寮區"
"228003","828-UM","2017/09/19 17:38:55","新北市貢寮區仁理村仁和路262號","121.924155","25.0542533333333","6502600","貢寮區"
"224010","AGQ-8101","2017/09/19 17:34:37","新北市瑞芳區逢甲路93號","121.807266666667","25.109775","6501200","瑞芳區"
"224006","676-BX","2017/09/19 17:38:34","新北市瑞芳區中山路340號","121.796226666667","25.11022","6501200","瑞芳區"
"224009","285-BY","2017/09/19 17:38:49","新北市瑞芳區山尖路209號","121.849596666667","25.1121883333333","6501200","瑞芳區"
"224008","275-VK","2017/09/19 17:38:50","新北市瑞芳區明燈路一段6-1號","121.82308","25.107465","6501200","瑞芳區"
"224005","271-BY","2017/09/19 17:38:37","新北市瑞芳區海濱路27號","121.83094","25.1249866666667","6501200","瑞芳區"
"227009","642-TC","2017/09/19 17:38:40","新北市雙溪區三貂里政光路3-1號","121.851005","25.0632716666667","6502500","雙溪區"
"208002","742-BX","2017/09/19 17:38:49","新北市金山區磺清路135號","121.639308333333","25.2276116666667","6502700","金山區"
"251004","009-UM","2017/09/19 17:38:47","新北市淡水區中正東路二段163號","121.4593","25.1449966666667","6501000","淡水區"
"251005","010-UM","2017/09/19 17:38:53","新北市淡水區鄧公路33巷1號","121.45144","25.1710766666667","6501000","淡水區"
"251002","012-UM","2017/09/19 17:38:48","新北市淡水區文化路63號","121.438248333333","25.1728483333333","6501000","淡水區"
"251014","180-VK","2017/09/19 17:38:41","新北市淡水區公埔子16-6號","121.480066666667","25.2253133333333","6501000","淡水區"
"251008","181-VK","2017/09/19 17:38:43","新北市淡水區八勢路30巷19號","121.462885","25.153665","6501000","淡水區"
"251010","413-VK","2017/09/19 17:38:42","新北市淡水區淡海路280巷16號","121.419816666667","25.1897116666667","6501000","淡水區"
"251012","441-VK","2017/09/19 17:38:38","新北市淡水區北新路200巷8號","121.451748333333","25.1796883333333","6501000","淡水區"
"251016","442-VK","2017/09/19 17:38:37","新北市淡水區埤島75號","121.454171666667","25.1944233333333","6501000","淡水區"
"251001","559-UM","2017/09/19 17:38:41","新北市淡水區民權路92巷35-1號","121.462205","25.1267216666667","6501000","淡水區"
"251006","561-UM","2017/09/19 17:38:56","新北市淡水區大信街32號","121.442086666667","25.1771433333333","6501000","淡水區"
"251009","575-R6","2017/09/19 17:38:48","新北市淡水區中正路36號","121.443783333333","25.169315","6501000","淡水區"
"251007","577-R6","2017/09/19 17:38:48","新北市淡水區民生路124巷4弄2號","121.463721666667","25.13803","6501000","淡水區"
"251011","650-BX","2017/09/19 17:38:50","新北市淡水區小坪頂20-1號","121.484606666667","25.1575783333333","6501000","淡水區"
"251003","766-UM","2017/09/19 17:38:55","新北市淡水區中山北路一段104號","121.442715","25.17657","6501000","淡水區"
"207003","550-UM","2017/09/19 17:38:52","新北市萬里區龜吼里漁澳路85-2號","121.688021666667","25.1961516666667","6502800","萬里區"
"207004","225-TW","2017/09/19 17:38:37","新北市萬里區中幅里中福路19-1號","121.682905","25.164795","6502800","萬里區"
"252002","178-VK","2017/09/19 17:38:52","新北市三芝區智成街98號","121.505441666667","25.2555233333333","6502100","三芝區"
"252001","292-VK","2017/09/19 17:38:55","新北市三芝區淡金路一段26號","121.50012","25.2592016666667","6502100","三芝區"
"237008","302-VK","2017/09/19 17:38:36","新北市三峽區中山路459巷104號","121.353501666667","24.93566","6500900","三峽區"
"237011","572-TV","2017/09/19 17:07:36","新北市三峽區中山路459巷163-3號","121.348751666667","24.9327533333333","6500900","三峽區"
"237016","649-BX","2017/09/19 17:38:49","新北市三峽區中園街22號","121.368093333333","24.9271133333333","6500900","三峽區"
"237010","706-TV","2017/09/19 17:38:40","新北市三峽區中山路154號","121.364901666667","24.936405","6500900","三峽區"
"236015","270-VK","2017/09/19 17:38:47","新北市土城區城林路6巷80號","121.438495","24.9796483333333","6501300","土城區"
"242032","AAC-296","2017/09/19 17:38:55","新北市新莊區新泰路361巷5號","121.443593333333","25.0431316666667","6500500","新莊區"
"242029","986-R7","2017/09/19 17:38:49","新北市新莊區復興路二段147號","121.457863333333","25.0444016666667","6500500","新莊區"
"242051","751-BX","2017/09/19 17:38:48","新北市新莊區西盛街193號","121.428158333333","25.0172783333333","6500500","新莊區"
"242025","615-BX","2017/09/19 17:38:55","新北市新莊區思源路70號","121.460195","25.0449683333333","6500500","新莊區"
"242023","613-BX","2017/09/19 17:38:52","新北市新莊區公園路129-5號","121.457326666667","25.0407833333333","6500500","新莊區"
"242027","612-BX","2017/09/19 17:38:44","新北市新莊區福壽街111號","121.457903333333","25.0509733333333","6500500","新莊區"
"242034","497-BY","2017/09/19 17:38:26","新北市新莊區新莊路595號","121.446131666667","25.0331933333333","6500500","新莊區"
"242044","442-UM","2017/09/19 17:38:43","新北市新莊區中正路871巷31號","121.419613333333","25.02657","6500500","新莊區"
"242048","441-UM","2017/09/19 17:38:45","新北市新莊區萬安街124號","121.420375","25.0217566666667","6500500","新莊區"
"242054","440-UM","2017/09/19 17:38:43","新北市新莊區新樹路701號","121.432256666667","25.0022666666667","6500500","新莊區"
"242005","413-TV","2017/09/19 17:38:47","新北市新莊區自立街180號","121.456048333333","25.0453933333333","6500500","新莊區"
"242042","400-BY","2017/09/19 17:38:52","新北市泰山區中山路二段841號","121.425848333333","25.0354166666667","6500500","新莊區"
"242061","362-BY","2017/09/19 17:38:55","新北市新莊區瓊林南路73號","121.43514","25.0154216666667","6500500","新莊區"
"242058","353-BY","2017/09/19 17:38:47","新北市新莊區中正路690號","121.420446666667","25.02836","6500500","新莊區"
"242007","132-UY","2017/09/19 17:38:48","新北市新莊區福樂街120號","121.457176666667","25.0479133333333","6500500","新莊區"
"242037","133-UY","2017/09/19 17:38:54","新北市新莊區建國一路168號","121.434888333333","25.0247966666667","6500500","新莊區"
"242021","135-UY","2017/09/19 17:38:40","新北市新莊區中華路一段92號","121.452223333333","25.0395333333333","6500500","新莊區"
"242046","172-VK","2017/09/19 17:38:40","新北市新莊區中正路589號","121.434158333333","25.0323183333333","6500500","新莊區"
"242009","173-VK","2017/09/19 17:38:44","新北市新莊區昌明街14巷5弄1號","121.457343333333","25.05319","6500500","新莊區"
"242015","175-VK","2017/09/19 17:38:53","新北市新莊區新泰路318號","121.445128333333","25.041565","6500500","新莊區"
"242002","176-VK","2017/09/19 17:38:49","新北市新莊區新莊路262號","121.451901666667","25.0339833333333","6500500","新莊區"
"242013","346-TH","2017/09/19 17:38:41","新北市新莊區中誠街96號","121.449991666667","25.0477766666667","6500500","新莊區"
"242039","347-TH","2017/09/19 17:38:39","新北市新莊區民全街6號","121.429061666667","25.021445","6500500","新莊區"
"242019","348-TH","2017/09/19 17:38:41","新北市新莊區中港路177號","121.454908333333","25.0414383333333","6500500","新莊區"
"242056","349-TH","2017/09/19 17:38:53","新北市新莊區泰豐街30巷14號","121.448798333333","25.0320083333333","6500500","新莊區"
"242017","350-TH","2017/09/19 17:38:43","新北市新莊區復興路一段149巷21弄23號","121.448968333333","25.0438383333333","6500500","新莊區"
"238015","755-BX","2017/09/19 17:38:52","新北市樹林區啟智街44巷1號","121.420475","24.9927983333333","6500700","樹林區"
"238023","601-UM","2017/09/19 17:38:44","新北市樹林區三福街114號","121.4065","25.016325","6500700","樹林區"
"238019","599-UM","2017/09/19 17:38:34","新北市樹林區太平路127巷10號","121.419703333333","24.980675","6500700","樹林區"
"238018","571-TV","2017/09/19 17:38:47","新北市樹林區鎮前街165號","121.42237","24.9873466666667","6500700","樹林區"
"238024","5061-A6","2017/09/19 17:38:38","新北市樹林區忠孝街67巷36號","121.4251","24.9818516666667","6500700","樹林區"
"238021","KEA-2217","2017/09/19 17:38:45","新北市樹林區西圳街一段203巷10號","121.392486666667","24.9612983333333","6500700","樹林區"
"238022","KEA-2213","2017/09/19 17:38:37","新北市樹林區仁愛街37號","121.42217","24.9820483333333","6500700","樹林區"
"238025","303-VK","2017/09/19 17:38:36","新北市樹林區保安街二段118號","121.41383","25.0038133333333","6500700","樹林區"
"238017","283-BY","2017/09/19 17:38:53","新北市樹林區三德街30巷16弄25號","121.413645","25.0123316666667","6500700","樹林區"
"238014","282-BY","2017/09/19 17:38:43","新北市樹林區保安街一段294巷16號","121.420191666667","24.9985083333333","6500700","樹林區"
"238020","268-VK","2017/09/19 17:38:49","新北市樹林區俊英街116巷41弄35號","121.428453333333","25.007115","6500700","樹林區"
"238026","172-UY","2017/09/19 17:38:40","新北市樹林區新興街7號","121.400193333333","24.9736833333333","6500700","樹林區"
"238016","169-UY","2017/09/19 17:38:47","新北市樹林區中山路一段108巷14號","121.422581666667","24.991135","6500700","樹林區"
"239007","AAC-297","2017/09/19 17:38:45","新北市鶯歌區永安街28號","121.337481666667","24.9556583333333","6500800","鶯歌區"
"239006","891-R6","2017/09/19 17:38:45","新北市鶯歌區永和街32號","121.333078333333","24.967635","6500800","鶯歌區"
"239008","527-UM","2017/09/19 17:38:41","新北市鶯歌區大湖路700巷16號","121.333516666667","24.9766466666667","6500800","鶯歌區"
"239005","526-UM","2017/09/19 17:38:55","新北市鶯歌區鶯桃路二段22號","121.326093333333","24.9723833333333","6500800","鶯歌區"
"239001","417-VK","2017/09/19 17:38:43","新北市鶯歌區中正三路186號","121.333053333333","24.9382633333333","6500800","鶯歌區"
"239003","360-BY","2017/09/19 17:38:44","新北市鶯歌區鶯桃路204號","121.337333333333","24.9590433333333","6500800","鶯歌區"
"239002","359-BY","2017/09/19 17:38:50","新北市鶯歌區育賢街35-3號","121.343698333333","24.9544633333333","6500800","鶯歌區"
"239004","193-VK","2017/09/19 17:38:34","新北市鶯歌區文化路322-1號","121.352516666667","24.945985","6500800","鶯歌區"
"221008","489-VK","2017/09/19 17:38:44","新北市汐止區康寧街901號","121.651318333333","25.0751166666667","6501100","汐止區"
"221010","269-BY","2017/09/19 17:38:46","新北市汐止區康寧街901號","121.651146666667","25.0751216666667","6501100","汐止區"
"221012","276-VK","2017/09/19 13:19:06","新北市汐止區汐萬路一段256巷3號","121.65346","25.074575","6501100","汐止區"
"221023","279-VK","2017/09/19 17:38:44","新北市汐止區康寧街901號","121.651703333333","25.0748916666667","6501100","汐止區"
"221032","280-BY","2017/09/19 17:38:38","新北市汐止區康寧街901號","121.65171","25.0749","6501100","汐止區"
"221033","647-BX","2017/09/19 17:38:40","新北市汐止區中興路62號","121.63541","25.0615166666667","6501100","汐止區"
"221018","753-BX","2017/09/19 17:38:49","新北市汐止區忠孝東路384號","121.665435","25.0699016666667","6501100","汐止區"
"220050","245-BX","2017/09/19 15:32:54","新北市板橋區民生路二段161巷1號","121.46999","25.01978","6500100","板橋區"
"220012","280-UM","2017/09/19 15:46:54","新北市板橋區華東街1-10號","121.448576666667","24.9949616666667","6500100","板橋區"
"220010","303-R5","2017/09/19 15:09:52","新北市板橋區民生路二段120號","121.47058","25.0197283333333","6500100","板橋區"
"220038","487-VK","2017/09/19 15:19:11","新北市板橋區四維路137巷17號","121.464265","25.0248866666667","6500100","板橋區"
"242011","280-VK","2017/09/19 17:38:44","新北市新莊區中港路597號","121.451425","25.0528516666667","6500500","新莊區"
"220052","561-BX","2017/09/19 15:30:40","新北市板橋區漢生東路53巷28號","121.466726666667","25.0173616666667","6500100","板橋區"
"220011","609-BX","2017/09/19 15:06:18","新北市板橋區中山路二段258號","121.478875","25.018315","6500100","板橋區"
"220042","689-BX","2017/09/19 15:17:11","新北市板橋區長江路一段351號","121.461205","25.0304033333333","6500100","板橋區"
"220051","830-TW","2017/09/19 15:14:52","新北市板橋區文化路一段322-1號","121.467881666667","25.02244","6500100","板橋區"
