"lineid","car","time","location","longitude","latitude","cityid","cityname"
"234026","9371-KE","2017/09/19 17:56:49","新北市永和區永和路一段45號","121.512911666667","25.0064683333333","6500400","永和區"
"234011","9373-KE","2017/09/19 17:56:48","新北市永和區福和路1號","121.525375","25.0094366666667","6500400","永和區"
"249005","172-UM","2017/09/19 17:56:46","新北市八里區荖阡坑路22-6號","121.399063333333","25.1356716666667","6502300","八里區"
"249001","173-UM","2017/09/19 17:56:51","新北市八里區龍米路二段35號","121.44837","25.140005","6502300","八里區"
"249004","303-UY","2017/09/19 17:56:44","新北市八里區中華路一段309巷19-13號","121.417148333333","25.15343","6502300","八里區"
"249002","305-UY","2017/09/19 17:56:41","新北市八里區龍形五街15號","121.450095","25.133535","6502300","八里區"
"249003","593-UM","2017/09/19 17:56:41","新北市八里區中山路二段139號","121.405271666667","25.1513383333333","6502300","八里區"
"248006","077-UY","2017/09/19 17:56:36","新北市五股區中興路二段37巷28號","121.460191666667","25.0750633333333","6501500","五股區"
"248008","095-VK","2017/09/19 17:56:40","新北市五股區中興路二段174號","121.457893333333","25.07787","6501500","五股區"
"248020","225-UY","2017/09/19 17:56:50","新北市五股區中興路二段83巷26-6號","121.460056666667","25.0752716666667","6501500","五股區"
"248014","261-SL","2017/09/19 17:56:41","新北市五股區中興路二段83巷26-3號","121.460063333333","25.07533","6501500","五股區"
"248004","677-BX","2017/09/19 09:45:16","新北市五股區中興路二段37巷28號","121.46004","25.0749133333333","6501500","五股區"
"232011","375-UM","2017/09/19 17:56:36","新北市坪林區北宜路八段238號","121.709058333333","24.934925","6502000","坪林區"
"244013","069-UM","2017/09/19 17:56:43","新北市林口區中山路93號","121.389818333333","25.0787616666667","6501700","林口區"
"244007","080-UY","2017/09/19 17:56:50","新北市林口區佳林路33號","121.386671666667","25.0819366666667","6501700","林口區"
"244009","410-SL","2017/09/19 17:56:34","新北市林口區林口路303號","121.385571666667","25.085115","6501700","林口區"
"244023","483-VK","2017/09/19 17:56:46","新北市林口區隆林街176號","121.385336666667","25.0750416666667","6501700","林口區"
"244017","485-VK","2017/09/19 17:56:45","新北市林口區文化二路一段262-8號","121.37162","25.0735","6501700","林口區"
"244011","656-BX","2017/09/19 17:56:50","新北市林口區中正路150號","121.39255","25.0774333333333","6501700","林口區"
"244002","657-BX","2017/09/19 15:57:28","新北市林口區粉寮路二段160巷28號","121.405141666667","25.0907516666667","6501700","林口區"
"244025","837-TS","2017/09/19 17:56:49","新北市林口區文化三路一段37號","121.360816666667","25.0668383333333","6501700","林口區"
"244021","838-TS","2017/09/19 17:56:37","新北市林口區新寮32號","121.400483333333","25.0659333333333","6501700","林口區"
"222002","659-BX","2017/09/19 17:56:40","新北市深坑區平埔街7號","121.615673333333","25.000935","6501800","深坑區"
"231069","189-VK","2017/09/19 12:02:29","新北市新店區安華路28-1號","121.519725","24.9610616666667","6500600","新店區"
"231046","278-BY","2017/09/19 17:56:39","新北市新店區康雅崙路31號","121.537361666667","24.9262716666667","6500600","新店區"
"231001","619-UM","2017/09/19 15:20:40","新北市新店區北新路一段12號","121.540763333333","24.96552","6500600","新店區"
"231005","897-TW","2017/09/19 16:00:13","新北市新店區安華路28-1號","121.519768333333","24.9608783333333","6500600","新店區"
"241016","266-UM","2017/09/19 17:56:47","新北市三重區忠孝路三段125號","121.479325","25.0616266666667","6500200","三重區"
"241024","KEA-2210","2017/09/19 17:56:44","新北市三重區國道路一段39巷11號","121.483636666667","25.07294","6500200","三重區"
"241033","AAC-255","2017/09/19 17:56:50","新北市三重區重新路五段613號","121.468118333333","25.0443816666667","6500200","三重區"
"235064","005-UY","2017/09/19 17:56:48","新北市中和區員山路36巷13號","121.484318333333","24.991195","6500300","中和區"
"235038","185-VK","2017/09/19 17:56:51","新北市中和區員山路36巷13號","121.48435","24.9909083333333","6500300","中和區"
"235061","378-QA","2017/09/19 17:24:20","新北市中和區新生街290號","121.483635","24.9964266666667","6500300","中和區"
"235062","800-TS","2017/09/19 17:56:44","新北市中和區員山路36巷16-3號","121.485076666667","24.99126","6500300","中和區"
"220013","072-UY","2017/09/19 15:19:07","新北市板橋區華東街1-9號","121.448098333333","24.9948933333333","6500100","板橋區"
"220017","AAD-861","2017/09/19 15:25:24","新北市板橋區華東街1-10號","121.448333333333","24.9951566666667","6500100","板橋區"
"247022","893-R6","2017/09/19 17:56:40","新北市蘆洲區中正路506號","121.461868333333","25.09669","6501400","蘆洲區"
"247011","546-UM","2017/09/19 17:56:34","新北市蘆洲區民族路178號","121.47983","25.08672","6501400","蘆洲區"
"247020","500-BY","2017/09/19 17:56:38","新北市蘆洲區民義街35巷7號","121.471533333333","25.0895483333333","6501400","蘆洲區"
"247010","339-TH","2017/09/19 17:56:45","新北市蘆洲區信義路154號","121.479386666667","25.08343","6501400","蘆洲區"
"247002","337-TH","2017/09/19 17:56:44","新北市蘆洲區永平街32巷64弄2號","121.460106666667","25.0930733333333","6501400","蘆洲區"
"247016","057-VK","2017/09/19 17:56:47","新北市蘆洲區中正路185巷68弄17號","121.466121666667","25.08502","6501400","蘆洲區"
"247006","056-VK","2017/09/19 17:56:50","新北市蘆洲區長榮路1號","121.463788333333","25.081785","6501400","蘆洲區"
"247008","053-VK","2017/09/19 17:56:46","新北市蘆洲區成功路54號","121.472921666667","25.07989","6501400","蘆洲區"
"247024","002-UY","2017/09/19 17:56:35","新北市蘆洲區長興路158巷9號","121.46223","25.0859033333333","6501400","蘆洲區"
"247018","001-UY","2017/09/19 17:56:41","新北市蘆洲區復興路305號","121.482156666667","25.0905016666667","6501400","蘆洲區"
"228001","212-TW","2017/09/19 17:56:50","新北市貢寮區仁理村仁愛路95-1號","121.927691666667","25.0554616666667","6502600","貢寮區"
"228002","663-BX","2017/09/19 17:56:45","新北市貢寮區福隆里東興街31-1號","121.954838333333","25.02066","6502600","貢寮區"
"228003","828-UM","2017/09/19 17:56:35","新北市貢寮區真理里美艷山街6-2號","121.9289","25.0607166666667","6502600","貢寮區"
"224006","676-BX","2017/09/19 17:56:54","新北市瑞芳區傑魚坑路183號","121.788443333333","25.1083066666667","6501200","瑞芳區"
"224002","639-TC","2017/09/19 17:56:46","新北市瑞芳區三爪子坑路2號","121.810228333333","25.1069666666667","6501200","瑞芳區"
"224009","285-BY","2017/09/19 17:56:49","新北市瑞芳區山尖路92號","121.8538","25.1142233333333","6501200","瑞芳區"
"224008","275-VK","2017/09/19 17:56:50","新北市瑞芳區三爪子坑路335號","121.819335","25.105635","6501200","瑞芳區"
"224007","273-VK","2017/09/19 17:56:35","新北市瑞芳區大寮路2號","121.784928333333","25.0997366666667","6501200","瑞芳區"
"224005","271-BY","2017/09/19 17:56:37","新北市瑞芳區深澳路209號","121.82023","25.13236","6501200","瑞芳區"
"253006","295-VK","2017/09/19 17:56:52","新北市石門區老梅路52巷25弄2-1號","121.546588333333","25.2874616666667","6502200","石門區"
"208002","742-BX","2017/09/19 17:56:49","新北市金山區清泉里清水路5號","121.630151666667","25.2274866666667","6502700","金山區"
"208003","665-BX","2017/09/19 17:56:37","新北市金山區磺港里磺港路304號","121.643765","25.226945","6502700","金山區"
"208001","761-BX","2017/09/19 17:56:50","新北市金山區磺港里社寮26號","121.638706666667","25.2290583333333","6502700","金山區"
"251004","009-UM","2017/09/19 17:56:47","新北市淡水區民權路187號","121.45955","25.1335266666667","6501000","淡水區"
"251005","010-UM","2017/09/19 17:56:53","新北市淡水區學府路96號","121.44935","25.1711266666667","6501000","淡水區"
"251002","012-UM","2017/09/19 17:56:48","新北市淡水區公明街89號","121.444443333333","25.16829","6501000","淡水區"
"251014","180-VK","2017/09/19 17:56:41","新北市淡水區公埔子16-6號","121.481001666667","25.224565","6501000","淡水區"
"251008","181-VK","2017/09/19 17:56:43","新北市淡水區八勢路73巷12號","121.463325","25.153915","6501000","淡水區"
"251010","413-VK","2017/09/19 17:56:42","新北市淡水區中正路一段87巷1-2號","121.421058333333","25.17873","6501000","淡水區"
"251012","441-VK","2017/09/19 17:56:38","新北市淡水區北新路三段38巷7號","121.484476666667","25.1869716666667","6501000","淡水區"
"251016","442-VK","2017/09/19 17:56:37","新北市淡水區埤島38號","121.45165","25.1962716666667","6501000","淡水區"
"251001","559-UM","2017/09/19 17:56:41","新北市淡水區民權路92巷35-1號","121.46209","25.1266833333333","6501000","淡水區"
"251006","561-UM","2017/09/19 17:56:36","新北市淡水區新生街20-5號","121.438855","25.1738983333333","6501000","淡水區"
"251009","575-R6","2017/09/19 17:56:48","新北市淡水區大仁街6巷1號","121.442531666667","25.1746483333333","6501000","淡水區"
"251007","577-R6","2017/09/19 17:56:48","新北市淡水區中正東路二段153號","121.45961","25.1465533333333","6501000","淡水區"
"251011","650-BX","2017/09/19 17:56:50","新北市淡水區坪頂路696號","121.480438333333","25.1595866666667","6501000","淡水區"
"251003","766-UM","2017/09/19 17:56:46","新北市淡水區大忠街79-6號","121.445695","25.1771733333333","6501000","淡水區"
"207003","550-UM","2017/09/19 17:56:52","新北市萬里區野柳里港東路162-15號","121.690655","25.2041916666667","6502800","萬里區"
"207004","225-TW","2017/09/19 17:56:37","新北市萬里區中幅里中福路48號","121.683286666667","25.17407","6502800","萬里區"
"252002","178-VK","2017/09/19 17:56:52","新北市三芝區中山路一段102號","121.502346666667","25.2562783333333","6502100","三芝區"
"252001","292-VK","2017/09/19 17:56:35","新北市三芝區中興街一段39號","121.497635","25.2577833333333","6502100","三芝區"
"237004","078-UY","2017/09/19 17:56:39","新北市三峽區中園街153號","121.367215","24.92236","6500900","三峽區"
"237007","153-BY","2017/09/19 17:56:55","新北市三峽區中園街126-14號","121.367071666667","24.9212816666667","6500900","三峽區"
"237009","210-TH","2017/09/19 17:56:51","新北市三峽區中山路106巷1號","121.366106666667","24.935935","6500900","三峽區"
"237013","252-BX","2017/09/19 17:56:38","新北市三峽區介壽路一段133號","121.376216666667","24.93174","6500900","三峽區"
"237012","275-BY","2017/09/19 17:56:37","新北市三峽區民生街27巷1號","121.376066666667","24.93619","6500900","三峽區"
"237008","302-VK","2017/09/19 17:56:46","新北市三峽區正義街2號","121.369816666667","24.92014","6500900","三峽區"
"237014","433-BY","2017/09/19 17:56:49","新北市三峽區復興路101巷1弄28號","121.371096666667","24.9377816666667","6500900","三峽區"
"237006","5529-G3","2017/09/19 17:56:39","新北市三峽區介壽路二段136巷68號","121.392456666667","24.93373","6500900","三峽區"
"237011","572-TV","2017/09/19 17:07:36","新北市三峽區中山路459巷163-3號","121.348751666667","24.9327533333333","6500900","三峽區"
"237016","649-BX","2017/09/19 17:56:49","新北市三峽區白雞115-16號","121.400828333333","24.9060233333333","6500900","三峽區"
"237010","706-TV","2017/09/19 17:56:00","新北市三峽區中山路59號","121.367685","24.93469","6500900","三峽區"
"237005","AKY-6261","2017/09/19 17:56:38","新北市三峽區復興路237巷30號","121.368733333333","24.93757","6500900","三峽區"
"236070","105-UM","2017/09/19 17:56:44","新北市土城區青雲路482-2號","121.469181666667","24.9646266666667","6501300","土城區"
"236043","107-UM","2017/09/19 17:56:53","新北市土城區中華路一段243-8號","121.441075","24.9820466666667","6501300","土城區"
"236079","166-UM","2017/09/19 17:56:49","新北市土城區中央路三段188號","121.430508333333","24.9648766666667","6501300","土城區"
"236031","253-BX","2017/09/19 17:56:48","新北市土城區城林路6巷80號","121.438426666667","24.9797333333333","6501300","土城區"
"236027","269-VK","2017/09/19 17:56:37","新北市土城區承天路43巷4號","121.4392","24.9640116666667","6501300","土城區"
"236015","270-VK","2017/09/19 17:56:47","新北市土城區城林路6巷80號","121.438475","24.9796166666667","6501300","土城區"
"236038","271-VK","2017/09/19 17:56:51","新北市土城區員福街50號","121.440453333333","24.979135","6501300","土城區"
"236023","401-BY","2017/09/19 17:56:55","新北市土城區城林路6巷80號","121.438781666667","24.9797116666667","6501300","土城區"
"236059","912-UM","2017/09/19 17:56:47","新北市土城區中央路三段198號","121.430336666667","24.96483","6501300","土城區"
"236049","913-UM","2017/09/19 17:48:06","新北市土城區城林路6巷80號","121.438563333333","24.9796366666667","6501300","土城區"
"236063","915-UM","2017/09/19 17:56:53","新北市土城區城林路6巷80號","121.438555","24.9797383333333","6501300","土城區"
"236055","AAC-216","2017/09/19 17:56:49","新北市土城區城林路6巷80號","121.43853","24.9796266666667","6501300","土城區"
"242032","AAC-296","2017/09/19 17:56:53","新北市新莊區新泰路338號","121.444765","25.042185","6500500","新莊區"
"242029","986-R7","2017/09/19 17:56:56","新北市新莊區復興路一段69號","121.447905","25.04257","6500500","新莊區"
"242051","751-BX","2017/09/19 17:56:50","新北市新莊區民安西路155巷7弄10號","121.426916666667","25.0168333333333","6500500","新莊區"
"242025","615-BX","2017/09/19 17:56:55","新北市新莊區五工路40號","121.460341666667","25.06307","6500500","新莊區"
"242023","613-BX","2017/09/19 17:56:48","新北市新莊區福壽街50號","121.45826","25.0486616666667","6500500","新莊區"
"242027","612-BX","2017/09/19 17:56:43","新北市新莊區思源路455號","121.459761666667","25.05345","6500500","新莊區"
"242034","497-BY","2017/09/19 17:56:46","新北市新莊區福海街31巷8號","121.444811666667","25.03393","6500500","新莊區"
"242044","442-UM","2017/09/19 17:56:43","新北市新莊區雙鳳路101號","121.414478333333","25.0278416666667","6500500","新莊區"
"242048","441-UM","2017/09/19 17:56:45","新北市新莊區萬安街61號","121.421403333333","25.024225","6500500","新莊區"
"242054","440-UM","2017/09/19 17:56:45","新北市新莊區民安西路406號","121.428851666667","25.0101083333333","6500500","新莊區"
"242005","413-TV","2017/09/19 17:56:47","新北市新莊區思源路177巷32號","121.459283333333","25.0462633333333","6500500","新莊區"
"242042","400-BY","2017/09/19 17:56:39","新北市新莊區中正路857號","121.419711666667","25.0281566666667","6500500","新莊區"
"242061","362-BY","2017/09/19 17:56:37","新北市新莊區新樹路543號","121.432843333333","25.0077433333333","6500500","新莊區"
"242058","353-BY","2017/09/19 17:56:47","新北市新莊區新北大道七段345號","121.41231","25.02746","6500500","新莊區"
"242007","132-UY","2017/09/19 17:56:37","新北市新莊區自信街65巷7號","121.45542","25.0487","6500500","新莊區"
"242037","133-UY","2017/09/19 17:56:33","新北市新莊區後港一路96號","121.427716666667","25.0267583333333","6500500","新莊區"
"242021","135-UY","2017/09/19 17:56:40","新北市新莊區中華路一段6號","121.452048333333","25.0365866666667","6500500","新莊區"
"242046","172-VK","2017/09/19 17:56:40","新北市新莊區福營路165巷36號","121.432885","25.0298333333333","6500500","新莊區"
"242009","173-VK","2017/09/19 17:56:44","新北市新莊區昌平街59巷11弄3號","121.453955","25.05303","6500500","新莊區"
"242015","175-VK","2017/09/19 17:56:33","新北市新莊區中平路119巷2號","121.444548333333","25.0467083333333","6500500","新莊區"
"242002","176-VK","2017/09/19 17:56:49","新北市新莊區中正路161-1號","121.455381666667","25.0366433333333","6500500","新莊區"
"242013","346-TH","2017/09/19 17:56:41","新北市新莊區中和街83號","121.447393333333","25.04778","6500500","新莊區"
"242039","347-TH","2017/09/19 17:56:39","新北市新莊區民安路144巷9號","121.424016666667","25.0252116666667","6500500","新莊區"
"242019","348-TH","2017/09/19 17:56:41","新北市新莊區明中街28號","121.457366666667","25.0395633333333","6500500","新莊區"
"242056","349-TH","2017/09/19 17:56:41","新北市新莊區豐年街124巷16號","121.44566","25.0298333333333","6500500","新莊區"
"242017","350-TH","2017/09/19 17:56:43","新北市新莊區中和街60巷47號","121.449936666667","25.0450633333333","6500500","新莊區"
"238015","755-BX","2017/09/19 17:56:32","新北市樹林區復興路223號","121.420108333333","24.991055","6500700","樹林區"
"238023","601-UM","2017/09/19 17:56:44","桃園市龜山區萬壽路一段369巷7弄8號","121.402078333333","25.01606","6500700","樹林區"
"238019","599-UM","2017/09/19 17:56:54","新北市樹林區八德街225號","121.421533333333","24.9794716666667","6500700","樹林區"
"238018","571-TV","2017/09/19 17:56:46","新北市樹林區博愛街101號","121.426638333333","24.9913866666667","6500700","樹林區"
"238021","KEA-2217","2017/09/19 17:56:45","新北市樹林區柑園街一段89號","121.40126","24.9600583333333","6500700","樹林區"
"238022","KEA-2213","2017/09/19 17:56:37","新北市樹林區太順街62巷1弄2號","121.417663333333","24.979525","6500700","樹林區"
"238025","303-VK","2017/09/19 17:56:48","新北市樹林區三俊街121號","121.417596666667","25.0156116666667","6500700","樹林區"
"238017","283-BY","2017/09/19 17:56:53","新北市樹林區三德街38號","121.415371666667","25.0131166666667","6500700","樹林區"
"238014","282-BY","2017/09/19 17:56:48","新北市樹林區大安路145巷31號","121.423413333333","24.9966016666667","6500700","樹林區"
"238020","268-VK","2017/09/19 17:56:49","新北市樹林區三俊街213-1號","121.420891666667","25.0152333333333","6500700","樹林區"
"238026","172-UY","2017/09/19 17:56:40","新北市樹林區八德街598巷4號","121.397656666667","24.9703833333333","6500700","樹林區"
"238016","169-UY","2017/09/19 17:56:47","新北市樹林區復興路306號","121.416915","24.9871266666667","6500700","樹林區"
"239007","AAC-297","2017/09/19 17:56:45","新北市鶯歌區尖山埔路199號","121.345223333333","24.950485","6500800","鶯歌區"
"239006","891-R6","2017/09/19 17:56:45","新北市鶯歌區鶯桃路413巷34弄8號","121.331031666667","24.96371","6500800","鶯歌區"
"239008","527-UM","2017/09/19 17:56:41","新北市鶯歌區朝陽街48巷1號","121.337365","24.97767","6500800","鶯歌區"
"239005","526-UM","2017/09/19 17:56:48","新北市鶯歌區大湖路361巷81-1號","121.332983333333","24.9739383333333","6500800","鶯歌區"
"239001","417-VK","2017/09/19 17:56:43","新北市鶯歌區中正三路176-1號","121.333261666667","24.938355","6500800","鶯歌區"
"239003","360-BY","2017/09/19 17:56:44","新北市鶯歌區鶯桃路346號","121.333885","24.9624583333333","6500800","鶯歌區"
"239002","359-BY","2017/09/19 17:56:50","新北市鶯歌區光明街94號","121.346331666667","24.9558333333333","6500800","鶯歌區"
"239004","193-VK","2017/09/19 17:56:34","新北市鶯歌區尖山路101巷12號","121.346543333333","24.94278","6500800","鶯歌區"
"221008","489-VK","2017/09/19 17:56:49","新北市汐止區康寧街631號","121.63697","25.071775","6501100","汐止區"
"221036","130-UY","2017/09/19 17:56:44","新北市汐止區忠孝東路473巷24-1號","121.665108333333","25.07371","6501100","汐止區"
"221015","131-UY","2017/09/19 17:56:45","新北市汐止區長江街305號","121.665908333333","25.08135","6501100","汐止區"
"221010","269-BY","2017/09/19 17:56:46","新北市汐止區汐萬路二段122巷28號","121.648431666667","25.0863183333333","6501100","汐止區"
"221012","276-VK","2017/09/19 13:19:06","新北市汐止區汐萬路一段256巷3號","121.65346","25.074575","6501100","汐止區"
"221012","278-VK","2017/09/19 17:56:49","新北市汐止區長興街二段4巷2號","121.672173333333","25.0807583333333","6501100","汐止區"
"221023","279-VK","2017/09/19 17:56:55","新北市汐止區明峰街143號","121.629591666667","25.0706183333333","6501100","汐止區"
"221032","280-BY","2017/09/19 17:56:38","新北市汐止區橫科路73巷10號","121.619561666667","25.0509883333333","6501100","汐止區"
"221027","281-BY","2017/09/19 17:56:50","新北市汐止區汐萬路一段39號","121.655303333333","25.06878","6501100","汐止區"
"221038","297-VK","2017/09/19 17:56:52","新北市汐止區連興街124號","121.653813333333","25.0619916666667","6501100","汐止區"
"221029","298-VK","2017/09/19 17:56:46","新北市汐止區樟樹二路334號","121.64145","25.07039","6501100","汐止區"
"221021","299-VK","2017/09/19 17:56:36","新北市汐止區水源路一段56-1號","121.656963333333","25.0655183333333","6501100","汐止區"
"221031","353-TW","2017/09/19 17:56:49","新北市汐止區工建路208號","121.635726666667","25.0617633333333","6501100","汐止區"
"221035","622-UM","2017/09/19 17:56:43","新北市汐止區新江北路30巷22弄7號","121.651323333333","25.0696516666667","6501100","汐止區"
"221025","623-UM","2017/09/19 17:56:43","新北市汐止區仁愛路10號","121.659291666667","25.0636933333333","6501100","汐止區"
"221033","647-BX","2017/09/19 17:56:40","新北市汐止區民權街二段131號","121.618046666667","25.0456283333333","6501100","汐止區"
"221002","707-TV","2017/09/19 17:56:37","新北市汐止區樟樹二路341號","121.642101666667","25.072655","6501100","汐止區"
"221018","753-BX","2017/09/19 17:56:38","新北市汐止區忠孝東路382巷1弄1號","121.665658333333","25.0697566666667","6501100","汐止區"
"220050","245-BX","2017/09/19 15:32:54","新北市板橋區民生路二段161巷1號","121.46999","25.01978","6500100","板橋區"
"220012","280-UM","2017/09/19 15:46:54","新北市板橋區華東街1-10號","121.448576666667","24.9949616666667","6500100","板橋區"
"220010","303-R5","2017/09/19 15:09:52","新北市板橋區民生路二段120號","121.47058","25.0197283333333","6500100","板橋區"
"220038","487-VK","2017/09/19 15:19:11","新北市板橋區四維路137巷17號","121.464265","25.0248866666667","6500100","板橋區"
"242011","280-VK","2017/09/19 17:56:44","新北市新莊區中港路629-1號","121.450603333333","25.0538483333333","6500500","新莊區"
"220052","561-BX","2017/09/19 15:30:40","新北市板橋區漢生東路53巷28號","121.466726666667","25.0173616666667","6500100","板橋區"
"220011","609-BX","2017/09/19 15:06:18","新北市板橋區中山路二段258號","121.478875","25.018315","6500100","板橋區"
"220042","689-BX","2017/09/19 15:17:11","新北市板橋區長江路一段351號","121.461205","25.0304033333333","6500100","板橋區"
"220051","830-TW","2017/09/19 15:14:52","新北市板橋區文化路一段322-1號","121.467881666667","25.02244","6500100","板橋區"
