"lineid","car","time","location","longitude","latitude","cityid","cityname"
"234046","148-BY","2017/09/19 18:48:40","新北市永和區秀朗路二段148巷12弄15號","121.524681666667","25.0009133333333","6500400","永和區"
"234013","149-BY","2017/09/19 18:48:40","新北市永和區保福路二段133巷2號","121.509448333333","25.0138266666667","6500400","永和區"
"234007","207-UY","2017/09/19 18:48:46","新北市永和區永和路二段181號","121.515366666667","25.0134183333333","6500400","永和區"
"234081","298-R6","2017/09/19 18:48:42","新北市永和區永利路112號","121.521278333333","25.003305","6500400","永和區"
"234038","336-UY","2017/09/19 18:48:51","新北市永和區成功路二段89號","121.526725","24.9992583333333","6500400","永和區"
"234086","338-UY","2017/09/19 18:48:47","新北市永和區中正路7號","121.513958333333","24.995645","6500400","永和區"
"234070","552-UM","2017/09/19 18:48:40","新北市永和區竹林路96巷4號","121.519153333333","25.0121233333333","6500400","永和區"
"234054","553-UM","2017/09/19 18:48:42","新北市永和區竹林路71號","121.518613333333","25.0134316666667","6500400","永和區"
"234017","745-BX","2017/09/19 18:48:47","新北市永和區忠孝街26巷4號","121.515425","25.016635","6500400","永和區"
"234030","746-BX","2017/09/19 18:48:46","新北市永和區得和路340號","121.523626666667","24.99943","6500400","永和區"
"234061","AAD-866","2017/09/19 18:48:49","新北市永和區福和路307號","121.516248333333","25.0071133333333","6500400","永和區"
"234042","862-TW","2017/09/19 18:48:41","新北市永和區永貞路304號","121.512051666667","25.0048066666667","6500400","永和區"
"234050","863-TW","2017/09/19 18:48:46","新北市永和區保安路2號","121.510746666667","25.0174433333333","6500400","永和區"
"234026","9371-KE","2017/09/19 18:48:40","新北市永和區自由街54號","121.513715","25.00604","6500400","永和區"
"234011","9373-KE","2017/09/19 18:48:48","新北市永和區文化路124號","121.513056666667","25.0154066666667","6500400","永和區"
"249005","172-UM","2017/09/19 18:48:46","新北市八里區長道坑16-7號","121.395713333333","25.115365","6502300","八里區"
"249001","173-UM","2017/09/19 18:48:51","新北市八里區龍米路二段16號","121.44897","25.1390766666667","6502300","八里區"
"249004","303-UY","2017/09/19 18:48:34","新北市八里區中山路一段178號","121.41677","25.15935","6502300","八里區"
"248016","026-BX","2017/09/19 18:48:36","新北市五股區凌雲路一段149巷42號","121.448653333333","25.101005","6501500","五股區"
"248006","077-UY","2017/09/19 18:48:55","新北市五股區中興路一段171巷75號","121.464106666667","25.0714916666667","6501500","五股區"
"248008","095-VK","2017/09/19 18:48:40","新北市五股區中興路一段151巷39號","121.465208333333","25.0720966666667","6501500","五股區"
"248020","225-UY","2017/09/19 18:48:50","新北市五股區凌雲路三段41-2號","121.430333333333","25.1175383333333","6501500","五股區"
"248012","247-BX","2017/09/19 18:48:36","新北市五股區成泰路二段147巷34-7號","121.436531666667","25.089115","6501500","五股區"
"248014","261-SL","2017/09/19 18:48:40","新北市五股區民義路一段3號","121.437323333333","25.0832366666667","6501500","五股區"
"248010","272-BY","2017/09/19 18:48:42","新北市五股區水碓七路81號","121.429713333333","25.0721733333333","6501500","五股區"
"248004","677-BX","2017/09/19 18:48:40","新北市五股區民義路二段22巷1號","121.419973333333","25.0970566666667","6501500","五股區"
"248002","678-BX","2017/09/19 18:48:50","新北市五股區成泰路三段435巷11號","121.449355","25.09791","6501500","五股區"
"234023","9380-KE","2017/09/19 18:48:43","新北市永和區竹林路91巷60弄42號","121.522495","25.0123633333333","6500400","永和區"
"234077","969-R7","2017/09/19 18:48:53","新北市永和區中正路42巷6弄2號","121.51325","24.9942133333333","6500400","永和區"
"234074","AAC-211","2017/09/19 18:48:49","新北市永和區福和路1號","121.526603333333","25.0098466666667","6500400","永和區"
"234067","AAC-212","2017/09/19 18:48:56","新北市永和區中和路625號","121.512968333333","25.0049383333333","6500400","永和區"
"234003","AAC-295","2017/09/19 18:48:51","新北市永和區永和路二段26號","121.514855","25.01008","6500400","永和區"
"232011","375-UM","2017/09/19 18:48:45","新北市坪林區坪雙路一段21號","121.71196","24.9422116666667","6502000","坪林區"
"244013","069-UM","2017/09/19 18:48:43","新北市林口區文化一路一段227號","121.379458333333","25.0762366666667","6501700","林口區"
"244007","080-UY","2017/09/19 18:48:50","新北市林口區湖北里55號","121.384983333333","25.106455","6501700","林口區"
"244009","410-SL","2017/09/19 18:48:54","新北市林口區竹林路278巷16號","121.390761666667","25.0813016666667","6501700","林口區"
"244023","483-VK","2017/09/19 18:48:46","新北市林口區信義路283-1號","121.375863333333","25.081835","6501700","林口區"
"244017","485-VK","2017/09/19 18:48:45","新北市林口區文化二路一段68巷11號","121.366458333333","25.06887","6501700","林口區"
"244011","656-BX","2017/09/19 18:48:49","新北市林口區中正路41巷7號","121.395756666667","25.0768416666667","6501700","林口區"
"244002","657-BX","2017/09/19 15:57:28","新北市林口區粉寮路二段160巷28號","121.405141666667","25.0907516666667","6501700","林口區"
"244025","837-TS","2017/09/19 18:48:35","新北市林口區忠孝一路162號","121.359418333333","25.0738833333333","6501700","林口區"
"244021","838-TS","2017/09/19 18:48:37","新北市林口區工六路82號","121.400551666667","25.077035","6501700","林口區"
"243013","AAD-798","2017/09/19 18:48:52","新北市泰山區明志路三段206巷3號","121.423311666667","25.037955","6501600","泰山區"
"243015","380-SR","2017/09/19 18:48:43","新北市泰山區美寧街50號","121.430688333333","25.0644266666667","6501600","泰山區"
"243014","421-VK","2017/09/19 18:48:48","新北市泰山區犁頭窠3-1號","121.422285","25.0604916666667","6501600","泰山區"
"243012","646-TV","2017/09/19 18:48:36","新北市泰山區泰林路二段73巷35號","121.434288333333","25.05782","6501600","泰山區"
"243016","680-BX","2017/09/19 18:48:54","新北市泰山區明志路二段135號","121.427636666667","25.0508433333333","6501600","泰山區"
"222003","436-BY","2017/09/19 18:48:37","新北市深坑區翠谷街17巷1號","121.626523333333","25.00844","6501800","深坑區"
"222002","659-BX","2017/09/19 18:48:40","新北市深坑區文山路一段69號","121.626966666667","25.0018683333333","6501800","深坑區"
"222001","696-SL","2017/09/19 18:48:34","新北市深坑區松柏街30巷2號","121.638601666667","25.0112483333333","6501800","深坑區"
"231041","002-UM","2017/09/19 18:48:36","新北市新店區安華路28-1號","121.519811666667","24.9608583333333","6500600","新店區"
"231055","0293-UT","2017/09/19 18:48:44","新北市新店區新生街55號","121.538828333333","24.9670333333333","6500600","新店區"
"231059","046-UY","2017/09/19 18:48:49","新北市新店區安華路28-1號","121.519861666667","24.960875","6500600","新店區"
"231061","047-UY","2017/09/19 18:48:53","新北市新店區安華路28-1號","121.51907","24.960965","6500600","新店區"
"231060","106-UY","2017/09/19 18:48:39","新北市新店區安忠路57巷11弄2號","121.513741666667","24.9575516666667","6500600","新店區"
"231051","107-UY","2017/09/19 18:48:46","新北市新店區中央路103號","121.531098333333","24.9748283333333","6500600","新店區"
"231048","108-UY","2017/09/19 18:48:50","新北市新店區德正街21巷1號","121.543898333333","24.972195","6500600","新店區"
"231053","187-VK","2017/09/19 18:48:37","新北市新店區長興路35號","121.547948333333","24.9390033333333","6500600","新店區"
"231069","189-VK","2017/09/19 12:02:29","新北市新店區安華路28-1號","121.519725","24.9610616666667","6500600","新店區"
"231050","215-TC","2017/09/19 18:48:50","新北市新店區安康路一段226-2號","121.523385","24.963685","6500600","新店區"
"231063","268-BY","2017/09/19 18:48:52","新北市新店區安華路16號","121.516956666667","24.9580716666667","6500600","新店區"
"231046","278-BY","2017/09/19 18:48:39","新北市新店區直潭路41號","121.53372","24.9425683333333","6500600","新店區"
"231054","AAD-862","2017/09/19 18:48:52","新北市新店區安康路一段257號","121.524493333333","24.9633583333333","6500600","新店區"
"231058","3712-VJ","2017/09/19 18:48:52","新北市新店區北宜路一段105巷2號","121.539505","24.9555116666667","6500600","新店區"
"231056","4716-K9","2017/09/19 18:48:50","新北市新店區大豐路68巷15號","121.538555","24.9802733333333","6500600","新店區"
"231067","4772-VM","2017/09/19 18:48:54","新北市新店區安康路一段106巷21號","121.527835","24.9633166666667","6500600","新店區"
"231065","512-UM","2017/09/19 18:48:44","新北市新店區安豐路22巷20號","121.503615","24.9545216666667","6500600","新店區"
"231064","515-UM","2017/09/19 16:45:35","新北市新店區安華路28-1號","121.519836666667","24.9610066666667","6500600","新店區"
"231045","617-UM","2017/09/19 18:48:50","新北市新店區安華路28-1號","121.519716666667","24.9612483333333","6500600","新店區"
"231040","619-UM","2017/09/19 18:48:50","新北市新店區環河路100號","121.536995","24.96405","6500600","新店區"
"231042","641-BX","2017/09/19 18:48:48","新北市新店區中正路86號","121.5435","24.9703783333333","6500600","新店區"
"231049","719-UM","2017/09/19 18:48:40","新北市新店區中正路460號","121.534143333333","24.9792333333333","6500600","新店區"
"231062","720-UM","2017/09/19 18:48:46","新北市新店區安華路16號","121.51701","24.958075","6500600","新店區"
"231044","897-TW","2017/09/19 18:48:43","新北市新店區寶中路83號","121.547823333333","24.9806666666667","6500600","新店區"
"231043","899-TW","2017/09/19 18:48:44","新北市新店區安康路一段76號","121.528215","24.9618833333333","6500600","新店區"
"231066","AKT-0513","2017/09/19 18:48:37","新北市新店區安豐路22巷7號","121.500975","24.95469","6500600","新店區"
"235066","003-UY","2017/09/19 18:48:43","新北市中和區水源路29巷12號","121.504246666667","25.0040483333333","6500300","中和區"
"235064","005-UY","2017/09/19 18:48:48","新北市中和區連城路109巷53號","121.497078333333","24.9982183333333","6500300","中和區"
"235056","096-UM","2017/09/19 18:48:39","新北市中和區員山路611巷1號","121.477831666667","25.0113166666667","6500300","中和區"
"235039","097-UM","2017/09/19 18:48:36","新北市中和區安樂路143巷7號","121.514115","24.997085","6500300","中和區"
"235065","098-UM","2017/09/19 18:48:40","新北市中和區莊敬路33巷40號","121.500186666667","25.006735","6500300","中和區"
"235040","150-BY","2017/09/19 18:48:46","新北市中和區安平路36巷7號","121.510266666667","24.994735","6500300","中和區"
"235055","183-VK","2017/09/19 18:48:42","新北市中和區民生街12巷1號","121.470611666667","25.0055783333333","6500300","中和區"
"235038","185-VK","2017/09/19 18:48:51","新北市中和區自強路62巷6號","121.51957","24.9945466666667","6500300","中和區"
"235049","186-VK","2017/09/19 18:48:51","新北市中和區景安路116號","121.50535","24.9949783333333","6500300","中和區"
"235067","255-BX","2017/09/19 18:48:40","新北市中和區中正路877巷2-2號","121.484191666667","25.0039966666667","6500300","中和區"
"235072","301-VK","2017/09/19 18:48:53","新北市中和區中山路二段178巷1號","121.500585","25.0029016666667","6500300","中和區"
"235043","352-BY","2017/09/19 18:48:50","新北市中和區成功路133號","121.526198333333","24.9904783333333","6500300","中和區"
"235051","376-QA","2017/09/19 18:48:40","新北市中和區華新街109巷11弄2-4號","121.508763333333","24.9796483333333","6500300","中和區"
"235068","377-QA","2017/09/19 18:48:20","新北市中和區中正路211巷13弄38號","121.497781666667","24.9932166666667","6500300","中和區"
"235061","378-QA","2017/09/19 18:48:41","新北市中和區民享街109號","121.474823333333","24.99956","6500300","中和區"
"235050","4979-A6","2017/09/19 18:47:46","新北市中和區忠孝街62巷1號","121.512085","24.98382","6500300","中和區"
"235069","4980-A6","2017/09/19 18:48:45","新北市中和區南山路52巷20號","121.501315","24.9973183333333","6500300","中和區"
"235042","551-UM","2017/09/19 18:48:35","新北市中和區秀朗路三段133巷3號","121.525691666667","24.9928183333333","6500300","中和區"
"235070","558-UM","2017/09/19 18:48:50","新北市中和區南華路65號","121.50452","24.9973266666667","6500300","中和區"
"235045","565-BX","2017/09/19 18:48:47","新北市中和區復興路1號","121.506163333333","24.9897433333333","6500300","中和區"
"235054","640-BX","2017/09/19 18:48:45","新北市中和區民享街40-1號","121.47401","25.0028683333333","6500300","中和區"
"235060","647-TV","2017/09/19 18:48:45","新北市中和區中山路三段100號","121.477056666667","25.0057516666667","6500300","中和區"
"235047","732-UM","2017/09/19 18:48:51","新北市中和區興南路二段34巷73號","121.505043333333","24.9850466666667","6500300","中和區"
"235046","733-UM","2017/09/19 18:48:52","新北市中和區仁愛街36巷44號","121.511325","24.9863233333333","6500300","中和區"
"235062","800-TS","2017/09/19 18:48:44","新北市中和區中山路二段326號","121.49531","25.0023783333333","6500300","中和區"
"235057","801-TS","2017/09/19 18:48:51","新北市中和區民安街22巷7-1號","121.48002","25.0010116666667","6500300","中和區"
"235041","802-TS","2017/09/19 18:48:32","新北市中和區宜安路127號","121.50981","24.9982016666667","6500300","中和區"
"235052","805-TS","2017/09/19 18:48:48","新北市中和區興南路二段399巷80號","121.499895","24.9783783333333","6500300","中和區"
"235053","900-TW","2017/09/19 18:48:39","新北市中和區華福街6號","121.46542","24.9968166666667","6500300","中和區"
"235063","911-UM","2017/09/19 18:48:41","新北市中和區連城路403巷8號","121.486173333333","24.9956783333333","6500300","中和區"
"235037","AAC-213","2017/09/19 18:48:39","新北市中和區秀朗路三段175巷7號","121.525","24.99149","6500300","中和區"
"235059","AAC-215","2017/09/19 18:48:52","新北市中和區圓通路389號","121.490126666667","24.9891583333333","6500300","中和區"
"220068","013-TV","2017/09/19 18:48:46","新北市板橋區民生路二段89-6號","121.470656666667","25.0188816666667","6500100","板橋區"
"220065","072-UY","2017/09/19 18:48:45","新北市板橋區縣民大道二段82號","121.465401666667","25.0143666666667","6500100","板橋區"
"220086","073-UY","2017/09/19 18:48:42","新北市板橋區大智街71巷7弄1號","121.453131666667","25.0146966666667","6500100","板橋區"
"220106","075-UY","2017/09/19 18:48:37","新北市板橋區民生路二段120號","121.470591666667","25.0195383333333","6500100","板橋區"
"220069","AAD-861","2017/09/19 18:48:52","新北市板橋區華東街260號","121.45268","25.0019766666667","6500100","板橋區"
"247008","053-VK","2017/09/19 18:48:46","新北市五股區中興路二段182巷3號","121.456508333333","25.0780583333333","6501400","蘆洲區"
"226004","205-ST","2017/09/19 18:48:38","新北市平溪區平溪里平溪街63號","121.738","25.0269183333333","6502400","平溪區"
"228001","212-TW","2017/09/19 18:48:49","新北市貢寮區仁理村研海街12-1號","121.92382","25.051625","6502600","貢寮區"
"228002","663-BX","2017/09/19 18:48:45","新北市貢寮區福隆里東興街6-11號","121.950718333333","25.0209933333333","6502600","貢寮區"
"228003","828-UM","2017/09/19 18:48:35","新北市貢寮區和美里龍洞街42號","121.913321666667","25.11264","6502600","貢寮區"
"224010","AGQ-8101","2017/09/19 18:41:37","新北市瑞芳區山尖路174號","121.84787","25.1119016666667","6501200","瑞芳區"
"224006","676-BX","2017/09/19 18:48:54","新北市瑞芳區中正路77號","121.805445","25.10758","6501200","瑞芳區"
"224009","285-BY","2017/09/19 18:48:49","新北市瑞芳區祈堂路6號","121.859636666667","25.1118833333333","6501200","瑞芳區"
"224008","275-VK","2017/09/19 18:48:50","新北市瑞芳區逢甲路341號","121.800811666667","25.11214","6501200","瑞芳區"
"224007","273-VK","2017/09/19 18:48:54","新北市瑞芳區大埔路128號","121.761975","25.10094","6501200","瑞芳區"
"224005","271-BY","2017/09/19 18:48:37","新北市瑞芳區海濱路157-2號","121.828768333333","25.1209916666667","6501200","瑞芳區"
"227009","642-TC","2017/09/19 18:48:40","新北市雙溪區牡丹里聖南34號","121.853675","25.0557483333333","6502500","雙溪區"
"227003","400-TW","2017/09/19 18:48:35","新北市雙溪區平林里梅竹蹊5號","121.86264","25.0351466666667","6502500","雙溪區"
"253005","032-BX","2017/09/19 18:48:54","新北市石門區石門街2巷20號","121.565588333333","25.2905666666667","6502200","石門區"
"253006","295-VK","2017/09/19 18:48:52","新北市石門區下員坑16號","121.51061","25.28362","6502200","石門區"
"208002","742-BX","2017/09/19 18:48:49","新北市金山區信義路66號","121.635621666667","25.2190016666667","6502700","金山區"
"208003","665-BX","2017/09/19 18:48:55","新北市金山區中山路346號","121.633406666667","25.2253133333333","6502700","金山區"
"208001","761-BX","2017/09/19 18:48:50","新北市金山區文化三路66巷2弄1號","121.634315","25.22569","6502700","金山區"
"251002","012-UM","2017/09/19 18:48:48","新北市淡水區學府路68號","121.44884","25.1705283333333","6501000","淡水區"
"251014","180-VK","2017/09/19 18:48:41","新北市淡水區崙頂16-1號","121.488373333333","25.2233066666667","6501000","淡水區"
"251008","181-VK","2017/09/19 18:48:46","新北市淡水區北投子15-4號","121.45204","25.182565","6501000","淡水區"
"251010","413-VK","2017/09/19 18:48:42","新北市淡水區沙崙路24號","121.421281666667","25.1812333333333","6501000","淡水區"
"251012","441-VK","2017/09/19 18:48:38","新北市淡水區中山北路一段188-5號","121.444518333333","25.1791683333333","6501000","淡水區"
"251016","442-VK","2017/09/19 18:48:37","新北市淡水區下圭柔山75號","121.443945","25.20556","6501000","淡水區"
"251001","559-UM","2017/09/19 18:48:46","新北市淡水區自強路110-8號","121.46156","25.131475","6501000","淡水區"
"251009","575-R6","2017/09/19 18:48:48","新北市淡水區重建街152號","121.440521666667","25.17363","6501000","淡水區"
"251007","577-R6","2017/09/19 18:48:48","新北市淡水區民生路117巷52弄2號","121.464855","25.1401733333333","6501000","淡水區"
"251011","650-BX","2017/09/19 18:48:50","新北市淡水區學府路55號","121.448201666667","25.1694116666667","6501000","淡水區"
"251003","766-UM","2017/09/19 18:48:46","新北市淡水區中山北路一段151號","121.443025","25.177405","6501000","淡水區"
"207003","550-UM","2017/09/19 18:48:51","新北市萬里區大鵬里頂社2-1號","121.659761666667","25.2073583333333","6502800","萬里區"
"207004","225-TW","2017/09/19 18:48:37","新北市萬里區萬里里獅頭路23號","121.693241666667","25.1782483333333","6502800","萬里區"
"252002","178-VK","2017/09/19 18:48:52","新北市三芝區中正路一段112號","121.504785","25.2564466666667","6502100","三芝區"
"252003","249-BX","2017/09/19 18:48:37","新北市三芝區後厝里大片頭83-5號","121.458931666667","25.2438833333333","6502100","三芝區"
"252001","292-VK","2017/09/19 18:48:35","新北市三芝區中正路三段26號","121.502531666667","25.2528333333333","6502100","三芝區"
"237004","078-UY","2017/09/19 18:48:39","新北市三峽區有木108-1號","121.433301666667","24.8617916666667","6500900","三峽區"
"237007","153-BY","2017/09/19 18:48:55","新北市三峽區柑樹路2巷11號","121.362066666667","24.9050916666667","6500900","三峽區"
"237013","252-BX","2017/09/19 18:48:38","新北市三峽區光明路69巷25號","121.376736666667","24.9292366666667","6500900","三峽區"
"237012","275-BY","2017/09/19 18:48:37","新北市三峽區三樹路358號","121.383973333333","24.9433783333333","6500900","三峽區"
"237008","302-VK","2017/09/19 18:48:36","新北市三峽區白雞127號","121.39407","24.9111716666667","6500900","三峽區"
"237014","433-BY","2017/09/19 18:48:49","新北市三峽區隆恩街175號","121.361528333333","24.9425283333333","6500900","三峽區"
"237006","5529-G3","2017/09/19 18:48:39","新北市三峽區溪東路233巷4弄23號","121.407305","24.934015","6500900","三峽區"
"237011","572-TV","2017/09/19 17:07:36","新北市三峽區中山路459巷163-3號","121.348751666667","24.9327533333333","6500900","三峽區"
"237016","649-BX","2017/09/19 18:48:49","新北市三峽區竹崙路76號","121.432203333333","24.9189316666667","6500900","三峽區"
"237010","706-TV","2017/09/19 18:44:40","新北市三峽區復興路257號","121.366935","24.9389316666667","6500900","三峽區"
"237005","AKY-6261","2017/09/19 18:48:38","新北市三峽區大智路2-1號","121.360655","24.9374966666667","6500900","三峽區"
"236070","105-UM","2017/09/19 18:48:44","新北市土城區延和路21巷33號","121.46372","24.9891066666667","6501300","土城區"
"236043","107-UM","2017/09/19 18:48:53","新北市土城區裕民路92巷25弄1號","121.449615","24.9860016666667","6501300","土城區"
"236079","166-UM","2017/09/19 18:48:49","新北市土城區中央路四段165巷11-3號","121.415856666667","24.9558716666667","6501300","土城區"
"236031","253-BX","2017/09/19 18:48:48","新北市土城區中央路三段4-1號","121.439113333333","24.9700333333333","6501300","土城區"
"236027","269-VK","2017/09/19 18:48:37","新北市土城區興城路20號","121.442351666667","24.9729716666667","6501300","土城區"
"236015","270-VK","2017/09/19 18:48:47","新北市土城區金城路二段360-2號","121.462001666667","24.985205","6501300","土城區"
"236038","271-VK","2017/09/19 18:48:51","新北市土城區明德路一段291巷11弄1號","121.460446666667","24.9766483333333","6501300","土城區"
"236023","401-BY","2017/09/19 18:48:55","新北市土城區延吉街253巷31號","121.468111666667","24.98362","6501300","土城區"
"236059","912-UM","2017/09/19 18:48:47","新北市土城區中央路三段155號","121.432046666667","24.9654716666667","6501300","土城區"
"236049","913-UM","2017/09/19 18:48:46","新北市板橋區信義路208號","121.460113333333","24.990655","6501300","土城區"
"236063","915-UM","2017/09/19 18:48:53","新北市土城區延和路201號","121.46948","24.9902233333333","6501300","土城區"
"236055","AAC-216","2017/09/19 18:48:49","新北市土城區裕民路217號","121.453841666667","24.98385","6501300","土城區"
"242061","362-BY","2017/09/19 18:48:35","新北市新莊區中正路473號","121.441683333333","25.0329783333333","6500500","新莊區"
"242046","172-VK","2017/09/19 18:48:40","新北市泰山區全興路350-2號","121.439078333333","25.0476883333333","6500500","新莊區"
"238023","601-UM","2017/09/19 18:48:44","新北市樹林區三福街114號","121.406525","25.0163766666667","6500700","樹林區"
"238019","599-UM","2017/09/19 18:48:55","新北市樹林區東榮街147巷4弄4號","121.414665","24.9810766666667","6500700","樹林區"
"238018","571-TV","2017/09/19 18:48:46","新北市樹林區樹新路105號","121.428011666667","24.9956266666667","6500700","樹林區"
"238024","5061-A6","2017/09/19 18:48:38","新北市樹林區太平路96號","121.418571666667","24.9794383333333","6500700","樹林區"
"238022","KEA-2213","2017/09/19 18:48:46","新北市樹林區中華路379巷78弄9號","121.41323","24.9771316666667","6500700","樹林區"
"238025","303-VK","2017/09/19 18:48:36","新北市樹林區中山路三段22號","121.395608333333","24.97296","6500700","樹林區"
"238017","283-BY","2017/09/19 18:48:53","新北市樹林區光興街50號","121.409853333333","25.0027733333333","6500700","樹林區"
"238014","282-BY","2017/09/19 18:48:43","新北市樹林區大安路111巷2號","121.423026666667","24.9975566666667","6500700","樹林區"
"238020","268-VK","2017/09/19 18:48:49","新北市樹林區三俊街250-1號","121.421353333333","25.0146633333333","6500700","樹林區"
"238026","172-UY","2017/09/19 18:48:39","新北市樹林區信和街18號","121.390458333333","24.972925","6500700","樹林區"
"238016","169-UY","2017/09/19 18:48:47","新北市樹林區文化街28號","121.419366666667","24.9877783333333","6500700","樹林區"
"239007","AAC-297","2017/09/19 18:48:45","新北市鶯歌區中正一路305號","121.35646","24.9575783333333","6500800","鶯歌區"
"239006","891-R6","2017/09/19 18:48:44","新北市鶯歌區鶯桃路296巷70號","121.336571666667","24.961665","6500800","鶯歌區"
"239008","527-UM","2017/09/19 18:48:41","新北市鶯歌區國際二路20號","121.336511666667","24.9750383333333","6500800","鶯歌區"
"239005","526-UM","2017/09/19 18:48:48","新北市鶯歌區大湖路361巷26號","121.330515","24.9779616666667","6500800","鶯歌區"
"239001","417-VK","2017/09/19 18:48:43","新北市鶯歌區鶯桃路98號","121.339191666667","24.954015","6500800","鶯歌區"
"239003","360-BY","2017/09/19 18:48:44","新北市鶯歌區鶯桃路603號","121.329236666667","24.96904","6500800","鶯歌區"
"239002","359-BY","2017/09/19 18:48:50","新北市鶯歌區中正一路381號","121.358461666667","24.95704","6500800","鶯歌區"
"239004","193-VK","2017/09/19 18:48:54","新北市鶯歌區中正三路194巷2-3號","121.33268","24.9385683333333","6500800","鶯歌區"
"221008","489-VK","2017/09/19 18:48:54","新北市汐止區康寧街901號","121.651433333333","25.07507","6501100","汐止區"
"221036","130-UY","2017/09/19 18:48:50","新北市汐止區忠孝東路334號","121.665115","25.069385","6501100","汐止區"
"221015","131-UY","2017/09/19 18:48:45","新北市汐止區鄉長路一段31-1號","121.665291666667","25.0747","6501100","汐止區"
"221010","269-BY","2017/09/19 18:48:46","新北市汐止區汐萬路一段301號","121.649815","25.0759366666667","6501100","汐止區"
"221012","276-VK","2017/09/19 13:19:06","新北市汐止區汐萬路一段256巷3號","121.65346","25.074575","6501100","汐止區"
"221012","278-VK","2017/09/19 18:48:49","新北市汐止區康寧街901號","121.650858333333","25.0752333333333","6501100","汐止區"
"221023","279-VK","2017/09/19 18:48:44","新北市汐止區汐萬路一段256巷3號","121.652551666667","25.0745866666667","6501100","汐止區"
"221032","280-BY","2017/09/19 18:48:38","新北市汐止區橫科路221巷19-1號","121.621705","25.0494566666667","6501100","汐止區"
"221027","281-BY","2017/09/19 18:48:50","新北市汐止區汐萬路一段160號","121.652638333333","25.0714983333333","6501100","汐止區"
"221038","297-VK","2017/09/19 18:48:48","新北市汐止區康寧街901號","121.650706666667","25.0753366666667","6501100","汐止區"
"221029","298-VK","2017/09/19 18:48:46","新北市汐止區樟樹一路2巷59號","121.641778333333","25.06295","6501100","汐止區"
"221021","299-VK","2017/09/19 18:48:36","新北市汐止區新江北路17號","121.652878333333","25.0705933333333","6501100","汐止區"
"221031","353-TW","2017/09/19 18:48:49","新北市汐止區福德一路272巷9號","121.631845","25.0642283333333","6501100","汐止區"
"221035","622-UM","2017/09/19 18:48:43","新北市汐止區中正路308號","121.656188333333","25.0680383333333","6501100","汐止區"
"221025","623-UM","2017/09/19 18:48:51","新北市汐止區秀峰路103號","121.660045","25.06361","6501100","汐止區"
"221033","647-BX","2017/09/19 18:48:40","新北市汐止區南勢街1巷1號","121.627001666667","25.0374166666667","6501100","汐止區"
"221002","707-TV","2017/09/19 18:48:37","新北市汐止區大同路一段149號","121.63219","25.05615","6501100","汐止區"
"221018","753-BX","2017/09/19 18:48:38","新北市汐止區水源路一段2號","121.657098333333","25.0671783333333","6501100","汐止區"
"220079","145-BY","2017/09/19 18:48:50","新北市板橋區民權路202巷7弄2號","121.460006666667","25.0148283333333","6500100","板橋區"
"220080","200-UY","2017/09/19 18:48:47","新北市板橋區大觀路二段265巷66弄20號","121.441813333333","24.9969933333333","6500100","板橋區"
"220082","610-BX","2017/09/19 18:48:49","新北市板橋區篤行路三段11號","121.429171666667","24.9874316666667","6500100","板橋區"
"220101","245-BX","2017/09/19 15:32:54","新北市板橋區民生路二段161巷1號","121.46999","25.01978","6500100","板橋區"
"220097","257-TC","2017/09/19 18:48:47","新北市板橋區民生路二段120號","121.470438333333","25.0196","6500100","板橋區"
"220056","276-BY","2017/09/19 18:48:53","新北市板橋區四川路二段23-3號","121.454746666667","24.9957033333333","6500100","板橋區"
"220072","277-BY","2017/09/19 18:48:53","新北市板橋區金門街8號","121.433441666667","24.9947333333333","6500100","板橋區"
"220064","280-UM","2017/09/19 18:48:38","新北市板橋區中山路二段37號","121.472971666667","25.015595","6500100","板橋區"
"220071","283-VK","2017/09/19 18:48:38","新北市板橋區四川路一段467號","121.457458333333","24.9978883333333","6500100","板橋區"
"220094","285-UM","2017/09/19 18:48:41","新北市板橋區民生路二段161巷1號","121.470071666667","25.0198183333333","6500100","板橋區"
"220053","285-VK","2017/09/19 18:48:50","新北市板橋區介壽街117號","121.47045","25.0187583333333","6500100","板橋區"
"220083","286-VK","2017/09/19 18:48:38","新北市板橋區大觀路二段22巷5號","121.446186666667","25.0033366666667","6500100","板橋區"
"220081","287-VK","2017/09/19 18:48:24","新北市板橋區南雅西路二段123巷10號","121.451688333333","25.010935","6500100","板橋區"
"220090","288-VK","2017/09/19 18:48:55","新北市板橋區民生路二段161巷9號","121.47026","25.0196183333333","6500100","板橋區"
"220061","293-UM","2017/09/19 18:48:49","新北市板橋區民生路二段123號","121.470653333333","25.0187616666667","6500100","板橋區"
"220075","297-UM","2017/09/19 18:48:47","新北市板橋區館前西路263號","121.453956666667","25.0086516666667","6500100","板橋區"
"220062","303-R5","2017/09/19 18:48:45","新北市板橋區民生路二段123號","121.470646666667","25.0185383333333","6500100","板橋區"
"220092","307-R5","2017/09/19 18:48:50","新北市板橋區民生路二段120號","121.470525","25.0196866666667","6500100","板橋區"
"220098","317-R6","2017/09/19 18:48:46","新北市板橋區民生路二段161巷5號","121.470163333333","25.0196766666667","6500100","板橋區"
"220089","487-VK","2017/09/19 15:19:11","新北市板橋區四維路137巷17號","121.464265","25.0248866666667","6500100","板橋區"
"220088","491-VK","2017/09/19 18:48:48","新北市板橋區民生路二段188號","121.469985","25.0202983333333","6500100","板橋區"
"220035","560-BX","2017/09/19 18:48:33","新北市板橋區中正路275巷68號","121.452748333333","25.0179083333333","6500100","板橋區"
"220103","561-BX","2017/09/19 18:48:46","新北市板橋區民生路二段161巷5號","121.470211666667","25.0197083333333","6500100","板橋區"
"220084","568-UM","2017/09/19 18:48:54","新北市板橋區大觀路二段148巷42號","121.441886666667","25.0001833333333","6500100","板橋區"
"220063","609-BX","2017/09/19 18:48:47","新北市板橋區民生路二段56-6號","121.470996666667","25.0185733333333","6500100","板橋區"
"220091","637-BX","2017/09/19 18:48:48","新北市板橋區民生路二段120號","121.470318333333","25.0199","6500100","板橋區"
"220057","686-BX","2017/09/19 18:48:55","新北市板橋區華東街1-9號","121.448188333333","24.9948516666667","6500100","板橋區"
"220077","687-BX","2017/09/19 18:48:43","新北市板橋區大觀路一段38巷156弄4號","121.442538333333","25.00449","6500100","板橋區"
"220093","689-BX","2017/09/19 18:48:37","新北市板橋區民生路二段120號","121.470316666667","25.0200666666667","6500100","板橋區"
"220054","741-BX","2017/09/19 18:48:42","新北市板橋區華東街1-9號","121.448113333333","24.9949233333333","6500100","板橋區"
"220055","827-TW","2017/09/19 18:48:47","新北市板橋區南雅南路二段92巷40號","121.452771666667","25.0023166666667","6500100","板橋區"
"220067","829-TW","2017/09/19 18:48:49","新北市板橋區介壽街119號","121.470545","25.0186916666667","6500100","板橋區"
"220102","830-TW","2017/09/19 15:22:12","新北市板橋區民生路二段161巷1號","121.469976666667","25.0200583333333","6500100","板橋區"
"220096","831-TW","2017/09/19 16:24:36","新北市板橋區民生路二段161巷1號","121.470016666667","25.01991","6500100","板橋區"
"220074","895-R6","2017/09/19 18:48:42","新北市板橋區南門街44號","121.456943333333","25.0081716666667","6500100","板橋區"
"220073","985-R7","2017/09/19 18:48:51","新北市板橋區館前西路47號","121.457968333333","25.006965","6500100","板橋區"
"220070","AAC-253","2017/09/19 18:48:46","新北市板橋區館前西路4-1號","121.459131666667","25.007115","6500100","板橋區"
