"lineid","car","time","location","longitude","latitude","cityid","cityname"
"234046","148-BY","2017/09/19 18:58:40","新北市永和區得和路373巷16弄11號","121.52561","25.000175","6500400","永和區"
"234013","149-BY","2017/09/19 18:58:40","新北市永和區信義路14-1號","121.51439","25.0120283333333","6500400","永和區"
"234007","207-UY","2017/09/19 18:58:46","新北市永和區中山路一段93號","121.511476666667","25.0106333333333","6500400","永和區"
"234081","298-R6","2017/09/19 18:58:41","新北市永和區永貞路31號","121.52096","25.0066366666667","6500400","永和區"
"234038","336-UY","2017/09/19 18:58:51","新北市永和區民樂街102巷2號","121.527265","24.99654","6500400","永和區"
"234064","337-UY","2017/09/19 18:58:52","新北市永和區中正路478號","121.517488333333","25.0034966666667","6500400","永和區"
"234086","338-UY","2017/09/19 18:58:47","新北市永和區中正路500號","121.517391666667","25.0042483333333","6500400","永和區"
"234070","552-UM","2017/09/19 18:58:40","新北市永和區豫溪街57巷22號","121.517073333333","25.0109383333333","6500400","永和區"
"234054","553-UM","2017/09/19 18:58:39","新北市永和區竹林路64號","121.518298333333","25.013445","6500400","永和區"
"234017","745-BX","2017/09/19 18:58:47","新北市永和區永和路二段297號","121.516031666667","25.0160633333333","6500400","永和區"
"234030","746-BX","2017/09/19 18:58:54","新北市永和區四維街75號","121.525258333333","24.997985","6500400","永和區"
"234061","AAD-866","2017/09/19 18:58:49","新北市永和區福和路313號","121.516163333333","25.007175","6500400","永和區"
"234042","862-TW","2017/09/19 18:58:41","新北市永和區永貞路304號","121.512045","25.00484","6500400","永和區"
"234050","863-TW","2017/09/19 18:58:46","新北市永和區文化路151號","121.510613333333","25.0162616666667","6500400","永和區"
"234026","9371-KE","2017/09/19 18:58:40","新北市永和區自由街54號","121.513715","25.0060183333333","6500400","永和區"
"234011","9373-KE","2017/09/19 18:58:48","新北市永和區文化路109號","121.512915","25.015235","6500400","永和區"
"249005","172-UM","2017/09/19 18:58:46","新北市八里區長道坑13-1號","121.394705","25.122695","6502300","八里區"
"249001","173-UM","2017/09/19 18:58:51","新北市八里區龍米路二段228-1號","121.432773333333","25.1584216666667","6502300","八里區"
"248016","026-BX","2017/09/19 18:58:36","新北市五股區成泰路三段543巷18號","121.450898333333","25.102285","6501500","五股區"
"248006","077-UY","2017/09/19 18:58:55","新北市五股區中興路一段50號","121.46806","25.07258","6501500","五股區"
"248008","095-VK","2017/09/19 18:58:40","新北市五股區中興路一段128巷16號","121.465718333333","25.0746116666667","6501500","五股區"
"248020","225-UY","2017/09/19 18:58:50","新北市五股區凌雲路三段57號","121.425315","25.12499","6501500","五股區"
"248012","247-BX","2017/09/19 18:58:57","新北市五股區工商路36巷11號","121.439778333333","25.084295","6501500","五股區"
"248010","272-BY","2017/09/19 18:58:22","新北市五股區水碓三路31號","121.430006666667","25.071085","6501500","五股區"
"248004","677-BX","2017/09/19 18:58:40","新北市五股區民義路二段76-1號","121.404571666667","25.1100583333333","6501500","五股區"
"248002","678-BX","2017/09/19 18:58:55","新北市五股區凌雲路一段144號","121.449361666667","25.1023316666667","6501500","五股區"
"234023","9380-KE","2017/09/19 18:58:52","新北市永和區竹林路75巷7號","121.519243333333","25.0132933333333","6500400","永和區"
"234077","969-R7","2017/09/19 18:58:44","新北市永和區智光街20號","121.51793","24.999355","6500400","永和區"
"234074","AAC-211","2017/09/19 18:58:56","新北市永和區豫溪街217巷29號","121.524215","25.010195","6500400","永和區"
"234067","AAC-212","2017/09/19 18:58:36","新北市永和區永和路一段1號","121.512895","25.005125","6500400","永和區"
"234003","AAC-295","2017/09/19 18:58:51","新北市永和區和平街32號","121.513225","25.0100783333333","6500400","永和區"
"232011","375-UM","2017/09/19 18:58:45","新北市坪林區坪林街10-2號","121.712976666667","24.935365","6502000","坪林區"
"244013","069-UM","2017/09/19 18:58:43","新北市林口區麗園一街6巷3-3號","121.375898333333","25.0697816666667","6501700","林口區"
"244007","080-UY","2017/09/19 18:58:50","新北市林口區太平里3-3號","121.379121666667","25.113925","6501700","林口區"
"244009","410-SL","2017/09/19 18:58:34","新北市林口區竹林路358巷27號","121.393123333333","25.0837916666667","6501700","林口區"
"244023","483-VK","2017/09/19 18:58:46","新北市林口區民權路81號","121.372156666667","25.08101","6501700","林口區"
"244017","485-VK","2017/09/19 18:58:55","新北市林口區公園路99號","121.36881","25.069795","6501700","林口區"
"244011","656-BX","2017/09/19 18:58:49","新北市林口區中正路278號","121.389045","25.0777933333333","6501700","林口區"
"244002","657-BX","2017/09/19 15:57:28","新北市林口區粉寮路二段160巷28號","121.405141666667","25.0907516666667","6501700","林口區"
"244025","837-TS","2017/09/19 18:58:35","新北市林口區文化北路一段416號","121.364881666667","25.0762233333333","6501700","林口區"
"243013","AAD-798","2017/09/19 18:58:52","新北市泰山區明志路三段206巷1號","121.423306666667","25.0376933333333","6501600","泰山區"
"243015","380-SR","2017/09/19 18:58:43","新北市泰山區泰林路二段280巷1號","121.431463333333","25.062545","6501600","泰山區"
"243014","421-VK","2017/09/19 18:58:48","新北市泰山區泰林路二段603號","121.421391666667","25.063415","6501600","泰山區"
"243012","646-TV","2017/09/19 18:58:56","新北市泰山區全興路184號","121.43314","25.0573083333333","6501600","泰山區"
"243016","680-BX","2017/09/19 18:58:41","新北市泰山區明志路二段185號","121.427701666667","25.0497983333333","6501600","泰山區"
"222003","436-BY","2017/09/19 18:58:57","新北市深坑區北深路二段2巷13弄2號","121.622261666667","25.0070016666667","6501800","深坑區"
"222002","659-BX","2017/09/19 18:58:40","新北市深坑區文山路一段33號","121.629675","25.0036083333333","6501800","深坑區"
"222001","696-SL","2017/09/19 18:58:54","新北市深坑區北深路一段300號","121.62432","25.005825","6501800","深坑區"
"231041","002-UM","2017/09/19 18:58:36","新北市新店區環河路62號","121.53706","24.96264","6500600","新店區"
"231055","0293-UT","2017/09/19 18:58:44","新北市新店區新生街13巷16號","121.539116666667","24.9659483333333","6500600","新店區"
"231059","046-UY","2017/09/19 18:58:49","新北市新店區安和路一段2-1號","121.51708","24.9645933333333","6500600","新店區"
"231061","047-UY","2017/09/19 18:58:53","新北市新店區安康路二段1-5號","121.517288333333","24.96387","6500600","新店區"
"231060","106-UY","2017/09/19 18:58:39","新北市新店區安豐路45號","121.500323333333","24.9552216666667","6500600","新店區"
"231051","107-UY","2017/09/19 18:58:51","新北市新店區中正路373號","121.534845","24.976555","6500600","新店區"
"231048","108-UY","2017/09/19 18:58:51","新北市新店區德正街27巷29弄14號","121.54578","24.9719716666667","6500600","新店區"
"231053","187-VK","2017/09/19 18:58:37","新北市新店區新烏路二段7號","121.543546666667","24.9296966666667","6500600","新店區"
"231069","189-VK","2017/09/19 12:02:29","新北市新店區安華路28-1號","121.519725","24.9610616666667","6500600","新店區"
"231050","215-TC","2017/09/19 18:58:50","新北市新店區新烏路一段11巷7號","121.547356666667","24.95132","6500600","新店區"
"231063","268-BY","2017/09/19 18:58:52","新北市新店區車子路111號","121.505223333333","24.952005","6500600","新店區"
"231046","278-BY","2017/09/19 18:58:39","新北市新店區直潭五街58號","121.532906666667","24.9409316666667","6500600","新店區"
"231054","AAD-862","2017/09/19 18:58:52","新北市新店區新店路13號","121.54028","24.9528016666667","6500600","新店區"
"231058","3712-VJ","2017/09/19 18:58:52","新北市新店區行政街55號","121.542751666667","24.9651666666667","6500600","新店區"
"231056","4716-K9","2017/09/19 18:58:50","新北市新店區大同街10號","121.539741666667","24.9800533333333","6500600","新店區"
"231067","4772-VM","2017/09/19 18:58:54","新北市新店區安康路一段263巷7號","121.524085","24.96239","6500600","新店區"
"231065","512-UM","2017/09/19 18:58:44","新北市新店區安祥路110巷17弄7-1號","121.47374","24.9547616666667","6500600","新店區"
"231064","515-UM","2017/09/19 18:58:52","新北市新店區安康路二段36號","121.515598333333","24.9637683333333","6500600","新店區"
"231045","617-UM","2017/09/19 18:58:50","新北市新店區北新路一段75號","121.538388333333","24.9604383333333","6500600","新店區"
"231040","619-UM","2017/09/19 18:58:50","新北市新店區中正路403號","121.534383333333","24.977555","6500600","新店區"
"231042","641-BX","2017/09/19 18:58:48","新北市新店區中正路41號","121.544865","24.969795","6500600","新店區"
"231049","719-UM","2017/09/19 18:58:40","新北市新店區二十張路143-1號","121.535125","24.978755","6500600","新店區"
"231062","720-UM","2017/09/19 18:58:46","新北市新店區安德街60巷35號","121.511085","24.963775","6500600","新店區"
"231044","897-TW","2017/09/19 18:58:43","新北市新店區寶中路72號","121.547863333333","24.980635","6500600","新店區"
"231043","899-TW","2017/09/19 18:58:44","新北市新店區北新路二段11號","121.542746666667","24.97139","6500600","新店區"
"231066","AKT-0513","2017/09/19 18:58:37","新北市新店區安祥路74號","121.489501666667","24.9585966666667","6500600","新店區"
"235066","003-UY","2017/09/19 18:58:54","新北市中和區中山路二段131巷8號","121.5027","25.002525","6500300","中和區"
"235064","005-UY","2017/09/19 18:58:48","新北市中和區連城路75巷8號","121.498323333333","24.9984783333333","6500300","中和區"
"235056","096-UM","2017/09/19 18:58:39","新北市中和區中山路二段616巷20號","121.481525","25.0063466666667","6500300","中和區"
"235039","097-UM","2017/09/19 18:58:36","新北市中和區安樂路217巷47號","121.513251666667","24.9977816666667","6500300","中和區"
"235065","098-UM","2017/09/19 18:58:40","新北市中和區勝利路35巷11弄2號","121.499806666667","25.0067316666667","6500300","中和區"
"235040","150-BY","2017/09/19 18:58:45","新北市中和區安樂路51巷2號","121.512055","24.9937616666667","6500300","中和區"
"235055","183-VK","2017/09/19 18:58:42","新北市中和區民德路8-1號","121.46875","25.0028416666667","6500300","中和區"
"235038","185-VK","2017/09/19 18:58:51","新北市中和區大勇街43巷6號","121.517615","24.9948283333333","6500300","中和區"
"235049","186-VK","2017/09/19 18:58:51","新北市中和區景新街210巷2弄2號","121.507013333333","24.9943066666667","6500300","中和區"
"235067","255-BX","2017/09/19 18:58:40","新北市中和區中正路849巷1號","121.484633333333","25.0027616666667","6500300","中和區"
"235072","301-VK","2017/09/19 18:58:53","新北市中和區福美路314號","121.496705","25.0049133333333","6500300","中和區"
"235043","352-BY","2017/09/19 18:58:50","新北市中和區秀朗路三段107號","121.526378333333","24.9946866666667","6500300","中和區"
"235051","376-QA","2017/09/19 18:58:40","新北市中和區忠孝街13號","121.510036666667","24.982765","6500300","中和區"
"235068","377-QA","2017/09/19 18:58:41","新北市中和區圓通路289號","121.495185","24.99266","6500300","中和區"
"235061","378-QA","2017/09/19 18:58:41","新北市中和區民治街128巷4號","121.474998333333","25.0029666666667","6500300","中和區"
"235050","4979-A6","2017/09/19 18:58:45","新北市中和區忠孝街1號","121.508921666667","24.9829783333333","6500300","中和區"
"235069","4980-A6","2017/09/19 18:58:45","新北市中和區圓通路6號","121.50178","24.9980483333333","6500300","中和區"
"235042","551-UM","2017/09/19 18:58:55","新北市中和區秀朗路三段70巷1號","121.526248333333","24.9945483333333","6500300","中和區"
"235070","558-UM","2017/09/19 18:58:50","新北市中和區南山路28號","121.501811666667","24.9979916666667","6500300","中和區"
"235045","565-BX","2017/09/19 18:58:43","新北市中和區興南路一段12號","121.511463333333","24.9913133333333","6500300","中和區"
"235054","640-BX","2017/09/19 18:58:45","新北市中和區民治街13巷2號","121.475338333333","25.0039066666667","6500300","中和區"
"235060","647-TV","2017/09/19 18:58:45","新北市中和區民治街1巷2號","121.474903333333","25.0054366666667","6500300","中和區"
"235047","732-UM","2017/09/19 18:58:51","新北市中和區興南路二段36號","121.506865","24.9855183333333","6500300","中和區"
"235046","733-UM","2017/09/19 18:58:53","新北市中和區興南路一段135巷22弄12號","121.509063333333","24.9867966666667","6500300","中和區"
"235062","800-TS","2017/09/19 18:58:44","新北市中和區中山路二段359巷2號","121.488273333333","25.0044666666667","6500300","中和區"
"235057","801-TS","2017/09/19 18:58:51","新北市中和區民利街14巷5弄15號","121.479833333333","24.9992283333333","6500300","中和區"
"235041","802-TS","2017/09/19 18:58:52","新北市中和區宜安路118巷26號","121.511085","24.9988466666667","6500300","中和區"
"235052","805-TS","2017/09/19 18:58:48","新北市中和區興南路二段347號","121.500721666667","24.9802916666667","6500300","中和區"
"235053","900-TW","2017/09/19 18:58:39","新北市中和區民德路308號","121.467176666667","24.995155","6500300","中和區"
"235063","911-UM","2017/09/19 18:58:41","新北市中和區連城路319巷11弄12號","121.489726666667","24.9949516666667","6500300","中和區"
"235037","AAC-213","2017/09/19 18:58:39","新北市中和區自立路99巷26號","121.523498333333","24.9945833333333","6500300","中和區"
"235059","AAC-215","2017/09/19 18:58:52","新北市中和區圓通路367巷18-1號","121.491758333333","24.988805","6500300","中和區"
"220068","013-TV","2017/09/19 18:58:46","新北市板橋區中山路二段443巷74號","121.481123333333","25.0221766666667","6500100","板橋區"
"220065","072-UY","2017/09/19 18:58:45","新北市板橋區漢生東路324號","121.47169","25.0079683333333","6500100","板橋區"
"220086","073-UY","2017/09/19 18:58:43","新北市板橋區中正路80巷11號","121.45733","25.0146066666667","6500100","板橋區"
"220106","075-UY","2017/09/19 18:58:48","新北市板橋區文化路二段124巷4號","121.470371666667","25.026075","6500100","板橋區"
"220069","AAD-861","2017/09/19 18:58:52","新北市板橋區華興街59號","121.457443333333","25.0048516666667","6500100","板橋區"
"247008","053-VK","2017/09/19 18:51:38","新北市五股區中興路三段163號","121.449203333333","25.08071","6501400","蘆洲區"
"226004","205-ST","2017/09/19 18:58:38","新北市平溪區靜安路二段528號","121.744725","25.0272816666667","6502400","平溪區"
"228001","212-TW","2017/09/19 18:58:49","新北市貢寮區仁理村研海街12-1號","121.923778333333","25.05168","6502600","貢寮區"
"228002","663-BX","2017/09/19 18:58:45","新北市貢寮區福隆里東興街104號","121.94598","25.016965","6502600","貢寮區"
"228003","828-UM","2017/09/19 18:58:35","新北市貢寮區和美里龍洞街38-4號","121.9157","25.1109066666667","6502600","貢寮區"
"224010","AGQ-8101","2017/09/19 18:53:13","新北市瑞芳區汽車路32號","121.845748333333","25.110105","6501200","瑞芳區"
"224006","676-BX","2017/09/19 18:58:54","新北市瑞芳區中正路13號","121.808123333333","25.107055","6501200","瑞芳區"
"224009","285-BY","2017/09/19 18:58:49","新北市瑞芳區五號路253-1號","121.85872","25.11439","6501200","瑞芳區"
"224008","275-VK","2017/09/19 18:58:50","新北市瑞芳區明燈路三段295號","121.798176666667","25.11238","6501200","瑞芳區"
"224007","273-VK","2017/09/19 18:58:55","新北市瑞芳區中央路48巷38號","121.761041666667","25.1030483333333","6501200","瑞芳區"
"224005","271-BY","2017/09/19 18:58:37","新北市瑞芳區瑞濱路55-3號","121.825593333333","25.120965","6501200","瑞芳區"
"227009","642-TC","2017/09/19 18:58:40","新北市雙溪區牡丹里中正路58巷23號","121.866398333333","25.0416616666667","6502500","雙溪區"
"227003","400-TW","2017/09/19 18:58:54","新北市雙溪區平林里康福家園10號","121.858803333333","25.03734","6502500","雙溪區"
"253005","032-BX","2017/09/19 18:58:54","新北市石門區中央路46號","121.568126666667","25.2930066666667","6502200","石門區"
"253006","295-VK","2017/09/19 18:58:52","新北市石門區下員坑30-3號","121.520011666667","25.2824683333333","6502200","石門區"
"208002","742-BX","2017/09/19 18:58:49","新北市金山區信義路39號","121.635255","25.2196216666667","6502700","金山區"
"208003","665-BX","2017/09/19 18:58:55","新北市金山區中正路33號","121.635163333333","25.2220433333333","6502700","金山區"
"208001","761-BX","2017/09/19 18:58:50","新北市金山區中山路97號","121.640048333333","25.2189466666667","6502700","金山區"
"251002","012-UM","2017/09/19 18:58:48","新北市淡水區學府路28號","121.447733333333","25.168355","6501000","淡水區"
"251014","180-VK","2017/09/19 18:58:41","新北市淡水區小中寮32號","121.49102","25.2261966666667","6501000","淡水區"
"251010","413-VK","2017/09/19 18:58:42","新北市淡水區沙崙路25巷20號","121.42125","25.1823216666667","6501000","淡水區"
"251012","441-VK","2017/09/19 18:58:38","新北市淡水區新春街55號","121.437991666667","25.1820583333333","6501000","淡水區"
"251016","442-VK","2017/09/19 18:58:37","新北市淡水區淡金路三段329號","121.448843333333","25.2062833333333","6501000","淡水區"
"251001","559-UM","2017/09/19 18:58:41","新北市淡水區自強路58號","121.463113333333","25.1274766666667","6501000","淡水區"
"251009","575-R6","2017/09/19 18:58:48","新北市淡水區重建街38號","121.439846666667","25.1712866666667","6501000","淡水區"
"251007","577-R6","2017/09/19 18:58:48","新北市淡水區民生路168號","121.465","25.1387366666667","6501000","淡水區"
"251011","650-BX","2017/09/19 18:58:50","新北市淡水區中正東路二段143巷2弄1號","121.460786666667","25.1473883333333","6501000","淡水區"
"251003","766-UM","2017/09/19 18:58:45","新北市淡水區大義街18號","121.443121666667","25.1783016666667","6501000","淡水區"
"207003","550-UM","2017/09/19 18:58:51","新北市萬里區大鵬里頂社22號","121.656078333333","25.2105933333333","6502800","萬里區"
"207004","225-TW","2017/09/19 18:58:37","新北市萬里區萬里里獅頭路23號","121.693241666667","25.1782533333333","6502800","萬里區"
"252002","178-VK","2017/09/19 18:58:52","新北市三芝區中正路一段78號","121.504041666667","25.2573833333333","6502100","三芝區"
"252003","249-BX","2017/09/19 18:58:57","新北市三芝區後厝里北勢子42-11號","121.4716","25.25207","6502100","三芝區"
"252001","292-VK","2017/09/19 18:58:36","新北市三芝區中正路三段26號","121.502391666667","25.2528566666667","6502100","三芝區"
"237004","078-UY","2017/09/19 18:58:39","新北市三峽區有木202號","121.441326666667","24.8503366666667","6500900","三峽區"
"237007","153-BY","2017/09/19 18:58:35","新北市三峽區中正路二段399號","121.365001666667","24.9075516666667","6500900","三峽區"
"237013","252-BX","2017/09/19 18:58:38","新北市三峽區光明路69巷27號","121.376846666667","24.929275","6500900","三峽區"
"237012","275-BY","2017/09/19 18:58:37","新北市三峽區三樹路222巷22號","121.37985","24.94257","6500900","三峽區"
"237008","302-VK","2017/09/19 18:58:36","新北市三峽區白雞33-48號","121.3709","24.9124516666667","6500900","三峽區"
"237014","433-BY","2017/09/19 18:58:49","新北市三峽區隆恩街246-1號","121.357416666667","24.941015","6500900","三峽區"
"237006","5529-G3","2017/09/19 18:58:39","新北市三峽區溪東路233巷4弄29號","121.40789","24.9337616666667","6500900","三峽區"
"237011","572-TV","2017/09/19 17:07:36","新北市三峽區中山路459巷163-3號","121.348751666667","24.9327533333333","6500900","三峽區"
"237016","649-BX","2017/09/19 18:58:49","新北市三峽區安坑12-2號","121.442508333333","24.9263383333333","6500900","三峽區"
"237010","706-TV","2017/09/19 18:58:40","新北市三峽區國光街37巷1號","121.374996666667","24.93728","6500900","三峽區"
"237005","AKY-6261","2017/09/19 18:58:38","新北市三峽區中山路459巷163-3號","121.348623333333","24.932875","6500900","三峽區"
"236070","105-UM","2017/09/19 18:58:44","新北市土城區清水路99巷13號","121.456853333333","24.9823916666667","6501300","土城區"
"236043","107-UM","2017/09/19 18:58:53","新北市土城區學府路一段256巷13弄1號","121.450876666667","24.9848533333333","6501300","土城區"
"236079","166-UM","2017/09/19 18:58:49","新北市土城區中央路四段125巷1-1號","121.416506666667","24.95735","6501300","土城區"
"236031","253-BX","2017/09/19 18:58:48","新北市土城區興城路75號","121.439983333333","24.97082","6501300","土城區"
"236027","269-VK","2017/09/19 18:58:56","新北市土城區光明街6號","121.442023333333","24.9743916666667","6501300","土城區"
"236015","270-VK","2017/09/19 18:58:47","新北市土城區永豐路29巷1號","121.463075","24.9882716666667","6501300","土城區"
"236038","271-VK","2017/09/19 18:58:51","新北市土城區明德路一段195巷3弄5號","121.46428","24.9786066666667","6501300","土城區"
"236023","401-BY","2017/09/19 18:58:35","新北市土城區金城路三段41號","121.465978333333","24.9869066666667","6501300","土城區"
"236059","912-UM","2017/09/19 18:58:47","新北市土城區金城路二段56號","121.451951666667","24.9794266666667","6501300","土城區"
"236049","913-UM","2017/09/19 18:58:47","新北市土城區青雲路316號","121.45878","24.9786916666667","6501300","土城區"
"236063","915-UM","2017/09/19 18:58:53","新北市土城區延和路41巷2弄1號","121.466015","24.98983","6501300","土城區"
"236055","AAC-216","2017/09/19 18:58:49","新北市土城區學成路162號","121.448055","24.9891916666667","6501300","土城區"
"238023","601-UM","2017/09/19 18:58:44","新北市樹林區工興街14巷1號","121.398923333333","25.0136083333333","6500700","樹林區"
"238019","599-UM","2017/09/19 18:58:54","新北市樹林區東榮街91巷2弄4號","121.415955","24.9822916666667","6500700","樹林區"
"238018","571-TV","2017/09/19 18:58:46","新北市樹林區鎮前街191號","121.421475","24.986815","6500700","樹林區"
"238024","5061-A6","2017/09/19 18:58:38","新北市樹林區八德街842-1號","121.392203333333","24.9686533333333","6500700","樹林區"
"238021","KEA-2217","2017/09/19 18:58:44","新北市樹林區西圳街二段57巷1號","121.387378333333","24.9601783333333","6500700","樹林區"
"238022","KEA-2213","2017/09/19 18:58:37","新北市樹林區東興街43-1號","121.410808333333","24.9774466666667","6500700","樹林區"
"238025","303-VK","2017/09/19 18:58:36","新北市樹林區民和街59號","121.381948333333","24.9702733333333","6500700","樹林區"
"238017","283-BY","2017/09/19 18:58:53","新北市樹林區光興街44號","121.409883333333","25.002755","6500700","樹林區"
"238014","282-BY","2017/09/19 18:58:52","新北市樹林區潭興街143巷14-8號","121.425278333333","25.0001433333333","6500700","樹林區"
"238020","268-VK","2017/09/19 18:58:49","新北市樹林區俊英街282號","121.42374","25.0133366666667","6500700","樹林區"
"238026","172-UY","2017/09/19 18:58:39","新北市樹林區吉祥街31號","121.396176666667","24.9738533333333","6500700","樹林區"
"238016","169-UY","2017/09/19 18:58:47","新北市樹林區文化街28號","121.419365","24.9877533333333","6500700","樹林區"
"239007","AAC-297","2017/09/19 18:58:46","新北市鶯歌區中山路134號","121.350063333333","24.957045","6500800","鶯歌區"
"239006","891-R6","2017/09/19 18:58:45","新北市鶯歌區鶯桃路296巷84弄12號","121.336991666667","24.961645","6500800","鶯歌區"
"239008","527-UM","2017/09/19 18:58:21","新北市鶯歌區國際二路10巷27號","121.338581666667","24.97455","6500800","鶯歌區"
"239005","526-UM","2017/09/19 18:58:48","新北市鶯歌區中湖街25號","121.347541666667","24.9728483333333","6500800","鶯歌區"
"239001","417-VK","2017/09/19 18:58:43","新北市鶯歌區永明街60巷6號","121.340021666667","24.9561033333333","6500800","鶯歌區"
"239003","360-BY","2017/09/19 18:58:44","新北市鶯歌區鶯桃路511號","121.331381666667","24.9667833333333","6500800","鶯歌區"
"239002","359-BY","2017/09/19 18:58:50","新北市鶯歌區西湖街45巷17號","121.339913333333","24.9592216666667","6500800","鶯歌區"
"239004","193-VK","2017/09/19 18:58:34","新北市鶯歌區中正三路282巷20號","121.327081666667","24.93672","6500800","鶯歌區"
"221008","489-VK","2017/09/19 18:58:54","新北市汐止區康寧街901號","121.651298333333","25.075015","6501100","汐止區"
"221036","130-UY","2017/09/19 18:58:44","新北市汐止區忠孝東路314巷17號","121.664536666667","25.0685383333333","6501100","汐止區"
"221015","131-UY","2017/09/19 18:58:45","新北市汐止區汐萬路一段266號","121.651221666667","25.0736116666667","6501100","汐止區"
"221010","269-BY","2017/09/19 18:58:46","新北市汐止區康寧街901號","121.651593333333","25.075035","6501100","汐止區"
"221012","276-VK","2017/09/19 13:19:06","新北市汐止區汐萬路一段256巷3號","121.65346","25.074575","6501100","汐止區"
"221012","278-VK","2017/09/19 18:58:49","新北市汐止區康寧街901號","121.650823333333","25.0752416666667","6501100","汐止區"
"221023","279-VK","2017/09/19 18:58:44","新北市汐止區康寧街901號","121.65102","25.0751966666667","6501100","汐止區"
"221032","280-BY","2017/09/19 18:58:38","新北市汐止區橫科路407巷30弄28號","121.627296666667","25.04827","6501100","汐止區"
"221027","281-BY","2017/09/19 18:58:50","新北市汐止區康寧街901號","121.650903333333","25.0752766666667","6501100","汐止區"
"221038","297-VK","2017/09/19 18:58:48","新北市汐止區汐萬路一段312號","121.650656666667","25.0753016666667","6501100","汐止區"
"221029","298-VK","2017/09/19 18:58:46","新北市汐止區樟樹一路244號","121.642356666667","25.0669816666667","6501100","汐止區"
"221021","299-VK","2017/09/19 18:58:36","新北市汐止區康寧街901號","121.651405","25.0749383333333","6501100","汐止區"
"221031","353-TW","2017/09/19 18:58:49","新北市汐止區福德一路300巷47號","121.630291666667","25.064575","6501100","汐止區"
"221035","622-UM","2017/09/19 18:58:43","新北市汐止區汐萬路一段256巷3號","121.652488333333","25.0746","6501100","汐止區"
"221025","623-UM","2017/09/19 18:58:43","新北市汐止區汐萬路一段256巷3號","121.65225","25.0746733333333","6501100","汐止區"
"221033","647-BX","2017/09/19 18:58:40","新北市汐止區南勢街3號","121.627098333333","25.0373883333333","6501100","汐止區"
"221002","707-TV","2017/09/19 18:58:37","新北市汐止區大同路一段2號","121.620945","25.0550833333333","6501100","汐止區"
"221018","753-BX","2017/09/19 18:58:38","新北市汐止區汐萬路一段256巷3號","121.653301666667","25.0744333333333","6501100","汐止區"
"220079","145-BY","2017/09/19 18:58:50","新北市板橋區民權路202巷10弄1號","121.46042","25.0153633333333","6500100","板橋區"
"220080","200-UY","2017/09/19 18:58:36","新北市板橋區大觀路二段265巷3弄47號","121.444808333333","24.997685","6500100","板橋區"
"220082","610-BX","2017/09/19 18:58:39","新北市板橋區篤行路二段138號","121.4297","24.988255","6500100","板橋區"
"220101","245-BX","2017/09/19 18:58:42","新北市板橋區文化路二段2號","121.468645","25.02384","6500100","板橋區"
"220097","257-TC","2017/09/19 18:58:47","新北市板橋區四維路130號","121.4653","25.0252116666667","6500100","板橋區"
"220056","276-BY","2017/09/19 18:58:49","新北市板橋區信義路165號","121.458656666667","24.9922566666667","6500100","板橋區"
"220072","277-BY","2017/09/19 18:58:53","新北市板橋區大觀路三段50巷57號","121.431841666667","24.99594","6500100","板橋區"
"220064","280-UM","2017/09/19 18:58:38","新北市板橋區縣民大道二段100號","121.466856666667","25.0148816666667","6500100","板橋區"
"220071","283-VK","2017/09/19 18:58:38","新北市板橋區忠孝路174巷61號","121.464611666667","25.0010366666667","6500100","板橋區"
"220094","285-UM","2017/09/19 18:58:41","新北市板橋區莒光路9號","121.46985","25.024795","6500100","板橋區"
"220053","285-VK","2017/09/19 18:58:50","新北市板橋區中山路二段89巷5號","121.473903333333","25.0162633333333","6500100","板橋區"
"220083","286-VK","2017/09/19 18:58:46","新北市板橋區僑中一街125巷8弄2號","121.445276666667","25.0111283333333","6500100","板橋區"
"220081","287-VK","2017/09/19 18:51:44","新北市板橋區南雅西路二段90號","121.452405","25.0111483333333","6500100","板橋區"
"220090","288-VK","2017/09/19 18:58:35","新北市板橋區民有街31號","121.465933333333","25.02544","6500100","板橋區"
"220061","293-UM","2017/09/19 18:58:51","新北市板橋區縣民大道三段134號","121.474701666667","25.02087","6500100","板橋區"
"220075","297-UM","2017/09/19 18:58:47","新北市板橋區茶館街17號","121.456578333333","25.0106216666667","6500100","板橋區"
"220062","303-R5","2017/09/19 18:58:45","新北市板橋區民享街69號","121.476466666667","25.01551","6500100","板橋區"
"220092","307-R5","2017/09/19 18:58:50","新北市板橋區漢生東路83巷12號","121.467541666667","25.0161966666667","6500100","板橋區"
"220098","317-R6","2017/09/19 18:58:56","新北市板橋區民有街18號","121.46622","25.024955","6500100","板橋區"
"220089","487-VK","2017/09/19 18:58:44","新北市板橋區民生路二段250號","121.468373333333","25.023245","6500100","板橋區"
"220088","491-VK","2017/09/19 18:58:48","新北市板橋區民生路二段188號","121.470246666667","25.0202316666667","6500100","板橋區"
"220035","560-BX","2017/09/19 18:58:53","新北市板橋區中正路325巷2號","121.454641666667","25.0200016666667","6500100","板橋區"
"220103","561-BX","2017/09/19 18:58:46","新北市板橋區民生路二段123號","121.470576666667","25.0185666666667","6500100","板橋區"
"220084","568-UM","2017/09/19 18:58:54","新北市板橋區大觀路二段156巷40號","121.441265","25.00017","6500100","板橋區"
"220063","609-BX","2017/09/19 18:58:57","新北市板橋區中山路二段145號","121.47543","25.016515","6500100","板橋區"
"220091","637-BX","2017/09/19 18:58:48","新北市板橋區莒光路167-4號","121.474185","25.0236","6500100","板橋區"
"220057","686-BX","2017/09/19 18:58:55","新北市板橋區館前西路46巷5號","121.459021666667","25.00719","6500100","板橋區"
"220077","687-BX","2017/09/19 18:58:50","新北市板橋區龍興街6號","121.442726666667","24.999555","6500100","板橋區"
"220093","689-BX","2017/09/19 18:58:38","新北市板橋區民生路三段64號","121.467141666667","25.02542","6500100","板橋區"
"220054","741-BX","2017/09/19 18:58:42","新北市板橋區館前西路46巷2號","121.458991666667","25.0070633333333","6500100","板橋區"
"220055","827-TW","2017/09/19 18:58:47","新北市板橋區民安街32號","121.466963333333","25.0111733333333","6500100","板橋區"
"220067","829-TW","2017/09/19 18:58:49","新北市板橋區三民路二段正隆巷12弄10號","121.47796","25.0132783333333","6500100","板橋區"
"220102","830-TW","2017/09/19 18:58:44","新北市板橋區大同街26巷33號","121.478633333333","25.0263633333333","6500100","板橋區"
"220096","831-TW","2017/09/19 18:58:49","新北市板橋區莒光路60號","121.470988333333","25.0241066666667","6500100","板橋區"
"220074","895-R6","2017/09/19 18:58:42","新北市板橋區林園街52號","121.453618333333","25.010665","6500100","板橋區"
"220073","985-R7","2017/09/19 18:58:52","新北市板橋區北門街61號","121.456216666667","25.011855","6500100","板橋區"
"220070","AAC-253","2017/09/19 18:58:47","新北市板橋區四川路一段276號","121.458861666667","25.001005","6500100","板橋區"
