"lineid","car","time","location","longitude","latitude","cityid","cityname"
"234046","148-BY","2017/09/19 19:58:40","新北市永和區永元路120號","121.522891666667","25.0026116666667","6500400","永和區"
"234013","149-BY","2017/09/19 19:58:40","新北市永和區保生路55號","121.504726666667","25.0105916666667","6500400","永和區"
"234007","207-UY","2017/09/19 19:58:46","新北市永和區保生路22巷15號","121.507055","25.0080616666667","6500400","永和區"
"234081","298-R6","2017/09/19 19:58:53","新北市永和區永亨路98號","121.52298","25.0047183333333","6500400","永和區"
"234038","336-UY","2017/09/19 19:58:51","新北市永和區成功路二段74號","121.52662","24.9992866666667","6500400","永和區"
"234064","337-UY","2017/09/19 19:58:51","新北市永和區中正路368巷1弄47號","121.519155","25.0012483333333","6500400","永和區"
"234086","338-UY","2017/09/19 19:58:47","新北市永和區福和路278號","121.517931666667","25.007535","6500400","永和區"
"234070","552-UM","2017/09/19 19:58:40","新北市永和區國光路59巷6號","121.51862","25.0079216666667","6500400","永和區"
"234054","553-UM","2017/09/19 19:58:39","新北市永和區環河東路一段122號","121.520655","25.0154916666667","6500400","永和區"
"234017","745-BX","2017/09/19 19:58:46","新北市永和區文化路91號","121.513363333333","25.0151066666667","6500400","永和區"
"234030","746-BX","2017/09/19 19:58:49","新北市永和區民權路49巷5弄25號","121.521168333333","24.9977666666667","6500400","永和區"
"234061","AAD-866","2017/09/19 19:58:49","新北市永和區中正路283巷38號","121.516671666667","25.0004733333333","6500400","永和區"
"234042","862-TW","2017/09/19 19:58:41","新北市永和區中和路305巷2弄28號","121.507445","24.9999733333333","6500400","永和區"
"234050","863-TW","2017/09/19 19:58:48","新北市永和區保安路254號","121.506265","25.0125666666667","6500400","永和區"
"234026","9371-KE","2017/09/19 19:58:40","新北市永和區水源街27巷3號","121.51121","25.0042866666667","6500400","永和區"
"234011","9373-KE","2017/09/19 19:58:48","新北市永和區仁愛路352巷94號","121.501138333333","25.0080233333333","6500400","永和區"
"249005","172-UM","2017/09/19 19:58:46","新北市八里區楓林路1-11號","121.385343333333","25.1312466666667","6502300","八里區"
"249001","173-UM","2017/09/19 19:58:54","新北市八里區中華路二段310號","121.403785","25.1484083333333","6502300","八里區"
"249004","303-UY","2017/09/19 19:58:34","新北市八里區文昌路132號","121.409348333333","25.1583733333333","6502300","八里區"
"249002","305-UY","2017/09/19 19:58:50","新北市八里區龍米路一段87巷31-12號","121.453383333333","25.1231733333333","6502300","八里區"
"249003","593-UM","2017/09/19 19:58:54","新北市八里區中華路二段556號","121.39877","25.1452216666667","6502300","八里區"
"248016","026-BX","2017/09/19 19:58:36","新北市五股區成泰路三段577巷80弄7號","121.449495","25.104295","6501500","五股區"
"248008","095-VK","2017/09/19 19:58:40","新北市五股區中興路一段17號","121.469328333333","25.0714783333333","6501500","五股區"
"248020","225-UY","2017/09/19 19:58:50","新北市五股區中直路20-3號","121.42514","25.1117866666667","6501500","五股區"
"248012","247-BX","2017/09/19 19:58:56","新北市五股區民義路一段26號","121.43717","25.0837333333333","6501500","五股區"
"248014","261-SL","2017/09/19 19:58:48","新北市五股區五福路32巷7號","121.434441666667","25.0893966666667","6501500","五股區"
"248010","272-BY","2017/09/19 19:58:47","新北市五股區登林路92-5號","121.42846","25.06974","6501500","五股區"
"248004","677-BX","2017/09/19 19:58:40","新北市五股區成泰路一段10號","121.434455","25.06743","6501500","五股區"
"248002","678-BX","2017/09/19 19:58:50","新北市五股區成泰路三段436號","121.450868333333","25.0995166666667","6501500","五股區"
"234077","969-R7","2017/09/19 19:58:44","新北市永和區中正路160號","121.515086666667","24.99649","6500400","永和區"
"234074","AAC-211","2017/09/19 19:58:29","新北市永和區豫溪街207巷2號","121.523816666667","25.0095866666667","6500400","永和區"
"234067","AAC-212","2017/09/19 19:58:36","新北市永和區永貞路358號","121.510311666667","25.0065966666667","6500400","永和區"
"234003","AAC-295","2017/09/19 19:58:51","新北市永和區中正路708號","121.516086666667","25.0098933333333","6500400","永和區"
"244019","403-UM","2017/09/19 19:58:52","新北市林口區湖南里70-9號","121.375923333333","25.0897233333333","6501700","林口區"
"244002","657-BX","2017/09/19 15:57:28","新北市林口區粉寮路二段160巷28號","121.405141666667","25.0907516666667","6501700","林口區"
"243013","AAD-798","2017/09/19 19:58:52","新北市泰山區應化街7號","121.423878333333","25.0437283333333","6501600","泰山區"
"243009","297-R6","2017/09/19 19:58:38","新北市泰山區楓江路16巷11號","121.433891666667","25.0618116666667","6501600","泰山區"
"243015","380-SR","2017/09/19 19:58:43","新北市泰山區明志路二段214巷16弄15號","121.426858333333","25.0496583333333","6501600","泰山區"
"243014","421-VK","2017/09/19 19:58:47","新北市泰山區泰林路二段165號","121.433781666667","25.0605633333333","6501600","泰山區"
"243010","KEA-2215","2017/09/19 19:58:48","新北市泰山區中華街6號","121.428235","25.0523233333333","6501600","泰山區"
"243011","KEA-2216","2017/09/19 19:58:40","新北市泰山區工專路47號","121.42283","25.0400666666667","6501600","泰山區"
"243012","646-TV","2017/09/19 19:58:53","新北市泰山區全興路87號","121.433233333333","25.0575233333333","6501600","泰山區"
"243016","680-BX","2017/09/19 19:58:41","新北市泰山區貴陽街24號","121.422828333333","25.0326283333333","6501600","泰山區"
"222003","436-BY","2017/09/19 19:58:53","新北市深坑區埔新街10號","121.620696666667","25.00398","6501800","深坑區"
"222002","659-BX","2017/09/19 19:58:39","新北市深坑區埔新街104號","121.618465","25.0021716666667","6501800","深坑區"
"222001","696-SL","2017/09/19 19:58:34","新北市深坑區北深路三段145號","121.603465","25.00288","6501800","深坑區"
"231041","002-UM","2017/09/19 19:58:36","新北市新店區民族路192號","121.53598","24.9754366666667","6500600","新店區"
"231055","0293-UT","2017/09/19 19:58:44","新北市新店區中華路83巷67號","121.538338333333","24.96725","6500600","新店區"
"231059","046-UY","2017/09/19 19:58:49","新北市新店區安康路二段192號","121.511226666667","24.9600183333333","6500600","新店區"
"231061","047-UY","2017/09/19 19:58:53","新北市新店區安民街375號","121.516355","24.9762983333333","6500600","新店區"
"231060","106-UY","2017/09/19 19:58:39","新北市新店區安康路二段317-1號","121.4991","24.95649","6500600","新店區"
"231051","107-UY","2017/09/19 19:58:46","新北市新店區中央路208號","121.53021","24.9738416666667","6500600","新店區"
"231048","108-UY","2017/09/19 19:58:50","新北市新店區寶宏路5-1號","121.549318333333","24.9761883333333","6500600","新店區"
"231053","187-VK","2017/09/19 19:58:37","新北市新店區新烏路三段214號","121.550628333333","24.9013816666667","6500600","新店區"
"231069","189-VK","2017/09/19 12:02:29","新北市新店區安華路28-1號","121.519725","24.9610616666667","6500600","新店區"
"231050","215-TC","2017/09/19 19:58:50","新北市新店區北宜路二段4號","121.547696666667","24.9518933333333","6500600","新店區"
"231057","256-BX","2017/09/19 19:58:46","新北市新店區花園二路一段11號","121.555501666667","24.9325","6500600","新店區"
"231063","268-BY","2017/09/19 19:58:54","新北市新店區黎明路9號","121.502501666667","24.9502983333333","6500600","新店區"
"231054","AAD-862","2017/09/19 19:58:52","新北市新店區光明街96巷1號","121.539185","24.9600633333333","6500600","新店區"
"231056","4716-K9","2017/09/19 19:58:54","新北市新店區民權路34號","121.540806666667","24.9829333333333","6500600","新店區"
"231067","4772-VM","2017/09/19 19:58:52","新北市新店區秀山路11巷16號","121.53169","24.9591183333333","6500600","新店區"
"231065","512-UM","2017/09/19 19:58:43","新北市新店區安祥路108巷3號","121.475066666667","24.958915","6500600","新店區"
"231064","515-UM","2017/09/19 19:58:52","新北市新店區碧安街5號","121.516893333333","24.9677916666667","6500600","新店區"
"231045","617-UM","2017/09/19 19:58:50","新北市新店區北宜路二段82-13號","121.554691666667","24.9535166666667","6500600","新店區"
"231040","619-UM","2017/09/19 19:58:50","新北市新店區中正路72號","121.544051666667","24.9702433333333","6500600","新店區"
"231042","641-BX","2017/09/19 19:58:48","新北市新店區中興路一段284號","121.545725","24.9688266666667","6500600","新店區"
"231049","719-UM","2017/09/19 19:58:40","新北市新店區明德路79號","121.541346666667","24.9782016666667","6500600","新店區"
"231062","720-UM","2017/09/19 19:58:46","新北市新店區華城路10巷1-3號","121.528805","24.9578266666667","6500600","新店區"
"231044","897-TW","2017/09/19 19:58:43","新北市新店區復興路44-5號","121.538406666667","24.986745","6500600","新店區"
"231043","899-TW","2017/09/19 19:58:45","新北市新店區中正路265巷5號","121.53822","24.97361","6500600","新店區"
"231066","AKT-0513","2017/09/19 19:58:37","新北市新店區安興路20號","121.515076666667","24.9660716666667","6500600","新店區"
"241011","013-R5","2017/09/19 19:58:40","新北市三重區介壽路12號","121.498803333333","25.0695633333333","6500200","三重區"
"241028","022-UY","2017/09/19 19:58:55","新北市三重區中正南路41巷1號","121.493728333333","25.0599183333333","6500200","三重區"
"241008","059-VK","2017/09/19 19:58:33","新北市三重區永福街177巷6-1號","121.478615","25.0749833333333","6500200","三重區"
"241009","060-VK","2017/09/19 19:58:43","新北市三重區三和路四段392-1號","121.481675","25.0790233333333","6500200","三重區"
"241031","061-VK","2017/09/19 19:58:55","新北市三重區重新路四段184巷16號","121.487063333333","25.0549233333333","6500200","三重區"
"241015","062-VK","2017/09/19 19:58:56","新北市三重區三和路二段17號","121.501278333333","25.06685","6500200","三重區"
"241017","063-VK","2017/09/19 19:58:52","新北市三重區重陽路三段160號","121.489861666667","25.06766","6500200","三重區"
"241026","066-VK","2017/09/19 19:58:49","新北市三重區中央南路8號","121.501438333333","25.06296","6500200","三重區"
"241003","091-VK","2017/09/19 19:58:41","新北市三重區仁愛街445巷38號","121.491526666667","25.0834683333333","6500200","三重區"
"241016","266-UM","2017/09/19 19:58:47","新北市三重區正義北路27號","121.497571666667","25.06352","6500200","三重區"
"241022","267-UM","2017/09/19 19:58:48","新北市三重區過圳街31巷2號","121.489086666667","25.06064","6500200","三重區"
"241032","269-UM","2017/09/19 19:58:46","新北市三重區捷運路65號","121.483413333333","25.0556066666667","6500200","三重區"
"241013","270-UM","2017/09/19 19:58:37","新北市三重區三和路三段125巷2號","121.493101666667","25.0735","6500200","三重區"
"241025","271-UM","2017/09/19 19:58:43","新北市三重區頂崁街210巷15-1號","121.476363333333","25.067935","6500200","三重區"
"241007","398-BY","2017/09/19 19:58:40","新北市三重區慈愛街52號","121.486198333333","25.0792216666667","6500200","三重區"
"241024","KEA-2210","2017/09/19 19:58:36","新北市三重區力行路一段180號","121.481783333333","25.071455","6500200","三重區"
"241020","413-TH","2017/09/19 19:58:44","新北市三重區忠孝路一段101號","121.489538333333","25.0721516666667","6500200","三重區"
"241004","475-VK","2017/09/19 19:58:53","新北市三重區五華街86號","121.493111666667","25.0822666666667","6500200","三重區"
"241019","478-VK","2017/09/19 19:58:44","新北市三重區重陽路四段38號","121.491353333333","25.0698783333333","6500200","三重區"
"241030","480-VK","2017/09/19 19:58:42","新北市三重區重新路四段244巷9號","121.486376666667","25.0534416666667","6500200","三重區"
"241014","543-UM","2017/09/19 19:58:52","新北市三重區三和路二段105號","121.499345","25.0686366666667","6500200","三重區"
"241023","545-UM","2017/09/19 19:58:39","新北市三重區頂崁街172號","121.477558333333","25.0659533333333","6500200","三重區"
"241001","547-UM","2017/09/19 19:58:35","新北市三重區仁愛街269巷62號","121.494786666667","25.0798883333333","6500200","三重區"
"241006","AAD-863","2017/09/19 19:58:40","新北市三重區力行路二段75號","121.482381666667","25.07549","6500200","三重區"
"241035","743-BX","2017/09/19 19:58:45","新北市三重區大榮街9號","121.498201666667","25.06314","6500200","三重區"
"241018","887-TS","2017/09/19 19:58:54","新北市三重區雙園街84號","121.495356666667","25.067665","6500200","三重區"
"241012","941-UM","2017/09/19 19:58:37","新北市三重區仁厚街78號","121.500725","25.0767966666667","6500200","三重區"
"241029","942-UM","2017/09/19 19:58:40","新北市三重區重新路三段204號","121.489963333333","25.0585683333333","6500200","三重區"
"241033","AAC-255","2017/09/19 19:58:48","新北市三重區中興北街14號","121.469505","25.047115","6500200","三重區"
"235066","003-UY","2017/09/19 19:58:54","新北市中和區光華街7號","121.50439","25.0043783333333","6500300","中和區"
"235056","096-UM","2017/09/19 19:58:49","新北市中和區中山路三段170巷2弄1號","121.472906666667","25.0066666666667","6500300","中和區"
"235039","097-UM","2017/09/19 19:58:36","新北市中和區大勇街27巷20號","121.516475","24.9938216666667","6500300","中和區"
"235065","098-UM","2017/09/19 19:58:40","新北市中和區福祥路66號","121.499351666667","25.0050316666667","6500300","中和區"
"235040","150-BY","2017/09/19 19:58:45","新北市中和區景安路79巷37弄28號","121.507825","24.9965116666667","6500300","中和區"
"235055","183-VK","2017/09/19 19:58:42","新北市中和區德光路17號","121.471076666667","25.0044116666667","6500300","中和區"
"235038","185-VK","2017/09/19 19:58:51","新北市中和區大智街55巷30弄32號","121.521601666667","24.99317","6500300","中和區"
"235049","186-VK","2017/09/19 19:58:51","新北市中和區景平路385巷58號","121.501141666667","24.9943016666667","6500300","中和區"
"235067","255-BX","2017/09/19 19:58:40","新北市中和區中正路751巷3弄5號","121.484385","24.9994916666667","6500300","中和區"
"235044","293-VK","2017/09/19 19:58:43","新北市中和區南山路231號","121.503526666667","24.9935133333333","6500300","中和區"
"235072","301-VK","2017/09/19 19:58:53","新北市五股區中興路三段5號","121.449456666667","25.0794666666667","6500300","中和區"
"235043","352-BY","2017/09/19 19:58:50","新北市中和區興南路二段159巷1號","121.505266666667","24.9833116666667","6500300","中和區"
"235051","376-QA","2017/09/19 19:58:40","新北市中和區中興街233巷8弄8號","121.501253333333","24.9893383333333","6500300","中和區"
"235068","377-QA","2017/09/19 19:58:41","新北市中和區景平路736巷3弄12號","121.497668333333","25.0037066666667","6500300","中和區"
"235050","4979-A6","2017/09/19 19:58:45","新北市中和區景平路155巷2弄1號","121.51339","24.99183","6500300","中和區"
"235069","4980-A6","2017/09/19 19:58:45","新北市中和區南山路81巷56號","121.50389","24.9981316666667","6500300","中和區"
"235070","558-UM","2017/09/19 19:58:50","新北市中和區連勝街50號","121.497801666667","24.9973233333333","6500300","中和區"
"235054","640-BX","2017/09/19 19:58:54","新北市中和區莒光路157號","121.472615","25.0008283333333","6500300","中和區"
"235060","647-TV","2017/09/19 19:58:45","新北市中和區民樂路77號","121.484485","25.0012866666667","6500300","中和區"
"235047","732-UM","2017/09/19 19:58:51","新北市中和區和平街134號","121.50646","24.9917616666667","6500300","中和區"
"235046","733-UM","2017/09/19 19:58:52","新北市中和區興南路一段93巷69號","121.51035","24.986795","6500300","中和區"
"235057","801-TS","2017/09/19 19:58:51","新北市中和區民樂路81號","121.484616666667","25.001395","6500300","中和區"
"235041","802-TS","2017/09/19 19:58:52","新北市中和區永貞路274-5號","121.51328","25.0037933333333","6500300","中和區"
"235052","805-TS","2017/09/19 19:58:48","新北市中和區興南路二段117巷31號","121.506118333333","24.9837833333333","6500300","中和區"
"235053","900-TW","2017/09/19 19:58:39","新北市中和區國光街191號","121.467348333333","25.00177","6500300","中和區"
"235037","AAC-213","2017/09/19 19:58:38","新北市中和區自立路175號","121.523223333333","24.992145","6500300","中和區"
"235059","AAC-215","2017/09/19 19:58:51","新北市中和區圓通路305巷5弄19號","121.494116666667","24.9903766666667","6500300","中和區"
"220068","013-TV","2017/09/19 19:58:46","新北市板橋區中山路二段412巷23號","121.483621666667","25.0201183333333","6500100","板橋區"
"220065","072-UY","2017/09/19 19:58:44","新北市板橋區海山路39號","121.467278333333","25.0097133333333","6500100","板橋區"
"220106","075-UY","2017/09/19 19:58:38","新北市板橋區民治街57巷26號","121.480038333333","25.0338933333333","6500100","板橋區"
"220069","AAD-861","2017/09/19 19:58:52","新北市板橋區貴興路60號","121.456715","25.0030433333333","6500100","板橋區"
"247020","500-BY","2017/09/19 19:58:38","新北市蘆洲區民義街49號","121.47272","25.08966","6501400","蘆洲區"
"247010","339-TH","2017/09/19 19:58:51","新北市蘆洲區集賢路228號","121.482305","25.0862616666667","6501400","蘆洲區"
"247002","337-TH","2017/09/19 19:58:51","新北市蘆洲區永樂街31巷7號","121.458116666667","25.087355","6501400","蘆洲區"
"247004","336-TH","2017/09/19 19:58:53","新北市蘆洲區長安街291號","121.458196666667","25.084615","6501400","蘆洲區"
"247010","335-TH","2017/09/19 19:58:39","新北市蘆洲區民族路163號","121.479375","25.088215","6501400","蘆洲區"
"247016","057-VK","2017/09/19 19:58:46","新北市蘆洲區光華路20號","121.469543333333","25.0834933333333","6501400","蘆洲區"
"247006","056-VK","2017/09/19 19:58:38","新北市蘆洲區九芎街107號","121.4658","25.0797983333333","6501400","蘆洲區"
"247008","053-VK","2017/09/19 19:58:43","新北市蘆洲區中山一路95巷20弄2號","121.476993333333","25.080675","6501400","蘆洲區"
"247014","007-UY","2017/09/19 19:58:47","新北市蘆洲區成功路164號","121.471501666667","25.0834533333333","6501400","蘆洲區"
"247024","002-UY","2017/09/19 19:58:39","新北市蘆洲區光榮路120巷8弄25號","121.46536","25.0877216666667","6501400","蘆洲區"
"226004","205-ST","2017/09/19 19:58:37","新北市平溪區石底里石筍尖9號","121.735381666667","25.0249033333333","6502400","平溪區"
"228003","828-UM","2017/09/19 19:58:55","新北市貢寮區仁理村仁和路236號","121.924016666667","25.05376","6502600","貢寮區"
"227009","642-TC","2017/09/19 19:58:40","新北市雙溪區新基里新基南街25號","121.86626","25.0381566666667","6502500","雙溪區"
"227003","400-TW","2017/09/19 19:58:54","新北市雙溪區雙溪里長安街16號","121.864953333333","25.03471","6502500","雙溪區"
"208002","742-BX","2017/09/19 19:58:49","新北市金山區環金路79號","121.637416666667","25.2173733333333","6502700","金山區"
"208003","665-BX","2017/09/19 19:58:53","新北市金山區永興里濆水路7-2號","121.629196666667","25.2655866666667","6502700","金山區"
"251004","009-UM","2017/09/19 19:58:47","新北市淡水區民族路50巷2弄2號","121.461408333333","25.13585","6501000","淡水區"
"251005","010-UM","2017/09/19 19:58:53","新北市淡水區學府路136巷14號","121.451036666667","25.1728566666667","6501000","淡水區"
"251014","180-VK","2017/09/19 19:58:41","新北市淡水區石頭厝14-19號","121.464363333333","25.2361716666667","6501000","淡水區"
"251008","181-VK","2017/09/19 19:58:43","新北市淡水區中正路一段132巷14號","121.422635","25.1797016666667","6501000","淡水區"
"251010","413-VK","2017/09/19 19:58:42","新北市淡水區崁頂98號","121.434835","25.2038016666667","6501000","淡水區"
"251012","441-VK","2017/09/19 19:58:38","新北市淡水區下圭柔山114-11號","121.445501666667","25.2099266666667","6501000","淡水區"
"251016","442-VK","2017/09/19 19:58:57","新北市淡水區牛埔子10-1號","121.450095","25.2184316666667","6501000","淡水區"
"251001","559-UM","2017/09/19 19:58:40","新北市淡水區淡金路一段69號","121.458955","25.1728083333333","6501000","淡水區"
"251006","561-UM","2017/09/19 19:58:56","新北市淡水區水碓街40巷1號","121.444465","25.1772933333333","6501000","淡水區"
"251009","575-R6","2017/09/19 19:58:48","新北市淡水區英專路21巷13號","121.44499","25.169705","6501000","淡水區"
"251011","650-BX","2017/09/19 19:58:50","新北市淡水區崁頂55-3號","121.442346666667","25.1966483333333","6501000","淡水區"
"207003","550-UM","2017/09/19 19:58:51","新北市萬里區磺潭里公館崙5號","121.642031666667","25.2144166666667","6502800","萬里區"
"207004","225-TW","2017/09/19 19:58:37","新北市萬里區北基里忠二街35號","121.685636666667","25.175745","6502800","萬里區"
"252002","178-VK","2017/09/19 19:58:52","新北市三芝區忠孝街116-3號","121.505476666667","25.2575516666667","6502100","三芝區"
"252001","292-VK","2017/09/19 19:58:35","新北市三芝區公正街9號","121.499735","25.25748","6502100","三芝區"
"237004","078-UY","2017/09/19 19:58:39","新北市三峽區添福15-32號","121.372585","24.9048116666667","6500900","三峽區"
"237007","153-BY","2017/09/19 19:58:55","新北市三峽區二鬮路136巷20弄83號","121.358141666667","24.9091566666667","6500900","三峽區"
"237009","210-TH","2017/09/19 19:58:51","新北市三峽區民族街28巷9弄2號","121.368778333333","24.930715","6500900","三峽區"
"237012","275-BY","2017/09/19 19:58:37","新北市三峽區中華路3巷6-1號","121.375015","24.9312716666667","6500900","三峽區"
"237008","302-VK","2017/09/19 19:58:36","新北市三峽區安溪路351號","121.370046666667","24.926075","6500900","三峽區"
"237014","433-BY","2017/09/19 19:58:49","新北市三峽區長泰街79-2號","121.375626666667","24.9330316666667","6500900","三峽區"
"237006","5529-G3","2017/09/19 19:58:38","新北市三峽區中正路二段22號","121.36728","24.919635","6500900","三峽區"
"237016","649-BX","2017/09/19 19:58:49","新北市三峽區橫溪路99巷24號","121.400081666667","24.9363433333333","6500900","三峽區"
"237005","AKY-6261","2017/09/19 19:58:38","新北市三峽區民生街1巷5-1號","121.378221666667","24.936595","6500900","三峽區"
"236070","105-UM","2017/09/19 19:58:43","新北市土城區千歲路11號","121.44086","24.9697133333333","6501300","土城區"
"236043","107-UM","2017/09/19 19:58:53","新北市土城區學府路一段143巷16號","121.45405","24.98564","6501300","土城區"
"236079","166-UM","2017/09/19 19:57:49","新北市土城區福安街68號","121.418281666667","24.964575","6501300","土城區"
"236031","253-BX","2017/09/19 19:58:48","新北市土城區中央路一段250巷2-7號","121.44361","24.9849116666667","6501300","土城區"
"236027","269-VK","2017/09/19 19:58:37","新北市土城區中央路二段89號","121.442436666667","24.9780666666667","6501300","土城區"
"236015","270-VK","2017/09/19 19:58:46","新北市土城區廣福街123號","121.456235","24.99287","6501300","土城區"
"236038","271-VK","2017/09/19 19:58:51","新北市土城區國際路158巷24弄26號","121.468256666667","24.9765066666667","6501300","土城區"
"236023","401-BY","2017/09/19 19:58:50","新北市土城區延吉街137巷12弄10號","121.470535","24.9854883333333","6501300","土城區"
"236059","912-UM","2017/09/19 19:58:47","新北市土城區中央路一段191號","121.446051666667","24.9871566666667","6501300","土城區"
"236049","913-UM","2017/09/19 19:58:46","新北市土城區金城路三段83號","121.466733333333","24.9874133333333","6501300","土城區"
"236063","915-UM","2017/09/19 19:58:53","新北市土城區延和路62巷15號","121.466111666667","24.9885533333333","6501300","土城區"
"236055","AAC-216","2017/09/19 19:58:49","新北市土城區金城路三段33巷20號","121.465163333333","24.9873866666667","6501300","土城區"
"242032","AAC-296","2017/09/19 19:58:51","新北市新莊區公園一路19號","121.44341","25.0350733333333","6500500","新莊區"
"242029","986-R7","2017/09/19 19:58:52","新北市新莊區中平路359號","121.444556666667","25.0517583333333","6500500","新莊區"
"242051","751-BX","2017/09/19 19:58:48","新北市新莊區西盛街137號","121.428245","25.0186016666667","6500500","新莊區"
"242025","615-BX","2017/09/19 19:58:44","新北市新莊區五工二路86巷27號","121.460296666667","25.0671833333333","6500500","新莊區"
"242023","613-BX","2017/09/19 19:58:50","新北市新莊區化成路402號","121.465941666667","25.0506266666667","6500500","新莊區"
"242027","612-BX","2017/09/19 19:58:36","新北市新莊區立信一街60號","121.443106666667","25.0498266666667","6500500","新莊區"
"242034","497-BY","2017/09/19 19:58:45","新北市新莊區建中街94號","121.446758333333","25.03667","6500500","新莊區"
"242048","441-UM","2017/09/19 19:58:45","新北市新莊區民安路207巷7弄1號","121.426705","25.0230216666667","6500500","新莊區"
"242054","440-UM","2017/09/19 19:58:44","新北市新莊區民安西路357號","121.428305","25.0105116666667","6500500","新莊區"
"242005","413-TV","2017/09/19 19:58:47","新北市新莊區化成路352巷29號","121.467115","25.0491866666667","6500500","新莊區"
"242061","362-BY","2017/09/19 19:58:49","新北市新莊區瓊林路72號","121.445103333333","25.0286366666667","6500500","新莊區"
"242058","353-BY","2017/09/19 19:58:46","新北市新莊區八德街115號","121.424055","25.02085","6500500","新莊區"
"242007","132-UY","2017/09/19 19:58:37","新北市新莊區思源路539號","121.459688333333","25.0567283333333","6500500","新莊區"
"242037","133-UY","2017/09/19 19:58:54","新北市新莊區建安街57巷2弄3號","121.428416666667","25.0247266666667","6500500","新莊區"
"242021","135-UY","2017/09/19 19:58:49","新北市新莊區建中街48巷10弄12號","121.448623333333","25.0384416666667","6500500","新莊區"
"242009","173-VK","2017/09/19 19:58:43","新北市新莊區幸福路914號","121.442455","25.0486766666667","6500500","新莊區"
"242015","175-VK","2017/09/19 19:58:53","新北市新莊區復興路一段35號","121.446463333333","25.0419833333333","6500500","新莊區"
"242002","176-VK","2017/09/19 19:58:46","新北市新莊區中正路219號","121.450951666667","25.0358083333333","6500500","新莊區"
"242013","346-TH","2017/09/19 19:58:41","新北市新莊區幸福路670巷2弄1號","121.45103","25.0496","6500500","新莊區"
"242039","347-TH","2017/09/19 19:58:39","新北市新莊區民安路280號","121.427865","25.0214316666667","6500500","新莊區"
"242019","348-TH","2017/09/19 19:58:35","新北市新莊區民生街15巷3號","121.455583333333","25.042385","6500500","新莊區"
"242056","349-TH","2017/09/19 19:58:41","新北市新莊區中正路347巷17-1號","121.44742","25.034385","6500500","新莊區"
"242017","350-TH","2017/09/19 19:58:48","新北市新莊區中安街5巷29號","121.452376666667","25.0461366666667","6500500","新莊區"
"238015","755-BX","2017/09/19 19:58:39","新北市樹林區水源街96-3號","121.42584","24.9790066666667","6500700","樹林區"
"238023","601-UM","2017/09/19 19:58:44","新北市樹林區中正路105號","121.425","25.00112","6500700","樹林區"
"238021","KEA-2217","2017/09/19 19:58:44","新北市樹林區佳園路三段113巷19號","121.387591666667","24.9502416666667","6500700","樹林區"
"238022","KEA-2213","2017/09/19 19:58:37","新北市樹林區環河路2-2號","121.425373333333","24.9767716666667","6500700","樹林區"
"238020","268-VK","2017/09/19 19:58:49","新北市樹林區國凱街136巷48-2號","121.425055","24.9787716666667","6500700","樹林區"
"239002","359-BY","2017/09/19 19:58:50","新北市鶯歌區環河路177-3號","121.346278333333","24.9350183333333","6500800","鶯歌區"
"221008","489-VK","2017/09/19 19:58:43","新北市汐止區康寧街65號","121.618705","25.06671","6501100","汐止區"
"221036","130-UY","2017/09/19 19:58:44","新北市汐止區忠孝東路258巷11弄1號","121.663803333333","25.0672916666667","6501100","汐止區"
"221015","131-UY","2017/09/19 19:58:45","新北市汐止區忠孝東路473巷24-1號","121.665235","25.0737966666667","6501100","汐止區"
"221010","269-BY","2017/09/19 19:58:46","新北市汐止區連峰街270號","121.644346666667","25.0816183333333","6501100","汐止區"
"221012","276-VK","2017/09/19 13:19:06","新北市汐止區汐萬路一段256巷3號","121.65346","25.074575","6501100","汐止區"
"221012","278-VK","2017/09/19 19:58:49","新北市汐止區大同路三段174號","121.674126666667","25.0749316666667","6501100","汐止區"
"221023","279-VK","2017/09/19 19:58:44","新北市汐止區明峰街196號","121.62785","25.0695633333333","6501100","汐止區"
"221032","280-BY","2017/09/19 19:58:38","新北市汐止區橫科路18巷15號","121.617726666667","25.0502883333333","6501100","汐止區"
"221027","281-BY","2017/09/19 19:58:52","新北市汐止區中正路90號","121.661495","25.06956","6501100","汐止區"
"221038","297-VK","2017/09/19 19:58:48","新北市汐止區忠孝東路432號","121.666073333333","25.0722783333333","6501100","汐止區"
"221029","298-VK","2017/09/19 19:58:45","新北市汐止區樟樹一路137巷26號","121.640945","25.06602","6501100","汐止區"
"221021","299-VK","2017/09/19 19:58:36","新北市汐止區水源路一段143號","121.655921666667","25.0623116666667","6501100","汐止區"
"221031","353-TW","2017/09/19 19:58:49","新北市汐止區福德一路176巷5號","121.635045","25.0666316666667","6501100","汐止區"
"221035","622-UM","2017/09/19 19:58:43","新北市汐止區長江街39巷5號","121.65551","25.0716516666667","6501100","汐止區"
"221025","623-UM","2017/09/19 19:58:43","新北市汐止區秀峰路107號","121.660236666667","25.0633916666667","6501100","汐止區"
"221033","647-BX","2017/09/19 19:58:40","新北市汐止區東勢街203號","121.633813333333","25.042025","6501100","汐止區"
"221018","753-BX","2017/09/19 19:58:38","新北市汐止區茄苳路118號","121.668","25.070255","6501100","汐止區"
"220079","145-BY","2017/09/19 19:58:50","新北市板橋區南雅西路二段142號","121.451893333333","25.0130016666667","6500100","板橋區"
"220080","200-UY","2017/09/19 19:58:36","新北市板橋區大觀路二段163巷21號","121.446555","25.0001683333333","6500100","板橋區"
"220082","610-BX","2017/09/19 19:58:38","新北市板橋區存德街92號","121.432363333333","24.9909733333333","6500100","板橋區"
"220101","245-BX","2017/09/19 19:58:42","新北市板橋區縣民大道三段107號","121.476513333333","25.02246","6500100","板橋區"
"220097","257-TC","2017/09/19 19:58:47","新北市板橋區國光路196號","121.461511666667","25.018385","6500100","板橋區"
"220072","277-BY","2017/09/19 19:58:53","新北市板橋區篤行路二段77巷14號","121.432553333333","24.991705","6500100","板橋區"
"220064","280-UM","2017/09/19 19:58:38","新北市板橋區民族路61號","121.464915","25.0087466666667","6500100","板橋區"
"220071","283-VK","2017/09/19 19:58:47","新北市板橋區五權街30巷15號","121.46422","24.993215","6500100","板橋區"
"220094","285-UM","2017/09/19 19:58:41","新北市板橋區雨農路27巷4號","121.46136","25.0240816666667","6500100","板橋區"
"220053","285-VK","2017/09/19 19:58:50","新北市板橋區永豐街38號","121.474386666667","25.0174383333333","6500100","板橋區"
"220083","286-VK","2017/09/19 19:58:38","新北市板橋區龍興街103巷1號","121.444491666667","25.003395","6500100","板橋區"
"220081","287-VK","2017/09/19 19:46:37","新北市板橋區大觀路一段29巷133弄26號","121.450388333333","25.0048433333333","6500100","板橋區"
"220090","288-VK","2017/09/19 19:58:35","新北市板橋區幸福路32巷2弄38號","121.460906666667","25.0219633333333","6500100","板橋區"
"220061","293-UM","2017/09/19 19:58:49","新北市板橋區觀光街1巷2號","121.472033333333","25.015445","6500100","板橋區"
"220075","297-UM","2017/09/19 19:58:47","新北市板橋區金華街10巷94號","121.458413333333","25.020375","6500100","板橋區"
"220062","303-R5","2017/09/19 19:58:55","新北市板橋區萬安街20巷6弄14號","121.485158333333","25.0231366666667","6500100","板橋區"
"220092","307-R5","2017/09/19 19:58:50","新北市板橋區互助街90號","121.460233333333","25.0263266666667","6500100","板橋區"
"220098","317-R6","2017/09/19 19:58:53","新北市板橋區新海路72巷46弄7號","121.462296666667","25.0233","6500100","板橋區"
"220089","487-VK","2017/09/19 19:58:44","新北市板橋區龍泉街55巷14號","121.457383333333","25.0254783333333","6500100","板橋區"
"242011","280-VK","2017/09/19 19:58:44","新北市新莊區中港路531巷35號","121.450011666667","25.0514566666667","6500500","新莊區"
"220088","491-VK","2017/09/19 19:58:47","新北市板橋區大同街75號","121.479578333333","25.028125","6500100","板橋區"
"220035","560-BX","2017/09/19 19:58:53","新北市板橋區新生街53巷3弄9號","121.456983333333","25.0215783333333","6500100","板橋區"
"220103","561-BX","2017/09/19 19:58:52","新北市板橋區陽明街46-5號","121.4655","25.0220716666667","6500100","板橋區"
"220084","568-UM","2017/09/19 19:58:48","新北市板橋區溪崑二街96巷22號","121.42602","24.989755","6500100","板橋區"
"220063","609-BX","2017/09/19 19:58:47","新北市板橋區中山路二段118號","121.47608","25.01672","6500100","板橋區"
"220091","637-BX","2017/09/19 19:58:48","新北市板橋區文聖街101巷13號","121.478191666667","25.0296883333333","6500100","板橋區"
"220057","686-BX","2017/09/19 19:58:51","新北市板橋區四川路二段36號","121.453963333333","24.9954116666667","6500100","板橋區"
"220093","689-BX","2017/09/19 19:58:37","新北市板橋區長江路三段141號","121.475868333333","25.0347266666667","6500100","板橋區"
"220054","741-BX","2017/09/19 19:58:42","新北市板橋區實踐路93巷10號","121.464538333333","25.0054033333333","6500100","板橋區"
"220055","827-TW","2017/09/19 19:58:47","新北市板橋區仁愛路78號","121.460541666667","24.9994433333333","6500100","板橋區"
"220067","829-TW","2017/09/19 19:58:49","新北市板橋區漢生東路195號","121.46997","25.0116283333333","6500100","板橋區"
"220102","830-TW","2017/09/19 19:58:43","新北市板橋區懷德街66巷20號","121.476901666667","25.0320483333333","6500100","板橋區"
"220096","831-TW","2017/09/19 19:58:49","新北市板橋區莒光路16巷34號","121.46921","25.0238566666667","6500100","板橋區"
"220074","895-R6","2017/09/19 19:58:42","新北市板橋區府中路67號","121.457953333333","25.009105","6500100","板橋區"
"220073","985-R7","2017/09/19 19:58:51","新北市板橋區大仁街18號","121.455738333333","25.0169483333333","6500100","板橋區"
"220070","AAC-253","2017/09/19 19:58:48","新北市板橋區四川路二段81巷5號","121.453368333333","24.9947283333333","6500100","板橋區"
