"lineid","car","time","location","longitude","latitude","cityid","cityname"
"234046","148-BY","2017/09/19 20:08:45","新北市永和區成功路一段116號","121.526828333333","25.002445","6500400","永和區"
"234013","149-BY","2017/09/19 20:08:40","新北市永和區永貞路403號","121.507683333333","25.00902","6500400","永和區"
"234007","207-UY","2017/09/19 20:08:46","新北市永和區保生路3號","121.50645","25.0073716666667","6500400","永和區"
"234081","298-R6","2017/09/19 20:08:41","新北市永和區國中路109巷5弄2號","121.523601666667","25.0052383333333","6500400","永和區"
"234038","336-UY","2017/09/19 20:08:51","新北市永和區成功路一段47巷19號","121.527736666667","25.0038316666667","6500400","永和區"
"234064","337-UY","2017/09/19 20:08:51","新北市永和區永利路138號","121.521833333333","25.0027233333333","6500400","永和區"
"234086","338-UY","2017/09/19 20:08:47","新北市永和區福和路100號","121.52228","25.0079433333333","6500400","永和區"
"234070","552-UM","2017/09/19 20:08:40","新北市永和區永亨路31號","121.519758333333","25.006195","6500400","永和區"
"234054","553-UM","2017/09/19 20:08:39","新北市永和區博愛街27巷2號","121.518103333333","25.015845","6500400","永和區"
"234017","745-BX","2017/09/19 20:08:47","新北市永和區文化路46號","121.514746666667","25.0151433333333","6500400","永和區"
"234030","746-BX","2017/09/19 20:08:49","新北市永和區民有街100號","121.51761","24.9958566666667","6500400","永和區"
"234061","AAD-866","2017/09/19 20:08:49","新北市永和區中正路151巷8弄2號","121.516043333333","24.9985516666667","6500400","永和區"
"234042","862-TW","2017/09/19 20:08:41","新北市永和區雙和街16巷9號","121.509696666667","25.0023116666667","6500400","永和區"
"234050","863-TW","2017/09/19 20:08:46","新北市永和區環河西路二段107號","121.506348333333","25.0146633333333","6500400","永和區"
"234026","9371-KE","2017/09/19 20:08:40","新北市永和區永貞路324號","121.511446666667","25.0051816666667","6500400","永和區"
"234011","9373-KE","2017/09/19 20:08:48","新北市永和區仁愛路352巷114號","121.500428333333","25.0083216666667","6500400","永和區"
"249005","172-UM","2017/09/19 20:08:46","新北市八里區中山路三段223號","121.38266","25.1392833333333","6502300","八里區"
"249001","173-UM","2017/09/19 20:08:54","新北市八里區中華路二段312號","121.403793333333","25.1483516666667","6502300","八里區"
"249004","303-UY","2017/09/19 20:08:55","新北市八里區中山路一段189巷5號","121.411945","25.1580883333333","6502300","八里區"
"249002","305-UY","2017/09/19 20:08:50","新北市八里區龍米路一段30巷16號","121.457651666667","25.1165716666667","6502300","八里區"
"249003","593-UM","2017/09/19 20:08:34","新北市八里區中山路二段540巷3號","121.397098333333","25.1468033333333","6502300","八里區"
"248016","026-BX","2017/09/19 20:08:36","新北市五股區成泰路三段577巷80弄72號","121.448891666667","25.104815","6501500","五股區"
"248020","225-UY","2017/09/19 20:08:50","新北市五股區凌雲路二段42號","121.439665","25.1027483333333","6501500","五股區"
"248012","247-BX","2017/09/19 20:08:39","新北市五股區民義路一段208號","121.430551666667","25.0892266666667","6501500","五股區"
"248014","261-SL","2017/09/19 20:08:48","新北市五股區五福路22巷9號","121.434695","25.0891","6501500","五股區"
"248010","272-BY","2017/09/19 20:08:42","新北市五股區成泰路一段7巷66號","121.432591666667","25.0679133333333","6501500","五股區"
"248004","677-BX","2017/09/19 20:08:40","新北市五股區成泰路一段48-1號","121.435358333333","25.0691266666667","6501500","五股區"
"248002","678-BX","2017/09/19 20:08:52","新北市五股區成泰路三段309號","121.44772","25.09472","6501500","五股區"
"234023","9380-KE","2017/09/19 20:08:43","新北市永和區中正路704號","121.516238333333","25.01003","6500400","永和區"
"234077","969-R7","2017/09/19 20:08:44","新北市永和區民享街12號","121.515303333333","24.9953066666667","6500400","永和區"
"234074","AAC-211","2017/09/19 20:08:49","新北市永和區竹林路159號","121.52057","25.01024","6500400","永和區"
"234067","AAC-212","2017/09/19 20:08:42","新北市永和區保平路236巷7弄2號","121.50857","25.0061016666667","6500400","永和區"
"234003","AAC-295","2017/09/19 20:08:51","新北市永和區中正路664號","121.516833333333","25.008905","6500400","永和區"
"244019","403-UM","2017/09/19 20:07:12","新北市林口區嘉寶里11鄰67號","121.338948333333","25.1106116666667","6501700","林口區"
"244002","657-BX","2017/09/19 15:57:28","新北市林口區粉寮路二段160巷28號","121.405141666667","25.0907516666667","6501700","林口區"
"243013","AAD-798","2017/09/19 20:08:47","新北市泰山區明志路三段74巷21號","121.424118333333","25.0416983333333","6501600","泰山區"
"243009","297-R6","2017/09/19 20:08:38","新北市泰山區泰林路二段146號","121.434266666667","25.0598466666667","6501600","泰山區"
"243015","380-SR","2017/09/19 20:08:43","新北市泰山區明志路一段386號","121.430715","25.0573016666667","6501600","泰山區"
"243014","421-VK","2017/09/19 20:08:52","新北市泰山區明志路一段43號","121.433635","25.0653116666667","6501600","泰山區"
"243010","KEA-2215","2017/09/19 20:08:48","新北市泰山區明志路二段136巷22號","121.426346666667","25.0517833333333","6501600","泰山區"
"243011","KEA-2216","2017/09/19 20:08:54","新北市新莊區中正路662號","121.421096666667","25.0287983333333","6501600","泰山區"
"243012","646-TV","2017/09/19 20:08:36","新北市泰山區楓江路81號","121.436801666667","25.0635016666667","6501600","泰山區"
"243016","680-BX","2017/09/19 20:08:41","新北市泰山區貴陽街6號","121.421476666667","25.03295","6501600","泰山區"
"222003","436-BY","2017/09/19 20:08:53","新北市深坑區埔新街65號","121.620206666667","25.0023766666667","6501800","深坑區"
"222002","659-BX","2017/09/19 20:08:39","新北市深坑區北深路三段206巷1弄18號","121.60154","25.004455","6501800","深坑區"
"222001","696-SL","2017/09/19 20:08:34","新北市深坑區北深路三段183號","121.601491666667","25.0035433333333","6501800","深坑區"
"231041","002-UM","2017/09/19 20:08:36","新北市新店區中正路460號","121.534001666667","24.9793816666667","6500600","新店區"
"231055","0293-UT","2017/09/19 20:08:44","新北市新店區中華路42巷28號","121.54099","24.969005","6500600","新店區"
"231059","046-UY","2017/09/19 20:08:49","新北市新店區安德街40號","121.511405","24.9625883333333","6500600","新店區"
"231061","047-UY","2017/09/19 20:08:53","新北市新店區安興路32號","121.51576","24.9703783333333","6500600","新店區"
"231060","106-UY","2017/09/19 20:08:39","新北市新店區安康路三段179-1號","121.48826","24.9517266666667","6500600","新店區"
"231051","107-UY","2017/09/19 20:08:46","新北市新店區中央路151號","121.529495","24.9725266666667","6500600","新店區"
"231048","108-UY","2017/09/19 20:08:50","新北市新店區永華街47號","121.54425","24.9759883333333","6500600","新店區"
"231053","187-VK","2017/09/19 20:08:37","新北市新店區新烏路三段寶島巷2弄3號","121.552008333333","24.898625","6500600","新店區"
"231069","189-VK","2017/09/19 12:02:29","新北市新店區安華路28-1號","121.519725","24.9610616666667","6500600","新店區"
"231050","215-TC","2017/09/19 20:08:50","新北市新店區北宜路二段6號","121.547661666667","24.9518283333333","6500600","新店區"
"231057","256-BX","2017/09/19 20:08:46","新北市新店區花園一路一段2號","121.553171666667","24.9324383333333","6500600","新店區"
"231063","268-BY","2017/09/19 20:08:52","新北市新店區黎明路57巷1號","121.502388333333","24.9478933333333","6500600","新店區"
"231054","AAD-862","2017/09/19 20:08:52","新北市新店區檳榔路2-1號","121.54098","24.9648766666667","6500600","新店區"
"231056","4716-K9","2017/09/19 20:08:50","新北市新店區北新路二段156號","121.543008333333","24.9754216666667","6500600","新店區"
"231067","4772-VM","2017/09/19 20:08:35","新北市新店區安康路一段24巷9號","121.53198","24.9611616666667","6500600","新店區"
"231065","512-UM","2017/09/19 20:08:44","新北市新店區安祥路106巷222號","121.473858333333","24.960195","6500600","新店區"
"231064","515-UM","2017/09/19 20:08:52","新北市新店區安光路10-1號","121.513776666667","24.9641883333333","6500600","新店區"
"231045","617-UM","2017/09/19 20:08:50","新北市新店區北宜路一段121-1號","121.540366666667","24.9537966666667","6500600","新店區"
"231040","619-UM","2017/09/19 20:08:50","新北市新店區中正路110號","121.543008333333","24.9706183333333","6500600","新店區"
"231042","641-BX","2017/09/19 20:08:48","新北市新店區中興路二段226號","121.547873333333","24.9751016666667","6500600","新店區"
"231068","718-UY","2017/09/19 20:08:46","新北市新店區北新路一段91號","121.538726666667","24.9617816666667","6500600","新店區"
"231049","719-UM","2017/09/19 20:08:40","新北市新店區北新路二段139巷9-1號","121.542153333333","24.9755733333333","6500600","新店區"
"231062","720-UM","2017/09/19 20:08:46","新北市新店區安豐路49號","121.500036666667","24.954035","6500600","新店區"
"231044","897-TW","2017/09/19 20:08:43","新北市新店區寶元路一段15巷11號","121.542005","24.9870866666667","6500600","新店區"
"231043","899-TW","2017/09/19 20:08:44","新北市新店區民族路190號","121.536398333333","24.9756666666667","6500600","新店區"
"231066","AKT-0513","2017/09/19 20:08:37","新北市新店區安德街60巷21號","121.510331666667","24.9633916666667","6500600","新店區"
"241011","013-R5","2017/09/19 20:08:40","新北市三重區秀江街232號","121.49663","25.0713783333333","6500200","三重區"
"241028","022-UY","2017/09/19 20:08:35","新北市三重區仁化街172號","121.494755","25.0571433333333","6500200","三重區"
"241008","059-VK","2017/09/19 20:08:34","新北市三重區永福街197巷27號","121.4786","25.0744466666667","6500200","三重區"
"241009","060-VK","2017/09/19 20:08:43","新北市三重區永福街113號","121.479123333333","25.07717","6500200","三重區"
"241031","061-VK","2017/09/19 20:08:35","新北市三重區過圳街9-1號","121.48878","25.0601383333333","6500200","三重區"
"241015","062-VK","2017/09/19 20:08:36","新北市三重區福德北路26-3號","121.50217","25.064895","6500200","三重區"
"241017","063-VK","2017/09/19 20:08:52","新北市三重區自強路一段268號","121.492428333333","25.0676183333333","6500200","三重區"
"241026","066-VK","2017/09/19 20:08:49","新北市三重區福德南路59-5號","121.502468333333","25.0609516666667","6500200","三重區"
"241002","090-VK","2017/09/19 20:08:50","新北市三重區五華街55巷47號","121.495481666667","25.08193","6500200","三重區"
"241003","091-VK","2017/09/19 20:08:41","新北市三重區仁愛街435號","121.49017","25.081955","6500200","三重區"
"241016","266-UM","2017/09/19 20:08:47","新北市三重區大同北路91號","121.494641666667","25.0636416666667","6500200","三重區"
"241022","267-UM","2017/09/19 20:08:48","新北市三重區新北大道一段17號","121.488056666667","25.0611","6500200","三重區"
"241032","269-UM","2017/09/19 20:08:46","新北市三重區捷運路65號","121.483391666667","25.0556016666667","6500200","三重區"
"241013","270-UM","2017/09/19 20:08:55","新北市三重區三和路三段151巷37號","121.493705","25.07417","6500200","三重區"
"241025","271-UM","2017/09/19 20:08:43","新北市三重區中正北路430號","121.474546666667","25.071155","6500200","三重區"
"241007","398-BY","2017/09/19 20:08:40","新北市三重區仁美街50號","121.48712","25.077715","6500200","三重區"
"241024","KEA-2210","2017/09/19 20:08:36","新北市三重區中正北路294號","121.480181666667","25.0688633333333","6500200","三重區"
"241020","413-TH","2017/09/19 20:08:44","新北市三重區後竹圍街2巷2號","121.49198","25.07352","6500200","三重區"
"241004","475-VK","2017/09/19 20:08:43","新北市三重區自強路四段110號","121.491555","25.079955","6500200","三重區"
"241019","478-VK","2017/09/19 20:08:44","新北市三重區自強路二段27號","121.489708333333","25.069245","6500200","三重區"
"241030","480-VK","2017/09/19 20:08:42","新北市三重區成功路145巷31號","121.487603333333","25.0530916666667","6500200","三重區"
"241014","543-UM","2017/09/19 20:08:52","新北市三重區長樂街110號","121.50149","25.0695733333333","6500200","三重區"
"241023","545-UM","2017/09/19 20:08:39","新北市三重區頂崁街220巷2號","121.476918333333","25.06807","6500200","三重區"
"241001","547-UM","2017/09/19 20:08:55","新北市三重區溪尾街26號","121.49095","25.0763933333333","6500200","三重區"
"241006","AAD-863","2017/09/19 20:08:41","新北市三重區車路頭街135號","121.484251666667","25.07583","6500200","三重區"
"241035","743-BX","2017/09/19 20:08:45","新北市三重區平安街7號","121.498805","25.0643816666667","6500200","三重區"
"241018","887-TS","2017/09/19 20:08:54","新北市三重區正義北路256巷18號","121.495468333333","25.0683766666667","6500200","三重區"
"241012","941-UM","2017/09/19 20:08:37","新北市三重區仁福街64巷32號","121.49745","25.07569","6500200","三重區"
"241029","942-UM","2017/09/19 20:08:40","新北市三重區重新路三段174-1號","121.490928333333","25.0589716666667","6500200","三重區"
"241033","AAC-255","2017/09/19 20:08:48","新北市三重區光復路一段68巷5號","121.471356666667","25.0493683333333","6500200","三重區"
"235066","003-UY","2017/09/19 20:08:34","新北市中和區水源路127巷2弄2號","121.508091666667","25.00415","6500300","中和區"
"235039","097-UM","2017/09/19 20:08:56","新北市永和區中正路2巷29弄2號","121.514136666667","24.9935616666667","6500300","中和區"
"235065","098-UM","2017/09/19 20:08:40","新北市中和區永和路90巷2弄17號","121.49811","25.0056333333333","6500300","中和區"
"235040","150-BY","2017/09/19 20:08:45","新北市中和區保健路36號","121.509006666667","24.99738","6500300","中和區"
"235058","151-BY","2017/09/19 20:08:41","新北市中和區中正路828號","121.484846666667","25.003645","6500300","中和區"
"235038","185-VK","2017/09/19 20:08:51","新北市中和區自立路15巷1號","121.522516666667","24.9963416666667","6500300","中和區"
"235044","293-VK","2017/09/19 20:08:43","新北市中和區板南路146號","121.50214","24.9925816666667","6500300","中和區"
"235072","301-VK","2017/09/19 20:08:53","新北市八里區中山路三段112號","121.386825","25.145955","6500300","中和區"
"235051","376-QA","2017/09/19 20:08:40","新北市中和區景安路220巷1弄1號","121.503483333333","24.9907216666667","6500300","中和區"
"235068","377-QA","2017/09/19 20:08:41","新北市中和區福祥路85巷1號","121.498833333333","25.0057733333333","6500300","中和區"
"235050","4979-A6","2017/09/19 20:08:45","新北市中和區景新街323-3號","121.511408333333","24.992115","6500300","中和區"
"235069","4980-A6","2017/09/19 20:08:45","新北市中和區景平路477號","121.50021","24.9970616666667","6500300","中和區"
"235070","558-UM","2017/09/19 20:08:50","新北市中和區圓通路120-2號","121.499091666667","24.9960133333333","6500300","中和區"
"235046","733-UM","2017/09/19 20:08:52","新北市中和區忠孝街31巷25-2號","121.510206666667","24.9838","6500300","中和區"
"235041","802-TS","2017/09/19 20:08:52","新北市中和區中安街124號","121.511101666667","25.0005483333333","6500300","中和區"
"235037","AAC-213","2017/09/19 20:08:38","新北市中和區自立路99巷22弄27號","121.523245","24.9939266666667","6500300","中和區"
"235059","AAC-215","2017/09/19 20:08:51","新北市中和區圓通路335巷33弄11號","121.49316","24.989235","6500300","中和區"
"220065","072-UY","2017/09/19 20:08:44","新北市板橋區中山路一段143號","121.464656666667","25.0115183333333","6500100","板橋區"
"220106","075-UY","2017/09/19 20:08:42","新北市板橋區民治街52巷16號","121.478971666667","25.0329833333333","6500100","板橋區"
"220069","AAD-861","2017/09/19 20:08:52","新北市板橋區大明街25巷2弄17號","121.457535","25.0025016666667","6500100","板橋區"
"247022","893-R6","2017/09/19 20:08:55","新北市蘆洲區三民路130號","121.470955","25.0873816666667","6501400","蘆洲區"
"247020","500-BY","2017/09/19 20:08:38","新北市蘆洲區民權路106巷5弄2-1號","121.474388333333","25.08908","6501400","蘆洲區"
"247010","339-TH","2017/09/19 20:08:51","新北市蘆洲區鷺江街1號","121.479523333333","25.0827066666667","6501400","蘆洲區"
"247002","337-TH","2017/09/19 20:08:46","新北市蘆洲區永康街2巷10號","121.459326666667","25.0862233333333","6501400","蘆洲區"
"247004","336-TH","2017/09/19 20:08:39","新北市蘆洲區永安南路二段328巷17弄12號","121.456025","25.0839816666667","6501400","蘆洲區"
"247012","335-TH","2017/09/19 20:08:39","新北市蘆洲區復興路210號","121.478718333333","25.08903","6501400","蘆洲區"
"247016","057-VK","2017/09/19 20:08:46","新北市蘆洲區光華路180號","121.464843333333","25.08212","6501400","蘆洲區"
"247006","056-VK","2017/09/19 20:08:38","新北市蘆洲區永安南路二段18號","121.467658333333","25.0770133333333","6501400","蘆洲區"
"247008","053-VK","2017/09/19 20:08:43","新北市蘆洲區中山一路162號","121.474653333333","25.08142","6501400","蘆洲區"
"247014","007-UY","2017/09/19 20:08:47","新北市蘆洲區中山二路265巷61號","121.47172","25.0795666666667","6501400","蘆洲區"
"247024","002-UY","2017/09/19 20:08:39","新北市蘆洲區光明路90號","121.46295","25.087795","6501400","蘆洲區"
"247018","001-UY","2017/09/19 20:08:38","新北市蘆洲區民族路314巷5號","121.477581666667","25.0904466666667","6501400","蘆洲區"
"228003","828-UM","2017/09/19 20:08:55","新北市貢寮區仁理村研海街22號","121.928335","25.0380783333333","6502600","貢寮區"
"208003","665-BX","2017/09/19 20:08:45","新北市金山區海興路176號","121.632905","25.2402783333333","6502700","金山區"
"251004","009-UM","2017/09/19 20:08:47","新北市淡水區民族路29巷46號","121.461788333333","25.1367583333333","6501000","淡水區"
"251005","010-UM","2017/09/19 20:08:53","新北市淡水區學府路121號","121.45034","25.1725716666667","6501000","淡水區"
"251002","012-UM","2017/09/19 20:08:49","新北市淡水區中正路247號","121.433925","25.1742383333333","6501000","淡水區"
"251014","180-VK","2017/09/19 20:08:41","新北市淡水區石頭厝1號","121.458731666667","25.2355433333333","6501000","淡水區"
"251008","181-VK","2017/09/19 20:08:43","新北市淡水區淡海路72巷37號","121.425133333333","25.182895","6501000","淡水區"
"251010","413-VK","2017/09/19 20:08:42","新北市淡水區崁頂五路301號","121.423845","25.1969733333333","6501000","淡水區"
"251012","441-VK","2017/09/19 20:08:38","新北市淡水區下圭柔山56-1號","121.44747","25.204565","6501000","淡水區"
"251016","442-VK","2017/09/19 20:08:37","新北市淡水區番子田25-7號","121.456108333333","25.2307883333333","6501000","淡水區"
"251006","561-UM","2017/09/19 20:08:36","新北市淡水區北新路141巷29號","121.448155","25.1796233333333","6501000","淡水區"
"251009","575-R6","2017/09/19 20:08:54","新北市淡水區英專路26號","121.445656666667","25.169985","6501000","淡水區"
"251003","766-UM","2017/09/19 20:08:45","新北市淡水區中山北路二段189巷15弄31號","121.44366","25.183915","6501000","淡水區"
"207003","550-UM","2017/09/19 20:08:51","新北市萬里區大鵬里萬里加投186號","121.642828333333","25.215635","6502800","萬里區"
"207004","225-TW","2017/09/19 20:08:37","新北市萬里區北基里愛二街2號","121.682445","25.1767566666667","6502800","萬里區"
"252002","178-VK","2017/09/19 20:08:52","新北市三芝區三民街39巷36號","121.505423333333","25.2574733333333","6502100","三芝區"
"252001","292-VK","2017/09/19 20:08:55","新北市三芝區公正街9號","121.499743333333","25.2575083333333","6502100","三芝區"
"237004","078-UY","2017/09/19 20:08:39","新北市三峽區正義街68號","121.369033333333","24.9183016666667","6500900","三峽區"
"237007","153-BY","2017/09/19 20:08:35","新北市三峽區二鬮路136巷22弄1號","121.356335","24.9103566666667","6500900","三峽區"
"237012","275-BY","2017/09/19 20:08:37","新北市三峽區中華路48巷16號","121.37112","24.9301283333333","6500900","三峽區"
"237008","302-VK","2017/09/19 20:08:37","新北市三峽區中華路75巷8號","121.37214","24.9298283333333","6500900","三峽區"
"237006","5529-G3","2017/09/19 20:08:39","新北市三峽區中正路二段269號","121.365936666667","24.9117733333333","6500900","三峽區"
"237016","649-BX","2017/09/19 20:08:49","新北市三峽區介壽路二段138巷1弄166-2號","121.403331666667","24.92749","6500900","三峽區"
"237005","AKY-6261","2017/09/19 20:08:38","新北市三峽區三樹路98巷74弄91號","121.385073333333","24.9384616666667","6500900","三峽區"
"236070","105-UM","2017/09/19 20:08:43","新北市土城區中央路三段112號","121.435301666667","24.9662516666667","6501300","土城區"
"236043","107-UM","2017/09/19 20:08:53","新北市土城區學府路一段164巷21號","121.453406666667","24.9874733333333","6501300","土城區"
"236079","166-UM","2017/09/19 20:08:49","新北市土城區民族街46號","121.418496666667","24.9636966666667","6501300","土城區"
"236031","253-BX","2017/09/19 20:08:48","新北市土城區中央路一段118巷1弄2號","121.44607","24.9881466666667","6501300","土城區"
"236027","269-VK","2017/09/19 20:08:37","新北市土城區中央路一段267巷14號","121.445538333333","24.98498","6501300","土城區"
"236015","270-VK","2017/09/19 20:08:46","新北市土城區德興街137號","121.455165","24.9916766666667","6501300","土城區"
"236038","271-VK","2017/09/19 20:08:51","新北市土城區明德路一段20巷2弄1號","121.464676666667","24.9848983333333","6501300","土城區"
"236023","401-BY","2017/09/19 20:08:50","新北市土城區延吉街63巷2號","121.472363333333","24.9873883333333","6501300","土城區"
"236059","912-UM","2017/09/19 20:08:47","新北市土城區中央路一段289-1號","121.444266666667","24.984205","6501300","土城區"
"236049","913-UM","2017/09/19 20:08:43","新北市土城區金城路三段147號","121.468515","24.988195","6501300","土城區"
"236063","915-UM","2017/09/19 20:08:53","新北市土城區立德路135巷5弄1號","121.46491","24.98695","6501300","土城區"
"236055","AAC-216","2017/09/19 20:08:49","新北市土城區學府路一段176號","121.453748333333","24.986415","6501300","土城區"
"242032","AAC-296","2017/09/19 20:08:51","新北市新莊區忠孝街29巷21號","121.443585","25.0362816666667","6500500","新莊區"
"242029","986-R7","2017/09/19 20:08:44","新北市新莊區中榮街152巷44號","121.445435","25.0538183333333","6500500","新莊區"
"242051","751-BX","2017/09/19 20:08:48","新北市新莊區民安西路172巷4弄2號","121.425573333333","25.016025","6500500","新莊區"
"242025","615-BX","2017/09/19 20:08:44","新北市新莊區五工路68巷31號","121.458955","25.0649233333333","6500500","新莊區"
"242023","613-BX","2017/09/19 20:08:50","新北市新莊區化成路606號","121.466185","25.0546316666667","6500500","新莊區"
"242027","612-BX","2017/09/19 20:08:36","新北市新莊區中平路299號","121.444761666667","25.051175","6500500","新莊區"
"242034","497-BY","2017/09/19 20:08:47","新北市新莊區中正路318巷16號","121.44645","25.035885","6500500","新莊區"
"242044","442-UM","2017/09/19 20:08:50","新北市新莊區中正路929巷7弄24號","121.411673333333","25.019935","6500500","新莊區"
"242048","441-UM","2017/09/19 20:08:45","新北市新莊區四維路150巷9號","121.422301666667","25.0232916666667","6500500","新莊區"
"242054","440-UM","2017/09/19 20:08:57","新北市新莊區西盛街395巷22弄2號","121.428313333333","25.0126916666667","6500500","新莊區"
"242005","413-TV","2017/09/19 20:08:47","新北市新莊區頭興街13巷2號","121.461415","25.053455","6500500","新莊區"
"242061","362-BY","2017/09/19 20:08:49","新北市新莊區瓊林路瓊英巷3號","121.443705","25.0273516666667","6500500","新莊區"
"242058","353-BY","2017/09/19 20:08:46","新北市新莊區龍安路280號","121.422323333333","25.0190683333333","6500500","新莊區"
"242007","132-UY","2017/09/19 20:08:37","新北市新莊區福壽街124巷41弄18號","121.459276666667","25.051855","6500500","新莊區"
"242037","133-UY","2017/09/19 20:08:53","新北市新莊區建安街25巷16號","121.429828333333","25.0261833333333","6500500","新莊區"
"242021","135-UY","2017/09/19 20:08:49","新北市新莊區建中街28號","121.449061666667","25.0375633333333","6500500","新莊區"
"242046","172-VK","2017/09/19 20:08:40","新北市新莊區裕民街85巷18號","121.419355","25.0233366666667","6500500","新莊區"
"242009","173-VK","2017/09/19 20:08:43","新北市新莊區昌盛街35巷1弄1號","121.454023333333","25.0501483333333","6500500","新莊區"
"242015","175-VK","2017/09/19 20:08:54","新北市新莊區中平路26巷40號","121.446525","25.0432783333333","6500500","新莊區"
"242002","176-VK","2017/09/19 20:08:46","新北市新莊區中正路33號","121.463965","25.0409766666667","6500500","新莊區"
"242013","346-TH","2017/09/19 20:08:41","新北市新莊區幸福路710巷1弄8號","121.449326666667","25.0496433333333","6500500","新莊區"
"242039","347-TH","2017/09/19 20:08:39","新北市新莊區龍安路497號","121.425953333333","25.0179916666667","6500500","新莊區"
"242019","348-TH","2017/09/19 20:08:34","新北市新莊區思源路131號","121.45969","25.0433966666667","6500500","新莊區"
"242056","349-TH","2017/09/19 20:08:41","新北市新莊區新莊路649巷15弄1號","121.444936666667","25.0316383333333","6500500","新莊區"
"242017","350-TH","2017/09/19 20:08:41","新北市新莊區中港路367號","121.451823333333","25.0462783333333","6500500","新莊區"
"238023","601-UM","2017/09/19 20:08:44","新北市樹林區國凱街136巷48-2號","121.425298333333","24.97884","6500700","樹林區"
"238021","KEA-2217","2017/09/19 20:08:44","新北市樹林區佳園路三段101巷142號","121.398595","24.9503533333333","6500700","樹林區"
"239002","359-BY","2017/09/19 20:08:30","新北市鶯歌區二甲路12-2號","121.345558333333","24.934855","6500800","鶯歌區"
"221008","489-VK","2017/09/19 20:08:54","新北市汐止區忠一街9巷7號","121.620485","25.0732133333333","6501100","汐止區"
"221036","130-UY","2017/09/19 20:08:44","新北市汐止區新台五路二段102號","121.662456666667","25.0660433333333","6501100","汐止區"
"221015","131-UY","2017/09/19 20:08:45","新北市汐止區建成路17號","121.664458333333","25.07261","6501100","汐止區"
"221010","269-BY","2017/09/19 20:08:46","新北市汐止區八連路一段253號","121.640441666667","25.0837433333333","6501100","汐止區"
"221012","276-VK","2017/09/19 13:19:06","新北市汐止區汐萬路一段256巷3號","121.65346","25.074575","6501100","汐止區"
"221012","278-VK","2017/09/19 20:08:49","新北市汐止區汐平路二段54號","121.69619","25.063855","6501100","汐止區"
"221023","279-VK","2017/09/19 20:08:44","新北市汐止區明峰街298巷7弄2號","121.624913333333","25.0688633333333","6501100","汐止區"
"221032","280-BY","2017/09/19 20:08:38","新北市汐止區弘道街8巷5弄7號","121.61735","25.0478866666667","6501100","汐止區"
"221027","281-BY","2017/09/19 20:08:52","新北市汐止區光明街28號","121.660208333333","25.0685916666667","6501100","汐止區"
"221038","297-VK","2017/09/19 20:08:48","新北市汐止區忠孝東路528號","121.667143333333","25.0762633333333","6501100","汐止區"
"221029","298-VK","2017/09/19 20:08:45","新北市汐止區樟樹一路119巷10弄1號","121.641246666667","25.0646383333333","6501100","汐止區"
"221021","299-VK","2017/09/19 20:08:36","新北市汐止區莊敬街128-6號","121.654506666667","25.0613466666667","6501100","汐止區"
"221031","353-TW","2017/09/19 20:08:49","新北市汐止區中興路214巷7弄2號","121.631411666667","25.0666583333333","6501100","汐止區"
"221035","622-UM","2017/09/19 20:08:43","新北市汐止區長江街67巷2弄9號","121.656823333333","25.0724666666667","6501100","汐止區"
"221025","623-UM","2017/09/19 20:08:43","新北市汐止區連興街121號","121.653836666667","25.062185","6501100","汐止區"
"221033","647-BX","2017/09/19 20:08:40","新北市汐止區東勢街201巷104號","121.633531666667","25.0429583333333","6501100","汐止區"
"221002","707-TV","2017/09/19 20:08:37","新北市汐止區大同路一段219巷27號","121.633303333333","25.058395","6501100","汐止區"
"221018","753-BX","2017/09/19 20:08:39","新北市汐止區茄苳路311號","121.67351","25.0667666666667","6501100","汐止區"
"220079","145-BY","2017/09/19 20:08:50","新北市新莊區中平路377巷17弄62號","121.442398333333","25.0514066666667","6500100","板橋區"
"220080","200-UY","2017/09/19 20:08:36","新北市板橋區大觀路二段179巷25號","121.445941666667","24.99975","6500100","板橋區"
"220101","245-BX","2017/09/19 20:08:42","新北市板橋區雙十路一段44巷36號","121.477308333333","25.0251516666667","6500100","板橋區"
"220097","257-TC","2017/09/19 20:08:47","新北市板橋區漢生西路26號","121.463533333333","25.018175","6500100","板橋區"
"220072","277-BY","2017/09/19 20:08:53","新北市板橋區金門街109巷22號","121.43409","24.991575","6500100","板橋區"
"220064","280-UM","2017/09/19 20:08:38","新北市板橋區長安街331巷58號","121.473435","25.0130966666667","6500100","板橋區"
"220071","283-VK","2017/09/19 20:08:38","新北市板橋區和平路174巷1弄7號","121.464313333333","24.9953766666667","6500100","板橋區"
"220083","286-VK","2017/09/19 20:08:49","新北市板橋區僑中二街10巷5號","121.446653333333","25.0109533333333","6500100","板橋區"
"220081","287-VK","2017/09/19 19:46:37","新北市板橋區大觀路一段29巷133弄26號","121.450388333333","25.0048433333333","6500100","板橋區"
"220061","293-UM","2017/09/19 20:08:49","新北市板橋區縣民大道二段200巷1號","121.46971","25.017155","6500100","板橋區"
"220062","303-R5","2017/09/19 20:08:45","新北市板橋區縣民大道二段７號","121.464636666667","25.01403","6500100","板橋區"
"220092","307-R5","2017/09/19 20:06:50","新北市板橋區文化路一段143號","121.46214","25.0155083333333","6500100","板橋區"
"220098","317-R6","2017/09/19 20:08:46","新北市板橋區新海路72巷5弄29號","121.461525","25.02303","6500100","板橋區"
"220089","487-VK","2017/09/19 20:08:44","新北市板橋區互助街68號","121.46104","25.026675","6500100","板橋區"
"242011","280-VK","2017/09/19 20:08:44","新北市新莊區中和街204巷7弄2號","121.44836","25.0504183333333","6500500","新莊區"
"220088","491-VK","2017/09/19 20:08:47","新北市板橋區民治街42巷1號","121.479065","25.0337233333333","6500100","板橋區"
"220103","561-BX","2017/09/19 20:08:47","新北市板橋區自由路18-3號","121.46547","25.0225466666667","6500100","板橋區"
"220084","568-UM","2017/09/19 20:08:54","新北市板橋區板林路208號","121.424628333333","24.9885983333333","6500100","板橋區"
"220093","689-BX","2017/09/19 20:08:37","新北市板橋區長江路一段216號","121.463013333333","25.0308166666667","6500100","板橋區"
"220055","827-TW","2017/09/19 20:08:47","新北市板橋區忠孝路48巷11弄6號","121.461638333333","24.9998166666667","6500100","板橋區"
"220067","829-TW","2017/09/19 20:08:49","新北市板橋區中山路一段206巷41號","121.47056","25.012745","6500100","板橋區"
"220102","830-TW","2017/09/19 20:08:43","新北市板橋區縣民大道三段101號","121.476176666667","25.0224683333333","6500100","板橋區"
"220074","895-R6","2017/09/19 20:08:42","新北市板橋區文化路一段52巷29號","121.461573333333","25.0110816666667","6500100","板橋區"
"220073","985-R7","2017/09/19 20:08:51","新北市板橋區南雅西路二段255號","121.45171","25.0147216666667","6500100","板橋區"
"220070","AAC-253","2017/09/19 20:08:46","新北市板橋區四川路二段245巷51號","121.452108333333","24.99238","6500100","板橋區"
