"lineid","car","time","location","longitude","latitude","cityid","cityname"
"234030","746-BX","2017/09/19 20:48:46","新北市永和區民樂街39巷23號","121.529256666667","25.0007933333333","6500400","永和區"
"249004","303-UY","2017/09/19 20:48:34","新北市八里區中山路一段63號","121.418325","25.1593816666667","6502300","八里區"
"234074","AAC-211","2017/09/19 20:48:49","新北市永和區環河東路二段20號","121.522278333333","25.0131233333333","6500400","永和區"
"244019","403-UM","2017/09/19 20:47:52","新北市林口區粉寮路二段160巷28號","121.40545","25.0909716666667","6501700","林口區"
"244002","657-BX","2017/09/19 15:57:28","新北市林口區粉寮路二段160巷28號","121.405141666667","25.0907516666667","6501700","林口區"
"243010","KEA-2215","2017/09/19 20:48:48","新北市泰山區泰林路三段772巷17號","121.40137","25.073115","6501600","泰山區"
"222003","436-BY","2017/09/19 20:48:40","新北市深坑區阿柔洋31號","121.61119","24.998605","6501800","深坑區"
"222002","659-BX","2017/09/19 20:48:39","新北市深坑區北深路三段93巷51號","121.604245","25.0004866666667","6501800","深坑區"
"222001","696-SL","2017/09/19 20:48:54","新北市深坑區北深路三段125號","121.604621666667","25.00221","6501800","深坑區"
"231041","002-UM","2017/09/19 20:48:36","新北市新店區中正路700巷3號","121.533688333333","24.9913466666667","6500600","新店區"
"231059","046-UY","2017/09/19 20:48:49","新北市新店區僑愛二路1號","121.499905","24.94518","6500600","新店區"
"231061","047-UY","2017/09/19 20:48:33","新北市新店區新和街93巷8號","121.520791666667","24.986685","6500600","新店區"
"231060","106-UY","2017/09/19 20:48:39","新北市新店區安康路三段740號","121.473898333333","24.9418516666667","6500600","新店區"
"231051","107-UY","2017/09/19 20:48:46","新北市新店區中央五街28號","121.529041666667","24.974675","6500600","新店區"
"231048","108-UY","2017/09/19 20:48:50","新北市新店區寶元路一段109號","121.545696666667","24.98319","6500600","新店區"
"231053","187-VK","2017/09/19 20:48:37","新北市新店區新烏路一段245-3號","121.54827","24.9305083333333","6500600","新店區"
"231069","189-VK","2017/09/19 12:02:29","新北市新店區安華路28-1號","121.519725","24.9610616666667","6500600","新店區"
"231050","215-TC","2017/09/19 20:48:50","新北市新店區博愛街11巷1號","121.540811666667","24.9730716666667","6500600","新店區"
"231057","256-BX","2017/09/19 20:48:06","新北市新店區金興路39號","121.552161666667","24.9320766666667","6500600","新店區"
"231063","268-BY","2017/09/19 20:48:52","新北市新店區如意街7-1號","121.495181666667","24.9486466666667","6500600","新店區"
"231054","AAD-862","2017/09/19 20:48:52","新北市新店區北新路一段96巷27號","121.54297","24.9694066666667","6500600","新店區"
"231058","3712-VJ","2017/09/19 20:48:32","新北市新店區平等街32號","121.536535","24.9736833333333","6500600","新店區"
"231065","512-UM","2017/09/19 20:48:44","新北市新店區安祥路69巷17號","121.48192","24.9613416666667","6500600","新店區"
"231064","515-UM","2017/09/19 20:48:52","新北市新店區安和路三段77號","121.517803333333","24.9834983333333","6500600","新店區"
"231040","619-UM","2017/09/19 20:48:50","新北市新店區中正路274號","121.538906666667","24.9736933333333","6500600","新店區"
"231042","641-BX","2017/09/19 20:48:48","新北市新店區寶高路116號","121.554466666667","24.9760316666667","6500600","新店區"
"231068","718-UY","2017/09/19 20:48:46","新北市新店區寶元路一段102號","121.545033333333","24.9832866666667","6500600","新店區"
"231049","719-UM","2017/09/19 20:48:40","新北市新店區華潭街1巷7號","121.529413333333","24.9495583333333","6500600","新店區"
"231062","720-UM","2017/09/19 20:48:46","新北市新店區和成街15巷31號","121.488838333333","24.9472883333333","6500600","新店區"
"231044","897-TW","2017/09/19 20:48:43","新北市新店區建國路159號","121.53877","24.9789933333333","6500600","新店區"
"231043","899-TW","2017/09/19 20:48:44","新北市新店區博愛街13巷24號","121.540233333333","24.9740533333333","6500600","新店區"
"231066","AKT-0513","2017/09/19 20:48:37","新北市新店區安興路105-1號","121.51463","24.9777066666667","6500600","新店區"
"241011","013-R5","2017/09/19 20:48:40","新北市三重區龍濱路205巷4號","121.502281666667","25.071815","6500200","三重區"
"241028","022-UY","2017/09/19 20:48:55","新北市三重區中正南路41巷1號","121.493798333333","25.0598416666667","6500200","三重區"
"241008","059-VK","2017/09/19 20:48:53","新北市三重區永福街72巷11號","121.479411666667","25.0768833333333","6500200","三重區"
"241009","060-VK","2017/09/19 20:48:43","新北市三重區三和路四段392-1號","121.481718333333","25.07903","6500200","三重區"
"241031","061-VK","2017/09/19 20:48:35","新北市三重區重陽路一段113巷2弄2號","121.487498333333","25.0598816666667","6500200","三重區"
"241015","062-VK","2017/09/19 20:48:43","新北市三重區自強路一段3號","121.49883","25.068445","6500200","三重區"
"241017","063-VK","2017/09/19 20:48:52","新北市三重區民生街25號","121.491543333333","25.067065","6500200","三重區"
"241026","066-VK","2017/09/19 20:48:49","新北市三重區文化南路3號","121.500026666667","25.0624","6500200","三重區"
"241002","090-VK","2017/09/19 20:48:50","新北市三重區仁義街211巷57號","121.498658333333","25.0828866666667","6500200","三重區"
"241005","262-UM","2017/09/19 20:48:39","新北市三重區五華街141巷25號","121.491986666667","25.0854016666667","6500200","三重區"
"241016","266-UM","2017/09/19 20:48:47","新北市三重區長壽西街143-1號","121.494493333333","25.066525","6500200","三重區"
"241022","267-UM","2017/09/19 20:48:48","新北市三重區中正北路20巷12號","121.488011666667","25.06252","6500200","三重區"
"241032","269-UM","2017/09/19 20:48:46","新北市三重區重陽路一段120巷35號","121.485086666667","25.0601666666667","6500200","三重區"
"241013","270-UM","2017/09/19 20:48:35","新北市三重區仁愛街129巷1號","121.495556666667","25.0749516666667","6500200","三重區"
"241025","271-UM","2017/09/19 20:48:43","新北市三重區貴陽街14號","121.48417","25.0618233333333","6500200","三重區"
"241007","398-BY","2017/09/19 20:48:40","新北市三重區慈愛街1號","121.484645","25.0784183333333","6500200","三重區"
"241024","KEA-2210","2017/09/19 20:48:36","新北市三重區國道路一段58巷15號","121.481371666667","25.0720983333333","6500200","三重區"
"241020","413-TH","2017/09/19 20:48:44","新北市三重區忠孝路一段101號","121.48946","25.0721083333333","6500200","三重區"
"241004","475-VK","2017/09/19 20:48:43","新北市三重區仁愛街409號","121.490718333333","25.0811983333333","6500200","三重區"
"241019","478-VK","2017/09/19 20:48:44","新北市三重區三張街34號","121.491701666667","25.0712033333333","6500200","三重區"
"241030","480-VK","2017/09/19 20:48:42","新北市三重區昌隆街26號","121.492006666667","25.0522966666667","6500200","三重區"
"241014","543-UM","2017/09/19 20:48:52","新北市三重區龍濱路118-3號","121.501846666667","25.070425","6500200","三重區"
"241023","545-UM","2017/09/19 20:48:39","新北市三重區重陽路二段8號","121.486588333333","25.0619116666667","6500200","三重區"
"241001","547-UM","2017/09/19 20:48:55","新北市三重區自強路三段78號","121.487036666667","25.07436","6500200","三重區"
"241006","AAD-863","2017/09/19 20:48:40","新北市三重區車路頭街135-1號","121.48427","25.0761583333333","6500200","三重區"
"241035","743-BX","2017/09/19 20:48:45","新北市三重區文化北路246號","121.497438333333","25.0698966666667","6500200","三重區"
"241018","887-TS","2017/09/19 20:48:53","新北市三重區正義北路291號","121.494956666667","25.0705166666667","6500200","三重區"
"241012","941-UM","2017/09/19 20:48:37","新北市三重區仁信街27號","121.501261666667","25.0755883333333","6500200","三重區"
"241029","942-UM","2017/09/19 20:48:40","新北市三重區新興路41號","121.491763333333","25.05362","6500200","三重區"
"241033","AAC-255","2017/09/19 20:48:48","新北市三重區光復路二段1號","121.47233","25.05332","6500200","三重區"
"235072","301-VK","2017/09/19 20:48:33","新北市中和區連城路263-2號","121.49153","24.996405","6500300","中和區"
"235069","4980-A6","2017/09/19 20:48:45","新北市中和區連城路469巷70弄16號","121.482841666667","24.99361","6500300","中和區"
"235026","800-TS","2017/09/19 20:40:34","新北市中和區員山路36巷16-3號","121.484971666667","24.9918433333333","6500300","中和區"
"247022","893-R6","2017/09/19 20:48:40","新北市蘆洲區保和街87號","121.468893333333","25.08598","6501400","蘆洲區"
"247020","500-BY","2017/09/19 20:48:38","新北市蘆洲區仁愛街81號","121.471348333333","25.0938583333333","6501400","蘆洲區"
"247010","339-TH","2017/09/19 20:48:51","新北市蘆洲區鷺江街76號","121.47695","25.0838433333333","6501400","蘆洲區"
"247002","337-TH","2017/09/19 20:48:46","新北市蘆洲區永康街12號","121.459151666667","25.0858083333333","6501400","蘆洲區"
"247004","336-TH","2017/09/19 20:48:39","新北市蘆洲區長安街100號","121.461711666667","25.080845","6501400","蘆洲區"
"247012","335-TH","2017/09/19 20:48:39","新北市蘆洲區集賢路222-5號","121.482701666667","25.086765","6501400","蘆洲區"
"247016","057-VK","2017/09/19 20:48:46","新北市蘆洲區中山二路272號","121.469038333333","25.0784033333333","6501400","蘆洲區"
"247006","056-VK","2017/09/19 20:48:38","新北市蘆洲區永安南路二段14號","121.467453333333","25.0769116666667","6501400","蘆洲區"
"247008","053-VK","2017/09/19 20:48:43","新北市蘆洲區永安北路二段44號","121.482508333333","25.0832966666667","6501400","蘆洲區"
"247014","007-UY","2017/09/19 20:48:47","新北市蘆洲區三民路97號","121.473566666667","25.0852416666667","6501400","蘆洲區"
"247024","002-UY","2017/09/19 20:48:39","新北市蘆洲區長樂路140號","121.46206","25.0901816666667","6501400","蘆洲區"
"208001","761-BX","2017/09/19 20:09:47","新北市金山區磺清路135號","121.639523333333","25.227395","6502700","金山區"
"251002","012-UM","2017/09/19 20:48:48","新北市淡水區英專路22號","121.445523333333","25.1698166666667","6501000","淡水區"
"251014","180-VK","2017/09/19 20:48:41","新北市淡水區公埔子36號","121.46184","25.2323666666667","6501000","淡水區"
"251008","181-VK","2017/09/19 20:48:43","新北市淡水區下圭柔山90-8號","121.431885","25.2120233333333","6501000","淡水區"
"251010","413-VK","2017/09/19 20:48:42","新北市淡水區沙崙路126號","121.42342","25.1829666666667","6501000","淡水區"
"251012","441-VK","2017/09/19 20:48:38","新北市淡水區淡金路四段478號","121.451991666667","25.2239833333333","6501000","淡水區"
"251016","442-VK","2017/09/19 20:48:37","新北市淡水區後洲子8-2號","121.449471666667","25.22368","6501000","淡水區"
"251001","559-UM","2017/09/19 20:48:40","新北市淡水區淡金路137號","121.457518333333","25.1644416666667","6501000","淡水區"
"251007","577-R6","2017/09/19 20:48:47","新北市淡水區鄧公路29巷20號","121.452441666667","25.1701283333333","6501000","淡水區"
"251011","650-BX","2017/09/19 20:48:50","新北市淡水區新市一路一段285號","121.434461666667","25.1863733333333","6501000","淡水區"
"251003","766-UM","2017/09/19 20:48:45","新北市淡水區中山北路一段207巷56號","121.442243333333","25.1792016666667","6501000","淡水區"
"252002","178-VK","2017/09/19 20:48:52","新北市三芝區淡金路二段89-1號","121.504036666667","25.2608133333333","6502100","三芝區"
"237004","078-UY","2017/09/19 20:48:39","新北市三峽區隆恩街245號","121.357566666667","24.9408833333333","6500900","三峽區"
"236059","912-UM","2017/09/19 20:48:47","新北市樹林區中山路三段210-2號","121.381473333333","24.96555","6501300","土城區"
"242032","AAC-296","2017/09/19 20:48:51","新北市新莊區三泰路30-2號","121.438476666667","25.034985","6500500","新莊區"
"242029","986-R7","2017/09/19 20:48:44","新北市新莊區中華路二段121號","121.452845","25.05031","6500500","新莊區"
"242051","751-BX","2017/09/19 20:48:47","新北市新莊區民安西路62號","121.427346666667","25.0203266666667","6500500","新莊區"
"242025","615-BX","2017/09/19 20:48:44","新北市三重區中興南街76號","121.471033333333","25.04328","6500500","新莊區"
"242027","612-BX","2017/09/19 20:48:36","新北市新莊區利濟街18號","121.453231666667","25.0335516666667","6500500","新莊區"
"242048","441-UM","2017/09/19 20:48:45","新北市新莊區中正路596號","121.42671","25.0301966666667","6500500","新莊區"
"242042","400-BY","2017/09/19 20:48:36","新北市新莊區天祥街1巷1號","121.417201666667","25.027045","6500500","新莊區"
"242061","362-BY","2017/09/19 20:48:49","新北市板橋區金門街369巷95號","121.429856666667","24.980645","6500500","新莊區"
"242007","132-UY","2017/09/19 20:48:37","新北市新莊區環河路636-7號","121.437198333333","25.0119633333333","6500500","新莊區"
"242037","133-UY","2017/09/19 20:48:53","新北市新莊區建國一路136號","121.434741666667","25.02837","6500500","新莊區"
"242009","173-VK","2017/09/19 20:48:03","新北市新莊區昌盛街49號","121.454436666667","25.0499566666667","6500500","新莊區"
"242002","176-VK","2017/09/19 20:48:46","新北市新莊區碧江街11號","121.455826666667","25.0349216666667","6500500","新莊區"
"242056","349-TH","2017/09/19 20:48:46","新北市新莊區瓊泰路94巷4號","121.443508333333","25.0293333333333","6500500","新莊區"
"238023","601-UM","2017/09/19 20:48:44","新北市樹林區育德街78-1號","121.387396666667","24.968305","6500700","樹林區"
"221036","130-UY","2017/09/19 20:48:45","新北市汐止區仁愛路326號","121.664256666667","25.067905","6501100","汐止區"
"221015","131-UY","2017/09/19 20:48:45","新北市汐止區大同路二段599號","121.663911666667","25.07057","6501100","汐止區"
"221012","276-VK","2017/09/19 13:19:06","新北市汐止區汐萬路一段256巷3號","121.65346","25.074575","6501100","汐止區"
"221027","281-BY","2017/09/19 20:48:32","新北市汐止區汐萬路一段256巷1號","121.651806666667","25.0749233333333","6501100","汐止區"
"221038","297-VK","2017/09/19 20:48:48","新北市汐止區康寧街901號","121.651656666667","25.0749483333333","6501100","汐止區"
"221029","298-VK","2017/09/19 20:48:45","新北市汐止區樟樹二路355-1號","121.64445","25.0745566666667","6501100","汐止區"
"221031","353-TW","2017/09/19 20:48:49","新北市汐止區汐萬路一段256巷1號","121.651878333333","25.0748416666667","6501100","汐止區"
"221035","622-UM","2017/09/19 20:48:43","新北市汐止區汐萬路一段186號","121.652281666667","25.0719883333333","6501100","汐止區"
"221033","647-BX","2017/09/19 20:48:40","新北市汐止區合順街18巷8弄5號","121.620296666667","25.04174","6501100","汐止區"
"221002","707-TV","2017/09/19 20:48:37","新北市汐止區福德二路165號","121.631016666667","25.0651533333333","6501100","汐止區"
"221018","753-BX","2017/09/19 20:48:37","新北市汐止區汐萬路一段18號","121.656041666667","25.0674683333333","6501100","汐止區"
"220083","286-VK","2017/09/19 20:48:53","新北市板橋區僑中二街116巷12號","121.44518","25.0065","6500100","板橋區"
"220062","303-R5","2017/09/19 20:48:45","新北市板橋區縣民大道一段187號","121.45864","25.00768","6500100","板橋區"
"242011","280-VK","2017/09/19 20:48:43","新北市新莊區中榮街75-2號","121.445791666667","25.0527783333333","6500500","新莊區"
"220073","985-R7","2017/09/19 20:48:51","新北市林口區汕頭32號","121.366721666667","25.1350616666667","6500100","板橋區"
"220070","AAC-253","2017/09/19 20:48:46","新北市八里區中山路三段386號","121.368478333333","25.1360216666667","6500100","板橋區"
