"lineid","car","time","location","longitude","latitude","cityid","cityname"
"244002","657-BX","2017/09/19 15:57:28","新北市林口區粉寮路二段160巷28號","121.405141666667","25.0907516666667","6501700","林口區"
"243001","297-R6","2017/09/19 21:12:53","新北市泰山區黎明路31號","121.42185","25.060655","6501600","泰山區"
"231069","189-VK","2017/09/19 12:02:29","新北市新店區安華路28-1號","121.519725","24.9610616666667","6500600","新店區"
"231050","215-TC","2017/09/19 21:28:50","新北市新店區三民路20巷3號","121.537383333333","24.9707983333333","6500600","新店區"
"231063","268-BY","2017/09/19 21:28:52","新北市新店區吉祥街9巷1號","121.497503333333","24.9470266666667","6500600","新店區"
"231067","4772-VM","2017/09/19 21:28:54","新北市新店區薏仁坑路自強巷6號","121.49654","24.95833","6500600","新店區"
"241017","063-VK","2017/09/19 21:28:52","新北市三重區中正北路25巷2號","121.493225","25.0626783333333","6500200","三重區"
"241003","091-VK","2017/09/19 21:28:41","新北市三重區仁義街220巷1號","121.4953","25.0842383333333","6500200","三重區"
"241005","262-UM","2017/09/19 21:28:39","新北市三重區仁華街116-1號","121.485858333333","25.0831033333333","6500200","三重區"
"241016","266-UM","2017/09/19 21:28:47","新北市三重區信義西街148號","121.495308333333","25.06392","6500200","三重區"
"241025","271-UM","2017/09/19 21:28:43","新北市五股區五工二路134號","121.453968333333","25.0735166666667","6500200","三重區"
"241007","398-BY","2017/09/19 21:28:40","新北市三重區正義北路113號","121.496926666667","25.0658416666667","6500200","三重區"
"241024","KEA-2210","2017/09/19 21:28:36","新北市三重區中正北路115巷6號","121.48412","25.0677216666667","6500200","三重區"
"241033","AAC-255","2017/09/19 21:28:48","新北市三重區光復路二段88巷40號","121.470273333333","25.0573433333333","6500200","三重區"
"235026","800-TS","2017/09/19 20:40:34","新北市中和區員山路36巷16-3號","121.484971666667","24.9918433333333","6500300","中和區"
"247022","893-R6","2017/09/19 21:28:40","新北市蘆洲區永康街75號","121.455853333333","25.0852333333333","6501400","蘆洲區"
"247020","500-BY","2017/09/19 21:28:38","新北市蘆洲區永樂街38巷67弄32號","121.457108333333","25.0914283333333","6501400","蘆洲區"
"247010","339-TH","2017/09/19 21:28:51","新北市蘆洲區三民路28號","121.475803333333","25.0826616666667","6501400","蘆洲區"
"247012","335-TH","2017/09/19 21:28:39","新北市蘆洲區復興路323巷158-1號","121.479826666667","25.0960333333333","6501400","蘆洲區"
"247016","057-VK","2017/09/19 21:28:46","新北市五股區成泰路四段22巷10-2號","121.454263333333","25.104775","6501400","蘆洲區"
"247008","053-VK","2017/09/19 21:28:45","新北市蘆洲區中山一路161號","121.475448333333","25.0816333333333","6501400","蘆洲區"
"247014","007-UY","2017/09/19 21:28:47","新北市蘆洲區光復路20號","121.462776666667","25.0845583333333","6501400","蘆洲區"
"247024","002-UY","2017/09/19 21:28:39","新北市蘆洲區永康街79號","121.455681666667","25.08517","6501400","蘆洲區"
"208001","761-BX","2017/09/19 20:09:47","新北市金山區磺清路135號","121.639523333333","25.227395","6502700","金山區"
"251004","009-UM","2017/09/19 21:28:47","新北市淡水區民族路2號","121.460371666667","25.136975","6501000","淡水區"
"251005","010-UM","2017/09/19 21:28:53","新北市淡水區水源街一段34巷9號","121.44322","25.1718316666667","6501000","淡水區"
"251002","012-UM","2017/09/19 21:27:59","新北市淡水區學府路172巷21號","121.448316666667","25.1749416666667","6501000","淡水區"
"251014","180-VK","2017/09/19 21:28:41","新北市淡水區溪口28號","121.455443333333","25.23616","6501000","淡水區"
"251008","181-VK","2017/09/19 21:28:43","新北市淡水區水源街二段160號","121.455038333333","25.17534","6501000","淡水區"
"251010","413-VK","2017/09/19 21:28:42","新北市淡水區沙崙路25巷21號","121.420593333333","25.18239","6501000","淡水區"
"251012","441-VK","2017/09/19 21:28:38","新北市淡水區淡金路五段20號","121.452906666667","25.2323733333333","6501000","淡水區"
"251016","442-VK","2017/09/19 21:28:37","新北市淡水區中山北路二段383號","121.443948333333","25.188565","6501000","淡水區"
"251001","559-UM","2017/09/19 21:28:40","新北市淡水區義山路一段200號","121.437995","25.1904083333333","6501000","淡水區"
"251006","561-UM","2017/09/19 21:28:38","新北市淡水區公明街35號","121.443141666667","25.1688666666667","6501000","淡水區"
"251009","575-R6","2017/09/19 21:28:47","新北市淡水區民族路33巷16-3號","121.46327","25.1361666666667","6501000","淡水區"
"251011","650-BX","2017/09/19 21:28:50","新北市淡水區新民街164號","121.43712","25.1783616666667","6501000","淡水區"
"251003","766-UM","2017/09/19 21:28:45","新北市淡水區崁頂15-5號","121.438968333333","25.1859283333333","6501000","淡水區"
"221012","276-VK","2017/09/19 13:19:06","新北市汐止區汐萬路一段256巷3號","121.65346","25.074575","6501100","汐止區"
"220073","985-R7","2017/09/19 21:28:51","新北市泰山區新五路一段104號","121.440451666667","25.06135","6500100","板橋區"
"220070","AAC-253","2017/09/19 21:28:46","新北市五股區成泰路三段544-1號","121.453835","25.1018333333333","6500100","板橋區"
