"lineid","car","time","location","longitude","latitude","cityid","cityname"
"248005","653-BX","2017/09/12 08:37:18","新北市五股區明德路12巷1號","121.433248333333","25.0716166666667","6501500","五股區"
"222004","289-BY","2017/09/12 08:49:40","新北市深坑區王軍寮7-3號","121.616436666667","24.986625","6501800","深坑區"
"231007","189-VK","2017/09/12 08:49:33","新北市新店區頂石厝路68-1號","121.533251666667","24.9184666666667","6500600","新店區"
"231009","192-VK","2017/09/12 08:49:29","新北市新店區新烏路三段165巷20號","121.553086666667","24.9012533333333","6500600","新店區"
"226005","5620-A6","2017/09/12 08:49:47","新北市平溪區望古里灰3-1號","121.754661666667","25.030185","6502400","平溪區"
"226002","7418-A5","2017/09/12 08:49:33","新北市平溪區東勢里芊蓁林9-1號","121.735715","24.99042","6502400","平溪區"
"226003","AGD-0702","2017/09/12 08:49:40","新北市平溪區十分里十分街238號","121.778081666667","25.0441283333333","6502400","平溪區"
"223002","198-BX","2017/09/12 08:49:36","新北市石碇區蛇舌子10號","121.661635","24.969215","6501900","石碇區"
"223003","205-TH","2017/09/12 08:49:42","新北市石碇區北宜路六段塗潭巷9號","121.647466666667","24.93216","6501900","石碇區"
"223008","406-TH","2017/09/12 08:49:40","新北市石碇區碇南路二段松柏崎巷45號","121.678038333333","25.0254866666667","6501900","石碇區"
"223001","592-UM","2017/09/12 08:49:29","新北市石碇區北宜路六段塗潭巷27號","121.64878","24.9320533333333","6501900","石碇區"
"223004","660-BX","2017/09/12 08:49:41","新北市石碇區碇坪路二段55號","121.684113333333","24.97138","6501900","石碇區"
"223007","661-BX","2017/09/12 08:49:29","新北市石碇區光明路2號","121.67384","25.02795","6501900","石碇區"
"223005","677-TV","2017/09/12 08:49:42","新北市石碇區碇坪路二段55號","121.684655","24.971015","6501900","石碇區"
"227006","282-VK","2017/09/12 08:49:37","新北市雙溪區上林里大瀨1號","121.830001666667","25.0252266666667","6502500","雙溪區"
"252004","249-BX","2017/09/12 08:49:32","新北市三芝區興華里田心子18-3號","121.494498333333","25.2025933333333","6502100","三芝區"
"252007","AAC-283","2017/09/12 08:49:24","新北市三芝區錫板里番婆林43號","121.493648333333","25.232445","6502100","三芝區"
"237001","159-UY","2017/09/12 08:49:40","新北市三峽區學勤路113號","121.375241666667","24.9464333333333","6500900","三峽區"
"236008","165-UM","2017/09/12 08:49:34","新北市土城區金城路二段46巷1-22號","121.453703333333","24.9757466666667","6501300","土城區"
"236002","339-SR","2017/09/12 08:49:39","新北市土城區中央路三段279號","121.42687","24.96362","6501300","土城區"
"236006","498-BY","2017/09/12 08:49:27","新北市土城區承天路4巷45號","121.435756666667","24.9595133333333","6501300","土城區"
"239006","661-UM","2017/09/12 08:49:38","桃園市龜山區宏德司法新村1號","121.331643333333","24.97945","6500800","鶯歌區"
"220082","282-UM","2017/09/12 08:49:48","新北市板橋區大觀路二段265巷7-7號","121.444048333333","24.9944233333333","6500100","板橋區"
