"lineid","car","time","location","longitude","latitude","cityid","cityname"
"234026","9372-KE","2017/09/12 17:29:33","新北市永和區福和路1號","121.525791666667","25.00944","6500400","永和區"
"249005","172-UM","2017/09/12 17:29:25","新北市八里區荖阡坑路69號","121.406356666667","25.1272983333333","6502300","八里區"
"249001","173-UM","2017/09/12 17:29:40","新北市八里區大崁腳47-3號","121.424475","25.1589916666667","6502300","八里區"
"249004","303-UY","2017/09/12 17:29:39","新北市八里區埤頭一街33號","121.415506666667","25.15643","6502300","八里區"
"249002","305-UY","2017/09/12 17:29:28","新北市八里區龍形五街35巷1號","121.449551666667","25.1331733333333","6502300","八里區"
"249003","593-UM","2017/09/12 17:29:25","新北市八里區中山路二段416號","121.400116666667","25.1476283333333","6502300","八里區"
"244007","080-UY","2017/09/12 17:29:26","新北市林口區湖子20號","121.385826666667","25.092525","6501700","林口區"
"244019","403-UM","2017/09/12 17:29:32","新北市林口區文化二路一段338號","121.372681666667","25.0750416666667","6501700","林口區"
"244009","410-SL","2017/09/12 17:29:33","新北市林口區中華路325號","121.382051666667","25.0919066666667","6501700","林口區"
"244023","483-VK","2017/09/12 17:29:32","新北市林口區興林一街97號","121.39139","25.0727816666667","6501700","林口區"
"244017","485-VK","2017/09/12 17:29:28","新北市林口區粉寮路60-16號","121.404341666667","25.0898716666667","6501700","林口區"
"244011","656-BX","2017/09/12 17:29:24","新北市林口區仁愛路一段398號","121.387016666667","25.076735","6501700","林口區"
"244025","837-TS","2017/09/12 17:29:43","新北市林口區民族路157號","121.367083333333","25.076445","6501700","林口區"
"244021","838-TS","2017/09/12 17:29:33","新北市林口區粉寮路一段105號","121.397863333333","25.0803166666667","6501700","林口區"
"231069","189-VK","2017/09/12 12:04:36","新北市新店區安華路28-1號","121.519781666667","24.961145","6500600","新店區"
"231046","278-BY","2017/09/12 17:29:39","新北市新店區直潭路92號","121.530901666667","24.9376616666667","6500600","新店區"
"241015","062-VK","2017/09/12 17:29:21","新北市三重區長元街65巷20弄18號","121.50357","25.0660583333333","6500200","三重區"
"241017","063-VK","2017/09/12 17:29:30","新北市三重區重新路三段47巷5弄1號","121.492895","25.06187","6500200","三重區"
"241024","065-VK","2017/09/12 17:29:39","新北市三重區後竹圍街297號","121.478646666667","25.0698016666667","6500200","三重區"
"241002","090-VK","2017/09/12 17:29:28","新北市三重區集賢路45號","121.495028333333","25.0858283333333","6500200","三重區"
"241009","156-TC","2017/09/12 17:29:24","新北市三重區力行路二段30巷46弄2號","121.479975","25.0728416666667","6500200","三重區"
"241005","262-UM","2017/09/12 17:29:37","新北市三重區永安北路二段5巷2號","121.481698333333","25.0810983333333","6500200","三重區"
"241013","265-UM","2017/09/12 17:29:33","新北市三重區仁愛街112巷4號","121.494621666667","25.0744166666667","6500200","三重區"
"241016","266-UM","2017/09/12 17:29:27","新北市三重區信義西街41號","121.495298333333","25.0639616666667","6500200","三重區"
"241018","268-UM","2017/09/12 17:29:37","新北市三重區中正北路25巷28號","121.493858333333","25.063405","6500200","三重區"
"241032","269-UM","2017/09/12 17:29:34","新北市三重區名源街34號","121.48231","25.05978","6500200","三重區"
"241025","271-UM","2017/09/12 17:29:39","新北市三重區中正北路175號","121.477896666667","25.0693883333333","6500200","三重區"
"241007","398-BY","2017/09/12 17:29:38","新北市三重區三和路四段145巷188號","121.48885","25.0796633333333","6500200","三重區"
"241020","413-TH","2017/09/12 17:29:23","新北市三重區忠孝路二段34號","121.485803333333","25.0710383333333","6500200","三重區"
"241019","478-VK","2017/09/12 17:29:38","新北市三重區自強路二段40巷3號","121.488861666667","25.0693783333333","6500200","三重區"
"241030","480-VK","2017/09/12 17:29:31","新北市三重區中正南路263號","121.49301","25.0529233333333","6500200","三重區"
"241014","543-UM","2017/09/12 17:29:32","新北市三重區長壽街50號","121.50063","25.06821","6500200","三重區"
"241023","545-UM","2017/09/12 17:29:22","新北市三重區忠孝路三段84巷28號","121.481486666667","25.06416","6500200","三重區"
"241012","941-UM","2017/09/12 17:29:33","新北市三重區仁興街39巷20號","121.500211666667","25.076235","6500200","三重區"
"241033","AAC-255","2017/09/12 17:29:27","新北市三重區興德路129號","121.470361666667","25.0529633333333","6500200","三重區"
"235061","378-QA","2017/09/12 17:03:40","新北市中和區員山路36巷16-2號","121.48531","24.9916766666667","6500300","中和區"
"235062","800-TS","2017/09/12 17:29:36","新北市中和區員山路36巷16-2號","121.485225","24.9916183333333","6500300","中和區"
"247022","893-R6","2017/09/12 17:29:36","新北市蘆洲區三民路291-1號","121.466655","25.0905366666667","6501400","蘆洲區"
"247012","546-UM","2017/09/12 17:29:37","新北市蘆洲區三民路88號","121.473668333333","25.0853566666667","6501400","蘆洲區"
"247020","500-BY","2017/09/12 17:29:34","新北市蘆洲區水湳街150號","121.469996666667","25.0937566666667","6501400","蘆洲區"
"247010","339-TH","2017/09/12 17:29:36","新北市蘆洲區信義路118號","121.479805","25.0823383333333","6501400","蘆洲區"
"247002","337-TH","2017/09/12 17:29:37","新北市蘆洲區永平街65號","121.457235","25.0914833333333","6501400","蘆洲區"
"247004","336-TH","2017/09/12 17:29:37","新北市蘆洲區長安街233巷34號","121.458146666667","25.082355","6501400","蘆洲區"
"247016","057-VK","2017/09/12 17:29:42","新北市蘆洲區光華路22巷38號","121.468471666667","25.08479","6501400","蘆洲區"
"247006","056-VK","2017/09/12 17:29:23","新北市蘆洲區長安街22巷42號","121.465125","25.0803633333333","6501400","蘆洲區"
"247008","053-VK","2017/09/12 17:29:28","新北市蘆洲區民生街105號","121.473403333333","25.0786916666667","6501400","蘆洲區"
"247014","007-UY","2017/09/12 17:29:33","新北市蘆洲區復興路56-1號","121.473145","25.0855283333333","6501400","蘆洲區"
"247024","002-UY","2017/09/12 17:29:32","新北市蘆洲區長興路351號","121.460865","25.091015","6501400","蘆洲區"
"247018","001-UY","2017/09/12 17:29:34","新北市蘆洲區民義街26號","121.47156","25.0886916666667","6501400","蘆洲區"
"228001","212-TW","2017/09/12 17:29:40","新北市貢寮區仁理村仁愛路62巷1號","121.925681666667","25.0533233333333","6502600","貢寮區"
"228002","585-TW","2017/09/12 17:29:27","新北市貢寮區福隆里福隆街14號","121.944855","25.016315","6502600","貢寮區"
"228003","828-UM","2017/09/12 17:29:28","新北市貢寮區仁理村仁和路2-1號","121.923186666667","25.0486316666667","6502600","貢寮區"
"224010","AGQ-8101","2017/09/12 17:29:28","新北市瑞芳區逢甲路121號","121.807383333333","25.10953","6501200","瑞芳區"
"224006","676-BX","2017/09/12 17:29:35","新北市瑞芳區傑魚坑路173-9號","121.789178333333","25.1089883333333","6501200","瑞芳區"
"224009","285-BY","2017/09/12 17:29:33","新北市瑞芳區汽車路11號","121.845981666667","25.1105516666667","6501200","瑞芳區"
"224008","275-VK","2017/09/12 17:29:42","新北市瑞芳區九芎橋路198號","121.834493333333","25.098355","6501200","瑞芳區"
"224005","271-BY","2017/09/12 17:29:24","新北市瑞芳區海濱路3巷2-1號","121.847453333333","25.12683","6501200","瑞芳區"
"227009","642-TC","2017/09/12 17:29:25","新北市雙溪區三貂里定福路22-1號","121.851518333333","25.0725333333333","6502500","雙溪區"
"227003","030-BX","2017/09/12 17:29:40","新北市雙溪區平林里梅竹蹊59號","121.851713333333","25.0321","6502500","雙溪區"
"251004","009-UM","2017/09/12 17:29:41","新北市淡水區中正東路二段88巷15號","121.459041666667","25.1504566666667","6501000","淡水區"
"251005","010-UM","2017/09/12 17:29:27","新北市淡水區鄧公路31巷8號","121.451615","25.1707216666667","6501000","淡水區"
"251002","012-UM","2017/09/12 17:29:42","新北市淡水區中正路261號","121.431186666667","25.1750483333333","6501000","淡水區"
"251014","180-VK","2017/09/12 17:29:39","新北市淡水區公埔子20-2號","121.46986","25.22907","6501000","淡水區"
"251008","181-VK","2017/09/12 17:29:31","新北市淡水區大同路124巷1號","121.463423333333","25.140445","6501000","淡水區"
"251010","413-VK","2017/09/12 17:29:30","新北市淡水區中正路二段206號","121.42634","25.1891016666667","6501000","淡水區"
"251012","441-VK","2017/09/12 17:29:23","新北市淡水區北新路111號","121.44806","25.17843","6501000","淡水區"
"251016","442-VK","2017/09/12 17:29:33","新北市淡水區社厝坑9-1號","121.46673","25.1924483333333","6501000","淡水區"
"251006","561-UM","2017/09/12 17:29:38","新北市淡水區大仁街23號","121.4425","25.1752566666667","6501000","淡水區"
"251009","575-R6","2017/09/12 17:29:38","新北市淡水區新生街90巷4號","121.439573333333","25.1745033333333","6501000","淡水區"
"251007","577-R6","2017/09/12 17:29:33","新北市淡水區民生路47-4號","121.462041666667","25.137975","6501000","淡水區"
"251011","650-BX","2017/09/12 17:29:31","新北市淡水區坪頂路712號","121.482503333333","25.1585166666667","6501000","淡水區"
"251003","766-UM","2017/09/12 17:29:38","新北市淡水區中山路157號","121.440758333333","25.172875","6501000","淡水區"
"207003","550-UM","2017/09/12 17:29:27","新北市萬里區龜吼里翡翠路17號","121.683403333333","25.1871483333333","6502800","萬里區"
"207004","225-TW","2017/09/12 17:29:39","新北市萬里區萬里里景美路16號","121.686681666667","25.173375","6502800","萬里區"
"252002","178-VK","2017/09/12 17:29:27","新北市三芝區忠孝街1-14號","121.505408333333","25.2540066666667","6502100","三芝區"
"252001","292-VK","2017/09/12 17:29:28","新北市三芝區長安街119號","121.49804","25.2596683333333","6502100","三芝區"
"237011","572-TV","2017/09/12 13:08:44","新北市三峽區中山路459巷163-3號","121.348825","24.9330616666667","6500900","三峽區"
"237016","649-BX","2017/09/12 17:29:41","新北市三峽區中山路459巷163-3號","121.349055","24.9328716666667","6500900","三峽區"
"242032","AAC-296","2017/09/12 17:29:24","新北市新莊區新泰路401巷28號","121.442546666667","25.0440116666667","6500500","新莊區"
"242029","986-R7","2017/09/12 17:29:39","新北市新莊區福壽街69號","121.458203333333","25.0495933333333","6500500","新莊區"
"242051","751-BX","2017/09/12 17:29:30","新北市新莊區新樹路445號","121.433033333333","25.0135683333333","6500500","新莊區"
"242025","615-BX","2017/09/12 17:29:21","新北市新莊區中港路272號","121.453125","25.0439233333333","6500500","新莊區"
"242023","613-BX","2017/09/12 17:29:23","新北市新莊區公園路150號","121.453138333333","25.0400866666667","6500500","新莊區"
"242027","612-BX","2017/09/12 17:29:34","新北市新莊區思源路243號","121.459901666667","25.0469633333333","6500500","新莊區"
"242039","566-BX","2017/09/12 17:29:41","新北市新莊區民安東路21號","121.428175","25.0209883333333","6500500","新莊區"
"242044","497-BY","2017/09/12 17:29:35","新北市新莊區富國路75號","121.419993333333","25.025945","6500500","新莊區"
"242037","442-UM","2017/09/12 17:29:22","新北市新莊區新樹路160號","121.43511","25.0227966666667","6500500","新莊區"
"242048","441-UM","2017/09/12 17:29:43","新北市新莊區四維路210號","121.421326666667","25.020115","6500500","新莊區"
"242054","440-UM","2017/09/12 17:29:39","新北市新莊區瓊林南路305巷10號","121.434766666667","25.005345","6500500","新莊區"
"242034","415-TV","2017/09/12 17:29:35","新北市新莊區新莊路366號","121.449458333333","25.0334816666667","6500500","新莊區"
"242005","413-TV","2017/09/12 17:29:29","新北市新莊區中港路288巷14號","121.453471666667","25.04452","6500500","新莊區"
"242042","400-BY","2017/09/12 17:29:40","新北市新莊區建國一路69號","121.434695","25.0297366666667","6500500","新莊區"
"242061","362-BY","2017/09/12 17:29:42","新北市新莊區瓊林路188-1號","121.440521666667","25.0224516666667","6500500","新莊區"
"242058","353-BY","2017/09/12 17:29:36","新北市新莊區中正路510-1號","121.434516666667","25.0326766666667","6500500","新莊區"
"242007","132-UY","2017/09/12 17:29:37","新北市新莊區自強街12號","121.454751666667","25.0457383333333","6500500","新莊區"
"242021","135-UY","2017/09/12 17:29:31","新北市新莊區中華路一段8號","121.452023333333","25.0368733333333","6500500","新莊區"
"242046","172-VK","2017/09/12 17:29:41","新北市新莊區新樹路12-1號","121.439803333333","25.031435","6500500","新莊區"
"242009","173-VK","2017/09/12 17:29:36","新北市新莊區中原路189號","121.45265","25.0542683333333","6500500","新莊區"
"242015","175-VK","2017/09/12 17:29:35","新北市新莊區新泰路178號","121.447361666667","25.0379116666667","6500500","新莊區"
"242002","176-VK","2017/09/12 17:29:27","新北市新莊區新莊路154號","121.455265","25.0354383333333","6500500","新莊區"
"242013","346-TH","2017/09/12 17:29:31","新北市新莊區中誠街16巷2號","121.451966666667","25.048295","6500500","新莊區"
"242019","348-TH","2017/09/12 17:29:27","新北市新莊區中港路71號","121.455441666667","25.0387433333333","6500500","新莊區"
"242056","349-TH","2017/09/12 17:29:29","新北市新莊區景德路202號","121.449348333333","25.03385","6500500","新莊區"
"242017","350-TH","2017/09/12 17:29:23","新北市新莊區復興路一段205號","121.452208333333","25.0435716666667","6500500","新莊區"
"242011","351-TH","2017/09/12 17:29:23","新北市新莊區中港路495號","121.452085","25.0501766666667","6500500","新莊區"
"238015","755-BX","2017/09/12 17:29:23","新北市樹林區大安路267號","121.419065","24.993675","6500700","樹林區"
"238023","601-UM","2017/09/12 17:29:34","新北市樹林區中正路433-2號","121.415","25.0082383333333","6500700","樹林區"
"238019","599-UM","2017/09/12 17:29:32","新北市樹林區太平路45號","121.419183333333","24.9829583333333","6500700","樹林區"
"238018","571-TV","2017/09/12 17:29:37","新北市樹林區鎮前街269巷34號","121.41928","24.9850533333333","6500700","樹林區"
"238024","5061-A6","2017/09/12 17:29:31","新北市樹林區鎮前街53號","121.425156666667","24.99157","6500700","樹林區"
"238021","KEA-2217","2017/09/12 17:29:31","新北市樹林區西圳街一段54號","121.401058333333","24.9620516666667","6500700","樹林區"
"238022","KEA-2213","2017/09/12 17:29:26","新北市樹林區和平街41號","121.422981666667","24.9818516666667","6500700","樹林區"
"238025","303-VK","2017/09/12 17:29:27","新北市樹林區保安街一段195號","121.420995","24.9959583333333","6500700","樹林區"
"238017","283-BY","2017/09/12 17:29:31","新北市樹林區光武街28號","121.415925","25.0056516666667","6500700","樹林區"
"238014","282-BY","2017/09/12 17:29:24","新北市樹林區長壽街29-2號","121.420526666667","24.9950383333333","6500700","樹林區"
"238020","268-VK","2017/09/12 17:29:36","新北市樹林區中正路22-1號","121.427731666667","24.9993633333333","6500700","樹林區"
"238026","172-UY","2017/09/12 17:29:26","新北市樹林區中山路二段219號","121.40276","24.9763433333333","6500700","樹林區"
"238016","169-UY","2017/09/12 17:29:25","新北市樹林區長壽街4號","121.423758333333","24.9934083333333","6500700","樹林區"
"239007","AAC-297","2017/09/12 17:29:24","新北市鶯歌區國華路2號","121.342846666667","24.9566866666667","6500800","鶯歌區"
"239006","891-R6","2017/09/12 17:29:26","新北市鶯歌區鶯桃路379號","121.333726666667","24.963415","6500800","鶯歌區"
"239008","527-UM","2017/09/12 17:29:30","新北市鶯歌區大湖路391號","121.330925","24.9789366666667","6500800","鶯歌區"
"239005","526-UM","2017/09/12 17:29:42","桃園市八德區仁安街59號","121.3242","24.9709633333333","6500800","鶯歌區"
"239001","417-VK","2017/09/12 17:29:40","新北市鶯歌區高職西街20號","121.337866666667","24.9425116666667","6500800","鶯歌區"
"239003","360-BY","2017/09/12 17:29:39","新北市鶯歌區鶯桃路311號","121.333883333333","24.960775","6500800","鶯歌區"
"239002","359-BY","2017/09/12 17:29:30","新北市鶯歌區育才街88號","121.347468333333","24.954695","6500800","鶯歌區"
"239004","193-VK","2017/09/12 17:29:29","新北市鶯歌區三鶯路16號","121.35642","24.9413083333333","6500800","鶯歌區"
"221012","276-VK","2017/09/12 13:18:18","新北市汐止區汐萬路一段256巷3號","121.653461666667","25.0746133333333","6501100","汐止區"
"221033","647-BX","2017/09/12 17:29:28","新北市汐止區樟樹二路351號","121.642956666667","25.0737266666667","6501100","汐止區"
