"lineid","car","time","location","longitude","latitude","cityid","cityname"
"234026","9372-KE","2017/09/12 17:59:33","新北市永和區永和路一段70號","121.512978333333","25.0062416666667","6500400","永和區"
"249005","172-UM","2017/09/12 17:59:25","新北市八里區荖阡坑路20號","121.39701","25.1365983333333","6502300","八里區"
"249001","173-UM","2017/09/12 17:59:37","新北市八里區龍米路二段36號","121.448601666667","25.140105","6502300","八里區"
"249004","303-UY","2017/09/12 17:59:39","新北市八里區中山路一段18-1號","121.422846666667","25.15899","6502300","八里區"
"249002","305-UY","2017/09/12 17:59:28","新北市八里區龍米路一段259號","121.450781666667","25.1336783333333","6502300","八里區"
"249003","593-UM","2017/09/12 17:59:25","新北市八里區中山路二段306號","121.404715","25.1502066666667","6502300","八里區"
"248006","077-UY","2017/09/12 17:59:31","新北市五股區中興路二段83巷26-6號","121.460021666667","25.0753216666667","6501500","五股區"
"248008","095-VK","2017/09/12 17:59:35","新北市五股區更洲路18號","121.458275","25.078885","6501500","五股區"
"248020","225-UY","2017/09/12 17:59:23","新北市五股區中興路二段83巷26-6號","121.459993333333","25.0752816666667","6501500","五股區"
"248004","677-BX","2017/09/12 17:59:38","新北市五股區中興路二段163號","121.457545","25.0777716666667","6501500","五股區"
"232011","375-UM","2017/09/12 17:59:41","新北市坪林區水柳腳34號","121.710021666667","24.9355133333333","6502000","坪林區"
"244013","069-UM","2017/09/12 17:59:38","新北市林口區中山路158號","121.390643333333","25.0787583333333","6501700","林口區"
"244007","080-UY","2017/09/12 17:59:25","新北市林口區林口路78號","121.389205","25.0806466666667","6501700","林口區"
"244019","403-UM","2017/09/12 17:59:32","新北市林口區文化一路一段82號","121.372206666667","25.0701933333333","6501700","林口區"
"244009","410-SL","2017/09/12 17:59:33","新北市林口區寶林路22號","121.38611","25.0840633333333","6501700","林口區"
"244023","483-VK","2017/09/12 17:59:31","新北市林口區東湖路41巷22號","121.386306666667","25.073085","6501700","林口區"
"244017","485-VK","2017/09/12 17:59:28","新北市林口區文化二路一段260巷4號","121.371116666667","25.0733883333333","6501700","林口區"
"244011","656-BX","2017/09/12 17:59:24","新北市林口區中正路103號","121.393986666667","25.0772316666667","6501700","林口區"
"244025","837-TS","2017/09/12 17:59:43","新北市林口區文化三路一段39巷132號","121.359833333333","25.0687716666667","6501700","林口區"
"244021","838-TS","2017/09/12 17:59:33","新北市林口區新寮37-1號","121.40155","25.0656883333333","6501700","林口區"
"222003","436-BY","2017/09/12 17:59:24","新北市深坑區炮子崙23號","121.60716","24.9909083333333","6501800","深坑區"
"222002","659-BX","2017/09/12 17:59:33","新北市深坑區文化街102號","121.616683333333","25.0019383333333","6501800","深坑區"
"222001","696-SL","2017/09/12 17:59:32","新北市深坑區北深路三段12號","121.609735","25.001045","6501800","深坑區"
"231069","189-VK","2017/09/12 12:04:36","新北市新店區安華路28-1號","121.519781666667","24.961145","6500600","新店區"
"231046","278-BY","2017/09/12 17:59:39","新北市新店區康雅崙路1號","121.540353333333","24.925995","6500600","新店區"
"241024","065-VK","2017/09/12 17:59:39","新北市三重區國道路一段42號","121.483206666667","25.073025","6500200","三重區"
"241016","266-UM","2017/09/12 17:59:27","新北市三重區新北大道一段66號","121.487185","25.0614483333333","6500200","三重區"
"241012","941-UM","2017/09/12 17:59:33","新北市三重區龍濱路196號","121.501065","25.0732916666667","6500200","三重區"
"241033","AAC-255","2017/09/12 17:59:27","新北市三重區重新路五段613號","121.4681","25.044365","6500200","三重區"
"235065","098-UM","2017/09/12 17:59:21","新北市中和區連城路469巷40號","121.483513333333","24.9946966666667","6500300","中和區"
"235058","151-BY","2017/09/12 17:59:34","新北市中和區中正路637巷52弄1號","121.485416666667","24.9936083333333","6500300","中和區"
"235038","185-VK","2017/09/12 17:59:41","新北市中和區中正路637巷52弄1號","121.485436666667","24.993505","6500300","中和區"
"235051","376-QA","2017/09/12 17:59:29","新北市中和區員山路36巷13號","121.484161666667","24.990915","6500300","中和區"
"235061","378-QA","2017/09/12 17:03:40","新北市中和區員山路36巷16-2號","121.48531","24.9916766666667","6500300","中和區"
"235069","4980-A6","2017/09/12 17:59:33","新北市中和區中正路589巷15號","121.485706666667","24.9936083333333","6500300","中和區"
"235062","800-TS","2017/09/12 17:59:36","新北市中和區中正路589巷5號","121.485936666667","24.994205","6500300","中和區"
"235052","805-TS","2017/09/12 17:59:32","新北市中和區中正路637巷52弄1號","121.485473333333","24.9933616666667","6500300","中和區"
"247022","893-R6","2017/09/12 17:59:35","新北市蘆洲區中正路507號","121.461058333333","25.0973366666667","6501400","蘆洲區"
"247012","546-UM","2017/09/12 17:59:37","新北市蘆洲區民族路119號","121.479785","25.0869233333333","6501400","蘆洲區"
"247010","339-TH","2017/09/12 17:59:36","新北市蘆洲區三民路25號","121.47563","25.0825683333333","6501400","蘆洲區"
"247002","337-TH","2017/09/12 17:59:37","新北市蘆洲區永平街32巷70號","121.460428333333","25.0934716666667","6501400","蘆洲區"
"247016","057-VK","2017/09/12 17:59:22","新北市蘆洲區中正路185巷78弄11號","121.465921666667","25.084575","6501400","蘆洲區"
"247008","053-VK","2017/09/12 17:59:28","新北市蘆洲區中山一路312號","121.469215","25.0771283333333","6501400","蘆洲區"
"247024","002-UY","2017/09/12 17:59:32","新北市蘆洲區光復路30巷20號","121.463775","25.08405","6501400","蘆洲區"
"247018","001-UY","2017/09/12 17:59:34","新北市蘆洲區復興路298號","121.481166666667","25.0899116666667","6501400","蘆洲區"
"228001","212-TW","2017/09/12 17:59:40","新北市貢寮區真理里新港街26巷53號","121.927958333333","25.0534383333333","6502600","貢寮區"
"228002","585-TW","2017/09/12 17:59:27","新北市貢寮區福連里香蘭街3號","121.97245","25.02456","6502600","貢寮區"
"228003","828-UM","2017/09/12 17:59:28","新北市貢寮區真理里美艷山街6-2號","121.9289","25.0606933333333","6502600","貢寮區"
"224006","676-BX","2017/09/12 17:59:35","新北市瑞芳區傑魚坑路183號","121.788453333333","25.1082966666667","6501200","瑞芳區"
"224002","639-TC","2017/09/12 16:41:15","新北市瑞芳區明燈路二段46號","121.80953","25.1081266666667","6501200","瑞芳區"
"224009","285-BY","2017/09/12 17:59:33","新北市瑞芳區山尖路2號","121.854285","25.116195","6501200","瑞芳區"
"224008","275-VK","2017/09/12 17:59:22","新北市瑞芳區明燈路一段45巷109號","121.82189","25.1036666666667","6501200","瑞芳區"
"224007","273-VK","2017/09/12 17:59:31","新北市瑞芳區大寮路84號","121.780471666667","25.1013333333333","6501200","瑞芳區"
"224005","271-BY","2017/09/12 17:59:24","新北市瑞芳區深澳路199-1號","121.819525","25.1336466666667","6501200","瑞芳區"
"253005","032-BX","2017/09/12 17:59:27","新北市石門區中山路62-11號","121.56757","25.2896766666667","6502200","石門區"
"253006","295-VK","2017/09/12 17:59:26","新北市石門區大丘田45-2號","121.549851666667","25.2748716666667","6502200","石門區"
"208004","AAC-292","2017/09/12 17:59:34","基隆市安樂區基金二路1巷6號","121.70325","25.1424966666667","6502700","金山區"
"208002","742-BX","2017/09/12 17:59:26","新北市金山區三界壇路55號","121.627118333333","25.2280983333333","6502700","金山區"
"208003","665-BX","2017/09/12 17:59:37","新北市金山區磺港里磺港路192-1號","121.646073333333","25.2275616666667","6502700","金山區"
"208001","761-BX","2017/09/12 17:59:33","新北市金山區磺港里磺港路248號","121.643823333333","25.225035","6502700","金山區"
"251004","009-UM","2017/09/12 17:59:41","新北市淡水區民權路84號","121.459218333333","25.1335716666667","6501000","淡水區"
"251005","010-UM","2017/09/12 17:59:27","新北市淡水區英專路125-6號","121.446128333333","25.1726766666667","6501000","淡水區"
"251002","012-UM","2017/09/12 17:59:35","新北市淡水區中正東路8-1號","121.44775","25.1668516666667","6501000","淡水區"
"251014","180-VK","2017/09/12 17:59:39","新北市淡水區公埔子16-6號","121.481003333333","25.224585","6501000","淡水區"
"251008","181-VK","2017/09/12 17:59:31","新北市淡水區八勢一街43-8號","121.461875","25.15589","6501000","淡水區"
"251010","413-VK","2017/09/12 17:59:30","新北市淡水區淡海路46號","121.423246666667","25.1801266666667","6501000","淡水區"
"251012","441-VK","2017/09/12 17:59:23","新北市淡水區北新路三段38巷5號","121.484355","25.1869616666667","6501000","淡水區"
"251016","442-VK","2017/09/12 17:59:33","新北市淡水區埤島30-15號","121.44825","25.1979983333333","6501000","淡水區"
"251001","559-UM","2017/09/12 17:59:33","新北市淡水區民權路94巷1號","121.463083333333","25.12473","6501000","淡水區"
"251006","561-UM","2017/09/12 17:59:38","新北市淡水區真理街1-1號","121.438125","25.1730733333333","6501000","淡水區"
"251009","575-R6","2017/09/12 17:59:38","新北市淡水區大仁街6巷1號","121.44247","25.1746983333333","6501000","淡水區"
"251011","650-BX","2017/09/12 17:59:31","新北市淡水區三空泉7-1號","121.476746666667","25.16247","6501000","淡水區"
"251003","766-UM","2017/09/12 17:59:38","新北市淡水區大忠街79-6號","121.44577","25.177245","6501000","淡水區"
"207003","550-UM","2017/09/12 17:59:27","新北市萬里區港東路野柳風景區攤販66號","121.69133","25.20584","6502800","萬里區"
"207004","225-TW","2017/09/12 17:59:39","新北市萬里區中幅里中福路57-1號","121.680926666667","25.1726416666667","6502800","萬里區"
"252002","178-VK","2017/09/12 17:59:27","新北市三芝區中山路二段29號","121.502795","25.25537","6502100","三芝區"
"252001","292-VK","2017/09/12 17:59:28","新北市三芝區中興街一段30號","121.49768","25.257795","6502100","三芝區"
"237004","078-UY","2017/09/12 17:59:23","新北市三峽區中正路二段154號","121.36614","24.9160766666667","6500900","三峽區"
"237007","153-BY","2017/09/12 17:59:35","新北市三峽區中正路二段88號","121.366496666667","24.9181183333333","6500900","三峽區"
"237009","210-TH","2017/09/12 17:59:24","新北市三峽區中山路106巷15號","121.36607","24.93628","6500900","三峽區"
"237013","252-BX","2017/09/12 17:59:36","新北市三峽區介壽路一段135號","121.376213333333","24.93171","6500900","三峽區"
"237012","275-BY","2017/09/12 17:52:32","新北市三峽區民生街73號","121.375031666667","24.93593","6500900","三峽區"
"237008","302-VK","2017/09/12 17:59:29","新北市三峽區白雞33-16號","121.370706666667","24.912135","6500900","三峽區"
"237014","433-BY","2017/09/12 17:59:29","新北市三峽區和平街36巷7弄4號","121.370968333333","24.9373116666667","6500900","三峽區"
"237006","5529-G3","2017/09/12 17:59:30","新北市三峽區介壽路二段138巷1弄98號","121.397561666667","24.9315483333333","6500900","三峽區"
"237011","572-TV","2017/09/12 17:59:26","新北市三峽區大同路12號","121.37806","24.929725","6500900","三峽區"
"237016","649-BX","2017/09/12 17:59:41","新北市三峽區紫微路139號","121.406416666667","24.911435","6500900","三峽區"
"237005","AKY-6261","2017/09/12 17:59:28","新北市三峽區復興路239-2號","121.368186666667","24.9383583333333","6500900","三峽區"
"236070","105-UM","2017/09/12 17:59:36","新北市土城區青雲路474-2號","121.464221666667","24.9660566666667","6501300","土城區"
"236043","107-UM","2017/09/12 17:59:35","新北市土城區裕生路65-1號","121.447575","24.9859083333333","6501300","土城區"
"236079","166-UM","2017/09/12 17:59:25","新北市土城區永寧路32巷10弄23號","121.428881666667","24.9610933333333","6501300","土城區"
"236031","253-BX","2017/09/12 17:59:28","新北市土城區城林路6巷80號","121.438471666667","24.9797683333333","6501300","土城區"
"236027","269-VK","2017/09/12 17:59:22","新北市土城區承天路18號","121.439411666667","24.963415","6501300","土城區"
"236015","270-VK","2017/09/12 17:59:33","新北市土城區城林路6巷80號","121.438558333333","24.979575","6501300","土城區"
"236038","271-VK","2017/09/12 17:59:24","新北市土城區城林路6巷80號","121.438478333333","24.97976","6501300","土城區"
"236023","401-BY","2017/09/12 17:59:38","新北市土城區城林路6巷80號","121.438751666667","24.9796433333333","6501300","土城區"
"236059","912-UM","2017/09/12 17:59:28","新北市土城區中央路三段42號","121.437595","24.9681866666667","6501300","土城區"
"236049","913-UM","2017/09/12 17:59:25","新北市土城區城林路6巷80號","121.438575","24.9795983333333","6501300","土城區"
"236063","915-UM","2017/09/12 17:59:35","新北市板橋區四川路二段96號","121.45165","24.9945033333333","6501300","土城區"
"236055","AAC-216","2017/09/12 17:59:28","新北市土城區城林路6巷80號","121.438498333333","24.9795916666667","6501300","土城區"
"242032","AAC-296","2017/09/12 17:59:24","新北市新莊區新泰路305巷15號","121.444783333333","25.040935","6500500","新莊區"
"242029","986-R7","2017/09/12 17:59:40","新北市新莊區復興路一段31號","121.44639","25.041945","6500500","新莊區"
"242051","751-BX","2017/09/12 17:59:30","新北市新莊區西盛街165號","121.428258333333","25.017765","6500500","新莊區"
"242025","615-BX","2017/09/12 17:59:41","新北市新莊區五工路70號","121.458078333333","25.0633916666667","6500500","新莊區"
"242023","613-BX","2017/09/12 17:59:43","新北市新莊區福壽街72號","121.458266666667","25.0492983333333","6500500","新莊區"
"242027","612-BX","2017/09/12 17:59:34","新北市新莊區思源路451號","121.459815","25.0534083333333","6500500","新莊區"
"242039","566-BX","2017/09/12 17:59:40","新北市新莊區民安西路3號","121.426566666667","25.0218416666667","6500500","新莊區"
"242044","497-BY","2017/09/12 17:59:35","新北市新莊區雙鳳路119號","121.413473333333","25.0280333333333","6500500","新莊區"
"242037","442-UM","2017/09/12 17:59:36","新北市新莊區建福路59巷4號","121.427015","25.0273616666667","6500500","新莊區"
"242048","441-UM","2017/09/12 17:59:37","新北市新莊區萬安街24號","121.421455","25.024535","6500500","新莊區"
"242054","440-UM","2017/09/12 17:59:38","新北市新莊區光華街4號","121.428658333333","25.0106366666667","6500500","新莊區"
"242034","415-TV","2017/09/12 17:59:34","新北市新莊區中正路421巷24號","121.444585","25.0334616666667","6500500","新莊區"
"242005","413-TV","2017/09/12 17:59:27","新北市新莊區思源路177巷31號","121.459183333333","25.0466716666667","6500500","新莊區"
"242042","400-BY","2017/09/12 17:59:40","新北市泰山區壽山路54號","121.42019","25.0291833333333","6500500","新莊區"
"242061","362-BY","2017/09/12 17:59:22","新北市新莊區新樹路543號","121.432898333333","25.0078016666667","6500500","新莊區"
"242058","353-BY","2017/09/12 17:59:36","新北市新莊區雙鳳路134巷7號","121.412565","25.0280283333333","6500500","新莊區"
"242007","132-UY","2017/09/12 17:59:32","新北市新莊區自信街63號","121.455423333333","25.0482583333333","6500500","新莊區"
"242021","135-UY","2017/09/12 17:59:31","新北市新莊區建興街4號","121.450151666667","25.0364716666667","6500500","新莊區"
"242046","172-VK","2017/09/12 17:59:20","新北市新莊區福營路97巷11號","121.434798333333","25.03181","6500500","新莊區"
"242009","173-VK","2017/09/12 17:59:36","新北市新莊區中華路二段314號","121.452481666667","25.0539716666667","6500500","新莊區"
"242015","175-VK","2017/09/12 17:59:35","新北市新莊區中平路87巷1號","121.444615","25.0457983333333","6500500","新莊區"
"242002","176-VK","2017/09/12 17:59:27","新北市新莊區中正路147-17號","121.45729","25.0369433333333","6500500","新莊區"
"242013","346-TH","2017/09/12 17:59:31","新北市新莊區中和街125巷8號","121.44704","25.0486866666667","6500500","新莊區"
"242019","348-TH","2017/09/12 17:59:43","新北市新莊區明中街49巷17號","121.456696666667","25.0389316666667","6500500","新莊區"
"242056","349-TH","2017/09/12 17:59:29","新北市新莊區豐年街124巷18號","121.445513333333","25.0298966666667","6500500","新莊區"
"242017","350-TH","2017/09/12 17:59:23","新北市新莊區永樂街140號","121.449305","25.0448966666667","6500500","新莊區"
"242011","351-TH","2017/09/12 17:59:23","新北市新莊區中榮街56巷8弄2號","121.44925","25.0532833333333","6500500","新莊區"
"238015","755-BX","2017/09/12 17:59:23","新北市樹林區文德街4巷22號","121.41962","24.99194","6500700","樹林區"
"238023","601-UM","2017/09/12 17:59:34","新北市樹林區龍興街32巷5號","121.402623333333","25.01574","6500700","樹林區"
"238019","599-UM","2017/09/12 17:59:24","新北市樹林區八德街247巷24-3號","121.419745","24.97342","6500700","樹林區"
"238018","571-TV","2017/09/12 17:59:37","新北市樹林區鎮前街61號","121.42496","24.9910266666667","6500700","樹林區"
"238021","KEA-2217","2017/09/12 17:59:31","新北市樹林區柑園街一段47號","121.403265","24.9602483333333","6500700","樹林區"
"238022","KEA-2213","2017/09/12 17:59:26","新北市樹林區太順街62巷3弄20號","121.416861666667","24.979475","6500700","樹林區"
"238025","303-VK","2017/09/12 17:59:27","新北市樹林區俊興街211巷7弄13號","121.416916666667","25.013825","6500700","樹林區"
"238017","283-BY","2017/09/12 17:59:23","新北市樹林區三德街32-5號","121.41488","25.0131333333333","6500700","樹林區"
"238014","282-BY","2017/09/12 17:59:32","新北市樹林區大安路73號","121.423248333333","24.9986366666667","6500700","樹林區"
"238020","268-VK","2017/09/12 17:59:36","新北市樹林區三俊街223號","121.421368333333","25.0150133333333","6500700","樹林區"
"238026","172-UY","2017/09/12 17:59:26","新北市樹林區中洲街28號","121.39707","24.971705","6500700","樹林區"
"238016","169-UY","2017/09/12 17:59:25","新北市樹林區啟智街172號","121.414885","24.9870433333333","6500700","樹林區"
"239007","AAC-297","2017/09/12 17:59:24","新北市鶯歌區尖山埔路173號","121.345803333333","24.950755","6500800","鶯歌區"
"239006","891-R6","2017/09/12 17:59:33","新北市鶯歌區鶯桃路413巷76號","121.329745","24.9631033333333","6500800","鶯歌區"
"239008","527-UM","2017/09/12 17:59:26","新北市鶯歌區朝陽街63巷1弄2號","121.338511666667","24.97841","6500800","鶯歌區"
"239005","526-UM","2017/09/12 17:59:42","新北市鶯歌區鶯桃路668巷73號","121.329911666667","24.9717616666667","6500800","鶯歌區"
"239001","417-VK","2017/09/12 17:59:20","新北市鶯歌區尖山路235號","121.340053333333","24.9436283333333","6500800","鶯歌區"
"239003","360-BY","2017/09/12 17:59:39","新北市鶯歌區鶯桃路352號","121.333898333333","24.9626466666667","6500800","鶯歌區"
"239002","359-BY","2017/09/12 17:59:37","新北市鶯歌區中山路329巷15號","121.344146666667","24.9565383333333","6500800","鶯歌區"
"239004","193-VK","2017/09/12 17:59:30","新北市鶯歌區尖山路103-7號","121.34804","24.9488266666667","6500800","鶯歌區"
"221036","130-UY","2017/09/12 17:59:31","新北市汐止區大同路三段40號","121.667138333333","25.0765983333333","6501100","汐止區"
"221015","131-UY","2017/09/12 17:59:37","新北市汐止區長江街349號","121.667393333333","25.082005","6501100","汐止區"
"221010","269-BY","2017/09/12 17:59:21","新北市汐止區汐萬路二段122巷36號","121.648448333333","25.0864766666667","6501100","汐止區"
"221012","276-VK","2017/09/12 13:18:18","新北市汐止區汐萬路一段256巷3號","121.653461666667","25.0746133333333","6501100","汐止區"
"221031","277-VK","2017/09/12 17:59:26","新北市汐止區中興路96巷1-3號","121.63525","25.06254","6501100","汐止區"
"221012","278-VK","2017/09/12 17:59:40","新北市汐止區長興街二段38號","121.67363","25.0815866666667","6501100","汐止區"
"221023","279-VK","2017/09/12 17:59:36","新北市汐止區民族五街47號","121.628898333333","25.0709116666667","6501100","汐止區"
"221032","280-BY","2017/09/12 17:59:23","新北市汐止區橫科路73巷39號","121.61931","25.0514483333333","6501100","汐止區"
"221027","281-BY","2017/09/12 17:59:28","新北市汐止區大同路二段374號","121.657771666667","25.06711","6501100","汐止區"
"221038","297-VK","2017/09/12 17:59:35","新北市汐止區連興街128巷7弄5號","121.653485","25.0613816666667","6501100","汐止區"
"221029","298-VK","2017/09/12 17:59:42","新北市汐止區樟樹二路330巷1號","121.64167","25.07034","6501100","汐止區"
"221021","299-VK","2017/09/12 17:59:39","新北市汐止區新興路18號","121.656458333333","25.0646383333333","6501100","汐止區"
"221008","358-BY","2017/09/12 17:59:29","新北市汐止區明峰街22號","121.634425","25.0715233333333","6501100","汐止區"
"221035","622-UM","2017/09/12 17:59:33","新北市汐止區新江北路17號","121.652865","25.0705416666667","6501100","汐止區"
"221025","623-UM","2017/09/12 17:59:40","新北市汐止區仁愛路12號","121.6595","25.063345","6501100","汐止區"
"221033","647-BX","2017/09/12 17:59:28","新北市汐止區合順街39巷2號","121.620726666667","25.0433066666667","6501100","汐止區"
"221002","707-TV","2017/09/12 17:59:34","新北市汐止區工建路208號","121.635641666667","25.06171","6501100","汐止區"
"221018","753-BX","2017/09/12 17:59:36","新北市汐止區忠孝東路382巷1弄1號","121.665731666667","25.0698766666667","6501100","汐止區"
