"lineid","car","time","location","longitude","latitude","cityid","cityname"
"234013","149-BY","2017/09/12 18:29:30","新北市永和區環河東路二段92號","121.524476666667","25.010635","6500400","永和區"
"234007","207-UY","2017/09/12 18:29:20","新北市永和區保順路8號","121.502971666667","25.0117566666667","6500400","永和區"
"234081","298-R6","2017/09/12 18:29:28","新北市永和區林森路46巷1號","121.524965","25.0047766666667","6500400","永和區"
"234064","337-UY","2017/09/12 18:29:20","新北市永和區保生路55號","121.504778333333","25.0100166666667","6500400","永和區"
"234086","338-UY","2017/09/12 18:29:29","新北市永和區永貞路19號","121.52103","25.0071016666667","6500400","永和區"
"234070","552-UM","2017/09/12 18:20:33","新北市永和區福和路1號","121.525726666667","25.009645","6500400","永和區"
"234017","745-BX","2017/09/12 18:29:27","新北市永和區福和路1號","121.526533333333","25.0099183333333","6500400","永和區"
"234042","862-TW","2017/09/12 18:29:35","新北市永和區福和路10巷1號","121.52456","25.0087033333333","6500400","永和區"
"234026","9372-KE","2017/09/12 18:29:33","新北市永和區永貞路417巷25號","121.506025","25.0090033333333","6500400","永和區"
"234011","9373-KE","2017/09/12 18:29:31","新北市永和區保安路132號","121.508945","25.0153283333333","6500400","永和區"
"249005","172-UM","2017/09/12 18:29:25","新北市八里區中華路三段98-1號","121.392511666667","25.1369583333333","6502300","八里區"
"249001","173-UM","2017/09/12 18:29:37","新北市八里區龍米路一段130號","121.453021666667","25.1254133333333","6502300","八里區"
"249004","303-UY","2017/09/12 18:29:39","新北市八里區忠孝路86號","121.426063333333","25.16045","6502300","八里區"
"249002","305-UY","2017/09/12 18:29:28","新北市八里區龍形三街17號","121.448483333333","25.13171","6502300","八里區"
"248014","025-BX","2017/09/12 18:29:24","新北市五股區自強路90巷19號","121.432223333333","25.07209","6501500","五股區"
"248016","026-BX","2017/09/12 18:29:38","新北市五股區凌雲路一段83巷22弄1號","121.449888333333","25.1007983333333","6501500","五股區"
"248006","077-UY","2017/09/12 18:29:31","新北市五股區四維路25號","121.467093333333","25.0706","6501500","五股區"
"248008","095-VK","2017/09/12 18:29:35","新北市五股區四維路185巷42弄2號","121.463351666667","25.07707","6501500","五股區"
"248020","225-UY","2017/09/12 18:29:23","新北市五股區孝義路55巷5號","121.451898333333","25.1121366666667","6501500","五股區"
"248012","247-BX","2017/09/12 18:29:25","新北市五股區御成路145號","121.44097","25.0942816666667","6501500","五股區"
"248010","272-BY","2017/09/12 18:29:25","新北市五股區水碓路1-1號","121.433978333333","25.0719816666667","6501500","五股區"
"248004","677-BX","2017/09/12 18:29:38","新北市五股區工商路148-5號","121.43359","25.087305","6501500","五股區"
"248002","678-BX","2017/09/12 18:29:39","新北市五股區西雲路167-1號","121.446915","25.0948583333333","6501500","五股區"
"234023","9380-KE","2017/09/12 18:29:24","新北市永和區福和路1號","121.525685","25.009455","6500400","永和區"
"234077","969-R7","2017/09/12 18:29:35","新北市永和區福和路14號","121.52436","25.0086183333333","6500400","永和區"
"232011","375-UM","2017/09/12 18:14:04","新北市坪林區坪雙路一段43號","121.711716666667","24.9424516666667","6502000","坪林區"
"244013","069-UM","2017/09/12 18:29:38","新北市林口區中山路299號","121.384276666667","25.0803016666667","6501700","林口區"
"244007","080-UY","2017/09/12 18:29:25","新北市林口區後湖11號","121.38714","25.09767","6501700","林口區"
"244019","403-UM","2017/09/12 18:29:32","新北市林口區麗園路54號","121.37369","25.0696866666667","6501700","林口區"
"244009","410-SL","2017/09/12 18:29:33","新北市林口區文林一街115巷22號","121.378886666667","25.08773","6501700","林口區"
"244023","483-VK","2017/09/12 18:29:31","新北市林口區仁愛路二段102號","121.383583333333","25.074935","6501700","林口區"
"244017","485-VK","2017/09/12 18:29:28","新北市林口區八德路62號","121.365888333333","25.065645","6501700","林口區"
"244011","656-BX","2017/09/12 18:29:24","新北市林口區中正路212號","121.390638333333","25.0777366666667","6501700","林口區"
"244025","837-TS","2017/09/12 18:29:23","新北市林口區南勢四街216巷1號","121.356703333333","25.0735716666667","6501700","林口區"
"244021","838-TS","2017/09/12 18:29:34","新北市林口區自強四街12號","121.39914","25.0767283333333","6501700","林口區"
"243013","AAD-798","2017/09/12 18:29:36","新北市泰山區工專路65號","121.422186666667","25.040425","6501600","泰山區"
"243012","646-TV","2017/09/12 18:29:32","新北市泰山區泰林路二段416號","121.427205","25.0643533333333","6501600","泰山區"
"222003","436-BY","2017/09/12 18:29:24","新北市深坑區旺耽路39巷13號","121.62794","25.00375","6501800","深坑區"
"222002","659-BX","2017/09/12 18:29:30","新北市深坑區雲鄉路133號","121.622878333333","24.998085","6501800","深坑區"
"222001","696-SL","2017/09/12 18:29:32","新北市深坑區北深路一段232號","121.630351666667","25.0089516666667","6501800","深坑區"
"231041","002-UM","2017/09/12 18:29:35","新北市新店區安華路28-1號","121.519716666667","24.9609566666667","6500600","新店區"
"231059","046-UY","2017/09/12 18:29:40","新北市新店區安華路28-1號","121.519738333333","24.960945","6500600","新店區"
"231061","047-UY","2017/09/12 18:29:33","新北市新店區安華路28-1號","121.519105","24.9608866666667","6500600","新店區"
"231060","106-UY","2017/09/12 18:29:26","新北市新店區安華路28-1號","121.51977","24.9610216666667","6500600","新店區"
"231051","107-UY","2017/09/12 18:29:21","新北市新店區安華路28-1號","121.519433333333","24.9612916666667","6500600","新店區"
"231048","108-UY","2017/09/12 18:29:27","新北市新店區安華路28-1號","121.519521666667","24.96134","6500600","新店區"
"231053","187-VK","2017/09/12 18:29:33","新北市新店區北宜路一段179號","121.544813333333","24.9530583333333","6500600","新店區"
"231069","189-VK","2017/09/12 12:04:36","新北市新店區安華路28-1號","121.519781666667","24.961145","6500600","新店區"
"231050","215-TC","2017/09/12 18:29:23","新北市新店區安華路28-1號","121.519841666667","24.9613233333333","6500600","新店區"
"231057","256-BX","2017/09/12 18:29:38","新北市新店區環河路29巷1號","121.537198333333","24.9613666666667","6500600","新店區"
"231063","268-BY","2017/09/12 18:29:35","新北市新店區安華路28-1號","121.519491666667","24.9606316666667","6500600","新店區"
"231046","278-BY","2017/09/12 18:29:39","新北市新店區直潭七街60號","121.53226","24.9399083333333","6500600","新店區"
"231058","3712-VJ","2017/09/12 18:29:33","新北市新店區新店後街92號","121.537611666667","24.9550366666667","6500600","新店區"
"231055","3713-VJ","2017/09/12 18:29:09","新北市新店區中正路128巷12號","121.542546666667","24.9719183333333","6500600","新店區"
"231056","4716-K9","2017/09/12 18:29:41","新北市新店區中正路418巷21號","121.535023333333","24.9787","6500600","新店區"
"231067","4772-VM","2017/09/12 18:29:27","新北市新店區安華路28-1號","121.519281666667","24.9605916666667","6500600","新店區"
"231065","512-UM","2017/09/12 18:29:24","新北市新店區安華路28-1號","121.519388333333","24.961325","6500600","新店區"
"231054","513-UM","2017/09/12 18:29:29","新北市新店區安華路28-1號","121.519846666667","24.961335","6500600","新店區"
"231064","515-UM","2017/09/12 16:33:07","新北市新店區安華路28-1號","121.519723333333","24.9611733333333","6500600","新店區"
"231042","616-UM","2017/09/12 18:29:33","新北市新店區安華路28-1號","121.519645","24.9606983333333","6500600","新店區"
"231045","617-UM","2017/09/12 18:29:34","新北市新店區安華路28-1號","121.519435","24.9610616666667","6500600","新店區"
"231040","619-UM","2017/09/12 18:29:24","新北市新店區安華路28-1號","121.519503333333","24.9608816666667","6500600","新店區"
"231049","719-UM","2017/09/12 18:29:36","新北市新店區安華路28-1號","121.51958","24.9614016666667","6500600","新店區"
"231062","720-UM","2017/09/12 18:29:38","新北市新店區安華路28-1號","121.519328333333","24.9612966666667","6500600","新店區"
"231044","897-TW","2017/09/12 18:29:25","新北市新店區安華路28-1號","121.519551666667","24.9608466666667","6500600","新店區"
"231043","899-TW","2017/09/12 18:29:28","新北市新店區安華路28-1號","121.519161666667","24.9608183333333","6500600","新店區"
"231066","AKT-0513","2017/09/12 18:29:28","新北市新店區安華路28-1號","121.519451666667","24.9606366666667","6500600","新店區"
"235066","003-UY","2017/09/12 18:29:35","新北市中和區中山路二段119號","121.502881666667","25.0036133333333","6500300","中和區"
"235064","005-UY","2017/09/12 18:29:40","新北市中和區圓通路207號","121.497055","24.9943683333333","6500300","中和區"
"235063","006-UY","2017/09/12 18:29:33","新北市中和區連城路347巷16弄8-3號","121.48793","24.995085","6500300","中和區"
"235039","097-UM","2017/09/12 18:29:27","新北市中和區安平路138號","121.5122","24.9980516666667","6500300","中和區"
"235065","098-UM","2017/09/12 18:29:41","新北市中和區莊敬路49巷18號","121.501595","25.006065","6500300","中和區"
"235040","150-BY","2017/09/12 18:29:28","新北市中和區安平路38號","121.509748333333","24.9948933333333","6500300","中和區"
"235058","151-BY","2017/09/12 18:29:34","新北市中和區圓通路369巷53-5號","121.490883333333","24.98462","6500300","中和區"
"235055","183-VK","2017/09/12 18:29:26","新北市中和區中山路三段38號","121.478785","25.0059366666667","6500300","中和區"
"235038","185-VK","2017/09/12 18:29:41","新北市中和區秀朗路三段128巷19弄8號","121.52338","24.9933283333333","6500300","中和區"
"235049","186-VK","2017/09/12 18:29:38","新北市中和區景安路120巷3號","121.505261666667","24.9947883333333","6500300","中和區"
"235067","255-BX","2017/09/12 18:29:25","新北市中和區連城路308號","121.483673333333","24.996405","6500300","中和區"
"235044","293-VK","2017/09/12 18:29:36","新北市中和區中興街134號","121.499861666667","24.9921216666667","6500300","中和區"
"235072","301-VK","2017/09/12 18:29:37","新北市中和區錦和路174號","121.48992","24.995655","6500300","中和區"
"235043","352-BY","2017/09/12 18:29:22","新北市中和區景平路301號","121.50667","24.993155","6500300","中和區"
"235051","376-QA","2017/09/12 18:29:28","新北市中和區興南路二段142巷25弄4號","121.502941666667","24.9838316666667","6500300","中和區"
"235068","377-QA","2017/09/12 18:29:23","新北市中和區錦和路350-1號","121.490513333333","24.9935483333333","6500300","中和區"
"235061","378-QA","2017/09/12 18:29:37","新北市中和區國光街215巷24弄2-2號","121.466693333333","25.0003","6500300","中和區"
"235050","4979-A6","2017/09/12 18:29:25","新北市中和區景新街418巷35號","121.512388333333","24.98829","6500300","中和區"
"235069","4980-A6","2017/09/12 18:29:33","新北市中和區連城路87號","121.496716666667","25.000245","6500300","中和區"
"235042","551-UM","2017/09/12 18:29:28","新北市中和區自立路56巷21號","121.522453333333","24.9915683333333","6500300","中和區"
"235070","558-UM","2017/09/12 18:29:25","新北市中和區圓通路107號","121.499493333333","24.9965783333333","6500300","中和區"
"235045","565-BX","2017/09/12 18:29:24","新北市中和區南山路236巷20弄8號","121.505741666667","24.9895","6500300","中和區"
"235054","640-BX","2017/09/12 18:29:33","新北市中和區民享街119巷2號","121.47447","24.998805","6500300","中和區"
"235060","647-TV","2017/09/12 18:29:30","新北市中和區員山路75號","121.48085","24.9940366666667","6500300","中和區"
"235047","732-UM","2017/09/12 18:29:24","新北市中和區南山路300號","121.507848333333","24.9871333333333","6500300","中和區"
"235046","733-UM","2017/09/12 18:29:40","新北市中和區中正路637巷52弄1號","121.485575","24.9934966666667","6500300","中和區"
"235062","800-TS","2017/09/12 18:29:36","新北市中和區景平路989巷1-1號","121.495765","25.005335","6500300","中和區"
"235057","801-TS","2017/09/12 18:29:29","新北市中和區民享街97巷21號","121.475388333333","24.9995183333333","6500300","中和區"
"235052","805-TS","2017/09/12 18:29:32","新北市中和區興南路二段96號","121.5051","24.9841583333333","6500300","中和區"
"235048","896-TW","2017/09/12 18:29:16","新北市中和區中正路175號","121.497575","24.9936033333333","6500300","中和區"
"235053","900-TW","2017/09/12 18:29:24","新北市中和區員山路77巷11弄5號","121.48021","24.9935766666667","6500300","中和區"
"235056","911-UM","2017/09/12 18:29:20","新北市中和區員山路611巷5弄3號","121.478041666667","25.0112283333333","6500300","中和區"
"235037","AAC-213","2017/09/12 18:29:30","新北市中和區景新街383巷50號","121.514471666667","24.9909216666667","6500300","中和區"
"235059","AAC-215","2017/09/12 16:43:03","新北市中和區員山路36巷16-3號","121.484948333333","24.9912066666667","6500300","中和區"
"247010","339-TH","2017/09/12 18:29:36","新北市八里區下罟子1-14號","121.389523333333","25.142225","6501400","蘆洲區"
"247008","053-VK","2017/09/12 18:29:28","新北市林口區太平里180號","121.367015","25.1351","6501400","蘆洲區"
"226004","205-ST","2017/09/12 18:29:34","新北市平溪區石底里石底街93-1號","121.731635","25.0227316666667","6502400","平溪區"
"228001","212-TW","2017/09/12 18:29:40","新北市貢寮區仁理村仁和路92號","121.922823333333","25.0504333333333","6502600","貢寮區"
"228002","585-TW","2017/09/12 18:29:27","新北市貢寮區福連里香蘭街16-2號","121.983426666667","25.0216533333333","6502600","貢寮區"
"228003","828-UM","2017/09/12 18:29:28","新北市貢寮區和美里和美街44-1號","121.914886666667","25.09236","6502600","貢寮區"
"224006","676-BX","2017/09/12 18:29:35","新北市瑞芳區明燈路二段79號","121.81039","25.1081983333333","6501200","瑞芳區"
"224002","639-TC","2017/09/12 16:41:15","新北市瑞芳區明燈路二段46號","121.80953","25.1081266666667","6501200","瑞芳區"
"224009","285-BY","2017/09/12 18:29:33","新北市瑞芳區祈堂路184號","121.857686666667","25.1095366666667","6501200","瑞芳區"
"224008","275-VK","2017/09/12 18:29:22","新北市瑞芳區逢甲路204號","121.80681","25.1101333333333","6501200","瑞芳區"
"224007","273-VK","2017/09/12 18:29:31","新北市瑞芳區大埔路吉慶公園城34號","121.764285","25.09972","6501200","瑞芳區"
"224005","271-BY","2017/09/12 18:29:30","新北市瑞芳區台電新村142號","121.81147","25.1280633333333","6501200","瑞芳區"
"227009","642-TC","2017/09/12 18:29:21","新北市雙溪區牡丹里牡丹137號","121.851148333333","25.059085","6502500","雙溪區"
"227003","030-BX","2017/09/12 18:29:30","新北市雙溪區魚行里新店76號","121.871911666667","25.02658","6502500","雙溪區"
"253005","032-BX","2017/09/12 18:29:27","新北市石門區老崩山10-7號","121.55249","25.2908966666667","6502200","石門區"
"253006","295-VK","2017/09/12 18:29:26","新北市石門區公地16號","121.545758333333","25.2902466666667","6502200","石門區"
"208002","742-BX","2017/09/12 18:29:25","新北市金山區金包里街135號","121.636708333333","25.2224666666667","6502700","金山區"
"208003","665-BX","2017/09/12 18:29:38","新北市金山區中山路289號","121.636103333333","25.2233066666667","6502700","金山區"
"208001","761-BX","2017/09/12 18:29:33","新北市金山區文化二路4號","121.636851666667","25.22462","6502700","金山區"
"251004","009-UM","2017/09/12 18:29:41","新北市淡水區民族路29巷2弄6號","121.462628333333","25.1369666666667","6501000","淡水區"
"251002","012-UM","2017/09/12 18:29:35","新北市淡水區竿蓁二街21號","121.45325","25.1631166666667","6501000","淡水區"
"251014","180-VK","2017/09/12 18:29:39","新北市淡水區南平28號","121.492515","25.21561","6501000","淡水區"
"251008","181-VK","2017/09/12 18:29:31","新北市淡水區北投子87-3號","121.46925","25.1791816666667","6501000","淡水區"
"251010","413-VK","2017/09/12 18:29:30","新北市淡水區沙崙路181巷2-2號","121.424198333333","25.18419","6501000","淡水區"
"251012","441-VK","2017/09/12 18:29:23","新北市淡水區北新路一段163號","121.45899","25.182285","6501000","淡水區"
"251016","442-VK","2017/09/12 18:29:32","新北市淡水區下圭柔山114-11號","121.445365","25.2101166666667","6501000","淡水區"
"251001","559-UM","2017/09/12 18:29:33","新北市淡水區自強路347號","121.464","25.132885","6501000","淡水區"
"251006","561-UM","2017/09/12 18:29:38","新北市淡水區中山北路一段156號","121.443931666667","25.178155","6501000","淡水區"
"251011","650-BX","2017/09/12 18:29:31","新北市淡水區中正東路8號","121.447945","25.166585","6501000","淡水區"
"251003","766-UM","2017/09/12 18:29:38","新北市淡水區北投子1-1號","121.447325","25.18065","6501000","淡水區"
"207003","550-UM","2017/09/12 18:29:27","新北市萬里區野柳里港東路155號","121.689786666667","25.2051816666667","6502800","萬里區"
"207004","225-TW","2017/09/12 18:29:39","新北市萬里區萬里里瑪鋉路272-1號","121.688911666667","25.180905","6502800","萬里區"
"252003","249-BX","2017/09/12 18:29:28","新北市三芝區後厝里北勢子42-1號","121.471643333333","25.25236","6502100","三芝區"
"252001","292-VK","2017/09/12 18:29:28","新北市三芝區中興街二段2號","121.498368333333","25.2566516666667","6502100","三芝區"
"237004","078-UY","2017/09/12 18:29:23","新北市三峽區金敏5號","121.385431666667","24.8751166666667","6500900","三峽區"
"237007","153-BY","2017/09/12 18:29:35","新北市三峽區中正路三段7號","121.35201","24.90359","6500900","三峽區"
"237009","210-TH","2017/09/12 18:29:24","新北市三峽區大同路289號","121.365578333333","24.9252966666667","6500900","三峽區"
"237013","252-BX","2017/09/12 18:29:36","新北市三峽區光明路69巷25號","121.376578333333","24.9292616666667","6500900","三峽區"
"237012","275-BY","2017/09/12 18:29:32","新北市三峽區三樹路70號","121.378051666667","24.938265","6500900","三峽區"
"237008","302-VK","2017/09/12 18:29:29","新北市三峽區白雞68-26號","121.39025","24.908855","6500900","三峽區"
"237014","433-BY","2017/09/12 18:29:29","新北市三峽區信義街1號","121.370876666667","24.9361366666667","6500900","三峽區"
"237006","5529-G3","2017/09/12 18:29:29","新北市三峽區溪東路315巷58號","121.411986666667","24.9311716666667","6500900","三峽區"
"237011","572-TV","2017/09/12 18:03:22","新北市三峽區橫溪路1號","121.396035","24.9361883333333","6500900","三峽區"
"237016","649-BX","2017/09/12 18:29:41","新北市三峽區紫微路19-1號","121.42521","24.920705","6500900","三峽區"
"237005","AKY-6261","2017/09/12 18:29:28","新北市三峽區民族街5巷68號","121.369935","24.932685","6500900","三峽區"
"236070","105-UM","2017/09/12 18:29:40","新北市土城區永豐路356號","121.47443","24.97528","6501300","土城區"
"236043","107-UM","2017/09/12 18:29:35","新北市土城區裕民路67巷13號","121.449895","24.98839","6501300","土城區"
"236079","166-UM","2017/09/12 18:29:25","新北市土城區中央路四段27巷10弄2號","121.424681666667","24.96184","6501300","土城區"
"236031","253-BX","2017/09/12 18:29:28","新北市土城區水源街81巷6號","121.439485","24.9762883333333","6501300","土城區"
"236027","269-VK","2017/09/12 18:29:36","新北市土城區南天母路135巷34號","121.448795","24.9543883333333","6501300","土城區"
"236015","270-VK","2017/09/12 18:29:33","新北市土城區青雲路39巷7號","121.460233333333","24.9873833333333","6501300","土城區"
"236038","271-VK","2017/09/12 18:29:24","新北市土城區青雲路483巷13弄5號","121.459976666667","24.9736983333333","6501300","土城區"
"236023","401-BY","2017/09/12 18:29:38","新北市土城區永豐路202巷7號","121.466295","24.9832533333333","6501300","土城區"
"236059","912-UM","2017/09/12 18:29:28","新北市土城區中央路四段466號","121.409948333333","24.9506066666667","6501300","土城區"
"236049","913-UM","2017/09/12 18:29:25","新北市土城區青雲路491號","121.45879","24.9735516666667","6501300","土城區"
"236063","915-UM","2017/09/12 18:29:35","新北市土城區延壽路75巷21弄2號","121.468788333333","24.9921683333333","6501300","土城區"
"236055","AAC-216","2017/09/12 18:29:28","新北市土城區中華路二段87-1號","121.439375","24.9779766666667","6501300","土城區"
"242032","AAC-296","2017/09/12 18:29:24","新北市新莊區新泰路277巷7號","121.445361666667","25.04025","6500500","新莊區"
"242029","986-R7","2017/09/12 18:29:39","新北市新莊區中平路202-1號","121.444751666667","25.0487983333333","6500500","新莊區"
"242051","751-BX","2017/09/12 18:29:30","新北市新莊區環漢路四段1號","121.434651666667","25.0001933333333","6500500","新莊區"
"242025","615-BX","2017/09/12 18:29:41","新北市新莊區五工路86號","121.457315","25.0639616666667","6500500","新莊區"
"242044","497-BY","2017/09/12 18:29:35","新北市新莊區中正路新旺巷43號","121.416491666667","25.0225383333333","6500500","新莊區"
"242037","442-UM","2017/09/12 18:29:42","新北市新莊區裕民街19巷40號","121.419593333333","25.0235883333333","6500500","新莊區"
"242054","440-UM","2017/09/12 18:29:38","新北市新莊區大安路10巷1號","121.431235","25.0062283333333","6500500","新莊區"
"242042","400-BY","2017/09/12 18:29:40","新北市新莊區天祥街70號","121.416","25.0293583333333","6500500","新莊區"
"242061","362-BY","2017/09/12 18:29:22","新北市新莊區新樹路138-1號","121.43533","25.0234683333333","6500500","新莊區"
"242058","353-BY","2017/09/12 18:29:36","新北市新莊區中正路897-10號","121.411598333333","25.0216333333333","6500500","新莊區"
"242046","172-VK","2017/09/12 18:29:40","新北市新莊區中正路829巷19號","121.421103333333","25.0276166666667","6500500","新莊區"
"242056","349-TH","2017/09/12 18:29:29","新北市新莊區瓊泰路77巷16號","121.442516666667","25.02938","6500500","新莊區"
"242011","351-TH","2017/09/12 18:29:23","新北市新莊區新泰路528號","121.441963333333","25.047225","6500500","新莊區"
"238015","755-BX","2017/09/12 18:29:23","新北市樹林區啟智街173巷2號","121.415706666667","24.9876316666667","6500700","樹林區"
"238023","601-UM","2017/09/12 18:29:33","新北市樹林區忠義街27巷1號","121.409761666667","25.01423","6500700","樹林區"
"238019","599-UM","2017/09/12 18:29:24","新北市樹林區八德街82號","121.419983333333","24.9814033333333","6500700","樹林區"
"238018","571-TV","2017/09/12 18:29:37","新北市樹林區保安街一段16巷23號","121.428205","24.9941416666667","6500700","樹林區"
"238024","5061-A6","2017/09/12 18:29:31","新北市樹林區育英街6號","121.422815","24.989045","6500700","樹林區"
"238021","KEA-2217","2017/09/12 18:29:31","新北市樹林區柑園街二段175號","121.380375","24.953045","6500700","樹林區"
"238025","303-VK","2017/09/12 18:29:27","新北市樹林區保安二街143號","121.422498333333","24.9953083333333","6500700","樹林區"
"238017","283-BY","2017/09/12 18:29:23","新北市樹林區光榮街79號","121.412045","25.0029933333333","6500700","樹林區"
"238014","282-BY","2017/09/12 18:29:23","新北市樹林區大安路111巷11號","121.423066666667","24.9976316666667","6500700","樹林區"
"238020","268-VK","2017/09/12 18:29:36","新北市樹林區三俊街14號","121.411201666667","25.015425","6500700","樹林區"
"238026","172-UY","2017/09/12 18:29:26","新北市樹林區八德街626號","121.397021666667","24.9697183333333","6500700","樹林區"
"238016","169-UY","2017/09/12 18:29:24","新北市樹林區文化街23號","121.419288333333","24.9876666666667","6500700","樹林區"
"239007","AAC-297","2017/09/12 18:29:24","新北市鶯歌區中正一路478號","121.366523333333","24.956835","6500800","鶯歌區"
"239006","891-R6","2017/09/12 18:29:26","新北市鶯歌區鶯桃路296巷53號","121.335886666667","24.96132","6500800","鶯歌區"
"239008","527-UM","2017/09/12 18:29:26","新北市鶯歌區國際一路14號","121.336191666667","24.9765383333333","6500800","鶯歌區"
"239005","526-UM","2017/09/12 18:29:41","新北市鶯歌區鳳吉二街154號","121.32883","24.9751016666667","6500800","鶯歌區"
"239001","417-VK","2017/09/12 18:29:40","新北市鶯歌區中正三路147巷2-1號","121.336833333333","24.9395333333333","6500800","鶯歌區"
"239003","360-BY","2017/09/12 18:29:39","新北市鶯歌區福安街9巷2號","121.335288333333","24.96511","6500800","鶯歌區"
"239002","359-BY","2017/09/12 18:29:30","新北市鶯歌區中山路300號","121.342888333333","24.9574516666667","6500800","鶯歌區"
"239004","193-VK","2017/09/12 18:29:29","新北市鶯歌區國中街181號","121.3388","24.93958","6500800","鶯歌區"
"221036","130-UY","2017/09/12 18:29:31","新北市汐止區長興街一段6號","121.66963","25.0785666666667","6501100","汐止區"
"221015","131-UY","2017/09/12 18:29:36","新北市汐止區吉祥街26號","121.66776","25.08107","6501100","汐止區"
"221010","269-BY","2017/09/12 18:29:21","新北市汐止區汐萬路二段345號","121.644166666667","25.0907916666667","6501100","汐止區"
"221012","276-VK","2017/09/12 13:18:18","新北市汐止區汐萬路一段256巷3號","121.653461666667","25.0746133333333","6501100","汐止區"
"221031","277-VK","2017/09/12 18:29:26","新北市汐止區光復街7巷3號","121.639368333333","25.0587966666667","6501100","汐止區"
"221012","278-VK","2017/09/12 18:29:20","新北市汐止區保長路147巷2號","121.675673333333","25.0769516666667","6501100","汐止區"
"221023","279-VK","2017/09/12 18:29:30","新北市汐止區康寧街504號","121.63308","25.0685716666667","6501100","汐止區"
"221032","280-BY","2017/09/12 18:29:22","新北市汐止區福山街58巷15號","121.618248333333","25.045975","6501100","汐止區"
"221027","281-BY","2017/09/12 18:29:25","新北市汐止區和平街46巷22號","121.662568333333","25.071795","6501100","汐止區"
"221038","297-VK","2017/09/12 18:29:35","新北市汐止區汐萬路一段144-2號","121.653063333333","25.0710866666667","6501100","汐止區"
"221029","298-VK","2017/09/12 18:29:42","新北市汐止區樟樹一路272-4號","121.642721666667","25.068725","6501100","汐止區"
"221021","299-VK","2017/09/12 18:29:39","新北市汐止區新台五路一段194號","121.655255","25.0629083333333","6501100","汐止區"
"221008","358-BY","2017/09/12 18:29:29","新北市汐止區康寧街901號","121.651455","25.0750683333333","6501100","汐止區"
"221035","622-UM","2017/09/12 18:29:33","新北市汐止區大同路二段45號","121.648131666667","25.0629033333333","6501100","汐止區"
"221025","623-UM","2017/09/12 18:29:40","新北市汐止區仁愛路122巷13號","121.663551666667","25.0633","6501100","汐止區"
"221033","647-BX","2017/09/12 18:29:28","新北市汐止區宜興街32號","121.621728333333","25.0418283333333","6501100","汐止區"
"221002","707-TV","2017/09/12 18:29:34","新北市汐止區福德一路188-1號","121.634811666667","25.0654083333333","6501100","汐止區"
"221018","753-BX","2017/09/12 18:29:36","新北市汐止區茄苳路204號","121.670483333333","25.0690283333333","6501100","汐止區"
"220079","145-BY","2017/09/12 18:29:18","新北市板橋區板城路407號","121.447471666667","24.9951833333333","6500100","板橋區"
"220082","610-BX","2017/09/12 18:29:22","新北市板橋區華東街1-10號","121.448283333333","24.99496","6500100","板橋區"
"220056","276-BY","2017/09/12 18:29:27","新北市板橋區華東街1-9號","121.448133333333","24.9948883333333","6500100","板橋區"
"220071","283-VK","2017/09/12 18:29:42","新北市板橋區華東街1-9號","121.448068333333","24.9949066666667","6500100","板橋區"
"220083","286-VK","2017/09/12 18:29:25","新北市板橋區華東街1-10號","121.44837","24.9950433333333","6500100","板橋區"
"220075","297-UM","2017/09/12 18:29:31","新北市板橋區華東街1-9號","121.44817","24.99499","6500100","板橋區"
"220064","486-VK","2017/09/12 18:29:35","新北市板橋區華東街1-10號","121.448298333333","24.99492","6500100","板橋區"
"220035","560-BX","2017/09/12 18:29:35","新北市板橋區南雅南路二段90號","121.453566666667","25.0014266666667","6500100","板橋區"
"220084","568-UM","2017/09/12 18:29:38","新北市板橋區華東街1-9號","121.448153333333","24.9949733333333","6500100","板橋區"
"220063","609-BX","2017/09/12 18:29:27","新北市板橋區民生路二段171號","121.469783333333","25.0201483333333","6500100","板橋區"
"220073","985-R7","2017/09/12 18:29:21","新北市板橋區華東街1-10號","121.448328333333","24.99499","6500100","板橋區"
