"lineid","car","time","location","longitude","latitude","cityid","cityname"
"244002","248-BX","2017/07/11 08:17:37","新北市林口區下福里80號","121.309021666667","25.116485","6501700","林口區"
"222004","289-BY","2017/07/11 08:17:41","新北市深坑區昇高坑路12號","121.625591666667","24.998855","6501800","深坑區"
"231009","188-VK","2017/07/11 08:17:50","新北市新店區北宜路一段123-5號","121.54086","24.953505","6500600","新店區"
"231007","189-VK","2017/07/11 08:18:01","新北市新店區新潭路一段22巷10號","121.522558333333","24.943015","6500600","新店區"
"235043","352-BY","2017/07/11 08:18:11","新北市中和區興南路二段399巷1號","121.4987","24.9797183333333","6500300","中和區"
"247002","402-BY","2017/07/11 08:18:03","新北市蘆洲區集賢路271號","121.481158333333","25.083755","6501400","蘆洲區"
"226005","5620-A6","2017/07/11 08:17:59","新北市平溪區南山里乾坑10號","121.78968","25.0475133333333","6502400","平溪區"
"226002","7418-A5","2017/07/11 08:18:07","新北市平溪區東勢里芊蓁林37號","121.75121","25.016355","6502400","平溪區"
"226003","AGD-0702","2017/07/11 08:18:10","新北市平溪區十分里十分街282號","121.779198333333","25.045425","6502400","平溪區"
"223006","022-BY","2017/07/11 08:18:02","新北市石碇區楓子林30號","121.642315","25.0095433333333","6501900","石碇區"
"223002","198-BX","2017/07/11 08:15:43","新北市石碇區北宜路五段80號","121.6465","24.951745","6501900","石碇區"
"223003","205-TH","2017/07/11 08:17:55","新北市石碇區北宜路六段塗潭巷9號","121.647848333333","24.9322166666667","6501900","石碇區"
"223008","406-TH","2017/07/11 08:18:11","新北市石碇區靜安路一段312號","121.692783333333","25.00661","6501900","石碇區"
"223001","437-BY","2017/07/11 08:18:08","新北市石碇區北宜路六段十三股巷1號","121.64856","24.948195","6501900","石碇區"
"223004","660-BX","2017/07/11 08:17:57","新北市石碇區石崁14-1號","121.655238333333","24.994135","6501900","石碇區"
"223007","661-BX","2017/07/11 08:18:01","新北市石碇區靜安路一段312號","121.692701666667","25.0065783333333","6501900","石碇區"
"223005","677-TV","2017/07/11 08:17:59","新北市石碇區碇坪路一段38號","121.654481666667","24.99632","6501900","石碇區"
"227006","282-VK","2017/07/11 08:17:56","新北市雙溪區牡丹里聖南12號","121.858381666667","25.051485","6502500","雙溪區"
"207002","749-BX","2017/07/11 08:05:26","新北市萬里區萬里里景美路10-1號","121.684988333333","25.1729083333333","6502800","萬里區"
"252004","249-BX","2017/07/11 08:18:03","新北市三芝區興華里楓子林45-1號","121.50176","25.20464","6502100","三芝區"
"252007","AAC-283","2017/07/11 00:10:39","新北市三芝區埔坪里埔頭坑41號","121.504461666667","25.26447","6502100","三芝區"
"237001","159-UY","2017/07/11 08:17:52","新北市三峽區三樹路199號","121.378025","24.9421533333333","6500900","三峽區"
"236008","165-UM","2017/07/11 08:17:35","新北市土城區青雲路318-1號","121.458961666667","24.977575","6501300","土城區"
"236002","339-SR","2017/07/11 08:17:56","新北市土城區龍泉路66-2號","121.415191666667","24.9420216666667","6501300","土城區"
"236006","498-BY","2017/07/11 08:17:52","新北市土城區永平街5號","121.42778","24.9630866666667","6501300","土城區"
