"lineid","car","time","location","longitude","latitude","cityid","cityname"
"222004","289-BY","2017/07/11 10:18:05","台北市文山區老泉街31-1號","121.561045","24.9773183333333","6501800","深坑區"
"231009","188-VK","2017/07/11 09:48:15","新北市新店區平廣路一段256號","121.507851666667","24.888335","6500600","新店區"
"231007","189-VK","2017/07/11 10:17:53","新北市新店區新潭路三段215巷25號","121.508103333333","24.9040983333333","6500600","新店區"
"247002","402-BY","2017/07/11 10:18:05","新北市蘆洲區民權路5號","121.476638333333","25.0857866666667","6501400","蘆洲區"
"227006","282-VK","2017/07/11 10:17:56","新北市雙溪區長源里柑腳18號","121.804758333333","25.0140316666667","6502500","雙溪區"
"227012","030-BX","2017/07/11 10:17:56","新北市坪林區鷺鶿岫4-2號","121.785653333333","24.95604","6502500","雙溪區"
"252007","AAC-283","2017/07/11 00:10:39","新北市三芝區埔坪里埔頭坑41號","121.504461666667","25.26447","6502100","三芝區"
