"lineid","car","time","location","longitude","latitude","cityid","cityname"
"222004","289-BY","2017/07/11 11:08:05","新北市樹林區佳園路三段97號","121.387528333333","24.952295","6501800","深坑區"
"231009","188-VK","2017/07/11 11:07:50","新北市新店區新烏路二段300號","121.548528333333","24.913015","6500600","新店區"
"231007","189-VK","2017/07/11 11:07:53","新北市新店區新潭路一段160巷17號","121.529656666667","24.9319016666667","6500600","新店區"
"247002","402-BY","2017/07/11 10:46:01","新北市五股區中興路三段3-6號","121.449515","25.0787783333333","6501400","蘆洲區"
"227006","282-VK","2017/07/11 11:08:08","新北市雙溪區共和里中山路42號","121.866506666667","25.0321066666667","6502500","雙溪區"
