"lineid","car","time","location","longitude","latitude","cityid","cityname"
"234044","148-BY","2017/07/11 13:18:06","新北市永和區得和路373巷14號","121.525028333333","25.0001616666667","6500400","永和區"
"234012","149-BY","2017/07/11 13:18:05","新北市永和區信義路57-1號","121.512861666667","25.0126116666667","6500400","永和區"
"234005","207-UY","2017/07/11 13:18:07","新北市中和區中山路二段13號","121.505181666667","25.0055416666667","6500400","永和區"
"234078","298-R6","2017/07/11 13:18:00","新北市永和區福和路7巷7-1號","121.525393333333","25.0077616666667","6500400","永和區"
"234036","336-UY","2017/07/11 13:18:05","新北市永和區民樂街35巷2號","121.527561666667","25.000905","6500400","永和區"
"234062","337-UY","2017/07/11 13:18:03","新北市永和區永元路17巷6弄2號","121.521341666667","25.00064","6500400","永和區"
"234084","338-UY","2017/07/11 13:18:08","新北市永和區永亨路7號","121.519405","25.0056566666667","6500400","永和區"
"234068","552-UM","2017/07/11 13:17:56","新北市永和區中正路666巷68號","121.519083333333","25.0090133333333","6500400","永和區"
"234052","553-UM","2017/07/11 13:17:58","新北市永和區中興街37號","121.516263333333","25.0118516666667","6500400","永和區"
"234015","745-BX","2017/07/11 13:18:02","新北市永和區環河西路一段95巷19弄3號","121.511766666667","25.0170716666667","6500400","永和區"
"234028","746-BX","2017/07/11 13:18:06","新北市永和區民生路33號","121.522648333333","24.998305","6500400","永和區"
"234060","AAD-866","2017/07/11 13:17:57","新北市永和區秀朗路一段120號","121.517081666667","25.0035783333333","6500400","永和區"
"234040","862-TW","2017/07/11 13:18:10","新北市永和區保平路151巷2弄2號","121.509998333333","25.005635","6500400","永和區"
"234048","863-TW","2017/07/11 13:18:09","新北市永和區保福路二段88巷20號","121.51164","25.0136266666667","6500400","永和區"
"234025","9371-KE","2017/07/11 13:18:03","新北市永和區豫溪街28巷1號","121.515316666667","25.0097216666667","6500400","永和區"
"234010","9373-KE","2017/07/11 13:18:07","新北市永和區文化路111號","121.512821666667","25.015255","6500400","永和區"
"248017","225-UY","2017/07/11 13:18:00","新北市五股區御史路160號","121.430213333333","25.102895","6501500","五股區"
"234022","9380-KE","2017/07/11 13:18:11","新北市永和區竹林路91巷18號","121.520418333333","25.0122916666667","6500400","永和區"
"234076","969-R7","2017/07/11 13:18:03","新北市永和區民有街61號","121.517603333333","24.9958783333333","6500400","永和區"
"234072","AAC-211","2017/07/11 13:18:00","新北市永和區竹林路23號","121.517201666667","25.0146433333333","6500400","永和區"
"234066","AAC-212","2017/07/11 13:18:06","新北市永和區保平路50巷8弄14號","121.511593333333","25.0077","6500400","永和區"
"234001","AAC-295","2017/07/11 13:15:27","新北市永和區保福路一段100號","121.511835","25.0106116666667","6500400","永和區"
"244002","248-BX","2017/07/11 13:17:52","新北市林口區文化二路一段413號","121.37208","25.0746866666667","6501700","林口區"
"243012","539-UM","2017/07/11 12:39:14","新北市泰山區黎明路25號","121.422011666667","25.0607916666667","6501600","泰山區"
"231030","001-UM","2017/07/11 13:18:09","新北市新店區安華路3號","121.519243333333","24.9597483333333","6500600","新店區"
"231002","002-UM","2017/07/11 13:18:05","新北市新店區安華路28-1號","121.519696666667","24.9608233333333","6500600","新店區"
"231025","0291-UT","2017/07/11 13:18:05","新北市新店區安康路一段285號","121.523323333333","24.9635816666667","6500600","新店區"
"231028","046-UY","2017/07/11 13:18:06","新北市新店區安華路28-1號","121.519703333333","24.9608633333333","6500600","新店區"
"231029","106-UY","2017/07/11 13:18:04","新北市新店區安華路28-1號","121.519598333333","24.9607116666667","6500600","新店區"
"231018","107-UY","2017/07/11 13:18:05","新北市新店區安康路一段319號","121.522151666667","24.9637416666667","6500600","新店區"
"231012","108-UY","2017/07/11 13:18:04","新北市新店區安康路一段75-1號","121.530056666667","24.9611583333333","6500600","新店區"
"231020","110-UY","2017/07/11 13:17:56","新北市新店區安康路一段96號","121.527545","24.9622933333333","6500600","新店區"
"231069","189-VK","2017/07/11 11:58:55","新北市新店區安華路28-1號","121.51961","24.9611616666667","6500600","新店區"
"231026","256-BX","2017/07/11 13:17:51","新北市新店區安華路28-1號","121.519686666667","24.9611266666667","6500600","新店區"
"231034","268-BY","2017/07/11 13:17:51","新北市新店區安華路28-1號","121.519481666667","24.960625","6500600","新店區"
"231010","278-BY","2017/07/11 13:18:00","新北市新店區安康路一段164-1號","121.525995","24.963055","6500600","新店區"
"231015","AAD-862","2017/07/11 13:18:01","新北市新店區安康路一段100號","121.527446666667","24.9623283333333","6500600","新店區"
"231027","3712-VJ","2017/07/11 13:18:05","新北市新店區北新路一段85號","121.538461666667","24.9611533333333","6500600","新店區"
"231024","3713-VJ","2017/07/11 13:17:55","新北市新店區安華路28-1號","121.519508333333","24.9607016666667","6500600","新店區"
"231038","4715-K9","2017/07/11 13:18:07","新北市新店區安華路28-1號","121.519383333333","24.9607666666667","6500600","新店區"
"231036","512-UM","2017/07/11 13:18:06","新北市新店區車子路20號","121.505361666667","24.95458","6500600","新店區"
"231023","513-UM","2017/07/11 13:18:07","新北市新店區安康路一段85號","121.529368333333","24.9614166666667","6500600","新店區"
"231035","515-UM","2017/07/11 13:18:10","新北市新店區安華路28-1號","121.519691666667","24.961455","6500600","新店區"
"231003","616-UM","2017/07/11 13:18:11","新北市新店區光明街231號","121.540295","24.96452","6500600","新店區"
"231006","617-UM","2017/07/11 13:18:00","新北市新店區安華路28-1號","121.519453333333","24.9610816666667","6500600","新店區"
"231001","619-UM","2017/07/11 13:18:04","新北市新店區安華路28-1號","121.519586666667","24.9609383333333","6500600","新店區"
"231013","719-UM","2017/07/11 13:17:59","新北市新店區安康路一段227號","121.525691666667","24.9630533333333","6500600","新店區"
"231032","720-UM","2017/07/11 13:18:06","新北市新店區安華路28-1號","121.519146666667","24.961255","6500600","新店區"
"231005","897-TW","2017/07/11 13:18:11","新北市新店區安華路28-1號","121.519648333333","24.9607166666667","6500600","新店區"
"231004","899-TW","2017/07/11 13:17:56","新北市新店區安華路28-1號","121.51913","24.960865","6500600","新店區"
"231037","AKT-0513","2017/07/11 13:18:07","新北市新店區安豐路48號","121.50051","24.9541916666667","6500600","新店區"
"235030","003-UY","2017/07/11 13:18:09","新北市中和區中山路二段132號","121.50231","25.00328","6500300","中和區"
"235028","005-UY","2017/07/11 13:18:03","新北市中和區中正路140號","121.499293333333","24.9937966666667","6500300","中和區"
"235020","096-UM","2017/07/11 13:17:51","新北市中和區員山路36巷16-3號","121.484588333333","24.991195","6500300","中和區"
"235003","097-UM","2017/07/11 13:17:53","新北市中和區中正路148號","121.499061666667","24.9937366666667","6500300","中和區"
"235029","098-UM","2017/07/11 13:18:02","新北市中和區莊敬路49巷20弄20號","121.50267","25.0058316666667","6500300","中和區"
"235004","150-BY","2017/07/11 13:17:56","新北市中和區景平路363號","121.504501666667","24.9933916666667","6500300","中和區"
"235022","151-BY","2017/07/11 13:17:54","新北市中和區圓通路367巷57弄2號","121.492538333333","24.9835316666667","6500300","中和區"
"235019","183-VK","2017/07/11 13:17:56","新北市中和區連城路469巷70弄2號","121.483423333333","24.9938216666667","6500300","中和區"
"235002","185-VK","2017/07/11 13:17:55","新北市中和區大智街7-3號","121.519625","24.9918683333333","6500300","中和區"
"235031","255-BX","2017/07/11 13:18:06","新北市中和區員山路146巷19號","121.482486666667","24.9968983333333","6500300","中和區"
"235036","301-VK","2017/07/11 13:18:05","新北市中和區員山路36巷12號","121.483938333333","24.9910866666667","6500300","中和區"
"235007","352-BY","2017/07/11 13:18:07","新北市中和區景平路502號","121.504151666667","24.993545","6500300","中和區"
"235015","376-QA","2017/07/11 13:17:52","新北市中和區興南路一段74號","121.510613333333","24.9900616666667","6500300","中和區"
"235032","377-QA","2017/07/11 13:17:52","新北市中和區員山路36巷16-3號","121.485008333333","24.99139","6500300","中和區"
"235025","378-QA","2017/07/11 13:18:03","新北市中和區華安街96號","121.468608333333","24.9956366666667","6500300","中和區"
"235014","4979-A6","2017/07/11 13:17:50","新北市中和區捷運路175號","121.50583","24.991325","6500300","中和區"
"235033","4980-A6","2017/07/11 13:18:10","新北市中和區連城路125號","121.496256666667","24.9990933333333","6500300","中和區"
"235006","551-UM","2017/07/11 13:17:51","新北市中和區大勇街25巷2號","121.517253333333","24.99336","6500300","中和區"
"235034","558-UM","2017/07/11 13:18:07","新北市中和區中正路283號","121.493766666667","24.9938183333333","6500300","中和區"
"235009","565-BX","2017/07/11 13:18:13","新北市中和區中正路412號","121.492055","24.993725","6500300","中和區"
"235018","640-BX","2017/07/11 13:17:53","新北市中和區莒光路207號","121.469955","24.99574","6500300","中和區"
"235024","647-TV","2017/07/11 13:17:53","新北市中和區員山路36巷16-3號","121.485035","24.9913983333333","6500300","中和區"
"235011","732-UM","2017/07/11 13:18:03","新北市中和區員山路36巷13號","121.484213333333","24.9908933333333","6500300","中和區"
"235035","783-BX","2017/07/11 13:18:12","新北市中和區永和路333巷1-6號","121.485143333333","25.0111916666667","6500300","中和區"
"235026","800-TS","2017/07/11 13:18:08","新北市中和區景平路999巷2號","121.49541","25.0060233333333","6500300","中和區"
"235005","802-TS","2017/07/11 13:17:59","新北市中和區景安路52號","121.50693","24.9980083333333","6500300","中和區"
"235012","896-TW","2017/07/11 13:17:51","新北市中和區員山路36巷16-2號","121.485276666667","24.9914416666667","6500300","中和區"
"235017","900-TW","2017/07/11 13:18:07","新北市中和區員山路36巷16-2號","121.485333333333","24.9914566666667","6500300","中和區"
"235027","911-UM","2017/07/11 13:18:09","新北市中和區員山路36巷16-2號","121.48519","24.9915433333333","6500300","中和區"
"235001","AAC-213","2017/07/11 13:18:01","新北市中和區景平路149號","121.513858333333","24.99215","6500300","中和區"
"235023","AAC-215","2017/07/11 13:18:08","新北市中和區員山路36巷16-3號","121.485045","24.9913433333333","6500300","中和區"
"220034","073-UY","2017/07/11 13:17:56","新北市板橋區華東街1-10號","121.448668333333","24.9950116666667","6500100","板橋區"
"247002","402-BY","2017/07/11 13:18:08","新北市蘆洲區中正路321號","121.466298333333","25.088645","6501400","蘆洲區"
"247015","001-UY","2017/07/11 13:18:05","新北市五股區中興路三段2巷10號","121.448676666667","25.0815583333333","6501400","蘆洲區"
"228004","212-TW","2017/07/11 13:17:55","新北市貢寮區吉林里內寮街35-2號","121.900678333333","24.9822816666667","6502600","貢寮區"
"228005","828-UM","2017/07/11 13:17:43","新北市貢寮區美豐里丹裡街33號","121.9158","25.05669","6502600","貢寮區"
"208004","AAC-292","2017/07/11 13:18:08","新北市金山區中正路110號","121.632798333333","25.22183","6502700","金山區"
"207002","749-BX","2017/07/11 13:18:00","新北市萬里區崁腳里崁腳路166號","121.645188333333","25.1562283333333","6502800","萬里區"
"207001","463-BY","2017/07/11 13:17:56","新北市萬里區龜吼里美崙路91號","121.685685","25.18495","6502800","萬里區"
"252005","AAC-283","2017/07/11 13:18:10","新北市三芝區八賢里八連溪39-1號","121.512336666667","25.237615","6502100","三芝區"
"236006","498-BY","2017/07/11 13:18:07","新北市土城區大安路138巷39號","121.434501666667","24.97209","6501300","土城區"
"242044","172-VK","2017/07/11 13:18:04","新北市新莊區中正路897-10號","121.411723333333","25.0216133333333","6500500","新莊區"
"238022","308-TH","2017/07/11 13:17:59","新北市樹林區八德街498號","121.400118333333","24.9702683333333","6500700","樹林區"
"221010","276-VK","2017/07/11 13:17:57","新北市汐止區汐萬路一段256巷3號","121.653211666667","25.0744816666667","6501100","汐止區"
"221032","280-BY","2017/07/11 13:18:12","新北市汐止區水源路一段56號","121.657355","25.06558","6501100","汐止區"
"221002","753-BX","2017/07/11 13:18:01","新北市汐止區福德一路392巷15-6號","121.62717","25.06141","6501100","汐止區"
"220030","610-BX","2017/07/11 13:18:03","新北市板橋區華東街1-10號","121.448281666667","24.9949366666667","6500100","板橋區"
"220011","609-BX","2017/07/11 13:18:07","新北市板橋區民生路二段22號","121.472738333333","25.0165266666667","6500100","板橋區"
"220022","895-R6","2017/07/11 13:17:59","新北市板橋區華東街1-10號","121.448561666667","24.9948966666667","6500100","板橋區"
