"lineid","car","time","location","longitude","latitude","cityid","cityname"
"234044","148-BY","2017/07/11 13:37:57","新北市永和區秀朗路二段97號","121.523286666667","25.0017166666667","6500400","永和區"
"234012","149-BY","2017/07/11 13:38:05","新北市永和區仁愛路243巷6號","121.509323333333","25.0115733333333","6500400","永和區"
"234005","207-UY","2017/07/11 13:38:07","新北市永和區永和路一段85號","121.513396666667","25.0073366666667","6500400","永和區"
"234078","298-R6","2017/07/11 13:38:00","新北市永和區林森路20巷7號","121.525823333333","25.0057216666667","6500400","永和區"
"234036","336-UY","2017/07/11 13:38:05","新北市永和區成功路二段129巷10-1號","121.527198333333","24.9982366666667","6500400","永和區"
"234062","337-UY","2017/07/11 13:38:03","新北市永和區秀朗路一段192巷6弄14號","121.519103333333","25.0023166666667","6500400","永和區"
"234084","338-UY","2017/07/11 13:38:08","新北市永和區永亨路148號","121.525301666667","25.003855","6500400","永和區"
"234068","552-UM","2017/07/11 13:37:56","新北市永和區竹林路29號","121.517605","25.014445","6500400","永和區"
"234052","553-UM","2017/07/11 13:37:58","新北市永和區竹林路39巷24弄8號","121.51909","25.0144633333333","6500400","永和區"
"234015","745-BX","2017/07/11 13:38:02","新北市永和區忠孝街26巷27弄1號","121.515241666667","25.0169983333333","6500400","永和區"
"234028","746-BX","2017/07/11 13:37:53","新北市永和區民生路69號","121.52281","24.9972233333333","6500400","永和區"
"234060","AAD-866","2017/07/11 13:37:57","新北市永和區永貞路180號","121.516461666667","25.0042566666667","6500400","永和區"
"234040","862-TW","2017/07/11 13:37:55","新北市永和區中和路305巷2弄2號","121.50669","25.0000316666667","6500400","永和區"
"234048","863-TW","2017/07/11 13:38:07","新北市永和區保安路41號","121.509733333333","25.016015","6500400","永和區"
"234025","9371-KE","2017/07/11 13:38:02","新北市永和區自由街56號","121.5137","25.005945","6500400","永和區"
"234010","9373-KE","2017/07/11 13:38:07","新北市永和區保福路二段163巷12號","121.508933333333","25.0147","6500400","永和區"
"248017","225-UY","2017/07/11 13:38:00","新北市五股區民義路二段50-28號","121.412541666667","25.10248","6501500","五股區"
"234022","9380-KE","2017/07/11 13:37:51","新北市永和區中正路662巷25號","121.517715","25.0088283333333","6500400","永和區"
"234076","969-R7","2017/07/11 13:38:03","新北市永和區民權路34號","121.520225","24.998865","6500400","永和區"
"234072","AAC-211","2017/07/11 13:38:00","新北市永和區竹林路179巷12號","121.521193333333","25.009815","6500400","永和區"
"234066","AAC-212","2017/07/11 13:38:06","新北市永和區中山路一段199號","121.509046666667","25.00866","6500400","永和區"
"234001","AAC-295","2017/07/11 13:35:27","新北市永和區自由街18號","121.514555","25.0066066666667","6500400","永和區"
"244002","248-BX","2017/07/11 13:37:52","新北市林口區南勢里59-8號","121.358465","25.0815383333333","6501700","林口區"
"243012","539-UM","2017/07/11 12:39:14","新北市泰山區黎明路25號","121.422011666667","25.0607916666667","6501600","泰山區"
"231030","001-UM","2017/07/11 13:38:09","新北市新店區安康路一段104號","121.52726","24.962505","6500600","新店區"
"231002","002-UM","2017/07/11 13:38:05","新北市新店區溪園路511號","121.523976666667","24.9770583333333","6500600","新店區"
"231025","0291-UT","2017/07/11 13:38:05","新北市新店區中央六街58號","121.527838333333","24.9757833333333","6500600","新店區"
"231028","046-UY","2017/07/11 13:38:06","新北市新店區安和路二段126號","121.519295","24.9715816666667","6500600","新店區"
"231029","106-UY","2017/07/11 13:38:04","新北市新店區安康路二段310號","121.50591","24.9581016666667","6500600","新店區"
"231018","107-UY","2017/07/11 13:38:05","新北市新店區三民路187號","121.535063333333","24.9755166666667","6500600","新店區"
"231012","108-UY","2017/07/11 13:38:04","新北市新店區德正街25巷1號","121.544341666667","24.9716333333333","6500600","新店區"
"231020","110-UY","2017/07/11 13:38:01","新北市新店區永興路132-3號","121.544518333333","24.9314933333333","6500600","新店區"
"231069","189-VK","2017/07/11 11:58:55","新北市新店區安華路28-1號","121.51961","24.9611616666667","6500600","新店區"
"231026","256-BX","2017/07/11 13:37:51","新北市新店區光明街119號","121.538986666667","24.961765","6500600","新店區"
"231034","268-BY","2017/07/11 13:38:11","新北市新店區車子路162號","121.504628333333","24.9463516666667","6500600","新店區"
"231010","278-BY","2017/07/11 13:38:00","新北市新店區平等街48巷17號","121.53534","24.9734566666667","6500600","新店區"
"231015","AAD-862","2017/07/11 13:38:01","新北市新店區竹林路2巷29弄7號","121.550356666667","24.95028","6500600","新店區"
"231027","3712-VJ","2017/07/11 13:38:05","新北市新店區新店路23號","121.540138333333","24.9527833333333","6500600","新店區"
"231024","3713-VJ","2017/07/11 13:37:55","新北市新店區中華路74號","121.538605","24.9708483333333","6500600","新店區"
"231038","4715-K9","2017/07/11 13:38:07","新北市新店區安華路30巷1號","121.519548333333","24.95925","6500600","新店區"
"231036","512-UM","2017/07/11 13:38:06","新北市新店區安祥路147巷46號","121.476616666667","24.9568083333333","6500600","新店區"
"231023","513-UM","2017/07/11 13:38:07","新北市新店區新店路155號","121.537036666667","24.9550116666667","6500600","新店區"
"231035","515-UM","2017/07/11 13:38:10","新北市新店區安忠路56巷6號","121.512876666667","24.9594916666667","6500600","新店區"
"231003","616-UM","2017/07/11 13:37:51","新北市新店區中正路71號","121.54351","24.96973","6500600","新店區"
"231006","617-UM","2017/07/11 13:38:00","新北市新店區光明街1-1號","121.53808","24.9591866666667","6500600","新店區"
"231001","619-UM","2017/07/11 13:38:04","新北市新店區中正路412號","121.534441666667","24.9776833333333","6500600","新店區"
"231013","719-UM","2017/07/11 13:37:59","新北市新店區中正路454-5號","121.53453","24.9790316666667","6500600","新店區"
"231032","720-UM","2017/07/11 13:38:06","新北市新店區安華路30巷12-1號","121.51794","24.95766","6500600","新店區"
"231005","897-TW","2017/07/11 13:38:11","新北市新店區寶中路72號","121.547855","24.9805683333333","6500600","新店區"
"231004","899-TW","2017/07/11 13:37:57","新北市新店區北新路二段18號","121.542791666667","24.9713233333333","6500600","新店區"
"231037","AKT-0513","2017/07/11 13:38:07","新北市新店區安康路二段416號","121.496623333333","24.9552583333333","6500600","新店區"
"235030","003-UY","2017/07/11 13:37:49","新北市中和區水源路10號","121.50373","25.00355","6500300","中和區"
"235028","005-UY","2017/07/11 13:38:03","新北市中和區連城路89巷7號","121.497131666667","24.9993816666667","6500300","中和區"
"235020","096-UM","2017/07/11 13:37:51","新北市中和區員山路466巷21弄16號","121.481005","25.0069316666667","6500300","中和區"
"235003","097-UM","2017/07/11 13:37:53","新北市中和區大勇街27巷18號","121.516605","24.9937583333333","6500300","中和區"
"235029","098-UM","2017/07/11 13:38:02","新北市中和區莊敬路33巷3弄2號","121.500006666667","25.00623","6500300","中和區"
"235004","150-BY","2017/07/11 13:37:56","新北市中和區安平路59號","121.509418333333","24.99513","6500300","中和區"
"235022","151-BY","2017/07/11 13:37:54","新北市中和區圓通路369巷36弄55號","121.490648333333","24.9838516666667","6500300","中和區"
"235019","183-VK","2017/07/11 13:37:56","新北市中和區莒光路120巷15弄2號","121.471658333333","25.0011616666667","6500300","中和區"
"235002","185-VK","2017/07/11 13:37:55","新北市中和區秀朗路三段128巷17弄41號","121.522923333333","24.9932233333333","6500300","中和區"
"235013","186-VK","2017/07/11 13:37:56","新北市中和區景平路506號","121.503956666667","24.99389","6500300","中和區"
"235031","255-BX","2017/07/11 13:38:06","新北市中和區新生街220巷4號","121.482956666667","24.9985033333333","6500300","中和區"
"235036","301-VK","2017/07/11 13:38:05","新北市中和區連城路245號","121.493623333333","24.9972066666667","6500300","中和區"
"235007","352-BY","2017/07/11 13:38:07","新北市中和區景平路185號","121.511588333333","24.992505","6500300","中和區"
"235015","376-QA","2017/07/11 13:37:52","新北市中和區興南路二段114巷10弄12號","121.504033333333","24.98485","6500300","中和區"
"235032","377-QA","2017/07/11 13:37:57","新北市中和區中正路211巷6號","121.496986666667","24.993405","6500300","中和區"
"235025","378-QA","2017/07/11 13:38:03","新北市中和區民享街90巷24號","121.473448333333","25.000125","6500300","中和區"
"235014","4979-A6","2017/07/11 13:38:10","新北市中和區景新街496巷28弄12號","121.512996666667","24.9859283333333","6500300","中和區"
"235033","4980-A6","2017/07/11 13:37:50","新北市中和區南山路81巷8弄2號","121.502478333333","24.9980366666667","6500300","中和區"
"235006","551-UM","2017/07/11 13:37:51","新北市中和區秀朗路三段175巷23號","121.525851666667","24.990855","6500300","中和區"
"235034","558-UM","2017/07/11 13:38:07","新北市中和區南山路72-6號","121.502018333333","24.9957166666667","6500300","中和區"
"235009","565-BX","2017/07/11 13:37:53","新北市中和區復興路49巷6號","121.50452","24.9896516666667","6500300","中和區"
"235018","640-BX","2017/07/11 13:37:53","新北市中和區民享街89巷4弄6號","121.47507","25.0014766666667","6500300","中和區"
"235024","647-TV","2017/07/11 13:37:53","新北市中和區員山路395號","121.481115","25.0029666666667","6500300","中和區"
"235011","732-UM","2017/07/11 13:38:03","新北市中和區南山路312號","121.507918333333","24.986845","6500300","中和區"
"235010","733-UM","2017/07/11 13:37:53","新北市中和區中正路161巷2號","121.498501666667","24.9935","6500300","中和區"
"235035","783-BX","2017/07/11 13:37:52","新北市中和區永和路356巷67-1號","121.487261666667","25.0149016666667","6500300","中和區"
"235026","800-TS","2017/07/11 13:37:48","新北市中和區中山路二段312巷10弄2號","121.495623333333","25.0030366666667","6500300","中和區"
"235021","801-TS","2017/07/11 13:38:06","新北市中和區民安街49號","121.479573333333","25.00011","6500300","中和區"
"235005","802-TS","2017/07/11 13:37:59","新北市中和區中安街78號","121.512208333333","25.00194","6500300","中和區"
"235016","805-TS","2017/07/11 13:37:58","新北市中和區興南路三段20巷28-1號","121.496828333333","24.97962","6500300","中和區"
"235012","896-TW","2017/07/11 13:37:51","新北市中和區圓通路172號","121.49726","24.9945633333333","6500300","中和區"
"235017","900-TW","2017/07/11 13:38:07","新北市中和區民享街457號","121.470361666667","24.9931866666667","6500300","中和區"
"235027","911-UM","2017/07/11 13:38:09","新北市中和區連城路343號","121.488243333333","24.9958716666667","6500300","中和區"
"235001","AAC-213","2017/07/11 13:38:01","新北市中和區景新街383巷56號","121.51455","24.990615","6500300","中和區"
"235023","AAC-215","2017/07/11 13:38:08","新北市中和區員山路36巷16-3號","121.484991666667","24.9913566666667","6500300","中和區"
"220016","013-TV","2017/07/11 13:38:07","新北市板橋區觀光街8號","121.472273333333","25.016515","6500100","板橋區"
"220034","073-UY","2017/07/11 13:37:56","新北市板橋區南雅西路二段173號","121.451956666667","25.0125316666667","6500100","板橋區"
"220017","AAD-861","2017/07/10 21:42:09","新北市板橋區民生路二段36-1號","121.472505","25.0166683333333","6500100","板橋區"
"247002","402-BY","2017/07/11 13:38:08","新北市蘆洲區民族路526號","121.468993333333","25.0899416666667","6501400","蘆洲區"
"247007","339-TH","2017/07/11 13:37:54","新北市蘆洲區中正路520巷18號","121.465246666667","25.0994416666667","6501400","蘆洲區"
"247013","057-VK","2017/07/11 13:37:49","新北市五股區凌雲路一段21號","121.453983333333","25.0999116666667","6501400","蘆洲區"
"247003","056-VK","2017/07/11 13:38:05","新北市五股區中興路三段5號","121.449775","25.07961","6501400","蘆洲區"
"247021","002-UY","2017/07/11 13:38:08","新北市五股區凌雲路一段25號","121.452293333333","25.0997833333333","6501400","蘆洲區"
"247015","001-UY","2017/07/11 13:38:05","新北市五股區新城三路45號","121.449116666667","25.0933533333333","6501400","蘆洲區"
"228004","212-TW","2017/07/11 13:31:55","新北市貢寮區龍崗里石壁坑街26-2號","121.91257","24.9942216666667","6502600","貢寮區"
"228005","828-UM","2017/07/11 13:38:03","新北市貢寮區美豐里文秀坑8號","121.902608333333","25.0504633333333","6502600","貢寮區"
"208004","AAC-292","2017/07/11 13:38:08","新北市金山區南勢湖70-2號","121.615378333333","25.2158","6502700","金山區"
"207002","749-BX","2017/07/11 13:38:00","新北市萬里區崁腳里崁腳路166號","121.645231666667","25.1561283333333","6502800","萬里區"
"207001","463-BY","2017/07/11 13:37:56","新北市萬里區大鵬里頂社2-1號","121.659226666667","25.2077033333333","6502800","萬里區"
"252005","AAC-283","2017/07/11 13:38:10","新北市三芝區圓山里木屐寮38-2號","121.532186666667","25.2283733333333","6502100","三芝區"
"236075","166-UM","2017/07/11 13:38:06","新北市土城區城林路6巷80號","121.438356666667","24.9797366666667","6501300","土城區"
"236013","270-VK","2017/07/11 13:38:02","新北市土城區城林路6巷80號","121.43851","24.979725","6501300","土城區"
"236034","271-VK","2017/07/11 13:38:03","新北市土城區城林路6巷80號","121.438581666667","24.9797266666667","6501300","土城區"
"236006","498-BY","2017/07/11 13:38:07","新北市土城區慶祥街78號","121.436173333333","24.973545","6501300","土城區"
"236054","AAC-216","2017/07/11 13:38:06","新北市土城區城林路6巷80號","121.43835","24.9797583333333","6501300","土城區"
"242044","172-VK","2017/07/11 13:38:04","新北市新莊區中正路889-1號","121.415498333333","25.0238166666667","6500500","新莊區"
"221010","276-VK","2017/07/11 13:23:39","新北市汐止區汐萬路一段256巷3號","121.653433333333","25.07461","6501100","汐止區"
"221032","280-BY","2017/07/11 13:38:12","新北市汐止區仁愛路10號","121.65931","25.0636366666667","6501100","汐止區"
"221002","753-BX","2017/07/11 13:38:01","新北市汐止區福德二路128號","121.631253333333","25.0654016666667","6501100","汐止區"
"220027","145-BY","2017/07/11 13:38:04","新北市板橋區南雅南路二段116號","121.452446666667","25.0004933333333","6500100","板橋區"
"220030","610-BX","2017/07/11 13:38:03","新北市板橋區華東街1-10號","121.448261666667","24.994925","6500100","板橋區"
"220004","276-BY","2017/07/11 13:38:04","新北市土城區四川路2號","121.455871666667","24.996205","6500100","板橋區"
"220020","277-BY","2017/07/11 13:38:11","新北市板橋區華東街1-10號","121.448273333333","24.9950733333333","6500100","板橋區"
"220019","283-VK","2017/07/11 13:38:05","新北市板橋區民生路二段36-1號","121.472491666667","25.01667","6500100","板橋區"
"220001","285-VK","2017/07/11 13:37:55","新北市板橋區民生路二段36-1號","121.472528333333","25.0165583333333","6500100","板橋區"
"220029","287-VK","2017/07/11 13:38:04","新北市板橋區華東街1-10號","121.448225","24.9950233333333","6500100","板橋區"
"220032","296-UM","2017/07/11 13:38:00","新北市板橋區華東街1-9號","121.448131666667","24.9949333333333","6500100","板橋區"
"220023","297-UM","2017/07/11 13:38:03","新北市板橋區華東街1-9號","121.448141666667","24.994985","6500100","板橋區"
"220010","305-R5","2017/07/11 13:37:50","新北市板橋區民生路二段36-1號","121.472495","25.0167233333333","6500100","板橋區"
"220028","461-BY","2017/07/11 13:38:05","新北市板橋區華東街1-9號","121.448203333333","24.99485","6500100","板橋區"
"220037","491-VK","2017/07/11 13:36:40","新北市板橋區民生路二段120號","121.47036","25.0197466666667","6500100","板橋區"
"220104","560-BX","2017/07/11 13:38:11","新北市板橋區南雅西路二段145巷10號","121.451575","25.011955","6500100","板橋區"
"220011","609-BX","2017/07/11 13:38:07","新北市板橋區民生路二段17號","121.472563333333","25.0164866666667","6500100","板橋區"
"220005","686-BX","2017/07/11 13:38:10","新北市板橋區民生路二段15-1號","121.472725","25.0164666666667","6500100","板橋區"
"220025","687-BX","2017/07/11 13:37:57","新北市板橋區溪崑一街23號","121.43069","24.9919216666667","6500100","板橋區"
"220045","831-TW","2017/07/11 01:30:01","新北市板橋區民生路二段120號","121.47033","25.0197316666667","6500100","板橋區"
"220022","895-R6","2017/07/11 13:37:59","新北市板橋區南雅南路一段6號","121.456078333333","25.0066316666667","6500100","板橋區"
"220021","985-R7","2017/07/11 13:37:55","新北市板橋區華東街1-10號","121.448271666667","24.995025","6500100","板橋區"
"220046","AAC-210","2017/07/11 13:38:00","新北市板橋區民生路二段161巷9號","121.470258333333","25.01968","6500100","板橋區"
"220018","AAC-253","2017/07/11 13:37:58","新北市板橋區民生路二段36-1號","121.472533333333","25.0165683333333","6500100","板橋區"
