"lineid","car","time","location","longitude","latitude","cityid","cityname"
"234044","148-BY","2017/07/11 13:57:57","新北市永和區林森路65號","121.52423","25.00416","6500400","永和區"
"234012","149-BY","2017/07/11 13:58:05","新北市永和區保生路55號","121.504693333333","25.0106016666667","6500400","永和區"
"234005","207-UY","2017/07/11 13:58:07","新北市中和區中和路262號","121.508266666667","24.999575","6500400","永和區"
"234078","298-R6","2017/07/11 13:58:00","新北市永和區國中路12號","121.524351666667","25.0049733333333","6500400","永和區"
"234036","336-UY","2017/07/11 13:58:05","新北市永和區成功路二段80號","121.526561666667","24.9988716666667","6500400","永和區"
"234062","337-UY","2017/07/11 13:58:03","新北市永和區中正路412巷20弄14號","121.518833333333","25.0015566666667","6500400","永和區"
"234084","338-UY","2017/07/11 13:58:08","新北市永和區福和路160號","121.521416666667","25.0080433333333","6500400","永和區"
"234068","552-UM","2017/07/11 13:57:55","新北市永和區福和路183巷1號","121.520083333333","25.007345","6500400","永和區"
"234052","553-UM","2017/07/11 13:57:58","新北市永和區竹林路39巷34號","121.519806666667","25.0151433333333","6500400","永和區"
"234015","745-BX","2017/07/11 13:58:02","新北市永和區文化路50號","121.514578333333","25.015115","6500400","永和區"
"234028","746-BX","2017/07/11 13:57:57","新北市永和區民權路49巷39號","121.522041666667","24.9977083333333","6500400","永和區"
"234060","AAD-866","2017/07/11 13:57:57","新北市永和區得和路68號","121.516293333333","24.9999083333333","6500400","永和區"
"234040","862-TW","2017/07/11 13:58:05","新北市永和區中和路335巷12號","121.5075","25.000205","6500400","永和區"
"234048","863-TW","2017/07/11 13:58:09","新北市永和區永平路306號","121.506755","25.012005","6500400","永和區"
"234025","9371-KE","2017/07/11 13:58:02","新北市永和區自由街58號","121.513805","25.00603","6500400","永和區"
"234010","9373-KE","2017/07/11 13:58:07","新北市永和區仁愛路352巷124號","121.500286666667","25.0086016666667","6500400","永和區"
"248017","225-UY","2017/07/11 13:58:00","新北市五股區民義路一段220巷5-1號","121.428555","25.0923983333333","6501500","五股區"
"234022","9380-KE","2017/07/11 13:57:51","新北市永和區光復街2巷16弄39號","121.51836","25.0163133333333","6500400","永和區"
"234076","969-R7","2017/07/11 13:58:03","新北市永和區民族街43巷3號","121.518665","24.9984716666667","6500400","永和區"
"234072","AAC-211","2017/07/11 13:58:00","新北市永和區竹林路201巷24弄4號","121.522235","25.00964","6500400","永和區"
"234066","AAC-212","2017/07/11 13:58:05","新北市永和區永貞路364號","121.510131666667","25.0066933333333","6500400","永和區"
"234001","AAC-295","2017/07/11 13:55:47","新北市永和區永和路一段136號","121.514013333333","25.0079166666667","6500400","永和區"
"244002","248-BX","2017/07/11 13:57:52","新北市林口區頭湖73-1號","121.372495","25.0876083333333","6501700","林口區"
"243012","539-UM","2017/07/11 12:39:14","新北市泰山區黎明路25號","121.422011666667","25.0607916666667","6501600","泰山區"
"231030","001-UM","2017/07/11 13:57:48","新北市新店區吉安街37-1號","121.515745","24.96614","6500600","新店區"
"231002","002-UM","2017/07/11 13:58:05","新北市新店區中正路638號","121.534036666667","24.98914","6500600","新店區"
"231025","0291-UT","2017/07/11 13:58:05","新北市新店區中正路446號","121.534038333333","24.9785883333333","6500600","新店區"
"231028","046-UY","2017/07/11 13:58:06","新北市新店區安和路三段157號","121.516443333333","24.9857533333333","6500600","新店區"
"231029","106-UY","2017/07/11 13:58:04","新北市新店區安和路一段2-3號","121.517196666667","24.9642183333333","6500600","新店區"
"231018","107-UY","2017/07/11 13:58:05","新北市新店區中央路116號","121.531113333333","24.9751333333333","6500600","新店區"
"231012","108-UY","2017/07/11 13:58:04","新北市新店區中興路二段81號","121.546865","24.97113","6500600","新店區"
"231020","110-UY","2017/07/11 13:57:56","新北市新店區頂石厝路20號","121.536616666667","24.918575","6500600","新店區"
"231069","189-VK","2017/07/11 11:58:55","新北市新店區安華路28-1號","121.51961","24.9611616666667","6500600","新店區"
"231026","256-BX","2017/07/11 13:57:51","新北市新店區環河路116號","121.53681","24.9671916666667","6500600","新店區"
"231034","268-BY","2017/07/11 13:57:51","新北市新店區達觀路16號","121.50317","24.9408166666667","6500600","新店區"
"231015","AAD-862","2017/07/11 13:58:01","新北市新店區北宜路二段82-10號","121.554435","24.9535033333333","6500600","新店區"
"231027","3712-VJ","2017/07/11 13:58:05","新北市新店區北宜路一段39巷20號","121.538938333333","24.9584483333333","6500600","新店區"
"231024","3713-VJ","2017/07/11 13:58:04","新北市新店區新生街13巷4號","121.539695","24.966095","6500600","新店區"
"231038","4715-K9","2017/07/11 13:58:07","新北市新店區溪洲路121號","121.53121","24.963055","6500600","新店區"
"231036","512-UM","2017/07/11 13:58:06","新北市新店區安祥路109巷3弄34號","121.476433333333","24.9603283333333","6500600","新店區"
"231023","513-UM","2017/07/11 13:58:07","新北市新店區文中路51號","121.539823333333","24.9566","6500600","新店區"
"231035","515-UM","2017/07/11 13:57:50","新北市新店區安康路二段85巷8號","121.513528333333","24.9625433333333","6500600","新店區"
"231003","616-UM","2017/07/11 13:58:11","新北市新店區北宜路一段3號","121.538486666667","24.9585733333333","6500600","新店區"
"231006","617-UM","2017/07/11 13:58:00","新北市新店區北宜路二段209號","121.553191666667","24.9533116666667","6500600","新店區"
"231001","619-UM","2017/07/11 13:58:04","新北市新店區三民路24號","121.53713","24.971105","6500600","新店區"
"231013","719-UM","2017/07/11 13:57:59","新北市新店區明德路64號","121.54156","24.9794533333333","6500600","新店區"
"231032","720-UM","2017/07/11 13:58:06","新北市新店區莒光路44巷21弄11-3號","121.518413333333","24.9521983333333","6500600","新店區"
"231005","897-TW","2017/07/11 13:57:50","新北市新店區中興路三段186號","121.54405","24.9814816666667","6500600","新店區"
"231004","899-TW","2017/07/11 13:57:57","新北市新店區寶橋路8號","121.54383","24.973665","6500600","新店區"
"231037","AKT-0513","2017/07/11 13:58:07","新北市新店區安康路三段207巷15號","121.488415","24.9508066666667","6500600","新店區"
"235030","003-UY","2017/07/11 13:58:09","新北市中和區水源路7巷3號","121.503536666667","25.0035333333333","6500300","中和區"
"235028","005-UY","2017/07/11 13:58:03","新北市中和區泰和街23號","121.499486666667","25.000205","6500300","中和區"
"235020","096-UM","2017/07/11 13:57:51","新北市中和區中正路1220巷3號","121.47974","25.0111883333333","6500300","中和區"
"235003","097-UM","2017/07/11 13:57:53","新北市中和區大仁街44號","121.51832","24.9938983333333","6500300","中和區"
"235029","098-UM","2017/07/11 13:58:02","新北市中和區福祥路125號","121.49871","25.0068566666667","6500300","中和區"
"235004","150-BY","2017/07/11 13:57:56","新北市中和區保健路71-2號","121.510406666667","24.996885","6500300","中和區"
"235022","151-BY","2017/07/11 13:57:54","新北市中和區連城路534巷10號","121.475176666667","24.992105","6500300","中和區"
"235019","183-VK","2017/07/11 13:57:56","新北市中和區民生街28巷12號","121.469805","25.0059833333333","6500300","中和區"
"235002","185-VK","2017/07/11 13:57:55","新北市中和區大勇街41號","121.517673333333","24.9945816666667","6500300","中和區"
"235013","186-VK","2017/07/11 13:57:56","新北市中和區景安路167巷31號","121.506883333333","24.9950616666667","6500300","中和區"
"235031","255-BX","2017/07/11 13:58:06","新北市中和區新生街164號","121.4837","25.00025","6500300","中和區"
"235008","293-VK","2017/07/11 13:57:52","新北市中和區中興街117號","121.499963333333","24.9920366666667","6500300","中和區"
"235036","301-VK","2017/07/11 13:58:05","新北市中和區中山路二段14號","121.505003333333","25.00551","6500300","中和區"
"235007","352-BY","2017/07/11 13:58:07","新北市永和區成功路二段203號","121.526561666667","24.9959866666667","6500300","中和區"
"235015","376-QA","2017/07/11 13:57:52","新北市中和區忠孝街11巷7號","121.509808333333","24.9832483333333","6500300","中和區"
"235032","377-QA","2017/07/11 13:58:04","新北市中和區圓通路283號","121.495383333333","24.9929833333333","6500300","中和區"
"235025","378-QA","2017/07/11 13:58:03","新北市中和區民享街89巷9弄6號","121.474995","25.0019733333333","6500300","中和區"
"235014","4979-A6","2017/07/11 13:57:50","新北市中和區華新街53號","121.508058333333","24.9844566666667","6500300","中和區"
"235033","4980-A6","2017/07/11 13:57:50","新北市中和區中和路173號","121.503031666667","25.0001666666667","6500300","中和區"
"235006","551-UM","2017/07/11 13:58:12","新北市中和區秀朗路三段24號","121.526463333333","24.9964116666667","6500300","中和區"
"235034","558-UM","2017/07/11 13:58:07","新北市中和區南山路6號","121.50197","24.9986466666667","6500300","中和區"
"235009","565-BX","2017/07/11 13:57:53","新北市中和區興南路一段14號","121.511423333333","24.991265","6500300","中和區"
"235018","640-BX","2017/07/11 13:57:53","新北市中和區民治街13巷1號","121.47521","25.0040866666667","6500300","中和區"
"235024","647-TV","2017/07/11 13:57:59","新北市中和區中山路三段207號","121.472081666667","25.006415","6500300","中和區"
"235011","732-UM","2017/07/11 13:58:03","新北市中和區興南路二段54巷2-8號","121.506035","24.9855683333333","6500300","中和區"
"235010","733-UM","2017/07/11 13:57:53","新北市中和區興南路一段156號","121.508275","24.9868016666667","6500300","中和區"
"235035","783-BX","2017/07/11 13:58:11","新北市中和區立德街55號","121.48799","25.0076133333333","6500300","中和區"
"235026","800-TS","2017/07/11 13:57:48","新北市中和區橋安街18號","121.492786666667","25.004935","6500300","中和區"
"235021","801-TS","2017/07/11 13:58:05","新北市中和區民利街30號","121.47988","24.9990983333333","6500300","中和區"
"235005","802-TS","2017/07/11 13:57:59","新北市中和區中安街50號","121.512755","25.0025183333333","6500300","中和區"
"235016","805-TS","2017/07/11 13:57:58","新北市中和區興南路二段256號","121.502948333333","24.9817266666667","6500300","中和區"
"235012","896-TW","2017/07/11 13:57:51","新北市中和區華新街9號","121.507521666667","24.98516","6500300","中和區"
"235017","900-TW","2017/07/11 13:58:07","新北市中和區民德路292號","121.467506666667","24.995635","6500300","中和區"
"235027","911-UM","2017/07/11 13:57:49","新北市中和區中正路500號","121.488851666667","24.9943983333333","6500300","中和區"
"235001","AAC-213","2017/07/11 13:58:01","新北市中和區自立路193號","121.524196666667","24.9912766666667","6500300","中和區"
"235023","AAC-215","2017/07/11 13:58:08","新北市中和區圓通路369巷2-4號","121.491015","24.9891516666667","6500300","中和區"
"220016","013-TV","2017/07/11 13:58:07","新北市板橋區中山路二段465巷40弄2號","121.481273333333","25.0214133333333","6500100","板橋區"
"220013","072-UY","2017/07/11 13:58:06","新北市板橋區民族路247巷9弄12號","121.471075","25.0083616666667","6500100","板橋區"
"220034","073-UY","2017/07/11 13:57:56","新北市板橋區中正路236巷10號","121.456176666667","25.019065","6500100","板橋區"
"220017","AAD-861","2017/07/11 13:58:03","新北市板橋區中山路一段134號","121.463546666667","25.0107","6500100","板橋區"
"220105","120-SR","2017/07/11 13:57:58","新北市板橋區文化路二段124巷3號","121.470406666667","25.0260533333333","6500100","板橋區"
"247019","893-R6","2017/07/11 13:58:08","新北市蘆洲區民族路426巷40弄11號","121.473425","25.0930983333333","6501400","蘆洲區"
"247009","546-UM","2017/07/11 13:57:54","新北市蘆洲區集賢路224巷27號","121.481668333333","25.08712","6501400","蘆洲區"
"247017","500-BY","2017/07/11 13:57:53","新北市蘆洲區民族路327巷93號","121.475778333333","25.088935","6501400","蘆洲區"
"247002","402-BY","2017/07/11 13:58:08","新北市三重區集賢路205號","121.483611666667","25.086915","6501400","蘆洲區"
"247005","341-TH","2017/07/11 13:58:08","新北市蘆洲區中山二路300巷1號","121.468566666667","25.0768883333333","6501400","蘆洲區"
"247007","339-TH","2017/07/11 13:57:54","新北市三重區永福街125巷30號","121.477786666667","25.07742","6501400","蘆洲區"
"247023","337-TH","2017/07/11 13:58:04","新北市蘆洲區光榮路120巷12號","121.465391666667","25.0884566666667","6501400","蘆洲區"
"247001","336-TH","2017/07/11 13:58:00","新北市蘆洲區永平街32巷74號","121.46049","25.0936383333333","6501400","蘆洲區"
"247013","057-VK","2017/07/11 13:58:09","新北市蘆洲區中正路181號","121.468706666667","25.085465","6501400","蘆洲區"
"247003","056-VK","2017/07/11 13:58:05","新北市蘆洲區長榮路66號","121.462675","25.08348","6501400","蘆洲區"
"247011","007-UY","2017/07/11 13:58:10","新北市蘆洲區民族路152號","121.479523333333","25.0861366666667","6501400","蘆洲區"
"247021","002-UY","2017/07/11 13:58:08","新北市蘆洲區中正路263巷2號","121.467336666667","25.0873716666667","6501400","蘆洲區"
"247015","001-UY","2017/07/11 13:58:05","新北市蘆洲區光華路44號","121.468788333333","25.0830516666667","6501400","蘆洲區"
"228004","212-TW","2017/07/11 13:57:55","新北市貢寮區龍崗里嵩陽街55號","121.90727","25.016565","6502600","貢寮區"
"228005","828-UM","2017/07/11 13:52:23","新北市貢寮區美豐里土地公嶺21-2號","121.88919","25.0620783333333","6502600","貢寮區"
"208004","AAC-292","2017/07/11 13:58:08","新北市金山區山城路10巷24弄46號","121.59408","25.2001733333333","6502700","金山區"
"207002","749-BX","2017/07/11 13:58:00","新北市萬里區溪底里溪底路9-1號","121.620436666667","25.1487","6502800","萬里區"
"207001","463-BY","2017/07/11 13:57:56","新北市萬里區磺潭里磺溪12-1號","121.630966666667","25.2024033333333","6502800","萬里區"
"252005","AAC-283","2017/07/11 13:57:50","新北市三芝區橫山里大坑43號","121.535451666667","25.24669","6502100","三芝區"
"236065","105-UM","2017/07/11 13:58:00","新北市土城區員林街10-3號","121.442981666667","24.977955","6501300","土城區"
"236041","107-UM","2017/07/11 13:58:11","新北市土城區裕生路61號","121.44765","24.9861033333333","6501300","土城區"
"236075","166-UM","2017/07/11 13:58:06","新北市土城區永寧路35號","121.430081666667","24.9620716666667","6501300","土城區"
"236029","253-BX","2017/07/11 13:57:57","新北市土城區城林路6巷80號","121.438471666667","24.9798033333333","6501300","土城區"
"236025","269-VK","2017/07/11 13:57:49","新北市土城區承天路18號","121.43949","24.9634783333333","6501300","土城區"
"236013","270-VK","2017/07/11 13:58:02","新北市土城區城林路6巷80號","121.438511666667","24.97975","6501300","土城區"
"236034","271-VK","2017/07/11 13:58:03","新北市土城區城林路6巷80號","121.438606666667","24.9797283333333","6501300","土城區"
"236017","401-BY","2017/07/11 13:58:00","新北市土城區城林路6巷80號","121.43856","24.9797716666667","6501300","土城區"
"236006","498-BY","2017/07/11 13:58:07","新北市土城區中央路一段365巷30弄2號","121.446298333333","24.9800166666667","6501300","土城區"
"236057","912-UM","2017/07/11 13:58:01","新北市土城區中央路三段191號","121.430776666667","24.9649816666667","6501300","土城區"
"236045","913-UM","2017/07/11 13:55:07","新北市土城區中央路二段280號","121.440751666667","24.9741266666667","6501300","土城區"
"236061","915-UM","2017/07/11 13:58:11","新北市土城區城林路6巷80號","121.438386666667","24.9798216666667","6501300","土城區"
"236054","AAC-216","2017/07/11 13:58:06","新北市土城區城林路6巷80號","121.438526666667","24.97968","6501300","土城區"
"242044","172-VK","2017/07/11 13:58:04","新北市新莊區新樹路308號","121.43328","25.00477","6500500","新莊區"
"221010","276-VK","2017/07/11 13:23:39","新北市汐止區汐萬路一段256巷3號","121.653433333333","25.07461","6501100","汐止區"
"221002","753-BX","2017/07/11 13:58:01","新北市汐止區康寧街598號","121.63554","25.0703233333333","6501100","汐止區"
"220027","145-BY","2017/07/11 13:58:04","新北市板橋區民權路202巷1弄2-3號","121.459483333333","25.014185","6500100","板橋區"
"220030","610-BX","2017/07/11 13:58:03","新北市板橋區篤行路三段62號","121.427921666667","24.9862866666667","6500100","板橋區"
"220050","245-BX","2017/07/11 13:57:53","新北市板橋區文化路二段126號","121.470056666667","25.02663","6500100","板橋區"
"220040","267-BY","2017/07/11 13:58:01","新北市板橋區萬板路63號","121.47162","25.0217766666667","6500100","板橋區"
"220004","276-BY","2017/07/11 13:58:04","新北市板橋區信義路148號","121.458915","24.9918066666667","6500100","板橋區"
"220020","277-BY","2017/07/11 13:57:51","新北市樹林區樹新路120巷13號","121.430796666667","24.99715","6500100","板橋區"
"220019","283-VK","2017/07/11 13:58:05","新北市板橋區忠孝路176巷5弄2號","121.464726666667","25.0020083333333","6500100","板橋區"
"220043","285-UM","2017/07/11 13:58:05","新北市板橋區文化路二段76號","121.469466666667","25.02504","6500100","板橋區"
"220001","285-VK","2017/07/11 13:57:55","新北市板橋區中山路二段89巷5號","121.473895","25.01626","6500100","板橋區"
"220031","286-VK","2017/07/11 13:58:00","新北市板橋區大觀路一段38巷156弄67號","121.442175","25.007025","6500100","板橋區"
"220029","287-VK","2017/07/11 13:58:04","新北市板橋區光華街19巷31號","121.45294","25.0118783333333","6500100","板橋區"
"220039","288-VK","2017/07/11 13:57:52","新北市板橋區民生路三段68-1號","121.466735","25.0257833333333","6500100","板橋區"
"220009","293-UM","2017/07/11 13:58:02","新北市板橋區富山街109巷28弄6號","121.475736666667","25.0215966666667","6500100","板橋區"
"220032","296-UM","2017/07/11 13:57:59","新北市板橋區大觀路二段174巷102弄29號","121.4421","25.0012466666667","6500100","板橋區"
"220023","297-UM","2017/07/11 13:58:03","新北市板橋區館前西路154-2號","121.455146666667","25.0084216666667","6500100","板橋區"
"220041","299-UM","2017/07/11 13:58:08","新北市板橋區縣民大道二段190號","121.469003333333","25.0170016666667","6500100","板橋區"
"220010","305-R5","2017/07/11 13:58:10","新北市板橋區三民路二段245巷31號","121.480293333333","25.01257","6500100","板橋區"
"220047","317-R6","2017/07/11 13:58:06","新北市板橋區民生路三段12號","121.467681666667","25.0243066666667","6500100","板橋區"
"220028","461-BY","2017/07/11 13:58:10","新北市板橋區大觀路二段265巷3弄19-1號","121.44365","24.9981083333333","6500100","板橋區"
"220012","486-VK","2017/07/11 13:58:07","新北市板橋區漢生東路262號","121.468208333333","25.01349","6500100","板橋區"
"220038","487-VK","2017/07/11 13:58:11","新北市板橋區文化路二段266號","121.471393333333","25.028865","6500100","板橋區"
"220037","491-VK","2017/07/11 13:58:01","新北市板橋區民生路二段250號","121.468425","25.02335","6500100","板橋區"
"220104","560-BX","2017/07/11 13:58:06","新北市板橋區中正路341巷33號","121.454086666667","25.0199516666667","6500100","板橋區"
"220052","561-BX","2017/07/11 13:57:49","新北市板橋區民生路二段121號","121.470653333333","25.018485","6500100","板橋區"
"220011","609-BX","2017/07/11 13:58:07","新北市板橋區民生路一段80號","121.473458333333","25.0155516666667","6500100","板橋區"
"220005","686-BX","2017/07/11 13:58:10","新北市板橋區民權路41號","121.462098333333","25.01111","6500100","板橋區"
"220025","687-BX","2017/07/11 13:58:05","新北市板橋區大觀路二段156巷47號","121.441026666667","24.9999433333333","6500100","板橋區"
"220042","689-BX","2017/07/11 13:58:01","新北市板橋區文化路一段479巷42號","121.467991666667","25.0231566666667","6500100","板橋區"
"220002","741-BX","2017/07/11 13:58:03","新北市板橋區後埔街13號","121.460435","25.00679","6500100","板橋區"
"220003","827-TW","2017/07/11 13:58:01","新北市板橋區漢生東路268-3號","121.468356666667","25.0132066666667","6500100","板橋區"
"220014","829-TW","2017/07/11 13:58:02","新北市板橋區中山路二段90巷47弄2號","121.476645","25.01466","6500100","板橋區"
"220051","830-TW","2017/07/11 13:57:52","新北市板橋區萬板路328號","121.478178333333","25.0254266666667","6500100","板橋區"
"220045","831-TW","2017/07/11 13:58:12","新北市板橋區莒光路81號","121.471818333333","25.0243","6500100","板橋區"
"220022","895-R6","2017/07/11 13:57:59","新北市板橋區南雅南路一段131號","121.455038333333","25.0043016666667","6500100","板橋區"
"220021","985-R7","2017/07/11 13:57:59","新北市板橋區館前西路179號","121.45563","25.0082583333333","6500100","板橋區"
"220046","AAC-210","2017/07/11 13:58:00","新北市板橋區民生路三段111號","121.466515","25.0254533333333","6500100","板橋區"
"220018","AAC-253","2017/07/11 13:57:58","新北市板橋區四川路一段2號","121.459391666667","25.0069933333333","6500100","板橋區"
