"lineid","car","time","location","longitude","latitude","cityid","cityname"
"234044","148-BY","2017/07/11 14:17:57","新北市永和區永元路107號","121.522575","25.0024","6500400","永和區"
"234012","149-BY","2017/07/11 14:18:05","新北市永和區仁愛路295號","121.504946666667","25.0091633333333","6500400","永和區"
"234005","207-UY","2017/07/11 14:18:07","新北市永和區中正路614-2號","121.516985","25.007615","6500400","永和區"
"234078","298-R6","2017/07/11 14:18:00","新北市永和區國中路146號","121.523085","25.0069783333333","6500400","永和區"
"234036","336-UY","2017/07/11 14:18:05","新北市永和區民樂街31巷19弄7號","121.528233333333","25.0020866666667","6500400","永和區"
"234062","337-UY","2017/07/11 14:18:03","新北市永和區得和路160號","121.519176666667","25.000145","6500400","永和區"
"234084","338-UY","2017/07/11 14:17:58","新北市永和區永和路二段297號","121.516006666667","25.0160233333333","6500400","永和區"
"234068","552-UM","2017/07/11 14:17:55","新北市永和區永亨路7號","121.51939","25.0057183333333","6500400","永和區"
"234052","553-UM","2017/07/11 14:17:58","新北市永和區光復街2巷26弄1號","121.517685","25.0166683333333","6500400","永和區"
"234028","746-BX","2017/07/11 14:17:53","新北市中和區中正路851號","121.484783333333","25.0029716666667","6500400","永和區"
"234060","AAD-866","2017/07/11 14:17:57","新北市永和區得和路2號","121.514911666667","25.00072","6500400","永和區"
"234040","862-TW","2017/07/11 14:17:55","新北市永和區雙和街4號","121.509843333333","25.00177","6500400","永和區"
"234048","863-TW","2017/07/11 14:17:57","新北市永和區新生路83巷8號","121.508561666667","25.0157666666667","6500400","永和區"
"234025","9371-KE","2017/07/11 14:18:02","新北市中和區安樂路139號","121.514543333333","24.9967166666667","6500400","永和區"
"234010","9373-KE","2017/07/11 14:18:07","新北市永和區保生路55-1號","121.504516666667","25.0109183333333","6500400","永和區"
"248017","225-UY","2017/07/11 14:16:20","新北市五股區壟路16號","121.415331666667","25.085595","6501500","五股區"
"234022","9380-KE","2017/07/11 14:18:11","新北市永和區保安路147號","121.50705","25.0130966666667","6500400","永和區"
"234076","969-R7","2017/07/11 14:18:03","新北市永和區民族街81巷62號","121.520175","24.996535","6500400","永和區"
"234072","AAC-211","2017/07/11 14:18:00","新北市永和區竹林路100-1號","121.519646666667","25.0120816666667","6500400","永和區"
"234066","AAC-212","2017/07/11 14:18:06","新北市永和區保平路214巷12弄1號","121.50896","25.006785","6500400","永和區"
"234001","AAC-295","2017/07/11 14:16:47","新北市永和區中正路577巷10號","121.516001666667","25.0089066666667","6500400","永和區"
"244002","248-BX","2017/07/11 14:17:52","新北市林口區太平里180號","121.366995","25.1338083333333","6501700","林口區"
"243012","539-UM","2017/07/11 12:39:14","新北市泰山區黎明路25號","121.422011666667","25.0607916666667","6501600","泰山區"
"231030","001-UM","2017/07/11 14:18:09","新北市新店區安民街14號","121.515376666667","24.9644616666667","6500600","新店區"
"231002","002-UM","2017/07/11 14:18:05","新北市新店區中央路129號","121.530516666667","24.9739716666667","6500600","新店區"
"231025","0291-UT","2017/07/11 14:18:05","新北市新店區二十張路105巷6號","121.536623333333","24.979515","6500600","新店區"
"231028","046-UY","2017/07/11 14:18:06","新北市新店區安和路二段77-1號","121.518438333333","24.968685","6500600","新店區"
"231029","106-UY","2017/07/11 14:18:04","新北市新店區安康路二段161號","121.51022","24.9594516666667","6500600","新店區"
"231018","107-UY","2017/07/11 14:18:05","新北市新店區中央四街24號","121.529023333333","24.97416","6500600","新店區"
"231012","108-UY","2017/07/11 14:18:04","新北市新店區五峰路57-1號","121.547275","24.9707","6500600","新店區"
"231020","110-UY","2017/07/11 14:17:56","新北市新店區桂山路2-1號","121.556976666667","24.9045433333333","6500600","新店區"
"231069","189-VK","2017/07/11 11:58:55","新北市新店區安華路28-1號","121.51961","24.9611616666667","6500600","新店區"
"231034","268-BY","2017/07/11 14:18:11","新北市新店區黎明路3號","121.503526666667","24.9524366666667","6500600","新店區"
"231015","AAD-862","2017/07/11 14:18:01","新北市新店區中生路171號","121.57714","24.9494783333333","6500600","新店區"
"231027","3712-VJ","2017/07/11 14:18:05","新北市新店區光明街286巷17號","121.54097","24.9635516666667","6500600","新店區"
"231038","4715-K9","2017/07/11 14:18:07","新北市新店區溪洲路6巷20號","121.533821666667","24.9626716666667","6500600","新店區"
"231036","512-UM","2017/07/11 14:18:06","新北市新店區安祥路109巷151弄12號","121.478145","24.9588933333333","6500600","新店區"
"231023","513-UM","2017/07/11 14:18:07","新北市新店區光明街134號","121.539411666667","24.961185","6500600","新店區"
"231035","515-UM","2017/07/11 14:18:10","新北市新店區碧安街2號","121.51743","24.967785","6500600","新店區"
"231003","616-UM","2017/07/11 14:17:51","新北市新店區中興路一段216號","121.543896666667","24.9656716666667","6500600","新店區"
"231006","617-UM","2017/07/11 14:18:00","新北市新店區北宜路二段450號","121.570023333333","24.9563216666667","6500600","新店區"
"231001","619-UM","2017/07/11 14:18:04","新北市新店區北新路一段261號","121.540918333333","24.9663383333333","6500600","新店區"
"231013","719-UM","2017/07/11 14:17:59","新北市新店區建國路128巷3-1號","121.538996666667","24.97934","6500600","新店區"
"231032","720-UM","2017/07/11 14:18:06","新北市新店區永業路26巷2號","121.533051666667","24.9556533333333","6500600","新店區"
"231005","897-TW","2017/07/11 14:18:10","新北市新店區中興路三段190號","121.543945","24.9817266666667","6500600","新店區"
"231004","899-TW","2017/07/11 14:17:56","新北市新店區北新路二段8號","121.542808333333","24.97113","6500600","新店區"
"231037","AKT-0513","2017/07/11 14:18:07","新北市新店區車子路8-1號","121.504461666667","24.952595","6500600","新店區"
"235030","003-UY","2017/07/11 14:18:09","新北市中和區中和路155號","121.50268","24.999885","6500300","中和區"
"235028","005-UY","2017/07/11 14:18:03","新北市中和區景平路634-18號","121.498085","25.0000633333333","6500300","中和區"
"235020","096-UM","2017/07/11 14:17:51","新北市中和區員山路502-1號","121.47969","25.0074883333333","6500300","中和區"
"235003","097-UM","2017/07/11 14:17:53","新北市中和區秀峰街119巷4弄1號","121.519781666667","24.99021","6500300","中和區"
"235029","098-UM","2017/07/11 14:18:02","新北市中和區中山路二段2巷5弄8-1號","121.504346666667","25.0061583333333","6500300","中和區"
"235004","150-BY","2017/07/11 14:17:56","新北市中和區保健路93號","121.511225","24.9966116666667","6500300","中和區"
"235022","151-BY","2017/07/11 14:17:54","新北市中和區連城路477巷6弄9號","121.482766666667","24.994975","6500300","中和區"
"235019","183-VK","2017/07/11 14:17:56","新北市中和區中山路三段183號","121.472655","25.0061066666667","6500300","中和區"
"235002","185-VK","2017/07/11 14:17:55","新北市中和區大仁街20巷27號","121.518641666667","24.99326","6500300","中和區"
"235013","186-VK","2017/07/11 14:17:56","新北市中和區景新街228-6號","121.508193333333","24.9942116666667","6500300","中和區"
"235031","255-BX","2017/07/11 14:18:06","新北市中和區新生街164號","121.483623333333","25.0002966666667","6500300","中和區"
"235008","293-VK","2017/07/11 14:18:12","新北市中和區中興街202巷2號","121.499421666667","24.9901766666667","6500300","中和區"
"235036","301-VK","2017/07/11 14:18:05","新北市中和區永和路39巷4號","121.497888333333","25.0050566666667","6500300","中和區"
"235007","352-BY","2017/07/11 14:18:07","新北市中和區景平路298號","121.512773333333","24.9925133333333","6500300","中和區"
"235015","376-QA","2017/07/11 14:17:52","新北市中和區和平街2巷4弄8號","121.510131666667","24.9907616666667","6500300","中和區"
"235032","377-QA","2017/07/11 14:17:52","新北市中和區圓通路156-1號","121.497836666667","24.9957816666667","6500300","中和區"
"235025","378-QA","2017/07/11 14:18:03","新北市中和區員山路159號","121.481098333333","24.9965783333333","6500300","中和區"
"235014","4979-A6","2017/07/11 14:17:50","新北市中和區中正路155號","121.498898333333","24.9935233333333","6500300","中和區"
"235033","4980-A6","2017/07/11 14:18:10","新北市中和區連城路176號","121.493103333333","24.9969316666667","6500300","中和區"
"235006","551-UM","2017/07/11 14:18:11","新北市永和區民有街7號","121.516205","24.996935","6500300","中和區"
"235034","558-UM","2017/07/11 14:18:07","新北市中和區中和路185號","121.503358333333","24.9999383333333","6500300","中和區"
"235009","565-BX","2017/07/11 14:17:53","新北市中和區景新街437巷13號","121.513915","24.98926","6500300","中和區"
"235018","640-BX","2017/07/11 14:17:53","新北市中和區民德路174號","121.468471666667","24.9995766666667","6500300","中和區"
"235024","647-TV","2017/07/11 14:17:53","新北市中和區中山路三段101號","121.475198333333","25.0060366666667","6500300","中和區"
"235011","732-UM","2017/07/11 14:18:03","新北市中和區景平路239巷57號","121.508566666667","24.9921866666667","6500300","中和區"
"235010","733-UM","2017/07/11 14:17:53","新北市中和區華新街133號","121.506646666667","24.9818066666667","6500300","中和區"
"235035","783-BX","2017/07/11 14:18:11","新北市中和區中正路776號","121.48518","25.000365","6500300","中和區"
"235026","800-TS","2017/07/11 14:18:08","新北市中和區橋安街8號","121.492798333333","25.0042566666667","6500300","中和區"
"235021","801-TS","2017/07/11 14:18:05","新北市中和區民利街53號","121.479316666667","24.9987","6500300","中和區"
"235005","802-TS","2017/07/11 14:17:59","新北市中和區宜安路174號","121.508756666667","24.9991933333333","6500300","中和區"
"235016","805-TS","2017/07/11 14:17:58","新北市中和區興南路二段142巷19弄15號","121.502678333333","24.9834333333333","6500300","中和區"
"235012","896-TW","2017/07/11 14:18:10","新北市中和區華新街109巷16號","121.508371666667","24.9811083333333","6500300","中和區"
"235017","900-TW","2017/07/11 14:18:07","新北市中和區華福街57巷14號","121.46687","24.997155","6500300","中和區"
"235027","911-UM","2017/07/11 14:18:09","新北市中和區圓通路198巷8號","121.495786666667","24.9946","6500300","中和區"
"235001","AAC-213","2017/07/11 14:18:01","新北市中和區秀朗路三段10巷14弄39號","121.524126666667","24.99614","6500300","中和區"
"235023","AAC-215","2017/07/11 14:18:08","新北市中和區錦和路195巷1弄2號","121.491135","24.9908516666667","6500300","中和區"
"220016","013-TV","2017/07/11 14:18:07","新北市板橋區萬安街108號","121.483753333333","25.024435","6500100","板橋區"
"220013","072-UY","2017/07/11 14:18:10","新北市板橋區民族路170巷2-2號","121.467401666667","25.00781","6500100","板橋區"
"220034","073-UY","2017/07/11 14:17:56","新北市板橋區中正路267號","121.45565","25.0187216666667","6500100","板橋區"
"220017","AAD-861","2017/07/11 14:18:03","新北市板橋區貴興路31號","121.457616666667","25.0039466666667","6500100","板橋區"
"220105","120-SR","2017/07/11 14:17:58","新北市板橋區雙十路三段68巷2號","121.470488333333","25.0320366666667","6500100","板橋區"
"247019","893-R6","2017/07/11 14:18:08","新北市蘆洲區仁愛街57號","121.471918333333","25.09323","6501400","蘆洲區"
"247009","546-UM","2017/07/11 14:17:53","新北市蘆洲區三民路26巷30號","121.477835","25.0829083333333","6501400","蘆洲區"
"247017","500-BY","2017/07/11 14:17:53","新北市蘆洲區民權路70號","121.475011666667","25.0873116666667","6501400","蘆洲區"
"247002","402-BY","2017/07/11 14:18:08","新北市蘆洲區重陽街86號","121.481923333333","25.0844083333333","6501400","蘆洲區"
"247005","341-TH","2017/07/11 14:18:08","新北市蘆洲區九芎街109號","121.465655","25.0797066666667","6501400","蘆洲區"
"247007","339-TH","2017/07/11 14:17:54","新北市蘆洲區中山一路229號","121.473751666667","25.080645","6501400","蘆洲區"
"247023","337-TH","2017/07/11 14:18:04","新北市蘆洲區長榮路675號","121.46035","25.0919966666667","6501400","蘆洲區"
"247001","336-TH","2017/07/11 14:18:00","新北市蘆洲區永樂街106號","121.456","25.08882","6501400","蘆洲區"
"247013","057-VK","2017/07/11 14:18:09","新北市蘆洲區中山一路235號","121.473555","25.0805416666667","6501400","蘆洲區"
"247003","056-VK","2017/07/11 14:18:08","新北市蘆洲區中原路22號","121.460366666667","25.0830883333333","6501400","蘆洲區"
"247011","007-UY","2017/07/11 14:18:10","新北市蘆洲區民權路3巷26號","121.475196666667","25.08551","6501400","蘆洲區"
"247021","002-UY","2017/07/11 14:18:08","新北市蘆洲區仁愛街212巷2號","121.464686666667","25.0932083333333","6501400","蘆洲區"
"247015","001-UY","2017/07/11 14:18:05","新北市蘆洲區中正路185巷31弄1號","121.46646","25.0842833333333","6501400","蘆洲區"
"228004","212-TW","2017/07/11 14:17:55","新北市貢寮區雙玉里下雙溪街26號","121.924491666667","25.0109966666667","6502600","貢寮區"
"228005","828-UM","2017/07/11 14:17:23","新北市貢寮區美豐里雞母嶺街6-2號","121.899211666667","25.0631866666667","6502600","貢寮區"
"208004","AAC-292","2017/07/11 14:18:08","新北市金山區六股里下六股59-3號","121.615205","25.22228","6502700","金山區"
"207002","749-BX","2017/07/11 14:18:00","新北市萬里區溪底里溪底路14號","121.615541666667","25.1505666666667","6502800","萬里區"
"207001","463-BY","2017/07/11 14:17:56","新北市萬里區磺潭里清水18號","121.637806666667","25.1977266666667","6502800","萬里區"
"252005","AAC-283","2017/07/11 14:18:10","新北市三芝區橫山里大坑85-2號","121.528338333333","25.2579683333333","6502100","三芝區"
"236065","105-UM","2017/07/11 14:18:00","新北市土城區明德路一段325號","121.458726666667","24.9770483333333","6501300","土城區"
"236041","107-UM","2017/07/11 14:18:11","新北市土城區裕生路21巷1弄2號","121.44864","24.9872033333333","6501300","土城區"
"236075","166-UM","2017/07/11 14:18:06","新北市土城區永平街15巷10號","121.428676666667","24.96265","6501300","土城區"
"236029","253-BX","2017/07/11 14:18:05","新北市土城區順風路45號","121.440326666667","24.9770316666667","6501300","土城區"
"236025","269-VK","2017/07/11 14:18:09","新北市土城區承天路18號","121.439486666667","24.9634533333333","6501300","土城區"
"236013","270-VK","2017/07/11 14:18:02","新北市土城區青雲路39巷7號","121.460361666667","24.98756","6501300","土城區"
"236034","271-VK","2017/07/11 14:18:03","新北市土城區青雲路483巷2號","121.45912","24.9737383333333","6501300","土城區"
"236017","401-BY","2017/07/11 14:18:00","新北市土城區延吉街371號","121.463936666667","24.9839466666667","6501300","土城區"
"236006","498-BY","2017/07/11 14:18:07","新北市土城區中央路一段48號","121.447728333333","24.9899733333333","6501300","土城區"
"236057","912-UM","2017/07/11 14:18:01","新北市土城區中央路四段159-3號","121.415276666667","24.9568166666667","6501300","土城區"
"236045","913-UM","2017/07/11 14:18:02","新北市土城區明德路一段398-1號","121.453978333333","24.9786766666667","6501300","土城區"
"236061","915-UM","2017/07/11 14:18:11","新北市土城區金城路三段206巷1號","121.471391666667","24.9896433333333","6501300","土城區"
"236054","AAC-216","2017/07/11 14:18:06","新北市土城區中華路二段98號","121.438106666667","24.9744233333333","6501300","土城區"
"242044","172-VK","2017/07/11 14:18:04","新北市樹林區中山路三段210-2號","121.380695","24.9667066666667","6500500","新莊區"
"221010","276-VK","2017/07/11 13:23:39","新北市汐止區汐萬路一段256巷3號","121.653433333333","25.07461","6501100","汐止區"
"221002","753-BX","2017/07/11 14:18:01","新北市汐止區復興路23號","121.656046666667","25.0652083333333","6501100","汐止區"
"220027","145-BY","2017/07/11 14:18:10","新北市板橋區民權路260巷3號","121.458136666667","25.0154366666667","6500100","板橋區"
"220030","610-BX","2017/07/11 14:18:03","新北市板橋區篤行路三段玉平巷76弄16號","121.427451666667","24.985975","6500100","板橋區"
"220050","245-BX","2017/07/11 14:17:53","新北市板橋區莊敬路25巷16號","121.474318333333","25.0275","6500100","板橋區"
"220040","267-BY","2017/07/11 14:18:01","新北市板橋區文聖街206號","121.480245","25.0257066666667","6500100","板橋區"
"220004","276-BY","2017/07/11 14:18:04","新北市板橋區干城路20巷3號","121.459175","24.9934416666667","6500100","板橋區"
"220020","277-BY","2017/07/11 14:18:07","新北市板橋區金門街280巷10號","121.429131666667","24.9863733333333","6500100","板橋區"
"220019","283-VK","2017/07/11 14:18:05","新北市板橋區重慶路269巷13號","121.46385","24.999545","6500100","板橋區"
"220043","285-UM","2017/07/11 14:17:25","新北市板橋區吳鳳路82號","121.466898333333","25.0313616666667","6500100","板橋區"
"220001","285-VK","2017/07/11 14:18:10","新北市板橋區富山街10號","121.47866","25.0219633333333","6500100","板橋區"
"220031","286-VK","2017/07/11 14:18:01","新北市板橋區大觀路二段174巷186弄3號","121.442586666667","25.00363","6500100","板橋區"
"220029","287-VK","2017/07/11 14:18:04","新北市板橋區南雅西路一段7巷1號","121.454303333333","25.004295","6500100","板橋區"
"220039","288-VK","2017/07/11 14:17:59","新北市板橋區長江路一段156巷9弄2號","121.461593333333","25.02979","6500100","板橋區"
"220009","293-UM","2017/07/11 14:17:53","新北市板橋區中山路二段361號","121.479725","25.0190083333333","6500100","板橋區"
"220032","296-UM","2017/07/11 14:17:59","新北市板橋區溪崑二街56巷20號","121.427988333333","24.9911616666667","6500100","板橋區"
"220023","297-UM","2017/07/11 14:18:03","新北市板橋區館前西路87號","121.457136666667","25.00705","6500100","板橋區"
"220041","299-UM","2017/07/11 14:18:08","新北市板橋區光武街36巷13號","121.46792","25.0262333333333","6500100","板橋區"
"220010","305-R5","2017/07/11 14:18:10","新北市板橋區三民路二段153巷4號","121.479648333333","25.0148383333333","6500100","板橋區"
"220047","317-R6","2017/07/11 14:18:06","新北市板橋區民有街83號","121.464896666667","25.02744","6500100","板橋區"
"220028","461-BY","2017/07/11 14:18:05","新北市板橋區大觀路二段19巷19號","121.447588333333","25.0031966666667","6500100","板橋區"
"220012","486-VK","2017/07/11 14:18:05","新北市板橋區漢生東路113巷25號","121.468286666667","25.0156783333333","6500100","板橋區"
"220038","487-VK","2017/07/11 14:17:51","新北市板橋區民生路二段250號","121.468298333333","25.023475","6500100","板橋區"
"220037","491-VK","2017/07/11 14:17:41","新北市板橋區文化路二段182巷3弄33號","121.47224","25.0285133333333","6500100","板橋區"
"220104","560-BX","2017/07/11 14:18:09","新北市板橋區中正路433巷1號","121.454095","25.02313","6500100","板橋區"
"220052","561-BX","2017/07/11 14:17:49","新北市板橋區文化路一段188巷9弄108號","121.46841","25.0194366666667","6500100","板橋區"
"220011","609-BX","2017/07/11 14:18:07","新北市板橋區三民路二段203-4號","121.479116666667","25.0134933333333","6500100","板橋區"
"220005","686-BX","2017/07/11 14:17:51","新北市板橋區重慶路308巷2號","121.463246666667","24.998055","6500100","板橋區"
"220025","687-BX","2017/07/11 14:17:57","新北市板橋區大觀路二段281號","121.44254","24.9987816666667","6500100","板橋區"
"220042","689-BX","2017/07/11 14:18:01","新北市板橋區民生路三段11號","121.467546666667","25.0238133333333","6500100","板橋區"
"220002","741-BX","2017/07/11 14:18:03","新北市板橋區四川路一段197號","121.460685","25.003665","6500100","板橋區"
"220003","827-TW","2017/07/11 14:18:01","新北市板橋區民族路57號","121.46465","25.0088333333333","6500100","板橋區"
"220014","829-TW","2017/07/11 14:17:59","新北市板橋區長安街138巷1弄56號","121.474061666667","25.0102133333333","6500100","板橋區"
"220051","830-TW","2017/07/11 14:17:52","新北市板橋區文聖街99-3號","121.477768333333","25.02962","6500100","板橋區"
"220045","831-TW","2017/07/11 14:17:53","新北市板橋區大同街26巷35號","121.47855","25.0262933333333","6500100","板橋區"
"220022","895-R6","2017/07/11 14:17:59","新北市板橋區北門街55號","121.45611","25.0116833333333","6500100","板橋區"
"220021","985-R7","2017/07/11 14:17:55","新北市板橋區中正路191號","121.456361666667","25.0170866666667","6500100","板橋區"
"220046","AAC-210","2017/07/11 14:18:11","新北市板橋區漢生西路89巷3弄9號","121.461341666667","25.01951","6500100","板橋區"
"220018","AAC-253","2017/07/11 14:18:04","新北市板橋區忠孝路56號","121.46095","25.0019483333333","6500100","板橋區"
