"lineid","car","time","location","longitude","latitude","cityid","cityname"
"234001","AAC-295","2017/07/11 14:52:47","新北市永和區福和路1號","121.526525","25.0099483333333","6500400","永和區"
"243009","297-R6","2017/07/11 16:04:01","新北市泰山區大科路2號","121.419725","25.0650083333333","6501600","泰山區"
"243012","539-UM","2017/07/11 12:39:14","新北市泰山區黎明路25號","121.422011666667","25.0607916666667","6501600","泰山區"
"231030","001-UM","2017/07/11 16:04:08","新北市新店區柴埕路47號","121.514228333333","24.9652733333333","6500600","新店區"
"231018","107-UY","2017/07/11 16:04:05","新北市新店區中正路680巷10號","121.534418333333","24.9898616666667","6500600","新店區"
"231069","189-VK","2017/07/11 11:58:55","新北市新店區安華路28-1號","121.51961","24.9611616666667","6500600","新店區"
"231034","268-BY","2017/07/11 16:03:51","新北市新店區如意街78號","121.49521","24.946925","6500600","新店區"
"231046","278-BY","2017/07/11 16:03:53","新北市新店區安康路一段186號","121.524908333333","24.963275","6500600","新店區"
"231015","AAD-862","2017/07/11 16:04:01","新北市新店區中正路415號","121.534273333333","24.977785","6500600","新店區"
"231038","4715-K9","2017/07/11 16:04:07","新北市新店區安康路二段318-1號","121.504816666667","24.95835","6500600","新店區"
"231035","515-UM","2017/07/11 16:04:10","新北市新店區安民街193號","121.517103333333","24.9715533333333","6500600","新店區"
"241011","013-R5","2017/07/11 16:04:03","新北市三重區正義北路185號","121.496255","25.0678616666667","6500200","三重區"
"241028","022-UY","2017/07/11 16:03:59","新北市三重區正義南路107號","121.49819","25.0585816666667","6500200","三重區"
"241008","059-VK","2017/07/11 16:03:54","新北市三重區忠孝路三段52號","121.480575","25.0656733333333","6500200","三重區"
"241015","062-VK","2017/07/11 16:03:56","新北市三重區環河南路286號","121.488901666667","25.0489666666667","6500200","三重區"
"241017","063-VK","2017/07/11 16:03:55","新北市三重區大仁街48巷15號","121.491323333333","25.0645566666667","6500200","三重區"
"241024","065-VK","2017/07/11 16:04:01","新北市三重區中正北路145巷7弄18號","121.485306666667","25.0675316666667","6500200","三重區"
"241026","066-VK","2017/07/11 16:04:05","新北市三重區福裕街137號","121.496345","25.06127","6500200","三重區"
"241003","091-VK","2017/07/11 16:03:50","新北市三重區自強路五段114號","121.496885","25.08369","6500200","三重區"
"241020","156-TC","2017/07/11 16:03:51","新北市三重區後竹圍街271號","121.48291","25.0710633333333","6500200","三重區"
"241005","262-UM","2017/07/11 16:03:52","新北市三重區溪尾街300-2號","121.487385","25.08371","6500200","三重區"
"241013","265-UM","2017/07/11 16:03:58","新北市三重區安慶街35號","121.496501666667","25.0693033333333","6500200","三重區"
"241016","266-UM","2017/07/11 16:04:07","新北市三重區重新路四段146號","121.486291666667","25.056385","6500200","三重區"
"241022","267-UM","2017/07/11 16:03:53","新北市三重區中正北路174-9號","121.483211666667","25.0665833333333","6500200","三重區"
"241018","268-UM","2017/07/11 16:04:01","新北市三重區中正北路73號","121.490193333333","25.06307","6500200","三重區"
"241025","271-UM","2017/07/11 16:04:06","新北市三重區中正北路153號","121.482516666667","25.0676133333333","6500200","三重區"
"241007","398-BY","2017/07/11 16:03:58","新北市三重區力行路二段184號","121.48334","25.0773366666667","6500200","三重區"
"241019","478-VK","2017/07/11 16:04:04","新北市三重區忠孝路二段32巷29號","121.486233333333","25.0703366666667","6500200","三重區"
"241030","480-VK","2017/07/11 16:03:55","新北市三重區重新路四段121號","121.484781666667","25.0524333333333","6500200","三重區"
"241014","543-UM","2017/07/11 16:03:57","新北市三重區環河南路286號","121.488955","25.0489183333333","6500200","三重區"
"241023","545-UM","2017/07/11 16:04:04","新北市三重區忠孝路二段138號","121.482388333333","25.0682983333333","6500200","三重區"
"241001","547-UM","2017/07/11 16:04:04","新北市三重區自強路三段79號","121.487211666667","25.0746566666667","6500200","三重區"
"241006","AAD-863","2017/07/11 16:04:10","新北市三重區永福街58巷3弄20號","121.480585","25.07731","6500200","三重區"
"241012","941-UM","2017/07/11 16:04:05","新北市三重區文化北路118巷13號","121.49819","25.06639","6500200","三重區"
"241029","942-UM","2017/07/11 16:03:51","新北市三重區環河南路106號","121.498621666667","25.0567033333333","6500200","三重區"
"241033","AAC-255","2017/07/11 16:04:07","新北市三重區中興南街80巷3號","121.471253333333","25.043575","6500200","三重區"
"235026","800-TS","2017/07/11 16:03:48","新北市中和區永和路171巷3弄1號","121.492293333333","25.00669","6500300","中和區"
"247002","402-BY","2017/07/11 16:04:08","新北市五股區新五路二段347號","121.443213333333","25.0864216666667","6501400","蘆洲區"
"247003","056-VK","2017/07/11 15:56:19","新北市五股區中興路三段2巷10號","121.448906666667","25.0817733333333","6501400","蘆洲區"
"224007","273-VK","2017/07/11 16:04:05","新北市瑞芳區粗坑口路1巷34號","121.763445","25.0933683333333","6501200","瑞芳區"
"227009","642-TC","2017/07/11 16:04:01","新北市雙溪區三港里雙澳路57號","121.880066666667","25.0536","6502500","雙溪區"
"227003","400-TW","2017/07/11 16:03:54","新北市雙溪區平林里外平林79號","121.840893333333","25.0344016666667","6502500","雙溪區"
"252002","178-VK","2017/07/11 15:55:32","新北市三芝區埔坪里埔頭坑41號","121.504626666667","25.26459","6502100","三芝區"
"236057","912-UM","2017/07/11 16:04:01","新北市土城區中央路三段38號","121.43838","24.968845","6501300","土城區"
"221010","276-VK","2017/07/11 13:23:39","新北市汐止區汐萬路一段256巷3號","121.653433333333","25.07461","6501100","汐止區"
