"lineid","car","time","location","longitude","latitude","cityid","cityname"
"249005","172-UM","2017/07/11 16:57:57","新北市八里區渡船頭3-5號","121.432536666667","25.1545083333333","6502300","八里區"
"249001","173-UM","2017/07/11 16:57:49","新北市八里區商港路98號","121.395351666667","25.14691","6502300","八里區"
"249004","303-UY","2017/07/11 16:57:50","新北市八里區挖子尾17號","121.41512","25.166745","6502300","八里區"
"249002","305-UY","2017/07/11 16:55:34","新北市八里區牛寮埔35號","121.432243333333","25.1452966666667","6502300","八里區"
"249003","593-UM","2017/07/11 16:57:54","新北市八里區中山路二段277號","121.401865","25.1487766666667","6502300","八里區"
"234001","AAC-295","2017/07/11 14:52:47","新北市永和區福和路1號","121.526525","25.0099483333333","6500400","永和區"
"244019","403-UM","2017/07/11 16:49:20","新北市林口區粉寮69號","121.405088333333","25.090785","6501700","林口區"
"244023","483-VK","2017/07/11 16:56:48","新北市林口區粉寮69號","121.405123333333","25.0908666666667","6501700","林口區"
"244011","701-TV","2017/07/11 16:57:01","新北市林口區粉寮路二段160巷28號","121.405181666667","25.090795","6501700","林口區"
"243012","539-UM","2017/07/11 12:39:14","新北市泰山區黎明路25號","121.422011666667","25.0607916666667","6501600","泰山區"
"231069","189-VK","2017/07/11 11:58:55","新北市新店區安華路28-1號","121.51961","24.9611616666667","6500600","新店區"
"231046","278-BY","2017/07/11 16:57:53","新北市新店區永業路81巷12號","121.532548333333","24.9479783333333","6500600","新店區"
"241011","013-R5","2017/07/11 16:58:03","新北市三重區龍門路246號","121.500871666667","25.0737583333333","6500200","三重區"
"241028","022-UY","2017/07/11 16:57:59","新北市三重區光興街128號","121.494848333333","25.0595016666667","6500200","三重區"
"241008","059-VK","2017/07/11 16:57:54","新北市三重區永安北路一段11巷20號","121.477371666667","25.074825","6500200","三重區"
"241009","060-VK","2017/07/11 16:58:02","新北市三重區仁美街107號","121.48589","25.0808216666667","6500200","三重區"
"241031","061-VK","2017/07/11 16:58:09","新北市三重區三寧街16號","121.489146666667","25.0596816666667","6500200","三重區"
"241015","062-VK","2017/07/11 16:58:05","新北市三重區三和路二段14-2號","121.500761666667","25.06713","6500200","三重區"
"241017","063-VK","2017/07/11 16:57:55","新北市三重區國隆路12巷1號","121.49284","25.0637783333333","6500200","三重區"
"241024","065-VK","2017/07/11 16:58:01","新北市三重區國道路一段58巷20號","121.481286666667","25.0720933333333","6500200","三重區"
"241026","066-VK","2017/07/11 16:58:05","新北市三重區文化南路42號","121.500408333333","25.06025","6500200","三重區"
"241002","090-VK","2017/07/11 16:58:02","新北市三重區仁義街101巷28號","121.49895","25.0804733333333","6500200","三重區"
"241003","091-VK","2017/07/11 16:58:10","新北市三重區五華街141巷58號","121.493575","25.0868266666667","6500200","三重區"
"241020","156-TC","2017/07/11 16:58:11","新北市三重區後竹圍街175巷28號","121.485395","25.0728883333333","6500200","三重區"
"241005","262-UM","2017/07/11 16:57:52","新北市三重區仁華街106號","121.485433333333","25.0833916666667","6500200","三重區"
"241013","265-UM","2017/07/11 16:57:58","新北市三重區仁和街77號","121.497676666667","25.0741633333333","6500200","三重區"
"241016","266-UM","2017/07/11 16:58:07","新北市三重區自強路一段160巷3弄30號","121.494591666667","25.06539","6500200","三重區"
"241022","267-UM","2017/07/11 16:57:53","新北市三重區中華路123巷21號","121.484443333333","25.0638216666667","6500200","三重區"
"241018","268-UM","2017/07/11 16:58:01","新北市三重區六張街126巷2弄12號","121.492325","25.069475","6500200","三重區"
"241032","269-UM","2017/07/11 16:57:59","新北市三重區新北大道一段35巷9號","121.486098333333","25.0607866666667","6500200","三重區"
"241025","271-UM","2017/07/11 16:58:06","新北市三重區中正北路361號","121.472655","25.071755","6500200","三重區"
"241007","398-BY","2017/07/11 16:57:58","新北市三重區三和路四段181巷249號","121.488016666667","25.0805816666667","6500200","三重區"
"241004","475-VK","2017/07/11 16:57:50","新北市三重區五華街92-1號","121.49286","25.0823483333333","6500200","三重區"
"241019","478-VK","2017/07/11 16:58:04","新北市三重區自強路二段74巷19號","121.487993333333","25.069945","6500200","三重區"
"241030","480-VK","2017/07/11 16:57:55","新北市三重區昌隆街49號","121.49127","25.0514016666667","6500200","三重區"
"241014","543-UM","2017/07/11 16:57:57","新北市三重區介壽路39巷102號","121.500843333333","25.070595","6500200","三重區"
"241023","545-UM","2017/07/11 16:58:04","新北市三重區新北大道一段157號","121.481476666667","25.06133","6500200","三重區"
"241001","547-UM","2017/07/11 16:58:04","新北市三重區仁愛街170號","121.49408","25.076605","6500200","三重區"
"241006","AAD-863","2017/07/11 16:58:10","新北市三重區車路頭街117巷26號","121.484971666667","25.07556","6500200","三重區"
"241012","941-UM","2017/07/11 16:58:04","新北市三重區仁和街205號","121.500576666667","25.07506","6500200","三重區"
"241029","942-UM","2017/07/11 16:57:51","新北市三重區環河南路220-8號","121.493363333333","25.0526833333333","6500200","三重區"
"241033","AAC-255","2017/07/11 16:58:07","新北市三重區中興北街275號","121.469051666667","25.060835","6500200","三重區"
"235067","255-BX","2017/07/11 16:16:13","新北市中和區員山路36巷13號","121.484435","24.9912033333333","6500300","中和區"
"247020","893-R6","2017/07/11 16:58:05","新北市蘆洲區民族路422巷29號","121.473481666667","25.0933783333333","6501400","蘆洲區"
"247010","546-UM","2017/07/11 16:57:51","新北市蘆洲區信義路213號","121.479168333333","25.0834816666667","6501400","蘆洲區"
"247018","500-BY","2017/07/11 16:57:55","新北市蘆洲區民族路227巷24弄1號","121.476311666667","25.088655","6501400","蘆洲區"
"247002","402-BY","2017/07/11 16:18:16","新北市五股區中興路三段3-6號","121.449531666667","25.078715","6501400","蘆洲區"
"247006","341-TH","2017/07/11 16:58:05","新北市蘆洲區長安街99巷5號","121.46143","25.0804933333333","6501400","蘆洲區"
"247008","339-TH","2017/07/11 16:58:06","新北市蘆洲區中山一路195號","121.474453333333","25.0810033333333","6501400","蘆洲區"
"247024","337-TH","2017/07/11 16:58:09","新北市蘆洲區光明路85巷15號","121.460781666667","25.0876233333333","6501400","蘆洲區"
"247002","336-TH","2017/07/11 16:58:03","新北市蘆洲區永平街20號","121.459151666667","25.0907366666667","6501400","蘆洲區"
"247014","057-VK","2017/07/11 16:57:55","新北市蘆洲區得勝街30號","121.473583333333","25.0838466666667","6501400","蘆洲區"
"247004","056-VK","2017/07/11 16:58:07","新北市蘆洲區永安南路二段254號","121.45961","25.0803016666667","6501400","蘆洲區"
"247012","007-UY","2017/07/11 16:57:56","新北市蘆洲區信義路298號","121.477608333333","25.0876033333333","6501400","蘆洲區"
"247016","001-UY","2017/07/11 16:57:52","新北市蘆洲區光華路65巷26號","121.468818333333","25.0819316666667","6501400","蘆洲區"
"228001","212-TW","2017/07/11 16:57:51","新北市貢寮區貢寮里朝陽街1-2號","121.912306666667","25.0212616666667","6502600","貢寮區"
"228002","585-TW","2017/07/11 16:58:08","新北市貢寮區貢寮里朝陽街1-2號","121.911993333333","25.0213833333333","6502600","貢寮區"
"228003","828-UM","2017/07/11 16:56:53","新北市貢寮區福隆里興隆街100巷7號","121.936135","25.0181716666667","6502600","貢寮區"
"224010","AGQ-8101","2017/07/11 09:23:19","新北市瑞芳區民權街3-1號","121.809458333333","25.1082816666667","6501200","瑞芳區"
"224006","676-BX","2017/07/11 16:57:58","新北市瑞芳區大寮路356-1號","121.784735","25.1032516666667","6501200","瑞芳區"
"224009","285-BY","2017/07/11 16:58:03","新北市瑞芳區明燈路一段1號","121.826645","25.10934","6501200","瑞芳區"
"224008","275-VK","2017/07/11 16:57:57","新北市瑞芳區明燈路一段195號","121.818731666667","25.1078016666667","6501200","瑞芳區"
"224007","273-VK","2017/07/11 16:58:05","新北市瑞芳區瑞竹路44號","121.763718333333","25.1033883333333","6501200","瑞芳區"
"224005","271-BY","2017/07/11 16:57:35","新北市瑞芳區南雅路1號","121.89485","25.1197816666667","6501200","瑞芳區"
"227009","642-TC","2017/07/11 16:58:00","新北市雙溪區牡丹里聖南10-3號","121.860951666667","25.049225","6502500","雙溪區"
"227003","400-TW","2017/07/11 16:57:54","新北市雙溪區長源里土地公山1-1號","121.79976","25.0139616666667","6502500","雙溪區"
"251014","180-VK","2017/07/11 16:58:03","新北市淡水區興仁路162號","121.451573333333","25.2205716666667","6501000","淡水區"
"251008","181-VK","2017/07/11 16:57:49","新北市淡水區樹梅坑9號","121.472718333333","25.1426333333333","6501000","淡水區"
"251012","441-VK","2017/07/11 16:58:01","新北市淡水區中正路二段31號","121.419561666667","25.1815883333333","6501000","淡水區"
"251016","442-VK","2017/07/11 16:57:59","新北市淡水區瓦坑8-3號","121.478193333333","25.1827183333333","6501000","淡水區"
"251005","443-VK","2017/07/11 16:58:03","新北市淡水區中正路一段33號","121.425781666667","25.1767133333333","6501000","淡水區"
"251006","561-UM","2017/07/11 16:21:19","新北市淡水區中正路二段31號","121.419455","25.1816166666667","6501000","淡水區"
"251007","577-R6","2017/07/11 16:58:05","新北市淡水區中山路141號","121.440883333333","25.1716583333333","6501000","淡水區"
"251011","650-BX","2017/07/11 16:57:52","新北市淡水區中山路104號","121.442353333333","25.1706616666667","6501000","淡水區"
"252002","178-VK","2017/07/11 16:58:09","新北市三芝區忠孝街173號","121.505436666667","25.2613983333333","6502100","三芝區"
"252001","702-TV","2017/07/11 16:58:11","新北市三芝區淡金路二段89號","121.503953333333","25.26081","6502100","三芝區"
"242021","AAC-296","2017/07/11 15:40:54","新北市新莊區三和路12-21號","121.441945","25.0387866666667","6500500","新莊區"
"242048","751-BX","2017/07/11 16:57:54","新北市新莊區新泰路357巷3弄57號","121.442105","25.039165","6500500","新莊區"
"242029","705-TV","2017/07/11 16:57:51","新北市新莊區三和路12-12號","121.442251666667","25.03706","6500500","新莊區"
"242023","613-BX","2017/07/11 16:57:59","新北市新莊區新泰路255巷83號","121.442275","25.039205","6500500","新莊區"
"242037","566-BX","2017/07/11 16:57:57","新北市新莊區新泰路357巷3弄57號","121.442088333333","25.039095","6500500","新莊區"
"242002","413-TV","2017/07/11 02:38:58","新北市新莊區新泰路357巷3弄57號","121.44187","25.0394","6500500","新莊區"
"242056","176-VK","2017/07/11 16:57:56","新北市新莊區三和路12-21號","121.441823333333","25.0386716666667","6500500","新莊區"
"242054","349-TH","2017/07/11 16:58:08","新北市新莊區三和路12-16號","121.442011666667","25.0374566666667","6500500","新莊區"
"242015","350-TH","2017/07/11 16:56:20","新北市新莊區新泰路255巷83號","121.441988333333","25.03892","6500500","新莊區"
"242009","351-TH","2017/07/11 04:24:03","新北市新莊區新泰路357巷3弄57號","121.442051666667","25.0396633333333","6500500","新莊區"
"238023","601-UM","2017/07/11 16:57:57","新北市樹林區育德街78-1號","121.387453333333","24.9683116666667","6500700","樹林區"
"238018","571-TV","2017/07/11 16:58:05","新北市樹林區育德街78號","121.387855","24.9683916666667","6500700","樹林區"
"238021","311-TH","2017/07/11 16:57:53","新北市樹林區育德街78-1號","121.387845","24.9682666666667","6500700","樹林區"
"238025","303-VK","2017/07/11 16:58:12","新北市樹林區中山路三段204號","121.387193333333","24.9683483333333","6500700","樹林區"
"238020","268-VK","2017/07/11 16:58:09","新北市樹林區育德街78-1號","121.387616666667","24.968275","6500700","樹林區"
"239007","AAC-297","2017/07/11 16:57:59","新北市鶯歌區二甲路13-16號","121.345236666667","24.9354633333333","6500800","鶯歌區"
"239006","891-R6","2017/07/11 16:58:03","新北市鶯歌區二甲路13-16號","121.34494","24.9350983333333","6500800","鶯歌區"
"239008","527-UM","2017/07/11 16:57:55","新北市鶯歌區二甲路13-16號","121.345033333333","24.93535","6500800","鶯歌區"
"239005","526-UM","2017/07/11 16:58:10","新北市鶯歌區二甲路13-16號","121.345263333333","24.9355183333333","6500800","鶯歌區"
"239001","417-VK","2017/07/11 16:58:01","新北市鶯歌區二甲路12-2號","121.345553333333","24.9349966666667","6500800","鶯歌區"
"239003","360-BY","2017/07/11 16:58:10","新北市鶯歌區二甲路12-2號","121.345605","24.9351033333333","6500800","鶯歌區"
"239002","359-BY","2017/07/10 20:30:30","新北市鶯歌區二甲路12-2號","121.34561","24.9347433333333","6500800","鶯歌區"
"221010","276-VK","2017/07/11 13:23:39","新北市汐止區汐萬路一段256巷3號","121.653433333333","25.07461","6501100","汐止區"
