"lineid","car","time","location","longitude","latitude","cityid","cityname"
"234007","207-UY","2017/07/11 18:17:55","新北市永和區環河西路二段9-2號","121.508375","25.0165766666667","6500400","永和區"
"234017","745-BX","2017/07/11 18:18:00","新北市永和區福和路1號","121.526491666667","25.0098416666667","6500400","永和區"
"234067","847-RS","2017/07/11 18:18:03","新北市永和區福和路1號","121.526406666667","25.0097933333333","6500400","永和區"
"234042","862-TW","2017/07/11 18:17:53","新北市永和區福和路1號","121.5264","25.0097683333333","6500400","永和區"
"234026","9371-KE","2017/07/11 18:18:04","新北市永和區豫溪街42巷7號","121.51549","25.0094216666667","6500400","永和區"
"234011","9373-KE","2017/07/11 18:17:54","新北市永和區保安路23號","121.510266666667","25.0167333333333","6500400","永和區"
"249005","172-UM","2017/07/11 18:17:57","新北市八里區荖阡坑路15號","121.401565","25.1399016666667","6502300","八里區"
"249001","173-UM","2017/07/11 18:18:09","新北市八里區龍米路一段191號","121.451366666667","25.13075","6502300","八里區"
"249004","303-UY","2017/07/11 18:17:50","新北市八里區龍米路二段228-1號","121.432763333333","25.158415","6502300","八里區"
"249002","305-UY","2017/07/11 18:17:54","新北市八里區龍形二街10號","121.450583333333","25.13251","6502300","八里區"
"249003","593-UM","2017/07/11 18:18:09","新北市八里區松子腳3-2號","121.402961666667","25.1442983333333","6502300","八里區"
"248016","026-BX","2017/07/11 18:17:53","新北市五股區成泰路三段477巷18號","121.449898333333","25.0988933333333","6501500","五股區"
"248006","077-UY","2017/07/11 18:17:58","新北市五股區中興路一段164-1號","121.464015","25.0740216666667","6501500","五股區"
"248008","095-VK","2017/07/11 18:18:07","新北市五股區更洲路32巷8弄14號","121.459255","25.0796283333333","6501500","五股區"
"248020","225-UY","2017/07/11 18:18:01","新北市五股區孝義路47巷7-4號","121.453838333333","25.1103083333333","6501500","五股區"
"248012","247-BX","2017/07/11 00:36:47","新北市五股區中興路二段37巷28號","121.460171666667","25.0749666666667","6501500","五股區"
"248014","261-SL","2017/07/11 18:18:08","新北市五股區成泰路一段171巷15號","121.434338333333","25.0744083333333","6501500","五股區"
"248010","272-BY","2017/07/11 18:18:08","新北市五股區成泰路一段189巷9弄2號","121.434241666667","25.076685","6501500","五股區"
"248004","677-BX","2017/07/11 18:18:01","新北市五股區成泰路二段87號","121.438196666667","25.08398","6501500","五股區"
"248002","678-BX","2017/07/11 18:18:07","新北市五股區西雲路48號","121.443575","25.0909716666667","6501500","五股區"
"234001","AAC-295","2017/07/11 14:52:47","新北市永和區福和路1號","121.526525","25.0099483333333","6500400","永和區"
"232011","375-UM","2017/07/11 18:17:55","新北市坪林區坪雙路一段43號","121.711793333333","24.9424466666667","6502000","坪林區"
"244013","069-UM","2017/07/11 18:18:12","新北市林口區中山路160巷2號","121.390746666667","25.0791833333333","6501700","林口區"
"244007","080-UY","2017/07/11 18:18:00","新北市林口區台電新村14號","121.386211666667","25.0862616666667","6501700","林口區"
"244019","403-UM","2017/07/11 18:18:00","新北市林口區文化一路一段120號","121.374175","25.0719833333333","6501700","林口區"
"244009","410-SL","2017/07/11 18:18:02","新北市林口區佳林路88號","121.385596666667","25.0799783333333","6501700","林口區"
"244023","483-VK","2017/07/11 18:18:08","新北市林口區東湖路153巷135號","121.382175","25.0735966666667","6501700","林口區"
"244017","485-VK","2017/07/11 18:17:54","新北市林口區八德路48巷19號","121.366951666667","25.0668966666667","6501700","林口區"
"244011","701-TV","2017/07/11 18:18:01","新北市林口區新生街11號","121.394163333333","25.0767816666667","6501700","林口區"
"244025","837-TS","2017/07/11 18:18:03","新北市林口區文化北路一段192-100號","121.357268333333","25.07049","6501700","林口區"
"244021","838-TS","2017/07/11 18:17:56","新北市林口區自強一街48號","121.39936","25.0774766666667","6501700","林口區"
"243013","AAD-798","2017/07/11 18:18:06","新北市泰山區南林路93號","121.415556666667","25.051145","6501600","泰山區"
"243012","539-UM","2017/07/11 12:39:14","新北市泰山區黎明路25號","121.422011666667","25.0607916666667","6501600","泰山區"
"222003","436-BY","2017/07/11 18:18:04","新北市深坑區文山路二段31號","121.616658333333","24.99885","6501800","深坑區"
"222001","628-TS","2017/07/11 18:17:58","新北市深坑區北深路二段51號","121.618988333333","25.00408","6501800","深坑區"
"222002","659-BX","2017/07/11 18:17:59","新北市深坑區文化街13號","121.62036","25.0012283333333","6501800","深坑區"
"231061","001-UM","2017/07/11 18:17:56","新北市新店區安華路28-1號","121.519343333333","24.96087","6500600","新店區"
"231056","0291-UT","2017/07/11 18:17:58","新北市新店區中央路183-1號","121.536086666667","24.9688966666667","6500600","新店區"
"231059","046-UY","2017/07/11 18:18:02","新北市新店區安華路28-1號","121.519416666667","24.9608133333333","6500600","新店區"
"231060","106-UY","2017/07/11 18:18:05","新北市新店區安華路28-1號","121.519551666667","24.9607583333333","6500600","新店區"
"231051","107-UY","2017/07/11 18:17:53","新北市新店區安華路28-1號","121.519371666667","24.9611166666667","6500600","新店區"
"231048","108-UY","2017/07/11 18:17:54","新北市新店區安華路28-1號","121.519588333333","24.96097","6500600","新店區"
"231053","110-UY","2017/07/11 18:18:08","新北市新店區安康路一段355-3號","121.519798333333","24.962095","6500600","新店區"
"231069","189-VK","2017/07/11 11:58:55","新北市新店區安華路28-1號","121.51961","24.9611616666667","6500600","新店區"
"231057","256-BX","2017/07/11 18:18:08","新北市新店區安華路28-1號","121.519588333333","24.9611933333333","6500600","新店區"
"231063","268-BY","2017/07/11 18:18:01","新北市新店區安華路1-1號","121.519343333333","24.96043","6500600","新店區"
"231046","278-BY","2017/07/11 18:17:53","新北市新店區直潭七街60號","121.53223","24.9399183333333","6500600","新店區"
"231050","AAD-862","2017/07/11 18:18:00","新北市新店區安華路28-1號","121.520073333333","24.9611783333333","6500600","新店區"
"231058","3712-VJ","2017/07/11 18:17:54","新北市新店區環河路29巷1號","121.537231666667","24.9612766666667","6500600","新店區"
"231055","3713-VJ","2017/07/11 18:17:58","新北市新店區安康路一段355-3號","121.519788333333","24.9623933333333","6500600","新店區"
"231067","4772-VM","2017/07/11 18:17:55","新北市新店區安華路1-1號","121.519166666667","24.960505","6500600","新店區"
"231065","512-UM","2017/07/11 18:17:58","新北市新店區安華路28-1號","121.519453333333","24.9614583333333","6500600","新店區"
"231054","513-UM","2017/07/11 18:17:55","新北市新店區安華路28-1號","121.519563333333","24.96113","6500600","新店區"
"231064","515-UM","2017/07/11 18:18:09","新北市新店區安華路28-1號","121.519565","24.9609333333333","6500600","新店區"
"231042","616-UM","2017/07/11 18:17:56","新北市新店區安華路1-1號","121.519436666667","24.960515","6500600","新店區"
"231045","617-UM","2017/07/11 18:18:11","新北市新店區安華路28-1號","121.51938","24.96098","6500600","新店區"
"231040","619-UM","2017/07/11 18:18:05","新北市新店區安華路28-1號","121.519443333333","24.9606816666667","6500600","新店區"
"231049","719-UM","2017/07/11 18:17:58","新北市新店區安華路28-1號","121.519453333333","24.961295","6500600","新店區"
"231062","720-UM","2017/07/11 18:17:57","新北市新店區安華路28-1號","121.519185","24.9612233333333","6500600","新店區"
"231044","897-TW","2017/07/11 18:17:51","新北市新店區安華路28-1號","121.519358333333","24.9605933333333","6500600","新店區"
"231043","899-TW","2017/07/11 18:18:06","新北市新店區安華路28-1號","121.519083333333","24.9608766666667","6500600","新店區"
"241020","156-TC","2017/07/11 18:17:51","新北市三重區忠孝路二段34號","121.485808333333","25.071","6500200","三重區"
"241029","942-UM","2017/07/11 18:17:51","新北市三重區重安街14號","121.490253333333","25.0581966666667","6500200","三重區"
"241033","AAC-255","2017/07/11 18:18:07","新北市三重區中興北街42巷19-1號","121.468675","25.049325","6500200","三重區"
"235066","003-UY","2017/07/11 18:17:57","新北市中和區中山路二段201號","121.499836666667","25.0027033333333","6500300","中和區"
"235064","005-UY","2017/07/11 18:18:07","新北市中和區中正路148號","121.499066666667","24.9938133333333","6500300","中和區"
"235039","097-UM","2017/07/11 18:17:51","新北市中和區中正路305號","121.492325","24.99374","6500300","中和區"
"235065","098-UM","2017/07/11 18:18:09","新北市中和區莊敬路49巷18號","121.501725","25.0061666666667","6500300","中和區"
"235040","150-BY","2017/07/11 18:18:11","新北市中和區中正路271號","121.495903333333","24.9938466666667","6500300","中和區"
"235058","151-BY","2017/07/11 18:17:56","新北市中和區圓通路367巷59弄16號","121.493053333333","24.9837116666667","6500300","中和區"
"235055","183-VK","2017/07/11 18:18:03","新北市中和區中正路637巷52弄1號","121.485556666667","24.993625","6500300","中和區"
"235038","185-VK","2017/07/11 18:17:59","新北市中和區大智街10號","121.520376666667","24.9919083333333","6500300","中和區"
"235067","255-BX","2017/07/11 18:18:08","新北市中和區和城路一段271巷1號","121.485355","24.9919233333333","6500300","中和區"
"235043","352-BY","2017/07/11 18:18:00","新北市中和區中正路291號","121.493578333333","24.9937783333333","6500300","中和區"
"235051","376-QA","2017/07/11 18:18:09","新北市中和區板南路162號","121.501615","24.9926833333333","6500300","中和區"
"235061","378-QA","2017/07/11 18:18:03","新北市中和區民德路218號","121.468138333333","24.99784","6500300","中和區"
"235050","4979-A6","2017/07/11 18:18:00","新北市中和區捷運路61巷7號","121.508883333333","24.9893733333333","6500300","中和區"
"235069","4980-A6","2017/07/11 18:17:51","新北市中和區連勝街46號","121.497941666667","24.9974733333333","6500300","中和區"
"235042","551-UM","2017/07/11 18:17:55","新北市中和區大仁街20巷25弄19號","121.518625","24.9935866666667","6500300","中和區"
"235070","558-UM","2017/07/11 18:18:12","新北市中和區錦和路350-1號","121.490435","24.9935133333333","6500300","中和區"
"235045","565-BX","2017/07/11 18:17:58","新北市中和區中正路55號","121.501725","24.9934133333333","6500300","中和區"
"235054","640-BX","2017/07/11 18:18:00","新北市中和區莒光路203號","121.472621666667","24.998965","6500300","中和區"
"235060","647-TV","2017/07/11 18:17:54","新北市中和區員山路36巷16-3號","121.485126666667","24.9914916666667","6500300","中和區"
"235047","732-UM","2017/07/11 18:17:58","新北市中和區南山路417號","121.507225","24.989575","6500300","中和區"
"235062","800-TS","2017/07/11 18:18:00","新北市中和區景平路999巷1號","121.49542","25.0059833333333","6500300","中和區"
"235052","805-TS","2017/07/11 18:18:02","新北市中和區中正路79號","121.500823333333","24.993485","6500300","中和區"
"235048","896-TW","2017/07/11 18:18:01","新北市中和區員山路36巷16-2號","121.485305","24.9915666666667","6500300","中和區"
"235053","900-TW","2017/07/11 18:18:09","新北市中和區員山路36巷16-2號","121.485186666667","24.9914283333333","6500300","中和區"
"235063","911-UM","2017/07/11 18:17:51","新北市中和區和城路一段271巷1號","121.485585","24.9920033333333","6500300","中和區"
"235037","AAC-213","2017/07/11 18:18:05","新北市中和區景平路183號","121.511673333333","24.992535","6500300","中和區"
"235059","AAC-215","2017/07/11 18:18:07","新北市中和區員山路36巷16-2號","121.485371666667","24.9914333333333","6500300","中和區"
"220068","013-TV","2017/07/11 18:18:06","新北市板橋區民生路二段36-1號","121.472656666667","25.0165566666667","6500100","板橋區"
"247002","402-BY","2017/07/11 16:18:16","新北市五股區中興路三段3-6號","121.449531666667","25.078715","6501400","蘆洲區"
"247006","341-TH","2017/07/11 18:18:05","新北市八里區中山路三段216號","121.377996666667","25.14176","6501400","蘆洲區"
"247008","339-TH","2017/07/11 18:18:06","新北市八里區下罟子30-35號","121.367776666667","25.1351233333333","6501400","蘆洲區"
"247014","057-VK","2017/07/11 18:17:53","新北市八里區中山路三段380號","121.36995","25.136545","6501400","蘆洲區"
"226004","205-ST","2017/07/11 18:17:59","新北市平溪區薯榔里薯榔寮31號","121.710451666667","25.01861","6502400","平溪區"
"228001","212-TW","2017/07/11 18:17:51","新北市貢寮區真理里新港街26巷55弄2-1號","121.927345","25.05284","6502600","貢寮區"
"228002","585-TW","2017/07/11 18:18:08","新北市貢寮區福連里馬崗街1號","121.997795","25.016785","6502600","貢寮區"
"228003","828-UM","2017/07/11 18:17:33","新北市貢寮區真理里美艷山街31號","121.923345","25.069015","6502600","貢寮區"
"224006","676-BX","2017/07/11 18:17:58","新北市瑞芳區民權街3-2號","121.808071666667","25.1074066666667","6501200","瑞芳區"
"224002","639-TC","2017/07/11 18:18:06","新北市瑞芳區三爪子坑路2號","121.810215","25.1069283333333","6501200","瑞芳區"
"224011","420-VK","2017/07/11 18:18:06","新北市瑞芳區山尖路172-1號","121.848333333333","25.11193","6501200","瑞芳區"
"224009","285-BY","2017/07/11 18:18:08","新北市瑞芳區金光路284號","121.853133333333","25.1074483333333","6501200","瑞芳區"
"224008","275-VK","2017/07/11 18:18:11","新北市瑞芳區逢甲路29號","121.80923","25.1088333333333","6501200","瑞芳區"
"224007","273-VK","2017/07/11 18:18:05","新北市瑞芳區頂埔巷51-3號","121.767268333333","25.1047066666667","6501200","瑞芳區"
"224005","271-BY","2017/07/11 18:18:07","新北市瑞芳區建基路二段7號","121.80784","25.13267","6501200","瑞芳區"
"227009","642-TC","2017/07/11 18:18:11","新北市雙溪區牡丹里牡丹73號","121.8517","25.0593416666667","6502500","雙溪區"
"227003","400-TW","2017/07/11 18:17:51","新北市雙溪區共和里中山路2號","121.863811666667","25.0338","6502500","雙溪區"
"253006","032-BX","2017/07/11 18:18:05","新北市石門區老梅路56號","121.546478333333","25.2891216666667","6502200","石門區"
"253005","295-VK","2017/07/11 18:18:05","新北市石門區中央路46號","121.568021666667","25.2930483333333","6502200","石門區"
"208003","665-BX","2017/07/11 18:17:54","新北市金山區中山路16號","121.641701666667","25.2182","6502700","金山區"
"208001","761-BX","2017/07/11 18:17:59","新北市金山區中山路16號","121.641568333333","25.217695","6502700","金山區"
"251004","009-UM","2017/07/11 18:18:06","新北市淡水區民族路31巷31號","121.46231","25.1365516666667","6501000","淡水區"
"251014","180-VK","2017/07/11 18:18:03","新北市淡水區北勢子3號","121.485428333333","25.2233816666667","6501000","淡水區"
"251008","181-VK","2017/07/11 18:18:09","新北市淡水區淡金路16巷3號","121.457436666667","25.1601583333333","6501000","淡水區"
"251010","413-VK","2017/07/11 18:17:53","新北市淡水區淡海路223號","121.420223333333","25.18545","6501000","淡水區"
"251012","441-VK","2017/07/11 18:18:01","新北市淡水區北新路二段105號","121.482145","25.1852783333333","6501000","淡水區"
"251016","442-VK","2017/07/11 18:17:54","新北市淡水區淡金路三段70巷1號","121.448303333333","25.2008133333333","6501000","淡水區"
"251005","443-VK","2017/07/11 18:18:03","新北市淡水區學府路51巷3弄8號","121.447083333333","25.1693833333333","6501000","淡水區"
"251001","559-UM","2017/07/11 18:18:05","新北市淡水區自強路108-19號","121.461696666667","25.1311333333333","6501000","淡水區"
"251006","561-UM","2017/07/11 18:18:00","新北市淡水區新民街53巷2號","121.43871","25.1760866666667","6501000","淡水區"
"251009","575-R6","2017/07/11 18:18:07","新北市淡水區中山北路三段163號","121.445348333333","25.1967266666667","6501000","淡水區"
"251011","650-BX","2017/07/11 18:18:12","新北市淡水區坪頂路70巷5號","121.460513333333","25.1633933333333","6501000","淡水區"
"251002","672-BX","2017/07/11 18:17:56","新北市淡水區中正東路一段105巷1號","121.45344","25.1605016666667","6501000","淡水區"
"251003","766-UM","2017/07/11 18:18:01","新北市淡水區北新路186-3號","121.449545","25.1787616666667","6501000","淡水區"
"207003","550-UM","2017/07/11 18:17:54","新北市萬里區野柳里港東路14號","121.68723","25.2036083333333","6502800","萬里區"
"207004","225-TW","2017/07/11 18:17:50","新北市萬里區中幅里中福路202-1號","121.673215","25.1651566666667","6502800","萬里區"
"252002","178-VK","2017/07/11 18:17:49","新北市三芝區中山路二段38號","121.502986666667","25.255105","6502100","三芝區"
"252003","249-BX","2017/07/11 18:17:56","新北市三芝區錫板里南勢崗2號","121.481186666667","25.2634816666667","6502100","三芝區"
"252001","702-TV","2017/07/11 18:17:50","新北市三芝區中興街二段2號","121.498305","25.2566683333333","6502100","三芝區"
"208002","170-UY","2017/07/11 18:18:10","新北市金山區清泉里清水路60巷9號","121.632896666667","25.23453","6502700","金山區"
"237004","078-UY","2017/07/11 18:18:09","新北市三峽區五寮12號","121.375545","24.8709733333333","6500900","三峽區"
"237007","153-BY","2017/07/11 18:17:57","新北市三峽區中正路二段370巷75號","121.364461666667","24.911355","6500900","三峽區"
"237009","210-TH","2017/07/11 18:18:01","新北市三峽區大仁路13巷2號","121.366398333333","24.9370816666667","6500900","三峽區"
"237013","252-BX","2017/07/11 18:18:05","新北市三峽區永安街63號","121.375695","24.929755","6500900","三峽區"
"237012","275-BY","2017/07/11 18:17:56","新北市三峽區民生街1巷5-15號","121.378811666667","24.9360966666667","6500900","三峽區"
"237008","302-VK","2017/07/11 18:17:55","新北市三峽區白雞58-27號","121.386366666667","24.909415","6500900","三峽區"
"237014","433-BY","2017/07/11 18:17:56","新北市三峽區復興路110巷1弄21號","121.372191666667","24.938345","6500900","三峽區"
"237006","5529-G3","2017/07/11 18:18:10","新北市三峽區橫溪路19號","121.396308333333","24.9358116666667","6500900","三峽區"
"237011","572-TV","2017/07/11 18:18:08","新北市三峽區溪東路182號","121.406653333333","24.9325566666667","6500900","三峽區"
"237016","649-BX","2017/07/11 18:18:01","新北市三峽區紫微路42-1號","121.422281666667","24.920135","6500900","三峽區"
"237010","706-TV","2017/07/11 18:17:57","新北市三峽區中山路184巷2號","121.364083333333","24.9367466666667","6500900","三峽區"
"237005","AKY-6261","2017/07/11 18:17:59","新北市三峽區秀川街82號","121.370628333333","24.9334533333333","6500900","三峽區"
"236070","105-UM","2017/07/11 18:17:59","新北市土城區明德路一段128巷2號","121.463238333333","24.9790416666667","6501300","土城區"
"236043","107-UM","2017/07/11 18:17:53","新北市土城區裕生路49號","121.447793333333","24.9866033333333","6501300","土城區"
"236079","166-UM","2017/07/11 18:17:54","新北市土城區永平街29號","121.428568333333","24.9623783333333","6501300","土城區"
"236031","253-BX","2017/07/11 18:17:59","新北市土城區中央路二段180巷9號","121.441208333333","24.97642","6501300","土城區"
"236027","269-VK","2017/07/11 18:18:10","新北市土城區承天路18號","121.4394","24.963465","6501300","土城區"
"236015","270-VK","2017/07/11 18:17:56","新北市土城區青雲路39巷7號","121.460416666667","24.98742","6501300","土城區"
"236038","271-VK","2017/07/11 18:18:09","新北市土城區青雲路483巷2號","121.459185","24.9737316666667","6501300","土城區"
"236023","401-BY","2017/07/11 18:18:05","新北市土城區金城路二段23-1號","121.448635","24.9768916666667","6501300","土城區"
"236059","912-UM","2017/07/11 18:18:01","新北市土城區中央路四段252-1號","121.415126666667","24.956895","6501300","土城區"
"236049","913-UM","2017/07/11 18:18:07","新北市土城區明德路一段398-1號","121.453991666667","24.9786816666667","6501300","土城區"
"236063","915-UM","2017/07/11 18:17:51","新北市土城區金城路三段19號","121.465071666667","24.9863183333333","6501300","土城區"
"236055","AAC-216","2017/07/11 18:18:06","新北市土城區中華路二段199號","121.438138333333","24.9740966666667","6501300","土城區"
"242021","AAC-296","2017/07/11 18:18:03","新北市新莊區新興街58號","121.450883333333","25.037615","6500500","新莊區"
"242025","615-BX","2017/07/11 18:17:59","新北市新莊區五工三路94巷11號","121.458563333333","25.0660283333333","6500500","新莊區"
"242023","613-BX","2017/07/11 18:17:59","新北市新莊區新泰路357巷3弄57號","121.442003333333","25.03955","6500500","新莊區"
"242027","612-BX","2017/07/11 18:18:05","新北市新莊區幸福路821號","121.445331666667","25.0490383333333","6500500","新莊區"
"242037","566-BX","2017/07/11 18:17:57","新北市新莊區後港一路65巷9弄7號","121.42579","25.0268233333333","6500500","新莊區"
"242042","497-BY","2017/07/11 18:17:59","新北市新莊區天祥街61巷10號","121.415858333333","25.0288216666667","6500500","新莊區"
"242005","442-UM","2017/07/11 18:18:09","新北市新莊區中港一街159號","121.447406666667","25.0449816666667","6500500","新莊區"
"242046","441-UM","2017/07/11 18:18:01","新北市新莊區中正路855巷23弄4號","121.420703333333","25.0268866666667","6500500","新莊區"
"242032","415-TV","2017/07/11 18:18:06","新北市新莊區新泰路255巷80號","121.442978333333","25.0394433333333","6500500","新莊區"
"242002","413-TV","2017/07/11 18:17:53","新北市新莊區大觀街14巷6號","121.454586666667","25.0342016666667","6500500","新莊區"
"242061","362-BY","2017/07/11 18:18:07","新北市新莊區後港一路116號","121.428833333333","25.0269983333333","6500500","新莊區"
"242058","353-BY","2017/07/11 18:18:12","桃園市龜山區萬壽路一段117號","121.40857","25.0188566666667","6500500","新莊區"
"242011","132-UY","2017/07/11 18:17:56","新北市新莊區中港路591巷36號","121.449563333333","25.0523","6500500","新莊區"
"242034","133-UY","2017/07/11 18:18:10","新北市新莊區景德路266號","121.44843","25.0337483333333","6500500","新莊區"
"242044","172-VK","2017/07/11 18:18:05","新北市新莊區中山路三段533巷1號","121.413106666667","25.027905","6500500","新莊區"
"242007","173-VK","2017/07/11 18:18:05","新北市新莊區自強街37巷4號","121.454423333333","25.0466316666667","6500500","新莊區"
"242056","176-VK","2017/07/11 18:17:56","新北市新莊區瓊林路51-3號","121.445146666667","25.0275933333333","6500500","新莊區"
"242051","347-TH","2017/07/11 18:18:00","新北市新莊區民安西路52號","121.427438333333","25.02063","6500500","新莊區"
"242017","348-TH","2017/07/11 18:18:07","新北市新莊區中港路301號","121.452875","25.044505","6500500","新莊區"
"242054","349-TH","2017/07/11 18:18:08","新北市新莊區民安西路408號","121.42882","25.0099583333333","6500500","新莊區"
"242015","350-TH","2017/07/11 18:17:40","新北市新莊區中和街122號","121.447558333333","25.0477766666667","6500500","新莊區"
"238015","755-BX","2017/07/11 18:17:59","新北市樹林區文德街1巷6號","121.41929","24.991145","6500700","樹林區"
"238023","601-UM","2017/07/11 18:17:57","新北市樹林區龍興街31巷13號","121.403516666667","25.0160916666667","6500700","樹林區"
"238019","599-UM","2017/07/11 18:18:11","新北市樹林區國凱街140巷26號","121.424131666667","24.9799866666667","6500700","樹林區"
"238018","571-TV","2017/07/11 18:18:04","新北市板橋區大觀路三段160巷38號","121.42987","24.993945","6500700","樹林區"
"238024","5061-A6","2017/07/11 18:18:06","新北市樹林區文化街27號","121.419113333333","24.987745","6500700","樹林區"
"238022","312-TH","2017/07/11 18:17:55","新北市樹林區太平路174巷14號","121.417993333333","24.976835","6500700","樹林區"
"238021","311-TH","2017/07/11 18:04:34","新北市樹林區田尾街64號","121.409145","24.9593616666667","6500700","樹林區"
"238025","303-VK","2017/07/11 18:17:52","新北市樹林區保安街一段326號","121.418316666667","24.99767","6500700","樹林區"
"238017","283-BY","2017/07/11 18:18:04","新北市樹林區保安街二段337巷21號","121.411178333333","25.008005","6500700","樹林區"
"238014","282-BY","2017/07/11 18:18:04","新北市樹林區潭興街101號","121.424691666667","24.9985416666667","6500700","樹林區"
"238020","268-VK","2017/07/11 18:18:09","新北市樹林區三龍街78號","121.413963333333","25.01859","6500700","樹林區"
"238026","172-UY","2017/07/11 18:17:57","新北市樹林區佳園路一段41巷28弄14號","121.394678333333","24.9704116666667","6500700","樹林區"
"238016","169-UY","2017/07/11 18:17:51","新北市樹林區文化街28號","121.41927","24.9876733333333","6500700","樹林區"
"239007","AAC-297","2017/07/11 18:17:59","新北市鶯歌區重慶街53號","121.350128333333","24.9512916666667","6500800","鶯歌區"
"239006","891-R6","2017/07/11 18:18:03","新北市鶯歌區鶯桃路365巷36號","121.332081666667","24.9624533333333","6500800","鶯歌區"
"239008","527-UM","2017/07/11 18:17:55","新北市鶯歌區國際一路179號","121.336228333333","24.976515","6500800","鶯歌區"
"239005","526-UM","2017/07/11 18:18:10","新北市鶯歌區鶯桃路668巷52弄21號","121.329725","24.9703216666667","6500800","鶯歌區"
"239001","417-VK","2017/07/11 18:18:01","新北市鶯歌區國中街178號","121.338235","24.9391883333333","6500800","鶯歌區"
"239003","360-BY","2017/07/11 18:17:49","新北市鶯歌區福安街58號","121.335571666667","24.9652233333333","6500800","鶯歌區"
"239002","359-BY","2017/07/11 18:18:05","新北市鶯歌區中正一路143號","121.352431666667","24.9562583333333","6500800","鶯歌區"
"239004","193-VK","2017/07/11 18:18:08","新北市鶯歌區尖山路240巷21弄8號","121.342628333333","24.94767","6500800","鶯歌區"
"221008","489-VK","2017/07/11 18:18:13","新北市汐止區翠峰街21巷3弄22號","121.644686666667","25.07583","6501100","汐止區"
"221036","130-UY","2017/07/11 18:18:04","新北市汐止區長安路24號","121.667911666667","25.0779766666667","6501100","汐止區"
"221015","131-UY","2017/07/11 18:17:57","新北市汐止區鄉長路二段23巷11號","121.667621666667","25.082735","6501100","汐止區"
"221010","269-BY","2017/07/11 18:17:52","新北市汐止區祥雲街2號","121.645756666667","25.0895366666667","6501100","汐止區"
"221010","276-VK","2017/07/11 13:23:39","新北市汐止區汐萬路一段256巷3號","121.653433333333","25.07461","6501100","汐止區"
"221031","277-VK","2017/07/11 00:10:03","新北市汐止區汐萬路一段256巷3號","121.652558333333","25.0745033333333","6501100","汐止區"
"221012","278-VK","2017/07/11 18:17:58","新北市汐止區保長路35巷15弄5號","121.673046666667","25.080295","6501100","汐止區"
"221023","279-VK","2017/07/11 13:57:40","新北市汐止區康寧街901號","121.650841666667","25.0752783333333","6501100","汐止區"
"221032","280-BY","2017/07/11 18:17:52","新北市汐止區民權街二段109巷8弄1號","121.61919","25.0467766666667","6501100","汐止區"
"221027","281-BY","2017/07/11 18:17:55","新北市汐止區和平街6巷5弄2號","121.663586666667","25.0718033333333","6501100","汐止區"
"221038","297-VK","2017/07/11 18:18:02","新北市汐止區仁愛路313號","121.664671666667","25.067535","6501100","汐止區"
"221029","298-VK","2017/07/11 18:17:54","新北市汐止區樟樹二路330巷76號","121.643043333333","25.0699933333333","6501100","汐止區"
"221021","299-VK","2017/07/11 17:47:39","新北市汐止區大同路二段350號","121.656855","25.0671366666667","6501100","汐止區"
"221035","622-UM","2017/07/11 18:17:49","新北市汐止區大同路二段187巷8弄5號","121.652673333333","25.065605","6501100","汐止區"
"221025","623-UM","2017/07/11 18:17:56","新北市汐止區勤進路12巷39號","121.65912","25.0627633333333","6501100","汐止區"
"221033","647-BX","2017/07/11 18:18:05","新北市汐止區宜興街53號","121.622581666667","25.04265","6501100","汐止區"
"221002","707-TV","2017/07/11 18:17:50","新北市汐止區福德一路201巷19號","121.635955","25.0648683333333","6501100","汐止區"
"221018","753-BX","2017/07/11 18:18:05","新北市汐止區茄苳路90號","121.667168333333","25.0703633333333","6501100","汐止區"
