"lineid","car","time","location","longitude","latitude","cityid","cityname"
"234046","148-BY","2017/07/11 19:00:07","新北市永和區秀朗路二段196巷3號","121.526046666667","25.0005","6500400","永和區"
"234013","149-BY","2017/07/11 19:00:06","新北市永和區中山路一段60巷2號","121.513018333333","25.0108666666667","6500400","永和區"
"234007","207-UY","2017/07/11 18:59:55","新北市永和區中山路一段56號","121.513011666667","25.010615","6500400","永和區"
"234081","298-R6","2017/07/11 19:00:07","新北市永和區永貞路38號","121.520926666667","25.006545","6500400","永和區"
"234038","336-UY","2017/07/11 19:00:07","新北市永和區民樂街98號","121.527326666667","24.9967833333333","6500400","永和區"
"234064","337-UY","2017/07/11 19:00:02","新北市永和區秀朗路一段146號","121.51823","25.003415","6500400","永和區"
"234086","338-UY","2017/07/11 19:00:07","新北市永和區永利路20號","121.518096666667","25.0057883333333","6500400","永和區"
"234070","552-UM","2017/07/11 19:00:03","新北市永和區豫溪街95巷10弄1號","121.518116666667","25.0108383333333","6500400","永和區"
"234054","553-UM","2017/07/11 19:00:01","新北市永和區竹林路66巷2號","121.518256666667","25.0133616666667","6500400","永和區"
"234017","745-BX","2017/07/11 19:00:00","新北市永和區永和路二段290號","121.516041666667","25.0157266666667","6500400","永和區"
"234030","746-BX","2017/07/11 19:00:11","新北市永和區秀朗路二段278號","121.525985","24.99782","6500400","永和區"
"234061","AAD-866","2017/07/11 19:00:10","新北市永和區福和路309巷1號","121.51632","25.0070516666667","6500400","永和區"
"234067","847-RS","2017/07/11 19:00:03","新北市永和區水源街6號","121.512813333333","25.005045","6500400","永和區"
"234042","862-TW","2017/07/11 18:59:53","新北市永和區永貞路304號","121.511901666667","25.0048083333333","6500400","永和區"
"234050","863-TW","2017/07/11 18:59:51","新北市永和區文化路147號","121.510708333333","25.0161633333333","6500400","永和區"
"234026","9371-KE","2017/07/11 19:00:04","新北市永和區安樂路451號","121.514265","25.00494","6500400","永和區"
"234011","9373-KE","2017/07/11 18:59:50","新北市永和區仁愛路31巷2弄15號","121.513471666667","25.0127766666667","6500400","永和區"
"249005","172-UM","2017/07/11 18:59:57","新北市八里區長道坑14-6號","121.395216666667","25.121435","6502300","八里區"
"249001","173-UM","2017/07/11 18:59:49","新北市八里區龍米路二段222號","121.432906666667","25.158425","6502300","八里區"
"248016","026-BX","2017/07/11 18:59:53","新北市五股區成泰路三段543巷16號","121.450933333333","25.102225","6501500","五股區"
"248006","077-UY","2017/07/11 18:59:58","新北市五股區中興路一段50號","121.468056666667","25.0726216666667","6501500","五股區"
"248008","095-VK","2017/07/11 19:00:07","新北市五股區中興路一段118巷1號","121.465788333333","25.0737633333333","6501500","五股區"
"248020","225-UY","2017/07/11 19:00:01","新北市五股區凌雲路三段57號","121.425336666667","25.1249983333333","6501500","五股區"
"248012","247-BX","2017/07/11 00:36:47","新北市五股區中興路二段37巷28號","121.460171666667","25.0749666666667","6501500","五股區"
"248010","272-BY","2017/07/11 18:59:56","新北市五股區登林路78-3號","121.429498333333","25.0708133333333","6501500","五股區"
"248004","677-BX","2017/07/11 19:00:01","新北市五股區民義路二段75號","121.409236666667","25.1053983333333","6501500","五股區"
"248002","678-BX","2017/07/11 19:00:07","新北市五股區凌雲路一段85號","121.450685","25.1013183333333","6501500","五股區"
"234023","9380-KE","2017/07/11 18:59:54","新北市永和區竹林路75巷17號","121.520048333333","25.0140216666667","6500400","永和區"
"234077","969-R7","2017/07/11 19:00:09","新北市永和區得和路104巷1弄2號","121.518131666667","24.999825","6500400","永和區"
"234074","AAC-211","2017/07/11 19:00:05","新北市永和區豫溪街217巷29號","121.524258333333","25.01023","6500400","永和區"
"234003","AAC-295","2017/07/11 18:58:30","新北市永和區和平街37號","121.512878333333","25.009875","6500400","永和區"
"244013","069-UM","2017/07/11 19:00:04","新北市林口區麗園一街6巷5-2號","121.375435","25.070155","6501700","林口區"
"244019","403-UM","2017/07/11 19:00:00","新北市林口區麗園二街36巷1號","121.380446666667","25.069095","6501700","林口區"
"244009","410-SL","2017/07/11 19:00:02","新北市林口區竹林路348巷26號","121.393045","25.0835583333333","6501700","林口區"
"244023","483-VK","2017/07/11 19:00:08","新北市林口區民權路10-5號","121.37163","25.0798","6501700","林口區"
"244017","485-VK","2017/07/11 18:59:54","新北市林口區公園路131巷3號","121.36901","25.070565","6501700","林口區"
"244011","701-TV","2017/07/11 19:00:01","新北市林口區中正路281號","121.389781666667","25.0774016666667","6501700","林口區"
"244025","837-TS","2017/07/11 19:00:03","新北市林口區文化北路一段370號","121.362496666667","25.0744433333333","6501700","林口區"
"243013","AAD-798","2017/07/11 19:00:06","新北市泰山區明志路三段273號","121.42309","25.0370266666667","6501600","泰山區"
"243009","297-R6","2017/07/11 18:59:53","新北市泰山區福德街5號","121.432433333333","25.062385","6501600","泰山區"
"243015","380-SR","2017/07/11 19:00:09","新北市泰山區明志路一段237號","121.43242","25.0608583333333","6501600","泰山區"
"243014","421-VK","2017/07/11 19:00:05","新北市泰山區黎明路2-5號","121.420838333333","25.0626266666667","6501600","泰山區"
"243012","539-UM","2017/07/11 18:59:20","新北市泰山區福興三街28號","121.433868333333","25.0575866666667","6501600","泰山區"
"243010","548-UM","2017/07/11 19:00:10","新北市泰山區辭修路22號","121.429093333333","25.0581383333333","6501600","泰山區"
"243011","549-UM","2017/07/11 18:59:58","新北市泰山區明志路二段298巷16-13號","121.425638333333","25.04672","6501600","泰山區"
"243016","680-BX","2017/07/11 18:59:57","新北市泰山區明志路二段201號","121.427501666667","25.0491016666667","6501600","泰山區"
"222003","436-BY","2017/07/11 19:00:04","新北市深坑區深南路51-1號","121.62136","25.01011","6501800","深坑區"
"222001","628-TS","2017/07/11 18:59:58","新北市深坑區翠谷街17巷3弄9號","121.625208333333","25.006805","6501800","深坑區"
"222002","659-BX","2017/07/11 18:59:59","新北市深坑區文山路一段31巷2號","121.629871666667","25.00333","6501800","深坑區"
"231061","001-UM","2017/07/11 18:59:56","新北市新店區安康路二段1-5號","121.517286666667","24.963855","6500600","新店區"
"231041","002-UM","2017/07/11 19:00:07","新北市新店區環河路22號","121.53715","24.96188","6500600","新店區"
"231056","0291-UT","2017/07/11 18:59:58","新北市新店區大同街12號","121.539635","24.9798783333333","6500600","新店區"
"231059","046-UY","2017/07/11 19:00:02","新北市新店區安康路一段351-1號","121.519735","24.964015","6500600","新店區"
"231060","106-UY","2017/07/11 19:00:05","新北市新店區車子路10-4號","121.505005","24.95456","6500600","新店區"
"231051","107-UY","2017/07/11 18:59:53","新北市新店區百忍街3號","121.534891666667","24.975475","6500600","新店區"
"231048","108-UY","2017/07/11 18:59:54","新北市新店區德正街27巷29弄21號","121.545765","24.97193","6500600","新店區"
"231053","110-UY","2017/07/11 19:00:08","新北市新店區屈尺路2號","121.549345","24.922665","6500600","新店區"
"231069","189-VK","2017/07/11 11:58:55","新北市新店區安華路28-1號","121.51961","24.9611616666667","6500600","新店區"
"231063","268-BY","2017/07/11 19:00:01","新北市新店區車子路110號","121.505206666667","24.9520666666667","6500600","新店區"
"231046","278-BY","2017/07/11 18:59:53","新北市新店區直潭五街30號","121.534088333333","24.9415933333333","6500600","新店區"
"231050","AAD-862","2017/07/11 19:00:00","新北市新店區新烏路一段11巷21號","121.547828333333","24.9508383333333","6500600","新店區"
"231058","3712-VJ","2017/07/11 18:59:54","新北市新店區中興路一段180號","121.543271666667","24.96477","6500600","新店區"
"231055","3713-VJ","2017/07/11 18:59:58","新北市新店區新生街13巷26號","121.539015","24.96653","6500600","新店區"
"231067","4772-VM","2017/07/11 18:59:55","新北市新店區安康路一段263巷40號","121.523938333333","24.9615616666667","6500600","新店區"
"231065","512-UM","2017/07/11 18:59:58","新北市新店區安祥路147巷74號","121.475915","24.9557116666667","6500600","新店區"
"231054","513-UM","2017/07/11 18:59:55","新北市新店區新店路13號","121.540295","24.9528816666667","6500600","新店區"
"231064","515-UM","2017/07/11 18:59:58","新北市新店區安忠路18號","121.514551666667","24.96218","6500600","新店區"
"231042","616-UM","2017/07/11 18:59:56","新北市新店區中興路一段289號","121.545603333333","24.9687133333333","6500600","新店區"
"231045","617-UM","2017/07/11 19:00:11","新北市新店區北新路一段2-18號","121.538498333333","24.9601583333333","6500600","新店區"
"231040","619-UM","2017/07/11 19:00:05","新北市新店區中正路376號","121.53487","24.9768033333333","6500600","新店區"
"231049","719-UM","2017/07/11 19:00:09","新北市新店區二十張路137-1號","121.535601666667","24.9791033333333","6500600","新店區"
"231062","720-UM","2017/07/11 18:59:57","新北市新店區吉安街39號","121.515451666667","24.966125","6500600","新店區"
"231044","897-TW","2017/07/11 18:59:51","新北市新店區寶中路72號","121.54786","24.9805916666667","6500600","新店區"
"231043","899-TW","2017/07/11 19:00:06","新北市新店區北新路二段7號","121.542598333333","24.971375","6500600","新店區"
"231066","AKT-0513","2017/07/11 18:59:58","新北市新店區安祥路34號","121.493145","24.955735","6500600","新店區"
"241020","156-TC","2017/07/11 19:00:11","新北市三重區忠孝路二段34號","121.485808333333","25.071","6500200","三重區"
"241029","942-UM","2017/07/11 18:59:51","新北市三重區重安街18號","121.49035","25.0581016666667","6500200","三重區"
"235066","003-UY","2017/07/11 18:59:56","新北市中和區中山路二段131巷5弄9號","121.503038333333","25.002985","6500300","中和區"
"235064","005-UY","2017/07/11 19:00:07","新北市中和區泰和街3號","121.499901666667","25.0007383333333","6500300","中和區"
"235056","096-UM","2017/07/11 18:59:59","新北市中和區新民街94巷10號","121.481275","25.0086783333333","6500300","中和區"
"235039","097-UM","2017/07/11 19:00:11","新北市中和區安樂路217巷58號","121.513103333333","24.9977633333333","6500300","中和區"
"235065","098-UM","2017/07/11 19:00:09","新北市中和區中山路二段2巷45弄32號","121.50156","25.00685","6500300","中和區"
"235040","150-BY","2017/07/11 18:59:50","新北市中和區宜安路23巷33號","121.511921666667","24.99457","6500300","中和區"
"235058","151-BY","2017/07/11 18:59:56","新北市中和區連城路569巷9弄11號","121.479735","24.9941433333333","6500300","中和區"
"235055","183-VK","2017/07/11 19:00:03","新北市中和區民德路14號","121.46878","25.002655","6500300","中和區"
"235038","185-VK","2017/07/11 18:59:59","新北市中和區大勇街43巷11號","121.517086666667","24.9945733333333","6500300","中和區"
"235049","186-VK","2017/07/11 19:00:09","新北市中和區景安路177巷35號","121.506933333333","24.9945816666667","6500300","中和區"
"235067","255-BX","2017/07/11 19:00:08","新北市中和區中正路839巷17號","121.484031666667","25.0022633333333","6500300","中和區"
"235044","293-VK","2017/07/11 18:59:55","新北市中和區中興街165號","121.499951666667","24.99068","6500300","中和區"
"235072","301-VK","2017/07/11 19:00:08","新北市中和區中山路二段45號","121.504496666667","25.0050166666667","6500300","中和區"
"235043","352-BY","2017/07/11 19:00:00","新北市中和區成功路56號","121.526058333333","24.9923","6500300","中和區"
"235051","376-QA","2017/07/11 19:00:09","新北市中和區忠孝街106巷37號","121.513428333333","24.9843216666667","6500300","中和區"
"235068","377-QA","2017/07/11 18:53:31","新北市中和區中正路211巷38-4號","121.497655","24.9926066666667","6500300","中和區"
"235061","378-QA","2017/07/11 19:00:03","新北市中和區民治街21巷2號","121.475351666667","25.0023466666667","6500300","中和區"
"235050","4979-A6","2017/07/11 19:00:00","新北市中和區忠孝街2-10號","121.509326666667","24.9827933333333","6500300","中和區"
"235069","4980-A6","2017/07/11 18:59:51","新北市中和區圓通路16號","121.501455","24.9980316666667","6500300","中和區"
"235042","551-UM","2017/07/11 18:59:58","新北市中和區秀朗路三段50巷2弄8號","121.526168333333","24.9959583333333","6500300","中和區"
"235070","558-UM","2017/07/11 18:59:52","新北市中和區圓通路12號","121.50161","24.9980366666667","6500300","中和區"
"235045","565-BX","2017/07/11 18:59:58","新北市中和區興南路一段80號","121.510408333333","24.989855","6500300","中和區"
"235054","640-BX","2017/07/11 19:00:06","新北市中和區民享街35巷12號","121.474736666667","25.0039816666667","6500300","中和區"
"235060","647-TV","2017/07/11 18:59:53","新北市中和區民治街8巷2號","121.474966666667","25.00515","6500300","中和區"
"235047","732-UM","2017/07/11 18:59:58","新北市中和區興南路二段55號","121.506968333333","24.9852166666667","6500300","中和區"
"235046","733-UM","2017/07/11 19:00:08","新北市中和區興南路一段156號","121.508411666667","24.9868733333333","6500300","中和區"
"235062","800-TS","2017/07/11 19:00:00","新北市中和區中山路二段460號","121.488546666667","25.0044916666667","6500300","中和區"
"235057","801-TS","2017/07/11 19:00:08","新北市中和區民利街14巷5弄2號","121.480561666667","24.999685","6500300","中和區"
"235041","802-TS","2017/07/11 19:00:05","新北市中和區中安街178巷13弄3號","121.510316666667","24.9987216666667","6500300","中和區"
"235052","805-TS","2017/07/11 19:00:02","新北市中和區興南路二段347號","121.500108333333","24.9800916666667","6500300","中和區"
"235048","896-TW","2017/07/11 19:00:01","新北市中和區華新街91號","121.508625","24.98335","6500300","中和區"
"235053","900-TW","2017/07/11 18:59:49","新北市中和區民德路292號","121.467518333333","24.995675","6500300","中和區"
"235063","911-UM","2017/07/11 19:00:11","新北市中和區連城路347巷18弄20號","121.487755","24.99465","6500300","中和區"
"235037","AAC-213","2017/07/11 19:00:05","新北市中和區秀朗路三段175巷2號","121.524493333333","24.991285","6500300","中和區"
"235059","AAC-215","2017/07/11 19:00:07","新北市中和區圓通路367巷20弄19號","121.491575","24.9883733333333","6500300","中和區"
"220068","013-TV","2017/07/11 19:00:06","新北市板橋區中山路二段441號","121.481438333333","25.0201066666667","6500100","板橋區"
"220065","072-UY","2017/07/11 19:00:04","新北市板橋區漢生東路328號","121.471635","25.0078283333333","6500100","板橋區"
"220086","073-UY","2017/07/11 19:00:10","新北市板橋區中正路80巷23號","121.457691666667","25.014725","6500100","板橋區"
"220069","AAD-861","2017/07/11 19:00:03","新北市板橋區中山路一段37號","121.46055","25.0087666666667","6500100","板橋區"
"220106","120-SR","2017/07/11 18:59:55","新北市板橋區文化路二段124巷28-2號","121.471256666667","25.0256933333333","6500100","板橋區"
"247002","402-BY","2017/07/11 16:18:16","新北市五股區中興路三段3-6號","121.449531666667","25.078715","6501400","蘆洲區"
"247006","341-TH","2017/07/11 18:53:26","新北市五股區中興路三段163號","121.449221666667","25.0808166666667","6501400","蘆洲區"
"247002","336-TH","2017/07/11 19:00:03","新北市五股區中興路三段163號","121.449215","25.08089","6501400","蘆洲區"
"247014","057-VK","2017/07/11 18:46:00","新北市五股區中興路三段163號","121.449298333333","25.08068","6501400","蘆洲區"
"226004","205-ST","2017/07/11 18:59:59","新北市平溪區靜安路二段520號","121.74426","25.027125","6502400","平溪區"
"228001","212-TW","2017/07/11 19:00:11","新北市貢寮區仁理村保健街71號","121.923683333333","25.05166","6502600","貢寮區"
"228002","585-TW","2017/07/11 19:00:08","新北市貢寮區福隆里東興街106巷21弄2號","121.9461","25.0178966666667","6502600","貢寮區"
"228003","828-UM","2017/07/11 18:59:13","新北市貢寮區和美里龍洞街55號","121.911965","25.1137416666667","6502600","貢寮區"
"224006","676-BX","2017/07/11 18:59:58","新北市瑞芳區中正路2號","121.808933333333","25.1070983333333","6501200","瑞芳區"
"224011","420-VK","2017/07/11 19:00:06","新北市瑞芳區崙頂路3-1號","121.846983333333","25.104745","6501200","瑞芳區"
"224009","285-BY","2017/07/11 19:00:02","新北市瑞芳區祈堂路8號","121.858996666667","25.1131916666667","6501200","瑞芳區"
"224008","275-VK","2017/07/11 18:59:57","新北市瑞芳區瑞芳街118號","121.801511666667","25.1109316666667","6501200","瑞芳區"
"224007","273-VK","2017/07/11 19:00:04","新北市瑞芳區大埔路130號","121.761853333333","25.1006766666667","6501200","瑞芳區"
"224005","271-BY","2017/07/11 18:59:55","新北市瑞芳區瑞芳街32-10號","121.822221666667","25.12096","6501200","瑞芳區"
"227009","642-TC","2017/07/11 19:00:11","新北市雙溪區牡丹里中正路58巷23號","121.866491666667","25.0415716666667","6502500","雙溪區"
"227003","400-TW","2017/07/11 19:00:11","新北市雙溪區平林里康福家園10號","121.858776666667","25.0373216666667","6502500","雙溪區"
"253006","032-BX","2017/07/11 19:00:05","新北市石門區八甲11-3號","121.522221666667","25.2810483333333","6502200","石門區"
"253005","295-VK","2017/07/11 19:00:05","新北市石門區中央路38號","121.568023333333","25.2926916666667","6502200","石門區"
"208003","665-BX","2017/07/11 18:59:59","新北市金山區中正路83號","121.633408333333","25.22173","6502700","金山區"
"208001","761-BX","2017/07/11 18:59:59","新北市金山區中山路16號","121.641815","25.218295","6502700","金山區"
"251014","180-VK","2017/07/11 19:00:03","新北市淡水區小中寮32-1號","121.491411666667","25.2261283333333","6501000","淡水區"
"251010","413-VK","2017/07/11 19:00:13","新北市淡水區淡海路100號","121.422488333333","25.18222","6501000","淡水區"
"251012","441-VK","2017/07/11 19:00:01","新北市淡水區新春街126巷15弄1號","121.440411666667","25.1807833333333","6501000","淡水區"
"251016","442-VK","2017/07/11 18:59:54","新北市淡水區淡金路三段224號","121.4488","25.2048383333333","6501000","淡水區"
"251005","443-VK","2017/07/11 19:00:03","新北市淡水區中正路18巷6號","121.437605","25.1728566666667","6501000","淡水區"
"251001","559-UM","2017/07/11 18:59:54","新北市淡水區自強路58-1號","121.463296666667","25.1275783333333","6501000","淡水區"
"251006","561-UM","2017/07/11 19:00:00","新北市淡水區下圭柔山90-8號","121.431248333333","25.2102866666667","6501000","淡水區"
"251009","575-R6","2017/07/11 19:00:07","新北市淡水區重建街34號","121.439995","25.1712133333333","6501000","淡水區"
"251011","650-BX","2017/07/11 18:59:59","新北市淡水區中正東路二段141號","121.459533333333","25.148255","6501000","淡水區"
"251002","672-BX","2017/07/11 18:59:56","新北市淡水區中正東路49號","121.446676666667","25.1680083333333","6501000","淡水區"
"251003","766-UM","2017/07/11 19:00:01","新北市淡水區中山北路一段149巷24號","121.44295","25.17794","6501000","淡水區"
"207003","550-UM","2017/07/11 18:59:54","新北市萬里區大鵬里頂社71號","121.6551","25.20923","6502800","萬里區"
"207004","225-TW","2017/07/11 19:00:10","新北市萬里區萬里里獅頭路23號","121.693226666667","25.178265","6502800","萬里區"
"252002","178-VK","2017/07/11 19:00:09","新北市三芝區中正路一段82號","121.50414","25.2572516666667","6502100","三芝區"
"252003","249-BX","2017/07/11 18:59:56","新北市三芝區後厝里北勢子42-6號","121.4724","25.2527266666667","6502100","三芝區"
"252001","702-TV","2017/07/11 19:00:10","新北市三芝區中正路三段26號","121.502516666667","25.252915","6502100","三芝區"
"208002","170-UY","2017/07/11 18:51:33","新北市金山區仁愛路37-12號","121.635838333333","25.2200916666667","6502700","金山區"
"237004","078-UY","2017/07/11 18:59:50","新北市三峽區有木206號","121.439091666667","24.8516866666667","6500900","三峽區"
"237007","153-BY","2017/07/11 18:59:57","新北市三峽區柑樹路2巷3號","121.362373333333","24.9058366666667","6500900","三峽區"
"237009","210-TH","2017/07/11 19:00:01","新北市三峽區文化路312號","121.364201666667","24.9354833333333","6500900","三峽區"
"237013","252-BX","2017/07/11 19:00:05","新北市三峽區光明路69巷25號","121.376735","24.92925","6500900","三峽區"
"237012","275-BY","2017/07/11 18:59:56","新北市三峽區三樹路222巷5號","121.37973","24.94261","6500900","三峽區"
"237008","302-VK","2017/07/11 18:59:55","新北市三峽區白雞33-24號","121.371306666667","24.9120783333333","6500900","三峽區"
"237014","433-BY","2017/07/11 18:59:57","新北市三峽區復興路480巷7-2號","121.357651666667","24.9398433333333","6500900","三峽區"
"237006","5529-G3","2017/07/11 18:59:49","新北市三峽區溪東路233巷47弄2號","121.410788333333","24.9347083333333","6500900","三峽區"
"237011","572-TV","2017/07/11 19:00:08","新北市三峽區介壽路三段168號","121.402113333333","24.9439233333333","6500900","三峽區"
"237016","649-BX","2017/07/11 19:00:01","新北市三峽區安坑34-2號","121.449881666667","24.92888","6500900","三峽區"
"237010","706-TV","2017/07/11 18:58:57","新北市三峽區民生街58號","121.375253333333","24.9363383333333","6500900","三峽區"
"237005","AKY-6261","2017/07/11 18:59:59","新北市三峽區中山路459巷163-3號","121.348656666667","24.9329116666667","6500900","三峽區"
"236070","105-UM","2017/07/11 18:59:58","新北市土城區青雲路147號","121.458775","24.9839866666667","6501300","土城區"
"236043","107-UM","2017/07/11 18:59:53","新北市土城區學府路一段231號","121.451171666667","24.98411","6501300","土城區"
"236079","166-UM","2017/07/11 18:59:54","新北市土城區中央路四段159號","121.41536","24.9569616666667","6501300","土城區"
"236031","253-BX","2017/07/11 18:59:50","新北市土城區慶利街9號","121.439573333333","24.9735916666667","6501300","土城區"
"236027","269-VK","2017/07/11 19:00:10","新北市土城區光明街17號","121.442078333333","24.97455","6501300","土城區"
"236015","270-VK","2017/07/11 18:59:56","新北市土城區延和路1號","121.463518333333","24.9875266666667","6501300","土城區"
"236038","271-VK","2017/07/11 18:59:57","新北市土城區仁愛路54巷18號","121.461666666667","24.9783133333333","6501300","土城區"
"236023","401-BY","2017/07/11 19:00:05","新北市土城區金城路三段116巷11弄3號","121.467371666667","24.987055","6501300","土城區"
"236059","912-UM","2017/07/11 19:00:01","新北市土城區金城路一段118號","121.445786666667","24.974505","6501300","土城區"
"236049","913-UM","2017/07/11 18:59:54","新北市土城區明德路一段280號","121.457711666667","24.9774283333333","6501300","土城區"
"236063","915-UM","2017/07/11 19:00:11","新北市土城區延和路88巷4號","121.466531666667","24.9892416666667","6501300","土城區"
"236055","AAC-216","2017/07/11 19:00:06","新北市土城區學成路164號","121.448048333333","24.9890966666667","6501300","土城區"
"238023","601-UM","2017/07/11 18:59:57","新北市樹林區工興街14巷1號","121.3988","25.0138016666667","6500700","樹林區"
"238019","599-UM","2017/07/11 19:00:11","新北市樹林區東華街27號","121.414851666667","24.98221","6500700","樹林區"
"238018","571-TV","2017/07/11 19:00:04","新北市樹林區鎮前街299號","121.417846666667","24.98491","6500700","樹林區"
"238022","312-TH","2017/07/11 18:59:55","新北市樹林區東興街14-2號","121.410096666667","24.9784516666667","6500700","樹林區"
"238021","311-TH","2017/07/11 18:50:53","新北市樹林區西圳街二段25號","121.3887","24.9613683333333","6500700","樹林區"
"238025","303-VK","2017/07/11 18:59:51","新北市樹林區民和街83巷10號","121.378745","24.9730933333333","6500700","樹林區"
"238017","283-BY","2017/07/11 19:00:04","新北市樹林區光興街50號","121.409861666667","25.0026933333333","6500700","樹林區"
"238014","282-BY","2017/07/11 19:00:04","新北市樹林區潭興街143巷6號","121.425611666667","24.999935","6500700","樹林區"
"238020","268-VK","2017/07/11 19:00:09","新北市樹林區俊英街79號","121.426065","25.0076066666667","6500700","樹林區"
"238026","172-UY","2017/07/11 18:59:57","新北市樹林區中山路三段349號","121.390096666667","24.9706433333333","6500700","樹林區"
"238016","169-UY","2017/07/11 19:00:11","新北市樹林區日新街148巷37號","121.419401666667","24.9879133333333","6500700","樹林區"
"239007","AAC-297","2017/07/11 18:59:58","新北市鶯歌區中正一路230號","121.353986666667","24.9570116666667","6500800","鶯歌區"
"239006","891-R6","2017/07/11 19:00:03","新北市鶯歌區鶯桃路96-1號","121.339661666667","24.9536983333333","6500800","鶯歌區"
"239008","527-UM","2017/07/11 18:59:58","新北市鶯歌區國際二路16巷11號","121.33782","24.97502","6500800","鶯歌區"
"239005","526-UM","2017/07/11 19:00:10","新北市鶯歌區大湖路584號","121.335336666667","24.9735216666667","6500800","鶯歌區"
"239001","417-VK","2017/07/11 19:00:01","新北市鶯歌區永智街14號","121.33693","24.954865","6500800","鶯歌區"
"239003","360-BY","2017/07/11 19:00:09","新北市鶯歌區鶯桃路658巷43號","121.330065","24.969825","6500800","鶯歌區"
"239002","359-BY","2017/07/11 19:00:05","新北市鶯歌區永和街238號","121.337916666667","24.9720566666667","6500800","鶯歌區"
"239004","193-VK","2017/07/11 19:00:08","新北市鶯歌區中正三路335巷12號","121.328463333333","24.9349883333333","6500800","鶯歌區"
"221008","489-VK","2017/07/11 18:59:53","新北市汐止區康寧街753巷2弄6號","121.639206666667","25.0738533333333","6501100","汐止區"
"221036","130-UY","2017/07/11 19:00:04","新北市汐止區南昌街25號","121.663248333333","25.0692916666667","6501100","汐止區"
"221015","131-UY","2017/07/11 18:59:57","新北市汐止區汐萬路一段81號","121.654766666667","25.0698866666667","6501100","汐止區"
"221010","269-BY","2017/07/11 19:00:12","新北市汐止區康寧街901號","121.651341666667","25.075015","6501100","汐止區"
"221010","276-VK","2017/07/11 13:23:39","新北市汐止區汐萬路一段256巷3號","121.653433333333","25.07461","6501100","汐止區"
"221031","277-VK","2017/07/11 00:10:03","新北市汐止區汐萬路一段256巷3號","121.652558333333","25.0745033333333","6501100","汐止區"
"221012","278-VK","2017/07/11 18:59:57","新北市汐止區康寧街901號","121.65082","25.07529","6501100","汐止區"
"221023","279-VK","2017/07/11 13:57:40","新北市汐止區康寧街901號","121.650841666667","25.0752783333333","6501100","汐止區"
"221032","280-BY","2017/07/11 19:00:12","新北市汐止區橫科路241-5號","121.622488333333","25.04873","6501100","汐止區"
"221027","281-BY","2017/07/11 18:49:43","新北市汐止區康寧街901號","121.65089","25.0752633333333","6501100","汐止區"
"221038","297-VK","2017/07/11 18:40:17","新北市汐止區汐萬路一段312號","121.650673333333","25.07532","6501100","汐止區"
"221029","298-VK","2017/07/11 18:59:53","新北市汐止區樟樹一路254號","121.642431666667","25.0672883333333","6501100","汐止區"
"221021","299-VK","2017/07/11 18:59:18","新北市汐止區康寧街901號","121.651553333333","25.0750833333333","6501100","汐止區"
"221035","622-UM","2017/07/11 19:00:09","新北市汐止區汐萬路一段256巷3號","121.653281666667","25.07458","6501100","汐止區"
"221025","623-UM","2017/07/11 18:59:55","新北市汐止區康寧街901號","121.651146666667","25.0751716666667","6501100","汐止區"
"221033","647-BX","2017/07/11 19:00:01","新北市汐止區南勢街1巷2號","121.62702","25.0375783333333","6501100","汐止區"
"221002","707-TV","2017/07/11 18:59:50","新北市汐止區大同路一段2號","121.62102","25.05499","6501100","汐止區"
"221018","753-BX","2017/07/11 19:00:05","新北市汐止區汐萬路一段81號","121.654686666667","25.0701133333333","6501100","汐止區"
"220079","145-BY","2017/07/11 19:00:10","新北市板橋區民權路260巷1弄17號","121.458335","25.0158333333333","6500100","板橋區"
"220082","610-BX","2017/07/11 19:00:08","新北市板橋區篤行路二段154號","121.429436666667","24.9879933333333","6500100","板橋區"
"220101","245-BX","2017/07/11 19:00:08","新北市板橋區文化路二段182巷7弄4號","121.472246666667","25.0269016666667","6500100","板橋區"
"220091","267-BY","2017/07/11 18:59:57","新北市板橋區雙十路二段47巷28號","121.4755","25.025805","6500100","板橋區"
"220056","276-BY","2017/07/11 18:59:58","新北市板橋區信義路68號","121.457326666667","24.99367","6500100","板橋區"
"220072","277-BY","2017/07/11 19:00:00","新北市板橋區大觀路三段50巷91號","121.431178333333","24.9964616666667","6500100","板橋區"
"220071","283-VK","2017/07/11 19:00:08","新北市板橋區忠孝路176巷5弄2號","121.464738333333","25.001915","6500100","板橋區"
"220094","285-UM","2017/07/11 18:59:56","新北市板橋區文化路二段28號","121.469363333333","25.0248216666667","6500100","板橋區"
"220053","285-VK","2017/07/11 18:59:59","新北市板橋區中山路二段159號","121.475768333333","25.0167383333333","6500100","板橋區"
"220083","286-VK","2017/07/11 19:00:07","新北市板橋區大觀路一段38巷156弄61-1號","121.442345","25.0069933333333","6500100","板橋區"
"220081","287-VK","2017/07/11 19:00:02","新北市板橋區光華街15巷32號","121.453165","25.0116533333333","6500100","板橋區"
"220090","288-VK","2017/07/11 18:59:53","新北市板橋區四維路177巷2弄1號","121.464041666667","25.0262666666667","6500100","板橋區"
"220061","293-UM","2017/07/11 19:00:03","新北市板橋區富山街109巷60弄19號","121.475543333333","25.021435","6500100","板橋區"
"220084","296-UM","2017/07/11 19:00:03","新北市板橋區大觀路二段156巷63號","121.441243333333","25.000295","6500100","板橋區"
"220075","297-UM","2017/07/11 18:59:55","新北市板橋區館前西路193號","121.455356666667","25.0082633333333","6500100","板橋區"
"220092","299-UM","2017/07/11 19:00:05","新北市板橋區文化路一段88號","121.46448","25.0175133333333","6500100","板橋區"
"220062","305-R5","2017/07/11 19:00:02","新北市板橋區民生路一段80號","121.473588333333","25.0154083333333","6500100","板橋區"
"220098","317-R6","2017/07/11 19:00:11","新北市板橋區民有街31號","121.465951666667","25.0254066666667","6500100","板橋區"
"220080","461-BY","2017/07/11 19:00:03","新北市板橋區大觀路二段265巷3弄11號","121.44334","24.9982283333333","6500100","板橋區"
"220064","486-VK","2017/07/11 19:00:09","新北市板橋區漢生東路178號","121.46702","25.0144583333333","6500100","板橋區"
"220089","487-VK","2017/07/11 19:00:06","新北市板橋區仁化街45號","121.475053333333","25.0317733333333","6500100","板橋區"
"220088","491-VK","2017/07/11 18:58:52","新北市板橋區民生路二段148號","121.471383333333","25.0198866666667","6500100","板橋區"
"220035","560-BX","2017/07/11 19:00:07","新北市板橋區中正路293號","121.455315","25.0193716666667","6500100","板橋區"
"220103","561-BX","2017/07/11 18:59:57","新北市板橋區民生路二段121號","121.470648333333","25.01821","6500100","板橋區"
"220063","609-BX","2017/07/11 19:00:05","新北市板橋區中山路二段152號","121.47669","25.0170933333333","6500100","板橋區"
"220057","686-BX","2017/07/11 19:00:03","新北市板橋區民權路45號","121.462088333333","25.0113033333333","6500100","板橋區"
"220077","687-BX","2017/07/11 19:00:02","新北市板橋區龍興街34號","121.443061666667","25.0005616666667","6500100","板橋區"
"220093","689-BX","2017/07/11 19:00:02","新北市板橋區文化路一段435巷16號","121.46789","25.023515","6500100","板橋區"
"220054","741-BX","2017/07/11 19:00:02","新北市板橋區後埔街45號","121.460545","25.0059616666667","6500100","板橋區"
"220055","827-TW","2017/07/11 19:00:03","新北市板橋區民安街14號","121.466718333333","25.0116316666667","6500100","板橋區"
"220067","829-TW","2017/07/11 19:00:10","新北市板橋區三民路二段正隆巷12弄23號","121.477376666667","25.0137833333333","6500100","板橋區"
"220102","830-TW","2017/07/11 19:00:06","新北市板橋區縣民大道三段133巷35號","121.476961666667","25.0245233333333","6500100","板橋區"
"220096","831-TW","2017/07/11 18:59:56","新北市板橋區莒光路133巷7弄3號","121.472585","25.0241866666667","6500100","板橋區"
"220074","895-R6","2017/07/11 19:00:10","新北市板橋區林園街16號","121.453883333333","25.0097416666667","6500100","板橋區"
"220073","985-R7","2017/07/11 19:00:07","新北市板橋區民權路259號","121.457055","25.0159983333333","6500100","板橋區"
"220097","AAC-210","2017/07/11 19:00:02","新北市板橋區陽明街162號","121.463358333333","25.0244283333333","6500100","板橋區"
"220070","AAC-253","2017/07/11 18:59:59","新北市板橋區中山路一段37號","121.460633333333","25.008865","6500100","板橋區"
