"lineid","car","time","location","longitude","latitude","cityid","cityname"
"234046","148-BY","2017/07/11 19:08:07","新北市永和區永元路52巷23號","121.523521666667","25.0010433333333","6500400","永和區"
"234013","149-BY","2017/07/11 19:08:05","新北市永和區信義路8巷1號","121.514555","25.0122033333333","6500400","永和區"
"234007","207-UY","2017/07/11 19:07:55","新北市永和區中山路一段193號","121.509235","25.00881","6500400","永和區"
"234081","298-R6","2017/07/11 19:08:06","新北市永和區國中路150號","121.52262","25.0068183333333","6500400","永和區"
"234038","336-UY","2017/07/11 19:08:07","新北市永和區環河東路4段84-1號","121.528358333333","24.9980533333333","6500400","永和區"
"234064","337-UY","2017/07/11 19:08:02","新北市永和區秀朗路二段15號","121.520916666667","25.002725","6500400","永和區"
"234086","338-UY","2017/07/11 19:08:07","新北市永和區永貞路150號","121.517901666667","25.004485","6500400","永和區"
"234070","552-UM","2017/07/11 19:08:03","新北市永和區豫溪街90號","121.518503333333","25.0100183333333","6500400","永和區"
"234054","553-UM","2017/07/11 19:08:01","新北市永和區中興街133巷22號","121.518025","25.0125366666667","6500400","永和區"
"234017","745-BX","2017/07/11 19:08:00","新北市永和區文化路90巷15弄1號","121.513825","25.015835","6500400","永和區"
"234030","746-BX","2017/07/11 19:08:01","新北市永和區四維街72號","121.523686666667","24.998325","6500400","永和區"
"234061","AAD-866","2017/07/11 19:07:55","新北市永和區安樂路304巷10弄21號","121.515371666667","25.00576","6500400","永和區"
"234067","847-RS","2017/07/11 19:08:04","新北市永和區永和路一段49巷9號","121.512275","25.0068183333333","6500400","永和區"
"234042","862-TW","2017/07/11 19:08:10","新北市永和區永和路一段49巷3弄65號","121.51202","25.0061283333333","6500400","永和區"
"234050","863-TW","2017/07/11 19:08:11","新北市永和區文化路135巷26弄4號","121.510436666667","25.014345","6500400","永和區"
"234026","9371-KE","2017/07/11 19:08:04","新北市永和區安樂路272巷9弄7號","121.51509","25.0046566666667","6500400","永和區"
"234011","9373-KE","2017/07/11 19:07:51","新北市永和區文化路126巷23弄11號","121.512618333333","25.0164033333333","6500400","永和區"
"249005","172-UM","2017/07/11 19:07:57","新北市八里區長道坑2號","121.393658333333","25.1248066666667","6502300","八里區"
"249001","173-UM","2017/07/11 19:08:09","新北市八里區龍米路二段228-1號","121.432735","25.1583966666667","6502300","八里區"
"248016","026-BX","2017/07/11 19:07:53","新北市五股區凌雲路一段118號","121.450066666667","25.101805","6501500","五股區"
"248006","077-UY","2017/07/11 19:07:59","新北市五股區四維路114號","121.467695","25.0741066666667","6501500","五股區"
"248008","095-VK","2017/07/11 19:08:07","新北市五股區中興路一段118巷14號","121.466001666667","25.0740733333333","6501500","五股區"
"248020","225-UY","2017/07/11 19:02:27","新北市五股區凌雲路三段57號","121.425343333333","25.1249966666667","6501500","五股區"
"248012","247-BX","2017/07/11 00:36:47","新北市五股區中興路二段37巷28號","121.460171666667","25.0749666666667","6501500","五股區"
"248010","272-BY","2017/07/11 19:07:56","新北市五股區水碓一路23號","121.430598333333","25.0712616666667","6501500","五股區"
"248004","677-BX","2017/07/11 19:08:01","新北市五股區六合街3號","121.431905","25.0886666666667","6501500","五股區"
"248002","678-BX","2017/07/11 19:08:07","新北市五股區凌雲路一段158巷6號","121.448221666667","25.102795","6501500","五股區"
"234023","9380-KE","2017/07/11 19:07:54","新北市永和區中興街10巷19號","121.515868333333","25.0111583333333","6500400","永和區"
"234077","969-R7","2017/07/11 19:07:50","新北市永和區民族街29號","121.518815","24.999595","6500400","永和區"
"234074","AAC-211","2017/07/11 19:08:00","新北市永和區竹林路222號","121.520778333333","25.00805","6500400","永和區"
"234003","AAC-295","2017/07/11 19:06:49","新北市永和區中山路一段95號","121.51143","25.010595","6500400","永和區"
"244013","069-UM","2017/07/11 19:08:04","新北市林口區麗園一街11巷9號","121.378228333333","25.07066","6501700","林口區"
"244019","403-UM","2017/07/11 19:08:00","新北市林口區麗園二街47巷47號","121.382573333333","25.0695616666667","6501700","林口區"
"244009","410-SL","2017/07/11 19:08:07","新北市林口區竹林路462號","121.387945","25.0849716666667","6501700","林口區"
"244023","483-VK","2017/07/11 19:08:08","新北市林口區文林六街27巷9號","121.370895","25.0810216666667","6501700","林口區"
"244011","701-TV","2017/07/11 19:08:01","新北市林口區竹林路68號","121.387691666667","25.0783533333333","6501700","林口區"
"244025","837-TS","2017/07/11 19:08:03","新北市林口區仁愛二路101-1號","121.36779","25.0751183333333","6501700","林口區"
"243013","AAD-798","2017/07/11 19:08:06","新北市泰山區漢口街11巷1號","121.423818333333","25.0364716666667","6501600","泰山區"
"243009","297-R6","2017/07/11 19:08:02","新北市泰山區文化街20號","121.434706666667","25.0635483333333","6501600","泰山區"
"243015","380-SR","2017/07/11 19:07:54","新北市泰山區明志路一段363號","121.430941666667","25.0580483333333","6501600","泰山區"
"243014","421-VK","2017/07/11 19:08:05","新北市泰山區泰林路二段478-1號","121.425145","25.0641333333333","6501600","泰山區"
"243012","539-UM","2017/07/11 19:07:20","新北市泰山區辭修路10-2號","121.430108333333","25.0577316666667","6501600","泰山區"
"243010","548-UM","2017/07/11 19:07:51","新北市泰山區明志路一段361號","121.43084","25.0582633333333","6501600","泰山區"
"243011","549-UM","2017/07/11 19:07:58","新北市泰山區明志路二段360號","121.42581","25.0452116666667","6501600","泰山區"
"243016","680-BX","2017/07/11 19:08:03","新北市泰山區明志路二段357號","121.425326666667","25.0443133333333","6501600","泰山區"
"222003","436-BY","2017/07/11 19:08:03","新北市深坑區深南路142號","121.622991666667","25.0140933333333","6501800","深坑區"
"222001","628-TS","2017/07/11 19:07:58","新北市深坑區北深路一段300號","121.624218333333","25.0057483333333","6501800","深坑區"
"222002","659-BX","2017/07/11 19:07:59","新北市深坑區文山路一段18-3號","121.631513333333","25.00656","6501800","深坑區"
"231061","001-UM","2017/07/11 19:07:59","新北市新店區安康路一段116號","121.527151666667","24.96268","6500600","新店區"
"231041","002-UM","2017/07/11 19:08:03","新北市新店區中央三街127號","121.52399","24.9769","6500600","新店區"
"231056","0291-UT","2017/07/11 19:07:58","新北市新店區二十張路46巷37弄7號","121.536258333333","24.9819066666667","6500600","新店區"
"231059","046-UY","2017/07/11 19:08:02","新北市新店區安和路二段138-3號","121.519326666667","24.9716233333333","6500600","新店區"
"231060","106-UY","2017/07/11 19:08:05","新北市新店區安康路二段348號","121.502611666667","24.9575816666667","6500600","新店區"
"231051","107-UY","2017/07/11 19:07:53","新北市新店區中正路384號","121.534708333333","24.9769566666667","6500600","新店區"
"231048","108-UY","2017/07/11 19:07:54","新北市新店區德正街27巷29弄7號","121.545386666667","24.9718783333333","6500600","新店區"
"231053","110-UY","2017/07/11 19:08:08","新北市新店區自強路84號","121.546365","24.92438","6500600","新店區"
"231069","189-VK","2017/07/11 11:58:55","新北市新店區安華路28-1號","121.51961","24.9611616666667","6500600","新店區"
"231063","268-BY","2017/07/11 19:08:03","新北市新店區車子路140號","121.505256666667","24.94769","6500600","新店區"
"231046","278-BY","2017/07/11 19:07:53","新北市新店區永業路121號","121.527628333333","24.9450683333333","6500600","新店區"
"231050","AAD-862","2017/07/11 19:07:59","新北市新店區竹林路2巷31號","121.550428333333","24.9502166666667","6500600","新店區"
"231058","3712-VJ","2017/07/11 19:07:54","新北市新店區中興路一段140號","121.542273333333","24.9637383333333","6500600","新店區"
"231067","4772-VM","2017/07/11 19:07:55","新北市新店區安康路一段207巷6弄8號","121.525458333333","24.9627066666667","6500600","新店區"
"231065","512-UM","2017/07/11 19:07:58","新北市新店區安祥路145巷29號","121.475446666667","24.9565916666667","6500600","新店區"
"231054","513-UM","2017/07/11 19:07:55","新北市新店區新店路148號","121.537166666667","24.9554916666667","6500600","新店區"
"231064","515-UM","2017/07/11 19:07:58","新北市新店區安忠路102巷2號","121.51084","24.9563566666667","6500600","新店區"
"231042","616-UM","2017/07/11 19:07:56","新北市新店區中興路一段168號","121.5428","24.964395","6500600","新店區"
"231045","617-UM","2017/07/11 19:07:51","新北市新店區北宜路一段107-1號","121.539488333333","24.9551516666667","6500600","新店區"
"231040","619-UM","2017/07/11 19:08:05","新北市新店區三民路98-3號","121.53396","24.9734016666667","6500600","新店區"
"231049","719-UM","2017/07/11 19:07:57","新北市新店區二十張路24號","121.538493333333","24.9818","6500600","新店區"
"231062","720-UM","2017/07/11 19:07:57","新北市新店區安平路11巷2號","121.524366666667","24.96556","6500600","新店區"
"231044","897-TW","2017/07/11 19:08:11","新北市新店區寶中路49-1號","121.546086666667","24.97968","6500600","新店區"
"231043","899-TW","2017/07/11 19:08:06","新北市新店區寶橋路77號","121.545753333333","24.9753566666667","6500600","新店區"
"231066","AKT-0513","2017/07/11 19:07:58","新北市新店區安祥路86號","121.491388333333","24.9562066666667","6500600","新店區"
"241026","066-VK","2017/07/11 19:08:05","新北市三重區泉州街65巷1號","121.494691666667","25.0542966666667","6500200","三重區"
"241020","156-TC","2017/07/11 19:07:51","新北市三重區忠孝路二段34號","121.485808333333","25.071","6500200","三重區"
"241035","743-BX","2017/07/11 19:08:00","新北市三重區重新路四段121號","121.484435","25.0521816666667","6500200","三重區"
"241029","942-UM","2017/07/11 19:07:51","新北市三重區重安街67-5號","121.491785","25.0561566666667","6500200","三重區"
"235066","003-UY","2017/07/11 19:07:56","新北市中和區廣福路12-1號","121.505526666667","25.002825","6500300","中和區"
"235064","005-UY","2017/07/11 19:08:07","新北市中和區泰和街30巷19號","121.499008333333","25.0010616666667","6500300","中和區"
"235056","096-UM","2017/07/11 19:07:58","新北市板橋區三民路二段226號","121.478858333333","25.0114716666667","6500300","中和區"
"235039","097-UM","2017/07/11 19:07:51","新北市永和區中正路129巷2號","121.51583","24.997985","6500300","中和區"
"235065","098-UM","2017/07/11 19:08:09","新北市中和區勝利路35巷2號","121.498808333333","25.007795","6500300","中和區"
"235040","150-BY","2017/07/11 19:08:11","新北市中和區宜安路62號","121.511561666667","24.9970266666667","6500300","中和區"
"235058","151-BY","2017/07/11 19:07:56","新北市中和區員山路143巷15號","121.480135","24.9958866666667","6500300","中和區"
"235055","183-VK","2017/07/11 19:08:03","新北市中和區德光路79號","121.46938","25.00369","6500300","中和區"
"235038","185-VK","2017/07/11 19:07:59","新北市中和區自強路66號","121.51987","24.9942316666667","6500300","中和區"
"235049","186-VK","2017/07/11 19:08:09","新北市中和區明禮街5號","121.505173333333","24.9957616666667","6500300","中和區"
"235067","255-BX","2017/07/11 19:08:08","新北市中和區新生街233巷2號","121.484128333333","24.9991133333333","6500300","中和區"
"235044","293-VK","2017/07/11 19:07:55","新北市中和區復興路280巷33弄18號","121.501413333333","24.9912566666667","6500300","中和區"
"235072","301-VK","2017/07/11 19:08:08","新北市中和區中山路二段259號","121.496943333333","25.0023483333333","6500300","中和區"
"235043","352-BY","2017/07/11 19:08:00","新北市中和區景平路114號","121.519636666667","24.9915233333333","6500300","中和區"
"235051","376-QA","2017/07/11 19:08:09","新北市中和區忠孝街11巷1號","121.509878333333","24.9831683333333","6500300","中和區"
"235068","377-QA","2017/07/11 19:08:11","新北市中和區圓通路183號","121.49759","24.99473","6500300","中和區"
"235061","378-QA","2017/07/11 19:08:03","新北市中和區中山路三段63巷7號","121.477331666667","25.004285","6500300","中和區"
"235050","4979-A6","2017/07/11 19:08:00","新北市中和區景安路247巷36號","121.50481","24.99033","6500300","中和區"
"235069","4980-A6","2017/07/11 19:08:11","新北市中和區中和路167號","121.502956666667","25.0001533333333","6500300","中和區"
"235042","551-UM","2017/07/11 19:07:55","新北市中和區自立路117巷1號","121.522301666667","24.9945133333333","6500300","中和區"
"235070","558-UM","2017/07/11 19:08:02","新北市中和區中和路185號","121.503378333333","24.9999233333333","6500300","中和區"
"235045","565-BX","2017/07/11 19:07:58","新北市中和區景新街467巷20弄7-5號","121.51441","24.9878833333333","6500300","中和區"
"235054","640-BX","2017/07/11 19:08:00","新北市中和區民享街86巷2號","121.474383333333","25.001065","6500300","中和區"
"235060","647-TV","2017/07/11 19:07:53","新北市中和區民治街25巷2號","121.475453333333","25.0017433333333","6500300","中和區"
"235047","732-UM","2017/07/11 19:07:58","新北市中和區興南路二段32巷5號","121.507155","24.9854566666667","6500300","中和區"
"235046","733-UM","2017/07/11 19:08:07","新北市中和區興南路一段156號","121.508376666667","24.9868466666667","6500300","中和區"
"235071","783-BX","2017/07/11 19:07:53","新北市中和區員山路72號","121.48099","24.9935466666667","6500300","中和區"
"235062","800-TS","2017/07/11 19:08:00","新北市中和區中山路二段526巷32號","121.485868333333","25.0059266666667","6500300","中和區"
"235057","801-TS","2017/07/11 19:08:08","新北市中和區民利街40巷3弄11號","121.47886","24.99913","6500300","中和區"
"235041","802-TS","2017/07/11 19:08:05","新北市中和區安平路133號","121.511753333333","24.9981283333333","6500300","中和區"
"235052","805-TS","2017/07/11 19:08:02","新北市中和區興南路二段128巷7弄3號","121.503396666667","24.984135","6500300","中和區"
"235048","896-TW","2017/07/11 19:08:01","新北市中和區華新街143巷71弄13號","121.508343333333","24.9788166666667","6500300","中和區"
"235053","900-TW","2017/07/11 19:08:09","新北市中和區和平路200巷33-3號","121.465138333333","24.9945266666667","6500300","中和區"
"235063","911-UM","2017/07/11 19:07:51","新北市中和區連城路246號","121.488771666667","24.9964583333333","6500300","中和區"
"235037","AAC-213","2017/07/11 19:08:05","新北市中和區自立路141巷36號","121.524051666667","24.9937316666667","6500300","中和區"
"235059","AAC-215","2017/07/11 19:08:07","新北市中和區圓通路294巷11弄9號","121.488203333333","24.98986","6500300","中和區"
"220068","013-TV","2017/07/11 19:08:06","新北市板橋區三民路一段1巷13號","121.479655","25.0243516666667","6500100","板橋區"
"220065","072-UY","2017/07/11 19:08:04","新北市板橋區民族路287巷19號","121.470866666667","25.0075316666667","6500100","板橋區"
"220086","073-UY","2017/07/11 19:08:07","新北市板橋區中正路250巷81號","121.458876666667","25.0199516666667","6500100","板橋區"
"220069","AAD-861","2017/07/11 19:08:03","新北市板橋區華興街39號","121.458131666667","25.00455","6500100","板橋區"
"220106","120-SR","2017/07/11 19:07:55","新北市板橋區文化路二段75號","121.46945","25.0256733333333","6500100","板橋區"
"247002","402-BY","2017/07/11 16:18:16","新北市五股區中興路三段3-6號","121.449531666667","25.078715","6501400","蘆洲區"
"247006","341-TH","2017/07/11 18:53:26","新北市五股區中興路三段163號","121.449221666667","25.0808166666667","6501400","蘆洲區"
"247002","336-TH","2017/07/11 19:08:02","新北市五股區中興路三段163號","121.449221666667","25.0809066666667","6501400","蘆洲區"
"247014","057-VK","2017/07/11 19:08:04","新北市五股區中興路三段2巷10號","121.44808","25.0845","6501400","蘆洲區"
"226004","205-ST","2017/07/11 19:07:59","新北市平溪區嶺腳里田子1-3號","121.750333333333","25.02389","6502400","平溪區"
"228001","212-TW","2017/07/11 19:08:11","新北市貢寮區真理里新港街10號","121.925501666667","25.0543616666667","6502600","貢寮區"
"228002","585-TW","2017/07/11 19:08:08","新北市貢寮區福隆里福隆街36號","121.9451","25.0174633333333","6502600","貢寮區"
"228003","828-UM","2017/07/11 19:07:13","新北市貢寮區和美里和美街44-2號","121.916543333333","25.0964116666667","6502600","貢寮區"
"224006","676-BX","2017/07/11 19:08:00","新北市瑞芳區三爪子坑路106巷112-1號","121.808441666667","25.10446","6501200","瑞芳區"
"224011","420-VK","2017/07/11 19:07:46","新北市瑞芳區崙頂路3-1號","121.847016666667","25.1046516666667","6501200","瑞芳區"
"224009","285-BY","2017/07/11 19:08:02","新北市瑞芳區長仁路40號","121.863268333333","25.1181083333333","6501200","瑞芳區"
"224008","275-VK","2017/07/11 19:07:57","新北市瑞芳區瑞芳街112巷1號","121.801458333333","25.1104916666667","6501200","瑞芳區"
"224007","273-VK","2017/07/11 19:08:04","新北市瑞芳區中央路48巷162號","121.75943","25.1035266666667","6501200","瑞芳區"
"224005","271-BY","2017/07/11 19:07:55","新北市瑞芳區三爪子坑路89-17號","121.81227","25.1074","6501200","瑞芳區"
"227009","642-TC","2017/07/11 19:07:51","新北市雙溪區牡丹里中正路37號","121.864708333333","25.0383933333333","6502500","雙溪區"
"227003","400-TW","2017/07/11 19:07:51","新北市雙溪區平林里外平林9-5號","121.85911","25.03801","6502500","雙溪區"
"253006","032-BX","2017/07/11 19:08:05","新北市石門區海灣新城1號","121.524343333333","25.2852333333333","6502200","石門區"
"253005","295-VK","2017/07/11 19:08:05","新北市石門區小坑14-3號","121.601573333333","25.2865666666667","6502200","石門區"
"208003","665-BX","2017/07/11 19:07:54","新北市金山區中正路135號","121.632416666667","25.2215383333333","6502700","金山區"
"208001","761-BX","2017/07/11 19:07:59","新北市金山區溫泉路4號","121.639585","25.2219616666667","6502700","金山區"
"251014","180-VK","2017/07/11 19:08:03","新北市淡水區小中寮15-2號","121.484806666667","25.2298366666667","6501000","淡水區"
"251010","413-VK","2017/07/11 19:07:53","新北市淡水區中正路一段156巷3號","121.421181666667","25.1803383333333","6501000","淡水區"
"251016","442-VK","2017/07/11 19:07:54","新北市淡水區淡金路三段66號","121.448236666667","25.19993","6501000","淡水區"
"251005","443-VK","2017/07/11 19:08:03","新北市淡水區中山路126號","121.441843333333","25.1708883333333","6501000","淡水區"
"251001","559-UM","2017/07/11 19:07:54","新北市淡水區自強路8號","121.464633333333","25.1248366666667","6501000","淡水區"
"251006","561-UM","2017/07/11 19:08:00","新北市淡水區中山北路三段71號","121.444471666667","25.19176","6501000","淡水區"
"251009","575-R6","2017/07/11 19:08:07","新北市淡水區清水街160號","121.440981666667","25.1705033333333","6501000","淡水區"
"251011","650-BX","2017/07/11 19:07:59","新北市淡水區中正東路二段143巷2弄1號","121.460753333333","25.1474383333333","6501000","淡水區"
"251002","672-BX","2017/07/11 19:07:56","新北市淡水區中山路77號","121.442755","25.170465","6501000","淡水區"
"251003","766-UM","2017/07/11 19:08:01","新北市淡水區中山北路一段64號","121.442003333333","25.1757433333333","6501000","淡水區"
"207003","550-UM","2017/07/11 19:07:54","新北市萬里區大鵬里萬里加投79號","121.647018333333","25.21209","6502800","萬里區"
"207004","225-TW","2017/07/11 19:07:50","新北市萬里區萬里里瑪鋉下街52號","121.691591666667","25.1795216666667","6502800","萬里區"
"252002","178-VK","2017/07/11 19:07:49","新北市三芝區中正路一段16-1號","121.502905","25.2587933333333","6502100","三芝區"
"252003","249-BX","2017/07/11 19:07:56","新北市三芝區錫板里南勢崗6號","121.479566666667","25.26196","6502100","三芝區"
"252001","702-TV","2017/07/11 19:08:10","新北市三芝區長勤街82號","121.500305","25.2550516666667","6502100","三芝區"
"208002","170-UY","2017/07/11 18:51:33","新北市金山區仁愛路37-12號","121.635838333333","25.2200916666667","6502700","金山區"
"237004","078-UY","2017/07/11 19:08:09","新北市三峽區有木206號","121.43908","24.851495","6500900","三峽區"
"237007","153-BY","2017/07/11 19:07:57","新北市三峽區大埔路173號","121.366635","24.9052983333333","6500900","三峽區"
"237009","210-TH","2017/07/11 19:08:01","新北市三峽區文化路312號","121.364248333333","24.9355633333333","6500900","三峽區"
"237013","252-BX","2017/07/11 19:08:05","新北市三峽區光明路69巷25號","121.37679","24.92922","6500900","三峽區"
"237012","275-BY","2017/07/11 19:07:56","新北市三峽區三樹路222巷228弄9號","121.391531666667","24.9425583333333","6500900","三峽區"
"237008","302-VK","2017/07/11 19:07:55","新北市三峽區中正路一段323-1號","121.371208333333","24.9239516666667","6500900","三峽區"
"237014","433-BY","2017/07/11 19:07:36","新北市三峽區中山路257巷39號","121.362141666667","24.93647","6500900","三峽區"
"237006","5529-G3","2017/07/11 19:08:09","新北市三峽區溪東路205巷9號","121.40469","24.9337616666667","6500900","三峽區"
"237011","572-TV","2017/07/11 19:08:08","新北市三峽區介壽路二段115號","121.39264","24.9356166666667","6500900","三峽區"
"237016","649-BX","2017/07/11 19:08:01","新北市三峽區安坑46-2號","121.456751666667","24.9322483333333","6500900","三峽區"
"237010","706-TV","2017/07/11 19:02:37","新北市三峽區民生街95號","121.37455","24.93578","6500900","三峽區"
"237005","AKY-6261","2017/07/11 19:07:59","新北市三峽區中山路459巷163-3號","121.348663333333","24.932905","6500900","三峽區"
"236070","105-UM","2017/07/11 19:07:58","新北市土城區中央路一段291巷14號","121.44499","24.9837383333333","6501300","土城區"
"236079","166-UM","2017/07/11 19:07:54","新北市土城區龍泉路10-1號","121.409673333333","24.94907","6501300","土城區"
"236031","253-BX","2017/07/11 19:08:10","新北市土城區城林路6巷80號","121.438606666667","24.9797516666667","6501300","土城區"
"236027","269-VK","2017/07/11 19:08:10","新北市土城區中正路76號","121.444578333333","24.97554","6501300","土城區"
"236015","270-VK","2017/07/11 19:07:56","新北市土城區學府路一段37巷30號","121.457385","24.987555","6501300","土城區"
"236038","271-VK","2017/07/11 19:07:57","新北市土城區清水路148號","121.45925","24.9814616666667","6501300","土城區"
"236023","401-BY","2017/07/11 19:08:05","新北市土城區延安街37巷19號","121.46885","24.98448","6501300","土城區"
"236059","912-UM","2017/07/11 19:08:01","新北市土城區金城路二段205-2號","121.454215","24.9813633333333","6501300","土城區"
"236049","913-UM","2017/07/11 19:07:54","新北市土城區明德路一段398-1號","121.45361","24.9790866666667","6501300","土城區"
"236055","AAC-216","2017/07/11 19:08:07","新北市土城區學成路18號","121.45307","24.986845","6501300","土城區"
"238015","755-BX","2017/07/11 19:07:57","新北市樹林區備內街160巷7號","121.40676","24.9895516666667","6500700","樹林區"
"238023","601-UM","2017/07/11 19:07:57","新北市樹林區大慶街156號","121.396893333333","25.0132266666667","6500700","樹林區"
"238019","599-UM","2017/07/11 19:07:51","新北市樹林區東華街83號","121.415711666667","24.9807933333333","6500700","樹林區"
"238018","571-TV","2017/07/11 19:08:04","新北市樹林區中華路257號","121.418271666667","24.980635","6500700","樹林區"
"238022","312-TH","2017/07/11 19:07:55","新北市樹林區中山路二段151巷15-2號","121.407948333333","24.9773133333333","6500700","樹林區"
"238021","311-TH","2017/07/11 18:50:53","新北市樹林區西圳街二段25號","121.3887","24.9613683333333","6500700","樹林區"
"238025","303-VK","2017/07/11 19:07:52","新北市樹林區中山路三段335號","121.390706666667","24.97126","6500700","樹林區"
"238017","283-BY","2017/07/11 19:08:04","新北市樹林區光興街83-8號","121.409848333333","25.0026366666667","6500700","樹林區"
"238014","282-BY","2017/07/11 19:08:04","新北市樹林區中正路9號","121.427848333333","24.999","6500700","樹林區"
"238020","268-VK","2017/07/11 19:07:49","新北市樹林區俊英街79號","121.426058333333","25.0075966666667","6500700","樹林區"
"238026","172-UY","2017/07/11 19:07:57","新北市樹林區地政街41號","121.394895","24.9717616666667","6500700","樹林區"
"238016","169-UY","2017/07/11 19:08:11","新北市樹林區復興路335巷10號","121.418561666667","24.9874533333333","6500700","樹林區"
"239007","AAC-297","2017/07/11 19:06:58","新北市鶯歌區中山路138巷17-5號","121.351305","24.95971","6500800","鶯歌區"
"239006","891-R6","2017/07/11 19:08:03","新北市鶯歌區建國路582號","121.339006666667","24.9516133333333","6500800","鶯歌區"
"239008","527-UM","2017/07/11 19:07:55","新北市鶯歌區國際二路6巷18號","121.339106666667","24.9738316666667","6500800","鶯歌區"
"239005","526-UM","2017/07/11 19:08:10","新北市鶯歌區中湖街118號","121.348973333333","24.97295","6500800","鶯歌區"
"239001","417-VK","2017/07/11 19:08:01","新北市鶯歌區鶯桃路95巷44號","121.337871666667","24.9530983333333","6500800","鶯歌區"
"239003","360-BY","2017/07/11 19:07:49","新北市鶯歌區鶯桃路385號","121.333456666667","24.9636666666667","6500800","鶯歌區"
"239002","359-BY","2017/07/11 19:08:05","新北市鶯歌區湖山路54號","121.339526666667","24.97506","6500800","鶯歌區"
"239004","193-VK","2017/07/11 19:08:08","新北市鶯歌區中正三路鄭厝巷16-2號","121.334436666667","24.9343933333333","6500800","鶯歌區"
"221008","489-VK","2017/07/11 19:08:02","新北市汐止區康寧街453號","121.631445","25.0682883333333","6501100","汐止區"
"221036","130-UY","2017/07/11 19:08:04","新北市汐止區忠孝東路258巷11弄11號","121.664288333333","25.067795","6501100","汐止區"
"221015","131-UY","2017/07/11 19:07:57","新北市汐止區汐萬路一段256巷3號","121.653463333333","25.0746633333333","6501100","汐止區"
"221010","269-BY","2017/07/11 19:07:52","新北市汐止區康寧街901號","121.651373333333","25.074985","6501100","汐止區"
"221010","276-VK","2017/07/11 13:23:39","新北市汐止區汐萬路一段256巷3號","121.653433333333","25.07461","6501100","汐止區"
"221031","277-VK","2017/07/11 00:10:03","新北市汐止區汐萬路一段256巷3號","121.652558333333","25.0745033333333","6501100","汐止區"
"221012","278-VK","2017/07/11 19:07:57","新北市汐止區康寧街901號","121.650836666667","25.0752933333333","6501100","汐止區"
"221023","279-VK","2017/07/11 19:07:49","新北市汐止區康寧街901號","121.65099","25.0752133333333","6501100","汐止區"
"221027","281-BY","2017/07/11 18:49:43","新北市汐止區康寧街901號","121.65089","25.0752633333333","6501100","汐止區"
"221038","297-VK","2017/07/11 18:40:17","新北市汐止區汐萬路一段312號","121.650673333333","25.07532","6501100","汐止區"
"221029","298-VK","2017/07/11 19:07:53","新北市汐止區連峰街1巷1號","121.64661","25.07602","6501100","汐止區"
"221021","299-VK","2017/07/11 19:05:58","新北市汐止區康寧街901號","121.651538333333","25.0750466666667","6501100","汐止區"
"221025","623-UM","2017/07/11 19:07:55","新北市汐止區康寧街901號","121.651508333333","25.0749716666667","6501100","汐止區"
"221033","647-BX","2017/07/11 19:08:01","新北市汐止區南勢街1巷1號","121.627048333333","25.0375433333333","6501100","汐止區"
"221002","707-TV","2017/07/11 19:08:10","新北市汐止區大同路一段99號","121.627908333333","25.0537183333333","6501100","汐止區"
"221018","753-BX","2017/07/11 19:08:05","新北市汐止區汐萬路一段256巷3號","121.653358333333","25.0746666666667","6501100","汐止區"
"220079","145-BY","2017/07/11 19:07:50","新北市板橋區公館街108號","121.4611","25.0168233333333","6500100","板橋區"
"220082","610-BX","2017/07/11 19:08:06","新北市板橋區溪北路18號","121.426701666667","24.9904516666667","6500100","板橋區"
"220101","245-BX","2017/07/11 19:08:08","新北市板橋區莊敬路229號","121.471695","25.0217383333333","6500100","板橋區"
"220091","267-BY","2017/07/11 19:08:07","新北市板橋區萬板路506號","121.480313333333","25.0261416666667","6500100","板橋區"
"220056","276-BY","2017/07/11 19:07:53","新北市板橋區信義路74巷5弄21號","121.457213333333","24.9919283333333","6500100","板橋區"
"220072","277-BY","2017/07/11 19:08:00","新北市板橋區溪北路158號","121.430553333333","24.9881816666667","6500100","板橋區"
"220071","283-VK","2017/07/11 19:08:08","新北市板橋區重慶路245巷7號","121.463588333333","25.00067","6500100","板橋區"
"220094","285-UM","2017/07/11 19:07:56","新北市板橋區光武街50巷1號","121.466966666667","25.0268916666667","6500100","板橋區"
"220053","285-VK","2017/07/11 19:07:59","新北市板橋區太和街6巷2號","121.473775","25.01995","6500100","板橋區"
"220083","286-VK","2017/07/11 19:08:07","新北市板橋區龍興街99巷27-1號","121.44352","25.003365","6500100","板橋區"
"220081","287-VK","2017/07/11 19:07:53","新北市板橋區光華街39巷3號","121.453575","25.0130933333333","6500100","板橋區"
"220090","288-VK","2017/07/11 19:08:00","新北市板橋區裕民街45巷3-1號","121.461543333333","25.0284183333333","6500100","板橋區"
"220061","293-UM","2017/07/11 19:08:00","新北市板橋區懷仁街77巷12號","121.477741666667","25.0187116666667","6500100","板橋區"
"220084","296-UM","2017/07/11 19:08:03","新北市板橋區大觀路二段385巷7號","121.440893333333","24.997365","6500100","板橋區"
"220075","297-UM","2017/07/11 19:07:55","新北市板橋區南雅南路一段1巷17號","121.457158333333","25.006865","6500100","板橋區"
"220092","299-UM","2017/07/11 19:08:05","新北市板橋區文化路一段322-1號","121.467701666667","25.0223066666667","6500100","板橋區"
"220062","305-R5","2017/07/11 19:08:02","新北市板橋區三民路二段245巷28號","121.48031","25.01256","6500100","板橋區"
"220098","317-R6","2017/07/11 19:08:11","新北市板橋區四維路103巷12號","121.464701666667","25.02425","6500100","板橋區"
"220080","461-BY","2017/07/11 19:08:03","新北市板橋區大觀路二段265巷20弄2號","121.442818333333","24.99838","6500100","板橋區"
"220064","486-VK","2017/07/11 19:08:09","新北市板橋區板新路86號","121.472586666667","25.01438","6500100","板橋區"
"220089","487-VK","2017/07/11 19:08:05","新北市板橋區文化路二段516號","121.47569","25.033495","6500100","板橋區"
"220088","491-VK","2017/07/11 19:06:52","新北市板橋區莊敬路81號","121.47289","25.02664","6500100","板橋區"
"220035","560-BX","2017/07/11 19:08:07","新北市板橋區中正路379巷1弄19號","121.453098333333","25.0218016666667","6500100","板橋區"
"220103","561-BX","2017/07/11 19:07:57","新北市板橋區文化路一段188巷9弄66號","121.46803","25.01906","6500100","板橋區"
"220063","609-BX","2017/07/11 19:08:08","新北市板橋區三民路二段212號","121.47888","25.0118616666667","6500100","板橋區"
"220057","686-BX","2017/07/11 19:08:03","新北市板橋區重慶路65號","121.4618","25.00703","6500100","板橋區"
"220077","687-BX","2017/07/11 19:08:06","新北市板橋區大觀路二段171號","121.445101666667","25.0003366666667","6500100","板橋區"
"220093","689-BX","2017/07/11 19:08:02","新北市板橋區民生路三段301號","121.463808333333","25.0305416666667","6500100","板橋區"
"220054","741-BX","2017/07/11 19:08:02","新北市板橋區重慶路93巷32號","121.463368333333","25.0058766666667","6500100","板橋區"
"220055","827-TW","2017/07/11 19:08:03","新北市板橋區中山路一段156-3號","121.465375","25.0118383333333","6500100","板橋區"
"220067","829-TW","2017/07/11 19:08:03","新北市板橋區三民路二段正隆巷44號","121.476896666667","25.0138883333333","6500100","板橋區"
"220102","830-TW","2017/07/11 19:08:06","新北市板橋區田單街2巷27號","121.482091666667","25.0281666666667","6500100","板橋區"
"220096","831-TW","2017/07/11 19:08:07","新北市板橋區雙十路二段49號","121.476506666667","25.0262433333333","6500100","板橋區"
"220074","895-R6","2017/07/11 19:08:10","新北市板橋區北門街62-2號","121.45641","25.0115233333333","6500100","板橋區"
"220073","985-R7","2017/07/11 19:08:07","新北市板橋區中正路187號","121.4565","25.016865","6500100","板橋區"
"220097","AAC-210","2017/07/11 19:08:02","新北市板橋區新生街98巷8號","121.458715","25.0218366666667","6500100","板橋區"
"220070","AAC-253","2017/07/11 19:07:59","新北市板橋區四川路一段243號","121.45994","25.0027983333333","6500100","板橋區"
