"lineid","car","time","location","longitude","latitude","cityid","cityname"
"234046","148-BY","2017/07/11 19:30:07","新北市永和區秀朗路二段96號","121.523655","25.001635","6500400","永和區"
"234013","149-BY","2017/07/11 19:30:05","新北市永和區信義路14-3號","121.514425","25.0121916666667","6500400","永和區"
"234007","207-UY","2017/07/11 19:29:55","新北市永和區自強街2號","121.514028333333","25.0081333333333","6500400","永和區"
"234081","298-R6","2017/07/11 19:30:07","新北市永和區福和路7巷2號","121.524966666667","25.00827","6500400","永和區"
"234038","336-UY","2017/07/11 19:30:07","新北市永和區民樂街20號","121.527595","25.00193","6500400","永和區"
"234064","337-UY","2017/07/11 19:30:02","新北市永和區得和路243巷26號","121.520771666667","25.0011483333333","6500400","永和區"
"234086","338-UY","2017/07/11 19:30:07","新北市永和區國中路2號","121.52422","25.0041883333333","6500400","永和區"
"234070","552-UM","2017/07/11 19:30:03","新北市永和區中興街11-1號","121.515835","25.012045","6500400","永和區"
"234054","553-UM","2017/07/11 19:30:01","新北市永和區復興街19巷2號","121.516116666667","25.0131483333333","6500400","永和區"
"234017","745-BX","2017/07/11 19:30:00","新北市永和區環河西路一段51巷22號","121.514266666667","25.0176566666667","6500400","永和區"
"234030","746-BX","2017/07/11 19:30:00","新北市永和區民權路1巷42號","121.522365","24.9981233333333","6500400","永和區"
"234061","AAD-866","2017/07/11 19:30:10","新北市永和區中正路570號","121.51708","25.0062516666667","6500400","永和區"
"234067","847-RS","2017/07/11 19:30:03","新北市永和區保平路174巷1號","121.510393333333","25.0071066666667","6500400","永和區"
"234042","862-TW","2017/07/11 19:29:53","新北市永和區中和路573號","121.511828333333","25.0035383333333","6500400","永和區"
"234050","863-TW","2017/07/11 19:30:11","新北市永和區保福路二段150巷2弄2號","121.509633333333","25.0147783333333","6500400","永和區"
"234026","9371-KE","2017/07/11 19:30:04","新北市中和區安平路192號","121.513125","24.9991983333333","6500400","永和區"
"234011","9373-KE","2017/07/11 19:30:03","新北市永和區仁愛路109巷9號","121.512423333333","25.012605","6500400","永和區"
"249003","593-UM","2017/07/11 19:29:58","新北市八里區中山路二段500巷30號","121.397293333333","25.1477216666667","6502300","八里區"
"248016","026-BX","2017/07/11 19:29:53","新北市五股區成洲五路12號","121.452373333333","25.1015566666667","6501500","五股區"
"248008","095-VK","2017/07/11 19:30:07","新北市五股區中興路一段95巷20號","121.466516666667","25.072225","6501500","五股區"
"248020","225-UY","2017/07/11 19:30:06","新北市五股區凌雲路三段41-2號","121.429815","25.1180833333333","6501500","五股區"
"248012","247-BX","2017/07/11 00:36:47","新北市五股區中興路二段37巷28號","121.460171666667","25.0749666666667","6501500","五股區"
"248014","261-SL","2017/07/11 19:30:02","新北市五股區民義路一段185-20號","121.431191666667","25.08741","6501500","五股區"
"248010","272-BY","2017/07/11 19:29:56","新北市五股區自強路90巷72號","121.43066","25.0712016666667","6501500","五股區"
"248004","677-BX","2017/07/11 19:30:09","新北市五股區五福路69號","121.432713333333","25.0901","6501500","五股區"
"248002","678-BX","2017/07/11 19:30:07","新北市五股區凌雲路一段158巷11號","121.447748333333","25.1034316666667","6501500","五股區"
"234023","9380-KE","2017/07/11 19:29:54","新北市永和區竹林路91巷48號","121.521311666667","25.01277","6500400","永和區"
"234077","969-R7","2017/07/11 19:30:09","新北市永和區民治街60號","121.51821","24.997865","6500400","永和區"
"234074","AAC-211","2017/07/11 19:30:00","新北市永和區環河東路一段120號","121.520441666667","25.0157516666667","6500400","永和區"
"234003","AAC-295","2017/07/11 19:27:50","新北市永和區永和路一段176-1號","121.514345","25.00888","6500400","永和區"
"244019","403-UM","2017/07/11 19:30:00","新北市林口區麗園二街3巷4-3號","121.379008333333","25.0697666666667","6501700","林口區"
"244023","483-VK","2017/07/11 19:30:08","新北市林口區民有街62號","121.37275","25.0769866666667","6501700","林口區"
"243013","AAD-798","2017/07/11 19:30:06","新北市泰山區明志路三段145巷5弄13號","121.425573333333","25.0403966666667","6501600","泰山區"
"243009","297-R6","2017/07/11 19:29:53","新北市五股區成泰路一段7巷1號","121.43362","25.066395","6501600","泰山區"
"243015","380-SR","2017/07/11 19:30:09","新北市泰山區明志路二段81號","121.428916666667","25.0523333333333","6501600","泰山區"
"243014","421-VK","2017/07/11 19:30:05","新北市泰山區仁義路220巷53號","121.432058333333","25.0527166666667","6501600","泰山區"
"243012","539-UM","2017/07/11 19:28:40","新北市泰山區仁義路179號","121.432855","25.0541916666667","6501600","泰山區"
"243010","548-UM","2017/07/11 19:29:50","新北市泰山區民生路17巷33號","121.42955","25.0516866666667","6501600","泰山區"
"243011","549-UM","2017/07/11 19:30:12","新北市泰山區新北大道五段487號","121.430671666667","25.0416233333333","6501600","泰山區"
"243016","680-BX","2017/07/11 19:29:57","新北市泰山區明志路三段352巷10號","121.421191666667","25.0356","6501600","泰山區"
"222003","436-BY","2017/07/11 19:30:03","新北市深坑區深南路88巷1號","121.621038333333","25.01142","6501800","深坑區"
"222001","628-TS","2017/07/11 19:29:58","新北市深坑區深坑街10號","121.6158","25.0027716666667","6501800","深坑區"
"222002","659-BX","2017/07/11 19:29:59","新北市深坑區北深路一段177號","121.632526666667","25.01085","6501800","深坑區"
"231061","001-UM","2017/07/11 19:29:56","新北市新店區安民街11號","121.515286666667","24.964505","6500600","新店區"
"231041","002-UM","2017/07/11 19:30:03","新北市新店區中正路556號","121.533588333333","24.986915","6500600","新店區"
"231059","046-UY","2017/07/11 19:30:11","新北市新店區安和路三段153號","121.516626666667","24.98566","6500600","新店區"
"231060","106-UY","2017/07/11 19:30:05","新北市新店區安康路二段3-3號","121.515931666667","24.9636983333333","6500600","新店區"
"231051","107-UY","2017/07/11 19:30:08","新北市新店區中央路129號","121.530523333333","24.973965","6500600","新店區"
"231048","108-UY","2017/07/11 19:29:54","新北市新店區中興路一段264號","121.544771666667","24.9671533333333","6500600","新店區"
"231053","110-UY","2017/07/11 19:30:08","新北市新店區廣興路60巷30-3號","121.543725","24.9146266666667","6500600","新店區"
"231069","189-VK","2017/07/11 11:58:55","新北市新店區安華路28-1號","121.51961","24.9611616666667","6500600","新店區"
"231057","256-BX","2017/07/11 19:30:06","新北市新店區花園一路二段17號","121.550805","24.933255","6500600","新店區"
"231063","268-BY","2017/07/11 19:30:01","新北市新店區達觀路16號","121.503095","24.9409366666667","6500600","新店區"
"231046","278-BY","2017/07/11 19:29:53","新北市新店區北新路一段91號","121.53868","24.9617666666667","6500600","新店區"
"231050","AAD-862","2017/07/11 19:30:00","新北市新店區秀水路39號","121.555156666667","24.9558833333333","6500600","新店區"
"231058","3712-VJ","2017/07/11 19:29:54","新北市新店區北新路二段228巷13號","121.543371666667","24.977135","6500600","新店區"
"231067","4772-VM","2017/07/11 19:29:55","新北市新店區安德街60巷19號","121.51035","24.9631683333333","6500600","新店區"
"231065","512-UM","2017/07/11 19:29:58","新北市新店區安祥路109巷1弄19號","121.476206666667","24.9598483333333","6500600","新店區"
"231054","513-UM","2017/07/11 19:29:55","新北市新店區文中路51號","121.539846666667","24.9566216666667","6500600","新店區"
"231064","515-UM","2017/07/11 19:29:58","新北市新店區安康路二段85巷1號","121.513556666667","24.962485","6500600","新店區"
"231042","616-UM","2017/07/11 19:29:56","新北市新店區中興路一段136號","121.542075","24.9634233333333","6500600","新店區"
"231045","617-UM","2017/07/11 19:30:11","新北市新店區北宜路二段207號","121.553125","24.953305","6500600","新店區"
"231040","619-UM","2017/07/11 19:30:05","新北市新店區北新路一段295號","121.541121666667","24.9674416666667","6500600","新店區"
"231049","719-UM","2017/07/11 19:29:57","新北市新店區北新路3段65巷34弄29-1號","121.540008333333","24.9821183333333","6500600","新店區"
"231062","720-UM","2017/07/11 19:29:57","新北市新店區太平路28巷42號","121.533036666667","24.9595583333333","6500600","新店區"
"231044","897-TW","2017/07/11 19:29:50","新北市新店區中興路三段226號","121.543345","24.9829516666667","6500600","新店區"
"231043","899-TW","2017/07/11 19:30:06","新北市新店區北新路二段228巷1號","121.542961666667","24.977555","6500600","新店區"
"231066","AKT-0513","2017/07/11 19:29:58","新北市新店區安康路三段207巷18號","121.487991666667","24.95092","6500600","新店區"
"241011","013-R5","2017/07/11 19:30:03","新北市三重區龍濱路168-1號","121.501156666667","25.07257","6500200","三重區"
"241028","022-UY","2017/07/11 19:29:58","新北市三重區中寮街49號","121.49278","25.0585866666667","6500200","三重區"
"241008","059-VK","2017/07/11 19:29:54","新北市三重區永福街135巷30號","121.477565","25.0770966666667","6500200","三重區"
"241009","060-VK","2017/07/11 19:30:02","新北市三重區碧華街9號","121.483795","25.081035","6500200","三重區"
"241031","061-VK","2017/07/11 19:29:49","新北市三重區集美街100號","121.48856","25.0540833333333","6500200","三重區"
"241017","063-VK","2017/07/11 19:29:55","新北市三重區中正北路105號","121.489458333333","25.063405","6500200","三重區"
"241026","066-VK","2017/07/11 19:30:05","新北市三重區文化南路47巷6號","121.49961","25.06116","6500200","三重區"
"241020","156-TC","2017/07/11 19:30:11","新北市三重區三和路四段44巷18號","121.489646666667","25.0741233333333","6500200","三重區"
"241022","267-UM","2017/07/11 19:30:03","新北市三重區三民街173號","121.483316666667","25.0649016666667","6500200","三重區"
"241032","269-UM","2017/07/11 19:30:00","新北市三重區三陽路65號","121.484083333333","25.05891","6500200","三重區"
"241025","271-UM","2017/07/11 19:30:06","新北市三重區頂崁街210巷28弄22號","121.475716666667","25.0670766666667","6500200","三重區"
"241007","398-BY","2017/07/11 19:30:09","新北市三重區溪尾街136號","121.489386666667","25.07963","6500200","三重區"
"241030","480-VK","2017/07/11 19:29:55","新北市三重區成功路41巷3號","121.490241666667","25.051425","6500200","三重區"
"241023","545-UM","2017/07/11 19:30:04","新北市三重區頂崁街99號","121.477993333333","25.0638066666667","6500200","三重區"
"241006","AAD-863","2017/07/11 19:30:10","新北市三重區三和路四段111-1號","121.485731666667","25.0774533333333","6500200","三重區"
"241035","743-BX","2017/07/11 19:30:00","新北市三重區長元西街31號","121.498146666667","25.0653466666667","6500200","三重區"
"241029","942-UM","2017/07/11 19:29:51","新北市三重區中正南路216號","121.493808333333","25.05501","6500200","三重區"
"235066","003-UY","2017/07/11 19:29:56","新北市中和區中和路136號","121.503505","24.9994183333333","6500300","中和區"
"235064","005-UY","2017/07/11 19:30:07","新北市中和區南山路81巷23號","121.502685","24.9982066666667","6500300","中和區"
"235056","096-UM","2017/07/11 19:29:58","新北市中和區民富街21號","121.476476666667","25.00756","6500300","中和區"
"235039","097-UM","2017/07/11 19:29:51","新北市中和區秀峰街91號","121.52115","24.9902583333333","6500300","中和區"
"235065","098-UM","2017/07/11 19:30:09","新北市中和區中山路二段64巷12弄16號","121.504056666667","25.00544","6500300","中和區"
"235040","150-BY","2017/07/11 19:29:50","新北市中和區保健路10巷25弄1號","121.508193333333","24.9965283333333","6500300","中和區"
"235058","151-BY","2017/07/11 19:29:56","新北市中和區員山路36巷16-2號","121.485231666667","24.9916283333333","6500300","中和區"
"235055","183-VK","2017/07/11 19:30:03","新北市中和區莒光路120巷36號","121.471563333333","25.0014333333333","6500300","中和區"
"235038","185-VK","2017/07/11 19:29:59","新北市中和區大智街55巷36號","121.520501666667","24.9931566666667","6500300","中和區"
"235049","186-VK","2017/07/11 19:30:08","新北市中和區景新街285巷19號","121.510411666667","24.9936416666667","6500300","中和區"
"235067","255-BX","2017/07/11 19:30:08","新北市中和區中正路797號","121.484801666667","25.0004416666667","6500300","中和區"
"235044","293-VK","2017/07/11 19:30:08","新北市中和區復興路321號","121.500901666667","24.9902533333333","6500300","中和區"
"235072","301-VK","2017/07/11 19:30:08","新北市中和區連城路263巷4弄6號","121.491591666667","24.9956016666667","6500300","中和區"
"235043","352-BY","2017/07/11 19:30:00","新北市中和區景新街157號","121.506586666667","24.9963366666667","6500300","中和區"
"235051","376-QA","2017/07/11 19:30:09","新北市中和區景平路239巷33弄33號","121.509588333333","24.9915183333333","6500300","中和區"
"235068","377-QA","2017/07/11 19:29:31","新北市中和區圓通路158巷1弄12號","121.497396666667","24.996415","6500300","中和區"
"235061","378-QA","2017/07/11 19:30:03","新北市中和區員山路130號","121.481163333333","24.996315","6500300","中和區"
"235050","4979-A6","2017/07/11 19:29:59","新北市中和區圓通路188號","121.496493333333","24.9943683333333","6500300","中和區"
"235069","4980-A6","2017/07/11 19:29:51","新北市中和區橋和路117號","121.491378333333","25.0056933333333","6500300","中和區"
"235042","551-UM","2017/07/11 19:29:55","新北市中和區中和路378巷14弄1號","121.511421666667","25.0016333333333","6500300","中和區"
"235070","558-UM","2017/07/11 19:29:52","新北市中和區中和路10號","121.499581666667","25.002155","6500300","中和區"
"235045","565-BX","2017/07/11 19:29:58","新北市中和區景新街423巷33弄25號","121.51379","24.9898816666667","6500300","中和區"
"235054","640-BX","2017/07/11 19:30:00","新北市中和區國光街109巷17號","121.469603333333","24.9998166666667","6500300","中和區"
"235060","647-TV","2017/07/11 19:29:53","新北市中和區員山路266巷17號","121.481913333333","25.00198","6500300","中和區"
"235047","732-UM","2017/07/11 19:29:58","新北市中和區景平路241巷66號","121.507711666667","24.9922683333333","6500300","中和區"
"235046","733-UM","2017/07/11 19:30:07","新北市中和區忠孝街37巷47號","121.510806666667","24.9842416666667","6500300","中和區"
"235071","783-BX","2017/07/11 19:30:13","新北市中和區中正路637巷1號","121.485046666667","24.9954066666667","6500300","中和區"
"235057","801-TS","2017/07/11 19:30:08","新北市中和區員山路425號","121.480841666667","25.0034283333333","6500300","中和區"
"235041","802-TS","2017/07/11 19:30:05","新北市中和區中和路260-1號","121.508191666667","24.9994116666667","6500300","中和區"
"235052","805-TS","2017/07/11 19:30:02","新北市中和區華新街143巷72號","121.506351666667","24.979185","6500300","中和區"
"235048","896-TW","2017/07/11 19:30:01","新北市中和區景新街448號","121.513361666667","24.9879116666667","6500300","中和區"
"235053","900-TW","2017/07/11 19:30:09","新北市中和區華安街17巷15號","121.466993333333","24.9983116666667","6500300","中和區"
"235063","911-UM","2017/07/11 19:29:51","新北市中和區連勝街115號","121.495","24.99518","6500300","中和區"
"235037","AAC-213","2017/07/11 19:30:05","新北市中和區秀朗路三段60巷43號","121.524935","24.9948133333333","6500300","中和區"
"235059","AAC-215","2017/07/11 19:30:07","新北市中和區圓通路252巷2-5號","121.49345","24.99145","6500300","中和區"
"220068","013-TV","2017/07/11 19:30:11","新北市板橋區萬安街29號","121.484413333333","25.0230366666667","6500100","板橋區"
"220065","072-UY","2017/07/11 19:30:04","新北市板橋區國泰街75巷28弄7號","121.467696666667","25.0052766666667","6500100","板橋區"
"220086","073-UY","2017/07/11 19:30:07","新北市板橋區中正路216巷8號","121.45636","25.01839","6500100","板橋區"
"220069","AAD-861","2017/07/11 19:30:03","新北市板橋區四川路一段225號","121.460036666667","25.0031733333333","6500100","板橋區"
"220106","120-SR","2017/07/11 19:29:55","新北市板橋區長江路三段68號","121.473826666667","25.0341016666667","6500100","板橋區"
"247002","402-BY","2017/07/11 16:18:16","新北市五股區中興路三段3-6號","121.449531666667","25.078715","6501400","蘆洲區"
"247006","341-TH","2017/07/11 19:29:50","新北市五股區中興路三段163號","121.449361666667","25.0808883333333","6501400","蘆洲區"
"247008","339-TH","2017/07/11 19:30:08","新北市蘆洲區中山一路182號","121.474116666667","25.0810833333333","6501400","蘆洲區"
"247002","336-TH","2017/07/11 19:30:02","新北市五股區新五路二段372巷20號","121.447846666667","25.08603","6501400","蘆洲區"
"247014","057-VK","2017/07/11 19:29:56","新北市蘆洲區忠孝路66號","121.47179","25.0852883333333","6501400","蘆洲區"
"247004","056-VK","2017/07/11 19:30:00","新北市蘆洲區長安街221號","121.459786666667","25.0823833333333","6501400","蘆洲區"
"226004","205-ST","2017/07/11 19:29:59","新北市平溪區靜安路三段355號","121.78058","25.0454416666667","6502400","平溪區"
"228001","212-TW","2017/07/11 19:30:11","新北市貢寮區真理里延平街68-1號","121.925368333333","25.0574666666667","6502600","貢寮區"
"228002","585-TW","2017/07/11 19:30:08","新北市貢寮區龍門里龍門街78號","121.93098","25.0266183333333","6502600","貢寮區"
"228003","828-UM","2017/07/11 19:29:53","新北市貢寮區和美里和美街29號","121.913851666667","25.082975","6502600","貢寮區"
"224002","639-TC","2017/07/11 19:30:06","新北市瑞芳區三爪子坑路13巷7號","121.814111666667","25.1070733333333","6501200","瑞芳區"
"224011","420-VK","2017/07/11 19:29:06","新北市瑞芳區崙頂路3-1號","121.847011666667","25.10471","6501200","瑞芳區"
"227009","642-TC","2017/07/11 19:29:51","新北市雙溪區新基里新基北街43號","121.868223333333","25.0397983333333","6502500","雙溪區"
"227003","400-TW","2017/07/11 19:29:51","新北市雙溪區雙溪里光復街14號","121.865031666667","25.035415","6502500","雙溪區"
"253006","032-BX","2017/07/11 19:30:05","新北市石門區中央路6號","121.56633","25.2913966666667","6502200","石門區"
"253005","295-VK","2017/07/11 19:30:05","新北市石門區小坑9號","121.594368333333","25.2886066666667","6502200","石門區"
"208003","665-BX","2017/07/11 19:29:54","新北市金山區中山路263巷14號","121.636378333333","25.2216066666667","6502700","金山區"
"208001","761-BX","2017/07/11 19:29:59","新北市金山區南勢54號","121.6285","25.220765","6502700","金山區"
"251014","180-VK","2017/07/11 19:30:03","新北市淡水區小中寮19-7號","121.484778333333","25.2296366666667","6501000","淡水區"
"251008","181-VK","2017/07/11 19:30:09","新北市淡水區中正路一段66號","121.42525","25.1769583333333","6501000","淡水區"
"251010","413-VK","2017/07/11 19:29:53","新北市淡水區中正路二段142-5號","121.42225","25.18754","6501000","淡水區"
"251016","442-VK","2017/07/11 19:29:54","新北市淡水區淡金路3段350巷18-1號","121.450841666667","25.2083933333333","6501000","淡水區"
"251005","443-VK","2017/07/11 19:30:03","新北市淡水區水源街一段47巷43號","121.444116666667","25.1738316666667","6501000","淡水區"
"251001","559-UM","2017/07/11 19:29:57","新北市淡水區民權路155號","121.460011666667","25.136175","6501000","淡水區"
"251006","561-UM","2017/07/11 19:30:00","新北市淡水區大義街37號","121.442093333333","25.1781966666667","6501000","淡水區"
"251009","575-R6","2017/07/11 19:30:07","新北市淡水區大忠街5巷4號","121.443225","25.1763816666667","6501000","淡水區"
"251007","577-R6","2017/07/11 19:30:05","新北市淡水區中正東路一段111巷26號","121.455485","25.160515","6501000","淡水區"
"251011","650-BX","2017/07/11 19:29:59","新北市淡水區中正東路二段143巷2弄1號","121.46069","25.1473783333333","6501000","淡水區"
"251003","766-UM","2017/07/11 19:30:01","新北市淡水區中山北路三段165-1號","121.445005","25.1969083333333","6501000","淡水區"
"207003","550-UM","2017/07/11 19:29:54","新北市萬里區大鵬里萬里加投264號","121.644506666667","25.215955","6502800","萬里區"
"207004","225-TW","2017/07/11 19:29:58","新北市萬里區萬里里瑪鋉頂街40號","121.689191666667","25.1785666666667","6502800","萬里區"
"252002","178-VK","2017/07/11 19:30:09","新北市三芝區淡金路二段26-1號","121.502673333333","25.2596466666667","6502100","三芝區"
"252001","702-TV","2017/07/11 19:30:10","新北市三芝區長勤街50-1號","121.500233333333","25.2554833333333","6502100","三芝區"
"208002","170-UY","2017/07/11 18:51:33","新北市金山區仁愛路37-12號","121.635838333333","25.2200916666667","6502700","金山區"
"237004","078-UY","2017/07/11 19:29:50","新北市三峽區有木130-1號","121.43565","24.8571383333333","6500900","三峽區"
"237007","153-BY","2017/07/11 19:29:57","新北市三峽區麻園15-1號","121.363095","24.9128533333333","6500900","三峽區"
"237009","210-TH","2017/07/11 19:30:01","新北市三峽區民權街203號","121.36777","24.9283766666667","6500900","三峽區"
"237013","252-BX","2017/07/11 19:30:05","新北市三峽區介壽路一段316-2號","121.380776666667","24.930205","6500900","三峽區"
"237012","275-BY","2017/07/11 19:29:56","新北市三峽區三樹路98巷169號","121.384448333333","24.93932","6500900","三峽區"
"237008","302-VK","2017/07/11 19:29:55","新北市三峽區光明路106巷73號","121.374918333333","24.9265883333333","6500900","三峽區"
"237014","433-BY","2017/07/11 19:29:56","新北市三峽區中正路二段168號","121.36599","24.9152783333333","6500900","三峽區"
"237006","5529-G3","2017/07/11 19:29:49","新北市三峽區中正路一段336巷15弄2號","121.36997","24.924965","6500900","三峽區"
"237011","572-TV","2017/07/11 19:30:07","新北市三峽區中正路一段532號","121.369","24.9200566666667","6500900","三峽區"
"237016","649-BX","2017/07/11 19:30:01","新北市三峽區安坑1-12號","121.438133333333","24.9262616666667","6500900","三峽區"
"237010","706-TV","2017/07/11 19:03:37","新北市三峽區復興路39號","121.373563333333","24.9365816666667","6500900","三峽區"
"237005","AKY-6261","2017/07/11 19:29:59","新北市三峽區復興路367巷1弄17號","121.364178333333","24.9378266666667","6500900","三峽區"
"236070","105-UM","2017/07/11 19:29:58","新北市土城區學府路一段155巷8號","121.453581666667","24.9855116666667","6501300","土城區"
"236079","166-UM","2017/07/11 19:29:54","新北市土城區中州路24巷1號","121.414643333333","24.9576216666667","6501300","土城區"
"236031","253-BX","2017/07/11 19:30:10","新北市土城區中央路二段1號","121.443078333333","24.9809166666667","6501300","土城區"
"236027","269-VK","2017/07/11 19:29:50","新北市土城區中央路二段61巷26號","121.443306666667","24.9787766666667","6501300","土城區"
"236023","401-BY","2017/07/11 19:30:05","新北市土城區峰廷街3號","121.469126666667","24.9873833333333","6501300","土城區"
"236059","912-UM","2017/07/11 19:30:01","新北市土城區中央路二段274號","121.441208333333","24.9742166666667","6501300","土城區"
"236049","913-UM","2017/07/11 19:29:54","新北市土城區清水路196號","121.460368333333","24.9817833333333","6501300","土城區"
"242032","415-TV","2017/07/11 19:29:56","新北市新莊區新泰路225巷5號","121.446138333333","25.039085","6500500","新莊區"
"238015","755-BX","2017/07/11 19:29:57","新北市樹林區復興路340號","121.41624","24.98642","6500700","樹林區"
"238023","601-UM","2017/07/11 19:29:57","桃園市龜山區萬壽路一段438號","121.398631666667","25.0159316666667","6500700","樹林區"
"238019","599-UM","2017/07/11 19:30:10","新北市樹林區八德街29號","121.418291666667","24.9840266666667","6500700","樹林區"
"238018","571-TV","2017/07/11 19:30:04","新北市樹林區中華路223號","121.418868333333","24.9809983333333","6500700","樹林區"
"238024","5061-A6","2017/07/11 19:30:06","新北市樹林區中山路三段67-5號","121.400506666667","24.975025","6500700","樹林區"
"238022","312-TH","2017/07/11 19:30:08","新北市樹林區國凱街46號","121.420055","24.9787366666667","6500700","樹林區"
"238021","311-TH","2017/07/11 18:50:53","新北市樹林區西圳街二段25號","121.3887","24.9613683333333","6500700","樹林區"
"238025","303-VK","2017/07/11 19:30:00","新北市樹林區保安二街29號","121.424776666667","24.9938416666667","6500700","樹林區"
"238017","283-BY","2017/07/11 19:30:04","新北市樹林區光興街40號","121.410743333333","25.0025616666667","6500700","樹林區"
"238014","282-BY","2017/07/11 19:30:04","新北市樹林區千歲街4號","121.425013333333","24.9955783333333","6500700","樹林區"
"238020","268-VK","2017/07/11 19:30:09","新北市樹林區俊英街123巷4號","121.424331666667","25.0106683333333","6500700","樹林區"
"238026","172-UY","2017/07/11 19:29:57","新北市樹林區佳園路三段1號","121.388435","24.955665","6500700","樹林區"
"238016","169-UY","2017/07/11 19:30:11","新北市樹林區復興路430號","121.413998333333","24.98438","6500700","樹林區"
"239007","AAC-297","2017/07/11 19:29:58","新北市鶯歌區大湖路326巷7號","121.345736666667","24.97026","6500800","鶯歌區"
"239006","891-R6","2017/07/11 19:30:03","新北市鶯歌區文化路72號","121.35526","24.95415","6500800","鶯歌區"
"239001","417-VK","2017/07/11 19:30:01","新北市鶯歌區中山路5號","121.352998333333","24.9570033333333","6500800","鶯歌區"
"239003","360-BY","2017/07/11 19:30:09","新北市鶯歌區中山路129號","121.349565","24.956925","6500800","鶯歌區"
"239002","359-BY","2017/07/11 19:30:05","新北市鶯歌區中山路134號","121.350051666667","24.9570566666667","6500800","鶯歌區"
"239004","193-VK","2017/07/11 19:30:08","新北市鶯歌區二甲路12-2號","121.345668333333","24.9348283333333","6500800","鶯歌區"
"221008","489-VK","2017/07/11 19:29:53","新北市汐止區康寧街163號","121.622125","25.0667233333333","6501100","汐止區"
"221036","130-UY","2017/07/11 19:30:04","新北市汐止區汐萬路一段256巷1號","121.651825","25.0749316666667","6501100","汐止區"
"221015","131-UY","2017/07/11 19:29:57","新北市汐止區康寧街901號","121.651553333333","25.07496","6501100","汐止區"
"221010","269-BY","2017/07/11 19:30:12","新北市汐止區康寧街901號","121.65135","25.0749966666667","6501100","汐止區"
"221010","276-VK","2017/07/11 13:23:39","新北市汐止區汐萬路一段256巷3號","121.653433333333","25.07461","6501100","汐止區"
"221031","277-VK","2017/07/11 00:10:03","新北市汐止區汐萬路一段256巷3號","121.652558333333","25.0745033333333","6501100","汐止區"
"221012","278-VK","2017/07/11 19:29:57","新北市汐止區大同路三段188號","121.674891666667","25.0737083333333","6501100","汐止區"
"221023","279-VK","2017/07/11 19:27:49","新北市汐止區康寧街623巷18弄15號","121.636628333333","25.0731733333333","6501100","汐止區"
"221032","280-BY","2017/07/11 19:29:52","新北市汐止區新台五路一段97-1號","121.651095","25.0615016666667","6501100","汐止區"
"221027","281-BY","2017/07/11 19:30:04","新北市汐止區水源路一段56號","121.657321666667","25.06566","6501100","汐止區"
"221038","297-VK","2017/07/11 19:30:03","新北市汐止區汐萬路一段310號","121.650325","25.074775","6501100","汐止區"
"221029","298-VK","2017/07/11 19:29:55","新北市汐止區康寧街901號","121.651483333333","25.0749416666667","6501100","汐止區"
"221021","299-VK","2017/07/11 19:29:58","新北市汐止區康寧街901號","121.65144","25.074985","6501100","汐止區"
"221025","623-UM","2017/07/11 19:29:55","新北市汐止區新台五路二段10號","121.660256666667","25.065095","6501100","汐止區"
"221033","647-BX","2017/07/11 19:30:01","新北市汐止區南勢街3號","121.627116666667","25.0374583333333","6501100","汐止區"
"221002","707-TV","2017/07/11 19:29:50","新北市汐止區中興路22號","121.63726","25.05991","6501100","汐止區"
"220079","145-BY","2017/07/11 19:30:09","新北市板橋區民權路202巷18弄1號","121.460833333333","25.0167133333333","6500100","板橋區"
"220082","610-BX","2017/07/11 19:29:52","新北市板橋區金門街263號","121.431625","24.988615","6500100","板橋區"
"220101","245-BX","2017/07/11 19:30:08","新北市板橋區縣民大道三段133巷19號","121.477151666667","25.0238383333333","6500100","板橋區"
"220091","267-BY","2017/07/11 19:30:07","新北市板橋區文聖街135巷16號","121.47913","25.028905","6500100","板橋區"
"220056","276-BY","2017/07/11 19:29:53","新北市板橋區和平路23號","121.459635","24.9952266666667","6500100","板橋區"
"220072","277-BY","2017/07/11 19:30:00","新北市板橋區篤行路三段5號","121.429383333333","24.9875233333333","6500100","板橋區"
"220071","283-VK","2017/07/11 19:30:08","新北市板橋區大豐街29號","121.461986666667","25.0013233333333","6500100","板橋區"
"220094","285-UM","2017/07/11 19:29:56","新北市板橋區吳鳳路17巷1號","121.467681666667","25.030115","6500100","板橋區"
"220053","285-VK","2017/07/11 19:29:59","新北市板橋區永豐街106號","121.476046666667","25.0206183333333","6500100","板橋區"
"220083","286-VK","2017/07/11 19:29:57","新北市板橋區龍興街73巷22號","121.443043333333","25.00251","6500100","板橋區"
"220081","287-VK","2017/07/11 19:29:52","新北市板橋區南雅南路一段108號","121.454933333333","25.0042666666667","6500100","板橋區"
"220090","288-VK","2017/07/11 19:29:53","新北市板橋區裕民街91號","121.460318333333","25.02801","6500100","板橋區"
"220061","293-UM","2017/07/11 19:30:00","新北市板橋區中山路二段255巷7號","121.477036666667","25.017955","6500100","板橋區"
"220084","296-UM","2017/07/11 19:30:06","新北市板橋區滿平街136巷8弄12號","121.427441666667","24.9876683333333","6500100","板橋區"
"220075","297-UM","2017/07/11 19:30:11","新北市板橋區中正路287號","121.455366666667","25.019235","6500100","板橋區"
"220092","299-UM","2017/07/11 19:30:05","新北市板橋區松江街12號","121.46929","25.026355","6500100","板橋區"
"220062","305-R5","2017/07/11 19:30:02","新北市板橋區三民路二段153巷2弄2號","121.479586666667","25.0148633333333","6500100","板橋區"
"220098","317-R6","2017/07/11 19:29:51","新北市板橋區四維路266巷5弄3號","121.46371","25.0287116666667","6500100","板橋區"
"220080","461-BY","2017/07/11 19:30:04","新北市板橋區大觀路二段19巷23號","121.447685","25.0031683333333","6500100","板橋區"
"220064","486-VK","2017/07/11 19:29:49","新北市板橋區館前東路39號","121.460995","25.0073366666667","6500100","板橋區"
"220089","487-VK","2017/07/11 19:30:10","新北市板橋區文化路一段47號","121.460525","25.0133383333333","6500100","板橋區"
"220088","491-VK","2017/07/11 19:28:54","新北市板橋區雙十路二段149號","121.474766666667","25.0281066666667","6500100","板橋區"
"220035","560-BX","2017/07/11 19:30:07","新北市板橋區中正路415號","121.45429","25.022635","6500100","板橋區"
"220103","561-BX","2017/07/11 19:29:57","新北市板橋區文化路一段268號","121.46698","25.0209666666667","6500100","板橋區"
"220063","609-BX","2017/07/11 19:30:05","新北市板橋區三民路一段31巷2-4號","121.481906666667","25.0230833333333","6500100","板橋區"
"220057","686-BX","2017/07/11 19:30:03","新北市板橋區廣權路133號","121.46568","24.9933333333333","6500100","板橋區"
"220077","687-BX","2017/07/11 19:30:02","新北市板橋區僑中二街104巷1號","121.445966666667","25.0077216666667","6500100","板橋區"
"220093","689-BX","2017/07/11 19:30:02","新北市板橋區英士路51號","121.461003333333","25.0246016666667","6500100","板橋區"
"220054","741-BX","2017/07/11 19:30:02","新北市板橋區光明街86號","121.461833333333","25.00282","6500100","板橋區"
"220055","827-TW","2017/07/11 19:30:03","新北市板橋區重慶路278巷1號","121.462781666667","24.999685","6500100","板橋區"
"220067","829-TW","2017/07/11 19:30:03","新北市板橋區漢生東路279巷8號","121.471858333333","25.0091816666667","6500100","板橋區"
"220102","830-TW","2017/07/11 19:30:06","新北市板橋區松柏街22巷36號","121.474958333333","25.0288733333333","6500100","板橋區"
"220096","831-TW","2017/07/11 19:29:56","新北市板橋區大同街35巷44號","121.476918333333","25.0278233333333","6500100","板橋區"
"220074","895-R6","2017/07/11 19:30:02","新北市板橋區民權路182號","121.459141666667","25.01343","6500100","板橋區"
"220073","985-R7","2017/07/11 19:30:07","新北市板橋區瑞安街20號","121.455008333333","25.0230466666667","6500100","板橋區"
"220097","AAC-210","2017/07/11 19:30:02","新北市板橋區漢生西路156巷2號","121.4632","25.0231283333333","6500100","板橋區"
"220070","AAC-253","2017/07/11 19:30:09","新北市板橋區忠孝路158號","121.4641","25.0024516666667","6500100","板橋區"
