"lineid","car","time","location","longitude","latitude","cityid","cityname"
"234046","148-BY","2017/07/11 20:08:07","新北市永和區成功路一段146號","121.526778333333","25.001665","6500400","永和區"
"234013","149-BY","2017/07/11 20:08:05","新北市永和區仁愛路273號","121.505956666667","25.0098283333333","6500400","永和區"
"234007","207-UY","2017/07/11 20:07:55","新北市永和區保順路37巷7號","121.50306","25.0104183333333","6500400","永和區"
"234081","298-R6","2017/07/11 20:08:06","新北市永和區國中路53號","121.524573333333","25.006085","6500400","永和區"
"234038","336-UY","2017/07/11 20:08:07","新北市永和區成功路一段52號","121.527008333333","25.0040983333333","6500400","永和區"
"234064","337-UY","2017/07/11 20:08:02","新北市永和區永利路116號","121.521498333333","25.0032483333333","6500400","永和區"
"234086","338-UY","2017/07/11 20:08:06","新北市永和區福和路247號","121.518101666667","25.0074733333333","6500400","永和區"
"234070","552-UM","2017/07/11 20:08:03","新北市永和區福和路263巷9號","121.517958333333","25.006875","6500400","永和區"
"234054","553-UM","2017/07/11 20:08:01","新北市永和區博愛街15號","121.517215","25.0158366666667","6500400","永和區"
"234017","745-BX","2017/07/11 20:08:00","新北市永和區文化路7號","121.51543","25.0150283333333","6500400","永和區"
"234030","746-BX","2017/07/11 20:08:01","新北市永和區民有街25巷6號","121.517306666667","24.9963366666667","6500400","永和區"
"234061","AAD-866","2017/07/11 20:08:10","新北市永和區中正路283巷57號","121.515668333333","24.9989933333333","6500400","永和區"
"234067","847-RS","2017/07/11 20:08:03","新北市永和區永貞路358號","121.510138333333","25.006615","6500400","永和區"
"234042","862-TW","2017/07/11 20:07:53","新北市永和區雙和街7巷22號","121.509088333333","25.001245","6500400","永和區"
"234050","863-TW","2017/07/11 20:07:51","新北市永和區環河西路二段87號","121.50666","25.0149833333333","6500400","永和區"
"234011","9373-KE","2017/07/11 20:08:03","新北市永和區保生路55號","121.504528333333","25.010785","6500400","永和區"
"249005","172-UM","2017/07/11 20:07:56","新北市八里區下罟子49-2號","121.383855","25.13784","6502300","八里區"
"249001","173-UM","2017/07/11 20:07:54","新北市八里區中華路二段310號","121.403786666667","25.1483766666667","6502300","八里區"
"249004","303-UY","2017/07/11 20:07:56","新北市八里區中山路一段217巷70號","121.411883333333","25.1575283333333","6502300","八里區"
"249002","305-UY","2017/07/11 20:07:54","新北市五股區成泰路四段40號","121.455768333333","25.1096516666667","6502300","八里區"
"249003","593-UM","2017/07/11 20:07:58","新北市八里區中山路二段540巷28號","121.39708","25.1469333333333","6502300","八里區"
"248016","026-BX","2017/07/11 20:07:53","新北市五股區成泰路三段577巷80弄60號","121.44926","25.1050233333333","6501500","五股區"
"248008","095-VK","2017/07/11 20:08:07","新北市五股區中興路一段1巷12弄13號","121.469315","25.0710083333333","6501500","五股區"
"248020","225-UY","2017/07/11 20:08:06","新北市五股區凌雲路二段25號","121.440898333333","25.10218","6501500","五股區"
"248012","247-BX","2017/07/11 00:36:47","新北市五股區中興路二段37巷28號","121.460171666667","25.0749666666667","6501500","五股區"
"248014","261-SL","2017/07/11 20:08:02","新北市五股區五福路6巷19號","121.435338333333","25.0884933333333","6501500","五股區"
"248010","272-BY","2017/07/11 20:07:56","新北市五股區成泰路一段7巷22號","121.432945","25.0669366666667","6501500","五股區"
"248004","677-BX","2017/07/11 20:08:08","新北市五股區成泰路一段30號","121.434928333333","25.067955","6501500","五股區"
"248002","678-BX","2017/07/11 20:08:07","新北市五股區成泰路三段311-1號","121.447816666667","25.0948366666667","6501500","五股區"
"234023","9380-KE","2017/07/11 20:07:54","新北市永和區永和路二段159號","121.515315","25.0129866666667","6500400","永和區"
"234077","969-R7","2017/07/11 20:08:09","新北市永和區民享街23巷5弄8號","121.51611","24.99574","6500400","永和區"
"234074","AAC-211","2017/07/11 20:08:00","新北市永和區豫溪街169巷2號","121.521863333333","25.0104666666667","6500400","永和區"
"234003","AAC-295","2017/07/11 20:06:30","新北市永和區中正路577巷10號","121.516085","25.008895","6500400","永和區"
"243013","AAD-798","2017/07/11 20:08:06","新北市泰山區工專路82巷16號","121.423383333333","25.041615","6501600","泰山區"
"243009","297-R6","2017/07/11 20:08:13","新北市泰山區泰林路二段138號","121.434223333333","25.0598033333333","6501600","泰山區"
"243015","380-SR","2017/07/11 20:08:09","新北市泰山區明志路一段412號","121.430715","25.05686","6501600","泰山區"
"243014","421-VK","2017/07/11 20:08:05","新北市泰山區明志路一段24號","121.433558333333","25.0655116666667","6501600","泰山區"
"243012","539-UM","2017/07/11 20:07:20","新北市泰山區楓江路46巷3號","121.435206666667","25.062195","6501600","泰山區"
"243010","548-UM","2017/07/11 20:08:10","新北市泰山區明志路二段136巷21弄4號","121.426003333333","25.0518933333333","6501600","泰山區"
"243011","549-UM","2017/07/11 20:07:58","新北市泰山區壽山路10號","121.421373333333","25.0291133333333","6501600","泰山區"
"243016","680-BX","2017/07/11 20:08:02","新北市泰山區明志路三段277號","121.422866666667","25.0366216666667","6501600","泰山區"
"222003","436-BY","2017/07/11 20:08:03","新北市深坑區埔新街62號","121.620123333333","25.002505","6501800","深坑區"
"222001","628-TS","2017/07/11 20:07:58","新北市深坑區北深路三段187號","121.60129","25.0036283333333","6501800","深坑區"
"222002","659-BX","2017/07/11 20:07:59","新北市深坑區北深路三段22號","121.609343333333","25.0011383333333","6501800","深坑區"
"231061","001-UM","2017/07/11 20:07:56","新北市新店區安興路65巷14號","121.515896666667","24.97295","6500600","新店區"
"231041","002-UM","2017/07/11 20:08:03","新北市新店區中正路468號","121.533948333333","24.9793966666667","6500600","新店區"
"231056","0291-UT","2017/07/11 20:07:58","新北市新店區北新路二段81號","121.542856666667","24.973885","6500600","新店區"
"231059","046-UY","2017/07/11 20:08:02","新北市新店區安德街33-1號","121.511328333333","24.962515","6500600","新店區"
"231060","106-UY","2017/07/11 20:08:05","新北市新店區安康路三段180號","121.489288333333","24.9517633333333","6500600","新店區"
"231051","107-UY","2017/07/11 20:07:53","新北市新店區中央路232號","121.52947","24.9726016666667","6500600","新店區"
"231048","108-UY","2017/07/11 20:07:54","新北市新店區永華街51號","121.544341666667","24.9758316666667","6500600","新店區"
"231053","110-UY","2017/07/11 20:08:08","新北市新店區新烏路三段寶島巷6號","121.551633333333","24.899025","6500600","新店區"
"231069","189-VK","2017/07/11 11:58:55","新北市新店區安華路28-1號","121.51961","24.9611616666667","6500600","新店區"
"231057","256-BX","2017/07/11 20:07:57","新北市新店區花園一路一段2號","121.553106666667","24.9323933333333","6500600","新店區"
"231063","268-BY","2017/07/11 20:08:01","新北市新店區黎明路56巷2號","121.502301666667","24.9478566666667","6500600","新店區"
"231050","AAD-862","2017/07/11 20:07:59","新北市新店區中生路66號","121.56466","24.9524716666667","6500600","新店區"
"231055","3713-VJ","2017/07/11 20:07:58","新北市新店區中華路48巷34號","121.541031666667","24.9693666666667","6500600","新店區"
"231067","4772-VM","2017/07/11 20:07:55","新北市新店區秀山路64號","121.531735","24.960395","6500600","新店區"
"231065","512-UM","2017/07/11 20:07:58","新北市新店區安祥路106巷224號","121.473648333333","24.959995","6500600","新店區"
"231054","513-UM","2017/07/11 20:07:55","新北市新店區光明街310號","121.540633333333","24.9650116666667","6500600","新店區"
"231064","515-UM","2017/07/11 20:07:58","新北市新店區安光路10-1號","121.513818333333","24.9641516666667","6500600","新店區"
"231042","616-UM","2017/07/11 20:07:56","新北市新店區中興路二段100巷1號","121.547468333333","24.9716466666667","6500600","新店區"
"231045","617-UM","2017/07/11 20:08:11","新北市新店區北宜路一段121-3號","121.540378333333","24.9538416666667","6500600","新店區"
"231040","619-UM","2017/07/11 20:08:05","新北市新店區中正路98號","121.543345","24.9703866666667","6500600","新店區"
"231068","718-UY","2017/07/11 20:07:55","新北市新店區光明街231號","121.540228333333","24.96443","6500600","新店區"
"231049","719-UM","2017/07/11 20:07:57","新北市新店區北新路二段171巷13號","121.542105","24.9763766666667","6500600","新店區"
"231062","720-UM","2017/07/11 20:07:57","新北市新店區安豐路22巷20號","121.503418333333","24.954495","6500600","新店區"
"231044","897-TW","2017/07/11 20:08:11","新北市新店區寶慶街58巷6號","121.54207","24.9870416666667","6500600","新店區"
"231043","899-TW","2017/07/11 20:08:06","新北市新店區中正路330號","121.536808333333","24.9748916666667","6500600","新店區"
"231066","AKT-0513","2017/07/11 20:07:58","新北市新店區柴埕路52巷1-1號","121.511536666667","24.96424","6500600","新店區"
"241011","013-R5","2017/07/11 20:08:03","新北市三重區三和路三段47巷7號","121.495738333333","25.0716033333333","6500200","三重區"
"241028","022-UY","2017/07/11 20:07:58","新北市三重區仁化街174號","121.494778333333","25.0570483333333","6500200","三重區"
"241008","059-VK","2017/07/11 20:07:54","新北市三重區永福街197巷37弄12號","121.47791","25.074135","6500200","三重區"
"241009","060-VK","2017/07/11 20:08:02","新北市三重區永福街46巷15弄3號","121.48152","25.0780266666667","6500200","三重區"
"241031","061-VK","2017/07/11 20:08:09","新北市三重區三寧街2號","121.488658333333","25.0593733333333","6500200","三重區"
"241015","062-VK","2017/07/11 20:07:56","新北市三重區福德北路24號","121.502236666667","25.0648983333333","6500200","三重區"
"241017","063-VK","2017/07/11 20:07:55","新北市三重區大同北路221巷62號","121.492746666667","25.0666533333333","6500200","三重區"
"241024","065-VK","2017/07/11 20:08:01","新北市三重區中正北路294號","121.480141666667","25.0687866666667","6500200","三重區"
"241026","066-VK","2017/07/11 20:08:05","新北市三重區福德南路65巷1號","121.502261666667","25.0605233333333","6500200","三重區"
"241002","090-VK","2017/07/11 20:08:02","新北市三重區仁忠街39號","121.495543333333","25.0818","6500200","三重區"
"241003","091-VK","2017/07/11 20:08:10","新北市三重區仁愛街433號","121.49031","25.081945","6500200","三重區"
"241020","156-TC","2017/07/11 20:08:11","新北市三重區大智街179巷23號","121.490806666667","25.0729316666667","6500200","三重區"
"241005","262-UM","2017/07/11 20:07:52","新北市三重區溪尾街332號","121.488208333333","25.0849483333333","6500200","三重區"
"241013","265-UM","2017/07/11 20:07:58","新北市三重區三和路三段139巷17號","121.493286666667","25.0738166666667","6500200","三重區"
"241016","266-UM","2017/07/11 20:08:06","新北市三重區大同北路97-2號","121.494488333333","25.0635416666667","6500200","三重區"
"241022","267-UM","2017/07/11 20:08:03","新北市三重區新北大道一段9號","121.488783333333","25.060635","6500200","三重區"
"241018","268-UM","2017/07/11 20:08:00","新北市三重區正義北路256巷20號","121.495346666667","25.0683766666667","6500200","三重區"
"241032","269-UM","2017/07/11 20:08:00","新北市三重區捷運路65號","121.48342","25.0555066666667","6500200","三重區"
"241025","271-UM","2017/07/11 20:08:06","新北市三重區中正北路430-1號","121.474476666667","25.0709233333333","6500200","三重區"
"241007","398-BY","2017/07/11 20:07:58","新北市三重區仁美街48號","121.48718","25.0778","6500200","三重區"
"241004","475-VK","2017/07/11 20:08:10","新北市三重區自強路四段112號","121.491656666667","25.079995","6500200","三重區"
"241019","478-VK","2017/07/11 20:08:04","新北市三重區自強路二段47巷33號","121.490083333333","25.070055","6500200","三重區"
"241030","480-VK","2017/07/11 20:07:55","新北市三重區成功路145巷11號","121.487315","25.052685","6500200","三重區"
"241014","543-UM","2017/07/11 20:07:57","新北市三重區安和路41號","121.501036666667","25.06938","6500200","三重區"
"241023","545-UM","2017/07/11 20:08:04","新北市三重區頂崁街216號","121.477035","25.067875","6500200","三重區"
"241001","547-UM","2017/07/11 20:08:13","新北市三重區溪尾街24號","121.490758333333","25.0761416666667","6500200","三重區"
"241006","AAD-863","2017/07/11 20:08:10","新北市三重區車路頭街139巷2號","121.483825","25.0763133333333","6500200","三重區"
"241035","743-BX","2017/07/11 20:08:02","新北市三重區平安街7號","121.498788333333","25.0643183333333","6500200","三重區"
"241029","942-UM","2017/07/11 20:07:50","新北市三重區重安街14號","121.490173333333","25.0581266666667","6500200","三重區"
"241033","AAC-255","2017/07/11 20:08:07","新北市三重區光復路一段68巷5號","121.471355","25.0493816666667","6500200","三重區"
"235066","003-UY","2017/07/11 20:07:56","新北市中和區水源路127巷2弄2號","121.508056666667","25.0040416666667","6500300","中和區"
"235039","097-UM","2017/07/11 20:08:11","新北市中和區景平路278巷14弄10號","121.514495","24.9929766666667","6500300","中和區"
"235065","098-UM","2017/07/11 20:08:09","新北市中和區福美路246號","121.498626666667","25.00516","6500300","中和區"
"235040","150-BY","2017/07/11 20:08:11","新北市中和區保健路33巷6號","121.508861666667","24.9978366666667","6500300","中和區"
"235058","151-BY","2017/07/11 20:07:56","新北市中和區中正路655號","121.485153333333","24.9962016666667","6500300","中和區"
"235055","183-VK","2017/07/11 20:08:03","新北市中和區民生街12巷2號","121.470628333333","25.0056216666667","6500300","中和區"
"235038","185-VK","2017/07/11 20:07:59","新北市中和區更生街66號","121.521736666667","24.9961716666667","6500300","中和區"
"235044","293-VK","2017/07/11 20:07:55","新北市中和區板南路100號","121.503743333333","24.9923916666667","6500300","中和區"
"235051","376-QA","2017/07/11 20:08:08","新北市中和區景安路198號","121.504221666667","24.991365","6500300","中和區"
"235068","377-QA","2017/07/11 20:08:11","新北市中和區中山路二段250巷5號","121.49735","25.0029733333333","6500300","中和區"
"235050","4979-A6","2017/07/11 20:07:59","新北市中和區景平路334號","121.511911666667","24.9927583333333","6500300","中和區"
"235069","4980-A6","2017/07/11 20:08:11","新北市中和區景新街64巷7弄6號","121.504223333333","24.9986366666667","6500300","中和區"
"235070","558-UM","2017/07/11 20:07:52","新北市中和區景平路634-1號","121.500055","24.9980966666667","6500300","中和區"
"235054","640-BX","2017/07/11 20:08:00","新北市中和區莒光路102號","121.472365","25.0022533333333","6500300","中和區"
"235046","733-UM","2017/07/11 20:08:07","新北市中和區興南路一段105巷20弄6號","121.510368333333","24.9855716666667","6500300","中和區"
"235041","802-TS","2017/07/11 20:08:05","新北市中和區中安街42號","121.512866666667","25.0027583333333","6500300","中和區"
"235052","805-TS","2017/07/11 20:08:02","新北市中和區華新街28-1號","121.507636666667","24.9845266666667","6500300","中和區"
"235048","896-TW","2017/07/11 20:08:01","新北市新店區安和路三段157號","121.516415","24.9857983333333","6500300","中和區"
"235037","AAC-213","2017/07/11 20:08:05","新北市中和區秀朗路三段10巷29弄5號","121.525035","24.99599","6500300","中和區"
"235059","AAC-215","2017/07/11 20:08:07","新北市中和區圓通路335巷33弄17號","121.493013333333","24.9889283333333","6500300","中和區"
"220068","013-TV","2017/07/11 20:08:06","新北市板橋區中山路二段368號","121.481768333333","25.0202733333333","6500100","板橋區"
"220065","072-UY","2017/07/11 20:08:07","新北市板橋區區運路30號","121.465635","25.0096466666667","6500100","板橋區"
"220069","AAD-861","2017/07/11 20:08:06","新北市板橋區南雅南路二段18號","121.454658333333","25.003575","6500100","板橋區"
"220106","120-SR","2017/07/11 20:07:55","新北市板橋區文聖街11巷15號","121.4759","25.03282","6500100","板橋區"
"247020","893-R6","2017/07/11 20:07:52","新北市蘆洲區民權路106巷5弄22號","121.474243333333","25.0891916666667","6501400","蘆洲區"
"247010","546-UM","2017/07/11 20:08:05","新北市蘆洲區集賢路400號","121.480205","25.0821483333333","6501400","蘆洲區"
"247018","500-BY","2017/07/11 20:08:05","新北市蘆洲區民族路314巷11-1號","121.477916666667","25.0905266666667","6501400","蘆洲區"
"247002","402-BY","2017/07/11 20:08:00","新北市蘆洲區水湳街95號","121.470155","25.0901733333333","6501400","蘆洲區"
"247006","341-TH","2017/07/11 20:08:10","新北市蘆洲區中山二路272號","121.468996666667","25.07832","6501400","蘆洲區"
"247008","339-TH","2017/07/11 20:08:08","新北市蘆洲區集賢路300號","121.481561666667","25.0850166666667","6501400","蘆洲區"
"247024","337-TH","2017/07/11 20:07:56","新北市蘆洲區光明路125號","121.463551666667","25.08828","6501400","蘆洲區"
"247002","336-TH","2017/07/11 20:08:02","新北市蘆洲區長安街246巷35號","121.458518333333","25.0864366666667","6501400","蘆洲區"
"247014","057-VK","2017/07/11 20:08:04","新北市蘆洲區中山二路265巷35號","121.47119","25.0796283333333","6501400","蘆洲區"
"247004","056-VK","2017/07/11 20:08:05","新北市蘆洲區永安南路二段328巷15弄5號","121.45643","25.0837","6501400","蘆洲區"
"247012","007-UY","2017/07/11 20:08:06","新北市蘆洲區民族路250巷10號","121.479638333333","25.0888933333333","6501400","蘆洲區"
"247022","002-UY","2017/07/11 20:08:08","新北市蘆洲區三民路193號","121.470445","25.087755","6501400","蘆洲區"
"247016","001-UY","2017/07/11 20:08:01","新北市蘆洲區光華路162巷8弄8號","121.465416666667","25.0827966666667","6501400","蘆洲區"
"226004","205-ST","2017/07/11 20:07:59","新北市平溪區石底里公園街18-3號","121.733395","25.025755","6502400","平溪區"
"224011","420-VK","2017/07/11 20:08:06","新北市瑞芳區山尖路209號","121.849348333333","25.11144","6501200","瑞芳區"
"227009","642-TC","2017/07/11 20:07:51","新北市雙溪區雙溪里太平路81號","121.865443333333","25.0362233333333","6502500","雙溪區"
"227003","400-TW","2017/07/11 20:07:51","新北市雙溪區魚行里新店74-1號","121.87164","25.0305883333333","6502500","雙溪區"
"208003","665-BX","2017/07/11 20:07:54","新北市金山區海興路41號","121.63064","25.238335","6502700","金山區"
"251004","009-UM","2017/07/11 20:08:06","新北市淡水區民族路31巷33號","121.462233333333","25.1366766666667","6501000","淡水區"
"251014","180-VK","2017/07/11 20:08:03","新北市淡水區石頭厝1號","121.45866","25.2355133333333","6501000","淡水區"
"251008","181-VK","2017/07/11 20:08:09","新北市淡水區沙崙路131巷11號","121.421918333333","25.1829983333333","6501000","淡水區"
"251010","413-VK","2017/07/11 20:07:53","新北市淡水區崁頂五路303號","121.424748333333","25.1991316666667","6501000","淡水區"
"251012","441-VK","2017/07/11 20:08:00","新北市淡水區下圭柔山56-20號","121.44765","25.2044783333333","6501000","淡水區"
"251016","442-VK","2017/07/11 20:07:54","新北市淡水區番子田25-7號","121.456068333333","25.2308666666667","6501000","淡水區"
"251001","559-UM","2017/07/11 20:07:54","新北市淡水區淡金路二段599號","121.445975","25.1924833333333","6501000","淡水區"
"251006","561-UM","2017/07/11 20:08:00","新北市淡水區北新路141巷29號","121.448158333333","25.1796133333333","6501000","淡水區"
"251009","575-R6","2017/07/11 20:08:07","新北市淡水區英專路28巷5號","121.446031666667","25.1699616666667","6501000","淡水區"
"251011","650-BX","2017/07/11 20:07:39","新北市淡水區崁頂78-5號","121.429373333333","25.2072016666667","6501000","淡水區"
"251002","672-BX","2017/07/11 20:07:54","新北市淡水區中正路354號","121.434316666667","25.1740483333333","6501000","淡水區"
"251003","766-UM","2017/07/11 20:08:12","新北市淡水區中山北路一段303號","121.44453","25.18269","6501000","淡水區"
"207003","550-UM","2017/07/11 20:07:54","新北市萬里區大鵬里萬里加投68-5號","121.642565","25.2154733333333","6502800","萬里區"
"207004","225-TW","2017/07/11 20:08:10","新北市萬里區北基里愛二街2號","121.682451666667","25.176705","6502800","萬里區"
"252002","178-VK","2017/07/11 20:08:09","新北市三芝區忠孝街112-3號","121.505556666667","25.2578016666667","6502100","三芝區"
"252001","702-TV","2017/07/11 20:07:50","新北市三芝區公正街66號","121.499846666667","25.2575116666667","6502100","三芝區"
"208002","170-UY","2017/07/11 18:51:33","新北市金山區仁愛路37-12號","121.635838333333","25.2200916666667","6502700","金山區"
"237007","153-BY","2017/07/11 20:07:57","新北市三峽區二鬮路136巷20弄49號","121.35747","24.9099616666667","6500900","三峽區"
"237009","210-TH","2017/07/11 20:08:01","新北市鶯歌區文化路284號","121.352776666667","24.9469883333333","6500900","三峽區"
"237012","275-BY","2017/07/11 20:07:55","新北市三峽區中華路96號","121.371046666667","24.928105","6500900","三峽區"
"237008","302-VK","2017/07/11 20:07:55","新北市三峽區中華路46號","121.372136666667","24.9305","6500900","三峽區"
"237006","5529-G3","2017/07/11 20:08:09","新北市三峽區中正路二段299巷4號","121.366873333333","24.9111066666667","6500900","三峽區"
"237016","649-BX","2017/07/11 20:08:01","新北市三峽區介壽路二段138巷1弄166號","121.403263333333","24.9275116666667","6500900","三峽區"
"237005","AKY-6261","2017/07/11 20:07:59","新北市三峽區三樹路100號","121.378896666667","24.93873","6500900","三峽區"
"236070","105-UM","2017/07/11 20:07:58","新北市土城區承天路21號","121.436368333333","24.9657733333333","6501300","土城區"
"236043","107-UM","2017/07/11 20:08:13","新北市土城區學府路一段122-1號","121.455238333333","24.9877016666667","6501300","土城區"
"236079","166-UM","2017/07/11 20:07:57","新北市土城區中山路47號","121.42054","24.9627866666667","6501300","土城區"
"236031","253-BX","2017/07/11 20:07:56","新北市土城區中央路一段118巷1弄3號","121.446076666667","24.988095","6501300","土城區"
"236027","269-VK","2017/07/11 20:08:10","新北市土城區裕生路85號","121.446768333333","24.9840733333333","6501300","土城區"
"236015","270-VK","2017/07/11 20:07:56","新北市土城區廣明街2號","121.456021666667","24.9917183333333","6501300","土城區"
"236038","271-VK","2017/07/11 20:07:57","新北市土城區明德路一段109號","121.465486666667","24.9816733333333","6501300","土城區"
"236023","401-BY","2017/07/11 20:08:05","新北市土城區延吉街44號","121.471831666667","24.9870583333333","6501300","土城區"
"236059","912-UM","2017/07/11 20:08:01","新北市土城區中央路一段304號","121.443305","24.9818966666667","6501300","土城區"
"236049","913-UM","2017/07/11 20:07:54","新北市土城區金城路三段179號","121.469466666667","24.9887466666667","6501300","土城區"
"236063","915-UM","2017/07/11 20:08:10","新北市土城區立德路113號","121.464315","24.987405","6501300","土城區"
"236055","AAC-216","2017/07/11 20:08:06","新北市土城區學府路一段107號","121.455913333333","24.98767","6501300","土城區"
"242021","AAC-296","2017/07/11 20:07:57","新北市新莊區建中街48巷11號","121.448235","25.0378516666667","6500500","新莊區"
"242048","751-BX","2017/07/11 20:07:54","新北市新莊區四維路182巷8號","121.421843333333","25.02182","6500500","新莊區"
"242029","705-TV","2017/07/11 20:07:55","新北市新莊區中原路349號","121.445108333333","25.0543016666667","6500500","新莊區"
"242025","615-BX","2017/07/11 20:07:53","新北市新莊區五工三路78巷13號","121.459373333333","25.0655283333333","6500500","新莊區"
"242023","613-BX","2017/07/11 20:08:04","新北市新莊區化成路215號","121.466103333333","25.0520683333333","6500500","新莊區"
"242027","612-BX","2017/07/11 20:08:01","新北市新莊區中平路303號","121.44475","25.0514566666667","6500500","新莊區"
"242037","566-BX","2017/07/11 20:07:57","新北市新莊區後港一路130巷13號","121.429731666667","25.0267116666667","6500500","新莊區"
"242042","497-BY","2017/07/11 20:07:55","新北市新莊區青山路一段177號","121.40049","25.0301766666667","6500500","新莊區"
"242005","442-UM","2017/07/11 20:07:56","新北市新莊區化成路231號","121.465855","25.0524966666667","6500500","新莊區"
"242046","441-UM","2017/07/11 20:08:04","新北市新莊區裕民街37巷5號","121.419508333333","25.0249766666667","6500500","新莊區"
"242032","415-TV","2017/07/11 20:07:56","新北市新莊區忠孝街29巷7號","121.443591666667","25.0355716666667","6500500","新莊區"
"242002","413-TV","2017/07/11 20:08:10","新北市三重區重新路五段652號","121.46792","25.044065","6500500","新莊區"
"242039","400-BY","2017/07/11 20:08:03","新北市新莊區民安西路115號","121.426678333333","25.017975","6500500","新莊區"
"242061","362-BY","2017/07/11 20:08:04","新北市新莊區瓊林路瓊英巷4弄1號","121.4435","25.0274666666667","6500500","新莊區"
"242058","353-BY","2017/07/11 20:08:03","新北市新莊區八德街222號","121.423181666667","25.019105","6500500","新莊區"
"242011","132-UY","2017/07/11 20:08:05","新北市新莊區中信街65號","121.449038333333","25.0509066666667","6500500","新莊區"
"242034","133-UY","2017/07/11 20:07:50","新北市新莊區中正路318巷16號","121.446526666667","25.0360216666667","6500500","新莊區"
"242019","135-UY","2017/07/11 20:08:00","新北市新莊區民樂街66號","121.457971666667","25.0421333333333","6500500","新莊區"
"242044","172-VK","2017/07/11 20:08:08","新北市新莊區中正路929巷7弄12號","121.411383333333","25.0203916666667","6500500","新莊區"
"242007","173-VK","2017/07/11 20:08:04","新北市新莊區福壽街164巷19號","121.459258333333","25.0528433333333","6500500","新莊區"
"242056","176-VK","2017/07/11 20:07:52","新北市新莊區新莊路649巷15弄1號","121.444976666667","25.0315116666667","6500500","新莊區"
"242013","346-TH","2017/07/11 20:08:07","新北市新莊區幸福路678巷5號","121.450586666667","25.049695","6500500","新莊區"
"242051","347-TH","2017/07/11 20:08:00","新北市新莊區民安西路170號","121.426025","25.015995","6500500","新莊區"
"242017","348-TH","2017/07/11 20:07:56","新北市新莊區中港路360-1號","121.452045","25.0468366666667","6500500","新莊區"
"242054","349-TH","2017/07/11 20:08:09","新北市新莊區西盛街387巷3號","121.428273333333","25.01295","6500500","新莊區"
"242015","350-TH","2017/07/11 20:08:00","新北市新莊區中平路26巷26號","121.445903333333","25.0432966666667","6500500","新莊區"
"242009","351-TH","2017/07/11 20:08:09","新北市新莊區昌平街33號","121.45481","25.0520716666667","6500500","新莊區"
"238023","601-UM","2017/07/11 20:07:57","新北市樹林區保安街一段220號","121.420961666667","24.99635","6500700","樹林區"
"238021","311-TH","2017/07/11 18:50:53","新北市樹林區西圳街二段25號","121.3887","24.9613683333333","6500700","樹林區"
"239003","360-BY","2017/07/11 20:08:09","新北市鶯歌區二甲路12-2號","121.345875","24.9350316666667","6500800","鶯歌區"
"221008","489-VK","2017/07/11 20:07:53","新北市汐止區忠三街9巷32號","121.624383333333","25.0802433333333","6501100","汐止區"
"221036","130-UY","2017/07/11 20:08:07","新北市汐止區新台五路二段116巷2號","121.662916666667","25.0660633333333","6501100","汐止區"
"221015","131-UY","2017/07/11 20:07:57","新北市汐止區建成路17號","121.664446666667","25.0725716666667","6501100","汐止區"
"221010","269-BY","2017/07/11 20:07:52","新北市汐止區連峰街225巷24號","121.644103333333","25.081015","6501100","汐止區"
"221010","276-VK","2017/07/11 13:23:39","新北市汐止區汐萬路一段256巷3號","121.653433333333","25.07461","6501100","汐止區"
"221031","277-VK","2017/07/11 00:10:03","新北市汐止區汐萬路一段256巷3號","121.652558333333","25.0745033333333","6501100","汐止區"
"221012","278-VK","2017/07/11 20:07:57","新北市汐止區汐平路二段60號","121.69677","25.0624783333333","6501100","汐止區"
"221023","279-VK","2017/07/11 19:27:49","新北市汐止區康寧街623巷18弄15號","121.636628333333","25.0731733333333","6501100","汐止區"
"221032","280-BY","2017/07/11 20:08:00","新北市汐止區弘道街8巷1弄1號","121.617046666667","25.0484366666667","6501100","汐止區"
"221027","281-BY","2017/07/11 20:08:04","新北市汐止區中正路134號","121.660366666667","25.0694316666667","6501100","汐止區"
"221038","297-VK","2017/07/11 20:08:03","新北市汐止區忠孝東路528號","121.667098333333","25.0762883333333","6501100","汐止區"
"221029","298-VK","2017/07/11 20:07:59","新北市汐止區樟樹一路129巷18弄15號","121.641348333333","25.06531","6501100","汐止區"
"221021","299-VK","2017/07/11 19:50:58","新北市汐止區復興路101號","121.658655","25.0616716666667","6501100","汐止區"
"221035","622-UM","2017/07/11 20:08:09","新北市汐止區長江街67巷2弄2號","121.656791666667","25.0721683333333","6501100","汐止區"
"221025","623-UM","2017/07/11 20:07:55","新北市汐止區秀峰路64-1號","121.659836666667","25.0646016666667","6501100","汐止區"
"221033","647-BX","2017/07/11 20:08:01","新北市汐止區東勢街201巷104號","121.633578333333","25.0429716666667","6501100","汐止區"
"220079","145-BY","2017/07/11 20:08:11","新北市板橋區南雅西路二段175巷12號","121.4514","25.01285","6500100","板橋區"
"220082","610-BX","2017/07/11 20:07:52","新北市板橋區大觀路三段104號","121.432533333333","24.9944083333333","6500100","板橋區"
"220101","245-BX","2017/07/11 20:08:08","新北市板橋區莒光路165巷32號","121.474466666667","25.0246983333333","6500100","板橋區"
"220091","267-BY","2017/07/11 20:07:57","新北市板橋區文聖街73號","121.477318333333","25.0306033333333","6500100","板橋區"
"220072","277-BY","2017/07/11 20:08:04","新北市板橋區篤行路二段31巷18號","121.432541666667","24.9926","6500100","板橋區"
"220071","283-VK","2017/07/11 20:08:08","新北市板橋區國慶路182巷28-1號","121.463316666667","24.9954366666667","6500100","板橋區"
"220094","285-UM","2017/07/11 20:07:56","新北市板橋區文化路一段371號","121.466816666667","25.0216166666667","6500100","板橋區"
"220053","285-VK","2017/07/11 20:08:11","新北市板橋區懷仁街85號","121.477363333333","25.0182983333333","6500100","板橋區"
"220083","286-VK","2017/07/11 20:07:57","新北市板橋區僑中二街48巷26號","121.44525","25.0104083333333","6500100","板橋區"
"220081","287-VK","2017/07/11 20:07:52","新北市板橋區僑中一街124巷20弄46號","121.448163333333","25.0137566666667","6500100","板橋區"
"220090","288-VK","2017/07/11 20:07:53","新北市板橋區幸福路32巷54號","121.460385","25.0222166666667","6500100","板橋區"
"220061","293-UM","2017/07/11 20:08:00","新北市板橋區縣民大道二段200巷1號","121.469713333333","25.01714","6500100","板橋區"
"220084","296-UM","2017/07/11 20:08:02","新北市板橋區滿平街2巷10號","121.425128333333","24.9893716666667","6500100","板橋區"
"220075","297-UM","2017/07/11 20:07:55","新北市板橋區金華街10巷77號","121.458036666667","25.020405","6500100","板橋區"
"220092","299-UM","2017/07/11 20:08:05","新北市板橋區公館街108號","121.461116666667","25.0167383333333","6500100","板橋區"
"220098","317-R6","2017/07/11 20:07:56","新北市板橋區新海路72巷46弄7號","121.462325","25.0232833333333","6500100","板橋區"
"220080","461-BY","2017/07/11 20:08:03","新北市板橋區大觀路二段163巷21號","121.446465","25.000115","6500100","板橋區"
"220064","486-VK","2017/07/11 20:07:57","新北市板橋區長安街331巷112-4號","121.471535","25.0125016666667","6500100","板橋區"
"220089","487-VK","2017/07/11 20:08:05","新北市板橋區新海路401號","121.458525","25.0266966666667","6500100","板橋區"
"220088","491-VK","2017/07/11 20:06:52","新北市板橋區懷德街59號","121.477376666667","25.0325266666667","6500100","板橋區"
"220035","560-BX","2017/07/11 20:08:07","新北市板橋區新生街23巷1弄1號","121.456045","25.0214566666667","6500100","板橋區"
"220103","561-BX","2017/07/11 20:07:57","新北市板橋區文化路一段421巷11弄15號","121.466828333333","25.0225733333333","6500100","板橋區"
"220057","686-BX","2017/07/11 20:08:03","新北市板橋區四川路二段78號","121.452211666667","24.9947133333333","6500100","板橋區"
"220093","689-BX","2017/07/11 20:08:02","新北市板橋區長江路二段198號","121.467521666667","25.0322133333333","6500100","板橋區"
"220054","741-BX","2017/07/11 20:08:01","新北市板橋區忠孝路忠義巷9弄19號","121.465065","25.00507","6500100","板橋區"
"220055","827-TW","2017/07/11 20:08:03","新北市板橋區仁愛路76巷3弄1號","121.4606","24.9991716666667","6500100","板橋區"
"220067","829-TW","2017/07/11 20:08:03","新北市板橋區大觀路二段266號","121.448611666667","24.9967616666667","6500100","板橋區"
"220102","830-TW","2017/07/11 20:08:06","新北市板橋區民治街128號","121.477841666667","25.031085","6500100","板橋區"
"220096","831-TW","2017/07/11 20:07:56","新北市板橋區莒光路133巷5號","121.47285","25.0243883333333","6500100","板橋區"
"220074","895-R6","2017/07/11 20:08:02","新北市板橋區明德街16號","121.46008","25.0105466666667","6500100","板橋區"
"220073","985-R7","2017/07/11 20:08:07","新北市板橋區南雅西路二段2-1號","121.453223333333","25.0088516666667","6500100","板橋區"
"220097","AAC-210","2017/07/11 20:08:12","新北市板橋區光正街22號","121.46246","25.0173433333333","6500100","板橋區"
"220070","AAC-253","2017/07/11 20:07:59","新北市板橋區成都街73-3號","121.462441666667","25.0050716666667","6500100","板橋區"
