"lineid","car","time","location","longitude","latitude"
"235026","911-UM","2017/05/28 13:34:10","新北市中和區員山路36巷16-2號","121.485333333333","24.9917383333333"
"251013","179-VK","2017/05/28 17:09:00","新北市淡水區大埤頭4號","121.488301666667","25.1956033333333"
"251014","180-VK","2017/05/28 17:08:52","新北市淡水區八里堆9-8號","121.464263333333","25.22389"
"251016","182-VK","2017/05/28 17:08:48","新北市淡水區鄒厝崙1-8號","121.475236666667","25.187175"
"251015","442-VK","2017/05/28 17:08:49","新北市淡水區鄧公路278巷11號","121.462598333333","25.1685566666667"
