"lineid","car","time","location","longitude","latitude"
"235026","911-UM","2017/05/28 13:34:10","新北市中和區員山路36巷16-2號","121.485333333333","24.9917383333333"
"251013","179-VK","2017/05/28 18:19:00","新北市淡水區行忠路796號","121.473855","25.1997616666667"
"251014","180-VK","2017/05/28 18:18:52","新北市淡水區南平16號","121.489043333333","25.2213683333333"
"251016","182-VK","2017/05/28 18:18:48","新北市淡水區淡金路三段212號","121.448981666667","25.204555"
"251015","442-VK","2017/05/28 18:18:49","新北市淡水區興福寮88巷1號","121.485526666667","25.1650766666667"
