"lineid","car","time","location","longitude","latitude"
"235026","911-UM","2017/05/28 13:34:10","新北市中和區員山路36巷16-2號","121.485333333333","24.9917383333333"
"224011","AGQ-8101","2017/05/28 18:41:25","新北市瑞芳區烏勢巷145號","121.847488333333","25.1086733333333"
"251013","179-VK","2017/05/28 18:49:00","新北市淡水區頂田寮路697號","121.475228333333","25.215825"
"251014","180-VK","2017/05/28 18:49:02","新北市淡水區崙頂3號","121.489846666667","25.2238133333333"
"251016","182-VK","2017/05/28 18:48:48","新北市淡水區下圭柔山71-3號","121.447131666667","25.2062083333333"
"251015","442-VK","2017/05/28 18:48:49","新北市淡水區糞箕湖17-3號","121.488223333333","25.1686233333333"
