"lineid","car","time","location","longitude","latitude"
"235026","911-UM","2017/05/28 13:34:10","新北市中和區員山路36巷16-2號","121.485333333333","24.9917383333333"
"251013","179-VK","2017/05/28 19:28:59","新北市淡水區安子內18號","121.471876666667","25.2186933333333"
"251014","180-VK","2017/05/28 19:28:52","新北市淡水區小中寮19-7號","121.48478","25.2297216666667"
"251016","182-VK","2017/05/28 19:28:48","新北市淡水區淡金路三段350巷18號","121.450718333333","25.208395"
"251015","442-VK","2017/05/28 19:28:49","新北市淡水區北新路三段146號","121.490035","25.1903833333333"
