"lineid","car","time","location","longitude","latitude"
"235026","911-UM","2017/05/28 13:34:10","新北市中和區員山路36巷16-2號","121.485333333333","24.9917383333333"
"251013","179-VK","2017/05/28 20:08:59","新北市淡水區奎柔山路299號","121.460163333333","25.2051483333333"
"251014","180-VK","2017/05/28 20:00:58","新北市淡水區石頭厝1號","121.458671666667","25.2355066666667"
"251016","182-VK","2017/05/28 20:08:51","新北市淡水區番子田20-4號","121.457681666667","25.2283616666667"
"251015","442-VK","2017/05/28 20:08:49","新北市淡水區埤島76-2號","121.451881666667","25.1931083333333"
