"lineid","car","time","location","longitude","latitude"
"235026","911-UM","2017/05/28 13:34:10","新北市中和區員山路36巷16-2號","121.485333333333","24.9917383333333"
"251013","179-VK","2017/05/28 20:48:59","新北市淡水區行忠路169號","121.45647","25.201065"
"251014","180-VK","2017/05/28 20:49:01","新北市淡水區公埔子36號","121.461861666667","25.232365"
"251016","182-VK","2017/05/28 20:48:48","新北市淡水區淡金路四段469號","121.451683333333","25.2238216666667"
"251015","442-VK","2017/05/28 20:48:49","新北市淡水區淡金路四段542巷17號","121.452653333333","25.2270716666667"
