"lineid","car","time","location","longitude","latitude","cityid","cityname"
"235035","911-UM","2017/09/17 14:51:30","新北市中和區員山路36巷16-3號","121.484925","24.9910816666667","6500300","中和區"
"251013","179-VK","2017/09/17 17:05:04","新北市淡水區大埤頭4號","121.487245","25.195105","6501000","淡水區"
"251014","180-VK","2017/09/17 17:05:04","新北市淡水區八里堆8號","121.462483333333","25.2242633333333","6501000","淡水區"
"251015","182-VK","2017/09/17 17:05:01","新北市淡水區忠愛街2號","121.455905","25.1724416666667","6501000","淡水區"
"251016","442-VK","2017/09/17 17:05:07","新北市淡水區北新路三段25號","121.483301666667","25.1868533333333","6501000","淡水區"
