"lineid","car","time","location","longitude","latitude","cityid","cityname"
"235035","911-UM","2017/09/17 14:51:30","新北市中和區員山路36巷16-3號","121.484925","24.9910816666667","6500300","中和區"
"251013","179-VK","2017/09/17 17:25:04","新北市淡水區水尾子2-1號","121.46429","25.1943766666667","6501000","淡水區"
"251014","180-VK","2017/09/17 17:25:12","新北市淡水區公埔子6號","121.468791666667","25.2255616666667","6501000","淡水區"
"251015","182-VK","2017/09/17 17:25:01","新北市淡水區三空泉16-10號","121.47087","25.165185","6501000","淡水區"
"251016","442-VK","2017/09/17 17:25:07","新北市淡水區社厝坑6號","121.470371666667","25.1895366666667","6501000","淡水區"
