"lineid","car","time","location","longitude","latitude","cityid","cityname"
"235035","911-UM","2017/09/17 14:51:30","新北市中和區員山路36巷16-3號","121.484925","24.9910816666667","6500300","中和區"
"251013","179-VK","2017/09/17 17:55:04","新北市淡水區泉洲厝30號","121.479665","25.1909516666667","6501000","淡水區"
"251014","180-VK","2017/09/17 17:55:04","新北市淡水區公埔子16-6號","121.481008333333","25.2244916666667","6501000","淡水區"
"251015","182-VK","2017/09/17 17:55:01","新北市淡水區興福寮32-2號","121.490716666667","25.1637966666667","6501000","淡水區"
"251016","442-VK","2017/09/17 17:55:07","新北市淡水區埤島38號","121.450638333333","25.1963383333333","6501000","淡水區"
