"lineid","car","time","location","longitude","latitude","cityid","cityname"
"248005","653-BX","2017/09/18 07:39:01","新北市五股區明德路12巷1號","121.433318333333","25.07174","6501500","五股區"
"232005","290-BY","2017/09/18 07:39:01","新北市坪林區魚堀34號","121.699123333333","24.9262633333333","6502000","坪林區"
"232001","291-BY","2017/09/18 07:38:47","新北市坪林區上坑子口22號","121.701625","24.9519083333333","6502000","坪林區"
"232010","375-UM","2017/09/18 07:38:57","新北市坪林區苦苓腳1-1號","121.714146666667","24.9360966666667","6502000","坪林區"
"232012","705-BZ","2017/09/18 07:38:54","新北市坪林區金瓜寮7-7號","121.680443333333","24.91488","6502000","坪林區"
"232017","758-BX","2017/09/18 07:38:53","新北市坪林區乾溪1號","121.742156666667","24.9776533333333","6502000","坪林區"
"244001","657-BX","2017/09/18 07:38:49","新北市林口區頂福77號","121.338063333333","25.0958966666667","6501700","林口區"
"244024","837-TS","2017/09/18 07:37:39","新北市林口區粉寮路二段160巷28號","121.405168333333","25.0907733333333","6501700","林口區"
"222005","289-BY","2017/09/18 07:20:03","新北市深坑區文化街39巷13號","121.618886666667","25.0010933333333","6501800","深坑區"
"235010","733-UM","2017/09/18 07:39:00","新北市中和區和平街29-1號","121.50745","24.9911083333333","6500300","中和區"
"220034","015-TV","2017/09/18 07:39:06","新北市板橋區國光路51號","121.458128333333","25.01802","6500100","板橋區"
"247001","402-BY","2017/09/18 07:38:51","新北市蘆洲區集賢路271號","121.481","25.0836116666667","6501400","蘆洲區"
"226005","5620-A6","2017/09/18 07:38:58","新北市平溪區嶺腳里嶺腳寮27號","121.747886666667","25.0301966666667","6502400","平溪區"
"226001","7418-A5","2017/09/18 07:39:06","新北市平溪區平湖里大厝37-5號","121.779336666667","25.0302466666667","6502400","平溪區"
"226003","AGD-0702","2017/09/18 07:39:01","新北市平溪區嶺腳里嶺腳寮28-1號","121.747926666667","25.03036","6502400","平溪區"
"223006","022-BY","2017/09/18 07:39:01","新北市石碇區靜安路一段288號","121.688543333333","25.0066183333333","6501900","石碇區"
"223002","198-BX","2017/09/18 07:39:06","新北市石碇區碇格路二段16-1號","121.640066666667","24.9552083333333","6501900","石碇區"
"223003","205-TH","2017/09/18 07:39:00","新北市石碇區中楒子腳4號","121.640868333333","24.9705966666667","6501900","石碇區"
"223008","406-TH","2017/09/18 07:39:07","新北市石碇區蚯蚓坑61-1號","121.682836666667","25.00961","6501900","石碇區"
"223001","437-BY","2017/09/18 07:38:56","新北市石碇區烏塗窟8-3號","121.655696666667","24.97536","6501900","石碇區"
"223004","660-BX","2017/09/18 07:38:57","新北市石碇區八分寮56號","121.64449","25.01773","6501900","石碇區"
"223007","661-BX","2017/09/18 07:38:58","新北市石碇區靜安路一段296號","121.69172","25.0060733333333","6501900","石碇區"
"223005","677-TV","2017/09/18 07:39:01","新北市石碇區八分寮47號","121.642331666667","25.013845","6501900","石碇區"
"227005","282-VK","2017/09/18 07:38:49","新北市雙溪區雙溪里太平路56號","121.864925","25.0354783333333","6502500","雙溪區"
"252006","073-UM","2017/09/18 07:39:01","新北市三芝區古庄里古庄81-3號","121.489178333333","25.2685116666667","6502100","三芝區"
"252004","249-BX","2017/09/18 07:39:00","新北市三芝區店子里菜公坑76-1號","121.50938","25.205565","6502100","三芝區"
"237001","361-BY","2017/09/18 07:39:01","新北市三峽區國慶路116號","121.376221666667","24.9394433333333","6500900","三峽區"
"236007","165-UM","2017/09/18 07:39:04","新北市土城區延壽路2巷5號","121.471898333333","24.99028","6501300","土城區"
"236001","339-SR","2017/09/18 07:38:57","新北市土城區南天母路111巷6-2號","121.448383333333","24.95498","6501300","土城區"
"242030","AAC-296","2017/09/18 07:38:59","新北市新莊區新泰路357巷3弄57號","121.442211666667","25.039485","6500500","新莊區"
"242049","751-BX","2017/09/18 07:38:55","新北市新莊區中正路473-1號","121.441991666667","25.0333083333333","6500500","新莊區"
"242024","615-BX","2017/09/18 07:39:06","新北市新莊區新泰路255巷83號","121.442221666667","25.0388166666667","6500500","新莊區"
"242022","613-BX","2017/09/18 07:38:53","新北市新莊區新泰路255巷83號","121.442168333333","25.0391083333333","6500500","新莊區"
"242026","612-BX","2017/09/18 07:38:54","新北市新莊區新泰路357巷3弄57號","121.442065","25.0391533333333","6500500","新莊區"
"242038","566-BX","2017/09/18 07:38:57","新北市新莊區三和路12-18號","121.442151666667","25.0375716666667","6500500","新莊區"
"242043","442-UM","2017/09/18 07:38:55","新北市新莊區中正路430號","121.440681666667","25.0336716666667","6500500","新莊區"
"242047","441-UM","2017/09/18 07:38:50","新北市新莊區中正路418號","121.440948333333","25.0337233333333","6500500","新莊區"
"242052","440-UM","2017/09/18 07:38:50","新北市新莊區三和路12-21號","121.441996666667","25.0385366666667","6500500","新莊區"
"242033","415-TV","2017/09/18 07:39:05","新北市新莊區新泰路357巷3弄57號","121.442343333333","25.039535","6500500","新莊區"
"242040","400-BY","2017/09/18 07:39:09","新北市新莊區新泰路255巷83號","121.442281666667","25.0392183333333","6500500","新莊區"
"242059","362-BY","2017/09/18 07:38:58","新北市新莊區三和路12-21號","121.441916666667","25.0381016666667","6500500","新莊區"
"242057","353-BY","2017/09/18 07:39:00","新北市新莊區三和路12-21號","121.442106666667","25.0387716666667","6500500","新莊區"
"242035","133-UY","2017/09/18 07:38:48","新北市新莊區三和路12-21號","121.442361666667","25.038035","6500500","新莊區"
"242020","135-UY","2017/09/18 07:38:48","新北市新莊區新泰路255巷83號","121.442048333333","25.0388766666667","6500500","新莊區"
"242045","172-VK","2017/09/18 04:27:55","新北市新莊區三和路12-21號","121.442035","25.0387116666667","6500500","新莊區"
"242008","173-VK","2017/09/18 00:40:05","新北市新莊區三和路12-21號","121.441845","25.03863","6500500","新莊區"
"242014","175-VK","2017/09/18 07:39:02","新北市新莊區三和路12-21號","121.44192","25.0387983333333","6500500","新莊區"
"242001","176-VK","2017/09/18 07:38:55","新北市新莊區三和路12-21號","121.441956666667","25.038625","6500500","新莊區"
"242012","346-TH","2017/09/18 04:40:48","新北市新莊區三和路12-16號","121.441873333333","25.0374883333333","6500500","新莊區"
"242018","348-TH","2017/09/18 07:39:00","新北市新莊區新泰路255巷83號","121.442431666667","25.0389066666667","6500500","新莊區"
"242055","349-TH","2017/09/18 02:20:25","新北市新莊區三和路12-17號","121.441971666667","25.0375216666667","6500500","新莊區"
"242016","350-TH","2017/09/18 07:38:55","新北市新莊區新泰路357巷3弄51號","121.442236666667","25.04004","6500500","新莊區"
"242010","280-VK","2017/09/18 07:38:50","新北市新莊區三和路12-21號","121.442006666667","25.0382083333333","6500500","新莊區"
