"lineid","car","time","location","longitude","latitude","cityid","cityname"
"244018","403-UM","2017/11/27 10:56:24","新北市林口區粉寮69號","121.405051666667","25.0908016666667","6501700","林口區"
"244025","837-TS","2017/11/27 09:23:50","新北市林口區粉寮路二段160巷28號","121.405175","25.090735","6501700","林口區"
"243002","KEA-2215","2017/11/27 10:46:46","新北市泰山區黎明路25號","121.422108333333","25.06089","6501600","泰山區"
"231008","192-VK","2017/11/27 10:59:52","新北市新店區新烏路三段220巷24號","121.545983333333","24.9043333333333","6500600","新店區"
"231007","719-UM","2017/11/27 10:59:20","新北市新店區新潭路二段106號","121.515253333333","24.9244383333333","6500600","新店區"
"227005","282-VK","2017/11/27 10:59:39","新北市雙溪區泰平里泰平1-5號","121.847021666667","24.9960866666667","6502500","雙溪區"
"239006","661-UM","2017/11/27 10:59:57","新北市鶯歌區二甲路12-2號","121.345603333333","24.934735","6500800","鶯歌區"
"242001","281-VK","2017/11/27 08:18:25","新北市新莊區環河路636-7號","121.437328333333","25.011265","6500500","新莊區"
