"lineid","car","time","location","longitude","latitude","cityid","cityname"
"244018","403-UM","2017/11/27 10:56:24","新北市林口區粉寮69號","121.405051666667","25.0908016666667","6501700","林口區"
"244025","837-TS","2017/11/27 09:23:50","新北市林口區粉寮路二段160巷28號","121.405175","25.090735","6501700","林口區"
"243002","KEA-2215","2017/11/27 10:46:46","新北市泰山區黎明路25號","121.422108333333","25.06089","6501600","泰山區"
"231008","192-VK","2017/11/27 11:04:32","新北市新店區成功路58-1號","121.538788333333","24.8998533333333","6500600","新店區"
"231007","719-UM","2017/11/27 11:29:40","新北市新店區永業路91號","121.52905","24.9489616666667","6500600","新店區"
"235031","255-BX","2017/11/27 11:18:46","新北市中和區和城路一段271巷1號","121.485686666667","24.9919683333333","6500300","中和區"
"227005","282-VK","2017/11/27 11:29:58","新北市雙溪區魚行里丁子蘭坑47號","121.865961666667","24.9989583333333","6502500","雙溪區"
"242001","281-VK","2017/11/27 08:18:25","新北市新莊區環河路636-7號","121.437328333333","25.011265","6500500","新莊區"
