"lineid","car","time","location","longitude","latitude","cityid","cityname"
"244018","403-UM","2017/11/27 10:56:24","新北市林口區粉寮69號","121.405051666667","25.0908016666667","6501700","林口區"
"244025","837-TS","2017/11/27 09:23:50","新北市林口區粉寮路二段160巷28號","121.405175","25.090735","6501700","林口區"
"243002","KEA-2215","2017/11/27 10:46:46","新北市泰山區黎明路25號","121.422108333333","25.06089","6501600","泰山區"
"243005","646-TV","2017/11/27 11:31:24","新北市泰山區犁頭窠3-1號","121.421993333333","25.0605416666667","6501600","泰山區"
"231008","192-VK","2017/11/27 11:59:52","新北市新店區屈尺路199號","121.541445","24.9206933333333","6500600","新店區"
"235031","255-BX","2017/11/27 11:18:46","新北市中和區和城路一段271巷1號","121.485686666667","24.9919683333333","6500300","中和區"
"227005","282-VK","2017/11/27 11:59:39","新北市雙溪區三貂里定福路1-2號","121.850693333333","25.0633883333333","6502500","雙溪區"
"242001","281-VK","2017/11/27 08:18:25","新北市新莊區環河路636-7號","121.437328333333","25.011265","6500500","新莊區"
