"lineid","car","time","location","longitude","latitude","cityid","cityname"
"234044","148-BY","2017/11/27 14:29:48","新北市三重區重新路5段221巷6弄11-1號","121.47884","25.0517716666667","6500400","永和區"
"234005","207-UY","2017/11/27 14:29:57","新北市永和區中正路506號","121.517261666667","25.0046083333333","6500400","永和區"
"234036","336-UY","2017/11/27 14:29:43","新北市永和區環河東路四段34號","121.52877","24.9991033333333","6500400","永和區"
"234062","337-UY","2017/11/27 14:29:57","新北市永和區中正路437號","121.517128333333","25.0051733333333","6500400","永和區"
"234084","338-UY","2017/11/27 14:29:46","新北市永和區光復街21號","121.51642","25.0174583333333","6500400","永和區"
"234052","553-UM","2017/11/27 14:29:51","新北市永和區光復街33巷7號","121.515835","25.0180583333333","6500400","永和區"
"234028","746-BX","2017/11/27 14:29:43","新北市中和區景平路336號","121.511778333333","24.9928983333333","6500400","永和區"
"234060","AAD-866","2017/11/27 14:29:56","新北市永和區秀安街21號","121.516275","25.003805","6500400","永和區"
"234078","847-RS","2017/11/27 14:29:46","新北市永和區永貞路74號","121.520246666667","25.0052233333333","6500400","永和區"
"234040","862-TW","2017/11/27 14:29:47","新北市永和區安樂路433號","121.514283333333","25.004555","6500400","永和區"
"234048","863-TW","2017/11/27 14:29:33","新北市永和區新生路136號","121.506695","25.014335","6500400","永和區"
"234025","9381-KE","2017/11/27 14:29:51","新北市中和區安平路208號","121.513483333333","24.9997483333333","6500400","永和區"
"248015","026-BX","2017/11/27 14:29:42","新北市五股區成泰路四段26號","121.454938333333","25.1082683333333","6501500","五股區"
"248007","095-VK","2017/11/27 14:29:52","新北市五股區中興路一段95巷9號","121.466576666667","25.0724366666667","6501500","五股區"
"248019","225-UY","2017/11/27 14:02:50","新北市五股區凌雲路三段57號","121.425313333333","25.1250266666667","6501500","五股區"
"248011","247-BX","2017/11/27 14:29:42","新北市五股區蓬萊路6巷41號","121.43576","25.0802583333333","6501500","五股區"
"248013","261-SL","2017/11/27 14:29:49","新北市五股區民義路一段157-22號","121.431086666667","25.08676","6501500","五股區"
"248009","272-BY","2017/11/27 14:29:54","新北市五股區水碓一路23號","121.43067","25.07131","6501500","五股區"
"248003","677-BX","2017/11/27 14:29:42","新北市五股區五福路39號","121.433451666667","25.0896033333333","6501500","五股區"
"248001","678-BX","2017/11/27 14:29:42","新北市五股區成泰路三段436號","121.450915","25.099525","6501500","五股區"
"234072","AAC-211","2017/11/27 14:29:49","新北市永和區竹林路101號","121.51973","25.011935","6500400","永和區"
"234001","AAC-295","2017/11/27 14:29:44","新北市永和區大新街3號","121.514508333333","25.0086416666667","6500400","永和區"
"244018","403-UM","2017/11/27 10:56:24","新北市林口區粉寮69號","121.405051666667","25.0908016666667","6501700","林口區"
"244001","657-BX","2017/11/27 14:29:45","新北市八里區中山路三段382號","121.368696666667","25.1359566666667","6501700","林口區"
"244025","837-TS","2017/11/27 09:23:50","新北市林口區粉寮路二段160巷28號","121.405175","25.090735","6501700","林口區"
"243003","267-VK","2017/11/27 13:48:17","新北市泰山區犁頭窠3-1號","121.422113333333","25.0605383333333","6501600","泰山區"
"243004","AAD-798","2017/11/27 14:29:47","新北市泰山區全興路21號","121.43247","25.0587133333333","6501600","泰山區"
"243001","297-R6","2017/11/27 14:29:54","新北市泰山區美寧街76號","121.431403333333","25.0645833333333","6501600","泰山區"
"243007","380-SR","2017/11/27 14:29:41","新北市泰山區明志路二段123號","121.428171666667","25.0513683333333","6501600","泰山區"
"243006","421-VK","2017/11/27 14:29:48","新北市泰山區仁愛路6巷59號","121.431578333333","25.05341","6501600","泰山區"
"243002","KEA-2215","2017/11/27 14:29:49","新北市泰山區明志路二段68號","121.42887","25.0525","6501600","泰山區"
"243005","646-TV","2017/11/27 14:29:50","新北市泰山區貴子路9巷12號","121.425668333333","25.04259","6501600","泰山區"
"243008","680-BX","2017/11/27 14:29:48","新北市泰山區明志路三段174號","121.424173333333","25.039065","6501600","泰山區"
"231028","046-UY","2017/11/27 14:29:41","新北市新店區安康路二段147號","121.511376666667","24.9599366666667","6500600","新店區"
"231030","047-UY","2017/11/27 14:29:37","新北市新店區安民街65巷15-3號","121.515873333333","24.9667266666667","6500600","新店區"
"231029","106-UY","2017/11/27 14:29:44","新北市新店區安康路二段341巷1號","121.496935","24.955305","6500600","新店區"
"231018","107-UY","2017/11/27 14:29:39","新北市新店區中央三街68號","121.526625","24.97511","6500600","新店區"
"231011","108-UY","2017/11/27 14:29:45","新北市新店區寶興路65巷2號","121.550825","24.9716916666667","6500600","新店區"
"231019","187-VK","2017/11/27 14:29:33","新北市新店區桂山路81巷1號","121.567456666667","24.8992983333333","6500600","新店區"
"231014","KEA-2219","2017/11/27 14:29:52","新北市新店區北宜路三段168號","121.586545","24.9520133333333","6500600","新店區"
"231023","AAD-862","2017/11/27 14:29:48","新北市新店區光明街93號","121.53908","24.9609933333333","6500600","新店區"
"231002","355-BY","2017/11/27 14:29:46","新北市新店區中央路99號","121.531093333333","24.9750616666667","6500600","新店區"
"231027","3712-VJ","2017/11/27 14:29:51","新北市新店區寶橋路80號","121.546085","24.9755866666667","6500600","新店區"
"231025","3713-VJ","2017/11/27 14:29:50","新北市新店區民族路161號","121.537711666667","24.9767983333333","6500600","新店區"
"231024","4716-K9","2017/11/27 14:29:45","新北市新店區薏仁坑路自強巷6號","121.49675","24.95824","6500600","新店區"
"231038","4715-K9","2017/11/27 14:29:50","新北市新店區溪洲路8巷60號","121.53336","24.96233","6500600","新店區"
"231035","515-UM","2017/11/27 14:29:44","新北市新店區安光路10-1號","121.513775","24.9641516666667","6500600","新店區"
"231003","616-UM","2017/11/27 14:29:42","新北市新店區中興路一段273號","121.545186666667","24.96815","6500600","新店區"
"231001","618-UM","2017/11/27 14:29:47","新北市新店區中正路75巷71號","121.543101666667","24.9688","6500600","新店區"
"231034","645-TV","2017/11/27 14:29:48","新北市新店區黎明路56巷1號","121.502353333333","24.9477716666667","6500600","新店區"
"231013","719-UM","2017/11/27 14:29:38","新北市新店區民權路88-5號","121.536233333333","24.9834783333333","6500600","新店區"
"231036","719-UY","2017/11/27 14:29:53","新北市新店區安祥路109巷151弄16號","121.477723333333","24.9587866666667","6500600","新店區"
"231031","720-UM","2017/11/27 14:29:51","新北市新店區安業街33號","121.517446666667","24.9772066666667","6500600","新店區"
"231005","897-TW","2017/11/27 14:29:39","新北市新店區北新路二段256號","121.54292","24.9781866666667","6500600","新店區"
"231006","898-TW","2017/11/27 14:29:53","新北市新店區北宜路二段423-1號","121.560546666667","24.9542983333333","6500600","新店區"
"231004","899-TW","2017/11/27 14:29:51","新北市新店區中正路263-2號","121.538416666667","24.9737166666667","6500600","新店區"
"231037","AKT-0513","2017/11/27 14:29:56","新北市新店區安德街148巷31號","121.506196666667","24.9605966666667","6500600","新店區"
"235030","003-UY","2017/11/27 14:29:39","新北市中和區中和路136號","121.503391666667","24.9993733333333","6500300","中和區"
"235027","006-UY","2017/11/27 14:29:53","新北市中和區連城路203巷10弄9號","121.494938333333","24.9969033333333","6500300","中和區"
"235020","096-UM","2017/11/27 14:29:46","新北市中和區員山路514巷1號","121.479256666667","25.0096566666667","6500300","中和區"
"235003","097-UM","2017/11/27 14:29:48","新北市中和區秀峰街103巷7弄4號","121.519445","24.9889533333333","6500300","中和區"
"235029","098-UM","2017/11/27 14:29:42","新北市中和區莊敬路7號","121.499821666667","25.00448","6500300","中和區"
"235004","150-BY","2017/11/27 14:29:39","新北市中和區宜安路1巷26弄5號","121.512358333333","24.994455","6500300","中和區"
"235022","151-BY","2017/11/27 14:29:45","新北市中和區員山路36巷16-3號","121.484993333333","24.9917266666667","6500300","中和區"
"235019","183-VK","2017/11/27 14:29:44","新北市中和區莒光路35號","121.472206666667","25.0051966666667","6500300","中和區"
"235002","185-VK","2017/11/27 14:29:51","新北市中和區立人街9號","121.521705","24.9941133333333","6500300","中和區"
"235013","186-VK","2017/11/27 14:29:50","新北市中和區景新街295巷3號","121.510201666667","24.99322","6500300","中和區"
"235031","255-BX","2017/11/27 14:29:37","新北市中和區連城路326號","121.483273333333","24.995975","6500300","中和區"
"235008","293-VK","2017/11/27 14:29:38","新北市中和區捷運路122號","121.505423333333","24.991505","6500300","中和區"
"235036","301-VK","2017/11/27 14:29:51","新北市中和區中山路二段3巷22弄1號","121.506498333333","25.0053516666667","6500300","中和區"
"235007","352-BY","2017/11/27 14:29:55","新北市中和區景平路336號","121.511855","24.9928416666667","6500300","中和區"
"235032","377-QA","2017/11/27 14:29:41","新北市中和區景平路493-6號","121.499895","24.9978583333333","6500300","中和區"
"235025","378-QA","2017/11/27 14:29:59","新北市中和區民利街9巷2弄2號","121.480621666667","24.9988133333333","6500300","中和區"
"235035","269-TV","2017/11/27 14:29:43","新北市中和區連城路346號","121.482648333333","24.99568","6500300","中和區"
"235014","4979-A6","2017/11/27 14:29:53","新北市中和區中正路432巷11號","121.490636666667","24.9957683333333","6500300","中和區"
"235033","4980-A6","2017/11/27 14:29:58","新北市中和區中正路571巷1弄4號","121.486845","24.9938166666667","6500300","中和區"
"235006","551-UM","2017/11/27 14:29:59","新北市中和區安樂路217巷35弄12號","121.514038333333","24.9976733333333","6500300","中和區"
"235034","558-UM","2017/11/27 14:29:54","新北市中和區中山路二段228號","121.499066666667","25.0028216666667","6500300","中和區"
"235009","565-BX","2017/11/27 14:29:45","新北市中和區景新街425號","121.513046666667","24.98917","6500300","中和區"
"235018","640-BX","2017/11/27 14:29:41","新北市中和區國光街112巷16弄2號","121.469771666667","25.001455","6500300","中和區"
"235024","647-TV","2017/11/27 14:29:39","新北市中和區新生街114巷37弄2號","121.482225","25.0022033333333","6500300","中和區"
"235011","732-UM","2017/11/27 14:29:49","新北市中和區景平路259巷11號","121.507833333333","24.9925666666667","6500300","中和區"
"235010","733-UM","2017/11/27 14:29:55","新北市中和區忠孝街37巷54號","121.51104","24.9850766666667","6500300","中和區"
"235026","800-TS","2017/11/27 14:29:36","新北市中和區中山路二段401號","121.48643","25.004745","6500300","中和區"
"235021","801-TS","2017/11/27 14:29:45","新北市中和區中山路三段37巷25號","121.47938","25.0049983333333","6500300","中和區"
"235005","802-TS","2017/11/27 14:29:44","新北市中和區中安街192號","121.511371666667","24.9993","6500300","中和區"
"235016","805-TS","2017/11/27 14:29:45","新北市中和區華新街143巷69弄2號","121.507348333333","24.9787066666667","6500300","中和區"
"235012","896-TW","2017/11/27 14:29:48","新北市中和區忠孝街37-1號","121.510728333333","24.9834083333333","6500300","中和區"
"235017","900-TW","2017/11/27 14:29:53","新北市中和區民德路197-1號","121.46843","24.99892","6500300","中和區"
"235028","911-UM","2017/11/27 14:29:48","新北市中和區連城路4號","121.499113333333","25.002435","6500300","中和區"
"235001","157-BY","2017/11/27 14:29:51","新北市中和區興南路一段77號","121.510123333333","24.9892083333333","6500300","中和區"
"235001","AAC-213","2017/11/27 14:29:46","新北市中和區秀朗路三段10巷14弄59號","121.523085","24.9966033333333","6500300","中和區"
"235023","AAC-215","2017/11/27 14:29:54","新北市中和區圓通路252-3號","121.493575","24.991175","6500300","中和區"
"220016","013-TV","2017/11/27 14:29:15","新北市板橋區中山路二段531巷46號","121.482526666667","25.0227383333333","6500100","板橋區"
"220013","072-UY","2017/11/27 14:29:58","新北市板橋區國泰街75巷28弄62號","121.467445","25.0046633333333","6500100","板橋區"
"220034","073-UY","2017/11/27 14:29:51","新北市板橋區國光路67巷39號","121.4603","25.0191016666667","6500100","板橋區"
"220105","075-UY","2017/11/27 14:29:52","新北市板橋區文化路二段417巷8號","121.474266666667","25.03318","6500100","板橋區"
"220017","AAD-861","2017/11/27 14:29:54","新北市板橋區大明街20巷29弄21號","121.457661666667","25.0033983333333","6500100","板橋區"
"220051","120-SR","2017/11/27 14:29:54","新北市板橋區松柏街22巷45號","121.4751","25.02873","6500100","板橋區"
"247021","893-R6","2017/11/27 14:29:42","新北市蘆洲區水湳街36-1號","121.470703333333","25.0895133333333","6501400","蘆洲區"
"247011","546-UM","2017/11/27 14:29:39","新北市蘆洲區復興路160號","121.47742","25.088125","6501400","蘆洲區"
"247019","500-BY","2017/11/27 14:29:48","新北市蘆洲區水湳街271號","121.469503333333","25.0925883333333","6501400","蘆洲區"
"247007","341-TH","2017/11/27 14:29:51","新北市蘆洲區信義路34巷11弄2號","121.4749","25.079025","6501400","蘆洲區"
"247009","339-TH","2017/11/27 14:29:43","新北市蘆洲區鷺江街93號","121.476873333333","25.083905","6501400","蘆洲區"
"247001","337-TH","2017/11/27 14:29:45","新北市蘆洲區永樂街38巷33弄16號","121.457386666667","25.089745","6501400","蘆洲區"
"247003","336-TH","2017/11/27 14:29:57","新北市蘆洲區長安街194巷24號","121.459786666667","25.0843866666667","6501400","蘆洲區"
"247015","057-VK","2017/11/27 14:29:49","新北市蘆洲區中正路185巷27號","121.466705","25.0843533333333","6501400","蘆洲區"
"247005","056-VK","2017/11/27 14:29:53","新北市蘆洲區中華街52號","121.46178","25.0802116666667","6501400","蘆洲區"
"247013","007-UY","2017/11/27 14:29:42","新北市蘆洲區成功路77-1號","121.473073333333","25.08102","6501400","蘆洲區"
"247023","002-UY","2017/11/27 14:29:56","新北市蘆洲區中正路263巷2號","121.467188333333","25.0875516666667","6501400","蘆洲區"
"247017","001-UY","2017/11/27 14:29:47","新北市蘆洲區民族路314巷1號","121.47724","25.0902516666667","6501400","蘆洲區"
"207002","749-BX","2017/11/27 14:29:48","新北市萬里區溪底里溪底路13號","121.614481666667","25.149215","6502800","萬里區"
"252005","073-UM","2017/11/27 14:29:38","新北市三芝區茂長里陳厝坑61-4號","121.513403333333","25.2550283333333","6502100","三芝區"
"207001","662-BX","2017/11/27 14:29:38","新北市萬里區磺潭里清水5-1號","121.641105","25.2003883333333","6502800","萬里區"
"208004","170-UY","2017/11/27 14:29:49","新北市金山區六股里下六股65號","121.61442","25.2236666666667","6502700","金山區"
"236064","105-UM","2017/11/27 14:29:35","新北市土城區永豐路255巷12號","121.47531","24.973175","6501300","土城區"
"236040","107-UM","2017/11/27 14:29:44","新北市土城區學成路99巷11號","121.449981666667","24.9884033333333","6501300","土城區"
"236028","253-BX","2017/11/27 14:29:47","新北市土城區水源街52號","121.44042","24.9759933333333","6501300","土城區"
"236024","269-VK","2017/11/27 14:29:43","新北市土城區承天路73號","121.440066666667","24.9631383333333","6501300","土城區"
"236012","270-VK","2017/11/27 14:29:44","新北市土城區青雲路39巷7號","121.460325","24.9875883333333","6501300","土城區"
"236032","271-VK","2017/11/27 14:29:51","新北市土城區青雲路451巷2弄2號","121.459031666667","24.9746","6501300","土城區"
"236016","401-BY","2017/11/27 14:29:49","新北市土城區永豐路202巷7號","121.466275","24.9832683333333","6501300","土城區"
"236005","498-BY","2017/11/27 14:29:47","新北市土城區中華路一段173號","121.443538333333","24.985985","6501300","土城區"
"236074","752-BX","2017/11/27 14:29:43","新北市土城區大暖路42號","121.423221666667","24.9595066666667","6501300","土城區"
"236056","912-UM","2017/11/27 14:29:55","新北市土城區中央路四段466號","121.409951666667","24.95058","6501300","土城區"
"236044","913-UM","2017/11/27 14:29:47","新北市土城區明德路一段309號","121.459628333333","24.9771633333333","6501300","土城區"
"236060","915-UM","2017/11/27 14:29:50","新北市土城區延壽路115巷1號","121.469041666667","24.9940983333333","6501300","土城區"
"236052","AAC-216","2017/11/27 14:29:47","新北市土城區中華路二段1號","121.439645","24.9792183333333","6501300","土城區"
"220027","145-BY","2017/11/27 14:29:47","新北市板橋區中正路144號","121.457016666667","25.0161116666667","6500100","板橋區"
"220028","200-UY","2017/11/27 14:29:43","新北市板橋區大觀路二段37巷64號","121.449531666667","25.002245","6500100","板橋區"
"220030","610-BX","2017/11/27 14:29:48","新北市板橋區金門街362號","121.427506666667","24.9841116666667","6500100","板橋區"
"220050","245-BX","2017/11/27 14:29:57","新北市板橋區縣民大道三段127巷24號","121.476941666667","25.02374","6500100","板橋區"
"220040","267-BY","2017/11/27 14:29:39","新北市板橋區文聖街70號","121.477166666667","25.0302833333333","6500100","板橋區"
"220004","276-BY","2017/11/27 14:29:57","新北市板橋區國慶路49巷23號","121.459588333333","24.9964216666667","6500100","板橋區"
"220020","277-BY","2017/11/27 14:29:51","新北市板橋區篤行路二段139號","121.429905","24.9882216666667","6500100","板橋區"
"220043","283-UM","2017/11/27 14:29:46","新北市板橋區吳鳳路50巷10號","121.468815","25.0302383333333","6500100","板橋區"
"220019","283-VK","2017/11/27 14:29:47","新北市板橋區四川路一段283巷3號","121.45975","25.0014016666667","6500100","板橋區"
"220001","285-VK","2017/11/27 14:29:42","新北市板橋區富山街62巷13號","121.477211666667","25.0225916666667","6500100","板橋區"
"220031","286-VK","2017/11/27 14:29:37","新北市板橋區龍興街65巷82-1號","121.441726666667","25.0022366666667","6500100","板橋區"
"220029","287-VK","2017/11/27 14:29:55","新北市板橋區大觀路一段75巷10號","121.447576666667","25.0043183333333","6500100","板橋區"
"220039","288-VK","2017/11/27 14:29:58","新北市板橋區裕民街96號","121.46017","25.0280533333333","6500100","板橋區"
"220009","293-UM","2017/11/27 14:29:52","新北市板橋區中山路一段275號","121.469038333333","25.0136083333333","6500100","板橋區"
"220032","296-UM","2017/11/27 14:29:56","新北市板橋區滿平街136巷2弄1號","121.428625","24.98808","6500100","板橋區"
"220023","297-UM","2017/11/27 14:29:37","新北市板橋區僑中一街124巷70-5號","121.449461666667","25.01735","6500100","板橋區"
"242001","281-VK","2017/11/27 14:29:37","新北市新莊區利濟街18號","121.45321","25.0335383333333","6500500","新莊區"
"220010","305-R5","2017/11/27 14:29:53","新北市板橋區三民路二段123巷6號","121.479695","25.01556","6500100","板橋區"
"220041","307-R5","2017/11/27 14:29:57","新北市板橋區文化路二段78號","121.46931","25.02525","6500100","板橋區"
"220047","317-R6","2017/11/27 14:29:46","新北市板橋區民生路三段281巷2弄5號","121.463555","25.0300716666667","6500100","板橋區"
"220012","486-VK","2017/11/27 14:29:46","新北市板橋區中山路一段26號","121.460438333333","25.0082683333333","6500100","板橋區"
"220038","487-VK","2017/11/27 14:29:56","新北市板橋區文化路一段145號","121.4624","25.0156116666667","6500100","板橋區"
"220037","491-VK","2017/11/27 14:29:48","新北市板橋區雙十路二段37-1號","121.476811666667","25.02587","6500100","板橋區"
"220104","560-BX","2017/11/27 14:29:49","新北市板橋區中正路375巷10號","121.454098333333","25.0210483333333","6500100","板橋區"
"220052","561-BX","2017/11/27 14:29:43","新北市板橋區文化路一段266號","121.467163333333","25.0205883333333","6500100","板橋區"
"220003","568-UM","2017/11/27 14:29:43","新北市板橋區重慶路240-1號","121.462886666667","25.001265","6500100","板橋區"
"220011","609-BX","2017/11/27 14:29:56","新北市板橋區三民路二段204-3號","121.478933333333","25.012365","6500100","板橋區"
"220005","686-BX","2017/11/27 14:29:41","新北市板橋區國慶路195號","121.463056666667","24.9965","6500100","板橋區"
"220025","687-BX","2017/11/27 14:29:53","新北市板橋區大觀路一段37巷2號","121.44894","25.0083816666667","6500100","板橋區"
"220042","689-BX","2017/11/27 14:29:45","新北市板橋區雨農路32號","121.461231666667","25.0243033333333","6500100","板橋區"
"220002","741-BX","2017/11/27 14:29:47","新北市板橋區實踐路124號","121.463993333333","25.0032083333333","6500100","板橋區"
"220014","829-TW","2017/11/27 14:29:35","新北市板橋區漢生東路279巷8號","121.471878333333","25.0092833333333","6500100","板橋區"
"220045","831-TW","2017/11/27 14:29:43","新北市板橋區莒光路140巷5號","121.473405","25.023495","6500100","板橋區"
"220022","895-R6","2017/11/27 14:29:45","新北市板橋區宮口街1號","121.457306666667","25.0096316666667","6500100","板橋區"
"220021","985-R7","2017/11/27 14:29:52","新北市板橋區新生街61號","121.457458333333","25.0209166666667","6500100","板橋區"
"220046","AAC-210","2017/11/27 14:29:44","新北市板橋區漢生西路151巷1號","121.463028333333","25.0222783333333","6500100","板橋區"
"220018","AAC-253","2017/11/27 14:29:52","新北市板橋區四川路一段147號","121.459886666667","25.0042266666667","6500100","板橋區"
