"lineid","car","time","location","longitude","latitude","cityid","cityname"
"248007","095-VK","2017/11/27 15:09:52","新北市五股區中興路一段1巷23號","121.469748333333","25.0706783333333","6501500","五股區"
"248019","225-UY","2017/11/27 15:09:41","新北市五股區凌雲路三段16-2號","121.438251666667","25.10333","6501500","五股區"
"248003","677-BX","2017/11/27 15:09:42","新北市五股區成泰路二段26號","121.437018333333","25.0812","6501500","五股區"
"244018","403-UM","2017/11/27 10:56:24","新北市林口區粉寮69號","121.405051666667","25.0908016666667","6501700","林口區"
"244001","657-BX","2017/11/27 15:09:54","新北市林口區竹林路269號","121.389568333333","25.0809166666667","6501700","林口區"
"244025","837-TS","2017/11/27 09:23:50","新北市林口區粉寮路二段160巷28號","121.405175","25.090735","6501700","林口區"
"243003","267-VK","2017/11/27 13:48:17","新北市泰山區犁頭窠3-1號","121.422113333333","25.0605383333333","6501600","泰山區"
"243001","297-R6","2017/11/27 15:09:54","新北市泰山區泰林路三段17巷3號","121.4205","25.0644016666667","6501600","泰山區"
"243007","380-SR","2017/11/27 15:09:41","新北市泰山區仁愛路41號","121.43219","25.0553316666667","6501600","泰山區"
"243006","421-VK","2017/11/27 15:09:44","新北市泰山區泰林路三段778號","121.400985","25.0714816666667","6501600","泰山區"
"243002","KEA-2215","2017/11/27 15:09:49","新北市泰山區橫窠雅36號","121.40297","25.0724666666667","6501600","泰山區"
"243005","646-TV","2017/11/27 15:09:50","新北市泰山區明志路二段336號","121.426063333333","25.0455866666667","6501600","泰山區"
"243008","680-BX","2017/11/27 15:09:48","新北市泰山區明志路二段303號","121.426548333333","25.04653","6501600","泰山區"
"231028","046-UY","2017/11/27 15:09:41","新北市新店區僑愛一路1號","121.49985","24.9449183333333","6500600","新店區"
"231030","047-UY","2017/11/27 15:09:37","新北市新店區安民街341-1號","121.516878333333","24.9749116666667","6500600","新店區"
"231029","106-UY","2017/11/27 15:09:44","新北市新店區安康路三段738號","121.473816666667","24.9420383333333","6500600","新店區"
"231018","107-UY","2017/11/27 15:09:39","新北市新店區中央六街41號","121.528671666667","24.9754733333333","6500600","新店區"
"231011","108-UY","2017/11/27 15:09:45","新北市新店區寶元路一段65號","121.542196666667","24.9858266666667","6500600","新店區"
"231019","187-VK","2017/11/27 15:09:53","新北市新店區永福路54號","121.558141666667","24.92865","6500600","新店區"
"231026","256-BX","2017/11/27 15:09:48","新北市新店區建國路60巷5號","121.541293333333","24.975705","6500600","新店區"
"231023","AAD-862","2017/11/27 15:09:48","新北市新店區檳榔路41巷1號","121.542706666667","24.9633833333333","6500600","新店區"
"231002","355-BY","2017/11/27 15:09:38","新北市新店區中正路543-4號","121.533735","24.98752","6500600","新店區"
"231025","3713-VJ","2017/11/27 15:09:50","新北市新店區二十張路46巷37弄15號","121.536283333333","24.981765","6500600","新店區"
"231024","4716-K9","2017/11/27 15:09:45","新北市新店區中華路42巷11號","121.540451666667","24.968645","6500600","新店區"
"231035","515-UM","2017/11/27 15:09:23","新北市新店區安和路三段120巷20號","121.517831666667","24.9859216666667","6500600","新店區"
"231003","616-UM","2017/11/27 15:09:42","新北市新店區寶橋路216號","121.551061666667","24.97863","6500600","新店區"
"231001","618-UM","2017/11/27 15:09:47","新北市新店區中正路190號","121.5408","24.9723066666667","6500600","新店區"
"231034","645-TV","2017/11/27 15:09:48","新北市新店區玫瑰路4-1號","121.493558333333","24.9514116666667","6500600","新店區"
"231039","718-UY","2017/11/27 15:09:36","新北市新店區寶元路一段65號","121.542201666667","24.985745","6500600","新店區"
"231036","719-UY","2017/11/27 15:09:53","新北市新店區安祥路104巷43號","121.48255","24.96342","6500600","新店區"
"231031","720-UM","2017/11/27 15:09:51","新北市新店區安泰路125-1號","121.487408333333","24.9400716666667","6500600","新店區"
"231005","897-TW","2017/11/27 15:09:39","新北市新店區北新路三段1號","121.542298333333","24.979015","6500600","新店區"
"231006","898-TW","2017/11/27 15:09:44","新北市新店區新坡一街18巷5弄8-1號","121.550733333333","24.9618533333333","6500600","新店區"
"231004","899-TW","2017/11/27 15:09:51","新北市新店區建國路40號","121.54054","24.9748333333333","6500600","新店區"
"231037","AKT-0513","2017/11/27 15:09:56","新北市新店區安興路56號","121.516518333333","24.9750066666667","6500600","新店區"
"235030","003-UY","2017/11/27 15:09:39","新北市中和區水源路127巷11號","121.50802","25.0037816666667","6500300","中和區"
"235020","096-UM","2017/11/27 15:09:46","新北市中和區中山路二段586-2號","121.482341666667","25.0050916666667","6500300","中和區"
"235003","097-UM","2017/11/27 15:09:48","新北市中和區宜安路52巷22號","121.512518333333","24.997375","6500300","中和區"
"235004","150-BY","2017/11/27 15:09:59","新北市中和區景安路18號","121.50751","24.998745","6500300","中和區"
"235007","352-BY","2017/11/27 15:09:54","新北市中和區興南路二段159巷12號","121.505148333333","24.9831983333333","6500300","中和區"
"235032","377-QA","2017/11/27 15:09:41","新北市中和區勝利路35巷22號","121.49911","25.0069666666667","6500300","中和區"
"235035","269-TV","2017/11/27 15:09:43","新北市中和區建三路71號","121.486143333333","25.0011766666667","6500300","中和區"
"235014","4979-A6","2017/11/27 15:09:53","新北市中和區景新街272號","121.510765","24.9924433333333","6500300","中和區"
"235033","4980-A6","2017/11/27 15:09:57","新北市中和區南山路127巷27弄2號","121.503311666667","24.9977716666667","6500300","中和區"
"235034","558-UM","2017/11/27 15:09:54","新北市中和區圓通路136-1號","121.49838","24.9960033333333","6500300","中和區"
"235012","896-TW","2017/11/27 15:09:48","新北市中和區興南路一段142-6號","121.508523333333","24.9871933333333","6500300","中和區"
"235001","157-BY","2017/11/27 15:09:51","新北市中和區復興路55號","121.504341666667","24.9900833333333","6500300","中和區"
"235001","AAC-213","2017/11/27 15:09:44","新北市中和區自強路50號","121.520171666667","24.99488","6500300","中和區"
"235023","AAC-215","2017/11/27 15:09:54","新北市中和區圓通路335巷37弄2號","121.493791666667","24.9893533333333","6500300","中和區"
"220016","013-TV","2017/11/27 15:05:35","新北市板橋區光復街215號","121.484725","25.0213133333333","6500100","板橋區"
"220013","072-UY","2017/11/27 15:09:38","新北市板橋區新府路1-10號","121.46419","25.01252","6500100","板橋區"
"220017","AAD-861","2017/11/27 15:09:54","新北市板橋區大明街25巷2弄23號","121.457521666667","25.002575","6500100","板橋區"
"220051","120-SR","2017/11/27 15:09:48","新北市板橋區民治街135號","121.477665","25.0307783333333","6500100","板橋區"
"227001","400-TW","2017/11/27 15:09:49","新北市雙溪區三貂里政光路3-1號","121.850811666667","25.0631333333333","6502500","雙溪區"
"207002","749-BX","2017/11/27 15:09:49","新北市萬里區崁腳里內中福路91號","121.654433333333","25.1648616666667","6502800","萬里區"
"207001","662-BX","2017/11/27 15:09:38","新北市萬里區雙興里麗水路8-1號","121.649763333333","25.1875083333333","6502800","萬里區"
"208004","170-UY","2017/11/27 15:09:49","新北市金山區半嶺41號","121.60147","25.23989","6502700","金山區"
"236064","105-UM","2017/11/27 15:09:55","新北市土城區學成路97-2號","121.450493333333","24.9887566666667","6501300","土城區"
"236040","107-UM","2017/11/27 15:09:44","新北市土城區學士路2號","121.45402","24.9833833333333","6501300","土城區"
"236028","253-BX","2017/11/27 15:09:47","新北市土城區福祥街103巷1號","121.441663333333","24.9818783333333","6501300","土城區"
"236024","269-VK","2017/11/27 15:09:43","新北市土城區員林街76號","121.444318333333","24.9767533333333","6501300","土城區"
"236012","270-VK","2017/11/27 15:09:44","新北市土城區學府路一段23巷26號","121.457663333333","24.9872666666667","6501300","土城區"
"236032","271-VK","2017/11/27 15:09:51","新北市土城區青仁路51號","121.461538333333","24.9795333333333","6501300","土城區"
"236016","401-BY","2017/11/27 15:09:55","新北市土城區延峰街32巷1號","121.469373333333","24.9851216666667","6501300","土城區"
"236074","752-BX","2017/11/27 15:09:43","新北市土城區溪頭路30巷45號","121.412521666667","24.9562716666667","6501300","土城區"
"236056","912-UM","2017/11/27 15:09:55","新北市土城區金城路二段250號","121.457095","24.98331","6501300","土城區"
"236044","913-UM","2017/11/27 15:09:47","新北市土城區清水路161號","121.458745","24.9815133333333","6501300","土城區"
"236060","915-UM","2017/11/27 15:09:50","","121.466941666667","24.9877983333333","6501300","土城區"
"236052","AAC-216","2017/11/27 15:09:47","新北市土城區學府路一段214號","121.452275","24.9852983333333","6501300","土城區"
"238002","755-BX","2017/11/27 15:09:51","新北市樹林區中洲街6號","121.397375","24.9728416666667","6500700","樹林區"
"238010","601-UM","2017/11/27 15:09:41","新北市樹林區國凱街47巷10號","121.421085","24.9796716666667","6500700","樹林區"
"238006","599-UM","2017/11/27 15:09:43","新北市樹林區八德街437-1號","121.405395","24.9701333333333","6500700","樹林區"
"238018","571-TV","2017/11/27 15:09:55","新北市樹林區太平路247巷30號","121.421873333333","24.9744883333333","6500700","樹林區"
"238011","5061-A6","2017/11/27 15:09:53","新北市樹林區八德街247巷24-1號","121.42095","24.9739266666667","6500700","樹林區"
"238008","KEA-2217","2017/11/27 15:09:54","新北市樹林區西圳街一段165巷3號","121.39529","24.9623","6500700","樹林區"
"238009","KEA-2213","2017/11/27 15:09:41","新北市樹林區八德街328號","121.409478333333","24.9698033333333","6500700","樹林區"
"238012","303-VK","2017/11/27 15:09:42","新北市樹林區中山路三段125-1號","121.397386666667","24.9731266666667","6500700","樹林區"
"238004","283-BY","2017/11/27 15:09:58","新北市樹林區新興街2巷1號","121.400206666667","24.9742416666667","6500700","樹林區"
"238007","268-VK","2017/11/27 15:09:39","新北市樹林區中山路三段204號","121.386753333333","24.9681933333333","6500700","樹林區"
"238013","172-UY","2017/11/27 15:09:56","新北市樹林區東豐街12-3號","121.416195","24.975475","6500700","樹林區"
"238003","169-UY","2017/11/27 15:09:52","新北市樹林區大安路579號","121.412075","24.9833866666667","6500700","樹林區"
"221002","707-TV","2017/11/27 15:09:46","新北市汐止區青山路41-1號","121.656661666667","25.06145","6501100","汐止區"
"220028","200-UY","2017/11/27 15:09:43","新北市板橋區大觀路二段153巷44弄53號","121.445963333333","24.9990233333333","6500100","板橋區"
"220030","610-BX","2017/11/27 15:09:54","新北市板橋區篤行路一段46號","121.43182","24.9937466666667","6500100","板橋區"
"220050","245-BX","2017/11/27 15:09:57","新北市板橋區雙十路二段47巷28號","121.475541666667","25.0258133333333","6500100","板橋區"
"220040","267-BY","2017/11/27 15:09:39","新北市板橋區文聖街89巷17號","121.478106666667","25.0304033333333","6500100","板橋區"
"220043","283-UM","2017/11/27 15:09:46","新北市板橋區文化路一段304號","121.467563333333","25.0218083333333","6500100","板橋區"
"220001","285-VK","2017/11/27 15:09:42","新北市板橋區中山路二段242號","121.47848","25.0181916666667","6500100","板橋區"
"220031","286-VK","2017/11/27 15:09:45","新北市板橋區僑中二街106巷11號","121.445328333333","25.00764","6500100","板橋區"
"220029","287-VK","2017/11/27 15:09:54","新北市板橋區僑中一街80巷5弄5號","121.44754","25.0125016666667","6500100","板橋區"
"220009","293-UM","2017/11/27 15:09:52","新北市板橋區中山路一段3-5號","121.459933333333","25.00792","6500100","板橋區"
"242001","281-VK","2017/11/27 14:47:05","新北市新莊區環河路636-7號","121.437341666667","25.0113116666667","6500500","新莊區"
"220041","307-R5","2017/11/27 15:09:51","","121.460508333333","25.0139283333333","6500100","板橋區"
"220012","486-VK","2017/11/27 15:09:26","新北市板橋區漢生東路193巷9號","121.470426666667","25.011845","6500100","板橋區"
"220038","487-VK","2017/11/27 15:09:56","新北市板橋區新海路403巷2號","121.45839","25.026745","6500100","板橋區"
"220037","491-VK","2017/11/27 15:09:56","新北市板橋區懷德街191巷2號","121.480095","25.02941","6500100","板橋區"
"220052","561-BX","2017/11/27 15:09:37","新北市板橋區陽明街251號","121.462751666667","25.0252783333333","6500100","板橋區"
"220003","568-UM","2017/11/27 15:09:50","新北市板橋區國慶路149巷38弄3號","121.461243333333","24.9981233333333","6500100","板橋區"
"220011","609-BX","2017/11/27 15:09:56","新北市板橋區中山路二段563號","121.484295","25.0219366666667","6500100","板橋區"
"220005","686-BX","2017/11/27 15:09:40","新北市板橋區信義路17號","121.456943333333","24.9967016666667","6500100","板橋區"
"220025","687-BX","2017/11/27 15:09:44","新北市板橋區僑中一街124巷61-61號","121.446861666667","25.01878","6500100","板橋區"
"220042","689-BX","2017/11/27 15:09:47","新北市板橋區長江路三段54號","121.473386666667","25.03388","6500100","板橋區"
"220002","741-BX","2017/11/27 15:09:47","新北市板橋區忠孝路201巷94號","121.464685","25.004785","6500100","板橋區"
"220014","829-TW","2017/11/27 15:09:55","新北市板橋區萬板路820號","121.48359","25.0275266666667","6500100","板橋區"
"220046","AAC-210","2017/11/27 15:09:44","新北市板橋區光正街45巷2弄4號","121.46174","25.0174866666667","6500100","板橋區"
"220018","AAC-253","2017/11/27 15:09:52","新北市板橋區成都街69號","121.462335","25.0050616666667","6500100","板橋區"
