"lineid","car","time","location","longitude","latitude","cityid","cityname"
"249005","172-UM","2017/11/27 16:59:46","新北市八里區渡船頭3-5號","121.432755","25.1540533333333","6502300","八里區"
"249001","173-UM","2017/11/27 16:59:39","新北市八里區下罟子1-11號","121.390078333333","25.1421633333333","6502300","八里區"
"249004","303-UY","2017/11/27 16:59:36","新北市八里區挖子尾街40號","121.415703333333","25.166015","6502300","八里區"
"249002","305-UY","2017/11/27 16:58:16","新北市八里區牛寮埔25號","121.432483333333","25.1431816666667","6502300","八里區"
"249003","593-UM","2017/11/27 16:59:32","新北市八里區中山路二段370號","121.400888333333","25.1480133333333","6502300","八里區"
"248014","261-SL","2017/11/27 16:04:43","新北市五股區中興路二段83巷26-6號","121.460051666667","25.0753166666667","6501500","五股區"
"244007","080-UY","2017/11/27 16:59:30","新北市林口區中湖48-11號","121.380273333333","25.093275","6501700","林口區"
"244018","403-UM","2017/11/27 16:59:38","新北市林口區粉寮路一段77-2號","121.397058333333","25.07945","6501700","林口區"
"244023","483-VK","2017/11/27 16:59:45","新北市林口區中山路1號","121.396768333333","25.0781266666667","6501700","林口區"
"244009","656-BX","2017/11/27 16:59:38","新北市林口區粉寮69號","121.40503","25.090875","6501700","林口區"
"244025","837-TS","2017/11/27 16:58:43","新北市林口區粉寮路二段160巷28號","121.405133333333","25.0907383333333","6501700","林口區"
"244021","838-TS","2017/11/27 16:59:39","新北市林口區粉寮69號","121.404823333333","25.090855","6501700","林口區"
"243003","267-VK","2017/11/27 16:53:37","新北市泰山區犁頭窠3-1號","121.422095","25.0605416666667","6501600","泰山區"
"243016","680-BX","2017/11/27 15:54:18","新北市泰山區黎明路25號","121.421903333333","25.0606366666667","6501600","泰山區"
"231046","278-BY","2017/11/27 16:59:36","新北市新店區永業路81巷60號","121.529293333333","24.9478183333333","6500600","新店區"
"241011","013-R5","2017/11/27 16:59:42","新北市三重區仁愛街55巷45號","121.499206666667","25.0728366666667","6500200","三重區"
"241028","022-UY","2017/11/27 16:59:47","新北市三重區中正南路41巷1號","121.493913333333","25.0598766666667","6500200","三重區"
"241008","059-VK","2017/11/27 16:59:34","新北市三重區永福街179巷15號","121.478325","25.0749583333333","6500200","三重區"
"241009","060-VK","2017/11/27 16:59:44","新北市三重區溪尾街218巷39號","121.486403333333","25.0809866666667","6500200","三重區"
"241031","061-VK","2017/11/27 16:59:44","新北市三重區三寧街18號","121.489378333333","25.0598716666667","6500200","三重區"
"241015","062-VK","2017/11/27 16:59:45","新北市三重區三和路二段27號","121.501088333333","25.06705","6500200","三重區"
"241017","063-VK","2017/11/27 16:59:35","新北市三重區國隆路14號","121.492943333333","25.0638683333333","6500200","三重區"
"241024","065-VK","2017/11/27 16:59:48","新北市三重區國道路一段67號","121.480723333333","25.07287","6500200","三重區"
"241026","066-VK","2017/11/27 16:59:44","新北市三重區中央南路95巷25-3號","121.500355","25.0607483333333","6500200","三重區"
"241002","090-VK","2017/11/27 16:59:42","新北市三重區仁義街101巷20號","121.498655","25.08027","6500200","三重區"
"241003","091-VK","2017/11/27 16:59:43","新北市三重區五華街121號","121.491431666667","25.08402","6500200","三重區"
"241005","262-UM","2017/11/27 16:59:37","新北市三重區碧華街53號","121.484586666667","25.0816033333333","6500200","三重區"
"241004","265-UM","2017/11/27 16:59:40","新北市三重區五華街98巷6號","121.492205","25.0820916666667","6500200","三重區"
"241016","266-UM","2017/11/27 16:59:43","新北市三重區大智街17-2號","121.494505","25.0654183333333","6500200","三重區"
"241022","267-UM","2017/11/27 16:59:30","新北市三重區貴陽街42號","121.484008333333","25.0626616666667","6500200","三重區"
"241018","268-UM","2017/11/27 16:59:46","新北市三重區六張街126巷2弄1號","121.492245","25.0691683333333","6500200","三重區"
"241032","269-UM","2017/11/27 16:59:36","新北市三重區三光街1號","121.485138333333","25.060975","6500200","三重區"
"241013","270-UM","2017/11/27 16:59:41","新北市三重區仁和街64號","121.497343333333","25.073985","6500200","三重區"
"241025","271-UM","2017/11/27 16:59:41","新北市三重區中正北路508巷5號","121.472655","25.07136","6500200","三重區"
"241007","398-BY","2017/11/27 16:59:35","新北市三重區溪尾街126巷21號","121.488763333333","25.07934","6500200","三重區"
"241020","413-TH","2017/11/27 16:59:33","新北市三重區後竹圍街175巷27號","121.485615","25.0728216666667","6500200","三重區"
"241019","478-VK","2017/11/27 16:59:49","新北市三重區自強路二段74巷23-1號","121.487895","25.06986","6500200","三重區"
"241030","480-VK","2017/11/27 16:59:33","新北市三重區昌隆街60號","121.491235","25.05124","6500200","三重區"
"241014","543-UM","2017/11/27 16:59:39","新北市三重區三和路二段173巷149號","121.501153333333","25.070685","6500200","三重區"
"241023","545-UM","2017/11/27 16:59:46","新北市三重區忠孝路三段126號","121.479855","25.0624766666667","6500200","三重區"
"241001","547-UM","2017/11/27 16:59:41","新北市三重區仁愛街176號","121.494168333333","25.0768266666667","6500200","三重區"
"241006","AAD-863","2017/11/27 16:59:35","新北市三重區車路頭街117巷57號","121.485538333333","25.0756783333333","6500200","三重區"
"241012","941-UM","2017/11/27 16:59:48","新北市三重區仁壽街200號","121.501041666667","25.0749066666667","6500200","三重區"
"241029","942-UM","2017/11/27 16:59:50","新北市三重區集美街257號","121.492421666667","25.0556316666667","6500200","三重區"
"241033","AAC-255","2017/11/27 16:59:40","新北市三重區中興北街275號","121.469066666667","25.0608783333333","6500200","三重區"
"247020","500-BY","2017/11/27 16:59:43","新北市蘆洲區民族路408巷5弄15號","121.474873333333","25.09242","6501400","蘆洲區"
"247008","341-TH","2017/11/27 16:59:37","新北市蘆洲區信義路59巷2號","121.475351666667","25.0801283333333","6501400","蘆洲區"
"247010","339-TH","2017/11/27 16:59:36","新北市蘆洲區三民路26巷73號","121.478768333333","25.0832616666667","6501400","蘆洲區"
"247002","337-TH","2017/11/27 16:59:41","新北市蘆洲區永平街22號","121.45904","25.0907216666667","6501400","蘆洲區"
"247004","336-TH","2017/11/27 16:59:50","新北市蘆洲區永安南路二段256號","121.459731666667","25.0804433333333","6501400","蘆洲區"
"247024","335-TH","2017/11/27 16:59:31","新北市蘆洲區長興路202號","121.460551666667","25.08746","6501400","蘆洲區"
"247016","057-VK","2017/11/27 16:57:43","新北市蘆洲區光華路22巷2號","121.469486666667","25.0836266666667","6501400","蘆洲區"
"247006","056-VK","2017/11/27 16:59:29","新北市蘆洲區長安街99巷31號","121.46078","25.0797233333333","6501400","蘆洲區"
"247014","007-UY","2017/11/27 16:59:33","新北市蘆洲區中央路32巷18號","121.473988333333","25.0831166666667","6501400","蘆洲區"
"247018","001-UY","2017/11/27 16:59:41","新北市蘆洲區民族路306號","121.477471666667","25.0899766666667","6501400","蘆洲區"
"228003","097-TW","2017/11/27 16:59:43","新北市貢寮區福隆里興隆街21-2號","121.933498333333","25.018835","6502600","貢寮區"
"228002","585-TW","2017/11/27 16:59:38","新北市貢寮區貢寮里朝陽街1-2號","121.911783333333","25.021355","6502600","貢寮區"
"228001","670-TC","2017/11/27 16:59:42","新北市貢寮區貢寮里朝陽街1-2號","121.912318333333","25.021315","6502600","貢寮區"
"224010","AGQ-8101","2017/11/27 09:06:24","新北市瑞芳區逢甲路17號","121.809548333333","25.1083633333333","6501200","瑞芳區"
"224006","676-BX","2017/11/27 16:59:45","新北市瑞芳區大寮路356-1號","121.784591666667","25.1031416666667","6501200","瑞芳區"
"224009","285-BY","2017/11/27 16:59:44","新北市瑞芳區濱二路30號","121.840871666667","25.115945","6501200","瑞芳區"
"224007","273-VK","2017/11/27 16:59:42","新北市瑞芳區瑞竹路42號","121.763816666667","25.1033466666667","6501200","瑞芳區"
"224005","271-BY","2017/11/27 16:59:48","新北市瑞芳區哩咾路1號","121.875633333333","25.1232833333333","6501200","瑞芳區"
"227008","642-TC","2017/11/27 16:59:32","新北市雙溪區牡丹里聖南25號","121.857056666667","25.0529183333333","6502500","雙溪區"
"227001","400-TW","2017/11/27 16:59:49","新北市雙溪區長源里柑腳32號","121.804156666667","25.0138466666667","6502500","雙溪區"
"251009","008-UM","2017/11/27 16:59:31","新北市淡水區中正路一段87巷1號","121.421445","25.17947","6501000","淡水區"
"251005","010-UM","2017/11/27 16:59:40","新北市淡水區中正路二段31號","121.419293333333","25.1817633333333","6501000","淡水區"
"251007","179-VK","2017/11/27 16:59:30","新北市淡水區中正東路40-2號","121.449713333333","25.165425","6501000","淡水區"
"251008","181-VK","2017/11/27 16:59:35","新北市淡水區樹梅坑9號","121.472715","25.1426983333333","6501000","淡水區"
"251013","182-VK","2017/11/27 16:59:44","新北市淡水區泉洲厝32號","121.489398333333","25.1926266666667","6501000","淡水區"
"251010","413-VK","2017/11/27 16:59:34","新北市淡水區沙崙路189號","121.424725","25.1840583333333","6501000","淡水區"
"251012","441-VK","2017/11/27 16:59:40","新北市淡水區沙崙路1號","121.420331666667","25.180815","6501000","淡水區"
"251015","442-VK","2017/11/27 16:59:46","新北市淡水區淡金路一段102號","121.457835","25.1746933333333","6501000","淡水區"
"251006","561-UM","2017/11/27 16:59:42","新北市淡水區中正路28巷1號","121.4331","25.174565","6501000","淡水區"
"251011","650-BX","2017/11/27 16:59:34","新北市淡水區中山路46號","121.444183333333","25.1700383333333","6501000","淡水區"
"252002","178-VK","2017/11/27 16:59:48","新北市三芝區忠孝街171號","121.505471666667","25.2613783333333","6502100","三芝區"
"252001","292-VK","2017/11/27 16:59:47","新北市三芝區淡金路二段43號","121.503381666667","25.2604666666667","6502100","三芝區"
"242031","AAC-296","2017/11/27 14:55:07","新北市新莊區新泰路357巷3弄57號","121.442156666667","25.039455","6500500","新莊區"
"242050","751-BX","2017/11/27 16:59:42","新北市新莊區新泰路357巷3弄57號","121.442043333333","25.0391616666667","6500500","新莊區"
"242023","613-BX","2017/11/27 16:59:39","新北市新莊區新泰路357巷3弄57號","121.442136666667","25.0391733333333","6500500","新莊區"
"242027","612-BX","2017/11/27 16:59:44","新北市新莊區新泰路357巷3弄57號","121.44208","25.0392883333333","6500500","新莊區"
"242039","566-BX","2017/11/27 16:59:49","新北市新莊區新泰路357巷3弄57號","121.442071666667","25.0391","6500500","新莊區"
"242034","442-UM","2017/11/27 16:59:33","新北市新莊區新泰路255巷83號","121.442028333333","25.0389783333333","6500500","新莊區"
"242053","440-UM","2017/11/27 16:59:37","新北市新莊區新泰路357巷3弄57號","121.442123333333","25.0392816666667","6500500","新莊區"
"242042","400-BY","2017/11/27 16:59:35","新北市新莊區新泰路357巷3弄57號","121.44215","25.0396466666667","6500500","新莊區"
"242060","362-BY","2017/11/27 16:59:30","新北市新莊區新泰路255巷83號","121.442283333333","25.03869","6500500","新莊區"
"242058","353-BY","2017/11/27 16:59:38","新北市新莊區新泰路255巷83號","121.44235","25.0388283333333","6500500","新莊區"
"242036","133-UY","2017/11/27 16:59:53","新北市新莊區新泰路255巷83號","121.442125","25.038845","6500500","新莊區"
"242046","172-VK","2017/11/27 10:31:44","新北市新莊區新泰路255巷83號","121.44214","25.0387966666667","6500500","新莊區"
"242013","346-TH","2017/11/27 09:38:20","新北市新莊區三和路12-14號","121.441941666667","25.03728","6500500","新莊區"
"242019","348-TH","2017/11/27 16:59:44","新北市新莊區新泰路357巷3弄51號","121.442318333333","25.0399433333333","6500500","新莊區"
"242011","351-TH","2017/11/27 16:59:36","新北市新莊區新泰路357巷3弄57號","121.44194","25.0395283333333","6500500","新莊區"
"238023","601-UM","2017/11/27 16:59:41","新北市樹林區大安路320號","121.417155","24.99152","6500700","樹林區"
"238019","599-UM","2017/11/27 16:59:42","新北市樹林區育德街78-1號","121.387738333333","24.9680866666667","6500700","樹林區"
"238025","303-VK","2017/11/27 16:59:49","新北市樹林區中正路22-1號","121.427848333333","24.9993383333333","6500700","樹林區"
"238004","283-BY","2017/11/27 16:59:37","新北市樹林區光武街28號","121.41584","25.00557","6500700","樹林區"
"238001","282-BY","2017/11/27 16:59:44","新北市樹林區大慶街99-1號","121.427678333333","24.9998733333333","6500700","樹林區"
"239007","AAC-297","2017/11/27 04:59:02","新北市鶯歌區二甲路13-16號","121.344898333333","24.9351566666667","6500800","鶯歌區"
"239006","891-R6","2017/11/27 16:59:40","新北市鶯歌區二甲路13-16號","121.344946666667","24.9350633333333","6500800","鶯歌區"
"239008","527-UM","2017/11/27 11:01:24","新北市鶯歌區二甲路13-16號","121.345108333333","24.9351133333333","6500800","鶯歌區"
"239005","526-UM","2017/11/27 16:59:49","新北市鶯歌區二甲路13-16號","121.34451","24.9353333333333","6500800","鶯歌區"
"239001","417-VK","2017/11/27 11:22:20","新北市鶯歌區二甲路13號","121.343945","24.9355066666667","6500800","鶯歌區"
"239003","360-BY","2017/11/27 16:59:39","新北市鶯歌區二甲路12-2號","121.345711666667","24.93498","6500800","鶯歌區"
"239002","359-BY","2017/11/25 20:22:23","新北市鶯歌區二甲路171-1號","121.344353333333","24.9354633333333","6500800","鶯歌區"
"242001","281-VK","2017/11/27 14:47:05","新北市新莊區環河路636-7號","121.437341666667","25.0113116666667","6500500","新莊區"
