"lineid","car","time","location","longitude","latitude","cityid","cityname"
"234007","207-UY","2017/11/27 18:09:45","新北市永和區環河東路一段126號","121.520835","25.0154616666667","6500400","永和區"
"234026","9381-KE","2017/11/27 18:09:39","新北市永和區秀朗路一段10巷19號","121.513401666667","25.00623","6500400","永和區"
"249005","172-UM","2017/11/27 18:09:46","新北市八里區荖阡坑路15號","121.401671666667","25.1398666666667","6502300","八里區"
"249001","173-UM","2017/11/27 18:09:39","新北市八里區龍米路二段28號","121.448736666667","25.1398083333333","6502300","八里區"
"249004","303-UY","2017/11/27 18:09:36","新北市八里區龍米路二段159巷2-10號","121.438891666667","25.153205","6502300","八里區"
"249002","305-UY","2017/11/27 18:09:37","新北市八里區龍形一街3號","121.450731666667","25.1306216666667","6502300","八里區"
"249003","593-UM","2017/11/27 18:09:52","新北市八里區中華路二段165巷17號","121.408546666667","25.150475","6502300","八里區"
"248016","026-BX","2017/11/27 18:09:39","新北市五股區成泰路三段152號","121.444783333333","25.0912383333333","6501500","五股區"
"248006","077-UY","2017/11/27 18:09:44","新北市五股區中興路二段91號","121.460431666667","25.077425","6501500","五股區"
"248008","095-VK","2017/11/27 18:09:38","新北市五股區中興路二段182巷15弄13-1號","121.457128333333","25.0811966666667","6501500","五股區"
"248018","225-UY","2017/11/27 18:09:51","新北市五股區成泰路三段75-1號","121.443643333333","25.0898616666667","6501500","五股區"
"248012","247-BX","2017/11/27 18:09:37","新北市五股區中興路三段198號","121.441165","25.082115","6501500","五股區"
"248014","261-SL","2017/11/27 18:09:43","新北市五股區成泰路一段231-32號","121.434998333333","25.0779166666667","6501500","五股區"
"248010","272-BY","2017/11/27 18:09:54","新北市五股區成泰路一段212號","121.436376666667","25.079195","6501500","五股區"
"248004","677-BX","2017/11/27 18:09:38","新北市五股區工商路63號","121.438921666667","25.08434","6501500","五股區"
"248002","678-BX","2017/11/27 18:09:39","新北市五股區新五路二段258號","121.440946666667","25.082195","6501500","五股區"
"232011","375-UM","2017/11/27 18:09:54","新北市坪林區水柳腳38號","121.709735","24.93534","6502000","坪林區"
"244013","069-UM","2017/11/27 18:09:53","新北市林口區中山路3號","121.396665","25.0780983333333","6501700","林口區"
"244007","080-UY","2017/11/27 18:09:50","新北市林口區林口路122號","121.388525","25.0815383333333","6501700","林口區"
"244018","403-UM","2017/11/27 18:09:38","新北市林口區麗園路94號","121.372121666667","25.0681016666667","6501700","林口區"
"244023","483-VK","2017/11/27 18:09:45","新北市林口區隆林街217號","121.383258333333","25.074145","6501700","林口區"
"244017","485-VK","2017/11/27 18:09:53","新北市林口區忠孝路502號","121.3708","25.0701033333333","6501700","林口區"
"244009","656-BX","2017/11/27 18:09:38","新北市林口區佳林路56巷6弄17號","121.385046666667","25.08243","6501700","林口區"
"244011","701-TV","2017/11/27 18:09:53","新北市林口區中正路93號","121.3944","25.077235","6501700","林口區"
"244025","837-TS","2017/11/27 18:09:43","新北市林口區忠孝三路一段118號","121.359015","25.07157","6501700","林口區"
"244021","838-TS","2017/11/27 18:09:39","新北市林口區自強三街29號","121.398106666667","25.0772516666667","6501700","林口區"
"243003","267-VK","2017/11/27 18:05:00","新北市泰山區犁頭窠3-1號","121.421971666667","25.0605733333333","6501600","泰山區"
"243013","646-TV","2017/11/27 18:09:53","新北市泰山區南林路99巷8-1號","121.416253333333","25.0495516666667","6501600","泰山區"
"222003","436-BY","2017/11/27 18:09:50","新北市深坑區阿柔洋47號","121.612253333333","24.99763","6501800","深坑區"
"222002","659-BX","2017/11/27 18:09:45","新北市深坑區文化街52號","121.619003333333","25.00158","6501800","深坑區"
"231061","047-UY","2017/11/27 18:09:38","新北市新店區安華路28-1號","121.519261666667","24.96092","6500600","新店區"
"231046","278-BY","2017/11/27 18:09:16","新北市新店區下石厝路29號","121.534298333333","24.9285266666667","6500600","新店區"
"231058","3712-VJ","2017/11/27 18:09:36","新北市新店區安華路28-1號","121.519275","24.960875","6500600","新店區"
"231056","3713-VJ","2017/11/27 18:09:38","新北市新店區安華路28-1號","121.519283333333","24.960655","6500600","新店區"
"231055","4716-K9","2017/11/27 18:09:46","新北市新店區安華路28-1號","121.519596666667","24.9611866666667","6500600","新店區"
"231062","720-UM","2017/11/27 18:09:37","新北市新店區安康路一段359-27號","121.51894","24.9613216666667","6500600","新店區"
"241003","091-VK","2017/11/27 18:09:50","新北市林口區太平里180號","121.368346666667","25.1345433333333","6500200","三重區"
"241033","AAC-255","2017/11/27 18:09:40","新北市三重區中興北街52-2號","121.46894","25.0505133333333","6500200","三重區"
"235066","003-UY","2017/11/27 18:09:49","新北市中和區連城路87號","121.496825","25.00026","6500300","中和區"
"235063","006-UY","2017/11/27 18:09:53","新北市中和區員山路36巷16-3號","121.48498","24.991295","6500300","中和區"
"235065","098-UM","2017/11/27 18:09:48","新北市中和區橋和路121號","121.491928333333","25.0058133333333","6500300","中和區"
"235040","150-BY","2017/11/27 18:09:38","新北市中和區和城路一段271巷1號","121.485556666667","24.9916033333333","6500300","中和區"
"235058","151-BY","2017/11/27 18:09:45","新北市中和區圓通路367巷33弄59號","121.495613333333","24.9861183333333","6500300","中和區"
"235002","185-VK","2017/11/27 18:09:41","新北市中和區大智街2號","121.51994","24.9919133333333","6500300","中和區"
"235072","301-VK","2017/11/27 18:09:40","新北市中和區員山路36巷12號","121.483923333333","24.9910183333333","6500300","中和區"
"235043","352-BY","2017/11/27 18:09:36","新北市中和區中正路637巷52弄1號","121.485433333333","24.993365","6500300","中和區"
"235061","378-QA","2017/11/27 15:31:19","新北市中和區員山路36巷13號","121.484478333333","24.9909683333333","6500300","中和區"
"235050","4979-A6","2017/11/27 18:09:53","新北市中和區錦和路350-1號","121.49044","24.9935633333333","6500300","中和區"
"235069","4980-A6","2017/11/27 18:09:54","新北市中和區中正路395號","121.489403333333","24.9941466666667","6500300","中和區"
"235042","551-UM","2017/11/27 18:09:48","新北市中和區景平路155巷12號","121.513168333333","24.991545","6500300","中和區"
"235070","558-UM","2017/11/27 18:09:42","新北市中和區中正路637巷52弄1號","121.485611666667","24.9935883333333","6500300","中和區"
"235045","565-BX","2017/11/27 18:09:54","新北市中和區中正路637巷52弄1號","121.485563333333","24.993565","6500300","中和區"
"235054","640-BX","2017/11/27 18:09:53","新北市中和區連城路569巷9弄24號","121.4795","24.993475","6500300","中和區"
"235046","733-UM","2017/11/27 18:09:47","新北市中和區員山路36巷13號","121.484133333333","24.9908883333333","6500300","中和區"
"235062","800-TS","2017/11/27 18:09:51","新北市中和區中山路二段480號","121.487806666667","25.004855","6500300","中和區"
"235057","801-TS","2017/11/27 18:09:53","新北市中和區員山路36巷16-3號","121.485105","24.99132","6500300","中和區"
"235064","911-UM","2017/11/27 18:09:49","新北市中和區中正路637巷52弄1號","121.485601666667","24.993525","6500300","中和區"
"235037","157-BY","2017/11/27 18:09:44","新北市中和區板南路168號","121.501416666667","24.9927283333333","6500300","中和區"
"235037","AAC-213","2017/11/27 18:09:40","新北市中和區景平路257號","121.508586666667","24.9929766666667","6500300","中和區"
"235059","AAC-215","2017/11/27 16:46:39","新北市中和區員山路36巷16-3號","121.48504","24.9913366666667","6500300","中和區"
"247002","337-TH","2017/11/27 18:09:41","新北市蘆洲區永平街32巷69弄31號","121.458868333333","25.093765","6501400","蘆洲區"
"226004","312-R5","2017/11/27 18:09:53","新北市平溪區白石里白石腳3號","121.721958333333","25.0214616666667","6502400","平溪區"
"228003","097-TW","2017/11/27 18:09:43","新北市貢寮區真理里美艷山街6-2號","121.928933333333","25.0607116666667","6502600","貢寮區"
"228001","212-TW","2017/11/27 18:09:52","新北市貢寮區真理里新港街26巷55弄2-1號","121.927401666667","25.0528583333333","6502600","貢寮區"
"228002","585-TW","2017/11/27 18:09:38","新北市貢寮區福連里馬崗街4-1號","121.999883333333","25.012925","6502600","貢寮區"
"224010","AGQ-8101","2017/11/27 17:56:43","新北市瑞芳區山尖路209號","121.849076666667","25.1117233333333","6501200","瑞芳區"
"224006","676-BX","2017/11/27 18:09:45","新北市瑞芳區中山路251號","121.798448333333","25.10909","6501200","瑞芳區"
"224002","639-TC","2017/11/27 18:09:42","新北市瑞芳區三爪子坑路94-7號","121.809135","25.1053083333333","6501200","瑞芳區"
"224009","285-BY","2017/11/27 18:09:51","新北市瑞芳區金光路245號","121.851156666667","25.1079433333333","6501200","瑞芳區"
"224008","275-VK","2017/11/27 18:09:35","新北市瑞芳區員山子路3-9號","121.820793333333","25.1034916666667","6501200","瑞芳區"
"224007","273-VK","2017/11/27 18:09:42","新北市瑞芳區四腳亭坑路2-7號","121.777281666667","25.1075133333333","6501200","瑞芳區"
"224005","271-BY","2017/11/27 18:09:48","新北市瑞芳區深澳路1號","121.816493333333","25.1285533333333","6501200","瑞芳區"
"253005","032-BX","2017/11/27 18:09:36","新北市石門區福安街27號","121.568886666667","25.2924033333333","6502200","石門區"
"253006","295-VK","2017/11/27 18:09:43","新北市石門區老梅路52巷21號","121.546363333333","25.288365","6502200","石門區"
"222001","KEA-2212","2017/11/27 18:09:55","新北市深坑區北深路二段188號","121.613995","25.00224","6501800","深坑區"
"208002","742-BX","2017/11/27 18:09:54","新北市金山區三界壇路99巷9號","121.620638333333","25.2277716666667","6502700","金山區"
"208003","665-BX","2017/11/27 18:09:42","新北市金山區磺港里磺港路37號","121.648933333333","25.2290733333333","6502700","金山區"
"208001","761-BX","2017/11/27 18:09:43","新北市金山區磺港里磺港路63號","121.647181666667","25.22701","6502700","金山區"
"251009","008-UM","2017/11/27 18:09:50","新北市淡水區大忠街34巷15號","121.443968333333","25.1756933333333","6501000","淡水區"
"251004","009-UM","2017/11/27 18:09:48","新北市淡水區民族路110巷9號","121.46194","25.135465","6501000","淡水區"
"251005","010-UM","2017/11/27 18:09:40","新北市淡水區水源街一段139號","121.44717","25.1719","6501000","淡水區"
"251008","181-VK","2017/11/27 18:09:35","新北市淡水區中正東路二段7號","121.458366666667","25.1588883333333","6501000","淡水區"
"251013","182-VK","2017/11/27 18:09:44","新北市淡水區桂花樹4-3號","121.47634","25.1956683333333","6501000","淡水區"
"251010","413-VK","2017/11/27 18:09:33","新北市淡水區中正路二段50巷10號","121.420031666667","25.1833383333333","6501000","淡水區"
"251012","441-VK","2017/11/27 18:09:39","新北市淡水區北新路三段169-8號","121.490795","25.190935","6501000","淡水區"
"251015","442-VK","2017/11/27 18:09:44","新北市淡水區興福寮88巷1號","121.485598333333","25.1651","6501000","淡水區"
"251001","559-UM","2017/11/27 18:09:38","新北市淡水區自立路8號","121.462731666667","25.12947","6501000","淡水區"
"251006","561-UM","2017/11/27 18:09:45","新北市淡水區真理街3巷1號","121.43681","25.1744516666667","6501000","淡水區"
"251011","650-BX","2017/11/27 18:09:54","新北市淡水區三空泉9號","121.474395","25.1631916666667","6501000","淡水區"
"251002","672-BX","2017/11/27 18:09:50","新北市淡水區中正東路一段23號","121.451615","25.1633983333333","6501000","淡水區"
"251003","766-UM","2017/11/27 18:09:33","新北市淡水區北新路180號","121.449365","25.178765","6501000","淡水區"
"207003","550-UM","2017/11/27 18:09:45","新北市萬里區野柳里港西路70-3號","121.685473333333","25.20474","6502800","萬里區"
"207004","225-TW","2017/11/27 18:09:50","新北市萬里區中幅里中福路115號","121.67633","25.1682866666667","6502800","萬里區"
"252003","249-BX","2017/11/27 18:09:53","新北市三芝區埔頭里埔頭37號","121.498445","25.2602766666667","6502100","三芝區"
"252001","292-VK","2017/11/27 18:09:47","新北市三芝區中興街二段2號","121.498408333333","25.2566833333333","6502100","三芝區"
"237004","078-UY","2017/11/27 18:09:54","新北市三峽區大埔路150-2號","121.364743333333","24.8982766666667","6500900","三峽區"
"237007","153-BY","2017/11/27 18:09:35","新北市三峽區中正路二段332號","121.365993333333","24.910555","6500900","三峽區"
"237009","210-TH","2017/11/27 18:09:37","新北市三峽區大仁路36號","121.365906666667","24.9375466666667","6500900","三峽區"
"237013","252-BX","2017/11/27 18:09:48","新北市三峽區長泰街57號","121.377218333333","24.9328683333333","6500900","三峽區"
"237012","275-BY","2017/11/27 18:09:24","新北市三峽區民生街19巷7弄44號","121.377453333333","24.9350833333333","6500900","三峽區"
"237008","302-VK","2017/11/27 18:09:38","新北市三峽區白雞44-33號","121.377626666667","24.91049","6500900","三峽區"
"237006","5529-G3","2017/11/27 18:09:43","新北市三峽區溪東路134號","121.404725","24.93335","6500900","三峽區"
"237011","572-TV","2017/11/27 18:09:31","新北市三峽區介壽路三段20號","121.396005","24.93621","6500900","三峽區"
"237015","649-BX","2017/11/27 18:09:46","新北市三峽區紫新路47號","121.422186666667","24.9217983333333","6500900","三峽區"
"237005","AKY-6261","2017/11/27 18:09:44","新北市三峽區民生街152-3號","121.37199","24.9353433333333","6500900","三峽區"
"236069","105-UM","2017/11/27 18:09:47","新北市土城區明德路二段135-1號","121.449103333333","24.9826916666667","6501300","土城區"
"236042","107-UM","2017/11/27 18:09:48","新北市土城區裕生路61號","121.447678333333","24.986045","6501300","土城區"
"236030","253-BX","2017/11/27 18:09:38","新北市土城區城林路6巷80號","121.43854","24.97979","6501300","土城區"
"236026","269-VK","2017/11/27 18:09:33","新北市土城區承天路18號","121.43942","24.9634666666667","6501300","土城區"
"236014","270-VK","2017/11/27 18:09:47","新北市土城區學士路37-1號","121.44785","24.9800116666667","6501300","土城區"
"236036","271-VK","2017/11/27 18:09:36","新北市土城區金城路二段28-6號","121.450735","24.978385","6501300","土城區"
"236020","401-BY","2017/11/27 18:09:37","新北市土城區城林路6巷80號","121.438458333333","24.979605","6501300","土城區"
"236078","752-BX","2017/11/27 18:09:39","新北市土城區永安街85號","121.431008333333","24.9638183333333","6501300","土城區"
"236058","912-UM","2017/11/27 18:09:36","新北市土城區中央路四段38號","121.420765","24.9608283333333","6501300","土城區"
"236048","913-UM","2017/11/27 18:09:41","新北市土城區金城路二段63號","121.451185","24.9787733333333","6501300","土城區"
"236062","915-UM","2017/11/27 18:09:50","新北市土城區中正路82-1號","121.445183333333","24.9756983333333","6501300","土城區"
"236053","AAC-216","2017/11/27 18:09:37","新北市土城區城林路6巷80號","121.438438333333","24.9796183333333","6501300","土城區"
"242031","AAC-296","2017/11/27 18:09:56","新北市新莊區新泰路277巷12號","121.44506","25.0404083333333","6500500","新莊區"
"242029","986-R7","2017/11/27 18:09:52","新北市新莊區中平路87巷1號","121.444825","25.04563","6500500","新莊區"
"242050","751-BX","2017/11/27 18:09:42","新北市新莊區民本街23巷19號","121.429121666667","25.0198183333333","6500500","新莊區"
"242025","615-BX","2017/11/27 18:09:52","新北市新莊區五工一路96號","121.460581666667","25.0679383333333","6500500","新莊區"
"242023","613-BX","2017/11/27 18:09:39","新北市泰山區泰林路一段2號","121.441993333333","25.0478316666667","6500500","新莊區"
"242027","612-BX","2017/11/27 18:09:44","新北市新莊區幸福路71號","121.457016666667","25.049375","6500500","新莊區"
"242039","566-BX","2017/11/27 18:09:49","新北市新莊區民安西路40號","121.427226666667","25.02093","6500500","新莊區"
"242044","497-BY","2017/11/27 18:09:42","新北市新莊區鳳山街52號","121.414071666667","25.0257566666667","6500500","新莊區"
"242034","442-UM","2017/11/27 18:09:53","新北市新莊區景德路310號","121.447393333333","25.0336166666667","6500500","新莊區"
"242048","441-UM","2017/11/27 18:09:44","新北市新莊區民安路49號","121.423923333333","25.02617","6500500","新莊區"
"242053","440-UM","2017/11/27 18:09:37","新北市新莊區民安西路325號","121.427663333333","25.0110883333333","6500500","新莊區"
"242004","413-TV","2017/11/27 18:09:41","新北市新莊區自立街74號","121.454321666667","25.0453433333333","6500500","新莊區"
"242042","400-BY","2017/11/27 18:09:55","新北市新莊區雙鳳路116巷15弄1號","121.41356","25.029055","6500500","新莊區"
"242060","362-BY","2017/11/27 18:09:50","新北市新莊區新樹路69-4號","121.438761666667","25.0297633333333","6500500","新莊區"
"242058","353-BY","2017/11/27 18:09:38","新北市新莊區新北大道七段490號","121.413006666667","25.0298333333333","6500500","新莊區"
"242036","133-UY","2017/11/27 18:09:53","新北市新莊區後港一路65巷11弄12號","121.425658333333","25.0272183333333","6500500","新莊區"
"242021","135-UY","2017/11/27 18:09:43","新北市新莊區建興街54號","121.449965","25.03847","6500500","新莊區"
"242046","172-VK","2017/11/27 18:09:48","新北市新莊區福營路301號","121.426851666667","25.0290316666667","6500500","新莊區"
"242009","173-VK","2017/11/27 18:09:44","新北市新莊區昌平街59巷34號","121.453768333333","25.0533183333333","6500500","新莊區"
"242015","175-VK","2017/11/27 18:09:49","新北市新莊區中平路127號","121.444665","25.0469616666667","6500500","新莊區"
"242007","347-TH","2017/11/27 18:09:37","新北市新莊區中華路二段82號","121.453686666667","25.0469916666667","6500500","新莊區"
"242019","348-TH","2017/11/27 18:09:44","新北市新莊區公園路210號","121.45553","25.040485","6500500","新莊區"
"242056","349-TH","2017/11/27 18:09:44","新北市新莊區豐年街豐2巷25號","121.447518333333","25.0309033333333","6500500","新莊區"
"242017","350-TH","2017/11/27 18:09:36","新北市新莊區中港路303號","121.452821666667","25.044605","6500500","新莊區"
"242011","351-TH","2017/11/27 18:09:36","新北市新莊區中榮街47號","121.449413333333","25.052745","6500500","新莊區"
"238002","755-BX","2017/11/27 18:09:54","新北市樹林區啟智街156巷9號","121.414928333333","24.9877416666667","6500700","樹林區"
"238023","601-UM","2017/11/27 18:09:41","新北市樹林區龍興街32巷30號","121.40184","25.01549","6500700","樹林區"
"238019","599-UM","2017/11/27 18:09:42","新北市樹林區國凱街136巷30弄12號","121.423425","24.9792933333333","6500700","樹林區"
"238018","571-TV","2017/11/27 18:09:35","新北市樹林區樹新路207號","121.429743333333","24.998075","6500700","樹林區"
"238021","KEA-2217","2017/11/27 18:09:47","新北市樹林區柑園街一段137號","121.400955","24.9593116666667","6500700","樹林區"
"238022","KEA-2213","2017/11/27 18:09:41","新北市樹林區太平路174巷29弄1號","121.417708333333","24.97658","6500700","樹林區"
"238025","303-VK","2017/11/27 18:09:49","新北市樹林區保安街二段61號","121.41618","25.0004733333333","6500700","樹林區"
"238017","283-BY","2017/11/27 18:09:37","新北市樹林區中正路743號","121.411051666667","25.0146233333333","6500700","樹林區"
"238014","282-BY","2017/11/27 18:09:44","新北市樹林區千歲街61巷40弄13號","121.426031666667","24.99914","6500700","樹林區"
"238020","268-VK","2017/11/27 18:09:52","新北市樹林區三俊街45號","121.412683333333","25.015665","6500700","樹林區"
"238026","172-UY","2017/11/27 18:09:51","新北市樹林區育德街41號","121.391805","24.9702616666667","6500700","樹林區"
"238016","169-UY","2017/11/27 18:09:52","新北市樹林區中山路一段242巷16弄1號","121.42045","24.988055","6500700","樹林區"
"239007","AAC-297","2017/11/27 18:09:44","新北市鶯歌區尖山埔路163號","121.346075","24.95076","6500800","鶯歌區"
"239006","891-R6","2017/11/27 18:09:40","新北市鶯歌區鶯桃路381巷2弄11號","121.332988333333","24.963735","6500800","鶯歌區"
"239008","527-UM","2017/11/27 18:09:51","新北市鶯歌區朝陽街50巷2號","121.337725","24.9780033333333","6500800","鶯歌區"
"239005","526-UM","2017/11/27 18:09:49","新北市鶯歌區鶯桃路668巷73號","121.329911666667","24.9717583333333","6500800","鶯歌區"
"239001","417-VK","2017/11/27 18:09:35","新北市鶯歌區中正三路17號","121.339298333333","24.9426766666667","6500800","鶯歌區"
"239003","360-BY","2017/11/27 18:09:39","新北市鶯歌區福安街30號","121.334478333333","24.964145","6500800","鶯歌區"
"239002","359-BY","2017/11/27 18:09:46","新北市鶯歌區中山路249巷4弄9-1號","121.345885","24.9564616666667","6500800","鶯歌區"
"221008","489-VK","2017/11/27 18:09:42","新北市汐止區康寧街315號","121.626973333333","25.0679083333333","6501100","汐止區"
"221036","130-UY","2017/11/27 18:09:48","新北市汐止區大同路三段211號","121.67256","25.07669","6501100","汐止區"
"221010","269-BY","2017/11/27 18:09:49","新北市汐止區汐萬路二段275巷3弄1號","121.645233333333","25.0887566666667","6501100","汐止區"
"221012","278-VK","2017/11/27 18:09:36","新北市汐止區保一街67號","121.674276666667","25.0799616666667","6501100","汐止區"
"221023","279-VK","2017/11/27 18:09:38","新北市汐止區中興路293號","121.627978333333","25.0700366666667","6501100","汐止區"
"221032","280-BY","2017/11/27 18:09:51","新北市汐止區力行街2號","121.617256666667","25.0513116666667","6501100","汐止區"
"221027","281-BY","2017/11/27 18:09:50","新北市汐止區大同路二段544號","121.661591666667","25.0688566666667","6501100","汐止區"
"221029","298-VK","2017/11/27 18:09:46","新北市汐止區樟樹二路134號","121.640021666667","25.0656416666667","6501100","汐止區"
"221021","299-VK","2017/11/27 18:09:37","新北市汐止區龍安路30號","121.655063333333","25.0642266666667","6501100","汐止區"
"221031","353-TW","2017/11/27 18:09:49","新北市汐止區中興路163號","121.63099","25.0661966666667","6501100","汐止區"
"221015","567-BX","2017/11/27 18:08:52","新北市汐止區鄉長路二段90號","121.66646","25.0849716666667","6501100","汐止區"
"221035","622-UM","2017/11/27 18:09:36","新北市汐止區大同路二段202號","121.65334","25.0647933333333","6501100","汐止區"
"221025","623-UM","2017/11/27 18:09:43","新北市汐止區勤進路8號","121.659745","25.061645","6501100","汐止區"
"221038","646-BX","2017/11/27 18:09:37","新北市汐止區南興路85號","121.652896666667","25.0589833333333","6501100","汐止區"
"221033","647-BX","2017/11/27 18:09:38","新北市汐止區宜興街10巷21號","121.622041666667","25.0406866666667","6501100","汐止區"
"221002","707-TV","2017/11/27 18:09:42","新北市汐止區福德一路217號","121.634685","25.0651833333333","6501100","汐止區"
"221018","753-BX","2017/11/27 18:09:52","新北市汐止區茄苳路42號","121.665891666667","25.0707983333333","6501100","汐止區"
"242001","281-VK","2017/11/27 14:47:05","新北市新莊區環河路636-7號","121.437341666667","25.0113116666667","6500500","新莊區"
"242002","280-VK","2017/11/27 18:09:46","新北市新莊區新莊路62號","121.457733333333","25.036765","6500500","新莊區"
