"lineid","car","time","location","longitude","latitude","cityid","cityname"
"234046","148-BY","2017/11/27 19:49:53","新北市永和區永利路151號","121.524615","25.0034116666667","6500400","永和區"
"234013","149-BY","2017/11/27 19:49:50","新北市永和區仁愛路247號","121.50873","25.0117466666667","6500400","永和區"
"234007","207-UY","2017/11/27 19:49:45","新北市中和區中和路234號","121.506813333333","24.9995066666667","6500400","永和區"
"234081","298-R6","2017/11/27 19:49:42","新北市永和區永利路81巷24號","121.52226","25.003775","6500400","永和區"
"234038","336-UY","2017/11/27 19:49:39","新北市永和區民樂街57巷6號","121.52801","24.998445","6500400","永和區"
"234064","337-UY","2017/11/27 19:49:36","新北市永和區中正路368巷22號","121.518485","25.00071","6500400","永和區"
"234086","338-UY","2017/11/27 19:49:42","新北市永和區中正路479號","121.517035","25.00642","6500400","永和區"
"234070","552-UM","2017/11/27 19:49:47","新北市永和區竹林路86號","121.519415","25.0126716666667","6500400","永和區"
"234054","553-UM","2017/11/27 19:49:44","新北市永和區竹林路39巷28弄21號","121.520046666667","25.0144333333333","6500400","永和區"
"234017","745-BX","2017/11/27 19:49:55","新北市永和區永和路二段299號","121.516031666667","25.0160866666667","6500400","永和區"
"234030","746-BX","2017/11/27 19:49:51","新北市永和區民生路67巷44號","121.524878333333","24.997385","6500400","永和區"
"234061","AAD-866","2017/11/27 19:49:51","新北市永和區中正路98號","121.514273333333","24.9957033333333","6500400","永和區"
"234042","862-TW","2017/11/27 19:49:48","新北市永和區中和路389巷24號","121.508138333333","25.001365","6500400","永和區"
"234050","863-TW","2017/11/27 19:49:54","新北市永和區保安路2號","121.510808333333","25.0173933333333","6500400","永和區"
"234026","9381-KE","2017/11/27 19:49:39","新北市永和區雙和街52巷2號","121.50906","25.00315","6500400","永和區"
"234011","9373-KE","2017/11/27 19:49:47","新北市永和區仁愛路310號","121.503045","25.0074516666667","6500400","永和區"
"249001","173-UM","2017/11/27 19:49:41","新北市八里區中華路二段252號","121.405373333333","25.1496583333333","6502300","八里區"
"249004","303-UY","2017/11/27 19:48:58","新北市八里區中山路一段268巷50號","121.414791666667","25.1609866666667","6502300","八里區"
"249002","305-UY","2017/11/27 19:49:43","新北市八里區頂寮五街20號","121.451383333333","25.126175","6502300","八里區"
"249003","593-UM","2017/11/27 19:49:47","新北市八里區中華路二段552號","121.39863","25.1453883333333","6502300","八里區"
"248016","026-BX","2017/11/27 19:49:39","新北市五股區成泰路三段601巷17-1號","121.451735","25.1033083333333","6501500","五股區"
"248008","095-VK","2017/11/27 19:49:38","新北市五股區四維路171巷5號","121.467515","25.0751466666667","6501500","五股區"
"248018","225-UY","2017/11/27 19:47:51","新北市五股區外寮路1-1號","121.425735","25.0767633333333","6501500","五股區"
"248012","247-BX","2017/11/27 19:49:57","新北市五股區蓬萊路24號","121.433888333333","25.0799133333333","6501500","五股區"
"248014","261-SL","2017/11/27 19:49:56","新北市五股區五福路42巷8號","121.434266666667","25.0895433333333","6501500","五股區"
"248010","272-BY","2017/11/27 19:49:54","新北市五股區登林路74-3號","121.43105","25.0693233333333","6501500","五股區"
"248004","677-BX","2017/11/27 19:49:38","新北市五股區成泰路一段169號","121.435188333333","25.0745816666667","6501500","五股區"
"248002","678-BX","2017/11/27 19:49:39","新北市五股區成泰路四段15-3號","121.453146666667","25.10682","6501500","五股區"
"234077","969-R7","2017/11/27 19:49:45","新北市永和區中正路244號","121.51649","24.9982683333333","6500400","永和區"
"234074","AAC-211","2017/11/27 19:49:39","新北市永和區竹林路179巷28號","121.521758333333","25.0100183333333","6500400","永和區"
"234067","AAC-212","2017/11/27 19:49:43","新北市永和區保平路236巷20號","121.508256666667","25.00694","6500400","永和區"
"234003","AAC-295","2017/11/27 19:49:35","新北市永和區福和路343號","121.515506666667","25.0072066666667","6500400","永和區"
"243011","267-VK","2017/11/27 19:49:54","新北市泰山區明志路三段196巷21弄26號","121.422555","25.03852","6501600","泰山區"
"243012","AAD-798","2017/11/27 19:49:44","新北市泰山區全興路13號","121.432295","25.058935","6501600","泰山區"
"243009","297-R6","2017/11/27 19:49:50","新北市泰山區美寧街60號","121.430891666667","25.064655","6501600","泰山區"
"243015","380-SR","2017/11/27 19:49:53","新北市泰山區明志路二段237巷24號","121.427951666667","25.0478883333333","6501600","泰山區"
"243014","421-VK","2017/11/27 19:49:48","新北市泰山區泰林路二段33-8號","121.435213333333","25.0565266666667","6501600","泰山區"
"243010","KEA-2215","2017/11/27 19:49:43","新北市泰山區民生路33號","121.430578333333","25.0522616666667","6501600","泰山區"
"243013","646-TV","2017/11/27 19:49:41","新北市泰山區應化街13號","121.423813333333","25.0437116666667","6501600","泰山區"
"243016","680-BX","2017/11/27 19:49:46","新北市泰山區新北大道七段87號","121.418103333333","25.03202","6501600","泰山區"
"222003","436-BY","2017/11/27 19:31:46","新北市深坑區深南路51-1號","121.621108333333","25.010025","6501800","深坑區"
"222002","659-BX","2017/11/27 19:49:45","新北市深坑區北深路二段20號","121.62062","25.0044616666667","6501800","深坑區"
"231059","046-UY","2017/11/27 19:49:52","新北市新店區安和路一段15號","121.516898333333","24.9641866666667","6500600","新店區"
"231061","047-UY","2017/11/27 19:49:58","新北市新店區安民街263號","121.51735","24.9727483333333","6500600","新店區"
"231060","106-UY","2017/11/27 19:49:47","新北市新店區安康路二段199號","121.509196666667","24.95894","6500600","新店區"
"231051","107-UY","2017/11/27 19:49:47","新北市新店區中央二街42-1號","121.527466666667","24.9740966666667","6500600","新店區"
"231047","108-UY","2017/11/27 19:49:51","新北市新店區五峰路57-1號","121.54728","24.97083","6500600","新店區"
"231052","187-VK","2017/11/27 19:49:39","新北市新店區新烏路三段118號","121.552701666667","24.9033333333333","6500600","新店區"
"231050","KEA-2219","2017/11/27 19:49:52","新北市新店區北宜路二段579巷4號","121.565183333333","24.9538233333333","6500600","新店區"
"231057","256-BX","2017/11/27 19:49:40","新北市新店區梅崗三路1號","121.55837","24.9312433333333","6500600","新店區"
"231063","268-BY","2017/11/27 19:49:48","新北市新店區車子路11號","121.503051666667","24.952045","6500600","新店區"
"231046","278-BY","2017/11/27 19:49:56","新北市新店區三民路159巷19弄46號","121.53218","24.9732233333333","6500600","新店區"
"231054","AAD-862","2017/11/27 19:49:49","新北市新店區光明街75號","121.538838333333","24.9606516666667","6500600","新店區"
"231040","355-BY","2017/11/27 19:49:52","新北市新店區北新路一段96巷23號","121.543016666667","24.96877","6500600","新店區"
"231058","3712-VJ","2017/11/27 19:49:56","新北市新店區光華街38巷3號","121.515586666667","24.9698966666667","6500600","新店區"
"231055","4716-K9","2017/11/27 19:49:46","新北市新店區新生街1號","121.540358333333","24.9656033333333","6500600","新店區"
"231064","515-UM","2017/11/27 19:49:46","新北市新店區安和路二段113巷1弄2號","121.518285","24.9701933333333","6500600","新店區"
"231042","616-UM","2017/11/27 19:49:37","新北市新店區中興路一段283號","121.5454","24.9684083333333","6500600","新店區"
"231041","618-UM","2017/11/27 19:49:35","新北市新店區中央路125號","121.530578333333","24.974145","6500600","新店區"
"231068","718-UY","2017/11/27 19:49:49","新北市新店區安華路28-1號","121.51926","24.961205","6500600","新店區"
"231049","719-UM","2017/11/27 19:49:46","新北市新店區民權路127巷13號","121.53569","24.981715","6500600","新店區"
"231065","719-UY","2017/11/27 19:49:57","新北市新店區安祥路109巷108號","121.477311666667","24.9588066666667","6500600","新店區"
"231062","720-UM","2017/11/27 19:49:56","新北市新店區永業路91號","121.529091666667","24.9489466666667","6500600","新店區"
"231044","897-TW","2017/11/27 19:49:42","新北市新店區復興路66號","121.537811666667","24.9868516666667","6500600","新店區"
"231045","898-TW","2017/11/27 19:49:37","新北市新店區北宜路二段384號","121.564563333333","24.952795","6500600","新店區"
"231043","899-TW","2017/11/27 19:49:57","新北市新店區中正路199號","121.540355","24.9725283333333","6500600","新店區"
"241011","013-R5","2017/11/27 19:49:46","新北市三重區三和路二段228號","121.497643333333","25.06979","6500200","三重區"
"241028","022-UY","2017/11/27 19:49:40","新北市三重區中正南路157號","121.493791666667","25.0561016666667","6500200","三重區"
"241008","059-VK","2017/11/27 19:49:56","新北市三重區永福街90號","121.478773333333","25.076285","6500200","三重區"
"241009","060-VK","2017/11/27 19:49:44","新北市三重區三和路四段396巷2-1號","121.48143","25.0791866666667","6500200","三重區"
"241031","061-VK","2017/11/27 19:49:44","新北市三重區重新路四段246-2號","121.485995","25.0535166666667","6500200","三重區"
"241015","062-VK","2017/11/27 19:49:56","新北市三重區三和路一段2號","121.503853333333","25.0642333333333","6500200","三重區"
"241017","063-VK","2017/11/27 19:49:35","新北市三重區重陽路三段5巷6號","121.48936","25.0662333333333","6500200","三重區"
"241024","065-VK","2017/11/27 19:49:48","新北市三重區大勇街82巷5號","121.479381666667","25.0714366666667","6500200","三重區"
"241026","066-VK","2017/11/27 19:49:39","新北市三重區文化南路42號","121.500418333333","25.06024","6500200","三重區"
"241003","091-VK","2017/11/27 19:49:53","新北市三重區五華街93巷49號","121.493001666667","25.0843533333333","6500200","三重區"
"241016","266-UM","2017/11/27 19:49:58","新北市三重區正義北路16巷24號","121.496818333333","25.0627733333333","6500200","三重區"
"241022","267-UM","2017/11/27 19:49:37","新北市三重區過圳街31巷2號","121.489178333333","25.0605516666667","6500200","三重區"
"241018","268-UM","2017/11/27 19:49:45","新北市三重區自強路一段157號","121.493335","25.0672416666667","6500200","三重區"
"241032","269-UM","2017/11/27 19:49:47","新北市三重區重陽路一段44巷12號","121.485745","25.057755","6500200","三重區"
"241013","270-UM","2017/11/27 19:49:50","新北市三重區仁愛街118號","121.495166666667","25.074525","6500200","三重區"
"241025","271-UM","2017/11/27 19:49:45","新北市三重區大有街1-1號","121.477665","25.0653466666667","6500200","三重區"
"241007","398-BY","2017/11/27 19:49:55","新北市三重區三和路四段133號","121.484658333333","25.0779166666667","6500200","三重區"
"241019","478-VK","2017/11/27 19:49:49","新北市三重區自強路二段74巷23-1號","121.487826666667","25.06978","6500200","三重區"
"241030","480-VK","2017/11/27 19:49:53","新北市三重區環河南路254巷22號","121.490281666667","25.05101","6500200","三重區"
"241023","545-UM","2017/11/27 19:49:46","新北市三重區大有街1-1號","121.477595","25.06559","6500200","三重區"
"241001","547-UM","2017/11/27 19:49:47","新北市三重區仁愛街327巷41號","121.493298333333","25.0800566666667","6500200","三重區"
"241006","AAD-863","2017/11/27 19:49:42","新北市三重區永福街287號","121.483101666667","25.0743916666667","6500200","三重區"
"241035","743-BX","2017/11/27 19:49:40","新北市三重區大榮街53號","121.499233333333","25.0635416666667","6500200","三重區"
"241012","941-UM","2017/11/27 19:49:48","新北市三重區仁興街42巷16號","121.498165","25.075385","6500200","三重區"
"241029","942-UM","2017/11/27 19:49:53","新北市三重區光明路29號","121.491293333333","25.0584733333333","6500200","三重區"
"241033","AAC-255","2017/11/27 19:49:40","新北市三重區中興南街29-1號","121.470571666667","25.043915","6500200","三重區"
"235066","003-UY","2017/11/27 19:49:49","新北市中和區南工路26號","121.505561666667","25.0008083333333","6500300","中和區"
"235063","006-UY","2017/11/27 19:49:53","新北市中和區連城路263巷9弄2號","121.49237","24.9955016666667","6500300","中和區"
"235056","096-UM","2017/11/27 19:49:42","新北市中和區中山路三段112號","121.476181666667","25.0060283333333","6500300","中和區"
"235039","097-UM","2017/11/27 19:49:54","新北市中和區景平路128號","121.518961666667","24.991745","6500300","中和區"
"235065","098-UM","2017/11/27 19:49:48","新北市中和區莊敬路29號","121.500335","25.004725","6500300","中和區"
"235040","150-BY","2017/11/27 19:49:38","新北市中和區安平路31號","121.509511666667","24.99479","6500300","中和區"
"235058","151-BY","2017/11/27 19:49:45","新北市中和區員山路153-1號","121.481061666667","24.9964066666667","6500300","中和區"
"235055","183-VK","2017/11/27 19:49:43","新北市中和區德光路27巷1弄2號","121.470871666667","25.003915","6500300","中和區"
"235002","185-VK","2017/11/27 19:49:41","新北市中和區大智街55巷30弄32號","121.521571666667","24.9932633333333","6500300","中和區"
"235049","186-VK","2017/11/27 19:49:36","新北市中和區中正路72號","121.500861666667","24.9936983333333","6500300","中和區"
"235067","255-BX","2017/11/27 19:49:44","新北市中和區新生街220巷1弄6號","121.483265","24.9981533333333","6500300","中和區"
"235044","293-VK","2017/11/27 19:49:40","新北市中和區南山路198號","121.506001666667","24.9905333333333","6500300","中和區"
"235043","352-BY","2017/11/27 19:49:56","新北市中和區興南路二段159巷7號","121.505298333333","24.98317","6500300","中和區"
"235068","377-QA","2017/11/27 19:49:50","新北市中和區永和路56號","121.499281666667","25.0041633333333","6500300","中和區"
"235061","378-QA","2017/11/27 19:49:53","新北市中和區員山路226巷18-1號","121.481755","25.0004583333333","6500300","中和區"
"235071","269-TV","2017/11/27 19:49:47","新北市中和區永和路335號","121.484818333333","25.0115033333333","6500300","中和區"
"235050","4979-A6","2017/11/27 19:49:53","新北市中和區和平街164巷4號","121.506051666667","24.992425","6500300","中和區"
"235069","4980-A6","2017/11/27 19:49:54","新北市中和區中正路589巷15號","121.485851666667","24.993765","6500300","中和區"
"235042","551-UM","2017/11/27 19:49:48","新北市中和區景安路79巷37弄8號","121.507795","24.9962016666667","6500300","中和區"
"235070","558-UM","2017/11/27 19:49:42","新北市中和區景平路634-3號","121.499426666667","24.9988916666667","6500300","中和區"
"235045","565-BX","2017/11/27 19:49:53","新北市中和區景平路157號","121.513153333333","24.992435","6500300","中和區"
"235054","640-BX","2017/11/27 19:49:54","新北市中和區莒光路49號","121.47218","25.0046233333333","6500300","中和區"
"235060","647-TV","2017/11/27 19:49:50","新北市中和區員山路390號","121.480525","25.00456","6500300","中和區"
"235047","732-UM","2017/11/27 19:49:57","新北市中和區和平街74號","121.50781","24.9911166666667","6500300","中和區"
"235046","733-UM","2017/11/27 19:49:47","新北市中和區仁愛街55號","121.511295","24.98791","6500300","中和區"
"235062","800-TS","2017/11/27 19:49:50","新北市八里區商港路48號","121.395358333333","25.1448116666667","6500300","中和區"
"235057","801-TS","2017/11/27 19:49:52","新北市中和區員山路146號","121.48125","24.9968733333333","6500300","中和區"
"235041","802-TS","2017/11/27 19:49:52","新北市中和區永貞路264號","121.513825","25.0036583333333","6500300","中和區"
"235052","805-TS","2017/11/27 19:49:53","新北市中和區華新街30巷15號","121.507105","24.9842066666667","6500300","中和區"
"235048","896-TW","2017/11/27 19:49:53","新北市中和區興南路一段129號","121.508901666667","24.9877366666667","6500300","中和區"
"235053","900-TW","2017/11/27 19:49:40","新北市中和區民德路146巷14號","121.467846666667","25.00052","6500300","中和區"
"235064","911-UM","2017/11/27 19:49:49","新北市中和區南山路81巷58號","121.503916666667","24.9981","6500300","中和區"
"235037","157-BY","2017/11/27 19:49:44","新北市中和區中興街123號","121.499956666667","24.99176","6500300","中和區"
"235037","AAC-213","2017/11/27 19:49:39","新北市中和區秀朗路三段159號","121.524753333333","24.99211","6500300","中和區"
"235059","AAC-215","2017/11/27 19:49:38","新北市中和區圓通路305巷17號","121.494375","24.9893383333333","6500300","中和區"
"220068","013-TV","2017/11/27 19:49:40","新北市板橋區中山路二段422-1號","121.483171666667","25.0211633333333","6500100","板橋區"
"220065","072-UY","2017/11/27 19:49:55","新北市板橋區國泰街39巷6弄1號","121.46857","25.0055933333333","6500100","板橋區"
"220086","073-UY","2017/11/27 19:49:20","新北市板橋區光華街2號","121.454358333333","25.0112233333333","6500100","板橋區"
"220106","075-UY","2017/11/27 19:49:55","新北市板橋區民治街57巷32-1號","121.480121666667","25.0343283333333","6500100","板橋區"
"220069","AAD-861","2017/11/27 19:49:58","新北市板橋區南雅南路二段18號","121.454678333333","25.0036","6500100","板橋區"
"220102","120-SR","2017/11/27 19:49:50","新北市板橋區松柏街31號","121.475191666667","25.030305","6500100","板橋區"
"247008","341-TH","2017/11/27 19:49:55","新北市蘆洲區中山一路49號","121.478816666667","25.0809666666667","6501400","蘆洲區"
"247002","337-TH","2017/11/27 19:49:46","新北市蘆洲區永樂街38巷69號","121.458581666667","25.0905233333333","6501400","蘆洲區"
"247004","336-TH","2017/11/27 19:49:40","新北市蘆洲區中原路38號","121.459865","25.0826733333333","6501400","蘆洲區"
"247006","056-VK","2017/11/27 19:49:41","新北市蘆洲區永安南路二段44-1號","121.46648","25.0774866666667","6501400","蘆洲區"
"247014","007-UY","2017/11/27 19:49:37","新北市蘆洲區中央路89號","121.472746666667","25.0842466666667","6501400","蘆洲區"
"226004","312-R5","2017/11/27 19:49:53","新北市平溪區南山里南山坪15號","121.768325","25.03366","6502400","平溪區"
"228003","097-TW","2017/11/27 19:49:43","新北市貢寮區真理里美艷山街3-1號","121.925545","25.0594133333333","6502600","貢寮區"
"228001","212-TW","2017/11/27 19:49:52","新北市貢寮區仁理村仁愛路95-1號","121.927416666667","25.055645","6502600","貢寮區"
"224010","AGQ-8101","2017/11/27 19:49:43","新北市瑞芳區輕便路342號","121.839693333333","25.1087483333333","6501200","瑞芳區"
"224002","639-TC","2017/11/27 19:49:42","新北市瑞芳區員山子路員山巷1號","121.816791666667","25.103635","6501200","瑞芳區"
"227008","642-TC","2017/11/27 19:49:52","新北市雙溪區新基里朝陽街2號","121.86645","25.038765","6502500","雙溪區"
"227001","400-TW","2017/11/27 19:49:49","新北市雙溪區雙溪里內挖路47號","121.863203333333","25.0368016666667","6502500","雙溪區"
"222001","KEA-2212","2017/11/27 19:49:55","新北市深坑區北深路三段57號","121.607676666667","25.0013283333333","6501800","深坑區"
"208002","742-BX","2017/11/27 19:49:40","新北市金山區中華路366-1號","121.633268333333","25.2245133333333","6502700","金山區"
"208003","665-BX","2017/11/27 19:49:41","新北市金山區環金路341號","121.630546666667","25.2240933333333","6502700","金山區"
"208001","761-BX","2017/11/27 19:49:43","新北市金山區重和里六股林口7號","121.599431666667","25.21077","6502700","金山區"
"251009","008-UM","2017/11/27 19:49:50","新北市淡水區中正路38-1號","121.443748333333","25.1692583333333","6501000","淡水區"
"251004","009-UM","2017/11/27 19:49:48","新北市淡水區民權路177巷53號","121.460423333333","25.13384","6501000","淡水區"
"251005","010-UM","2017/11/27 19:49:40","新北市淡水區中山路18-1號","121.444538333333","25.16916","6501000","淡水區"
"251007","179-VK","2017/11/27 19:49:58","新北市淡水區竿蓁一街113號","121.455245","25.166285","6501000","淡水區"
"251008","181-VK","2017/11/27 19:49:35","新北市淡水區中正路二段24巷2-1號","121.426768333333","25.1768883333333","6501000","淡水區"
"251013","182-VK","2017/11/27 19:49:48","新北市淡水區頂田寮2-1號","121.460171666667","25.2133483333333","6501000","淡水區"
"251012","441-VK","2017/11/27 19:49:39","新北市淡水區淡金路三段27號","121.446323333333","25.1972816666667","6501000","淡水區"
"251015","442-VK","2017/11/27 19:49:44","新北市淡水區泉洲厝26號","121.484176666667","25.19039","6501000","淡水區"
"251001","559-UM","2017/11/27 19:49:38","新北市淡水區中正東路二段37號","121.459325","25.15619","6501000","淡水區"
"251006","561-UM","2017/11/27 19:49:44","新北市淡水區水碓街15號","121.443523333333","25.1769416666667","6501000","淡水區"
"251011","650-BX","2017/11/27 19:49:43","新北市淡水區北投子14-3號","121.449373333333","25.1830666666667","6501000","淡水區"
"251002","672-BX","2017/11/27 19:49:50","新北市淡水區中正路二段31號","121.419288333333","25.1820083333333","6501000","淡水區"
"207003","550-UM","2017/11/27 19:49:45","新北市萬里區大鵬里萬里加投202號","121.642726666667","25.2162766666667","6502800","萬里區"
"207004","225-TW","2017/11/27 19:49:50","新北市萬里區萬里里瑪鋉路261號","121.689798333333","25.1797733333333","6502800","萬里區"
"252002","178-VK","2017/11/27 19:49:47","新北市三芝區三民街33-1號","121.50464","25.2585633333333","6502100","三芝區"
"252001","292-VK","2017/11/27 19:49:47","新北市三芝區公正街66號","121.499801666667","25.2574633333333","6502100","三芝區"
"237004","078-UY","2017/11/27 19:49:54","新北市三峽區添福141-1號","121.37462","24.9001516666667","6500900","三峽區"
"237007","153-BY","2017/11/27 19:49:55","新北市三峽區二鬮路136巷18弄22號","121.358863333333","24.90882","6500900","三峽區"
"237009","210-TH","2017/11/27 19:49:57","新北市三峽區中園街29號","121.368263333333","24.92657","6500900","三峽區"
"237013","252-BX","2017/11/27 19:49:48","新北市三峽區溪北街72號","121.397391666667","24.9357","6500900","三峽區"
"237012","275-BY","2017/11/27 19:49:44","新北市三峽區中華路11巷1號","121.37409","24.9323133333333","6500900","三峽區"
"237008","302-VK","2017/11/27 19:49:58","新北市三峽區大同路147巷7號","121.371175","24.92647","6500900","三峽區"
"237006","5529-G3","2017/11/27 19:49:39","新北市三峽區中正路一段336巷15弄2號","121.36992","24.9249466666667","6500900","三峽區"
"237015","649-BX","2017/11/27 19:49:46","新北市三峽區溪東路218巷2-2號","121.407446666667","24.9317866666667","6500900","三峽區"
"237010","706-TV","2017/11/27 19:20:41","新北市三峽區復興路9號","121.374215","24.9360666666667","6500900","三峽區"
"237005","AKY-6261","2017/11/27 19:49:44","新北市三峽區民生街119-3號","121.37367","24.9352883333333","6500900","三峽區"
"236069","105-UM","2017/11/27 19:49:51","新北市土城區中央路二段192巷5號","121.441251666667","24.9759116666667","6501300","土城區"
"236042","107-UM","2017/11/27 19:49:57","新北市土城區金城路二段245巷42號","121.45541","24.9832033333333","6501300","土城區"
"236030","253-BX","2017/11/27 19:49:38","新北市土城區中央路一段318巷4弄12號","121.443191666667","24.9824233333333","6501300","土城區"
"236026","269-VK","2017/11/27 19:49:53","新北市土城區中央路二段61巷32號","121.443476666667","24.9785466666667","6501300","土城區"
"236036","271-VK","2017/11/27 19:49:56","新北市土城區國際路158巷54號","121.467993333333","24.9749466666667","6501300","土城區"
"236020","401-BY","2017/11/27 19:49:37","新北市土城區峰廷街3號","121.469113333333","24.9873383333333","6501300","土城區"
"236078","752-BX","2017/11/27 19:49:36","新北市土城區溪頭路7巷2號","121.41279","24.9554383333333","6501300","土城區"
"236058","912-UM","2017/11/27 19:49:56","新北市土城區中央路二段6-3號","121.442981666667","24.980835","6501300","土城區"
"236048","913-UM","2017/11/27 19:49:41","新北市土城區青雲路309號","121.459048333333","24.9791416666667","6501300","土城區"
"236062","915-UM","2017/11/27 19:49:50","新北市土城區延和路105巷3弄1號","121.467375","24.9908366666667","6501300","土城區"
"236053","AAC-216","2017/11/27 19:49:59","新北市土城區延和路90號","121.466511666667","24.9894716666667","6501300","土城區"
"242031","AAC-296","2017/11/27 19:49:58","新北市新莊區仁愛街73號","121.443895","25.0377466666667","6500500","新莊區"
"242029","986-R7","2017/11/27 19:49:49","新北市新莊區幸福路914號","121.442448333333","25.0487483333333","6500500","新莊區"
"242027","612-BX","2017/11/27 19:49:41","新北市新莊區中平路181號","121.444751666667","25.0489716666667","6500500","新莊區"
"242044","497-BY","2017/11/27 19:49:42","新北市新莊區新北大道七段712號","121.412396666667","25.0264316666667","6500500","新莊區"
"242034","442-UM","2017/11/27 19:49:53","新北市新莊區公園一路113號","121.445003333333","25.0380083333333","6500500","新莊區"
"242048","441-UM","2017/11/27 19:49:44","新北市新莊區建安街76巷5弄15號","121.425615","25.025","6500500","新莊區"
"242004","413-TV","2017/11/27 19:49:41","新北市新莊區化成路63巷24弄26號","121.461881666667","25.0460833333333","6500500","新莊區"
"242060","362-BY","2017/11/27 19:49:49","新北市新莊區新莊路771巷10號","121.442026666667","25.0318716666667","6500500","新莊區"
"242058","353-BY","2017/11/27 19:49:48","新北市新莊區八德街45號","121.424878333333","25.02226","6500500","新莊區"
"242036","133-UY","2017/11/27 19:49:52","新北市新莊區建安街89號","121.427215","25.0244766666667","6500500","新莊區"
"242021","135-UY","2017/11/27 19:49:54","新北市新莊區新泰路147號","121.448036666667","25.036645","6500500","新莊區"
"242009","173-VK","2017/11/27 19:49:44","新北市新莊區三和路12-21號","121.44182","25.0386416666667","6500500","新莊區"
"242013","346-TH","2017/11/27 19:49:52","新北市新莊區中泰街38巷10號","121.45078","25.047355","6500500","新莊區"
"242019","348-TH","2017/11/27 19:49:45","新北市新莊區中港路182號","121.45487","25.0421033333333","6500500","新莊區"
"242017","350-TH","2017/11/27 19:49:43","新北市新莊區中華路一段226號","121.452626666667","25.0429816666667","6500500","新莊區"
"242011","351-TH","2017/11/27 19:49:36","新北市新莊區中信街98號","121.447813333333","25.0537216666667","6500500","新莊區"
"238015","755-BX","2017/11/27 19:49:40","新北市樹林區日新街70巷5號","121.421471666667","24.9908816666667","6500700","樹林區"
"238023","601-UM","2017/11/27 19:49:40","新北市樹林區三福街138號","121.40562","25.0159583333333","6500700","樹林區"
"238021","KEA-2217","2017/11/27 19:49:47","新北市樹林區佳園路三段181巷10號","121.386101666667","24.9479316666667","6500700","樹林區"
"238025","303-VK","2017/11/27 19:49:49","新北市樹林區中山路三段183號","121.39452","24.9724716666667","6500700","樹林區"
"238017","283-BY","2017/11/27 19:49:57","新北市樹林區保安街二段37-1號","121.41609","25.0001433333333","6500700","樹林區"
"238014","282-BY","2017/11/27 19:49:44","新北市樹林區千歲街80號","121.426273333333","24.9977283333333","6500700","樹林區"
"239006","891-R6","2017/11/27 19:49:40","新北市鶯歌區重慶街26號","121.351185","24.9522933333333","6500800","鶯歌區"
"221008","489-VK","2017/11/27 19:49:45","新北市汐止區康寧街39號","121.618525","25.0667783333333","6501100","汐止區"
"221036","130-UY","2017/11/27 19:49:48","新北市汐止區汐萬路一段242號","121.651546666667","25.0730816666667","6501100","汐止區"
"221010","269-BY","2017/11/27 19:49:49","新北市汐止區汐萬路一段418巷3號","121.649605","25.0785616666667","6501100","汐止區"
"221012","278-VK","2017/11/27 19:49:56","新北市汐止區大同路三段380號","121.681286666667","25.0714783333333","6501100","汐止區"
"221023","279-VK","2017/11/27 19:49:37","新北市汐止區民族六街5巷1號","121.629821666667","25.0698283333333","6501100","汐止區"
"221032","280-BY","2017/11/27 19:49:50","新北市汐止區橫科路367巷26號","121.623345","25.0482933333333","6501100","汐止區"
"221027","281-BY","2017/11/27 19:49:49","新北市汐止區忠孝東路9號","121.658261666667","25.065855","6501100","汐止區"
"221029","298-VK","2017/11/27 19:49:46","新北市汐止區康寧街901號","121.651405","25.0749533333333","6501100","汐止區"
"221021","299-VK","2017/11/27 19:49:56","新北市汐止區新興路108號","121.657276666667","25.0609216666667","6501100","汐止區"
"221031","353-TW","2017/11/27 19:49:49","新北市汐止區福德三路127號","121.63352","25.06758","6501100","汐止區"
"221015","567-BX","2017/11/27 19:49:52","新北市汐止區大同路二段533號","121.661841666667","25.0690616666667","6501100","汐止區"
"221035","622-UM","2017/11/27 19:49:55","新北市汐止區長江街13巷6弄1號","121.654713333333","25.071815","6501100","汐止區"
"221025","623-UM","2017/11/27 19:49:43","新北市汐止區秀峰路81巷18號","121.660805","25.0643766666667","6501100","汐止區"
"221038","646-BX","2017/11/27 19:49:37","新北市汐止區忠孝東路409號","121.665841666667","25.0712283333333","6501100","汐止區"
"221033","647-BX","2017/11/27 19:49:58","新北市汐止區東勢街76巷100-1號","121.636378333333","25.0388833333333","6501100","汐止區"
"221018","753-BX","2017/11/27 19:49:52","新北市汐止區汐萬路一段2號","121.656298333333","25.0670883333333","6501100","汐止區"
"220079","145-BY","2017/11/27 19:49:51","新北市板橋區大仁街35號","121.4553","25.0165866666667","6500100","板橋區"
"220080","200-UY","2017/11/27 19:49:47","新北市板橋區大觀路二段37巷38號","121.448596666667","25.00271","6500100","板橋區"
"220082","610-BX","2017/11/27 19:49:53","新北市板橋區溪北路65號","121.428001666667","24.98967","6500100","板橋區"
"220101","245-BX","2017/11/27 19:49:53","新北市板橋區縣民大道三段93巷21號","121.474831666667","25.022415","6500100","板橋區"
"220091","267-BY","2017/11/27 19:49:48","新北市板橋區懷德街127巷23弄9號","121.479358333333","25.03156","6500100","板橋區"
"220056","276-BY","2017/11/27 19:49:37","新北市板橋區南雅南路二段116號","121.454343333333","25.0000566666667","6500100","板橋區"
"220072","277-BY","2017/11/27 19:49:38","新北市板橋區金門街194-4號","121.432591666667","24.9905116666667","6500100","板橋區"
"220094","283-UM","2017/11/27 19:49:39","新北市板橋區長江路一段105巷1-1號","121.459305","25.0300033333333","6500100","板橋區"
"220071","283-VK","2017/11/27 19:49:57","新北市板橋區五權街32巷20號","121.464173333333","24.9928633333333","6500100","板橋區"
"220053","285-VK","2017/11/27 19:49:42","新北市板橋區中山路二段60巷1弄28號","121.47522","25.015815","6500100","板橋區"
"220083","286-VK","2017/11/27 19:49:49","新北市板橋區僑中二街8巷15號","121.446436666667","25.0112383333333","6500100","板橋區"
"220081","287-VK","2017/11/27 19:49:49","新北市板橋區大觀路一段29巷131弄12號","121.450608333333","25.0050916666667","6500100","板橋區"
"220090","288-VK","2017/11/27 19:49:40","新北市板橋區龍泉街54巷8弄12號","121.45744","25.0268916666667","6500100","板橋區"
"220061","293-UM","2017/11/27 19:49:53","新北市板橋區漢生東路113巷6弄2號","121.467698333333","25.0152783333333","6500100","板橋區"
"220084","296-UM","2017/11/27 19:49:52","新北市板橋區溪崑二街110號","121.426445","24.9884883333333","6500100","板橋區"
"220075","297-UM","2017/11/27 19:49:47","新北市板橋區大勇街2號","121.455803333333","25.017745","6500100","板橋區"
"242001","281-VK","2017/11/27 14:47:05","新北市新莊區環河路636-7號","121.437341666667","25.0113116666667","6500500","新莊區"
"220062","305-R5","2017/11/27 19:49:57","新北市板橋區中山路二段416巷54弄7號","121.482485","25.0192633333333","6500100","板橋區"
"220092","307-R5","2017/11/27 19:49:55","新北市板橋區四維路259巷27號","121.461936666667","25.0273483333333","6500100","板橋區"
"220098","317-R6","2017/11/27 19:49:48","新北市板橋區新海路389號","121.458895","25.0263133333333","6500100","板橋區"
"220064","486-VK","2017/11/27 19:49:56","新北市板橋區縣民大道一段286號","121.46138","25.0100866666667","6500100","板橋區"
"220089","487-VK","2017/11/27 19:49:55","新北市板橋區綠堤街41-1號","121.455213333333","25.0260033333333","6500100","板橋區"
"220088","491-VK","2017/11/27 19:49:39","新北市板橋區懷德街55號","121.477276666667","25.032785","6500100","板橋區"
"220035","560-BX","2017/11/27 19:49:23","新北市板橋區金華街102號","121.458488333333","25.020715","6500100","板橋區"
"220103","561-BX","2017/11/27 19:49:42","新北市板橋區陽明街46-2號","121.465638333333","25.021955","6500100","板橋區"
"220063","609-BX","2017/11/27 19:49:53","新北市板橋區中山路二段363號","121.47979","25.0190983333333","6500100","板橋區"
"220057","686-BX","2017/11/27 19:49:47","新北市板橋區和平路安樂巷1弄1-1號","121.461393333333","24.993975","6500100","板橋區"
"220077","687-BX","2017/11/27 19:49:45","新北市板橋區僑中一街124巷11弄1號","121.445936666667","25.0128433333333","6500100","板橋區"
"220093","689-BX","2017/11/27 19:49:39","新北市板橋區長江路二段165號","121.466508333333","25.0319866666667","6500100","板橋區"
"220054","741-BX","2017/11/27 19:49:46","新北市板橋區實踐路93巷33號","121.46544","25.005405","6500100","板橋區"
"220055","827-TW","2017/11/27 19:49:36","新北市板橋區國慶路149巷4弄18-3號","121.46196","24.99702","6500100","板橋區"
"220067","829-TW","2017/11/27 19:49:56","新北市板橋區漢生東路193巷69弄1號","121.472351666667","25.0121933333333","6500100","板橋區"
"220096","831-TW","2017/11/27 19:49:36","新北市板橋區文化路二段124巷34弄2號","121.471313333333","25.02532","6500100","板橋區"
"220074","895-R6","2017/11/27 19:49:42","新北市板橋區文化路一段32巷21弄14號","121.46032","25.0113516666667","6500100","板橋區"
"220073","985-R7","2017/11/27 19:49:42","新北市板橋區大仁街11號","121.45586","25.0168916666667","6500100","板橋區"
"220097","AAC-210","2017/11/27 19:49:44","新北市板橋區文化路一段299-1號","121.464665","25.0192116666667","6500100","板橋區"
"220070","AAC-253","2017/11/27 19:49:46","新北市板橋區民族路83號","121.465681666667","25.0086116666667","6500100","板橋區"
