"lineid","car","time","location","longitude","latitude","cityid","cityname"
"234046","148-BY","2017/11/27 20:09:57","新北市永和區得和路395號","121.525393333333","24.999255","6500400","永和區"
"234013","149-BY","2017/11/27 20:09:50","新北市永和區永貞路387號","121.508078333333","25.008615","6500400","永和區"
"234007","207-UY","2017/11/27 20:09:45","新北市永和區保順路37巷13號","121.502953333333","25.0103383333333","6500400","永和區"
"234081","298-R6","2017/11/27 20:09:42","新北市永和區國中路148號","121.523005","25.0070266666667","6500400","永和區"
"234038","336-UY","2017/11/27 20:09:54","新北市永和區成功路一段46號","121.526935","25.0042416666667","6500400","永和區"
"234064","337-UY","2017/11/27 20:09:36","新北市永和區永利路156號","121.522615","25.0027066666667","6500400","永和區"
"234086","338-UY","2017/11/27 20:09:45","新北市永和區中正路523號","121.516923333333","25.0074833333333","6500400","永和區"
"234070","552-UM","2017/11/27 20:09:47","新北市永和區福和路183巷1號","121.520008333333","25.0072966666667","6500400","永和區"
"234054","553-UM","2017/11/27 20:09:44","新北市永和區博愛街21巷1號","121.51764","25.0158583333333","6500400","永和區"
"234017","745-BX","2017/11/27 20:09:55","新北市永和區文化路170號","121.511828333333","25.015575","6500400","永和區"
"234030","746-BX","2017/11/27 20:09:48","新北市永和區民權路49巷37號","121.522011666667","24.9975866666667","6500400","永和區"
"234061","AAD-866","2017/11/27 20:09:51","新北市永和區中正路151巷5弄1號","121.515973333333","24.998575","6500400","永和區"
"234042","862-TW","2017/11/27 20:09:48","新北市永和區雙和街60號","121.508976666667","25.0033416666667","6500400","永和區"
"234050","863-TW","2017/11/27 20:09:54","新北市永和區保安路292號","121.505178333333","25.0118533333333","6500400","永和區"
"234011","9373-KE","2017/11/27 20:09:47","新北市永和區仁愛路352巷122弄33號","121.50076","25.0093016666667","6500400","永和區"
"249005","172-UM","2017/11/27 20:09:51","新北市八里區福德新村1號","121.38608","25.1366166666667","6502300","八里區"
"249001","173-UM","2017/11/27 20:09:42","新北市八里區中華路二段320號","121.40345","25.1480066666667","6502300","八里區"
"249004","303-UY","2017/11/27 20:08:18","新北市八里區中山路一段157巷67號","121.412283333333","25.1578","6502300","八里區"
"249002","305-UY","2017/11/27 20:09:43","新北市八里區龍米路一段30巷10號","121.457361666667","25.1170683333333","6502300","八里區"
"249003","593-UM","2017/11/27 20:09:47","新北市八里區中山路二段540巷9弄17號","121.396571666667","25.14674","6502300","八里區"
"248016","026-BX","2017/11/27 20:09:46","新北市五股區天乙路67號","121.448151666667","25.1046316666667","6501500","五股區"
"248018","225-UY","2017/11/27 20:09:31","新北市五股區登林路92-5號","121.428585","25.0695","6501500","五股區"
"248012","247-BX","2017/11/27 20:09:37","新北市五股區六合街118號","121.430265","25.0907983333333","6501500","五股區"
"248014","261-SL","2017/11/27 20:09:56","新北市五股區五福路6巷23號","121.435591666667","25.0885716666667","6501500","五股區"
"248010","272-BY","2017/11/27 20:09:54","新北市五股區成泰路一段7巷22號","121.433038333333","25.0668766666667","6501500","五股區"
"248004","677-BX","2017/11/27 20:09:52","新北市五股區成泰路一段149-1號","121.435418333333","25.07326","6501500","五股區"
"248002","678-BX","2017/11/27 20:09:39","新北市五股區成泰路三段311-1號","121.447778333333","25.0948783333333","6501500","五股區"
"234023","9380-KE","2017/11/27 20:09:54","新北市永和區中正路662巷48號","121.51835","25.008795","6500400","永和區"
"234077","969-R7","2017/11/27 20:09:37","新北市永和區民光街5號","121.515346666667","24.996285","6500400","永和區"
"234074","AAC-211","2017/11/27 20:09:39","新北市永和區豫溪街134號","121.521023333333","25.0103683333333","6500400","永和區"
"234067","AAC-212","2017/11/27 20:09:43","新北市永和區保平路236巷12弄4號","121.508688333333","25.006475","6500400","永和區"
"234003","AAC-295","2017/11/27 20:09:56","新北市永和區自強街47號","121.516108333333","25.0078616666667","6500400","永和區"
"243011","267-VK","2017/11/27 20:09:53","新北市泰山區中山路三段6號","121.420948333333","25.0324666666667","6501600","泰山區"
"243012","AAD-798","2017/11/27 20:09:44","新北市泰山區楓江路58-5號","121.436106666667","25.0627183333333","6501600","泰山區"
"243009","297-R6","2017/11/27 20:09:50","新北市泰山區泰林路二段116巷6弄2號","121.435273333333","25.0595733333333","6501600","泰山區"
"243015","380-SR","2017/11/27 20:09:54","新北市泰山區明志路一段418號","121.430715","25.056645","6501600","泰山區"
"243014","421-VK","2017/11/27 20:09:51","新北市泰山區明志路一段43號","121.433633333333","25.0653116666667","6501600","泰山區"
"243010","KEA-2215","2017/11/27 20:09:49","新北市泰山區明志路二段214巷16弄47號","121.42686","25.0505583333333","6501600","泰山區"
"243013","646-TV","2017/11/27 20:09:41","新北市泰山區明志路三段77號","121.42501","25.04192","6501600","泰山區"
"243016","680-BX","2017/11/27 20:09:46","新北市泰山區貴陽街4-1號","121.42164","25.033175","6501600","泰山區"
"222003","436-BY","2017/11/27 20:09:42","新北市深坑區埔新街65號","121.620215","25.0023583333333","6501800","深坑區"
"222002","659-BX","2017/11/27 20:09:45","新北市深坑區北深路三段160號","121.602653333333","25.0035033333333","6501800","深坑區"
"231059","046-UY","2017/11/27 20:09:50","新北市新店區安德街53號","121.510998333333","24.9622166666667","6500600","新店區"
"231061","047-UY","2017/11/27 20:09:38","新北市新店區安興路35號","121.516173333333","24.97075","6500600","新店區"
"231060","106-UY","2017/11/27 20:09:47","新北市新店區安康路三段267號","121.486445","24.9518383333333","6500600","新店區"
"231051","107-UY","2017/11/27 20:09:47","新北市新店區中央一街37號","121.52761","24.9736083333333","6500600","新店區"
"231047","108-UY","2017/11/27 20:09:51","新北市新店區寶宏路32號","121.549441666667","24.97578","6500600","新店區"
"231052","187-VK","2017/11/27 20:09:39","新北市新店區新烏路三段286號","121.549888333333","24.8983083333333","6500600","新店區"
"231050","KEA-2219","2017/11/27 20:09:52","新北市新店區北新路一段96巷23號","121.542725","24.9686566666667","6500600","新店區"
"231057","256-BX","2017/11/27 20:09:40","新北市新店區花園一路一段2號","121.553146666667","24.9324916666667","6500600","新店區"
"231063","268-BY","2017/11/27 20:09:48","新北市新店區黎明路54巷2號","121.50234","24.9484633333333","6500600","新店區"
"231054","AAD-862","2017/11/27 20:09:49","新北市新店區檳榔路40號","121.541555","24.9637533333333","6500600","新店區"
"231040","355-BY","2017/11/27 20:09:52","新北市新店區中正路106號","121.543115","24.9706383333333","6500600","新店區"
"231056","3713-VJ","2017/11/27 20:09:58","新北市新店區北新路三段67號","121.54168","24.9811966666667","6500600","新店區"
"231055","4716-K9","2017/11/27 20:09:46","新北市新店區中華路48巷27號","121.541161666667","24.96948","6500600","新店區"
"231067","4715-K9","2017/11/27 20:09:46","新北市新店區秀山路66號","121.530651666667","24.96092","6500600","新店區"
"231064","515-UM","2017/11/27 20:09:49","新北市新店區安康路二段118-11號","121.513083333333","24.9635033333333","6500600","新店區"
"231042","616-UM","2017/11/27 20:09:57","新北市新店區中興路二段200-1號","121.54828","24.9740066666667","6500600","新店區"
"231041","618-UM","2017/11/27 20:09:55","新北市新店區中正路460號","121.534015","24.97936","6500600","新店區"
"231068","718-UY","2017/11/27 20:09:50","新北市新店區北新路二段2號","121.542551666667","24.970715","6500600","新店區"
"231049","719-UM","2017/11/27 20:09:45","新北市新店區北新路二段97巷10弄2號","121.542275","24.9745983333333","6500600","新店區"
"231065","719-UY","2017/11/27 20:09:57","新北市新店區安祥路106巷256號","121.473198333333","24.9591566666667","6500600","新店區"
"231062","720-UM","2017/11/27 20:09:17","新北市新店區安忠路57巷15號","121.512813333333","24.95725","6500600","新店區"
"231044","897-TW","2017/11/27 20:09:42","新北市新店區寶慶街58巷8號","121.542046666667","24.9871083333333","6500600","新店區"
"231045","898-TW","2017/11/27 20:09:37","新北市新店區北宜路一段276號","121.546386666667","24.95282","6500600","新店區"
"231043","899-TW","2017/11/27 20:09:37","新北市新店區民族路188號","121.536838333333","24.9760433333333","6500600","新店區"
"231066","AKT-0513","2017/11/27 20:09:46","新北市新店區安民街241號","121.5173","24.9722233333333","6500600","新店區"
"241011","013-R5","2017/11/27 20:09:46","新北市三重區秀江街232號","121.496656666667","25.07145","6500200","三重區"
"241028","022-UY","2017/11/27 20:09:40","新北市三重區仁化街168號","121.494733333333","25.0573383333333","6500200","三重區"
"241008","059-VK","2017/11/27 20:09:56","新北市三重區永福街197巷19號","121.478756666667","25.0742716666667","6500200","三重區"
"241009","060-VK","2017/11/27 20:09:44","新北市三重區三和路四段328號","121.483533333333","25.0781033333333","6500200","三重區"
"241031","061-VK","2017/11/27 20:09:44","新北市三重區過圳街9-1號","121.488746666667","25.0601033333333","6500200","三重區"
"241015","062-VK","2017/11/27 20:09:36","新北市三重區福德北路47號","121.502258333333","25.0650183333333","6500200","三重區"
"241017","063-VK","2017/11/27 20:09:55","新北市三重區大同北路221巷18號","121.492128333333","25.0664483333333","6500200","三重區"
"241024","065-VK","2017/11/27 20:09:48","新北市三重區中正北路294號","121.480101666667","25.06877","6500200","三重區"
"241026","066-VK","2017/11/27 20:09:39","新北市三重區福德南路53號","121.503076666667","25.0615466666667","6500200","三重區"
"241002","090-VK","2017/11/27 20:09:42","新北市三重區仁義街210號","121.496243333333","25.0822633333333","6500200","三重區"
"241003","091-VK","2017/11/27 20:09:53","新北市三重區仁愛街444號","121.489256666667","25.0819566666667","6500200","三重區"
"241005","262-UM","2017/11/27 20:09:36","新北市三重區溪尾街327號","121.48856","25.0847216666667","6500200","三重區"
"241004","265-UM","2017/11/27 20:09:37","新北市三重區仁愛街403號","121.490965","25.0809466666667","6500200","三重區"
"241016","266-UM","2017/11/27 20:09:58","新北市三重區大同北路61號","121.495163333333","25.063375","6500200","三重區"
"241022","267-UM","2017/11/27 20:09:37","新北市三重區新北大道一段11號","121.488056666667","25.0607616666667","6500200","三重區"
"241018","268-UM","2017/11/27 20:09:46","新北市三重區正義北路260號","121.495778333333","25.0685333333333","6500200","三重區"
"241032","269-UM","2017/11/27 20:09:47","新北市三重區捷運路36號","121.483351666667","25.0554383333333","6500200","三重區"
"241013","270-UM","2017/11/27 20:09:49","新北市三重區三和路三段139巷30號","121.493628333333","25.0740083333333","6500200","三重區"
"241025","271-UM","2017/11/27 20:09:49","新北市三重區中正北路416號","121.475263333333","25.070705","6500200","三重區"
"241007","398-BY","2017/11/27 20:09:55","新北市三重區三和路四段111-12號","121.486783333333","25.0776516666667","6500200","三重區"
"241019","478-VK","2017/11/27 20:09:50","新北市三重區自強路二段33巷2號","121.489738333333","25.069615","6500200","三重區"
"241030","480-VK","2017/11/27 20:09:53","新北市三重區成功路145巷32號","121.487531666667","25.0532483333333","6500200","三重區"
"241023","545-UM","2017/11/27 20:09:46","新北市三重區頂崁街220巷2號","121.476981666667","25.0681216666667","6500200","三重區"
"241001","547-UM","2017/11/27 20:09:47","新北市三重區溪尾街22-1號","121.490773333333","25.076265","6500200","三重區"
"241006","AAD-863","2017/11/27 20:09:42","新北市三重區力行路二段93號","121.482628333333","25.0758133333333","6500200","三重區"
"241035","743-BX","2017/11/27 20:09:40","新北市三重區平安街11號","121.498668333333","25.0643416666667","6500200","三重區"
"241012","941-UM","2017/11/27 20:09:48","新北市三重區仁福街64巷33號","121.497571666667","25.075665","6500200","三重區"
"241029","942-UM","2017/11/27 20:09:53","新北市三重區光明路32巷14號","121.4917","25.0586483333333","6500200","三重區"
"241033","AAC-255","2017/11/27 20:09:40","新北市三重區光復路一段68巷2號","121.471785","25.0492733333333","6500200","三重區"
"235066","003-UY","2017/11/27 20:09:49","新北市中和區中山路二段3巷60號","121.507731666667","25.0046633333333","6500300","中和區"
"235039","097-UM","2017/11/27 20:09:54","新北市中和區大勇街25巷37號","121.514958333333","24.9943016666667","6500300","中和區"
"235065","098-UM","2017/11/27 20:09:48","新北市中和區永和路39巷20號","121.497383333333","25.005235","6500300","中和區"
"235040","150-BY","2017/11/27 20:09:38","新北市中和區保健路61巷5弄9號","121.50928","24.9977933333333","6500300","中和區"
"235058","151-BY","2017/11/27 20:09:44","新北市中和區員山路106號","121.481175","24.995485","6500300","中和區"
"235044","293-VK","2017/11/27 20:09:40","新北市中和區復興路313號","121.501103333333","24.9902116666667","6500300","中和區"
"235068","377-QA","2017/11/27 20:09:50","新北市中和區中山路二段252號","121.49756","25.002785","6500300","中和區"
"235050","4979-A6","2017/11/27 20:09:53","新北市中和區安樂路66號","121.51214","24.993235","6500300","中和區"
"235069","4980-A6","2017/11/27 20:09:54","新北市中和區景新街34巷2弄7號","121.502861666667","24.9990566666667","6500300","中和區"
"235070","558-UM","2017/11/27 20:09:42","新北市中和區圓通路179號","121.497546666667","24.9949683333333","6500300","中和區"
"235046","733-UM","2017/11/27 20:09:47","新北市中和區忠孝街79號","121.51218","24.9851333333333","6500300","中和區"
"235062","800-TS","2017/11/27 20:09:50","新北市中和區中正路876號","121.483943333333","25.0062366666667","6500300","中和區"
"235041","802-TS","2017/11/27 20:09:52","新北市中和區中安街166號","121.510938333333","25.0000683333333","6500300","中和區"
"235048","896-TW","2017/11/27 20:09:53","新北市中和區景新街345-1號","121.511978333333","24.9911316666667","6500300","中和區"
"235037","157-BY","2017/11/27 20:09:44","新北市中和區景安路220巷5號","121.503048333333","24.991105","6500300","中和區"
"235037","AAC-213","2017/11/27 20:09:39","新北市中和區自立路18號","121.522196666667","24.99357","6500300","中和區"
"235059","AAC-215","2017/11/27 20:09:37","新北市中和區圓通路335巷37弄6號","121.493745","24.9891616666667","6500300","中和區"
"220068","013-TV","2017/11/27 20:09:44","新北市板橋區中山路二段416巷66弄7-4號","121.482376666667","25.0185366666667","6500100","板橋區"
"220065","072-UY","2017/11/27 20:09:55","新北市板橋區縣民大道二段68-1號","121.463676666667","25.012835","6500100","板橋區"
"220069","AAD-861","2017/11/27 20:09:50","新北市板橋區大明街25巷4弄16-3號","121.457493333333","25.00219","6500100","板橋區"
"220102","120-SR","2017/11/27 20:09:50","新北市板橋區懷德街78巷21號","121.477855","25.03123","6500100","板橋區"
"247022","893-R6","2017/11/27 20:09:42","新北市蘆洲區三民路193號","121.470445","25.0877066666667","6501400","蘆洲區"
"247012","546-UM","2017/11/27 20:09:42","新北市蘆洲區復興路218號","121.479018333333","25.08931","6501400","蘆洲區"
"247020","500-BY","2017/11/27 20:09:52","新北市蘆洲區民權路106巷5弄2-1號","121.47441","25.08909","6501400","蘆洲區"
"247008","341-TH","2017/11/27 20:09:55","新北市蘆洲區中山一路25號","121.47927","25.080805","6501400","蘆洲區"
"247010","339-TH","2017/11/27 20:09:52","新北市蘆洲區集賢路402號","121.479896666667","25.0820483333333","6501400","蘆洲區"
"247002","337-TH","2017/11/27 20:09:46","新北市蘆洲區永康街6號","121.459196666667","25.0859666666667","6501400","蘆洲區"
"247004","336-TH","2017/11/27 20:09:40","新北市蘆洲區永安南路二段328巷15弄15號","121.455895","25.0835766666667","6501400","蘆洲區"
"247024","335-TH","2017/11/27 20:09:50","新北市蘆洲區光明路90號","121.46292","25.0878383333333","6501400","蘆洲區"
"247016","057-VK","2017/11/27 20:09:55","新北市蘆洲區光華路165號","121.465121666667","25.0819816666667","6501400","蘆洲區"
"247006","056-VK","2017/11/27 20:09:41","新北市蘆洲區中山二路320號","121.468428333333","25.0765933333333","6501400","蘆洲區"
"247014","007-UY","2017/11/27 20:09:37","新北市蘆洲區和平路52-1號","121.470336666667","25.079495","6501400","蘆洲區"
"247018","001-UY","2017/11/27 20:09:52","新北市蘆洲區民族路314巷24號","121.47799","25.0904766666667","6501400","蘆洲區"
"222001","KEA-2212","2017/11/27 20:09:55","新北市深坑區北深路三段212號","121.60119","25.00378","6501800","深坑區"
"208003","665-BX","2017/11/27 20:09:41","新北市金山區永興里跳石4號","121.633636666667","25.2547033333333","6502700","金山區"
"251009","008-UM","2017/11/27 20:09:50","新北市淡水區清水街1-1號","121.445233333333","25.1703233333333","6501000","淡水區"
"251004","009-UM","2017/11/27 20:09:48","新北市淡水區民族路31-9號","121.461291666667","25.1365316666667","6501000","淡水區"
"251008","181-VK","2017/11/27 20:09:55","新北市淡水區淡海路72巷33弄6號","121.424381666667","25.1827366666667","6501000","淡水區"
"251013","182-VK","2017/11/27 20:09:51","新北市淡水區水汴頭7號","121.471656666667","25.2054566666667","6501000","淡水區"
"251010","413-VK","2017/11/27 20:09:53","新北市淡水區崁頂五路303號","121.425633333333","25.198905","6501000","淡水區"
"251012","441-VK","2017/11/27 20:09:39","新北市淡水區下圭柔山56-20號","121.447665","25.2044666666667","6501000","淡水區"
"251015","442-VK","2017/11/27 20:09:44","新北市淡水區埤島80-7號","121.448458333333","25.18898","6501000","淡水區"
"251006","561-UM","2017/11/27 20:09:44","新北市淡水區北新路141巷29號","121.448208333333","25.1795916666667","6501000","淡水區"
"251002","672-BX","2017/11/27 20:09:50","新北市淡水區中正路314號","121.437091666667","25.1725","6501000","淡水區"
"207003","550-UM","2017/11/27 20:09:45","新北市萬里區大鵬里萬里加投166號","121.643448333333","25.21554","6502800","萬里區"
"207004","225-TW","2017/11/27 20:09:50","新北市萬里區北基里愛三街11號","121.681748333333","25.1766183333333","6502800","萬里區"
"252002","178-VK","2017/11/27 20:09:48","新北市三芝區三民街16號","121.50443","25.2585716666667","6502100","三芝區"
"252001","292-VK","2017/11/27 20:09:47","新北市三芝區公正街66號","121.499778333333","25.25748","6502100","三芝區"
"237007","153-BY","2017/11/27 20:09:55","新北市三峽區二鬮路110巷54號","121.357825","24.91014","6500900","三峽區"
"237009","210-TH","2017/11/27 20:09:36","新北市三峽區民族街78巷2弄1號","121.368741666667","24.9297066666667","6500900","三峽區"
"237012","275-BY","2017/11/27 20:09:44","新北市三峽區中華路96-2號","121.371188333333","24.9280916666667","6500900","三峽區"
"237008","302-VK","2017/11/27 20:09:38","新北市三峽區中正路一段174巷9號","121.371915","24.9289066666667","6500900","三峽區"
"237006","5529-G3","2017/11/27 20:09:39","新北市三峽區中正路二段299巷27號","121.366855","24.9111133333333","6500900","三峽區"
"237015","649-BX","2017/11/27 20:09:46","新北市三峽區橫溪路42巷22號","121.395645","24.9349366666667","6500900","三峽區"
"237005","AKY-6261","2017/11/27 20:09:48","新北市三峽區三樹路16號","121.377606666667","24.9371516666667","6500900","三峽區"
"236069","105-UM","2017/11/27 20:09:47","新北市土城區中央路三段183號","121.431283333333","24.9652016666667","6501300","土城區"
"236042","107-UM","2017/11/27 20:09:48","新北市土城區學成路22巷3號","121.453531666667","24.98734","6501300","土城區"
"236030","253-BX","2017/11/27 20:09:58","新北市土城區中央路一段143巷1號","121.446983333333","24.987835","6501300","土城區"
"236026","269-VK","2017/11/27 20:09:53","新北市土城區裕生路102巷5號","121.446325","24.9847683333333","6501300","土城區"
"236014","270-VK","2017/11/27 20:09:47","新北市土城區德興街137號","121.455146666667","24.9917266666667","6501300","土城區"
"236036","271-VK","2017/11/27 20:09:56","新北市土城區延吉街296巷1弄1號","121.464501666667","24.9842816666667","6501300","土城區"
"236020","401-BY","2017/11/27 20:09:37","新北市土城區延吉街87巷12號","121.472126666667","24.9866316666667","6501300","土城區"
"236078","752-BX","2017/11/27 20:09:12","新北市土城區三民路49巷6號","121.419376666667","24.963985","6501300","土城區"
"236058","912-UM","2017/11/27 20:09:56","新北市土城區中央路一段361號","121.443131666667","24.9810283333333","6501300","土城區"
"236048","913-UM","2017/11/27 20:09:41","新北市土城區金城路三段151號","121.468628333333","24.9883366666667","6501300","土城區"
"236062","915-UM","2017/11/27 20:09:50","新北市土城區立德路135巷10號","121.464876666667","24.9868916666667","6501300","土城區"
"236053","AAC-216","2017/11/27 20:09:47","新北市土城區中華路一段22號","121.447493333333","24.9902616666667","6501300","土城區"
"242031","AAC-296","2017/11/27 20:09:40","新北市新莊區忠孝街29巷24號","121.443628333333","25.03658","6500500","新莊區"
"242029","986-R7","2017/11/27 20:09:49","新北市新莊區中平路378號","121.444746666667","25.0534416666667","6500500","新莊區"
"242025","615-BX","2017/11/27 20:09:49","新北市新莊區五權一路12巷25弄26號","121.458903333333","25.0649216666667","6500500","新莊區"
"242023","613-BX","2017/11/27 20:09:49","新北市新莊區化成路528號","121.466243333333","25.05281","6500500","新莊區"
"242027","612-BX","2017/11/27 20:09:41","新北市新莊區幸福路807號","121.445931666667","25.049015","6500500","新莊區"
"242039","566-BX","2017/11/27 20:09:49","新北市新莊區民安西路110號","121.426885","25.0188483333333","6500500","新莊區"
"242044","497-BY","2017/11/27 20:09:42","桃園市龜山區萬壽路一段9號","121.41035","25.0209683333333","6500500","新莊區"
"242034","442-UM","2017/11/27 20:09:53","新北市新莊區中正路316號","121.44639","25.0351366666667","6500500","新莊區"
"242048","441-UM","2017/11/27 20:09:44","新北市新莊區四維路152巷14號","121.422216666667","25.02302","6500500","新莊區"
"242053","440-UM","2017/11/27 20:09:45","新北市新莊區西盛街387巷34弄5號","121.42848","25.0129083333333","6500500","新莊區"
"242004","413-TV","2017/11/27 20:09:44","新北市新莊區頭興街5巷1號","121.463136666667","25.0535016666667","6500500","新莊區"
"242042","400-BY","2017/11/27 20:09:47","新北市新莊區壽山路73號","121.409621666667","25.03264","6500500","新莊區"
"242060","362-BY","2017/11/27 20:09:49","新北市新莊區瓊林路100巷1號","121.443471666667","25.0263433333333","6500500","新莊區"
"242058","353-BY","2017/11/27 20:09:48","新北市新莊區龍安路266巷2號","121.421625","25.0192","6500500","新莊區"
"242036","133-UY","2017/11/27 20:09:52","新北市新莊區後港一路130巷25號","121.429816666667","25.0262666666667","6500500","新莊區"
"242021","135-UY","2017/11/27 20:09:54","新北市新莊區中興街59號","121.449073333333","25.0374283333333","6500500","新莊區"
"242046","172-VK","2017/11/27 20:09:48","新北市新莊區裕民街85巷11號","121.419151666667","25.0234766666667","6500500","新莊區"
"242009","173-VK","2017/11/27 20:09:44","新北市新莊區昌盛街35巷2弄1號","121.454178333333","25.0504116666667","6500500","新莊區"
"242015","175-VK","2017/11/27 20:09:44","新北市新莊區中平路26巷44號","121.446778333333","25.043285","6500500","新莊區"
"242013","346-TH","2017/11/27 20:09:57","新北市新莊區幸福路710巷1弄6號","121.449378333333","25.0495883333333","6500500","新莊區"
"242007","347-TH","2017/11/27 20:09:57","新北市新莊區思源路423號","121.459528333333","25.0526583333333","6500500","新莊區"
"242019","348-TH","2017/11/27 20:09:41","新北市新莊區博愛路4巷2號","121.456488333333","25.0430066666667","6500500","新莊區"
"242056","349-TH","2017/11/27 20:09:39","新北市新莊區新莊路649巷15弄1號","121.445026666667","25.0314866666667","6500500","新莊區"
"242017","350-TH","2017/11/27 20:09:43","新北市新莊區中港路397號","121.451978333333","25.0469","6500500","新莊區"
"242011","351-TH","2017/11/27 20:09:56","新北市新莊區中信街61號","121.449305","25.05081","6500500","新莊區"
"238021","KEA-2217","2017/11/27 20:09:47","新北市樹林區田尾街152號","121.403801666667","24.95244","6500700","樹林區"
"239006","891-R6","2017/11/27 20:09:40","新北市鶯歌區文化路43號","121.359588333333","24.956715","6500800","鶯歌區"
"221008","489-VK","2017/11/27 20:09:45","台北市內湖區康樂街103號","121.619043333333","25.0703866666667","6501100","汐止區"
"221036","130-UY","2017/11/27 20:09:48","新北市汐止區新台五路二段37號","121.66311","25.0663266666667","6501100","汐止區"
"221010","269-BY","2017/11/27 20:09:49","新北市汐止區八連路一段253號","121.640451666667","25.0833983333333","6501100","汐止區"
"221012","278-VK","2017/11/27 20:09:56","新北市汐止區汐平路二段53號","121.699108333333","25.0608416666667","6501100","汐止區"
"221023","279-VK","2017/11/27 20:09:58","新北市汐止區明峰街298巷10弄1號","121.624981666667","25.0688816666667","6501100","汐止區"
"221032","280-BY","2017/11/27 20:09:50","新北市汐止區弘道街8巷3弄2號","121.617105","25.048085","6501100","汐止區"
"221027","281-BY","2017/11/27 20:09:49","新北市汐止區和平街126號","121.660826666667","25.0697866666667","6501100","汐止區"
"221029","298-VK","2017/11/27 20:09:46","新北市汐止區樟樹一路123巷19號","121.641306666667","25.064545","6501100","汐止區"
"221021","299-VK","2017/11/27 20:09:37","新北市汐止區莊敬街128-3號","121.654653333333","25.0614266666667","6501100","汐止區"
"221031","353-TW","2017/11/27 20:09:49","新北市汐止區中興路214巷7弄2號","121.63146","25.06659","6501100","汐止區"
"221015","567-BX","2017/11/27 20:09:32","新北市汐止區建成路26號","121.664513333333","25.07261","6501100","汐止區"
"221035","622-UM","2017/11/27 20:09:55","新北市汐止區長江街67巷2弄10號","121.657108333333","25.07246","6501100","汐止區"
"221025","623-UM","2017/11/27 20:09:43","新北市汐止區仁愛路1-6號","121.659015","25.0646083333333","6501100","汐止區"
"221038","646-BX","2017/11/27 20:09:57","新北市汐止區大同路三段66號","121.668073333333","25.07707","6501100","汐止區"
"221033","647-BX","2017/11/27 20:09:38","新北市汐止區東勢街201巷104號","121.633546666667","25.0429383333333","6501100","汐止區"
"221002","707-TV","2017/11/27 20:09:42","新北市汐止區工建路332號","121.633713333333","25.0599233333333","6501100","汐止區"
"221018","753-BX","2017/11/27 20:09:52","新北市汐止區茄福街35巷37號","121.673486666667","25.066235","6501100","汐止區"
"220080","200-UY","2017/11/27 20:09:46","新北市板橋區大觀路二段179巷16號","121.445523333333","24.999785","6500100","板橋區"
"220101","245-BX","2017/11/27 20:09:53","新北市板橋區莒光路171巷3弄15號","121.474681666667","25.0246","6500100","板橋區"
"220072","277-BY","2017/11/27 20:09:58","新北市板橋區金門街111-3號","121.433075","24.992065","6500100","板橋區"
"220071","283-VK","2017/11/27 20:09:45","新北市板橋區廣權路101號","121.464558333333","24.9927133333333","6500100","板橋區"
"220053","285-VK","2017/11/27 20:09:42","新北市板橋區中山路2段267-1號","121.477548333333","25.01807","6500100","板橋區"
"220083","286-VK","2017/11/27 20:09:49","新北市板橋區僑中二街92巷15號","121.44547","25.008935","6500100","板橋區"
"220081","287-VK","2017/11/27 20:09:49","新北市板橋區僑中一街124巷19弄2號","121.446101666667","25.0140666666667","6500100","板橋區"
"220090","288-VK","2017/11/27 20:09:40","新北市板橋區幸福路32巷65號","121.46038","25.022235","6500100","板橋區"
"220061","293-UM","2017/11/27 20:09:53","新北市板橋區縣民大道二段200巷30號","121.470225","25.0174233333333","6500100","板橋區"
"220075","297-UM","2017/11/27 20:09:47","新北市板橋區金華街10巷74號","121.457685","25.0203016666667","6500100","板橋區"
"242001","281-VK","2017/11/27 14:47:05","新北市新莊區環河路636-7號","121.437341666667","25.0113116666667","6500500","新莊區"
"220092","307-R5","2017/11/27 20:09:54","新北市板橋區民權路306號","121.457166666667","25.01613","6500100","板橋區"
"220098","317-R6","2017/11/27 20:09:48","新北市板橋區新海路72巷5弄36號","121.46155","25.0230433333333","6500100","板橋區"
"220064","486-VK","2017/11/27 20:09:47","新北市板橋區漢生東路193巷19-4號","121.47079","25.0120583333333","6500100","板橋區"
"220089","487-VK","2017/11/27 20:09:53","新北市板橋區互助街97號","121.459375","25.0256533333333","6500100","板橋區"
"242002","280-VK","2017/11/27 20:09:46","新北市新莊區中正路147-15號","121.457365","25.0369566666667","6500500","新莊區"
"220088","491-VK","2017/11/27 20:09:54","新北市板橋區民治街79號","121.479616666667","25.032335","6500100","板橋區"
"220103","561-BX","2017/11/27 20:09:43","新北市板橋區文化路一段435巷31弄11號","121.466938333333","25.0228966666667","6500100","板橋區"
"220093","689-BX","2017/11/27 20:09:39","新北市板橋區長江路二段87號","121.465353333333","25.0316066666667","6500100","板橋區"
"220054","741-BX","2017/11/27 20:09:46","新北市板橋區忠孝路忠義巷9弄1-1號","121.465171666667","25.0046716666667","6500100","板橋區"
"220055","827-TW","2017/11/27 20:09:56","新北市板橋區仁愛路75號","121.4609","24.9997333333333","6500100","板橋區"
"220067","829-TW","2017/11/27 20:09:56","新北市板橋區中山路二段318巷4號","121.4802","25.0192583333333","6500100","板橋區"
"220073","985-R7","2017/11/27 20:09:50","新北市板橋區館前西路166-1號","121.45239","25.0085666666667","6500100","板橋區"
"220097","AAC-210","2017/11/27 20:09:56","新北市板橋區光正街9巷2弄1號","121.462698333333","25.0167483333333","6500100","板橋區"
"220070","AAC-253","2017/11/27 20:09:46","新北市板橋區德興街33號","121.453533333333","24.9939283333333","6500100","板橋區"
