"lineid","car","time","location","longitude","latitude","cityid","cityname"
"234064","337-UY","2017/11/27 20:39:57","新北市永和區環河西路二段215號","121.501503333333","25.0104333333333","6500400","永和區"
"234030","746-BX","2017/11/27 20:39:48","新北市板橋區民生路三段30-5號","121.467303333333","25.024395","6500400","永和區"
"234061","AAD-866","2017/11/27 20:39:51","新北市永和區秀朗路一段120號","121.51699","25.00361","6500400","永和區"
"234050","863-TW","2017/11/27 20:39:33","新北市永和區保安路81號","121.508605","25.014755","6500400","永和區"
"249005","172-UM","2017/11/27 20:39:51","新北市八里區中山路三段333號","121.37727","25.1404216666667","6502300","八里區"
"249001","173-UM","2017/11/27 20:39:41","新北市八里區中山路三段333號","121.37739","25.13888","6502300","八里區"
"249004","303-UY","2017/11/27 20:38:38","新北市八里區中山路一段157巷19號","121.413083333333","25.1582016666667","6502300","八里區"
"249002","305-UY","2017/11/27 20:39:43","新北市八里區龍米路三段58號","121.424526666667","25.1591316666667","6502300","八里區"
"234023","9380-KE","2017/11/27 20:39:54","新北市永和區竹林路25巷17弄2號","121.517895","25.0149333333333","6500400","永和區"
"234074","AAC-211","2017/11/27 20:39:39","新北市永和區竹林路119巷16號","121.521053333333","25.011425","6500400","永和區"
"243011","267-VK","2017/11/27 20:39:53","新北市泰山區明志路三段42巷18號","121.424195","25.042335","6501600","泰山區"
"243010","KEA-2215","2017/11/27 20:39:43","新北市泰山區泰林路三段17巷3號","121.420426666667","25.0644783333333","6501600","泰山區"
"243016","680-BX","2017/11/27 20:39:46","新北市泰山區文程路3號","121.427748333333","25.0496133333333","6501600","泰山區"
"222003","436-BY","2017/11/27 20:39:22","新北市深坑區阿柔洋3-1號","121.612858333333","25.0001583333333","6501800","深坑區"
"222002","659-BX","2017/11/27 20:39:45","新北市深坑區萬福路45號","121.599433333333","25.0068916666667","6501800","深坑區"
"231059","046-UY","2017/11/27 20:39:52","新北市新店區僑愛三路39號","121.498873333333","24.9445133333333","6500600","新店區"
"231061","047-UY","2017/11/27 20:39:38","新北市新店區新和街46號","121.51938","24.9849783333333","6500600","新店區"
"231060","106-UY","2017/11/27 20:39:52","新北市新店區安康路三段714號","121.474076666667","24.9421416666667","6500600","新店區"
"231051","107-UY","2017/11/27 20:39:47","新北市新店區中央六街55號","121.528041666667","24.9759833333333","6500600","新店區"
"231047","108-UY","2017/11/27 20:39:51","新北市新店區寶慶街36號","121.543023333333","24.9867866666667","6500600","新店區"
"231052","187-VK","2017/11/27 20:39:58","新北市新店區松林路23號","121.547776666667","24.9102433333333","6500600","新店區"
"231050","KEA-2219","2017/11/27 20:39:52","新北市新店區建安街17號","121.5397","24.9754683333333","6500600","新店區"
"231057","256-BX","2017/11/27 20:39:40","新北市新店區花園六路二段1-12號","121.553458333333","24.93316","6500600","新店區"
"231063","268-BY","2017/11/27 20:39:48","新北市新店區玫瑰路4-1號","121.493585","24.9513816666667","6500600","新店區"
"231054","AAD-862","2017/11/27 20:39:49","新北市新店區行政街45號","121.543055","24.96555","6500600","新店區"
"231040","355-BY","2017/11/27 20:39:52","新北市新店區中正路263號","121.538515","24.9734916666667","6500600","新店區"
"231056","3713-VJ","2017/11/27 20:39:38","新北市新店區中正路336號","121.536708333333","24.9749816666667","6500600","新店區"
"231064","515-UM","2017/11/27 20:39:49","新北市新店區安和路三段132號","121.516455","24.985855","6500600","新店區"
"231042","616-UM","2017/11/27 20:39:57","新北市新店區寶高路120巷1-1號","121.554601666667","24.9759283333333","6500600","新店區"
"231041","618-UM","2017/11/27 20:39:55","新北市新店區中正路566號","121.533791666667","24.98754","6500600","新店區"
"231068","718-UY","2017/11/27 20:39:50","新北市新店區寶元路一段85巷10號","121.543115","24.9860266666667","6500600","新店區"
"231049","719-UM","2017/11/27 20:39:45","新北市新店區永業路81巷5弄33號","121.531013333333","24.9500966666667","6500600","新店區"
"231065","719-UY","2017/11/27 20:39:57","新北市新店區安祥路102巷146號","121.486796666667","24.964535","6500600","新店區"
"231062","720-UM","2017/11/27 20:39:37","新北市新店區安泰路7巷11號","121.485783333333","24.9510016666667","6500600","新店區"
"231044","897-TW","2017/11/27 20:39:42","新北市新店區建國路293巷1號","121.536675","24.9861883333333","6500600","新店區"
"231045","898-TW","2017/11/27 20:39:37","新北市新店區長春路120號","121.55531","24.9618566666667","6500600","新店區"
"231043","899-TW","2017/11/27 20:39:56","新北市新店區博愛街13巷21號","121.540111666667","24.97382","6500600","新店區"
"231066","AKT-0513","2017/11/27 20:39:46","新北市新店區安興路112號","121.514665","24.9776566666667","6500600","新店區"
"241011","013-R5","2017/11/27 20:39:46","新北市三重區龍門路108號","121.497691666667","25.07283","6500200","三重區"
"241028","022-UY","2017/11/27 20:39:40","新北市三重區光興街93號","121.49732","25.0599083333333","6500200","三重區"
"241008","059-VK","2017/11/27 20:39:36","新北市三重區下竹圍街91號","121.481088333333","25.0748183333333","6500200","三重區"
"241009","060-VK","2017/11/27 20:39:44","新北市三重區仁愛街719-1號","121.482095","25.0804716666667","6500200","三重區"
"241031","061-VK","2017/11/27 20:39:44","新北市三重區重陽路一段43巷28號","121.488258333333","25.05844","6500200","三重區"
"241015","062-VK","2017/11/27 20:39:56","新北市三重區文化北路200弄1號","121.497975","25.0680933333333","6500200","三重區"
"241017","063-VK","2017/11/27 20:39:55","新北市三重區安慶街270號","121.49065","25.0676183333333","6500200","三重區"
"241024","065-VK","2017/11/27 20:39:48","新北市三重區三民街206巷2號","121.480653333333","25.06681","6500200","三重區"
"241026","066-VK","2017/11/27 20:39:41","新北市三重區文化南路7號","121.499948333333","25.06232","6500200","三重區"
"241002","090-VK","2017/11/27 20:39:45","新北市三重區仁義街167巷34號","121.498313333333","25.0822433333333","6500200","三重區"
"241003","091-VK","2017/11/27 20:39:53","新北市三重區五華街141巷58號","121.49361","25.0867833333333","6500200","三重區"
"241005","262-UM","2017/11/27 20:39:36","新北市三重區碧華街448號","121.493235","25.085945","6500200","三重區"
"241004","265-UM","2017/11/27 20:39:37","新北市三重區仁愛街483號","121.488695","25.082175","6500200","三重區"
"241016","266-UM","2017/11/27 20:39:38","新北市三重區自強路一段143號","121.4947","25.066845","6500200","三重區"
"241022","267-UM","2017/11/27 20:39:57","新北市三重區新北大道一段46巷18弄10號","121.488255","25.0619816666667","6500200","三重區"
"241018","268-UM","2017/11/27 20:39:45","新北市三重區重陽路四段5號","121.490946666667","25.0689566666667","6500200","三重區"
"241032","269-UM","2017/11/27 20:39:46","新北市三重區重陽路一段120巷48號","121.485013333333","25.0601616666667","6500200","三重區"
"241013","270-UM","2017/11/27 20:39:49","新北市三重區三和路三段68號","121.495038333333","25.0715316666667","6500200","三重區"
"241025","271-UM","2017/11/27 20:39:45","新北市三重區頂崁街210巷36號","121.475745","25.0679066666667","6500200","三重區"
"241007","398-BY","2017/11/27 20:39:55","新北市三重區三和路四段113號","121.485593333333","25.077365","6500200","三重區"
"241019","478-VK","2017/11/27 20:39:49","新北市三重區大智街129-1號","121.49126","25.0703933333333","6500200","三重區"
"241030","480-VK","2017/11/27 20:39:53","新北市三重區成功路73巷18號","121.489431666667","25.0519416666667","6500200","三重區"
"241014","543-UM","2017/11/27 20:39:39","新北市三重區介壽路4號","121.498838333333","25.069235","6500200","三重區"
"241023","545-UM","2017/11/27 20:39:46","新北市三重區自由街37巷1號","121.478888333333","25.0669716666667","6500200","三重區"
"241001","547-UM","2017/11/27 20:39:47","新北市三重區三和路四段160巷77號","121.48572","25.0749216666667","6500200","三重區"
"241035","743-BX","2017/11/27 20:39:40","新北市三重區正義北路300號","121.495341666667","25.0697933333333","6500200","三重區"
"241012","941-UM","2017/11/27 20:39:48","新北市三重區秀江街26號","121.502455","25.07303","6500200","三重區"
"241029","942-UM","2017/11/27 20:39:53","新北市三重區集美街126巷23號","121.489891666667","25.0537566666667","6500200","三重區"
"241033","AAC-255","2017/11/27 20:39:40","新北市三重區光復路二段87巷31弄2號","121.474106666667","25.057755","6500200","三重區"
"235069","4980-A6","2017/11/27 20:39:54","新北市中和區中正路456號","121.490725","24.994215","6500300","中和區"
"235026","800-TS","2017/11/27 20:25:14","新北市中和區員山路36巷16-3號","121.484796666667","24.9918116666667","6500300","中和區"
"247022","893-R6","2017/11/27 20:39:42","新北市蘆洲區中正路243巷7弄50號","121.467633333333","25.0856433333333","6501400","蘆洲區"
"247012","546-UM","2017/11/27 20:39:42","新北市蘆洲區民族路236巷40號","121.481458333333","25.0888983333333","6501400","蘆洲區"
"247020","500-BY","2017/11/27 20:39:52","新北市蘆洲區民族路331號","121.473776666667","25.0917216666667","6501400","蘆洲區"
"247008","341-TH","2017/11/27 20:39:37","新北市蘆洲區重陽街48號","121.481418333333","25.08311","6501400","蘆洲區"
"247010","339-TH","2017/11/27 20:39:52","新北市蘆洲區中山一路48號","121.47933","25.080885","6501400","蘆洲區"
"247002","337-TH","2017/11/27 20:39:46","新北市蘆洲區長安街375巷19號","121.45624","25.0878466666667","6501400","蘆洲區"
"247004","336-TH","2017/11/27 20:39:40","新北市蘆洲區長安街222號","121.458191666667","25.08488","6501400","蘆洲區"
"247024","335-TH","2017/11/27 20:39:50","新北市蘆洲區長樂路27號","121.46351","25.0854133333333","6501400","蘆洲區"
"247016","057-VK","2017/11/27 20:39:55","新北市蘆洲區和平路23號","121.472098333333","25.0792533333333","6501400","蘆洲區"
"247006","056-VK","2017/11/27 20:39:41","新北市蘆洲區和平路190號","121.466043333333","25.0816066666667","6501400","蘆洲區"
"247014","007-UY","2017/11/27 20:39:37","新北市蘆洲區成功路65號","121.472796666667","25.0806316666667","6501400","蘆洲區"
"222001","KEA-2212","2017/11/27 20:39:54","新北市深坑區北深路三段234號","121.60039","25.0040883333333","6501800","深坑區"
"251013","182-VK","2017/11/27 20:39:44","新北市淡水區行忠路253號","121.459485","25.2011866666667","6501000","淡水區"
"251010","413-VK","2017/11/27 20:39:53","新北市淡水區沙崙路181巷15號","121.423956666667","25.1843233333333","6501000","淡水區"
"251012","441-VK","2017/11/27 20:39:39","新北市淡水區興仁路103巷46號","121.450291666667","25.2171383333333","6501000","淡水區"
"251015","442-VK","2017/11/27 20:39:50","新北市淡水區興仁路162號","121.4516","25.2206933333333","6501000","淡水區"
"251001","559-UM","2017/11/27 20:39:42","新北市淡水區淡金路65號","121.456206666667","25.1614133333333","6501000","淡水區"
"251006","561-UM","2017/11/27 20:39:44","新北市淡水區商工路196巷9號","121.451595","25.1866416666667","6501000","淡水區"
"251011","650-BX","2017/11/27 20:39:43","新北市淡水區新市一路一段361號","121.436196666667","25.1861883333333","6501000","淡水區"
"251002","672-BX","2017/11/27 20:39:50","新北市淡水區中正路38-1號","121.44372","25.1692466666667","6501000","淡水區"
"251003","766-UM","2017/11/27 20:39:53","新北市淡水區新民街152巷6弄22號","121.438726666667","25.1784883333333","6501000","淡水區"
"252002","178-VK","2017/11/27 20:39:47","新北市三芝區淡金路二段47-2號","121.503668333333","25.260515","6502100","三芝區"
"252001","292-VK","2017/11/27 20:39:47","新北市三芝區中山路一段83號","121.50103","25.2566583333333","6502100","三芝區"
"237009","210-TH","2017/11/27 20:38:56","新北市樹林區中山路三段210-2號","121.380673333333","24.9671183333333","6500900","三峽區"
"242031","AAC-296","2017/11/27 20:39:58","新北市新莊區三泰路58號","121.433786666667","25.0376466666667","6500500","新莊區"
"242029","986-R7","2017/11/27 20:39:49","新北市新莊區昌平街31巷9號","121.454265","25.051355","6500500","新莊區"
"242025","615-BX","2017/11/27 20:39:49","新北市新莊區化成路579巷1號","121.464385","25.066125","6500500","新莊區"
"242023","613-BX","2017/11/27 20:39:49","新北市新莊區化成路355號","121.465726666667","25.0566983333333","6500500","新莊區"
"242027","612-BX","2017/11/27 20:39:41","新北市新莊區思源路63號","121.459935","25.0403883333333","6500500","新莊區"
"242039","566-BX","2017/11/27 20:39:49","新北市新莊區民安路281-1號","121.428925","25.02218","6500500","新莊區"
"242044","497-BY","2017/11/27 20:39:42","新北市新莊區龍安路108號","121.418315","25.0204483333333","6500500","新莊區"
"242034","442-UM","2017/11/27 20:39:56","新北市新莊區中正路449號","121.44316","25.034125","6500500","新莊區"
"242048","441-UM","2017/11/27 20:39:44","新北市新莊區中正路871巷1號","121.418125","25.027045","6500500","新莊區"
"242053","440-UM","2017/11/27 20:39:46","新北市新莊區西盛街323巷9號","121.428716666667","25.0146766666667","6500500","新莊區"
"242004","413-TV","2017/11/27 20:39:41","新北市新莊區思源路335號","121.459845","25.0497683333333","6500500","新莊區"
"242042","400-BY","2017/11/27 20:39:47","新北市新莊區天祥街47巷4弄2號","121.416466666667","25.028515","6500500","新莊區"
"242060","362-BY","2017/11/27 20:39:49","新北市新莊區新樹路262號","121.432856666667","25.0147816666667","6500500","新莊區"
"242058","353-BY","2017/11/27 20:39:48","新北市新莊區民安路138號","121.424151666667","25.0253966666667","6500500","新莊區"
"242036","133-UY","2017/11/27 20:39:52","新北市新莊區後港一路46巷6號","121.426106666667","25.0258916666667","6500500","新莊區"
"242021","135-UY","2017/11/27 20:39:54","新北市新莊區中華路一段71號","121.452283333333","25.03986","6500500","新莊區"
"242046","172-VK","2017/11/27 20:39:54","新北市新莊區裕民街63號","121.418721666667","25.0243733333333","6500500","新莊區"
"242009","173-VK","2017/11/27 20:39:44","新北市新莊區福壽街99巷8弄4號","121.456846666667","25.0506516666667","6500500","新莊區"
"242015","175-VK","2017/11/27 20:39:44","新北市新莊區中港一街149號","121.447718333333","25.0450383333333","6500500","新莊區"
"242013","346-TH","2017/11/27 20:39:52","新北市新莊區中和街175巷13號","121.447118333333","25.0505366666667","6500500","新莊區"
"242007","347-TH","2017/11/27 20:39:57","新北市新莊區思源路287巷2弄1號","121.459311666667","25.0482983333333","6500500","新莊區"
"242019","348-TH","2017/11/27 20:39:41","新北市新莊區銘德街139號","121.454796666667","25.042865","6500500","新莊區"
"242056","349-TH","2017/11/27 20:39:39","新北市新莊區新莊路751巷68號","121.44273","25.0310816666667","6500500","新莊區"
"242017","350-TH","2017/11/27 20:39:43","新北市新莊區中港三街96號","121.448903333333","25.0461683333333","6500500","新莊區"
"242011","351-TH","2017/11/27 20:39:56","新北市新莊區中榮街120號","121.446596666667","25.0527833333333","6500500","新莊區"
"221008","489-VK","2017/11/27 20:39:45","新北市汐止區康寧街861巷3號","121.6453","25.0761216666667","6501100","汐止區"
"221036","130-UY","2017/11/27 20:39:58","新北市汐止區新昌路7號","121.662076666667","25.067235","6501100","汐止區"
"221012","278-VK","2017/11/27 20:39:36","新北市汐止區汐萬路一段39號","121.655041666667","25.0690166666667","6501100","汐止區"
"221023","279-VK","2017/11/27 20:39:37","新北市汐止區民族二街30巷20號","121.633965","25.07176","6501100","汐止區"
"221032","280-BY","2017/11/27 20:39:50","新北市汐止區弘道街53巷30弄2號","121.618923333333","25.0500216666667","6501100","汐止區"
"221027","281-BY","2017/11/27 20:39:49","新北市汐止區大同路二段473號","121.660318333333","25.0683133333333","6501100","汐止區"
"221029","298-VK","2017/11/27 20:39:46","新北市汐止區大同路一段499號","121.644825","25.06194","6501100","汐止區"
"221021","299-VK","2017/11/27 20:39:56","新北市汐止區水源路一段290號","121.654121666667","25.0580366666667","6501100","汐止區"
"221031","353-TW","2017/11/27 20:39:49","新北市汐止區中興路27巷10號","121.634538333333","25.06087","6501100","汐止區"
"221015","567-BX","2017/11/27 20:39:52","新北市汐止區建成路37巷1號","121.663613333333","25.072845","6501100","汐止區"
"221035","622-UM","2017/11/27 20:39:55","新北市汐止區長江街101-5號","121.658691666667","25.073165","6501100","汐止區"
"221025","623-UM","2017/11/27 20:39:43","新北市汐止區水源路二段221號","121.658333333333","25.05184","6501100","汐止區"
"221038","646-BX","2017/11/27 20:39:37","新北市汐止區大同路二段184巷8號","121.653358333333","25.0640116666667","6501100","汐止區"
"221033","647-BX","2017/11/27 20:39:58","新北市汐止區合順街18巷8弄5號","121.620331666667","25.0419566666667","6501100","汐止區"
"221002","707-TV","2017/11/27 20:39:42","新北市汐止區福德二路132巷2號","121.631138333333","25.0652583333333","6501100","汐止區"
"221018","753-BX","2017/11/27 20:39:52","新北市汐止區茄苳路157-1號","121.669583333333","25.0701633333333","6501100","汐止區"
"242001","281-VK","2017/11/27 14:47:05","新北市新莊區環河路636-7號","121.437341666667","25.0113116666667","6500500","新莊區"
"220089","487-VK","2017/11/27 20:39:53","新北市板橋區四維路357號","121.462196666667","25.0302366666667","6500100","板橋區"
"242002","280-VK","2017/11/27 20:39:46","新北市新莊區明中街23號","121.458398333333","25.0385533333333","6500500","新莊區"
"220103","561-BX","2017/11/27 20:39:46","新北市板橋區漢生東路73巷27號","121.467195","25.017055","6500100","板橋區"
"220070","AAC-253","2017/11/27 20:39:46","新北市五股區新城三路43號","121.448381666667","25.0927033333333","6500100","板橋區"
