"lineid","car","time","location","longitude","latitude","cityid","cityname"
"244018","403-UM","2017/11/27 20:56:01","新北市林口區粉寮69號","121.405096666667","25.0907783333333","6501700","林口區"
"235026","800-TS","2017/11/27 20:25:14","新北市中和區員山路36巷16-3號","121.484796666667","24.9918116666667","6500300","中和區"
"247008","341-TH","2017/11/27 21:49:35","新北市林口區汕頭32號","121.366318333333","25.1346533333333","6501400","蘆洲區"
"247016","057-VK","2017/11/27 21:49:55","新北市八里區荖阡坑路34-1號","121.400166666667","25.1317166666667","6501400","蘆洲區"
"251009","008-UM","2017/11/27 21:49:50","新北市淡水區民族路35巷14號","121.465173333333","25.13741","6501000","淡水區"
"251004","009-UM","2017/11/27 21:49:44","新北市淡水區民權路92巷35-1號","121.462223333333","25.12664","6501000","淡水區"
"251007","179-VK","2017/11/27 21:49:48","新北市淡水區水源街二段177巷41弄1-1號","121.452855","25.1768266666667","6501000","淡水區"
"251008","181-VK","2017/11/27 21:49:54","新北市淡水區水源街二段24號","121.449923333333","25.1732283333333","6501000","淡水區"
"251012","441-VK","2017/11/27 21:49:39","新北市淡水區淡金路三段290號","121.448971666667","25.2075033333333","6501000","淡水區"
"251015","442-VK","2017/11/27 21:49:50","新北市淡水區中山北路一段153號","121.443231666667","25.1773816666667","6501000","淡水區"
"251005","443-VK","2017/11/27 21:49:52","新北市淡水區鄧公路30巷30弄1號","121.45356","25.1698266666667","6501000","淡水區"
"251001","559-UM","2017/11/27 21:49:58","新北市淡水區後洲路一段157號","121.427736666667","25.1985366666667","6501000","淡水區"
"251011","650-BX","2017/11/27 21:49:43","新北市淡水區新民街322巷5弄1號","121.436223333333","25.18296","6501000","淡水區"
"251002","672-BX","2017/11/27 21:49:50","新北市淡水區大忠街143號","121.447786666667","25.1766983333333","6501000","淡水區"
"251003","766-UM","2017/11/27 21:49:53","新北市淡水區新春街73號","121.438376666667","25.1819916666667","6501000","淡水區"
"221021","567-BX","2017/11/27 21:26:33","新北市汐止區汐萬路一段256巷3號","121.652465","25.0746416666667","6501100","汐止區"
"242001","281-VK","2017/11/27 14:47:05","新北市新莊區環河路636-7號","121.437341666667","25.0113116666667","6500500","新莊區"
"220070","AAC-253","2017/11/27 21:49:46","新北市板橋區板城路327號","121.449855","24.99711","6500100","板橋區"
