"lineid","car","time","location","longitude","latitude","cityid","cityname"
"234046","148-BY","2017/10/27 19:59:48","新北市永和區永利路212號","121.523255","25.002565","6500400","永和區"
"234013","149-BY","2017/10/27 19:59:52","新北市永和區保生路55號","121.5047","25.010575","6500400","永和區"
"234007","207-UY","2017/10/27 19:59:57","新北市永和區保生路22巷12號","121.507555","25.00806","6500400","永和區"
"234081","298-R6","2017/10/27 19:59:50","新北市永和區國中路1號","121.523845","25.0044383333333","6500400","永和區"
"234038","336-UY","2017/10/27 19:59:41","新北市永和區成功路二段179-1號","121.526598333333","24.996615","6500400","永和區"
"234064","337-UY","2017/10/27 19:59:45","新北市永和區中正路412巷2弄12號","121.51858","25.0017883333333","6500400","永和區"
"234086","338-UY","2017/10/27 19:59:57","新北市永和區福和路265號","121.517743333333","25.00741","6500400","永和區"
"234070","552-UM","2017/10/27 19:59:52","新北市永和區國光路51號","121.518998333333","25.0082416666667","6500400","永和區"
"234054","553-UM","2017/10/27 19:59:45","新北市永和區博愛街45巷2號","121.519161666667","25.0158933333333","6500400","永和區"
"234017","745-BX","2017/10/27 19:59:57","新北市永和區文化路109號","121.512905","25.0151783333333","6500400","永和區"
"234030","746-BX","2017/10/27 19:59:49","新北市永和區民權路49巷5弄22號","121.521516666667","24.9978116666667","6500400","永和區"
"234061","AAD-866","2017/10/27 19:59:41","新北市永和區中正路283巷17號","121.516736666667","25.000355","6500400","永和區"
"234042","862-TW","2017/10/27 19:59:57","新北市永和區雙和街17巷5號","121.509246666667","25.00154","6500400","永和區"
"234050","863-TW","2017/10/27 20:00:00","新北市永和區永平路247號","121.506583333333","25.0127783333333","6500400","永和區"
"234026","9371-KE","2017/10/27 19:59:52","新北市永和區水源街21巷14弄3號","121.511371666667","25.003775","6500400","永和區"
"234011","9373-KE","2017/10/27 19:59:49","新北市永和區仁愛路352巷124號","121.50026","25.0085516666667","6500400","永和區"
"249005","172-UM","2017/10/27 19:59:57","新北市八里區楓林路3-4號","121.381943333333","25.1293183333333","6502300","八里區"
"249001","173-UM","2017/10/27 19:59:39","新北市八里區中華路二段310號","121.40381","25.1483533333333","6502300","八里區"
"249004","303-UY","2017/10/27 19:59:52","新北市八里區中華路一段333-1號","121.413446666667","25.153615","6502300","八里區"
"249002","305-UY","2017/10/27 19:59:45","新北市八里區龍米路一段87巷1-5號","121.453936666667","25.1232683333333","6502300","八里區"
"249003","593-UM","2017/10/27 19:59:42","新北市八里區中華路二段538-4號","121.398765","25.1451466666667","6502300","八里區"
"248014","025-BX","2017/10/27 19:59:46","新北市五股區五福路52巷3弄10號","121.433281666667","25.0902116666667","6501500","五股區"
"248016","026-BX","2017/10/27 19:59:59","新北市五股區成泰路三段577巷80弄50號","121.449645","25.1048933333333","6501500","五股區"
"248008","095-VK","2017/10/27 19:59:53","新北市五股區四維路30巷36弄1號","121.468916666667","25.071455","6501500","五股區"
"248018","225-UY","2017/10/27 19:59:45","新北市五股區登林路114-16號","121.422715","25.071275","6501500","五股區"
"248012","247-BX","2017/10/27 19:59:58","新北市五股區民義路一段122號","121.434801666667","25.0857966666667","6501500","五股區"
"248010","272-BY","2017/10/27 19:59:45","新北市五股區登林路36-3號","121.432685","25.0687033333333","6501500","五股區"
"248004","677-BX","2017/10/27 19:59:50","新北市五股區成泰路一段8巷2-3號","121.434946666667","25.06689","6501500","五股區"
"248002","678-BX","2017/10/27 19:59:37","新北市五股區成泰路三段436號","121.450848333333","25.09948","6501500","五股區"
"234023","9380-KE","2017/10/27 19:59:54","新北市永和區豫溪街57巷2號","121.517251666667","25.01012","6500400","永和區"
"234077","969-R7","2017/10/27 19:59:48","新北市永和區民有街7號","121.516161666667","24.9969733333333","6500400","永和區"
"234074","AAC-211","2017/10/27 19:59:46","新北市永和區豫溪街201號","121.523546666667","25.0098033333333","6500400","永和區"
"234067","AAC-212","2017/10/27 19:59:54","新北市永和區永貞路376號","121.509753333333","25.0070183333333","6500400","永和區"
"234003","AAC-295","2017/10/27 19:59:50","新北市永和區中正路609巷28號","121.515883333333","25.0088116666667","6500400","永和區"
"243013","AAD-798","2017/10/27 19:59:45","新北市泰山區應化街13號","121.423848333333","25.0437233333333","6501600","泰山區"
"243009","297-R6","2017/10/27 19:59:50","新北市泰山區泰林路二段164巷37號","121.434115","25.0613233333333","6501600","泰山區"
"243015","380-SR","2017/10/27 19:59:51","新北市泰山區明志路二段214巷16弄13號","121.426858333333","25.0496083333333","6501600","泰山區"
"243014","421-VK","2017/10/27 19:59:41","新北市泰山區泰林路二段150號","121.434078333333","25.0600066666667","6501600","泰山區"
"243012","539-UM","2017/10/27 19:59:44","新北市泰山區全興路109號","121.433823333333","25.0566616666667","6501600","泰山區"
"243010","KEA-2215","2017/10/27 19:59:45","新北市泰山區中華街7號","121.427891666667","25.0524133333333","6501600","泰山區"
"243011","KEA-2216","2017/10/27 19:59:55","新北市泰山區明志路三段197號","121.424156666667","25.0386566666667","6501600","泰山區"
"243016","680-BX","2017/10/27 19:59:39","新北市泰山區明志路三段470號","121.420663333333","25.0320816666667","6501600","泰山區"
"222003","436-BY","2017/10/27 19:59:52","新北市深坑區埔新街14號","121.620735","25.00396","6501800","深坑區"
"222002","659-BX","2017/10/27 19:59:51","新北市深坑區埔新街100號","121.618641666667","25.0021933333333","6501800","深坑區"
"231041","002-UM","2017/10/27 19:59:44","新北市新店區中正路468號","121.533945","24.97937","6500600","新店區"
"231059","046-UY","2017/10/27 19:59:50","新北市新店區安康路二段147號","121.511183333333","24.9599233333333","6500600","新店區"
"231061","047-UY","2017/10/27 19:59:44","新北市新店區安民街301號","121.517585","24.9736966666667","6500600","新店區"
"231060","106-UY","2017/10/27 19:59:43","新北市新店區安康路二段406號","121.496818333333","24.9553033333333","6500600","新店區"
"231048","108-UY","2017/10/27 19:59:49","新北市新店區寶宏路22號","121.549321666667","24.9759916666667","6500600","新店區"
"231053","187-VK","2017/10/27 19:59:51","新北市新店區新烏路三段300號","121.548038333333","24.8971533333333","6500600","新店區"
"231050","KEA-2219","2017/10/27 19:59:52","新北市新店區北新路一段90號","121.541896666667","24.9686583333333","6500600","新店區"
"231057","256-BX","2017/10/27 19:59:54","新北市新店區花園二路一段11號","121.555493333333","24.9324716666667","6500600","新店區"
"231054","AAD-862","2017/10/27 19:59:43","新北市新店區光明街117號","121.538948333333","24.9616266666667","6500600","新店區"
"231055","3713-VJ","2017/10/27 19:59:55","新北市新店區中華路83巷41號","121.538611666667","24.96772","6500600","新店區"
"231056","4716-K9","2017/10/27 19:59:47","新北市新店區北新路三段129號","121.541248333333","24.9827","6500600","新店區"
"231067","4772-VM","2017/10/27 19:59:46","新北市新店區秀山路11巷12弄9號","121.531513333333","24.959505","6500600","新店區"
"231065","512-UM","2017/10/27 19:59:55","新北市新店區安祥路106巷46號","121.476891666667","24.9616066666667","6500600","新店區"
"231064","515-UM","2017/10/27 19:59:38","新北市新店區安和路二段77號","121.518368333333","24.9688","6500600","新店區"
"231045","617-UM","2017/10/27 19:59:47","新北市新店區北宜路二段82-11號","121.554533333333","24.9534833333333","6500600","新店區"
"231040","619-UM","2017/10/27 19:59:55","新北市新店區中正路75巷71號","121.543135","24.9688016666667","6500600","新店區"
"231042","641-BX","2017/10/27 19:59:54","新北市新店區中興路一段292號","121.545868333333","24.9691833333333","6500600","新店區"
"231063","645-TV","2017/10/27 19:59:57","新北市新店區黎明路11號","121.501995","24.9498316666667","6500600","新店區"
"231068","718-UY","2017/10/27 19:59:40","新北市新店區安華路28-1號","121.51938","24.9607983333333","6500600","新店區"
"231049","719-UM","2017/10/27 19:59:48","新北市新店區明德路38號","121.541411666667","24.9778783333333","6500600","新店區"
"231051","719-UY","2017/10/27 20:00:00","新北市新店區中央三街28號","121.528446666667","24.9738916666667","6500600","新店區"
"231062","720-UM","2017/10/27 19:59:56","新北市新店區安華路16號","121.516448333333","24.957995","6500600","新店區"
"231044","897-TW","2017/10/27 19:59:57","新北市新店區寶慶街70號","121.541763333333","24.986715","6500600","新店區"
"231043","899-TW","2017/10/27 19:59:56","新北市新店區中正路263-4號","121.538255","24.9737666666667","6500600","新店區"
"231066","AKT-0513","2017/10/27 19:59:54","新北市新店區柴埕路52巷3號","121.511898333333","24.96447","6500600","新店區"
"241011","013-R5","2017/10/27 19:59:47","新北市三重區三和路二段226號","121.497685","25.069805","6500200","三重區"
"241028","022-UY","2017/10/27 19:59:49","新北市三重區中正南路28號","121.493636666667","25.06026","6500200","三重區"
"241008","059-VK","2017/10/27 19:59:38","新北市三重區永福街181號","121.479035","25.0750333333333","6500200","三重區"
"241031","061-VK","2017/10/27 19:59:53","新北市三重區重新路四段144巷7號","121.486955","25.0554816666667","6500200","三重區"
"241015","062-VK","2017/10/27 19:59:47","新北市三重區三和路二段8號","121.50115","25.0669083333333","6500200","三重區"
"241024","065-VK","2017/10/27 19:59:54","新北市三重區力行路一段176號","121.481945","25.0714716666667","6500200","三重區"
"241026","066-VK","2017/10/27 19:59:49","新北市三重區仁慈街2-1號","121.501556666667","25.063085","6500200","三重區"
"241002","090-VK","2017/10/27 19:59:58","新北市三重區五華街7巷16號","121.495796666667","25.080415","6500200","三重區"
"241003","091-VK","2017/10/27 19:59:40","新北市三重區自強路五段64號","121.493865","25.0815866666667","6500200","三重區"
"241005","156-TC","2017/10/27 19:59:42","新北市三重區溪尾街325巷23號","121.488606666667","25.0833883333333","6500200","三重區"
"241017","265-UM","2017/10/27 19:59:58","新北市三重區自強路一段236號","121.493163333333","25.0669866666667","6500200","三重區"
"241016","266-UM","2017/10/27 19:59:52","新北市三重區正義北路36巷2號","121.497105","25.0634","6500200","三重區"
"241022","267-UM","2017/10/27 19:59:46","新北市三重區過圳街31巷2號","121.489191666667","25.0605716666667","6500200","三重區"
"241018","268-UM","2017/10/27 19:59:59","新北市三重區雙園街110號","121.494875","25.06751","6500200","三重區"
"241032","269-UM","2017/10/27 19:59:55","新北市三重區朝陽街4巷2號","121.483621666667","25.0561166666667","6500200","三重區"
"241013","270-UM","2017/10/27 19:59:46","新北市三重區三和路三段125巷5號","121.493205","25.07347","6500200","三重區"
"241025","271-UM","2017/10/27 19:59:41","新北市三重區頂崁街210巷15-1號","121.476358333333","25.0678616666667","6500200","三重區"
"241007","398-BY","2017/10/27 19:59:47","新北市三重區慈愛街70號","121.487495","25.079625","6500200","三重區"
"241009","KEA-2210","2017/10/27 19:59:45","新北市三重區三和路四段390巷20號","121.48114","25.07878","6500200","三重區"
"241020","413-TH","2017/10/27 19:59:49","新北市三重區大智街165巷12號","121.490295","25.072585","6500200","三重區"
"241035","462-BY","2017/10/27 19:59:48","新北市三重區大榮街9號","121.498203333333","25.0631516666667","6500200","三重區"
"241004","475-VK","2017/10/27 19:59:51","新北市三重區仁愛街425巷91-1號","121.492256666667","25.0826483333333","6500200","三重區"
"241019","478-VK","2017/10/27 19:59:56","新北市三重區重陽路四段32號","121.491263333333","25.0695933333333","6500200","三重區"
"241030","480-VK","2017/10/27 19:59:41","新北市三重區重新路四段244巷10號","121.486236666667","25.0535233333333","6500200","三重區"
"241014","543-UM","2017/10/27 19:59:46","新北市三重區三和路二段180號","121.498818333333","25.06885","6500200","三重區"
"241023","545-UM","2017/10/27 19:59:43","新北市三重區頂崁街172號","121.477536666667","25.0659466666667","6500200","三重區"
"241001","547-UM","2017/10/27 19:59:59","新北市三重區福隆路83號","121.491796666667","25.0780833333333","6500200","三重區"
"241006","AAD-863","2017/10/27 19:59:53","新北市三重區力行路二段91巷1弄20號","121.483751666667","25.0760516666667","6500200","三重區"
"241012","941-UM","2017/10/27 19:59:40","新北市三重區仁厚街30號","121.499936666667","25.0764183333333","6500200","三重區"
"241029","942-UM","2017/10/27 19:59:59","新北市三重區重安街12號","121.490215","25.0582583333333","6500200","三重區"
"241033","AAC-255","2017/10/27 19:59:44","新北市三重區中興北街77號","121.469505","25.0477216666667","6500200","三重區"
"235066","003-UY","2017/10/27 19:59:42","新北市中和區水源路127巷11號","121.508058333333","25.0038433333333","6500300","中和區"
"235056","096-UM","2017/10/27 19:59:56","新北市中和區中山路三段170巷5號","121.47281","25.006795","6500300","中和區"
"235039","097-UM","2017/10/27 19:59:49","新北市中和區景平路278巷14弄16號","121.514955","24.9932616666667","6500300","中和區"
"235065","098-UM","2017/10/27 19:59:46","新北市中和區福美路257號","121.498625","25.0051383333333","6500300","中和區"
"235040","150-BY","2017/10/27 19:59:51","新北市中和區保健路19巷6號","121.50867","24.998605","6500300","中和區"
"235058","151-BY","2017/10/27 19:59:41","新北市中和區員山路150巷2弄39號","121.481841666667","24.99747","6500300","中和區"
"235055","183-VK","2017/10/27 19:59:49","新北市中和區民生街23巷2弄1號","121.470841666667","25.0052983333333","6500300","中和區"
"235038","185-VK","2017/10/27 19:59:39","新北市中和區大仁街20巷50號","121.520116666667","24.993435","6500300","中和區"
"235049","186-VK","2017/10/27 19:59:55","新北市中和區景平路401號","121.502363333333","24.9946766666667","6500300","中和區"
"235067","255-BX","2017/10/27 19:59:41","新北市中和區員山路148巷23弄13號","121.482166666667","24.9978216666667","6500300","中和區"
"235044","293-VK","2017/10/27 19:59:54","新北市中和區中正路65巷6號","121.501253333333","24.9929866666667","6500300","中和區"
"235072","301-VK","2017/10/27 19:59:57","新北市新店區安康路二段320巷15弄2號","121.50415","24.95962","6500300","中和區"
"235043","352-BY","2017/10/27 19:59:45","新北市中和區興南路二段159巷12號","121.505216666667","24.9831483333333","6500300","中和區"
"235051","376-QA","2017/10/27 19:59:59","新北市中和區景安路247巷7號","121.504281666667","24.9906016666667","6500300","中和區"
"235068","377-QA","2017/10/27 19:58:49","新北市中和區中山路二段250巷24號","121.497341666667","25.0033166666667","6500300","中和區"
"235050","4979-A6","2017/10/27 19:59:56","新北市中和區景平路157號","121.513178333333","24.9923116666667","6500300","中和區"
"235069","4980-A6","2017/10/27 19:59:51","新北市中和區南山路127巷27弄26號","121.50336","24.998005","6500300","中和區"
"235070","558-UM","2017/10/27 19:59:59","新北市中和區連勝街27號","121.498736666667","24.997735","6500300","中和區"
"235054","640-BX","2017/10/27 19:59:58","新北市中和區莒光路128號","121.472476666667","25.001615","6500300","中和區"
"235046","733-UM","2017/10/27 19:59:49","新北市中和區興南路一段105巷20弄1號","121.510196666667","24.9858066666667","6500300","中和區"
"235062","800-TS","2017/10/27 19:59:50","新北市板橋區民生路三段309號","121.463586666667","25.03113","6500300","中和區"
"235057","801-TS","2017/10/27 19:59:41","新北市中和區中正路828號","121.484845","25.0038233333333","6500300","中和區"
"235041","802-TS","2017/10/27 19:59:52","新北市中和區永貞路264號","121.513751666667","25.0036133333333","6500300","中和區"
"235052","805-TS","2017/10/27 19:59:54","新北市中和區忠孝街24號","121.51048","24.9829433333333","6500300","中和區"
"235048","896-TW","2017/10/27 19:59:43","新北市中和區景新街390號","121.512448333333","24.98986","6500300","中和區"
"235053","900-TW","2017/10/27 20:00:00","新北市中和區民德路258號","121.468066666667","24.9970283333333","6500300","中和區"
"235060","911-UM","2017/10/27 19:59:55","新北市中和區新生街52號","121.48321","25.00305","6500300","中和區"
"235059","AAC-215","2017/10/27 19:59:42","新北市中和區圓通路343號","121.491541666667","24.9903633333333","6500300","中和區"
"220016","013-TV","2017/10/27 19:50:18","新北市板橋區民生路二段161巷1號","121.46998","25.0202016666667","6500100","板橋區"
"220065","072-UY","2017/10/27 19:59:42","新北市板橋區中山路一段154巷3弄2號","121.46539","25.0104416666667","6500100","板橋區"
"220106","075-UY","2017/10/27 19:59:43","新北市板橋區民治街84號","121.479396666667","25.0320666666667","6500100","板橋區"
"220069","AAD-861","2017/10/27 19:59:57","新北市板橋區貴興路49號","121.457348333333","25.0032","6500100","板橋區"
"220068","120-SR","2017/10/27 19:59:51","新北市板橋區中山路二段412巷29弄17號","121.484315","25.02026","6500100","板橋區"
"247020","500-BY","2017/10/27 19:59:51","新北市蘆洲區民義街66號","121.472951666667","25.0897583333333","6501400","蘆洲區"
"247010","339-TH","2017/10/27 19:59:43","新北市蘆洲區集賢路232號","121.482281666667","25.086135","6501400","蘆洲區"
"247002","337-TH","2017/10/27 19:59:50","新北市蘆洲區長安街276號","121.45726","25.08705","6501400","蘆洲區"
"247004","336-TH","2017/10/27 19:59:50","新北市蘆洲區永康街77號","121.455771666667","25.0851883333333","6501400","蘆洲區"
"247016","057-VK","2017/10/27 19:59:43","新北市蘆洲區光華路11號","121.469821666667","25.0833983333333","6501400","蘆洲區"
"247006","056-VK","2017/10/27 19:59:55","新北市蘆洲區九芎街68號","121.466568333333","25.0792383333333","6501400","蘆洲區"
"247008","053-VK","2017/10/27 19:59:48","新北市蘆洲區信義路73巷13號","121.47595","25.0806816666667","6501400","蘆洲區"
"247014","007-UY","2017/10/27 19:59:53","新北市蘆洲區成功路121號","121.472396666667","25.0821366666667","6501400","蘆洲區"
"226004","205-ST","2017/10/27 19:59:47","新北市平溪區靜安路二段530巷7號","121.745118333333","25.0273933333333","6502400","平溪區"
"228003","097-TW","2017/10/27 19:59:38","新北市貢寮區仁理村仁和路96號","121.922806666667","25.0505283333333","6502600","貢寮區"
"227003","642-TC","2017/10/27 19:59:51","新北市雙溪區雙溪里長安街16號","121.864985","25.034665","6502500","雙溪區"
"227011","400-TW","2017/10/27 19:59:49","新北市雙溪區新基里朝陽街3號","121.866296666667","25.03854","6502500","雙溪區"
"222001","KEA-2212","2017/10/27 19:59:44","新北市深坑區北深路三段157-1號","121.601953333333","25.0031883333333","6501800","深坑區"
"208002","742-BX","2017/10/27 19:59:48","新北市金山區中正路134-5號","121.632406666667","25.22037","6502700","金山區"
"208003","665-BX","2017/10/27 19:59:44","新北市金山區永興里跳石4號","121.633558333333","25.256155","6502700","金山區"
"251004","009-UM","2017/10/27 19:59:57","新北市淡水區民族路50巷2弄2號","121.461538333333","25.1358683333333","6501000","淡水區"
"251005","010-UM","2017/10/27 19:59:53","新北市淡水區學府路136巷13號","121.451093333333","25.1728616666667","6501000","淡水區"
"251013","180-VK","2017/10/27 19:59:44","新北市淡水區奎柔山路63號","121.451396666667","25.2062333333333","6501000","淡水區"
"251008","181-VK","2017/10/27 19:59:53","新北市淡水區淡海路72巷22號","121.424126666667","25.18104","6501000","淡水區"
"251015","182-VK","2017/10/27 19:59:43","新北市淡水區埤島80-1號","121.44956","25.1896516666667","6501000","淡水區"
"251010","413-VK","2017/10/27 19:59:41","新北市淡水區崁頂76-2號","121.431705","25.2043733333333","6501000","淡水區"
"251012","441-VK","2017/10/27 20:00:00","新北市淡水區下圭柔山100-1號","121.437488333333","25.2104066666667","6501000","淡水區"
"251001","559-UM","2017/10/27 19:59:39","新北市淡水區水源街二段189-2號","121.456608333333","25.1763166666667","6501000","淡水區"
"251006","561-UM","2017/10/27 19:59:46","新北市淡水區水碓街81號","121.445118333333","25.1775566666667","6501000","淡水區"
"251009","575-R6","2017/10/27 19:59:58","新北市淡水區英專路23號","121.44531","25.16974","6501000","淡水區"
"251007","577-R6","2017/10/27 19:59:42","新北市淡水區忠愛街12號","121.457505","25.1748066666667","6501000","淡水區"
"251011","650-BX","2017/10/27 19:59:54","新北市淡水區崁頂55-3號","121.442311666667","25.1966233333333","6501000","淡水區"
"207003","550-UM","2017/10/27 19:59:41","新北市萬里區磺潭里公館崙5號","121.641888333333","25.2142366666667","6502800","萬里區"
"207004","225-TW","2017/10/27 19:59:44","新北市萬里區北基里忠二街35號","121.685613333333","25.17571","6502800","萬里區"
"252002","178-VK","2017/10/27 19:59:55","新北市三芝區三民街39巷5號","121.505443333333","25.2576166666667","6502100","三芝區"
"252001","292-VK","2017/10/27 19:59:46","新北市三芝區公正街66號","121.499773333333","25.2574733333333","6502100","三芝區"
"237007","153-BY","2017/10/27 19:59:44","新北市三峽區二鬮路136巷24弄43號","121.356845","24.9105483333333","6500900","三峽區"
"237009","210-TH","2017/10/27 19:59:44","新北市三峽區中山路117號","121.365518333333","24.9356016666667","6500900","三峽區"
"237012","275-BY","2017/10/27 19:59:40","新北市三峽區中華路5-1號","121.374691666667","24.932625","6500900","三峽區"
"237014","433-BY","2017/10/27 19:59:52","新北市三峽區正義街5號","121.369986666667","24.92009","6500900","三峽區"
"237006","5529-G3","2017/10/27 19:59:45","新北市三峽區中正路二段168號","121.365941666667","24.9157366666667","6500900","三峽區"
"237015","649-BX","2017/10/27 19:59:45","新北市三峽區介壽路二段167號","121.394735","24.9361033333333","6500900","三峽區"
"237005","AKY-6261","2017/10/27 19:59:48","新北市三峽區民生街1巷5-14號","121.378865","24.93637","6500900","三峽區"
"236072","105-UM","2017/10/27 19:59:45","新北市土城區千歲路26號","121.441746666667","24.9688083333333","6501300","土城區"
"236043","107-UM","2017/10/27 19:59:50","新北市土城區學府路一段145號","121.453708333333","24.98609","6501300","土城區"
"236079","166-UM","2017/10/27 19:59:56","新北市土城區福安街68號","121.418338333333","24.9645166666667","6501300","土城區"
"236031","253-BX","2017/10/27 19:59:54","新北市土城區中央路一段240號","121.444626666667","24.984885","6501300","土城區"
"236027","269-VK","2017/10/27 19:59:53","新北市土城區中央路二段63號","121.442413333333","24.9788516666667","6501300","土城區"
"236015","270-VK","2017/10/27 19:59:59","新北市土城區廣明街28巷9號","121.456158333333","24.9928266666667","6501300","土城區"
"236039","271-VK","2017/10/27 19:59:49","新北市土城區國際路65號","121.466748333333","24.9764566666667","6501300","土城區"
"236022","401-BY","2017/10/27 19:59:44","新北市土城區延吉街165巷5號","121.470355","24.985325","6501300","土城區"
"236059","912-UM","2017/10/27 19:59:50","新北市土城區中央路一段175號","121.446291666667","24.9874416666667","6501300","土城區"
"236050","913-UM","2017/10/27 19:59:55","新北市土城區金城路三段315號","121.475095","24.99125","6501300","土城區"
"236063","915-UM","2017/10/27 19:59:53","新北市土城區金城路三段73巷9弄1號","121.466206666667","24.9876116666667","6501300","土城區"
"236055","AAC-216","2017/10/27 19:59:47","新北市土城區立德路107號","121.463975","24.9878216666667","6501300","土城區"
"242032","AAC-296","2017/10/27 19:59:56","新北市新莊區公園一路41號","121.443186666667","25.0356316666667","6500500","新莊區"
"242029","986-R7","2017/10/27 20:00:00","新北市新莊區中平路359號","121.444641666667","25.0517883333333","6500500","新莊區"
"242050","751-BX","2017/10/27 19:59:55","新北市新莊區西盛街212-1號","121.428131666667","25.0177683333333","6500500","新莊區"
"242025","615-BX","2017/10/27 19:59:57","新北市新莊區五工一路91號","121.461036666667","25.0678133333333","6500500","新莊區"
"242023","613-BX","2017/10/27 20:00:01","新北市新莊區化成路380-1號","121.465891666667","25.05006","6500500","新莊區"
"242027","612-BX","2017/10/27 19:59:59","新北市新莊區幸福路898號","121.443281666667","25.04934","6500500","新莊區"
"242039","566-BX","2017/10/27 19:59:43","新北市新莊區民安路285-3號","121.429105","25.0224483333333","6500500","新莊區"
"242044","497-BY","2017/10/27 19:59:49","新北市新莊區中正路925號","121.410523333333","25.0211783333333","6500500","新莊區"
"242011","442-UM","2017/10/27 19:59:47","新北市新莊區中信街66-18號","121.44936","25.0513916666667","6500500","新莊區"
"242048","441-UM","2017/10/27 19:59:47","新北市新莊區民安路193號","121.426116666667","25.0227066666667","6500500","新莊區"
"242005","413-TV","2017/10/27 19:59:48","新北市新莊區化成路163號","121.465723333333","25.0493533333333","6500500","新莊區"
"242041","400-BY","2017/10/27 19:59:52","新北市新莊區新北大道七段323號","121.41223","25.0282716666667","6500500","新莊區"
"242060","362-BY","2017/10/27 19:59:57","新北市新莊區瓊林路41號","121.444981666667","25.02837","6500500","新莊區"
"242058","353-BY","2017/10/27 19:59:49","新北市新莊區八德街115號","121.424096666667","25.0207716666667","6500500","新莊區"
"242007","132-UY","2017/10/27 19:59:42","新北市新莊區榮華路一段2號","121.45785","25.0558216666667","6500500","新莊區"
"242037","133-UY","2017/10/27 19:59:43","新北市新莊區建安街41巷8號","121.429076666667","25.0252633333333","6500500","新莊區"
"242021","135-UY","2017/10/27 19:59:47","新北市新莊區建中街32巷21號","121.448691666667","25.038205","6500500","新莊區"
"242046","172-VK","2017/10/27 19:59:46","新北市新莊區裕民街19巷4號","121.419715","25.0252366666667","6500500","新莊區"
"242009","173-VK","2017/10/27 19:59:51","新北市新莊區幸福路776號","121.446901666667","25.0491383333333","6500500","新莊區"
"242015","175-VK","2017/10/27 19:59:43","新北市新莊區泰順街31號","121.446156666667","25.0425016666667","6500500","新莊區"
"242002","176-VK","2017/10/27 19:59:45","新北市新莊區中正路219號","121.450936666667","25.03577","6500500","新莊區"
"242013","346-TH","2017/10/27 19:59:41","新北市新莊區中港路430號","121.452065","25.0507666666667","6500500","新莊區"
"242056","347-TH","2017/10/27 19:59:42","新北市新莊區中正路347巷19號","121.447286666667","25.0342183333333","6500500","新莊區"
"242019","348-TH","2017/10/27 19:59:45","新北市新莊區長青街37巷9號","121.456485","25.0417966666667","6500500","新莊區"
"238015","755-BX","2017/10/27 19:59:21","新北市樹林區中山路三段210-2號","121.380826666667","24.96704","6500700","樹林區"
"238023","601-UM","2017/10/27 19:59:57","新北市樹林區中正路161號","121.42411","25.0021516666667","6500700","樹林區"
"238021","KEA-2217","2017/10/27 19:59:54","新北市樹林區佳園路三段101巷18號","121.389516666667","24.9513116666667","6500700","樹林區"
"238025","303-VK","2017/10/27 19:59:45","新北市樹林區八德街1008號","121.391471666667","24.9685083333333","6500700","樹林區"
"238014","282-BY","2017/10/27 19:59:37","新北市樹林區八德街372號","121.406886666667","24.969505","6500700","樹林區"
"238020","268-VK","2017/10/27 19:59:41","新北市樹林區中山路三段210-2號","121.380706666667","24.96671","6500700","樹林區"
"221008","489-VK","2017/10/27 19:59:58","台北市內湖區安泰街2號","121.619525","25.0733233333333","6501100","汐止區"
"221036","130-UY","2017/10/27 19:59:50","新北市汐止區新台五路二段85巷14號","121.664373333333","25.0672966666667","6501100","汐止區"
"221015","131-UY","2017/10/27 19:59:53","新北市汐止區忠孝東路473巷24-1號","121.665286666667","25.0735516666667","6501100","汐止區"
"221010","269-BY","2017/10/27 19:59:01","新北市汐止區連峰街128號","121.646201666667","25.0790816666667","6501100","汐止區"
"221012","276-VK","2017/10/27 13:19:52","新北市汐止區汐萬路一段256巷3號","121.653448333333","25.0746016666667","6501100","汐止區"
"221012","278-VK","2017/10/27 19:59:52","新北市汐止區大同路三段330號","121.67929","25.0710866666667","6501100","汐止區"
"221023","279-VK","2017/10/27 19:59:48","新北市汐止區明峰街216號","121.627025","25.068895","6501100","汐止區"
"221027","281-BY","2017/10/27 19:59:53","新北市汐止區中正路98號","121.66121","25.0694783333333","6501100","汐止區"
"221029","298-VK","2017/10/27 19:59:43","新北市汐止區樟樹一路137巷26號","121.64099","25.065925","6501100","汐止區"
"221021","299-VK","2017/10/27 19:59:47","新北市汐止區新台五路一段197號","121.655926666667","25.0633183333333","6501100","汐止區"
"221031","353-TW","2017/10/27 19:59:54","新北市汐止區福德一路176巷14號","121.635393333333","25.0664816666667","6501100","汐止區"
"221002","358-BY","2017/10/27 19:59:46","新北市汐止區工建路504號","121.633133333333","25.0584083333333","6501100","汐止區"
"221035","622-UM","2017/10/27 19:59:48","新北市汐止區長江街57巷5號","121.656143333333","25.0717933333333","6501100","汐止區"
"221025","623-UM","2017/10/27 19:59:52","新北市汐止區秀峰路83號","121.660043333333","25.0641616666667","6501100","汐止區"
"221038","646-BX","2017/10/27 19:59:43","新北市汐止區忠孝東路454號","121.666141666667","25.072855","6501100","汐止區"
"221033","647-BX","2017/10/27 19:59:44","新北市汐止區東勢街201巷104號","121.63347","25.0429566666667","6501100","汐止區"
"221018","753-BX","2017/10/27 19:59:55","新北市汐止區茄苳路142號","121.668753333333","25.0700466666667","6501100","汐止區"
"220079","145-BY","2017/10/27 19:59:41","新北市板橋區南雅西路二段175巷2號","121.451533333333","25.0124766666667","6500100","板橋區"
"220080","200-UY","2017/10/27 19:59:58","新北市板橋區大觀路二段153巷22號","121.446605","25.0002433333333","6500100","板橋區"
"220082","610-BX","2017/10/27 19:59:58","新北市板橋區篤行路二段108號","121.431355","24.9911166666667","6500100","板橋區"
"220101","245-BX","2017/10/27 19:59:53","新北市板橋區莒光路180巷23號","121.473171666667","25.022805","6500100","板橋區"
"220067","255-TC","2017/10/27 15:08:38","新北市三重區後埔街61-1號","121.479733333333","25.0472116666667","6500100","板橋區"
"220071","283-VK","2017/10/27 19:59:41","新北市板橋區和平路174巷1弄2號","121.464201666667","24.9950516666667","6500100","板橋區"
"220094","285-UM","2017/10/27 19:59:51","新北市板橋區陽明街285號","121.461955","25.0264133333333","6500100","板橋區"
"220053","285-VK","2017/10/27 19:59:56","新北市板橋區永豐街69號","121.473796666667","25.0186166666667","6500100","板橋區"
"220083","286-VK","2017/10/27 19:59:49","新北市板橋區僑中二街16號","121.446196666667","25.0107083333333","6500100","板橋區"
"220081","287-VK","2017/10/27 19:59:47","新北市板橋區僑中一街80巷6弄1號","121.447665","25.012075","6500100","板橋區"
"220090","288-VK","2017/10/27 19:59:43","新北市板橋區幸福路32巷4弄7號","121.461126666667","25.0215283333333","6500100","板橋區"
"220061","293-UM","2017/10/27 19:59:53","新北市板橋區觀光街57巷15弄1號","121.470281666667","25.0160766666667","6500100","板橋區"
"220084","296-UM","2017/10/27 19:59:57","新北市板橋區滿平街2巷10號","121.42518","24.98937","6500100","板橋區"
"242001","281-VK","2017/10/27 17:30:08","新北市新莊區環河路636-7號","121.437411666667","25.0113","6500500","新莊區"
"220062","305-R5","2017/10/27 19:59:47","新北市板橋區中山路二段613號","121.485401666667","25.02255","6500100","板橋區"
"220092","307-R5","2017/10/27 19:59:56","新北市板橋區四維路259巷81號","121.460261666667","25.0265633333333","6500100","板橋區"
"220098","317-R6","2017/10/27 19:59:57","新北市板橋區新海路72巷48號","121.462086666667","25.023","6500100","板橋區"
"220064","486-VK","2017/10/27 20:00:01","新北市板橋區館前東路112號","121.463388333333","25.0076483333333","6500100","板橋區"
"220089","487-VK","2017/10/27 19:59:58","新北市板橋區龍泉街157號","121.45812","25.0242983333333","6500100","板橋區"
"242034","280-VK","2017/10/27 19:59:49","新北市新莊區建中街80號","121.447258333333","25.0367116666667","6500500","新莊區"
"220088","491-VK","2017/10/27 19:59:46","新北市板橋區懷德街214號","121.479955","25.0294616666667","6500100","板橋區"
"220035","560-BX","2017/10/27 19:59:49","新北市板橋區新生街89巷10號","121.457811666667","25.0223333333333","6500100","板橋區"
"220103","561-BX","2017/10/27 19:59:48","新北市板橋區自由路18-3號","121.46546","25.022575","6500100","板橋區"
"220063","609-BX","2017/10/27 19:59:44","新北市板橋區中山路二段92號","121.475345","25.0163916666667","6500100","板橋區"
"220091","637-BX","2017/10/27 19:59:48","新北市板橋區懷德街158巷5號","121.478595","25.0305066666667","6500100","板橋區"
"220057","686-BX","2017/10/27 19:59:37","新北市板橋區四川路二段2號","121.45661","24.9966","6500100","板橋區"
"220093","689-BX","2017/10/27 19:59:47","新北市板橋區長江路三段120號","121.475195","25.0343683333333","6500100","板橋區"
"220054","741-BX","2017/10/27 19:59:44","新北市板橋區實踐路93巷10號","121.464491666667","25.0054383333333","6500100","板橋區"
"220055","827-TW","2017/10/27 19:59:57","新北市板橋區仁愛路62巷14弄1-3號","121.45993","24.9985","6500100","板橋區"
"220102","830-TW","2017/10/27 19:59:46","新北市板橋區懷德街78巷19號","121.47786","25.0313183333333","6500100","板橋區"
"220096","831-TW","2017/10/27 19:59:47","新北市板橋區莒光路133巷11號","121.472153333333","25.0246416666667","6500100","板橋區"
"220074","895-R6","2017/10/27 19:59:45","新北市板橋區縣民大道一段295號","121.460915","25.010385","6500100","板橋區"
"220073","985-R7","2017/10/27 19:59:51","新北市板橋區南雅西路二段3號","121.453038333333","25.0089933333333","6500100","板橋區"
"220097","AAC-210","2017/10/27 19:59:43","新北市板橋區光正街45巷17號","121.461745","25.0165883333333","6500100","板橋區"
"220070","AAC-253","2017/10/27 19:59:55","新北市板橋區成都街59號","121.461685","25.0049733333333","6500100","板橋區"
