"lineid","car","time","location","longitude","latitude","cityid","cityname"
"234064","337-UY","2017/10/27 20:39:42","新北市中和區勝利路2號","121.498641666667","25.0086983333333","6500400","永和區"
"234030","746-BX","2017/10/27 20:39:49","新北市五股區五工一路109號","121.456781666667","25.0707366666667","6500400","永和區"
"234061","AAD-866","2017/10/27 20:39:41","新北市永和區中正路381號","121.51718","25.003665","6500400","永和區"
"234050","863-TW","2017/10/27 20:40:00","新北市永和區保安路83號","121.508523333333","25.0147083333333","6500400","永和區"
"234011","9373-KE","2017/10/27 20:39:49","新北市永和區保生路55-1號","121.504508333333","25.0109166666667","6500400","永和區"
"249001","173-UM","2017/10/27 20:39:39","新北市八里區中山路三段275號","121.378905","25.1391316666667","6502300","八里區"
"249004","303-UY","2017/10/27 20:39:52","新北市八里區中山路一段121號","121.413683333333","25.1595083333333","6502300","八里區"
"249002","305-UY","2017/10/27 20:39:45","新北市八里區中華路一段307號","121.416353333333","25.1554566666667","6502300","八里區"
"248012","247-BX","2017/10/27 20:39:45","新北市八里區下罟子8-10號","121.383058333333","25.1444583333333","6501500","五股區"
"234023","9380-KE","2017/10/27 20:39:54","新北市永和區竹林路25巷17弄6號","121.51788","25.0149266666667","6500400","永和區"
"234074","AAC-211","2017/10/27 20:39:46","新北市永和區竹林路117-1號","121.52002","25.0114833333333","6500400","永和區"
"243010","KEA-2215","2017/10/27 20:39:45","新北市泰山區泰林路三段17巷3號","121.420695","25.06426","6501600","泰山區"
"222003","436-BY","2017/10/27 20:39:52","新北市深坑區文山路二段30巷31號","121.615306666667","24.998625","6501800","深坑區"
"222002","659-BX","2017/10/27 20:39:51","新北市深坑區萬福路12-1號","121.598621666667","25.0062816666667","6501800","深坑區"
"231041","002-UM","2017/10/27 20:39:44","新北市新店區中正路545號","121.533811666667","24.98768","6500600","新店區"
"231059","046-UY","2017/10/27 20:39:50","新北市新店區吉祥街15巷60號","121.499728333333","24.9453316666667","6500600","新店區"
"231061","047-UY","2017/10/27 20:39:44","新北市新店區新和街39號","121.519325","24.9850133333333","6500600","新店區"
"231060","106-UY","2017/10/27 20:39:43","新北市新店區安康路三段740號","121.47383","24.94195","6500600","新店區"
"231048","108-UY","2017/10/27 20:39:49","新北市新店區寶慶街12-2號","121.543258333333","24.9867016666667","6500600","新店區"
"231053","187-VK","2017/10/27 20:39:51","新北市新店區廣興路7-10號","121.545751666667","24.91167","6500600","新店區"
"231050","KEA-2219","2017/10/27 20:39:52","新北市新店區建安街15巷1號","121.539758333333","24.975445","6500600","新店區"
"231057","256-BX","2017/10/27 20:39:54","新北市新店區花園六路二段12號","121.554821666667","24.9334033333333","6500600","新店區"
"231054","AAD-862","2017/10/27 20:39:58","新北市新店區行政街14巷3號","121.543135","24.9659233333333","6500600","新店區"
"231058","3712-VJ","2017/10/27 20:39:53","新北市新店區中正路307巷13號","121.536046666667","24.9738016666667","6500600","新店區"
"231056","4716-K9","2017/10/27 20:39:47","新北市新店區中央路22-1號","121.533235","24.9783783333333","6500600","新店區"
"231065","512-UM","2017/10/27 20:39:55","新北市新店區安祥路102巷26號","121.483875","24.963965","6500600","新店區"
"231064","515-UM","2017/10/27 20:39:38","新北市新店區安和路三段171號","121.515961666667","24.9860816666667","6500600","新店區"
"231045","617-UM","2017/10/27 20:39:47","新北市新店區長春路100號","121.551515","24.95901","6500600","新店區"
"231040","619-UM","2017/10/27 20:39:55","新北市新店區中正路263-1號","121.538553333333","24.97359","6500600","新店區"
"231042","641-BX","2017/10/27 20:39:54","新北市新店區寶高路120巷1-1號","121.554548333333","24.9759433333333","6500600","新店區"
"231063","645-TV","2017/10/27 20:39:56","新北市新店區玫瑰路4-1號","121.493566666667","24.9514383333333","6500600","新店區"
"231068","718-UY","2017/10/27 20:39:40","新北市新店區寶元路一段85巷10號","121.543146666667","24.986","6500600","新店區"
"231049","719-UM","2017/10/27 20:39:47","新北市新店區永業路81巷1弄15號","121.530283333333","24.9501966666667","6500600","新店區"
"231051","719-UY","2017/10/27 20:39:53","新北市新店區中央八街82號","121.527291666667","24.9771583333333","6500600","新店區"
"231062","720-UM","2017/10/27 20:39:56","新北市新店區安康路三段277-1號","121.485886666667","24.9512916666667","6500600","新店區"
"231044","897-TW","2017/10/27 20:39:57","新北市新店區建國路293巷1號","121.536683333333","24.98617","6500600","新店區"
"231043","899-TW","2017/10/27 20:39:58","新北市新店區博愛街13巷29號","121.540466666667","24.9742783333333","6500600","新店區"
"231066","AKT-0513","2017/10/27 20:39:52","新北市新店區安興路105-1號","121.514606666667","24.977685","6500600","新店區"
"241011","013-R5","2017/10/27 20:39:47","新北市三重區龍濱路233巷23號","121.50242","25.07225","6500200","三重區"
"241028","022-UY","2017/10/27 20:39:43","新北市三重區光興街93號","121.49732","25.0599766666667","6500200","三重區"
"241008","059-VK","2017/10/27 20:39:58","新北市三重區下竹圍街42-1號","121.480968333333","25.074885","6500200","三重區"
"241031","061-VK","2017/10/27 20:39:53","新北市三重區重陽路一段113巷1弄49號","121.488016666667","25.058525","6500200","三重區"
"241015","062-VK","2017/10/27 20:39:47","新北市三重區文化北路119號","121.497833333333","25.06867","6500200","三重區"
"241024","065-VK","2017/10/27 20:39:54","新北市三重區中正北路253號","121.475548333333","25.0707883333333","6500200","三重區"
"241026","066-VK","2017/10/27 20:39:49","新北市三重區文化南路7號","121.500021666667","25.0623483333333","6500200","三重區"
"241002","090-VK","2017/10/27 20:39:58","新北市三重區仁義街167巷22號","121.497858333333","25.0820416666667","6500200","三重區"
"241005","156-TC","2017/10/27 20:39:42","新北市三重區集賢路85號","121.494036666667","25.086755","6500200","三重區"
"241017","265-UM","2017/10/27 20:39:58","新北市三重區民生街48號","121.49168","25.06686","6500200","三重區"
"241016","266-UM","2017/10/27 20:39:52","新北市三重區長壽西街142-1號","121.49478","25.0668566666667","6500200","三重區"
"241022","267-UM","2017/10/27 20:39:46","新北市三重區新北大道一段46巷18弄7號","121.488275","25.0620216666667","6500200","三重區"
"241018","268-UM","2017/10/27 20:39:39","新北市三重區重陽路四段19號","121.491233333333","25.0692516666667","6500200","三重區"
"241032","269-UM","2017/10/27 20:39:55","新北市三重區重陽路一段120巷48號","121.485058333333","25.060155","6500200","三重區"
"241013","270-UM","2017/10/27 20:39:46","新北市三重區仁賢街12-1號","121.495655","25.0748466666667","6500200","三重區"
"241025","271-UM","2017/10/27 20:39:41","新北市三重區頂崁街140號","121.47764","25.065035","6500200","三重區"
"241007","398-BY","2017/10/27 20:39:47","新北市三重區三和路四段95號","121.488253333333","25.0759983333333","6500200","三重區"
"241009","KEA-2210","2017/10/27 20:39:45","新北市三重區碧華街57號","121.484766666667","25.0813383333333","6500200","三重區"
"241020","413-TH","2017/10/27 20:39:49","新北市三重區忠孝路一段101號","121.489421666667","25.0720816666667","6500200","三重區"
"241035","462-BY","2017/10/27 20:39:48","新北市三重區正義北路374號","121.493428333333","25.0714166666667","6500200","三重區"
"241004","475-VK","2017/10/27 20:39:51","新北市三重區仁愛街403號","121.49102","25.080935","6500200","三重區"
"241019","478-VK","2017/10/27 20:39:56","新北市三重區重陽路四段120號","121.492225","25.0707016666667","6500200","三重區"
"241030","480-VK","2017/10/27 20:39:41","新北市三重區成功路73巷11號","121.48952","25.0518316666667","6500200","三重區"
"241014","543-UM","2017/10/27 20:39:46","新北市三重區介壽路11號","121.498885","25.0692466666667","6500200","三重區"
"241023","545-UM","2017/10/27 20:39:58","新北市三重區自由街41號","121.47886","25.06693","6500200","三重區"
"241001","547-UM","2017/10/27 20:39:58","新北市三重區自強路三段110巷29號","121.48573","25.074505","6500200","三重區"
"241006","AAD-863","2017/10/27 20:39:53","新北市三重區車路頭街139巷12號","121.484255","25.0762166666667","6500200","三重區"
"241012","941-UM","2017/10/27 20:40:00","新北市三重區秀江街33號","121.501955","25.0728666666667","6500200","三重區"
"241029","942-UM","2017/10/27 20:39:59","新北市三重區集美街126巷26號","121.490053333333","25.0538666666667","6500200","三重區"
"241033","AAC-255","2017/10/27 20:39:44","新北市三重區光復路二段1號","121.472313333333","25.0533383333333","6500200","三重區"
"235069","4980-A6","2017/10/27 20:39:51","新北市中和區連城路469巷79弄2號","121.483461666667","24.9938933333333","6500300","中和區"
"235026","800-TS","2017/10/27 20:17:32","新北市中和區員山路36巷16-3號","121.485031666667","24.9916666666667","6500300","中和區"
"220016","013-TV","2017/10/27 19:50:18","新北市板橋區民生路二段161巷1號","121.46998","25.0202016666667","6500100","板橋區"
"247022","893-R6","2017/10/27 20:39:55","新北市蘆洲區中正路263巷9號","121.466633333333","25.08693","6501400","蘆洲區"
"247012","546-UM","2017/10/27 20:39:47","新北市蘆洲區集賢路224巷66號","121.48081","25.0881583333333","6501400","蘆洲區"
"247020","500-BY","2017/10/27 20:39:51","新北市蘆洲區民族路331號","121.47376","25.0917583333333","6501400","蘆洲區"
"247002","337-TH","2017/10/27 20:39:50","新北市蘆洲區環堤大道142號","121.4557","25.088375","6501400","蘆洲區"
"247004","336-TH","2017/10/27 20:39:50","新北市蘆洲區長安街222號","121.458151666667","25.0848733333333","6501400","蘆洲區"
"247016","057-VK","2017/10/27 20:39:43","新北市蘆洲區中山一路282號","121.471215","25.07888","6501400","蘆洲區"
"247006","056-VK","2017/10/27 20:39:55","新北市蘆洲區和平路121巷8弄16號","121.466431666667","25.0803133333333","6501400","蘆洲區"
"247008","053-VK","2017/10/27 20:39:48","新北市蘆洲區重陽街2號","121.480595","25.08111","6501400","蘆洲區"
"247014","007-UY","2017/10/27 20:39:53","新北市蘆洲區中山一路233號","121.473635","25.0806566666667","6501400","蘆洲區"
"247024","002-UY","2017/10/27 20:39:42","新北市蘆洲區長樂路70號","121.462645","25.0867933333333","6501400","蘆洲區"
"222001","KEA-2212","2017/10/27 20:39:44","新北市深坑區北深路三段230號","121.600766666667","25.0040866666667","6501800","深坑區"
"251002","012-UM","2017/10/27 20:39:46","新北市淡水區中正路38-1號","121.443726666667","25.16926","6501000","淡水區"
"251013","180-VK","2017/10/27 20:39:44","新北市淡水區番子厝16號","121.46019","25.2059483333333","6501000","淡水區"
"251015","182-VK","2017/10/27 20:39:43","新北市淡水區淡金路四段542巷17號","121.452671666667","25.2270766666667","6501000","淡水區"
"251010","413-VK","2017/10/27 20:39:41","新北市淡水區沙崙路181巷15號","121.423906666667","25.18439","6501000","淡水區"
"251012","441-VK","2017/10/27 20:39:40","新北市淡水區興仁路101巷10號","121.450905","25.217985","6501000","淡水區"
"251001","559-UM","2017/10/27 20:39:59","新北市淡水區鄧公路278巷1號","121.460678333333","25.1682716666667","6501000","淡水區"
"251011","650-BX","2017/10/27 20:39:54","新北市淡水區新市一路一段361號","121.436225","25.1862366666667","6501000","淡水區"
"251003","766-UM","2017/10/27 20:39:50","新北市淡水區新民街120巷15號","121.438145","25.1780683333333","6501000","淡水區"
"252002","178-VK","2017/10/27 20:39:55","新北市三芝區淡金路二段47-2號","121.50363","25.2606166666667","6502100","三芝區"
"252001","292-VK","2017/10/27 20:39:47","新北市三芝區中山路一段83號","121.501005","25.2566466666667","6502100","三芝區"
"236055","AAC-216","2017/10/27 20:39:47","新北市樹林區中山路三段214號","121.38054","24.96678","6501300","土城區"
"242032","AAC-296","2017/10/27 20:39:56","新北市新莊區中正路508巷5弄2號","121.43506","25.0338833333333","6500500","新莊區"
"242029","986-R7","2017/10/27 20:39:40","新北市新莊區昌平街31巷9號","121.45424","25.0513866666667","6500500","新莊區"
"242050","751-BX","2017/10/27 20:39:55","新北市新莊區民安西路158號","121.426078333333","25.0163016666667","6500500","新莊區"
"242025","615-BX","2017/10/27 20:39:57","新北市三重區光復路二段178-1號","121.471748333333","25.0622","6500500","新莊區"
"242023","613-BX","2017/10/27 20:39:56","新北市新莊區思源路131號","121.459773333333","25.042915","6500500","新莊區"
"242027","612-BX","2017/10/27 20:39:59","新北市新莊區思源路63號","121.459825","25.0403983333333","6500500","新莊區"
"242039","566-BX","2017/10/27 20:39:59","新北市新莊區民安路343號","121.430811666667","25.0229216666667","6500500","新莊區"
"242044","497-BY","2017/10/27 20:39:49","新北市新莊區龍安路108號","121.418361666667","25.0205333333333","6500500","新莊區"
"242011","442-UM","2017/10/27 20:39:47","新北市新莊區中原路355號","121.44462","25.0553633333333","6500500","新莊區"
"242048","441-UM","2017/10/27 20:39:47","新北市新莊區中正路871巷1號","121.418146666667","25.0269883333333","6500500","新莊區"
"242054","440-UM","2017/10/27 20:39:43","新北市新莊區民安西路189巷10弄24號","121.426516666667","25.015065","6500500","新莊區"
"242041","400-BY","2017/10/27 20:39:52","新北市新莊區天祥街19巷6號","121.416886666667","25.0279883333333","6500500","新莊區"
"242060","362-BY","2017/10/27 20:39:57","新北市新莊區新樹路284號","121.43257","25.012555","6500500","新莊區"
"242058","353-BY","2017/10/27 20:39:49","新北市新莊區後港一路4號","121.424481666667","25.0256383333333","6500500","新莊區"
"242007","132-UY","2017/10/27 20:39:42","新北市新莊區思源路131號","121.459731666667","25.0431666666667","6500500","新莊區"
"242037","133-UY","2017/10/27 20:39:43","新北市新莊區建安街20號","121.428735","25.0263083333333","6500500","新莊區"
"242021","135-UY","2017/10/27 20:39:47","新北市新莊區中正路178號","121.450056666667","25.035665","6500500","新莊區"
"242046","172-VK","2017/10/27 20:39:46","新北市新莊區民安路2號","121.42264","25.0287733333333","6500500","新莊區"
"242009","173-VK","2017/10/27 20:39:51","新北市新莊區幸福路64巷4弄5號","121.457325","25.0500783333333","6500500","新莊區"
"242015","175-VK","2017/10/27 20:39:44","新北市新莊區中和街48號","121.448068333333","25.0444083333333","6500500","新莊區"
"242002","176-VK","2017/10/27 20:39:45","新北市新莊區中港路五守新村37巷1號","121.454606666667","25.03874","6500500","新莊區"
"242056","347-TH","2017/10/27 20:39:42","新北市新莊區瓊泰路94巷46號","121.44486","25.0293533333333","6500500","新莊區"
"242019","348-TH","2017/10/27 20:39:45","新北市新莊區銘德街139號","121.454733333333","25.0428566666667","6500500","新莊區"
"242017","350-TH","2017/10/27 20:39:39","新北市新莊區中華路一段6號","121.451983333333","25.0365266666667","6500500","新莊區"
"221008","489-VK","2017/10/27 20:39:38","新北市汐止區康寧街861巷3號","121.645313333333","25.0761","6501100","汐止區"
"221036","130-UY","2017/10/27 20:39:50","新北市汐止區新昌路14號","121.662091666667","25.06729","6501100","汐止區"
"221015","131-UY","2017/10/27 20:39:53","新北市汐止區建成路26號","121.664398333333","25.072655","6501100","汐止區"
"221012","276-VK","2017/10/27 13:19:52","新北市汐止區汐萬路一段256巷3號","121.653448333333","25.0746016666667","6501100","汐止區"
"221012","278-VK","2017/10/27 20:39:52","新北市汐止區大同路三段211號","121.672455","25.0767633333333","6501100","汐止區"
"221023","279-VK","2017/10/27 20:39:48","新北市汐止區康寧街706-2號","121.638535","25.0731716666667","6501100","汐止區"
"221032","280-BY","2017/10/27 20:39:48","新北市汐止區橫科路119號","121.619858333333","25.050315","6501100","汐止區"
"221027","281-BY","2017/10/27 20:39:58","新北市汐止區大同路二段553號","121.66249","25.0696316666667","6501100","汐止區"
"221029","298-VK","2017/10/27 20:39:43","新北市汐止區新台五路一段77號","121.64521","25.061565","6501100","汐止區"
"221021","299-VK","2017/10/27 20:39:47","新北市汐止區水源路一段284號","121.65413","25.0582783333333","6501100","汐止區"
"221031","353-TW","2017/10/27 20:39:53","新北市汐止區工建路316號","121.634088333333","25.06077","6501100","汐止區"
"221002","358-BY","2017/10/27 20:39:46","新北市汐止區福德二路136號","121.630865","25.0652116666667","6501100","汐止區"
"221035","622-UM","2017/10/27 20:39:45","新北市汐止區長江街101-5號","121.658756666667","25.07311","6501100","汐止區"
"221025","623-UM","2017/10/27 20:39:52","新北市汐止區水源路二段90號","121.656576666667","25.05613","6501100","汐止區"
"221038","646-BX","2017/10/27 20:39:43","新北市汐止區新江北路17號","121.652888333333","25.0705633333333","6501100","汐止區"
"221033","647-BX","2017/10/27 20:39:43","台北市南港區合順街8巷7弄36號","121.62017","25.0418716666667","6501100","汐止區"
"221018","753-BX","2017/10/27 20:39:48","新北市汐止區中華街75號","121.668231666667","25.0709216666667","6501100","汐止區"
"242001","281-VK","2017/10/27 17:30:08","新北市新莊區環河路636-7號","121.437411666667","25.0113","6500500","新莊區"
"242034","280-VK","2017/10/27 20:39:49","新北市新莊區中正路449-1號","121.443043333333","25.034095","6500500","新莊區"
"220103","561-BX","2017/10/27 20:39:48","新北市板橋區漢生東路83巷25號","121.467413333333","25.01677","6500100","板橋區"
"220070","AAC-253","2017/10/27 20:39:52","新北市五股區孝義路13-1號","121.450801666667","25.106735","6500100","板橋區"
