"lineid","car","time","location","longitude","latitude","cityid","cityname"
"235026","800-TS","2017/10/27 20:17:32","新北市中和區員山路36巷16-3號","121.485031666667","24.9916666666667","6500300","中和區"
"220016","013-TV","2017/10/27 19:50:18","新北市板橋區民生路二段161巷1號","121.46998","25.0202016666667","6500100","板橋區"
"247008","053-VK","2017/10/27 21:49:48","新北市八里區中山路三段323號","121.377643333333","25.141345","6501400","蘆洲區"
"251004","009-UM","2017/10/27 21:49:57","新北市淡水區民權路94巷1號","121.463176666667","25.1251633333333","6501000","淡水區"
"251005","010-UM","2017/10/27 21:49:53","新北市淡水區鄧公路30巷8號","121.452936666667","25.1697366666667","6501000","淡水區"
"251002","012-UM","2017/10/27 21:49:54","新北市淡水區大忠街115號","121.44678","25.177175","6501000","淡水區"
"251008","181-VK","2017/10/27 21:49:53","新北市淡水區學府路104號","121.449833333333","25.1717616666667","6501000","淡水區"
"251015","182-VK","2017/10/27 21:49:43","新北市淡水區埤島7-8號","121.445113333333","25.1923633333333","6501000","淡水區"
"251012","441-VK","2017/10/27 21:50:00","新北市淡水區淡金路三段33號","121.446688333333","25.1978516666667","6501000","淡水區"
"251001","559-UM","2017/10/27 21:49:59","新北市淡水區後洲路一段157號","121.427728333333","25.1986033333333","6501000","淡水區"
"251006","561-UM","2017/10/27 21:49:47","新北市淡水區中正路199-1號","121.43741","25.1711116666667","6501000","淡水區"
"251007","577-R6","2017/10/27 21:49:42","新北市淡水區水源街二段177巷41弄7號","121.453466666667","25.1766566666667","6501000","淡水區"
"251011","650-BX","2017/10/27 21:49:54","新北市淡水區新民街322巷5弄6號","121.436416666667","25.18289","6501000","淡水區"
"251003","766-UM","2017/10/27 21:49:50","新北市淡水區新春街86號","121.438738333333","25.1822666666667","6501000","淡水區"
"221012","276-VK","2017/10/27 13:19:52","新北市汐止區汐萬路一段256巷3號","121.653448333333","25.0746016666667","6501100","汐止區"
"242001","281-VK","2017/10/27 17:30:08","新北市新莊區環河路636-7號","121.437411666667","25.0113","6500500","新莊區"
"220070","AAC-253","2017/10/27 21:49:52","新北市板橋區僑中一街124巷70-5號","121.44948","25.0150833333333","6500100","板橋區"
