"lineid","car","time","location","longitude","latitude","cityid","cityname"
"234044","148-BY","2017/08/26 13:29:18","新北市永和區永元路68號","121.522366666667","25.0015566666667","6500400","永和區"
"234012","149-BY","2017/08/26 13:29:09","新北市永和區永平路210號","121.509463333333","25.0101616666667","6500400","永和區"
"234005","207-UY","2017/08/26 13:29:05","新北市永和區中山路一段172號","121.509225","25.009105","6500400","永和區"
"234078","298-R6","2017/08/26 13:29:14","新北市永和區環河東路三段12號","121.525753333333","25.00802","6500400","永和區"
"234036","336-UY","2017/08/26 13:29:10","新北市永和區民樂街31巷4號","121.52775","25.0014566666667","6500400","永和區"
"234062","337-UY","2017/08/26 13:29:15","新北市永和區中正路368巷1弄84號","121.520376666667","25.0007166666667","6500400","永和區"
"234084","338-UY","2017/08/26 13:29:15","新北市永和區永元路138號","121.522858333333","25.003155","6500400","永和區"
"234068","552-UM","2017/08/26 13:29:15","新北市永和區永和路二段243號","121.515741666667","25.0147066666667","6500400","永和區"
"234052","553-UM","2017/08/26 13:29:07","新北市永和區竹林路41號","121.517945","25.0141883333333","6500400","永和區"
"234015","745-BX","2017/08/26 13:29:19","新北市永和區環河西路一段1號","121.515293333333","25.018045","6500400","永和區"
"234060","AAD-866","2017/08/26 13:29:17","新北市永和區中正路399號","121.517146666667","25.0041883333333","6500400","永和區"
"234028","847-RS","2017/08/26 13:29:09","新北市永和區民生路37巷7號","121.523713333333","24.99805","6500400","永和區"
"234040","862-TW","2017/08/26 13:29:02","新北市永和區水源街34號","121.511183333333","25.00457","6500400","永和區"
"234048","863-TW","2017/08/26 13:29:13","新北市永和區仁愛路150號","121.510895","25.0130133333333","6500400","永和區"
"234025","9371-KE","2017/08/26 13:29:19","新北市永和區永和路一段208號","121.514471666667","25.0093783333333","6500400","永和區"
"234010","9373-KE","2017/08/26 13:29:20","新北市永和區仁愛路141巷5弄10號","121.512136666667","25.0121866666667","6500400","永和區"
"248017","225-UY","2017/08/26 13:29:12","新北市五股區御史路300號","121.417226666667","25.108555","6501500","五股區"
"234022","9380-KE","2017/08/26 13:29:07","新北市永和區竹林路91巷43弄2號","121.521241666667","25.0127933333333","6500400","永和區"
"234076","969-R7","2017/08/26 13:29:18","新北市永和區智光街20號","121.517931666667","24.9993716666667","6500400","永和區"
"234072","AAC-211","2017/08/26 13:29:17","新北市永和區光復街42號","121.516663333333","25.0177516666667","6500400","永和區"
"234066","AAC-212","2017/08/26 13:29:18","新北市永和區永貞路361巷2號","121.508905","25.0078133333333","6500400","永和區"
"234001","AAC-295","2017/08/26 13:29:11","新北市永和區自強街2號","121.514015","25.00802","6500400","永和區"
"244005","248-BX","2017/08/26 13:29:14","新北市林口區頭湖74-68號","121.361491666667","25.08899","6501700","林口區"
"231028","001-UM","2017/08/26 13:29:18","新北市新店區安和路一段6-2號","121.517178333333","24.9648333333333","6500600","新店區"
"231002","002-UM","2017/08/26 13:29:18","新北市新店區環河路64號","121.537125","24.96272","6500600","新店區"
"231030","047-UY","2017/08/26 13:29:23","新北市新店區安康路一段355-4號","121.517313333333","24.9638733333333","6500600","新店區"
"231018","107-UY","2017/08/26 13:29:07","新北市新店區中央路151號","121.529246666667","24.9720533333333","6500600","新店區"
"231012","108-UY","2017/08/26 13:29:07","新北市新店區德正街24號","121.543813333333","24.9721","6500600","新店區"
"231020","187-VK","2017/08/26 13:29:04","新北市新店區新烏路一段106號","121.545985","24.9363166666667","6500600","新店區"
"231026","256-BX","2017/08/26 13:29:03","新北市新店區北宜路一段123號","121.540466666667","24.9535383333333","6500600","新店區"
"231034","268-BY","2017/08/26 13:29:16","新北市新店區車子路10-4號","121.504705","24.9544716666667","6500600","新店區"
"231010","278-BY","2017/08/26 13:29:20","新北市新店區自由街5號","121.535576666667","24.9751516666667","6500600","新店區"
"231017","AAD-862","2017/08/26 13:29:23","新北市新店區新烏路一段9-1號","121.547268333333","24.9513866666667","6500600","新店區"
"231029","355-BY","2017/08/26 13:29:05","新北市新店區車子路115-11號","121.506661666667","24.9546916666667","6500600","新店區"
"231027","3712-VJ","2017/08/26 13:29:12","新北市新店區新店後街41號","121.537511666667","24.9544533333333","6500600","新店區"
"231024","3713-VJ","2017/08/26 13:29:05","新北市新店區北新路二段29巷3弄1號","121.542203333333","24.9729883333333","6500600","新店區"
"231025","4716-K9","2017/08/26 13:29:19","新北市新店區中央路206號","121.530271666667","24.9739533333333","6500600","新店區"
"231038","4715-K9","2017/08/26 13:29:10","新北市新店區安華路30巷1號","121.519601666667","24.9592883333333","6500600","新店區"
"231036","512-UM","2017/08/26 13:29:13","新北市新店區建業路47-1號","121.478656666667","24.9550483333333","6500600","新店區"
"231023","513-UM","2017/08/26 13:29:17","新北市新店區北宜路一段168號","121.540355","24.9529583333333","6500600","新店區"
"231003","616-UM","2017/08/26 13:29:21","新北市新店區北新路一段126巷25號","121.54333","24.96971","6500600","新店區"
"231006","617-UM","2017/08/26 13:29:20","新北市新店區安康路一段125號","121.528126666667","24.9617583333333","6500600","新店區"
"231001","619-UM","2017/08/26 13:29:08","新北市新店區環河路114巷4-1號","121.53701","24.9647866666667","6500600","新店區"
"231013","719-UM","2017/08/26 13:29:02","新北市新店區中正路448-1號","121.53407","24.9789166666667","6500600","新店區"
"231035","719-UY","2017/08/26 13:29:02","新北市新店區安康路二段38號","121.515553333333","24.9638","6500600","新店區"
"231033","720-UM","2017/08/26 13:29:18","新北市新店區車子路10-3號","121.504645","24.9546483333333","6500600","新店區"
"231005","897-TW","2017/08/26 13:29:20","新北市新店區北新路一段303號","121.541385","24.9675616666667","6500600","新店區"
"231004","899-TW","2017/08/26 13:29:16","新北市新店區安康路一段107-2號","121.528901666667","24.96174","6500600","新店區"
"231037","AKT-0513","2017/08/26 13:23:37","新北市新店區薏仁坑路33號","121.493846666667","24.9627083333333","6500600","新店區"
"235030","003-UY","2017/08/26 13:29:15","新北市中和區中山路二段115號","121.50298","25.0037733333333","6500300","中和區"
"235027","006-UY","2017/08/26 13:29:10","新北市中和區連城路347巷8號","121.488326666667","24.995245","6500300","中和區"
"235028","031-BX","2017/08/26 13:29:17","新北市中和區圓通路156號","121.497896666667","24.9956233333333","6500300","中和區"
"235020","096-UM","2017/08/26 13:29:03","新北市中和區中正路748號","121.485616666667","24.9985266666667","6500300","中和區"
"235003","097-UM","2017/08/26 13:29:14","新北市中和區景新街293號","121.510045","24.993205","6500300","中和區"
"235004","150-BY","2017/08/26 13:29:19","新北市中和區安平路59號","121.509598333333","24.995085","6500300","中和區"
"235022","151-BY","2017/08/26 13:29:07","新北市中和區圓通路369巷156弄39號","121.489411666667","24.9820666666667","6500300","中和區"
"235019","183-VK","2017/08/26 03:49:23","新北市中和區員山路36巷16-3號","121.485046666667","24.991405","6500300","中和區"
"235002","185-VK","2017/08/26 13:29:11","新北市中和區秀朗路三段128巷17弄4號","121.524288333333","24.9935583333333","6500300","中和區"
"235013","186-VK","2017/08/26 13:29:07","新北市中和區景平路486號","121.504955","24.993885","6500300","中和區"
"235008","293-VK","2017/08/26 13:29:13","新北市中和區中興街178號","121.499805","24.991125","6500300","中和區"
"235036","301-VK","2017/08/26 13:29:08","新北市中和區連城路263巷4弄2號","121.491501666667","24.9958983333333","6500300","中和區"
"235007","352-BY","2017/08/26 13:29:22","新北市中和區景平路331號","121.505833333333","24.9933633333333","6500300","中和區"
"235015","376-QA","2017/08/26 13:29:22","新北市中和區興南路二段142巷35弄1號","121.502473333333","24.9845416666667","6500300","中和區"
"235032","377-QA","2017/08/26 13:29:10","新北市中和區中正路271號","121.495831666667","24.99375","6500300","中和區"
"235025","378-QA","2017/08/26 13:29:03","新北市中和區民享街116巷1號","121.474156666667","24.99873","6500300","中和區"
"235014","4979-A6","2017/08/26 13:29:14","新北市中和區景新街362巷14號","121.511755","24.9900466666667","6500300","中和區"
"235033","4980-A6","2017/08/26 13:29:15","新北市中和區連城路127巷28號","121.496671666667","24.998015","6500300","中和區"
"235006","551-UM","2017/08/26 13:29:08","新北市中和區自立路56巷24號","121.522391666667","24.99163","6500300","中和區"
"235034","558-UM","2017/08/26 13:29:17","新北市中和區圓通路117號","121.49931","24.9963716666667","6500300","中和區"
"235009","565-BX","2017/08/26 13:29:09","新北市中和區景安路200巷3弄1號","121.503685","24.9914933333333","6500300","中和區"
"235018","640-BX","2017/08/26 13:29:11","新北市中和區民享街107號","121.474808333333","24.9995883333333","6500300","中和區"
"235024","647-TV","2017/08/26 13:29:06","新北市中和區員山路105號","121.480891666667","24.9944966666667","6500300","中和區"
"235010","733-UM","2017/08/26 13:29:10","新北市中和區中正路527號","121.487695","24.9935833333333","6500300","中和區"
"235026","800-TS","2017/08/26 13:29:16","新北市中和區景平路697號","121.496601666667","25.0033666666667","6500300","中和區"
"235021","801-TS","2017/08/26 13:29:04","新北市中和區員山路107號","121.480848333333","24.9945866666667","6500300","中和區"
"235005","802-TS","2017/08/26 13:29:22","新北市永和區中和路477號","121.510345","25.0019083333333","6500300","中和區"
"235016","805-TS","2017/08/26 13:29:15","新北市中和區興南路二段133號","121.505273333333","24.9842116666667","6500300","中和區"
"235012","896-TW","2017/08/26 13:29:12","新北市中和區中正路545巷1號","121.487426666667","24.993555","6500300","中和區"
"235017","900-TW","2017/08/26 13:29:17","新北市中和區民享街457號","121.470406666667","24.993205","6500300","中和區"
"235001","AAC-213","2017/08/26 13:29:05","新北市中和區景新街383巷66號","121.514706666667","24.990325","6500300","中和區"
"235023","AAC-215","2017/08/26 13:29:03","新北市中和區員山路36巷16-3號","121.485096666667","24.9914266666667","6500300","中和區"
"220034","073-UY","2017/08/26 13:29:05","新北市板橋區華東街1-8號","121.447491666667","24.995105","6500100","板橋區"
"247015","001-UY","2017/08/26 13:29:11","新北市五股區中興路三段2巷10號","121.449121666667","25.081095","6501400","蘆洲區"
"228005","097-TW","2017/08/26 13:29:01","新北市貢寮區美豐里文秀坑8號","121.902603333333","25.0504616666667","6502600","貢寮區"
"228004","212-TW","2017/08/26 13:29:10","新北市貢寮區龍崗里石壁坑街17號","121.910351666667","24.989485","6502600","貢寮區"
"208004","AAC-292","2017/08/26 13:29:17","新北市金山區南勢湖81號","121.612646666667","25.2126533333333","6502700","金山區"
"207002","749-BX","2017/08/26 13:29:11","新北市萬里區崁腳里崁腳路166號","121.645045","25.15584","6502800","萬里區"
"252005","073-UM","2017/08/26 13:29:14","新北市三芝區圓山里八連溪頭8-1號","121.527905","25.2210183333333","6502100","三芝區"
"207001","662-BX","2017/08/26 13:28:15","新北市萬里區龜吼里石角路43號","121.68462","25.1926683333333","6502800","萬里區"
"241031","760-BX","2017/08/26 13:29:11","新北市三峽區隆恩街245號","121.35763","24.940885","6500200","三重區"
"236006","498-BY","2017/08/26 13:29:11","新北市土城區慶祥街96巷8號","121.435526666667","24.9731583333333","6501300","土城區"
"242044","347-TH","2017/08/26 13:29:11","新北市新莊區民安路98巷3號","121.423673333333","25.0257416666667","6500500","新莊區"
"221010","269-BY","2017/08/26 13:29:19","新北市汐止區八連路三段230-2號","121.609463333333","25.1168183333333","6501100","汐止區"
"221012","276-VK","2017/08/26 13:27:28","新北市汐止區汐萬路一段256巷3號","121.653363333333","25.0745883333333","6501100","汐止區"
"221032","280-BY","2017/08/26 13:29:01","新北市汐止區水源路一段56號","121.65749","25.0656916666667","6501100","汐止區"
"221002","753-BX","2017/08/26 13:29:07","新北市汐止區中興路135號","121.631578333333","25.0655133333333","6501100","汐止區"
"220027","145-BY","2017/08/26 13:29:19","新北市板橋區板城路407號","121.447448333333","24.99515","6500100","板橋區"
"220028","200-UY","2017/08/26 13:29:11","新北市板橋區華東街1-9號","121.44827","24.9948316666667","6500100","板橋區"
"220004","276-BY","2017/08/26 13:29:03","新北市板橋區民生路二段5號","121.472881666667","25.0158416666667","6500100","板橋區"
"220043","283-UM","2017/08/26 13:29:19","新北市板橋區民生路二段161巷1號","121.470205","25.0200866666667","6500100","板橋區"
"220032","296-UM","2017/08/26 13:29:12","新北市板橋區華東街1-9號","121.44814","24.9949783333333","6500100","板橋區"
"242001","281-VK","2017/08/26 13:29:12","新北市新莊區豐年街30號","121.446248333333","25.0323983333333","6500500","新莊區"
"220104","560-BX","2017/08/26 13:29:14","新北市板橋區南雅南路二段120-16號","121.452015","24.9992433333333","6500100","板橋區"
"220011","609-BX","2017/08/26 13:29:09","新北市板橋區中山路一段104號","121.462573333333","25.0102883333333","6500100","板橋區"
"220025","687-BX","2017/08/26 13:29:16","新北市板橋區四川路二段橋頭7號","121.446736666667","24.9939933333333","6500100","板橋區"
"220022","895-R6","2017/08/26 13:29:15","新北市板橋區華東街1-10號","121.448775","24.9952316666667","6500100","板橋區"
