"lineid","car","time","location","longitude","latitude","cityid","cityname"
"234044","148-BY","2017/08/26 14:13:08","新北市永和區成功路一段107號","121.526901666667","25.0023833333333","6500400","永和區"
"234012","149-BY","2017/08/26 14:13:09","新北市永和區保生路5巷1號","121.506196666667","25.0071833333333","6500400","永和區"
"234005","207-UY","2017/08/26 14:13:05","新北市中和區保平路302號","121.507531666667","25.0043683333333","6500400","永和區"
"234078","298-R6","2017/08/26 14:13:07","新北市永和區福和路19巷1弄23號","121.524558333333","25.0077683333333","6500400","永和區"
"234036","336-UY","2017/08/26 14:13:07","新北市永和區成功路一段11號","121.527093333333","25.0049933333333","6500400","永和區"
"234062","337-UY","2017/08/26 14:13:13","新北市永和區得和路269號","121.52162","24.999745","6500400","永和區"
"234084","338-UY","2017/08/26 14:12:54","新北市永和區福和路285號","121.517346666667","25.007415","6500400","永和區"
"234068","552-UM","2017/08/26 14:13:15","新北市永和區永寧街5號","121.520138333333","25.0069233333333","6500400","永和區"
"234052","553-UM","2017/08/26 14:13:07","新北市永和區永和路二段304號","121.516326666667","25.0158516666667","6500400","永和區"
"234015","745-BX","2017/08/26 14:12:59","新北市永和區仁愛路43號","121.513926666667","25.013355","6500400","永和區"
"234060","AAD-866","2017/08/26 14:13:05","新北市永和區得和路76號","121.516538333333","25.0000933333333","6500400","永和區"
"234028","847-RS","2017/08/26 14:13:09","新北市中和區景平路448-2號","121.506315","24.9934716666667","6500400","永和區"
"234040","862-TW","2017/08/26 14:13:02","新北市永和區雙和街27號","121.509046666667","25.0021066666667","6500400","永和區"
"234048","863-TW","2017/08/26 14:13:12","新北市永和區新生路28巷16號","121.508333333333","25.0164083333333","6500400","永和區"
"234025","9371-KE","2017/08/26 14:12:59","新北市永和區安樂路198巷4弄2號","121.5156","25.0019433333333","6500400","永和區"
"234010","9373-KE","2017/08/26 14:13:00","新北市永和區環河西路二段179號","121.504598333333","25.0126983333333","6500400","永和區"
"248017","225-UY","2017/08/26 14:13:12","新北市五股區民義路一段256號","121.426201666667","25.092555","6501500","五股區"
"234022","9380-KE","2017/08/26 14:13:11","新北市永和區竹林路25巷9弄2號","121.517628333333","25.0149016666667","6500400","永和區"
"234076","969-R7","2017/08/26 14:12:58","新北市永和區民族街81巷32號","121.519231666667","24.996495","6500400","永和區"
"234072","AAC-211","2017/08/26 14:12:57","新北市永和區竹林路223號","121.520806666667","25.0085083333333","6500400","永和區"
"234066","AAC-212","2017/08/26 14:12:58","新北市永和區保平路236巷12弄5號","121.508665","25.0065183333333","6500400","永和區"
"234001","AAC-295","2017/08/26 14:13:11","新北市永和區中正路577巷10號","121.516008333333","25.00889","6500400","永和區"
"244005","248-BX","2017/08/26 14:12:54","新北市林口區頭湖74-1號","121.36268","25.08814","6501700","林口區"
"231028","001-UM","2017/08/26 14:12:59","新北市新店區安和路二段155號","121.518978333333","24.9742416666667","6500600","新店區"
"231002","002-UM","2017/08/26 14:12:58","新北市新店區中正路470-1號","121.533805","24.9813266666667","6500600","新店區"
"231030","047-UY","2017/08/26 14:13:03","新北市新店區安民街35巷9弄12號","121.51481","24.96561","6500600","新店區"
"231018","107-UY","2017/08/26 14:13:07","新北市新店區中央五街34號","121.528688333333","24.9748216666667","6500600","新店區"
"231012","108-UY","2017/08/26 14:13:07","新北市新店區中興路一段282-2號","121.546276666667","24.96847","6500600","新店區"
"231020","187-VK","2017/08/26 14:13:04","新北市新店區桂山路37號","121.561205","24.9017066666667","6500600","新店區"
"231034","268-BY","2017/08/26 14:12:56","新北市新店區黎明路3號","121.503248333333","24.952255","6500600","新店區"
"231017","AAD-862","2017/08/26 14:13:03","新北市新店區中生路171號","121.576908333333","24.9495116666667","6500600","新店區"
"231029","355-BY","2017/08/26 14:13:05","新北市新店區安康路二段204號","121.510243333333","24.95955","6500600","新店區"
"231027","3712-VJ","2017/08/26 14:13:10","新北市新店區光明街138巷11號","121.540038333333","24.961225","6500600","新店區"
"231025","4716-K9","2017/08/26 14:12:59","新北市新店區中正路304號","121.53749","24.974535","6500600","新店區"
"231038","4715-K9","2017/08/26 14:13:10","新北市新店區溪洲路121號","121.531388333333","24.9627416666667","6500600","新店區"
"231036","512-UM","2017/08/26 14:13:13","新北市新店區安祥路109巷85弄13號","121.478206666667","24.9602583333333","6500600","新店區"
"231023","513-UM","2017/08/26 14:12:56","新北市新店區光明街11號","121.538331666667","24.9593133333333","6500600","新店區"
"231003","616-UM","2017/08/26 14:13:01","新北市新店區中興路一段202號","121.543675","24.9653866666667","6500600","新店區"
"231006","617-UM","2017/08/26 14:13:00","新北市新店區北宜路二段485號","121.562378333333","24.9539333333333","6500600","新店區"
"231001","619-UM","2017/08/26 14:13:08","新北市新店區中華路9號","121.54067","24.9674316666667","6500600","新店區"
"231013","719-UM","2017/08/26 14:13:01","新北市新店區大豐路13號","121.541415","24.9802866666667","6500600","新店區"
"231035","719-UY","2017/08/26 14:13:02","新北市新店區安和路二段111號","121.518716666667","24.9701366666667","6500600","新店區"
"231033","720-UM","2017/08/26 14:13:07","新北市新店區溪洲路201-3號","121.528915","24.9682666666667","6500600","新店區"
"231005","897-TW","2017/08/26 14:13:00","新北市新店區中興路三段286號","121.54282","24.9845583333333","6500600","新店區"
"231004","899-TW","2017/08/26 14:12:56","新北市新店區北新路二段108號","121.543098333333","24.97426","6500600","新店區"
"231037","AKT-0513","2017/08/26 14:12:57","新北市新店區薏仁坑路2-1號","121.50066","24.9580166666667","6500600","新店區"
"235030","003-UY","2017/08/26 14:12:55","新北市中和區廣福路54號","121.503818333333","25.0018233333333","6500300","中和區"
"235027","006-UY","2017/08/26 14:13:10","新北市中和區連城路249巷26弄2號","121.494585","24.9955816666667","6500300","中和區"
"235028","031-BX","2017/08/26 14:12:57","新北市中和區中和路33號","121.49999","25.001655","6500300","中和區"
"235020","096-UM","2017/08/26 14:13:03","新北市中和區員山路509號","121.479813333333","25.0064433333333","6500300","中和區"
"235003","097-UM","2017/08/26 14:13:14","新北市中和區秀峰街38號","121.521355","24.9903016666667","6500300","中和區"
"235004","150-BY","2017/08/26 14:12:39","新北市中和區宜安路116號","121.510238333333","24.997925","6500300","中和區"
"235022","151-BY","2017/08/26 14:13:07","新北市中和區連城路477巷6弄19號","121.48233","24.9947666666667","6500300","中和區"
"235019","183-VK","2017/08/26 03:49:23","新北市中和區員山路36巷16-3號","121.485046666667","24.991405","6500300","中和區"
"235002","185-VK","2017/08/26 14:13:11","新北市中和區大仁街22號","121.517851666667","24.9934366666667","6500300","中和區"
"235013","186-VK","2017/08/26 14:13:07","新北市中和區景新街224-20號","121.508028333333","24.99447","6500300","中和區"
"235008","293-VK","2017/08/26 14:13:13","新北市中和區中興街214號","121.499526666667","24.9900283333333","6500300","中和區"
"235036","301-VK","2017/08/26 14:13:08","新北市中和區莊敬路31巷2號","121.500388333333","25.0050666666667","6500300","中和區"
"235007","352-BY","2017/08/26 14:13:01","新北市中和區景平路71號","121.51973","24.9914716666667","6500300","中和區"
"235015","376-QA","2017/08/26 14:13:04","新北市中和區興南路一段56巷2號","121.510885","24.99086","6500300","中和區"
"235032","377-QA","2017/08/26 14:13:09","新北市中和區連城路75巷8弄6號","121.498033333333","24.9984483333333","6500300","中和區"
"235025","378-QA","2017/08/26 14:13:03","新北市中和區員山路150-17號","121.481331666667","24.9978416666667","6500300","中和區"
"235014","4979-A6","2017/08/26 14:13:14","新北市中和區復興路280巷18弄2號","121.502535","24.991675","6500300","中和區"
"235033","4980-A6","2017/08/26 14:12:55","新北市中和區中和路165巷10號","121.503058333333","25.00026","6500300","中和區"
"235006","551-UM","2017/08/26 14:13:08","新北市中和區立人街69巷13弄3號","121.520645","24.9935633333333","6500300","中和區"
"235034","558-UM","2017/08/26 14:12:57","新北市中和區中和路212號","121.506108333333","24.9995916666667","6500300","中和區"
"235009","565-BX","2017/08/26 14:13:09","新北市中和區景新街467巷33號","121.514763333333","24.9888883333333","6500300","中和區"
"235018","640-BX","2017/08/26 14:13:11","新北市中和區國光街107巷2弄32號","121.469243333333","24.998965","6500300","中和區"
"235024","647-TV","2017/08/26 14:13:06","新北市中和區中山路三段147號","121.473756666667","25.0061683333333","6500300","中和區"
"235010","733-UM","2017/08/26 14:13:10","新北市中和區忠孝街2-1號","121.508891666667","24.9829516666667","6500300","中和區"
"235026","800-TS","2017/08/26 14:12:56","新北市中和區中山路二段472號","121.4883","25.00458","6500300","中和區"
"235021","801-TS","2017/08/26 14:13:04","新北市中和區民利街48號","121.479351666667","24.9988383333333","6500300","中和區"
"235005","802-TS","2017/08/26 14:13:02","新北市中和區中安街178巷13弄14號","121.510478333333","24.9984783333333","6500300","中和區"
"235016","805-TS","2017/08/26 14:13:15","新北市中和區興南路二段142巷19弄54號","121.502136666667","24.98333","6500300","中和區"
"235012","896-TW","2017/08/26 14:13:12","新北市中和區華新街109巷22號","121.508333333333","24.9803883333333","6500300","中和區"
"235017","900-TW","2017/08/26 14:12:56","新北市中和區華福街71巷2號","121.467288333333","24.9969216666667","6500300","中和區"
"235001","AAC-213","2017/08/26 14:13:05","新北市中和區秀朗路三段58-2號","121.525941666667","24.9951683333333","6500300","中和區"
"235023","AAC-215","2017/08/26 14:13:03","新北市中和區圓通路433巷8號","121.487601666667","24.988085","6500300","中和區"
"220016","013-TV","2017/08/26 14:13:14","新北市板橋區三民路一段1巷41號","121.480403333333","25.0249283333333","6500100","板橋區"
"220013","072-UY","2017/08/26 14:12:59","新北市板橋區民族路219巷22號","121.469353333333","25.0083333333333","6500100","板橋區"
"220034","073-UY","2017/08/26 14:13:05","新北市板橋區中正路236巷44號","121.457305","25.0192316666667","6500100","板橋區"
"220105","075-UY","2017/08/26 14:13:14","新北市板橋區雙十路三段10巷23號","121.47244","25.0311983333333","6500100","板橋區"
"220017","AAD-861","2017/08/26 14:12:53","新北市板橋區貴興路5號","121.457731666667","25.0044766666667","6500100","板橋區"
"220051","120-SR","2017/08/26 14:13:07","新北市板橋區田單街14號","121.482251666667","25.0287416666667","6500100","板橋區"
"247019","893-R6","2017/08/26 14:13:11","新北市蘆洲區民族路430號","121.473555","25.092155","6501400","蘆洲區"
"247009","546-UM","2017/08/26 14:13:10","新北市蘆洲區信義路178號","121.47923","25.08406","6501400","蘆洲區"
"247017","500-BY","2017/08/26 14:13:16","新北市蘆洲區民族路278號","121.478326666667","25.0893733333333","6501400","蘆洲區"
"247007","339-TH","2017/08/26 14:12:56","新北市蘆洲區中山一路246號","121.472305","25.079905","6501400","蘆洲區"
"247023","337-TH","2017/08/26 14:13:06","新北市蘆洲區長榮路288號","121.459998333333","25.0867383333333","6501400","蘆洲區"
"247001","336-TH","2017/08/26 14:13:10","新北市蘆洲區永平街16號","121.459223333333","25.0906733333333","6501400","蘆洲區"
"247013","057-VK","2017/08/26 14:13:11","新北市蘆洲區三民路127號","121.472018333333","25.086155","6501400","蘆洲區"
"247003","056-VK","2017/08/26 14:12:58","新北市蘆洲區長安街191號","121.460326666667","25.0818333333333","6501400","蘆洲區"
"247005","053-VK","2017/08/26 14:12:59","新北市蘆洲區永安南路二段16巷17弄37號","121.466966666667","25.0779666666667","6501400","蘆洲區"
"247011","007-UY","2017/08/26 14:13:04","新北市蘆洲區復興路103號","121.476841666667","25.087675","6501400","蘆洲區"
"247021","002-UY","2017/08/26 14:13:15","新北市蘆洲區三民路120號","121.471245","25.0873333333333","6501400","蘆洲區"
"247015","001-UY","2017/08/26 14:13:11","新北市蘆洲區光華路46巷26號","121.46819","25.083925","6501400","蘆洲區"
"228005","097-TW","2017/08/26 14:13:01","新北市貢寮區美豐里土地公嶺10號","121.890516666667","25.056845","6502600","貢寮區"
"228004","212-TW","2017/08/26 14:13:10","新北市貢寮區雙玉里下雙溪街8號","121.916286666667","25.0139816666667","6502600","貢寮區"
"208004","AAC-292","2017/08/26 14:13:11","新北市金山區重和里六股林口9-3號","121.607643333333","25.2192333333333","6502700","金山區"
"207002","749-BX","2017/08/26 14:12:51","新北市萬里區溪底里瑞泉路7號","121.603263333333","25.1410966666667","6502800","萬里區"
"252005","073-UM","2017/08/26 14:12:53","新北市三芝區橫山里橫山1號","121.532201666667","25.2595216666667","6502100","三芝區"
"207001","662-BX","2017/08/26 14:12:54","新北市萬里區磺潭里清水18號","121.637875","25.1976783333333","6502800","萬里區"
"241031","760-BX","2017/08/26 14:13:09","新北市三峽區中正路一段153號","121.373186666667","24.92871","6500200","三重區"
"236068","105-UM","2017/08/26 14:12:59","新北市土城區明德路一段398-1號","121.453901666667","24.9787633333333","6501300","土城區"
"236041","107-UM","2017/08/26 14:12:53","新北市土城區裕生路64號","121.44759","24.98612","6501300","土城區"
"236075","166-UM","2017/08/26 14:13:11","新北市土城區永安街15號","121.433811666667","24.96483","6501300","土城區"
"236029","253-BX","2017/08/26 14:12:57","新北市土城區中華路二段2號","121.439445","24.9795966666667","6501300","土城區"
"236025","269-VK","2017/08/26 14:13:15","新北市土城區承天路18號","121.439341666667","24.9636366666667","6501300","土城區"
"236013","270-VK","2017/08/26 14:13:00","新北市土城區金城路二段240號","121.45671","24.983105","6501300","土城區"
"236035","271-VK","2017/08/26 14:12:57","新北市土城區青雲路451巷1號","121.459073333333","24.9748233333333","6501300","土城區"
"236017","401-BY","2017/08/26 14:13:14","新北市土城區金城路二段63號","121.451221666667","24.9788466666667","6501300","土城區"
"236006","498-BY","2017/08/26 14:13:11","新北市土城區日新街40號","121.444095","24.98786","6501300","土城區"
"236057","912-UM","2017/08/26 14:13:13","新北市土城區中央路四段53-1號","121.417605","24.9585866666667","6501300","土城區"
"236045","913-UM","2017/08/26 14:12:58","新北市土城區明德路一段365-1號","121.453555","24.97904","6501300","土城區"
"236061","915-UM","2017/08/26 14:13:09","新北市土城區金城路三段8號","121.464601666667","24.9859566666667","6501300","土城區"
"236054","AAC-216","2017/08/26 14:12:59","新北市土城區中華路二段92號","121.438206666667","24.97455","6501300","土城區"
"242044","347-TH","2017/08/26 14:13:11","新北市樹林區中山路三段214號","121.379803333333","24.96762","6500500","新莊區"
"221010","269-BY","2017/08/26 14:12:59","新北市汐止區長青路210巷188號","121.616286666667","25.1132066666667","6501100","汐止區"
"221012","276-VK","2017/08/26 13:27:28","新北市汐止區汐萬路一段256巷3號","121.653363333333","25.0745883333333","6501100","汐止區"
"221002","753-BX","2017/08/26 14:13:07","新北市新店區薏仁坑路自強巷1號","121.496813333333","24.9580766666667","6501100","汐止區"
"220027","145-BY","2017/08/26 14:12:59","新北市板橋區民權路302巷1弄1號","121.457283333333","25.016325","6500100","板橋區"
"220028","200-UY","2017/08/26 14:13:11","新北市板橋區大觀路二段5-4號","121.44691","25.003725","6500100","板橋區"
"220030","610-BX","2017/08/26 14:13:02","新北市板橋區溪崑二街96巷1號","121.426721666667","24.9889816666667","6500100","板橋區"
"220050","245-BX","2017/08/26 14:13:08","新北市板橋區莊敬路231號","121.47265","25.0215683333333","6500100","板橋區"
"220023","256-TC","2017/08/26 14:13:04","新北市板橋區大智街23號","121.455166666667","25.0148766666667","6500100","板橋區"
"220004","276-BY","2017/08/26 14:13:03","新北市板橋區信義路160號","121.459226666667","24.9915083333333","6500100","板橋區"
"220020","277-BY","2017/08/26 14:12:58","新北市板橋區金門街372巷12號","121.426885","24.9843416666667","6500100","板橋區"
"220043","283-UM","2017/08/26 14:12:59","新北市板橋區吳鳳路81巷29-3號","121.465946666667","25.0309716666667","6500100","板橋區"
"220019","283-VK","2017/08/26 14:12:59","新北市板橋區重慶路245巷32弄21號","121.465245","25","6500100","板橋區"
"220001","285-VK","2017/08/26 14:13:09","新北市板橋區懷仁街25巷19號","121.47706","25.0201333333333","6500100","板橋區"
"220029","287-VK","2017/08/26 14:12:56","新北市板橋區南雅西路二段5號","121.453023333333","25.00907","6500100","板橋區"
"220039","288-VK","2017/08/26 14:13:07","新北市板橋區裕民街5-1號","121.462465","25.029115","6500100","板橋區"
"220009","293-UM","2017/08/26 14:13:05","新北市板橋區中山路二段318巷20弄19號","121.480901666667","25.018895","6500100","板橋區"
"220010","295-UM","2017/08/26 14:13:12","新北市板橋區三民路二段245巷69弄2號","121.48112","25.0129766666667","6500100","板橋區"
"220032","296-UM","2017/08/26 14:13:12","新北市板橋區溪崑一街47巷3號","121.430458333333","24.9909533333333","6500100","板橋區"
"242001","281-VK","2017/08/26 14:13:12","新北市新莊區中港路298號","121.452791666667","25.0447883333333","6500500","新莊區"
"220041","307-R5","2017/08/26 14:13:13","新北市板橋區松江街13號","121.468913333333","25.0263883333333","6500100","板橋區"
"220047","317-R6","2017/08/26 14:12:52","新北市板橋區四維路101號","121.465621666667","25.0245283333333","6500100","板橋區"
"220012","486-VK","2017/08/26 14:12:56","新北市板橋區板新路117巷1號","121.472201666667","25.0145683333333","6500100","板橋區"
"220038","487-VK","2017/08/26 14:13:11","新北市板橋區文化路二段266號","121.471406666667","25.0288783333333","6500100","板橋區"
"220037","491-VK","2017/08/26 14:13:09","新北市板橋區文化路二段182巷3弄54號","121.47291","25.0288866666667","6500100","板橋區"
"220104","560-BX","2017/08/26 14:13:14","新北市板橋區中正路360巷6-3號","121.454826666667","25.0236233333333","6500100","板橋區"
"220052","561-BX","2017/08/26 14:13:08","新北市板橋區介壽街84巷25號","121.469538333333","25.0181166666667","6500100","板橋區"
"220011","609-BX","2017/08/26 14:13:09","新北市板橋區三民路二段165號","121.479151666667","25.0146216666667","6500100","板橋區"
"220031","630-UY","2017/08/26 14:13:10","新北市板橋區大觀路二段174巷193弄2號","121.442293333333","25.00405","6500100","板橋區"
"220040","637-BX","2017/08/26 14:12:59","新北市板橋區縣民大道三段219號","121.480498333333","25.0252833333333","6500100","板橋區"
"220005","686-BX","2017/08/26 14:13:11","新北市板橋區重慶路293號","121.463418333333","24.99923","6500100","板橋區"
"220025","687-BX","2017/08/26 14:12:56","新北市板橋區大觀路二段142-2號","121.442565","24.99911","6500100","板橋區"
"220042","689-BX","2017/08/26 14:13:06","新北市板橋區民生路三段106號","121.46648","25.0260466666667","6500100","板橋區"
"220002","741-BX","2017/08/26 14:12:53","新北市板橋區重慶路69巷3號","121.462236666667","25.0070483333333","6500100","板橋區"
"220003","827-TW","2017/08/26 14:13:10","新北市板橋區新民街35號","121.46416","25.01063","6500100","板橋區"
"220014","829-TW","2017/08/26 14:13:07","新北市板橋區長安街138巷1弄67號","121.474478333333","25.010745","6500100","板橋區"
"220045","831-TW","2017/08/26 14:12:59","新北市板橋區大同街8巷54-2號","121.477881666667","25.026295","6500100","板橋區"
"220022","895-R6","2017/08/26 14:12:55","新北市板橋區林園街10號","121.45392","25.00956","6500100","板橋區"
"220021","985-R7","2017/08/26 14:13:01","新北市板橋區中正路169號","121.456485","25.0163383333333","6500100","板橋區"
"220046","AAC-210","2017/08/26 14:13:03","新北市板橋區公館街256號","121.459951666667","25.0213583333333","6500100","板橋區"
"220018","AAC-253","2017/08/26 14:12:57","新北市板橋區四川路一段262號","121.459011666667","25.0012383333333","6500100","板橋區"
