"lineid","car","time","location","longitude","latitude","cityid","cityname"
"231030","047-UY","2017/08/26 16:09:22","新北市新店區安康路二段320巷6號","121.504721666667","24.9599083333333","6500600","新店區"
"231018","107-UY","2017/08/26 16:09:26","新北市新店區中正路695巷6-1號","121.534045","24.990815","6500600","新店區"
"231034","268-BY","2017/08/26 16:09:16","新北市新店區富貴街18巷15號","121.493245","24.9478983333333","6500600","新店區"
"231046","278-BY","2017/08/26 16:09:28","新北市新店區永業路8號","121.533818333333","24.9561","6500600","新店區"
"231035","719-UY","2017/08/26 16:09:22","新北市新店區安民街150號","121.516628333333","24.9698116666667","6500600","新店區"
"241011","013-R5","2017/08/26 16:09:27","新北市三重區正義北路378號","121.493406666667","25.071505","6500200","三重區"
"241028","022-UY","2017/08/26 16:09:26","新北市三重區正義南路111號","121.49834","25.0584816666667","6500200","三重區"
"241008","059-VK","2017/08/26 16:09:24","新北市三重區忠孝路二段160號","121.482295","25.068065","6500200","三重區"
"241031","061-VK","2017/08/26 16:09:30","新北市三重區重新路四段121號","121.484725","25.0519616666667","6500200","三重區"
"241015","062-VK","2017/08/26 16:09:30","新北市三重區福德南路59-4號","121.50308","25.0609566666667","6500200","三重區"
"241017","063-VK","2017/08/26 16:09:21","新北市三重區大同北路148巷47號","121.490933333333","25.0647733333333","6500200","三重區"
"241024","065-VK","2017/08/26 16:09:31","新北市三重區中正北路145巷30號","121.48507","25.0680416666667","6500200","三重區"
"241026","066-VK","2017/08/26 16:09:31","新北市三重區福裕街111號","121.497075","25.0615216666667","6500200","三重區"
"241002","090-VK","2017/08/26 16:09:25","新北市三重區仁義街47號","121.49946","25.0787666666667","6500200","三重區"
"241003","091-VK","2017/08/26 16:09:12","新北市三重區自強路五段110號","121.496926666667","25.0835433333333","6500200","三重區"
"241006","156-TC","2017/08/26 16:09:34","新北市三重區永福街58巷3弄20號","121.480661666667","25.0773816666667","6500200","三重區"
"241005","262-UM","2017/08/26 16:09:24","新北市三重區溪尾街300-2號","121.487528333333","25.08359","6500200","三重區"
"241016","266-UM","2017/08/26 16:09:18","新北市三重區新北大道一段2號","121.491075","25.0613433333333","6500200","三重區"
"241022","267-UM","2017/08/26 16:09:18","新北市三重區中正北路110號","121.486243333333","25.064915","6500200","三重區"
"241018","268-UM","2017/08/26 16:09:19","新北市三重區明志街67號","121.491131666667","25.0638516666667","6500200","三重區"
"241013","270-UM","2017/08/26 16:09:23","新北市三重區文化北路248號","121.497346666667","25.06994","6500200","三重區"
"241025","271-UM","2017/08/26 16:09:33","新北市三重區忠孝路三段40巷6-3號","121.481855","25.0666016666667","6500200","三重區"
"241007","398-BY","2017/08/26 16:09:19","新北市三重區慈愛街8號","121.48447","25.0784283333333","6500200","三重區"
"241020","413-TH","2017/08/26 16:09:21","新北市三重區後竹圍街266號","121.483905","25.07122","6500200","三重區"
"241004","475-VK","2017/08/26 16:09:17","新北市三重區五華街70號","121.493491666667","25.0819366666667","6500200","三重區"
"241019","478-VK","2017/08/26 16:09:22","新北市三重區自強路二段27號","121.489743333333","25.069325","6500200","三重區"
"241014","543-UM","2017/08/26 16:09:17","新北市三重區福德南路108-14號","121.501426666667","25.0582483333333","6500200","三重區"
"241023","545-UM","2017/08/26 16:09:20","新北市三重區力行路一段60號","121.484581666667","25.0689366666667","6500200","三重區"
"241001","887-TS","2017/08/26 16:09:17","新北市三重區忠孝路二段4號","121.486795","25.071385","6500200","三重區"
"241012","941-UM","2017/08/26 16:09:23","新北市三重區文化北路118巷61號","121.497283333333","25.0663933333333","6500200","三重區"
"241029","942-UM","2017/08/26 16:09:30","新北市三重區同安街24號","121.496248333333","25.056865","6500200","三重區"
"241033","AAC-255","2017/08/26 16:09:13","新北市三重區五谷王南街11巷9號","121.473616666667","25.04457","6500200","三重區"
"235062","800-TS","2017/08/26 15:31:02","新北市中和區員山路36巷16-3號","121.485008333333","24.9915116666667","6500300","中和區"
"228003","097-TW","2017/08/26 15:16:29","新北市貢寮區貢寮里朝陽街1-2號","121.912361666667","25.02125","6502600","貢寮區"
"224007","273-VK","2017/08/26 16:09:28","新北市瑞芳區粗坑口路50-1號","121.7621","25.09913","6501200","瑞芳區"
"224005","271-BY","2017/08/26 16:09:22","新北市瑞芳區明燈路二段66號","121.809421666667","25.1074633333333","6501200","瑞芳區"
"227002","642-TC","2017/08/26 16:09:21","新北市雙溪區上林里內平林19-1號","121.834436666667","25.0319666666667","6502500","雙溪區"
"227010","400-TW","2017/08/26 16:09:26","新北市雙溪區三港里雙澳路93號","121.886455","25.0558883333333","6502500","雙溪區"
"241031","760-BX","2017/08/26 16:08:26","新北市三峽區中山路13巷9號","121.369108333333","24.9339866666667","6500200","三重區"
"221012","276-VK","2017/08/26 13:27:28","新北市汐止區汐萬路一段256巷3號","121.653363333333","25.0745883333333","6501100","汐止區"
"220032","296-UM","2017/08/26 16:09:32","新北市五股區新五路三段202號","121.446108333333","25.0900933333333","6500100","板橋區"
"242001","281-VK","2017/08/26 16:09:32","新北市新莊區環河路636-7號","121.437363333333","25.0112033333333","6500500","新莊區"
"220014","829-TW","2017/08/26 16:05:33","新北市板橋區民生路二段15-1號","121.472786666667","25.0163866666667","6500100","板橋區"
