"lineid","car","time","location","longitude","latitude","cityid","cityname"
"249001","173-UM","2017/08/26 17:19:12","新北市八里區中華路二段165巷3號","121.407645","25.1508616666667","6502300","八里區"
"249004","303-UY","2017/08/26 17:18:56","新北市八里區文化街125號","121.422433333333","25.159975","6502300","八里區"
"249002","305-UY","2017/08/26 17:18:55","新北市八里區龍米路二段117巷39-1號","121.443298333333","25.141865","6502300","八里區"
"249003","593-UM","2017/08/26 17:19:01","新北市八里區商港路86號","121.395451666667","25.14647","6502300","八里區"
"249005","759-BX","2017/08/26 17:19:10","新北市五股區民義路二段132號","121.40959","25.1210016666667","6502300","八里區"
"244007","080-UY","2017/08/26 17:18:58","新北市林口區中華路555號","121.382315","25.0917516666667","6501700","林口區"
"244019","403-UM","2017/08/26 17:19:06","新北市林口區公園路223巷1號","121.373996666667","25.0748816666667","6501700","林口區"
"244009","410-SL","2017/08/26 17:19:05","新北市林口區文化北路二段550巷20弄3號","121.378496666667","25.0919883333333","6501700","林口區"
"244023","657-BX","2017/08/26 17:18:54","新北市林口區隆林街24號","121.388535","25.0754","6501700","林口區"
"244013","658-BX","2017/08/26 17:18:58","新北市林口區粉寮69號","121.405045","25.0908316666667","6501700","林口區"
"244021","838-TS","2017/08/26 17:19:08","新北市林口區粉寮路二段88巷18弄5號","121.40595","25.08843","6501700","林口區"
"231046","278-BY","2017/08/26 17:19:08","新北市新店區直潭路92號","121.530908333333","24.9375683333333","6500600","新店區"
"241011","013-R5","2017/08/26 17:19:07","新北市三重區龍濱路249號","121.501433333333","25.0725233333333","6500200","三重區"
"241028","022-UY","2017/08/26 17:19:06","新北市三重區仁化商場3號","121.49351","25.0595283333333","6500200","三重區"
"241008","059-VK","2017/08/26 17:19:04","新北市三重區下竹圍街8號","121.48088","25.0759","6500200","三重區"
"241009","060-VK","2017/08/26 17:19:13","新北市三重區仁愛街604號","121.483886666667","25.080725","6500200","三重區"
"241015","062-VK","2017/08/26 17:19:10","新北市三重區長元街82-1號","121.501865","25.06635","6500200","三重區"
"241017","063-VK","2017/08/26 17:19:01","新北市三重區新北大道一段1號","121.492008333333","25.061325","6500200","三重區"
"241024","065-VK","2017/08/26 17:19:11","新北市三重區大勇街82巷15弄5號","121.479978333333","25.0717933333333","6500200","三重區"
"241026","066-VK","2017/08/26 17:19:12","新北市三重區和平街1號","121.500136666667","25.06221","6500200","三重區"
"241002","090-VK","2017/08/26 17:19:05","新北市三重區仁愛街357巷35號","121.49291","25.08055","6500200","三重區"
"241003","091-VK","2017/08/26 17:19:12","新北市三重區富福街51號","121.491793333333","25.08431","6500200","三重區"
"241006","156-TC","2017/08/26 17:18:54","新北市三重區三和路四段264巷13號","121.485033333333","25.0768","6500200","三重區"
"241005","262-UM","2017/08/26 17:18:44","新北市三重區永安北路二段13號","121.482165","25.0814333333333","6500200","三重區"
"241030","265-UM","2017/08/26 17:19:11","新北市三重區成功路73巷11號","121.489485","25.051885","6500200","三重區"
"241016","266-UM","2017/08/26 17:18:58","新北市三重區新北大道一段7號","121.489531666667","25.061275","6500200","三重區"
"241022","267-UM","2017/08/26 17:18:58","新北市三重區中正北路64巷9號","121.486376666667","25.0640733333333","6500200","三重區"
"241018","268-UM","2017/08/26 17:18:59","新北市三重區安慶街123號","121.494796666667","25.0689116666667","6500200","三重區"
"241032","269-UM","2017/08/26 17:19:13","新北市三重區興華街142號","121.48289","25.0598816666667","6500200","三重區"
"241013","270-UM","2017/08/26 17:19:02","新北市三重區三和路三段107巷25號","121.495161666667","25.0731116666667","6500200","三重區"
"241025","271-UM","2017/08/26 17:19:10","新北市三重區中正北路275號","121.474978333333","25.0709116666667","6500200","三重區"
"241007","398-BY","2017/08/26 17:18:59","新北市三重區慈愛街7號","121.484955","25.07863","6500200","三重區"
"241020","413-TH","2017/08/26 17:19:01","新北市三重區忠孝路一段155號","121.487928333333","25.0721316666667","6500200","三重區"
"241004","475-VK","2017/08/26 17:19:14","新北市三重區五華街110巷2號","121.491983333333","25.08277","6500200","三重區"
"241019","478-VK","2017/08/26 17:19:02","新北市三重區自強路二段100號","121.487368333333","25.071275","6500200","三重區"
"241014","543-UM","2017/08/26 17:18:57","新北市三重區長榮路3號","121.500195","25.0683933333333","6500200","三重區"
"241023","545-UM","2017/08/26 17:19:00","新北市三重區三民街174號","121.482078333333","25.0656183333333","6500200","三重區"
"241012","941-UM","2017/08/26 17:19:03","新北市三重區河邊北街256巷28號","121.500946666667","25.0758416666667","6500200","三重區"
"241029","942-UM","2017/08/26 17:19:10","新北市三重區重新路四段28號","121.488083333333","25.0573666666667","6500200","三重區"
"241033","AAC-255","2017/08/26 17:18:53","新北市三重區中興北街136巷27號","121.46802","25.0560333333333","6500200","三重區"
"235067","255-BX","2017/08/26 16:16:08","新北市中和區員山路36巷13號","121.484343333333","24.99131","6500300","中和區"
"235062","800-TS","2017/08/26 17:18:57","新北市中和區員山路36巷16-3號","121.485113333333","24.9914716666667","6500300","中和區"
"247020","893-R6","2017/08/26 17:19:13","新北市蘆洲區民族路426巷16號","121.473346666667","25.0924516666667","6501400","蘆洲區"
"247010","546-UM","2017/08/26 17:18:56","新北市蘆洲區中山一路120巷7弄48號","121.477011666667","25.0826333333333","6501400","蘆洲區"
"247018","500-BY","2017/08/26 17:19:10","新北市蘆洲區民權路68巷14號","121.475486666667","25.0878716666667","6501400","蘆洲區"
"247008","339-TH","2017/08/26 17:19:14","新北市蘆洲區永安北路一段72巷58號","121.476085","25.0768933333333","6501400","蘆洲區"
"247024","337-TH","2017/08/26 17:19:10","新北市蘆洲區長榮路207號","121.461078333333","25.0850083333333","6501400","蘆洲區"
"247002","336-TH","2017/08/26 17:18:57","新北市蘆洲區永樂街38巷45弄1號","121.45814","25.0896666666667","6501400","蘆洲區"
"247014","057-VK","2017/08/26 17:19:03","新北市蘆洲區中正路58號","121.47063","25.0830083333333","6501400","蘆洲區"
"247004","056-VK","2017/08/26 17:18:58","新北市蘆洲區中原路79號","121.458281666667","25.0818616666667","6501400","蘆洲區"
"247006","053-VK","2017/08/26 17:19:03","新北市蘆洲區長安街73巷32號","121.461765","25.0791466666667","6501400","蘆洲區"
"247012","007-UY","2017/08/26 17:19:12","新北市蘆洲區信義路319巷8號","121.477786666667","25.0862266666667","6501400","蘆洲區"
"247022","002-UY","2017/08/26 17:19:10","新北市蘆洲區三民路128巷66號","121.47032","25.0890533333333","6501400","蘆洲區"
"247016","001-UY","2017/08/26 17:19:01","新北市蘆洲區正和街112號","121.46773","25.080455","6501400","蘆洲區"
"228003","097-TW","2017/08/26 17:18:57","新北市貢寮區福隆里興隆街38號","121.94025","25.0180733333333","6502600","貢寮區"
"228001","212-TW","2017/08/26 17:18:56","新北市貢寮區仁理村尖山腳街18-3號","121.9255","25.04833","6502600","貢寮區"
"228002","585-TW","2017/08/26 17:19:12","新北市貢寮區雙玉里下雙溪街28號","121.924845","25.0116183333333","6502600","貢寮區"
"224010","AGQ-8101","2017/08/26 08:59:46","新北市瑞芳區明燈路二段46號","121.80945","25.10818","6501200","瑞芳區"
"224006","676-BX","2017/08/26 17:19:10","新北市瑞芳區大寮路63巷1-1號","121.781953333333","25.0970966666667","6501200","瑞芳區"
"224009","285-BY","2017/08/26 17:19:13","新北市瑞芳區汽車路149號","121.838495","25.1098883333333","6501200","瑞芳區"
"224008","275-VK","2017/08/26 17:19:08","新北市瑞芳區侯硐路154號","121.827086666667","25.084675","6501200","瑞芳區"
"224005","271-BY","2017/08/26 17:19:01","新北市瑞芳區鼻頭路109號","121.91609","25.12307","6501200","瑞芳區"
"227002","642-TC","2017/08/26 17:19:01","新北市雙溪區上林里內平林90號","121.827538333333","25.0274983333333","6502500","雙溪區"
"227010","400-TW","2017/08/26 17:19:06","新北市雙溪區三貂里十三層5號","121.850705","25.064145","6502500","雙溪區"
"251009","008-UM","2017/08/26 17:19:05","新北市淡水區三民街20號","121.439008333333","25.1717016666667","6501000","淡水區"
"251004","009-UM","2017/08/26 17:18:59","新北市淡水區中正東路36-1號","121.448891666667","25.1659216666667","6501000","淡水區"
"251005","010-UM","2017/08/26 17:19:07","新北市淡水區鄧公路19-1號","121.450248333333","25.16993","6501000","淡水區"
"251014","180-VK","2017/08/26 17:19:12","新北市淡水區公埔子43號","121.463708333333","25.22997","6501000","淡水區"
"251008","181-VK","2017/08/26 17:18:52","新北市淡水區大同路269號","121.467066666667","25.1422366666667","6501000","淡水區"
"251010","413-VK","2017/08/26 17:19:00","新北市淡水區新民街一段117號","121.428408333333","25.1877116666667","6501000","淡水區"
"251012","441-VK","2017/08/26 17:18:53","新北市淡水區中山北路一段158號","121.444263333333","25.1778283333333","6501000","淡水區"
"251016","442-VK","2017/08/26 17:19:01","新北市淡水區鄒厝崙13號","121.462146666667","25.190555","6501000","淡水區"
"251006","561-UM","2017/08/26 17:18:56","新北市淡水區中山路189號","121.44127","25.1744633333333","6501000","淡水區"
"251007","577-R6","2017/08/26 17:19:07","新北市淡水區民生路60號","121.462138333333","25.1379633333333","6501000","淡水區"
"251011","650-BX","2017/08/26 17:18:58","新北市淡水區坪頂路128號","121.465175","25.1610783333333","6501000","淡水區"
"251002","672-BX","2017/08/26 17:19:07","新北市淡水區中正路二段31號","121.41933","25.1815683333333","6501000","淡水區"
"251003","673-BX","2017/08/26 17:19:03","新北市淡水區中正路一段156巷1號","121.420753333333","25.1801166666667","6501000","淡水區"
"207003","550-UM","2017/08/26 17:19:00","新北市萬里區萬里里瑪鋉路314號","121.688275","25.1819483333333","6502800","萬里區"
"252002","178-VK","2017/08/26 17:19:10","新北市三芝區忠孝街1-14號","121.50552","25.253975","6502100","三芝區"
"252001","292-VK","2017/08/26 17:18:55","新北市三芝區長安街119號","121.498055","25.25963","6502100","三芝區"
"241031","760-BX","2017/08/26 17:01:02","新北市三峽區中山路13巷9號","121.369161666667","24.933995","6500200","三重區"
"242021","AAC-296","2017/08/26 17:19:03","新北市新莊區中港路306號","121.452681666667","25.0451033333333","6500500","新莊區"
"242029","986-R7","2017/08/26 17:19:13","新北市新莊區新泰路482號","121.442581666667","25.0456533333333","6500500","新莊區"
"242048","751-BX","2017/08/26 17:19:06","新北市新莊區龍安路253號","121.419625","25.0200566666667","6500500","新莊區"
"242025","615-BX","2017/08/26 17:19:09","新北市新莊區中港一街161號","121.447351666667","25.0449516666667","6500500","新莊區"
"242023","613-BX","2017/08/26 17:18:53","新北市新莊區新泰路500號","121.44254","25.04598","6500500","新莊區"
"242027","612-BX","2017/08/26 17:19:02","新北市新莊區新泰路486號","121.44245","25.0457283333333","6500500","新莊區"
"242036","566-BX","2017/08/26 17:18:52","新北市新莊區新樹路223號","121.435456666667","25.0232416666667","6500500","新莊區"
"242042","497-BY","2017/08/26 17:19:01","新北市新莊區中正路471號","121.441766666667","25.0338766666667","6500500","新莊區"
"242046","441-UM","2017/08/26 17:19:10","新北市新莊區新樹路67巷38號","121.440773333333","25.0300983333333","6500500","新莊區"
"242051","440-UM","2017/08/26 17:19:06","新北市新莊區瓊林南路59-8號","121.435458333333","25.0164233333333","6500500","新莊區"
"242031","415-TV","2017/08/26 17:19:02","新北市新莊區新泰路486號","121.442663333333","25.0457633333333","6500500","新莊區"
"242039","400-BY","2017/08/26 17:19:04","新北市新莊區新樹路223號","121.435398333333","25.0231083333333","6500500","新莊區"
"242061","362-BY","2017/08/26 17:19:02","新北市新莊區新泰路357巷3弄51號","121.442446666667","25.0400316666667","6500500","新莊區"
"242058","353-BY","2017/08/26 17:18:59","新北市新莊區新泰路357巷1弄57號","121.442583333333","25.0396166666667","6500500","新莊區"
"242004","132-UY","2017/08/26 17:18:56","新北市新莊區新泰路255巷83號","121.442106666667","25.0390416666667","6500500","新莊區"
"242034","133-UY","2017/08/26 17:19:04","新北市新莊區瓊林路118號","121.44229","25.0255966666667","6500500","新莊區"
"242019","135-UY","2017/08/26 17:19:03","新北市新莊區中港路307號","121.452773333333","25.0447033333333","6500500","新莊區"
"242007","173-VK","2017/08/26 00:35:17","新北市新莊區三和路12-21號","121.441873333333","25.0386966666667","6500500","新莊區"
"242013","175-VK","2017/08/26 17:19:04","新北市新莊區新泰路357巷1弄48號","121.442618333333","25.0400816666667","6500500","新莊區"
"242056","176-VK","2017/08/26 17:19:10","新北市新莊區中環路一段285號","121.442081666667","25.0316983333333","6500500","新莊區"
"242011","346-TH","2017/08/26 17:18:54","新北市新莊區中港一街142號","121.446978333333","25.0450366666667","6500500","新莊區"
"242044","347-TH","2017/08/26 17:19:00","新北市新莊區富國路101-1號","121.421338333333","25.025555","6500500","新莊區"
"242017","348-TH","2017/08/26 17:19:01","新北市新莊區中港路298號","121.452858333333","25.04487","6500500","新莊區"
"242053","349-TH","2017/08/26 17:18:54","新北市新莊區環漢路三段1號","121.44225","25.0243","6500500","新莊區"
"242015","350-TH","2017/08/26 17:18:57","新北市新莊區新泰路500號","121.442423333333","25.04604","6500500","新莊區"
"242009","351-TH","2017/08/26 17:19:11","新北市新莊區中平路441號","121.444165","25.0555933333333","6500500","新莊區"
"238015","755-BX","2017/08/26 17:19:09","新北市樹林區大安路403號","121.415585","24.98911","6500700","樹林區"
"238023","601-UM","2017/08/26 17:19:02","新北市樹林區中正路433號","121.414973333333","25.0085716666667","6500700","樹林區"
"238019","599-UM","2017/08/26 17:19:08","新北市樹林區八德街247號","121.421771666667","24.9785966666667","6500700","樹林區"
"238018","571-TV","2017/08/26 17:19:13","新北市板橋區篤行路三段98-1號","121.425676666667","24.9849933333333","6500700","樹林區"
"238021","311-TH","2017/08/26 17:14:37","新北市樹林區西圳街165巷20弄26號","121.3955","24.9599983333333","6500700","樹林區"
"238025","303-VK","2017/08/26 17:19:11","新北市樹林區中山路一段296號","121.420253333333","24.986395","6500700","樹林區"
"238017","283-BY","2017/08/26 17:19:07","新北市樹林區保安街一段219號","121.420445","24.9963533333333","6500700","樹林區"
"238020","268-VK","2017/08/26 01:49:00","新北市樹林區中山路三段204號","121.386711666667","24.9681666666667","6500700","樹林區"
"238026","172-UY","2017/08/26 17:19:04","新北市樹林區東順街113號","121.407376666667","24.9752916666667","6500700","樹林區"
"238016","169-UY","2017/08/26 17:19:05","新北市樹林區八德街1號","121.417565","24.984985","6500700","樹林區"
"239007","AAC-297","2017/08/26 17:19:12","新北市鶯歌區建國路140號","121.351215","24.95409","6500800","鶯歌區"
"239006","891-R6","2017/08/26 17:18:57","新北市鶯歌區福昌街32號","121.332713333333","24.9610966666667","6500800","鶯歌區"
"239008","527-UM","2017/08/26 17:19:13","新北市鶯歌區西湖街289巷5-1號","121.340425","24.9690583333333","6500800","鶯歌區"
"239005","526-UM","2017/08/26 17:19:04","新北市鶯歌區鶯桃路541號","121.330353333333","24.96758","6500800","鶯歌區"
"239001","417-VK","2017/08/26 17:18:58","新北市鶯歌區黃厝街9號","121.343143333333","24.9457416666667","6500800","鶯歌區"
"239003","360-BY","2017/08/26 17:19:07","新北市鶯歌區德昌街179號","121.331403333333","24.9606233333333","6500800","鶯歌區"
"239002","359-BY","2017/08/26 17:19:01","新北市鶯歌區南雅路65號","121.347758333333","24.95408","6500800","鶯歌區"
"239004","193-VK","2017/08/26 17:18:58","新北市鶯歌區文化路479號","121.353513333333","24.9488916666667","6500800","鶯歌區"
"221012","276-VK","2017/08/26 13:27:28","新北市汐止區汐萬路一段256巷3號","121.653363333333","25.0745883333333","6501100","汐止區"
"242001","281-VK","2017/08/26 16:53:26","新北市新莊區環河路636-7號","121.43738","25.01122","6500500","新莊區"
"220014","829-TW","2017/08/26 16:05:33","新北市板橋區民生路二段15-1號","121.472786666667","25.0163866666667","6500100","板橋區"
