"lineid","car","time","location","longitude","latitude","cityid","cityname"
"234026","9371-KE","2017/08/26 17:58:47","新北市永和區永和路一段125號","121.51395","25.0082433333333","6500400","永和區"
"234011","9373-KE","2017/08/26 17:58:44","新北市永和區福和路1號","121.525556666667","25.00933","6500400","永和區"
"249001","173-UM","2017/08/26 17:58:52","新北市八里區龍米路二段30號","121.448661666667","25.1400016666667","6502300","八里區"
"249004","303-UY","2017/08/26 17:58:56","新北市八里區中山路一段18-1號","121.422876666667","25.1589316666667","6502300","八里區"
"249002","305-UY","2017/08/26 17:58:55","新北市八里區龍米路一段442號","121.450735","25.134085","6502300","八里區"
"249003","593-UM","2017/08/26 17:59:01","新北市八里區中山路二段76號","121.408333333333","25.1557283333333","6502300","八里區"
"249005","759-BX","2017/08/26 17:58:50","新北市八里區荖阡坑路20-8號","121.396905","25.1368","6502300","八里區"
"248006","077-UY","2017/08/26 17:58:54","新北市五股區中興路二段37巷28號","121.460075","25.0749216666667","6501500","五股區"
"248008","095-VK","2017/08/26 17:59:01","新北市五股區更洲路24號","121.458041666667","25.0790433333333","6501500","五股區"
"248020","225-UY","2017/08/26 17:58:53","新北市五股區中興路二段83巷26-6號","121.460031666667","25.075085","6501500","五股區"
"248014","261-SL","2017/08/26 17:57:48","新北市五股區中興路二段163號","121.457576666667","25.0777433333333","6501500","五股區"
"248004","677-BX","2017/08/26 17:58:49","新北市五股區中興路二段37巷28號","121.460103333333","25.0750166666667","6501500","五股區"
"248002","678-BX","2017/08/26 17:58:42","新北市五股區中興路二段37巷28號","121.460161666667","25.07482","6501500","五股區"
"232011","375-UM","2017/08/26 17:58:55","新北市坪林區水柳腳34-1號","121.710193333333","24.9356133333333","6502000","坪林區"
"244007","080-UY","2017/08/26 17:58:58","新北市林口區林口路126號","121.388481666667","25.0815783333333","6501700","林口區"
"244019","403-UM","2017/08/26 17:58:46","新北市林口區忠孝路542巷6號","121.372798333333","25.0672283333333","6501700","林口區"
"244009","410-SL","2017/08/26 17:58:45","新北市林口區竹林路564號","121.386653333333","25.0837116666667","6501700","林口區"
"244017","656-BX","2017/08/26 17:58:52","新北市林口區文化二路一段260巷7-3號","121.371971666667","25.0731883333333","6501700","林口區"
"244023","657-BX","2017/08/26 17:58:54","新北市林口區東湖路105巷73號","121.384798333333","25.0716216666667","6501700","林口區"
"244013","658-BX","2017/08/26 17:58:58","新北市林口區中山路164號","121.390338333333","25.0787466666667","6501700","林口區"
"244011","701-TV","2017/08/26 17:59:01","新北市林口區中正路161號","121.392673333333","25.0772916666667","6501700","林口區"
"244025","837-TS","2017/08/26 17:58:55","新北市林口區文化三路一段39巷112號","121.359288333333","25.0675883333333","6501700","林口區"
"244021","838-TS","2017/08/26 17:58:48","新北市林口區新寮32號","121.400265","25.0659783333333","6501700","林口區"
"243013","AAD-798","2017/08/26 17:58:43","新北市泰山區大科路45-16號","121.404416666667","25.0551766666667","6501600","泰山區"
"222003","436-BY","2017/08/26 17:58:46","新北市深坑區炮子崙9號","121.604236666667","24.986035","6501800","深坑區"
"222002","659-BX","2017/08/26 17:58:48","新北市深坑區深坑街43號","121.615636666667","25.001755","6501800","深坑區"
"222001","696-SL","2017/08/26 17:58:48","新北市深坑區北深路二段189號","121.612103333333","25.00119","6501800","深坑區"
"231046","278-BY","2017/08/26 17:58:48","新北市新店區康雅崙路14號","121.537658333333","24.9265433333333","6500600","新店區"
"241024","065-VK","2017/08/26 17:58:51","新北市三重區國道路一段50號","121.482283333333","25.0729166666667","6500200","三重區"
"241016","266-UM","2017/08/26 17:58:57","新北市三重區新北大道一段250號","121.481315","25.0615716666667","6500200","三重區"
"241033","AAC-255","2017/08/26 17:58:53","新北市三重區重新路五段561號","121.470383333333","25.0459966666667","6500200","三重區"
"235058","151-BY","2017/08/26 17:58:56","新北市中和區錦和路350-1號","121.490533333333","24.9935466666667","6500300","中和區"
"235055","183-VK","2017/08/26 03:49:23","新北市中和區員山路36巷16-3號","121.485046666667","24.991405","6500300","中和區"
"235038","185-VK","2017/08/26 17:58:42","新北市中和區中正路637巷52弄1號","121.485463333333","24.993455","6500300","中和區"
"235067","255-BX","2017/08/26 17:58:53","新北市中和區員山路36巷16-4號","121.485218333333","24.9919116666667","6500300","中和區"
"235061","378-QA","2017/08/26 17:58:55","新北市中和區連城路469巷70弄2號","121.483385","24.9939966666667","6500300","中和區"
"235062","800-TS","2017/08/26 17:58:53","新北市中和區連城路469巷70弄2號","121.483418333333","24.9937666666667","6500300","中和區"
"235052","805-TS","2017/08/26 17:58:50","新北市中和區員山路36巷16號","121.484378333333","24.99166","6500300","中和區"
"235037","AAC-213","2017/08/26 17:58:41","新北市中和區員山路36巷16號","121.484466666667","24.9915033333333","6500300","中和區"
"235059","AAC-215","2017/08/26 17:58:41","新北市中和區員山路36巷16-3號","121.485023333333","24.99143","6500300","中和區"
"247020","893-R6","2017/08/26 17:58:53","新北市蘆洲區民義街35巷16號","121.471496666667","25.0899133333333","6501400","蘆洲區"
"247018","500-BY","2017/08/26 17:58:49","新北市蘆洲區復興路322號","121.481911666667","25.0902166666667","6501400","蘆洲區"
"247024","337-TH","2017/08/26 17:58:50","新北市蘆洲區光復路30巷20號","121.463815","25.0840983333333","6501400","蘆洲區"
"247002","336-TH","2017/08/26 17:58:57","新北市蘆洲區永平街32巷57弄22號","121.459001666667","25.0933183333333","6501400","蘆洲區"
"247012","007-UY","2017/08/26 17:58:52","新北市蘆洲區民族路167巷15號","121.47831","25.0883516666667","6501400","蘆洲區"
"247022","002-UY","2017/08/26 17:58:50","新北市蘆洲區環堤大道365號","121.459125","25.0978516666667","6501400","蘆洲區"
"247016","001-UY","2017/08/26 17:59:01","新北市蘆洲區中正路243巷19號","121.466476666667","25.0852716666667","6501400","蘆洲區"
"228003","097-TW","2017/08/26 17:58:57","新北市貢寮區真理里美艷山街6-2號","121.928881666667","25.0607133333333","6502600","貢寮區"
"228001","212-TW","2017/08/26 17:58:56","新北市貢寮區真理里新港街26巷50號","121.927798333333","25.053225","6502600","貢寮區"
"228002","585-TW","2017/08/26 17:58:52","新北市貢寮區福隆里桂安街17號","121.966926666667","25.0229983333333","6502600","貢寮區"
"224006","676-BX","2017/08/26 17:58:50","新北市瑞芳區瑞興新村12巷1號","121.788418333333","25.1083216666667","6501200","瑞芳區"
"224002","639-TC","2017/08/26 17:58:51","新北市瑞芳區三爪子坑路127號","121.81024","25.1068883333333","6501200","瑞芳區"
"224009","285-BY","2017/08/26 17:58:53","新北市瑞芳區山尖路2號","121.854183333333","25.1156583333333","6501200","瑞芳區"
"224008","275-VK","2017/08/26 17:58:48","新北市瑞芳區明燈路一段45巷71號","121.821923333333","25.104855","6501200","瑞芳區"
"224005","271-BY","2017/08/26 17:58:52","新北市瑞芳區弘祥新村8號","121.817538333333","25.1289483333333","6501200","瑞芳區"
"253006","032-BX","2017/08/26 17:58:50","新北市石門區大丘田45-2號","121.54977","25.274955","6502200","石門區"
"253005","295-VK","2017/08/26 17:58:49","新北市石門區中山路62-11號","121.567498333333","25.2896833333333","6502200","石門區"
"208001","742-BX","2017/08/26 17:58:46","新北市金山區三界壇路91-1號","121.624758333333","25.228625","6502700","金山區"
"208003","665-BX","2017/08/26 17:58:55","新北市金山區磺港里磺港路313號","121.644415","25.2279216666667","6502700","金山區"
"251009","008-UM","2017/08/26 17:58:45","新北市淡水區中山路108巷3號","121.442013333333","25.1710533333333","6501000","淡水區"
"251004","009-UM","2017/08/26 17:58:59","新北市淡水區民權路187巷38號","121.46084","25.1334933333333","6501000","淡水區"
"251005","010-UM","2017/08/26 17:58:47","新北市淡水區英專路127號","121.44628","25.17267","6501000","淡水區"
"251014","180-VK","2017/08/26 17:58:52","新北市淡水區公埔子16-6號","121.480993333333","25.22458","6501000","淡水區"
"251008","181-VK","2017/08/26 17:58:52","新北市淡水區八勢一街57號","121.461861666667","25.1553066666667","6501000","淡水區"
"251010","413-VK","2017/08/26 17:59:00","新北市淡水區中正路一段132巷22號","121.422998333333","25.1799433333333","6501000","淡水區"
"251012","441-VK","2017/08/26 17:58:52","新北市淡水區北新路三段10號","121.48279","25.1853833333333","6501000","淡水區"
"251016","442-VK","2017/08/26 17:58:59","新北市淡水區埤島35-5號","121.449691666667","25.1966983333333","6501000","淡水區"
"251001","559-UM","2017/08/26 17:59:03","新北市淡水區民權路94巷1號","121.463141666667","25.124865","6501000","淡水區"
"251006","561-UM","2017/08/26 17:58:56","新北市淡水區新生街15號","121.438835","25.1731816666667","6501000","淡水區"
"251011","650-BX","2017/08/26 17:58:58","新北市淡水區三空泉5號","121.476843333333","25.1614783333333","6501000","淡水區"
"251002","672-BX","2017/08/26 17:58:53","新北市淡水區中正東路79號","121.447511666667","25.1672633333333","6501000","淡水區"
"251003","673-BX","2017/08/26 17:58:43","新北市淡水區大忠街79-1號","121.445875","25.17731","6501000","淡水區"
"207003","550-UM","2017/08/26 17:59:00","新北市萬里區野柳里港東路155號","121.689835","25.2052333333333","6502800","萬里區"
"207004","225-TW","2017/08/26 17:58:47","新北市萬里區中幅里中福路48號","121.683223333333","25.1740416666667","6502800","萬里區"
"252002","178-VK","2017/08/26 17:58:50","新北市三芝區中山路二段2-1號","121.50247","25.255865","6502100","三芝區"
"252001","292-VK","2017/08/26 17:58:55","新北市三芝區中興街一段37號","121.497646666667","25.257805","6502100","三芝區"
"237007","153-BY","2017/08/26 17:58:56","新北市三峽區中園街237-1號","121.3668","24.919525","6500900","三峽區"
"237009","210-TH","2017/08/26 17:58:48","新北市三峽區中山路106巷2號","121.366105","24.9360733333333","6500900","三峽區"
"237013","252-BX","2017/08/26 17:58:54","新北市三峽區介壽路一段111號","121.375961666667","24.9320733333333","6500900","三峽區"
"237012","275-BY","2017/08/26 17:58:39","新北市三峽區民生街27巷30號","121.376093333333","24.936065","6500900","三峽區"
"237008","302-VK","2017/08/26 17:58:49","新北市三峽區正義街153號","121.368206666667","24.9152966666667","6500900","三峽區"
"237006","5529-G3","2017/08/26 17:58:52","新北市三峽區介壽路二段138巷1弄106號","121.397693333333","24.931125","6500900","三峽區"
"237011","572-TV","2017/08/26 17:58:44","新北市三峽區大同路24號","121.377788333333","24.9293316666667","6500900","三峽區"
"237016","649-BX","2017/08/26 17:58:53","新北市三峽區白雞115-16號","121.401081666667","24.9061783333333","6500900","三峽區"
"237010","706-TV","2017/08/26 17:59:00","新北市三峽區民權街162號","121.368006666667","24.93054","6500900","三峽區"
"237014","756-BX","2017/08/26 17:58:47","新北市三峽區復興路141-1號","121.371021666667","24.93786","6500900","三峽區"
"241031","760-BX","2017/08/26 17:58:50","新北市三峽區中山路13巷9號","121.369101666667","24.933975","6500200","三重區"
"237005","AKY-6261","2017/08/26 17:58:55","新北市三峽區復興路237巷26號","121.368276666667","24.9375916666667","6500900","三峽區"
"236073","105-UM","2017/08/26 17:58:43","新北市土城區青雲路665號","121.465695","24.9650083333333","6501300","土城區"
"236043","107-UM","2017/08/26 17:59:02","新北市土城區裕生路82巷2號","121.447555","24.9859316666667","6501300","土城區"
"236079","166-UM","2017/08/26 17:58:42","新北市土城區永寧路26-1號","121.429541666667","24.9609733333333","6501300","土城區"
"236031","253-BX","2017/08/26 17:58:55","新北市土城區城林路6巷80號","121.438438333333","24.9797616666667","6501300","土城區"
"236027","269-VK","2017/08/26 17:58:39","新北市土城區承天路67號","121.43944","24.96364","6501300","土城區"
"236015","270-VK","2017/08/26 17:59:01","新北市土城區中央路二段280號","121.440793333333","24.97396","6501300","土城區"
"236038","271-VK","2017/08/26 17:58:48","新北市土城區中央路二段280號","121.440685","24.9740383333333","6501300","土城區"
"236023","401-BY","2017/08/26 17:58:54","新北市土城區城林路6巷80號","121.43871","24.9797483333333","6501300","土城區"
"236059","912-UM","2017/08/26 17:58:46","新北市土城區中央路三段119-1號","121.434295","24.9657333333333","6501300","土城區"
"236049","913-UM","2017/08/26 17:58:52","新北市土城區中華路二段2號","121.439116666667","24.9797616666667","6501300","土城區"
"236063","915-UM","2017/08/26 17:58:48","新北市土城區城林路6巷80號","121.438451666667","24.9797916666667","6501300","土城區"
"236055","AAC-216","2017/08/26 17:58:47","新北市土城區城林路6巷80號","121.43846","24.9796583333333","6501300","土城區"
"242021","AAC-296","2017/08/26 17:58:49","新北市新莊區中華路一段10號","121.452036666667","25.036905","6500500","新莊區"
"242029","986-R7","2017/08/26 17:58:53","新北市新莊區中平路50號","121.44477","25.04399","6500500","新莊區"
"242048","751-BX","2017/08/26 17:58:46","新北市新莊區萬安街63號","121.421345","25.024195","6500500","新莊區"
"242025","615-BX","2017/08/26 17:58:55","新北市新莊區五工路93-1號","121.458065","25.0633483333333","6500500","新莊區"
"242023","613-BX","2017/08/26 17:58:57","新北市新莊區福壽街39號","121.45821","25.0485866666667","6500500","新莊區"
"242027","612-BX","2017/08/26 17:58:46","新北市新莊區思源路473號","121.45989","25.0540983333333","6500500","新莊區"
"242036","566-BX","2017/08/26 17:58:52","新北市新莊區建福路9號","121.42607","25.0294733333333","6500500","新莊區"
"242042","497-BY","2017/08/26 17:59:02","新北市新莊區壽山路9號","121.420611666667","25.02895","6500500","新莊區"
"242046","441-UM","2017/08/26 17:58:49","新北市新莊區福營路167號","121.431808333333","25.0311716666667","6500500","新莊區"
"242051","440-UM","2017/08/26 17:58:46","新北市新莊區西盛街216號","121.427908333333","25.0174333333333","6500500","新莊區"
"242031","415-TV","2017/08/26 17:59:02","新北市新莊區新泰路308號","121.445358333333","25.0411183333333","6500500","新莊區"
"242002","413-TV","2017/08/26 17:58:44","新北市新莊區中正路161號","121.455403333333","25.03669","6500500","新莊區"
"242039","400-BY","2017/08/26 17:58:44","新北市新莊區民安路103號","121.42453","25.0250866666667","6500500","新莊區"
"242061","362-BY","2017/08/26 17:58:42","新北市新莊區新樹路210號","121.433908333333","25.0204616666667","6500500","新莊區"
"242058","353-BY","2017/08/26 17:58:59","新北市新莊區雙鳳路134巷30號","121.412465","25.0283516666667","6500500","新莊區"
"242004","132-UY","2017/08/26 17:58:56","新北市新莊區思源路177巷32號","121.45928","25.0462533333333","6500500","新莊區"
"242034","133-UY","2017/08/26 17:58:43","新北市新莊區景德路416號","121.444606666667","25.03341","6500500","新莊區"
"242019","135-UY","2017/08/26 17:58:56","新北市新莊區明中街43巷1號","121.457731666667","25.03909","6500500","新莊區"
"242007","173-VK","2017/08/26 17:58:49","新北市新莊區自信街81巷17弄2號","121.456003333333","25.0488416666667","6500500","新莊區"
"242013","175-VK","2017/08/26 17:58:54","新北市新莊區中和街63號","121.447536666667","25.04726","6500500","新莊區"
"242056","176-VK","2017/08/26 17:58:51","新北市新莊區豐年街124巷18號","121.445498333333","25.0299166666667","6500500","新莊區"
"242011","346-TH","2017/08/26 17:58:54","新北市新莊區中港路中慶巷27弄2號","121.450005","25.0537216666667","6500500","新莊區"
"242044","347-TH","2017/08/26 17:58:54","新北市新莊區雙鳳路119號","121.413465","25.0279383333333","6500500","新莊區"
"242017","348-TH","2017/08/26 17:59:01","新北市新莊區永樂街66號","121.450995","25.0450783333333","6500500","新莊區"
"242053","349-TH","2017/08/26 17:58:59","新北市新莊區光華街25號","121.428821666667","25.0110016666667","6500500","新莊區"
"242015","350-TH","2017/08/26 17:58:57","新北市新莊區新泰路502巷41弄18號","121.443691666667","25.0469566666667","6500500","新莊區"
"242009","351-TH","2017/08/26 17:58:51","新北市新莊區中原路191號","121.452356666667","25.05392","6500500","新莊區"
"238015","755-BX","2017/08/26 17:58:49","新北市樹林區復興路198號","121.419681666667","24.9910916666667","6500700","樹林區"
"238023","601-UM","2017/08/26 17:59:02","新北市樹林區龍興街32巷13號","121.402443333333","25.015675","6500700","樹林區"
"238019","599-UM","2017/08/26 17:58:48","新北市樹林區國凱街160號","121.424363333333","24.9808216666667","6500700","樹林區"
"238018","571-TV","2017/08/26 17:58:53","新北市樹林區博愛街121號","121.42627","24.9909116666667","6500700","樹林區"
"238022","312-TH","2017/08/26 17:59:00","新北市樹林區太順街62巷3弄35號","121.416485","24.979135","6500700","樹林區"
"238021","311-TH","2017/08/26 17:58:57","新北市樹林區柑園街一段23-5號","121.404403333333","24.9603033333333","6500700","樹林區"
"238025","303-VK","2017/08/26 17:58:52","新北市樹林區俊興街211巷7弄13號","121.417016666667","25.0138883333333","6500700","樹林區"
"238017","283-BY","2017/08/26 17:58:46","新北市樹林區俊德街17號","121.415073333333","25.0143983333333","6500700","樹林區"
"238014","282-BY","2017/08/26 17:58:45","新北市樹林區大安路127號","121.42238","24.9974283333333","6500700","樹林區"
"238020","268-VK","2017/08/26 01:49:00","新北市樹林區中山路三段204號","121.386711666667","24.9681666666667","6500700","樹林區"
"238026","172-UY","2017/08/26 17:58:44","新北市樹林區中洲街7號","121.39727","24.9724316666667","6500700","樹林區"
"238016","169-UY","2017/08/26 17:58:25","新北市樹林區復興路376-5號","121.415323333333","24.9858283333333","6500700","樹林區"
"239007","AAC-297","2017/08/26 17:58:59","新北市鶯歌區尖山埔路199號","121.345273333333","24.9504966666667","6500800","鶯歌區"
"239006","891-R6","2017/08/26 17:58:57","新北市鶯歌區鶯桃路455巷2弄2號","121.331853333333","24.96547","6500800","鶯歌區"
"239008","527-UM","2017/08/26 17:58:53","新北市鶯歌區欣欣街5號","121.336818333333","24.9785216666667","6500800","鶯歌區"
"239005","526-UM","2017/08/26 17:58:45","新北市鶯歌區鶯桃路668巷73號","121.329916666667","24.971755","6500800","鶯歌區"
"239001","417-VK","2017/08/26 17:58:58","新北市鶯歌區中正三路17號","121.339235","24.9426466666667","6500800","鶯歌區"
"239003","360-BY","2017/08/26 17:58:47","新北市鶯歌區福安街32巷22號","121.335071666667","24.9636983333333","6500800","鶯歌區"
"239002","359-BY","2017/08/26 17:58:40","新北市鶯歌區光明街96號","121.346271666667","24.9558266666667","6500800","鶯歌區"
"239004","193-VK","2017/08/26 17:58:58","新北市鶯歌區尖山路103-7號","121.348051666667","24.9487883333333","6500800","鶯歌區"
"221008","489-VK","2017/08/26 17:58:41","新北市汐止區明峰街5號","121.635443333333","25.071225","6501100","汐止區"
"221036","130-UY","2017/08/26 17:58:44","新北市汐止區大同路三段54號","121.66743","25.0768766666667","6501100","汐止區"
"221015","131-UY","2017/08/26 17:58:54","新北市汐止區長江街334號","121.666923333333","25.08182","6501100","汐止區"
"221010","269-BY","2017/08/26 17:58:57","新北市汐止區汐萬路二段245巷1號","121.64615","25.08798","6501100","汐止區"
"221012","276-VK","2017/08/26 13:27:28","新北市汐止區汐萬路一段256巷3號","121.653363333333","25.0745883333333","6501100","汐止區"
"221031","277-VK","2017/08/26 17:58:57","新北市汐止區中興路96巷1-3號","121.635558333333","25.06267","6501100","汐止區"
"221012","278-VK","2017/08/26 17:58:56","新北市汐止區長興街二段30號","121.673291666667","25.08141","6501100","汐止區"
"221023","279-VK","2017/08/26 17:58:58","新北市汐止區民族六街2巷2號","121.629078333333","25.0707383333333","6501100","汐止區"
"221032","280-BY","2017/08/26 17:58:48","新北市汐止區橫科路73巷2-2號","121.619406666667","25.0507133333333","6501100","汐止區"
"221027","281-BY","2017/08/26 17:58:44","新北市汐止區大同路二段374號","121.657873333333","25.0671283333333","6501100","汐止區"
"221038","297-VK","2017/08/26 17:58:56","新北市汐止區連興街128巷7弄6號","121.653438333333","25.061445","6501100","汐止區"
"221029","298-VK","2017/08/26 17:58:49","新北市汐止區樟樹二路338號","121.641611666667","25.070545","6501100","汐止區"
"221021","299-VK","2017/08/26 17:58:55","新北市汐止區新興路15號","121.656521666667","25.0647366666667","6501100","汐止區"
"221035","622-UM","2017/08/26 17:58:39","新北市汐止區新江北路19號","121.652878333333","25.0704283333333","6501100","汐止區"
"221025","623-UM","2017/08/26 17:58:58","新北市汐止區仁愛路41號","121.659606666667","25.0633383333333","6501100","汐止區"
"221033","647-BX","2017/08/26 17:58:42","新北市汐止區合順街33號","121.6205","25.04322","6501100","汐止區"
"221002","707-TV","2017/08/26 17:58:50","新北市汐止區工建路112號","121.63822","25.0635266666667","6501100","汐止區"
"221018","753-BX","2017/08/26 17:58:42","新北市汐止區招商街6號","121.666568333333","25.068745","6501100","汐止區"
"242001","281-VK","2017/08/26 16:53:26","新北市新莊區環河路636-7號","121.43738","25.01122","6500500","新莊區"
"220014","829-TW","2017/08/26 16:05:33","新北市板橋區民生路二段15-1號","121.472786666667","25.0163866666667","6500100","板橋區"
