"lineid","car","time","location","longitude","latitude","cityid","cityname"
"234046","148-BY","2017/08/26 19:49:35","新北市永和區成功路一段76號","121.526338333333","25.0033516666667","6500400","永和區"
"234013","149-BY","2017/08/26 19:49:28","新北市永和區永平路316號","121.506998333333","25.01268","6500400","永和區"
"234007","207-UY","2017/08/26 19:49:39","新北市中和區保平路366號","121.506491666667","25.0036916666667","6500400","永和區"
"234081","298-R6","2017/08/26 19:49:46","新北市永和區永亨路98號","121.522838333333","25.0046966666667","6500400","永和區"
"234038","336-UY","2017/08/26 19:49:44","新北市永和區成功路二段165號","121.526633333333","24.9971816666667","6500400","永和區"
"234064","337-UY","2017/08/26 19:49:30","新北市永和區中正路368巷27號","121.51854","25.0007966666667","6500400","永和區"
"234086","338-UY","2017/08/26 19:49:41","新北市永和區永貞路70巷24號","121.519683333333","25.0059516666667","6500400","永和區"
"234070","552-UM","2017/08/26 19:49:48","新北市永和區國光路49巷6號","121.518913333333","25.007915","6500400","永和區"
"234054","553-UM","2017/08/26 19:49:39","新北市永和區竹林路73-1號","121.51867","25.013225","6500400","永和區"
"234017","745-BX","2017/08/26 19:49:42","新北市永和區永和路二段290號","121.516046666667","25.0156866666667","6500400","永和區"
"234061","AAD-866","2017/08/26 19:49:41","新北市永和區中正路87號","121.515225","24.99695","6500400","永和區"
"234030","847-RS","2017/08/26 19:49:38","新北市永和區民權路49巷5弄10號","121.520826666667","24.997565","6500400","永和區"
"234042","862-TW","2017/08/26 19:49:46","新北市永和區中和路389巷22號","121.508151666667","25.001295","6500400","永和區"
"234050","863-TW","2017/08/26 19:49:38","新北市永和區保安路168號","121.508063333333","25.01434","6500400","永和區"
"234026","9371-KE","2017/08/26 19:49:47","新北市永和區水源街33巷1號","121.510773333333","25.0043516666667","6500400","永和區"
"234011","9373-KE","2017/08/26 19:49:44","新北市永和區保福路二段163巷14號","121.508843333333","25.0146816666667","6500400","永和區"
"249001","173-UM","2017/08/26 19:49:33","新北市八里區中華路二段252號","121.405381666667","25.1496583333333","6502300","八里區"
"249004","303-UY","2017/08/26 19:49:34","新北市八里區仁愛路35號","121.413535","25.1606533333333","6502300","八里區"
"249002","305-UY","2017/08/26 19:49:33","新北市八里區頂寮五街20號","121.451313333333","25.1262233333333","6502300","八里區"
"249003","593-UM","2017/08/26 19:49:45","新北市八里區中華路二段560巷3號","121.398516666667","25.1451216666667","6502300","八里區"
"248016","026-BX","2017/08/26 19:49:34","新北市五股區成泰路四段22巷2-1號","121.453731666667","25.10671","6501500","五股區"
"248008","095-VK","2017/08/26 19:49:40","新北市五股區四維路140號","121.468146666667","25.0754083333333","6501500","五股區"
"248020","225-UY","2017/08/26 19:49:32","新北市五股區中直路55號","121.419146666667","25.1174916666667","6501500","五股區"
"248012","247-BX","2017/08/26 19:49:40","新北市五股區蓬萊路24號","121.433878333333","25.0799166666667","6501500","五股區"
"248014","261-SL","2017/08/26 19:49:39","新北市五股區五福路42巷27號","121.434903333333","25.09005","6501500","五股區"
"248010","272-BY","2017/08/26 19:49:45","新北市五股區登林路76-9號","121.429785","25.0693383333333","6501500","五股區"
"248004","677-BX","2017/08/26 19:49:33","新北市五股區成泰路一段197號","121.435121666667","25.0766566666667","6501500","五股區"
"248002","678-BX","2017/08/26 19:49:42","新北市五股區成泰路四段15-6號","121.453256666667","25.1068666666667","6501500","五股區"
"234077","969-R7","2017/08/26 19:49:39","新北市永和區民有街23巷41號","121.51749","24.997175","6500400","永和區"
"234074","AAC-211","2017/08/26 19:49:32","新北市永和區豫溪街189巷1號","121.52257","25.0102633333333","6500400","永和區"
"234067","AAC-212","2017/08/26 19:49:34","新北市永和區中山路一段170號","121.509295","25.00912","6500400","永和區"
"234003","AAC-295","2017/08/26 19:49:44","新北市永和區福和路352號","121.5148","25.007395","6500400","永和區"
"243013","AAD-798","2017/08/26 19:49:43","新北市泰山區應化街7號","121.42389","25.0437133333333","6501600","泰山區"
"243009","297-R6","2017/08/26 19:49:35","新北市泰山區美寧街60號","121.430971666667","25.0646466666667","6501600","泰山區"
"243015","380-SR","2017/08/26 19:49:28","新北市泰山區民權街84號","121.428075","25.0496883333333","6501600","泰山區"
"243014","421-VK","2017/08/26 19:49:46","新北市泰山區泰林路二段33-7號","121.43521","25.05649","6501600","泰山區"
"243010","548-UM","2017/08/26 19:49:41","新北市泰山區民生路33號","121.430558333333","25.0522433333333","6501600","泰山區"
"243012","646-TV","2017/08/26 19:49:38","新北市泰山區全興路13號","121.432315","25.0589416666667","6501600","泰山區"
"243016","680-BX","2017/08/26 19:49:31","新北市泰山區明志路三段517號","121.421086666667","25.0318366666667","6501600","泰山區"
"222003","436-BY","2017/08/26 19:36:07","新北市深坑區深南路51-1號","121.621205","25.0100233333333","6501800","深坑區"
"222002","659-BX","2017/08/26 19:49:48","新北市深坑區北深路二段20號","121.620748333333","25.0044533333333","6501800","深坑區"
"222001","696-SL","2017/08/26 19:49:16","新北市深坑區北深路三段45號","121.60806","25.0010966666667","6501800","深坑區"
"231059","001-UM","2017/08/26 19:49:44","新北市新店區安和路一段39號","121.51725","24.965385","6500600","新店區"
"231041","002-UM","2017/08/26 19:49:45","新北市新店區中央路117號","121.530803333333","24.97436","6500600","新店區"
"231061","047-UY","2017/08/26 19:49:45","新北市新店區安民街315號","121.517563333333","24.9741583333333","6500600","新店區"
"231051","107-UY","2017/08/26 19:49:30","新北市新店區中央三街70號","121.526588333333","24.9750983333333","6500600","新店區"
"231048","108-UY","2017/08/26 19:49:45","新北市新店區寶興路47號","121.549161666667","24.9735016666667","6500600","新店區"
"231052","187-VK","2017/08/26 19:49:32","新北市新店區新烏路三段151號","121.551038333333","24.9017666666667","6500600","新店區"
"231057","256-BX","2017/08/26 19:49:37","新北市新店區梅崗三路1號","121.55804","24.9311183333333","6500600","新店區"
"231063","268-BY","2017/08/26 19:49:25","新北市新店區黎明路3號","121.503351666667","24.952295","6500600","新店區"
"231046","278-BY","2017/08/26 19:49:28","新北市新店區三民路159巷19弄46號","121.532215","24.9732066666667","6500600","新店區"
"231050","AAD-862","2017/08/26 19:49:30","新北市新店區郵政路101號","121.55432","24.9513516666667","6500600","新店區"
"231060","355-BY","2017/08/26 19:49:28","新北市新店區安康路二段161號","121.51025","24.9592983333333","6500600","新店區"
"231055","3713-VJ","2017/08/26 19:49:43","新北市新店區新生街1號","121.54033","24.965605","6500600","新店區"
"231056","4716-K9","2017/08/26 19:49:43","新北市新店區中正路472號","121.533896666667","24.9809066666667","6500600","新店區"
"231067","4772-VM","2017/08/26 19:49:40","新北市新店區秀山路11巷8號","121.531866666667","24.9593833333333","6500600","新店區"
"231065","512-UM","2017/08/26 19:49:35","新北市新店區安祥路109巷90弄98號","121.475958333333","24.9575183333333","6500600","新店區"
"231054","513-UM","2017/08/26 19:49:46","新北市新店區光明街138巷10號","121.539813333333","24.9611766666667","6500600","新店區"
"231042","616-UM","2017/08/26 19:49:31","新北市新店區中興路一段270-1號","121.545306666667","24.9680766666667","6500600","新店區"
"231045","617-UM","2017/08/26 19:49:44","新北市新店區中生路66號","121.564626666667","24.95266","6500600","新店區"
"231040","619-UM","2017/08/26 19:49:40","新北市新店區北新路一段96巷23號","121.543003333333","24.9689416666667","6500600","新店區"
"231049","719-UM","2017/08/26 19:49:42","新北市新店區民權路127巷9號","121.535555","24.9818183333333","6500600","新店區"
"231064","719-UY","2017/08/26 19:49:47","新北市新店區安和路二段3-3號","121.517926666667","24.9672333333333","6500600","新店區"
"231062","720-UM","2017/08/26 19:49:42","新北市新店區永業路111號","121.528576666667","24.9482816666667","6500600","新店區"
"231044","897-TW","2017/08/26 19:49:43","新北市新店區復興路40-1號","121.538706666667","24.98682","6500600","新店區"
"231043","899-TW","2017/08/26 19:49:45","新北市新店區中正路227號","121.53925","24.9727316666667","6500600","新店區"
"241011","013-R5","2017/08/26 19:49:29","新北市三重區三和路二段173巷47號","121.499288333333","25.0702083333333","6500200","三重區"
"241028","022-UY","2017/08/26 19:49:29","新北市三重區中正南路157號","121.493825","25.0560866666667","6500200","三重區"
"241008","059-VK","2017/08/26 19:49:44","新北市三重區永福街96號","121.478893333333","25.075885","6500200","三重區"
"241009","060-VK","2017/08/26 19:49:33","新北市三重區三和路四段396巷22號","121.480245","25.078875","6500200","三重區"
"241031","061-VK","2017/08/26 19:49:31","新北市三重區重新路四段248號","121.486048333333","25.0534566666667","6500200","三重區"
"241015","062-VK","2017/08/26 19:49:32","新北市三重區重新路一段1號","121.50383","25.0642833333333","6500200","三重區"
"241017","063-VK","2017/08/26 19:49:41","新北市三重區重陽路三段27巷1號","121.489596666667","25.06653","6500200","三重區"
"241024","065-VK","2017/08/26 19:49:45","新北市三重區大勇街87號","121.47984","25.07141","6500200","三重區"
"241026","066-VK","2017/08/26 19:49:30","新北市三重區文化南路42號","121.500323333333","25.06024","6500200","三重區"
"241003","091-VK","2017/08/26 19:49:30","新北市三重區五華街93巷61號","121.493295","25.0845266666667","6500200","三重區"
"241006","156-TC","2017/08/26 19:49:34","新北市三重區力行路二段90號","121.481821666667","25.07427","6500200","三重區"
"241005","262-UM","2017/08/26 19:49:44","新北市三重區溪尾街305號","121.48758","25.0839116666667","6500200","三重區"
"241030","265-UM","2017/08/26 19:49:34","新北市三重區環河南路254巷22號","121.490256666667","25.050945","6500200","三重區"
"241016","266-UM","2017/08/26 19:49:37","新北市三重區正義北路48巷74號","121.495578333333","25.0634733333333","6500200","三重區"
"241022","267-UM","2017/08/26 19:49:35","新北市三重區新北大道一段7號","121.489716666667","25.0615916666667","6500200","三重區"
"241018","268-UM","2017/08/26 19:49:38","新北市三重區自強路一段167號","121.493083333333","25.06731","6500200","三重區"
"241032","269-UM","2017/08/26 19:49:37","新北市三重區重陽路一段44巷9號","121.48605","25.0578083333333","6500200","三重區"
"241013","270-UM","2017/08/26 19:49:38","新北市三重區仁愛街112巷14號","121.494698333333","25.0739766666667","6500200","三重區"
"241025","271-UM","2017/08/26 19:49:46","新北市三重區頂崁街210巷16號","121.47646","25.0676883333333","6500200","三重區"
"241007","398-BY","2017/08/26 19:49:39","新北市三重區三和路四段143-1號","121.484498333333","25.07835","6500200","三重區"
"241020","413-TH","2017/08/26 19:49:41","新北市三重區後竹圍街29號","121.490891666667","25.0734933333333","6500200","三重區"
"241019","478-VK","2017/08/26 19:49:41","新北市三重區自強路二段74巷23-1號","121.487813333333","25.0697666666667","6500200","三重區"
"241014","543-UM","2017/08/26 19:49:37","新北市三重區長安街82號","121.50144","25.0675233333333","6500200","三重區"
"241023","545-UM","2017/08/26 19:49:40","新北市三重區大有街1-1號","121.477655","25.065615","6500200","三重區"
"241035","743-BX","2017/08/26 19:49:45","新北市三重區文化北路22-1號","121.4993","25.06421","6500200","三重區"
"241001","887-TS","2017/08/26 19:49:43","新北市三重區仁愛街327巷23號","121.492913333333","25.0798783333333","6500200","三重區"
"241012","941-UM","2017/08/26 19:49:43","新北市三重區仁興街56巷46號","121.498083333333","25.075405","6500200","三重區"
"241029","942-UM","2017/08/26 19:49:39","新北市三重區重安街16號","121.490606666667","25.0584183333333","6500200","三重區"
"241033","AAC-255","2017/08/26 19:49:43","新北市三重區中興南街66號","121.470616666667","25.04398","6500200","三重區"
"235066","003-UY","2017/08/26 19:49:36","新北市中和區中和路194號","121.505108333333","24.9996983333333","6500300","中和區"
"235063","006-UY","2017/08/26 19:49:26","新北市中和區連城路263巷16號","121.492565","24.9948516666667","6500300","中和區"
"235064","031-BX","2017/08/26 19:49:35","新北市中和區南山路127巷30弄1號","121.50387","24.997525","6500300","中和區"
"235056","096-UM","2017/08/26 19:49:32","新北市中和區中山路三段114巷46號","121.475818333333","25.0073","6500300","中和區"
"235039","097-UM","2017/08/26 19:49:37","新北市中和區秀峰街119巷8弄9號","121.519045","24.9899033333333","6500300","中和區"
"235040","150-BY","2017/08/26 19:49:31","新北市中和區安平路38號","121.50972","24.994945","6500300","中和區"
"235058","151-BY","2017/08/26 19:49:36","新北市中和區員山路142巷26號","121.48249","24.9962983333333","6500300","中和區"
"235055","183-VK","2017/08/26 18:36:41","新北市中和區民生街10巷14弄2號","121.470935","25.0063116666667","6500300","中和區"
"235038","185-VK","2017/08/26 19:49:42","新北市中和區自立路139巷8號","121.522503333333","24.993765","6500300","中和區"
"235049","186-VK","2017/08/26 19:49:44","新北市中和區中正路12號","121.502918333333","24.993705","6500300","中和區"
"235067","255-BX","2017/08/26 19:49:33","新北市中和區新生街287號","121.483773333333","24.9974416666667","6500300","中和區"
"235044","293-VK","2017/08/26 19:49:38","新北市中和區興南路一段113號","121.509263333333","24.9880766666667","6500300","中和區"
"235072","301-VK","2017/08/26 19:49:26","新北市板橋區光復街172巷16-3號","121.486591666667","25.018485","6500300","中和區"
"235043","352-BY","2017/08/26 19:49:44","新北市中和區華新街232巷2號","121.50597","24.9818433333333","6500300","中和區"
"235051","376-QA","2017/08/26 19:49:33","新北市中和區中興街180巷52弄3號","121.498443333333","24.98829","6500300","中和區"
"235068","377-QA","2017/08/26 19:49:43","新北市中和區莊敬路16巷15弄8號","121.500455","25.0038033333333","6500300","中和區"
"235061","378-QA","2017/08/26 19:49:36","新北市中和區員山路202號","121.481266666667","25.0006566666667","6500300","中和區"
"235050","4979-A6","2017/08/26 19:49:37","新北市中和區景平路241巷64弄2號","121.507768333333","24.9924033333333","6500300","中和區"
"235069","4980-A6","2017/08/26 19:49:36","新北市中和區中正路472號","121.489833333333","24.99428","6500300","中和區"
"235042","551-UM","2017/08/26 19:49:47","新北市中和區保健路2巷24號","121.507206666667","24.9976633333333","6500300","中和區"
"235070","558-UM","2017/08/26 19:48:06","新北市中和區景平路519號","121.49906","24.9988233333333","6500300","中和區"
"235045","565-BX","2017/08/26 19:49:38","新北市中和區安樂路19號","121.511668333333","24.992225","6500300","中和區"
"235054","640-BX","2017/08/26 19:49:43","新北市中和區民德路103號","121.468878333333","25.0008966666667","6500300","中和區"
"235060","647-TV","2017/08/26 19:49:46","新北市中和區員山路390號","121.480665","25.004575","6500300","中和區"
"235047","732-UM","2017/08/26 19:49:43","新北市中和區捷運路57-1號","121.509101666667","24.989805","6500300","中和區"
"235046","733-UM","2017/08/26 19:49:39","新北市中和區四維街23巷7號","121.51318","24.986585","6500300","中和區"
"235057","801-TS","2017/08/26 19:49:42","新北市中和區員山路150-14號","121.481283333333","24.9977116666667","6500300","中和區"
"235041","802-TS","2017/08/26 19:49:37","新北市中和區中和路456號","121.51219","25.0037833333333","6500300","中和區"
"235052","805-TS","2017/08/26 19:49:30","新北市中和區華新街192巷31號","121.506295","24.9832083333333","6500300","中和區"
"235048","896-TW","2017/08/26 19:49:32","新北市中和區興南路二段19號","121.507958333333","24.9860583333333","6500300","中和區"
"235053","900-TW","2017/08/26 19:49:38","新北市中和區國光街142巷46號","121.467566666667","25.0021283333333","6500300","中和區"
"235064","911-UM","2017/08/26 19:49:29","新北市中和區中山路二段178巷21號","121.500845","25.0032683333333","6500300","中和區"
"235037","AAC-213","2017/08/26 19:49:41","新北市中和區秀朗路三段135巷2號","121.525168333333","24.99256","6500300","中和區"
"235059","AAC-215","2017/08/26 19:49:41","新北市中和區圓通路305巷16號","121.49421","24.98946","6500300","中和區"
"220068","013-TV","2017/08/26 19:49:31","新北市板橋區中山路二段光榮巷30弄15號","121.484481666667","25.0202933333333","6500100","板橋區"
"220065","072-UY","2017/08/26 19:49:32","新北市板橋區國泰街39巷2弄1號","121.468445","25.0062516666667","6500100","板橋區"
"220086","073-UY","2017/08/26 19:49:40","新北市板橋區中正路1巷4號","121.455703333333","25.0118983333333","6500100","板橋區"
"220106","075-UY","2017/08/26 19:49:42","新北市板橋區文化路二段620號","121.478378333333","25.0356716666667","6500100","板橋區"
"220069","AAD-861","2017/08/26 19:49:35","新北市板橋區南雅南路二段1-1號","121.45473","25.0037766666667","6500100","板橋區"
"220102","120-SR","2017/08/26 19:49:37","新北市板橋區文化路二段410巷1弄1號","121.474313333333","25.0311716666667","6500100","板橋區"
"247008","339-TH","2017/08/26 19:49:39","新北市蘆洲區信義路119巷5號","121.478385","25.0804316666667","6501400","蘆洲區"
"247002","336-TH","2017/08/26 19:49:34","新北市蘆洲區永平街27號","121.458596666667","25.090765","6501400","蘆洲區"
"247014","057-VK","2017/08/26 19:49:27","新北市蘆洲區保和街69巷33號","121.469755","25.0851216666667","6501400","蘆洲區"
"247004","056-VK","2017/08/26 19:49:42","新北市蘆洲區長安街225號","121.459331666667","25.0824266666667","6501400","蘆洲區"
"247006","053-VK","2017/08/26 19:49:30","新北市蘆洲區永安南路二段32號","121.467078333333","25.0771566666667","6501400","蘆洲區"
"247016","001-UY","2017/08/26 19:49:38","新北市蘆洲區三民路378號","121.464183333333","25.0915483333333","6501400","蘆洲區"
"226004","312-R5","2017/08/26 19:49:39","新北市平溪區南山里南山坪21號","121.772846666667","25.0373933333333","6502400","平溪區"
"228003","097-TW","2017/08/26 19:49:37","新北市貢寮區真理里美艷山街3-1號","121.925725","25.0596066666667","6502600","貢寮區"
"228001","212-TW","2017/08/26 19:49:36","新北市貢寮區真理里新港街58號","121.926176666667","25.05657","6502600","貢寮區"
"227002","642-TC","2017/08/26 19:49:31","新北市雙溪區雙溪里內挖路73號","121.863305","25.0368683333333","6502500","雙溪區"
"227010","400-TW","2017/08/26 19:49:43","新北市雙溪區新基里中華路123號","121.866116666667","25.0393333333333","6502500","雙溪區"
"208002","742-BX","2017/08/26 19:49:26","新北市金山區八德街2號","121.635268333333","25.2237833333333","6502700","金山區"
"208003","665-BX","2017/08/26 19:49:35","新北市金山區清泉里清水路53號","121.629453333333","25.23566","6502700","金山區"
"208001","761-BX","2017/08/26 19:49:38","新北市金山區重和里茅埔頭7號","121.603855","25.216515","6502700","金山區"
"251009","008-UM","2017/08/26 19:49:45","新北市淡水區中正路38-1號","121.443706666667","25.16929","6501000","淡水區"
"251004","009-UM","2017/08/26 19:49:39","新北市淡水區民權路185巷17號","121.460498333333","25.1340016666667","6501000","淡水區"
"251005","010-UM","2017/08/26 19:49:32","新北市淡水區原德路16號","121.442226666667","25.17163","6501000","淡水區"
"251014","180-VK","2017/08/26 19:49:33","新北市淡水區番社前6號","121.475186666667","25.2357516666667","6501000","淡水區"
"251008","181-VK","2017/08/26 19:49:30","新北市淡水區中正路二段24巷2-1號","121.426761666667","25.1769966666667","6501000","淡水區"
"251012","441-VK","2017/08/26 19:49:32","新北市淡水區埤島6-10號","121.44611","25.1944083333333","6501000","淡水區"
"251016","442-VK","2017/08/26 19:49:39","新北市淡水區下圭柔山122號","121.455833333333","25.20893","6501000","淡水區"
"251001","559-UM","2017/08/26 19:49:43","新北市淡水區中正東路二段51-3號","121.459395","25.1557233333333","6501000","淡水區"
"251006","561-UM","2017/08/26 19:49:36","新北市淡水區水碓街15號","121.44348","25.176965","6501000","淡水區"
"251011","650-BX","2017/08/26 19:49:37","新北市淡水區淡金路二段147號","121.449721666667","25.1828716666667","6501000","淡水區"
"207003","550-UM","2017/08/26 19:49:40","新北市萬里區大鵬里萬里加投45-2號","121.64152","25.2102533333333","6502800","萬里區"
"207004","225-TW","2017/08/26 19:49:47","新北市萬里區萬里里瑪鋉路261號","121.689823333333","25.1798","6502800","萬里區"
"252002","178-VK","2017/08/26 19:49:50","新北市三芝區三民街37號","121.504845","25.258575","6502100","三芝區"
"252001","292-VK","2017/08/26 19:49:34","新北市三芝區長安街89號","121.499723333333","25.2574433333333","6502100","三芝區"
"237007","153-BY","2017/08/26 19:49:35","新北市三峽區二鬮路136巷2弄37號","121.359653333333","24.9091533333333","6500900","三峽區"
"237009","210-TH","2017/08/26 19:49:28","新北市三峽區清水街437號","121.36854","24.9254766666667","6500900","三峽區"
"237013","252-BX","2017/08/26 19:49:34","新北市三峽區溪北街60號","121.397268333333","24.9358416666667","6500900","三峽區"
"237012","275-BY","2017/08/26 19:49:38","新北市三峽區中華路30-2號","121.37323","24.9317716666667","6500900","三峽區"
"237008","302-VK","2017/08/26 19:49:37","新北市三峽區大同路154號","121.3731","24.9267633333333","6500900","三峽區"
"237006","5529-G3","2017/08/26 19:49:32","新北市三峽區中正路一段336巷15弄2號","121.369953333333","24.9249566666667","6500900","三峽區"
"237016","649-BX","2017/08/26 19:49:33","新北市三峽區橫溪路99巷5號","121.399581666667","24.93603","6500900","三峽區"
"237014","756-BX","2017/08/26 19:49:27","新北市三峽區添福11-3號","121.372418333333","24.9068633333333","6500900","三峽區"
"241031","760-BX","2017/08/26 19:26:48","新北市三峽區中山路459巷163-3號","121.349006666667","24.9331133333333","6500200","三重區"
"237005","AKY-6261","2017/08/26 19:49:35","新北市三峽區民生街111-1號","121.373828333333","24.935415","6500900","三峽區"
"236073","105-UM","2017/08/26 19:49:42","新北市土城區中央路二段186號","121.441813333333","24.9761383333333","6501300","土城區"
"236043","107-UM","2017/08/26 19:49:42","新北市土城區裕民路259號","121.454903333333","24.9828916666667","6501300","土城區"
"236079","166-UM","2017/08/26 19:49:42","新北市土城區溪頭路51號","121.41189","24.9548783333333","6501300","土城區"
"236031","253-BX","2017/08/26 19:49:35","新北市土城區中央路一段294號","121.443348333333","24.982385","6501300","土城區"
"236027","269-VK","2017/08/26 19:49:38","新北市土城區中央路二段61巷22號","121.44325","24.9788316666667","6501300","土城區"
"236038","271-VK","2017/08/26 19:49:28","新北市土城區國際路158巷54號","121.467978333333","24.97484","6501300","土城區"
"236023","401-BY","2017/08/26 19:49:34","新北市土城區峰廷街8號","121.468691666667","24.98778","6501300","土城區"
"236059","912-UM","2017/08/26 19:49:46","新北市土城區中央路二段2號","121.442998333333","24.9809","6501300","土城區"
"236049","913-UM","2017/08/26 19:49:33","新北市土城區青雲路145號","121.458683333333","24.984205","6501300","土城區"
"236063","915-UM","2017/08/26 19:49:26","新北市土城區延和路105巷5弄1號","121.467305","24.9911116666667","6501300","土城區"
"236055","AAC-216","2017/08/26 19:49:47","新北市土城區延和路42號","121.465123333333","24.9887416666667","6501300","土城區"
"242029","986-R7","2017/08/26 19:49:45","新北市新莊區中平路181號","121.444711666667","25.0489866666667","6500500","新莊區"
"242048","751-BX","2017/08/26 19:49:47","新北市新莊區建安街76巷3弄18號","121.42564","25.0248283333333","6500500","新莊區"
"242023","613-BX","2017/08/26 19:49:41","新北市新莊區化成路184號","121.465563333333","25.0458966666667","6500500","新莊區"
"242027","612-BX","2017/08/26 19:49:40","新北市新莊區立信五街3號","121.444421666667","25.05149","6500500","新莊區"
"242036","566-BX","2017/08/26 19:49:43","新北市新莊區建安街85號","121.427226666667","25.0246416666667","6500500","新莊區"
"242042","497-BY","2017/08/26 19:49:41","新北市新莊區新北大道七段510號","121.41235","25.029175","6500500","新莊區"
"242031","415-TV","2017/08/26 19:49:49","新北市新莊區忠孝街57-1號","121.443955","25.0371866666667","6500500","新莊區"
"242002","413-TV","2017/08/26 19:49:44","新北市新莊區武前街29號","121.450286666667","25.0325616666667","6500500","新莊區"
"242061","362-BY","2017/08/26 19:49:31","新北市新莊區中環路一段10號","121.442728333333","25.0257933333333","6500500","新莊區"
"242058","353-BY","2017/08/26 19:49:39","新北市新莊區八德街45號","121.424886666667","25.02224","6500500","新莊區"
"242004","132-UY","2017/08/26 19:49:29","新北市新莊區化成路63巷26弄15號","121.462926666667","25.0459816666667","6500500","新莊區"
"242034","133-UY","2017/08/26 19:49:43","新北市新莊區建中街90巷7弄17號","121.445686666667","25.03747","6500500","新莊區"
"242019","135-UY","2017/08/26 19:49:33","新北市新莊區明智街19號","121.454175","25.0413533333333","6500500","新莊區"
"242007","173-VK","2017/08/26 19:49:29","新北市新莊區福壽街336號","121.457723333333","25.0585933333333","6500500","新莊區"
"242013","175-VK","2017/08/26 19:49:44","新北市新莊區中泰街38巷9號","121.45067","25.0473183333333","6500500","新莊區"
"242056","176-VK","2017/08/26 19:49:30","新北市新莊區新泰路89號","121.44888","25.0345083333333","6500500","新莊區"
"242017","348-TH","2017/08/26 19:49:40","新北市新莊區中港路289號","121.452838333333","25.04408","6500500","新莊區"
"242015","350-TH","2017/08/26 19:49:37","新北市新莊區中港一街161號","121.447213333333","25.0449316666667","6500500","新莊區"
"242009","351-TH","2017/08/26 19:49:31","新北市新莊區昌盛街4號","121.453015","25.0500066666667","6500500","新莊區"
"238015","755-BX","2017/08/26 19:49:46","新北市樹林區中山路一段135-4號","121.42245","24.9897516666667","6500700","樹林區"
"238023","601-UM","2017/08/26 19:49:47","新北市樹林區三福街121巷17號","121.406123333333","25.0153916666667","6500700","樹林區"
"238018","571-TV","2017/08/26 19:49:33","新北市樹林區八德街828-7號","121.392886666667","24.9686516666667","6500700","樹林區"
"238022","312-TH","2017/08/26 19:49:35","新北市樹林區名園街51巷6弄19號","121.421115","24.9784533333333","6500700","樹林區"
"238021","311-TH","2017/08/26 19:49:35","新北市樹林區佳園路三段181巷55號","121.388393333333","24.946935","6500700","樹林區"
"238025","303-VK","2017/08/26 19:49:31","新北市樹林區中山路二段168號","121.41228","24.982605","6500700","樹林區"
"238017","283-BY","2017/08/26 19:49:26","新北市樹林區保安街二段45巷29-6號","121.413563333333","25.0002483333333","6500700","樹林區"
"238014","282-BY","2017/08/26 19:49:45","新北市樹林區千歲街70巷6弄6號","121.426763333333","24.9968266666667","6500700","樹林區"
"238020","268-VK","2017/08/26 01:49:00","新北市樹林區中山路三段204號","121.386711666667","24.9681666666667","6500700","樹林區"
"239006","891-R6","2017/08/26 19:49:37","新北市鶯歌區中正一路478號","121.36641","24.9568116666667","6500800","鶯歌區"
"221008","489-VK","2017/08/26 19:49:40","新北市汐止區康寧街65號","121.618653333333","25.0668183333333","6501100","汐止區"
"221036","130-UY","2017/08/26 19:49:44","新北市汐止區大同路二段342號","121.656691666667","25.0670466666667","6501100","汐止區"
"221015","131-UY","2017/08/26 19:49:33","新北市汐止區大同路二段533號","121.66189","25.0690533333333","6501100","汐止區"
"221010","269-BY","2017/08/26 19:49:37","新北市汐止區汐萬路一段333巷1號","121.649953333333","25.0762066666667","6501100","汐止區"
"221012","276-VK","2017/08/26 13:27:28","新北市汐止區汐萬路一段256巷3號","121.653363333333","25.0745883333333","6501100","汐止區"
"221031","277-VK","2017/08/26 19:49:37","新北市汐止區福德三路127號","121.633645","25.0676083333333","6501100","汐止區"
"221012","278-VK","2017/08/26 19:49:35","新北市汐止區大同路三段579號","121.682801666667","25.0733716666667","6501100","汐止區"
"221023","279-VK","2017/08/26 19:49:38","新北市汐止區明峰街179-1號","121.628695","25.0700516666667","6501100","汐止區"
"221027","281-BY","2017/08/26 19:49:41","新北市汐止區忠孝東路9號","121.658403333333","25.0659983333333","6501100","汐止區"
"221038","297-VK","2017/08/26 19:49:49","新北市汐止區忠孝東路329號","121.665081666667","25.0697183333333","6501100","汐止區"
"221029","298-VK","2017/08/26 19:49:49","新北市汐止區康寧街901號","121.651531666667","25.07487","6501100","汐止區"
"221021","299-VK","2017/08/26 19:49:34","新北市汐止區莊敬街29巷1號","121.656911666667","25.0610816666667","6501100","汐止區"
"221035","622-UM","2017/08/26 19:49:49","新北市汐止區長江街13巷3號","121.654733333333","25.0714033333333","6501100","汐止區"
"221025","623-UM","2017/08/26 19:49:38","新北市汐止區福安街20巷1號","121.66258","25.0650233333333","6501100","汐止區"
"221033","647-BX","2017/08/26 19:49:42","新北市汐止區東勢街76巷101號","121.63706","25.0390283333333","6501100","汐止區"
"221018","753-BX","2017/08/26 19:49:41","新北市汐止區大同路二段535號","121.661898333333","25.0690866666667","6501100","汐止區"
"220079","145-BY","2017/08/26 19:49:47","新北市板橋區中正路135巷12弄1號","121.455731666667","25.01554","6500100","板橋區"
"220080","200-UY","2017/08/26 19:49:41","新北市板橋區大觀路二段37巷57號","121.449415","25.0026533333333","6500100","板橋區"
"220082","610-BX","2017/08/26 19:49:35","新北市板橋區溪北路91號","121.428566666667","24.9893483333333","6500100","板橋區"
"220101","245-BX","2017/08/26 19:49:40","新北市板橋區縣民大道三段95號","121.475858333333","25.022015","6500100","板橋區"
"220075","256-TC","2017/08/26 19:49:46","新北市板橋區金華街3號","121.45553","25.0200933333333","6500100","板橋區"
"220056","276-BY","2017/08/26 19:49:38","新北市板橋區四川路二段99巷2弄2號","121.452648333333","24.9944783333333","6500100","板橋區"
"220072","277-BY","2017/08/26 19:49:30","新北市板橋區金門街215巷109號","121.433441666667","24.98801","6500100","板橋區"
"220094","283-UM","2017/08/26 19:49:47","新北市板橋區長江路一段107號","121.459593333333","25.0296666666667","6500100","板橋區"
"220071","283-VK","2017/08/26 19:49:42","新北市板橋區信義路279巷11號","121.46206","24.9894716666667","6500100","板橋區"
"220053","285-VK","2017/08/26 19:49:34","新北市板橋區民享街23號","121.475303333333","25.0146333333333","6500100","板橋區"
"220081","287-VK","2017/08/26 19:49:42","新北市板橋區僑中一街80巷5弄1-1號","121.44786","25.0124683333333","6500100","板橋區"
"220090","288-VK","2017/08/26 19:49:39","新北市板橋區龍泉街54巷5號","121.456868333333","25.02663","6500100","板橋區"
"220061","293-UM","2017/08/26 19:49:30","新北市板橋區漢生東路113巷8號","121.467775","25.01533","6500100","板橋區"
"220062","295-UM","2017/08/26 19:49:41","新北市板橋區三民路二段81巷27弄31號","121.48133","25.0176983333333","6500100","板橋區"
"220084","296-UM","2017/08/26 19:49:35","新北市板橋區溪崑二街118巷1號","121.42569","24.9884666666667","6500100","板橋區"
"242001","281-VK","2017/08/26 16:53:26","新北市新莊區環河路636-7號","121.43738","25.01122","6500500","新莊區"
"220092","307-R5","2017/08/26 19:49:28","新北市板橋區四維路245號","121.463705","25.0275666666667","6500100","板橋區"
"220098","317-R6","2017/08/26 19:49:32","新北市板橋區裕民街130號","121.45877","25.027325","6500100","板橋區"
"220064","486-VK","2017/08/26 19:49:42","新北市板橋區館前東路112號","121.46342","25.0076383333333","6500100","板橋區"
"220089","487-VK","2017/08/26 19:49:36","新北市板橋區英士路192號","121.457976666667","25.0237","6500100","板橋區"
"220088","491-VK","2017/08/26 19:49:40","新北市板橋區仁化街64巷3號","121.476023333333","25.03168","6500100","板橋區"
"220035","560-BX","2017/08/26 19:49:29","新北市板橋區新生街75號","121.457863333333","25.0213016666667","6500100","板橋區"
"220103","561-BX","2017/08/26 19:49:40","新北市板橋區陽明街27巷12號","121.465451666667","25.0212716666667","6500100","板橋區"
"220063","609-BX","2017/08/26 19:49:45","新北市板橋區三民路一段140號","121.47922","25.0203016666667","6500100","板橋區"
"220083","630-UY","2017/08/26 19:49:30","新北市板橋區龍興街65巷34號","121.442906666667","25.00173","6500100","板橋區"
"220091","637-BX","2017/08/26 19:49:45","新北市板橋區懷德街127巷56號","121.48055","25.03183","6500100","板橋區"
"220057","686-BX","2017/08/26 19:49:40","新北市板橋區廣和街61號","121.462553333333","24.993115","6500100","板橋區"
"220077","687-BX","2017/08/26 19:49:43","新北市板橋區僑中一街102巷3弄15號","121.445973333333","25.012295","6500100","板橋區"
"220093","689-BX","2017/08/26 19:49:32","新北市板橋區吳鳳路90巷27號","121.468001666667","25.0321433333333","6500100","板橋區"
"220054","741-BX","2017/08/26 19:49:46","新北市板橋區忠孝路忠義巷15弄47號","121.46554","25.0047183333333","6500100","板橋區"
"220055","827-TW","2017/08/26 19:49:34","新北市板橋區國慶路149巷4弄18-3號","121.461981666667","24.9970166666667","6500100","板橋區"
"220067","829-TW","2017/08/26 19:49:40","新北市板橋區漢生東路193巷66號","121.47314","25.0119783333333","6500100","板橋區"
"220096","831-TW","2017/08/26 19:49:44","新北市板橋區民生路二段226巷19號","121.470708333333","25.0219333333333","6500100","板橋區"
"220074","895-R6","2017/08/26 19:49:41","新北市板橋區北門街25號","121.456555","25.01123","6500100","板橋區"
"220073","985-R7","2017/08/26 19:49:45","新北市板橋區國光路51號","121.458086666667","25.0180033333333","6500100","板橋區"
"220097","AAC-210","2017/08/26 19:49:30","新北市板橋區文化路一段285巷54號","121.463168333333","25.0198866666667","6500100","板橋區"
"220064","AAC-253","2017/08/26 19:49:43","新北市板橋區館前東路132號","121.464068333333","25.007825","6500100","板橋區"
