"lineid","car","time","location","longitude","latitude","cityid","cityname"
"231059","001-UM","2017/08/26 21:19:04","新北市新店區安華路28-1號","121.519743333333","24.9609016666667","6500600","新店區"
"231061","047-UY","2017/08/26 21:19:05","新北市新店區安和路三段77號","121.517823333333","24.983545","6500600","新店區"
"231051","107-UY","2017/08/26 21:18:51","新北市新店區中正路680巷33弄6號","121.534998333333","24.989425","6500600","新店區"
"231048","108-UY","2017/08/26 21:19:05","新北市新店區中正路331-1號","121.53605","24.9753283333333","6500600","新店區"
"231063","268-BY","2017/08/26 21:19:05","新北市新店區玫瑰路57巷36號","121.496938333333","24.9463316666667","6500600","新店區"
"231050","AAD-862","2017/08/26 21:18:49","新北市新店區中華路83巷4弄17號","121.538188333333","24.9686316666667","6500600","新店區"
"231065","512-UM","2017/08/26 21:18:55","新北市新店區安康路二段458號","121.494013333333","24.9541483333333","6500600","新店區"
"231054","513-UM","2017/08/26 21:19:06","新北市新店區大新街9巷28號","121.544271666667","24.966605","6500600","新店區"
"231040","619-UM","2017/08/26 21:19:00","新北市新店區光明街215號","121.540235","24.9638783333333","6500600","新店區"
"231044","897-TW","2017/08/26 21:19:03","新北市樹林區中山路三段204號","121.386933333333","24.968825","6500600","新店區"
"241011","013-R5","2017/08/26 21:19:09","新北市三重區龍濱路197號","121.501853333333","25.07145","6500200","三重區"
"241028","022-UY","2017/08/26 21:19:09","新北市三重區正義南路169號","121.498871666667","25.0575","6500200","三重區"
"241008","059-VK","2017/08/26 21:19:04","新北市三重區自強路一段62號","121.497266666667","25.0666733333333","6500200","三重區"
"241009","060-VK","2017/08/26 21:18:53","新北市三重區洛陽街43號","121.482113333333","25.0633583333333","6500200","三重區"
"241031","061-VK","2017/08/26 21:18:50","新北市三重區重新路五段408巷19號","121.475753333333","25.0455416666667","6500200","三重區"
"241017","063-VK","2017/08/26 21:19:01","新北市三重區中正北路25巷25弄3號","121.493271666667","25.06264","6500200","三重區"
"241024","065-VK","2017/08/26 21:19:07","新北市三重區中正北路145巷14號","121.484145","25.067765","6500200","三重區"
"241002","090-VK","2017/08/26 21:18:45","新北市三重區五華街19號","121.494956666667","25.0805083333333","6500200","三重區"
"241003","091-VK","2017/08/26 21:18:50","新北市三重區仁義街337-1號","121.495043333333","25.08475","6500200","三重區"
"241006","156-TC","2017/08/26 21:18:54","新北市三重區中正北路38號","121.487925","25.06373","6500200","三重區"
"241005","262-UM","2017/08/26 21:19:04","新北市三重區三信路11號","121.488166666667","25.0862","6500200","三重區"
"241030","265-UM","2017/08/26 21:18:54","新北市三重區五谷王北街82號","121.476283333333","25.052965","6500200","三重區"
"241016","266-UM","2017/08/26 21:18:57","新北市三重區自強路一段228號","121.493633333333","25.0668583333333","6500200","三重區"
"241022","267-UM","2017/08/26 21:18:55","新北市三重區新北大道一段7號","121.48966","25.0612766666667","6500200","三重區"
"241018","268-UM","2017/08/26 21:18:58","新北市三重區忠孝路一段101號","121.489535","25.0721966666667","6500200","三重區"
"241032","269-UM","2017/08/26 21:18:57","新北市三重區中興北街132-1號","121.468993333333","25.055795","6500200","三重區"
"241013","270-UM","2017/08/26 21:18:58","新北市三重區仁愛街83號","121.495851666667","25.0733333333333","6500200","三重區"
"241025","271-UM","2017/08/26 21:19:06","新北市三重區忠孝路三段40巷16弄10號","121.482358333333","25.0668466666667","6500200","三重區"
"241007","398-BY","2017/08/26 21:18:59","新北市三重區忠孝路一段183號","121.487228333333","25.0717233333333","6500200","三重區"
"241004","475-VK","2017/08/26 21:18:56","新北市三重區分子尾街85號","121.488853333333","25.0826583333333","6500200","三重區"
"241019","478-VK","2017/08/26 21:19:01","新北市三重區重陽路三段7-3號","121.489163333333","25.066705","6500200","三重區"
"241014","543-UM","2017/08/26 21:18:57","新北市三重區介壽路129號","121.500461666667","25.070555","6500200","三重區"
"241023","545-UM","2017/08/26 21:19:00","新北市三重區忠孝路三段40巷21號","121.482621666667","25.065905","6500200","三重區"
"241001","887-TS","2017/08/26 21:19:03","新北市三重區仁愛街353號","121.491968333333","25.0798783333333","6500200","三重區"
"241012","941-UM","2017/08/26 21:19:02","新北市三重區龍門路284號","121.502025","25.0741183333333","6500200","三重區"
"241033","AAC-255","2017/08/26 21:19:03","新北市三重區光復路二段102巷8-4號","121.471345","25.0580816666667","6500200","三重區"
"235026","800-TS","2017/08/26 20:22:46","新北市中和區員山路36巷16-3號","121.484796666667","24.991695","6500300","中和區"
"247020","893-R6","2017/08/26 21:19:04","新北市蘆洲區民族路422巷84號","121.473728333333","25.09377","6501400","蘆洲區"
"247010","546-UM","2017/08/26 21:18:59","新北市蘆洲區鷺江街16-1號","121.478903333333","25.0825066666667","6501400","蘆洲區"
"247018","500-BY","2017/08/26 21:19:03","新北市蘆洲區復興路105巷11號","121.47638","25.0883316666667","6501400","蘆洲區"
"247008","339-TH","2017/08/26 21:18:59","新北市蘆洲區民生街6號","121.475681666667","25.0790683333333","6501400","蘆洲區"
"247024","337-TH","2017/08/26 21:18:57","新北市蘆洲區光明路110號","121.46359","25.0881433333333","6501400","蘆洲區"
"247002","336-TH","2017/08/26 21:18:54","新北市蘆洲區永樂街38巷40號","121.458551666667","25.0901083333333","6501400","蘆洲區"
"247014","057-VK","2017/08/26 21:19:07","新北市蘆洲區保和街29號","121.470606666667","25.0865083333333","6501400","蘆洲區"
"247004","056-VK","2017/08/26 21:19:02","新北市蘆洲區永安南路二段322號","121.457063333333","25.0827966666667","6501400","蘆洲區"
"247006","053-VK","2017/08/26 21:18:50","新北市蘆洲區長安街25號","121.464001666667","25.07918","6501400","蘆洲區"
"247012","007-UY","2017/08/26 21:19:03","新北市蘆洲區民族路236巷29號","121.480215","25.088615","6501400","蘆洲區"
"247022","002-UY","2017/08/26 21:19:07","新北市蘆洲區三民路202號","121.469198333333","25.0889733333333","6501400","蘆洲區"
"247016","001-UY","2017/08/26 21:18:57","新北市蘆洲區中正路185巷54號","121.46698","25.0848483333333","6501400","蘆洲區"
"251009","008-UM","2017/08/26 21:19:05","新北市淡水區民族路33號","121.462288333333","25.13569","6501000","淡水區"
"251004","009-UM","2017/08/26 21:18:58","新北市淡水區民族路33號","121.462286666667","25.1357016666667","6501000","淡水區"
"251005","010-UM","2017/08/26 21:19:07","新北市淡水區仁愛街11號","121.4462","25.170485","6501000","淡水區"
"251014","180-VK","2017/08/26 21:18:52","新北市淡水區六塊厝3-2號","121.450506666667","25.2406116666667","6501000","淡水區"
"251008","181-VK","2017/08/26 21:19:10","新北市淡水區水源街二段242號","121.461338333333","25.1762366666667","6501000","淡水區"
"251010","413-VK","2017/08/26 21:19:00","新北市淡水區中正路一段156巷51號","121.421886666667","25.1809266666667","6501000","淡水區"
"251012","441-VK","2017/08/26 21:18:52","新北市淡水區石頭埔8號","121.452635","25.23454","6501000","淡水區"
"251016","442-VK","2017/08/26 21:18:59","新北市淡水區興仁路165號","121.451596666667","25.220075","6501000","淡水區"
"251001","559-UM","2017/08/26 21:19:03","新北市淡水區中山北路二段185號","121.44411","25.1851983333333","6501000","淡水區"
"251007","577-R6","2017/08/26 21:19:06","新北市淡水區水源街二段194號","121.456968333333","25.1761816666667","6501000","淡水區"
"251011","650-BX","2017/08/26 21:18:57","新北市淡水區新民街152巷6弄22號","121.438881666667","25.178755","6501000","淡水區"
"251002","672-BX","2017/08/26 21:19:00","新北市淡水區學府路172巷21號","121.448283333333","25.1748933333333","6501000","淡水區"
"251003","673-BX","2017/08/26 21:19:02","新北市淡水區新春街85巷27號","121.438485","25.18366","6501000","淡水區"
"241031","760-BX","2017/08/26 19:26:48","新北市三峽區中山路459巷163-3號","121.349006666667","24.9331133333333","6500200","三重區"
"242034","133-UY","2017/08/26 21:19:03","新北市八里區商港路88-1號","121.39353","25.14906","6500500","新莊區"
"221012","276-VK","2017/08/26 13:27:28","新北市汐止區汐萬路一段256巷3號","121.653363333333","25.0745883333333","6501100","汐止區"
"242001","281-VK","2017/08/26 16:53:26","新北市新莊區環河路636-7號","121.43738","25.01122","6500500","新莊區"
