"lineid","car","time","location","longitude","latitude","cityid","cityname"
"224011","AGQ-8101","2017/07/23 18:22:20","新北市瑞芳區明燈路一段35號","121.822381666667","25.1073383333333","6501200","瑞芳區"
"251013","179-VK","2017/07/23 18:39:19","新北市淡水區小坑子頭1號","121.480458333333","25.2090766666667","6501000","淡水區"
"251014","180-VK","2017/07/23 18:39:12","新北市淡水區崙頂12-8號","121.495566666667","25.21724","6501000","淡水區"
"251015","182-VK","2017/07/23 18:39:22","新北市淡水區興福寮66巷243號","121.486773333333","25.1620016666667","6501000","淡水區"
"251016","442-VK","2017/07/23 18:39:21","新北市淡水區下圭柔山76-12號","121.443531666667","25.20571","6501000","淡水區"
