"lineid","car","time","location","longitude","latitude","cityid","cityname"
"224011","AGQ-8101","2017/07/23 18:54:20","新北市瑞芳區金光路334號","121.848106666667","25.1093866666667","6501200","瑞芳區"
"251013","179-VK","2017/07/23 18:59:19","新北市淡水區小坑子頭9號","121.481291666667","25.2129183333333","6501000","淡水區"
"251014","180-VK","2017/07/23 18:59:12","新北市淡水區三角埔5號","121.49636","25.2229933333333","6501000","淡水區"
"251015","182-VK","2017/07/23 18:59:22","新北市淡水區糞箕湖129巷3號","121.488361666667","25.1724116666667","6501000","淡水區"
"251016","442-VK","2017/07/23 18:59:22","新北市淡水區淡金路三段329號","121.448921666667","25.2063033333333","6501000","淡水區"
