"lineid","car","time","location","longitude","latitude","cityid","cityname"
"224011","AGQ-8101","2017/07/23 19:49:20","新北市瑞芳區街頂巷5號","121.844571666667","25.1083133333333","6501200","瑞芳區"
"251013","179-VK","2017/07/23 19:49:24","新北市淡水區頂田寮2-1號","121.460211666667","25.2133216666667","6501000","淡水區"
"251014","180-VK","2017/07/23 19:49:32","新北市淡水區番社前1-3號","121.469228333333","25.2370233333333","6501000","淡水區"
"251015","182-VK","2017/07/23 19:49:22","新北市淡水區泉洲厝8號","121.485383333333","25.1888666666667","6501000","淡水區"
"251016","442-VK","2017/07/23 19:49:21","新北市淡水區下圭柔山122號","121.455705","25.2089333333333","6501000","淡水區"
