"lineid","car","time","location","longitude","latitude","cityid","cityname"
"234044","148-BY","2017/10/31 13:49:12","新北市永和區永利路212號","121.523356666667","25.0025233333333","6500400","永和區"
"234005","207-UY","2017/10/31 13:49:07","新北市永和區中和路419號","121.509266666667","25.0007116666667","6500400","永和區"
"234078","298-R6","2017/10/31 13:49:13","新北市永和區永利路81巷19號","121.52221","25.003825","6500400","永和區"
"234036","336-UY","2017/10/31 13:49:21","新北市永和區成功路二段76號","121.526498333333","24.999155","6500400","永和區"
"234062","337-UY","2017/10/31 13:49:14","新北市永和區中正路362號","121.517881666667","25.0008016666667","6500400","永和區"
"234084","338-UY","2017/10/31 13:49:09","新北市永和區永利路42號","121.518713333333","25.00548","6500400","永和區"
"234068","552-UM","2017/10/31 13:48:59","新北市永和區竹林路88號","121.519405","25.0126","6500400","永和區"
"234052","553-UM","2017/10/31 13:49:02","新北市永和區竹林路39巷28弄11號","121.519623333333","25.0144033333333","6500400","永和區"
"234015","745-BX","2017/10/31 13:48:54","新北市永和區文化路57號","121.514186666667","25.0150683333333","6500400","永和區"
"234028","746-BX","2017/10/31 13:49:21","新北市永和區民生路67巷37號","121.524726666667","24.9975133333333","6500400","永和區"
"234060","AAD-866","2017/10/31 13:49:18","新北市永和區得和路68號","121.516313333333","24.9999266666667","6500400","永和區"
"234040","862-TW","2017/10/31 13:49:02","新北市永和區中和路389巷7-1號","121.50809","25.0006433333333","6500400","永和區"
"234048","863-TW","2017/10/31 13:49:20","新北市永和區保安路136號","121.508541666667","25.01527","6500400","永和區"
"234010","9373-KE","2017/10/31 13:49:07","新北市中和區中山路二段2巷51號","121.50204","25.0075416666667","6500400","永和區"
"249005","172-UM","2017/10/31 13:49:08","新北市八里區下罟子30-35號","121.367648333333","25.1353333333333","6502300","八里區"
"248017","225-UY","2017/10/31 13:49:03","新北市五股區民義路二段22巷20號","121.423416666667","25.097715","6501500","五股區"
"234076","969-R7","2017/10/31 13:49:15","新北市永和區民治街54號","121.518561666667","24.997835","6500400","永和區"
"234072","AAC-211","2017/10/31 13:49:03","新北市永和區豫溪街189巷1號","121.522553333333","25.0103","6500400","永和區"
"234066","AAC-212","2017/10/31 13:49:22","新北市永和區永平路194號","121.510291666667","25.0094933333333","6500400","永和區"
"244002","657-BX","2017/10/31 13:48:57","新北市林口區源泉街10號","121.358806666667","25.0721733333333","6501700","林口區"
"231002","002-UM","2017/10/31 13:49:09","新北市新店區溪園路245-6號","121.525238333333","24.983175","6500600","新店區"
"231028","046-UY","2017/10/31 13:49:01","","121.517995","24.9807733333333","6500600","新店區"
"231030","047-UY","2017/10/31 13:49:05","新北市新店區安康路一段222號","121.523751666667","24.9636066666667","6500600","新店區"
"231029","106-UY","2017/10/31 13:49:15","新北市新店區安康路二段125-1號","121.51238","24.9609616666667","6500600","新店區"
"231012","108-UY","2017/10/31 13:49:13","新北市新店區中興路二段67巷1號","121.546485","24.970855","6500600","新店區"
"231015","KEA-2219","2017/10/31 13:49:13","新北市新店區竹林路99號","121.554515","24.9504566666667","6500600","新店區"
"231026","256-BX","2017/10/31 13:49:02","新北市新店區平等街48巷38號","121.534751666667","24.97344","6500600","新店區"
"231010","278-BY","2017/10/31 13:49:12","新北市新店區平等街48巷8號","121.535843333333","24.9731583333333","6500600","新店區"
"231023","AAD-862","2017/10/31 13:49:21","新北市新店區國校路51巷1號","121.538128333333","24.9545866666667","6500600","新店區"
"231027","3712-VJ","2017/10/31 13:49:02","新北市新店區北宜路一段97號","121.539183333333","24.9553583333333","6500600","新店區"
"231024","3713-VJ","2017/10/31 13:49:19","新北市新店區新生街22號","121.53979","24.96653","6500600","新店區"
"231025","4716-K9","2017/10/31 13:49:18","新北市新店區中央六街58號","121.527885","24.97589","6500600","新店區"
"231038","4715-K9","2017/10/31 13:49:21","新北市新店區安康路一段321巷5-1號","121.522053333333","24.9626333333333","6500600","新店區"
"231036","512-UM","2017/10/31 13:49:21","新北市新店區安祥路108巷33號","121.475176666667","24.9570916666667","6500600","新店區"
"231020","513-UM","2017/10/31 13:49:01","新北市新店區湖子內路1號","121.542376666667","24.9306266666667","6500600","新店區"
"231035","515-UM","2017/10/31 13:49:08","新北市新店區安忠路57巷9弄1號","121.513466666667","24.9583366666667","6500600","新店區"
"231006","617-UM","2017/10/31 13:49:04","新北市新店區北宜路一段256號","121.545645","24.9528083333333","6500600","新店區"
"231001","619-UM","2017/10/31 13:49:16","新北市新店區三民路42號","121.536131666667","24.9715116666667","6500600","新店區"
"231003","641-BX","2017/10/31 13:49:17","新北市新店區中興路一段115號","121.54139","24.9627816666667","6500600","新店區"
"231034","645-TV","2017/10/31 13:49:12","新北市新店區達觀路14巷3號","121.503288333333","24.94181","6500600","新店區"
"231013","719-UM","2017/10/31 13:49:05","新北市新店區北新路三段65巷6號","121.541143333333","24.9810666666667","6500600","新店區"
"231018","719-UY","2017/10/31 13:49:16","新北市新店區中正路382巷30號","121.535488333333","24.978025","6500600","新店區"
"231032","720-UM","2017/10/31 13:49:05","新北市新店區莒光路44巷21弄11-6號","121.518615","24.95225","6500600","新店區"
"231005","897-TW","2017/10/31 13:49:17","新北市新店區寶中路121-1號","121.549666666667","24.9794216666667","6500600","新店區"
"231004","899-TW","2017/10/31 13:48:59","新北市新店區寶橋路69-1號","121.545495","24.9751016666667","6500600","新店區"
"231037","AKT-0513","2017/10/31 13:48:53","新北市新店區安康路三段355巷1號","121.484416666667","24.950715","6500600","新店區"
"235030","003-UY","2017/10/31 13:49:10","新北市中和區水源路18巷3號","121.504026666667","25.0031416666667","6500300","中和區"
"235028","005-UY","2017/10/31 13:49:13","新北市中和區景平路587-1號","121.497365","25.0002566666667","6500300","中和區"
"235027","006-UY","2017/10/31 13:49:05","新北市中和區錦和路164號","121.489721666667","24.9957966666667","6500300","中和區"
"235020","096-UM","2017/10/31 13:49:18","新北市中和區立德街329號","121.481496666667","25.0104266666667","6500300","中和區"
"235003","097-UM","2017/10/31 13:49:17","新北市中和區大勇街25巷32號","121.516081666667","24.9935583333333","6500300","中和區"
"235029","098-UM","2017/10/31 13:49:07","新北市中和區勝利路35巷3弄10號","121.499561666667","25.0072183333333","6500300","中和區"
"235004","150-BY","2017/10/31 13:49:04","新北市中和區保健路69號","121.509885","24.9970983333333","6500300","中和區"
"235022","151-BY","2017/10/31 13:49:04","新北市中和區連城路563-1號","121.479496666667","24.9945866666667","6500300","中和區"
"235019","183-VK","2017/10/31 13:49:16","新北市中和區民德路25巷9號","121.46975","25.0031233333333","6500300","中和區"
"235002","185-VK","2017/10/31 13:49:09","新北市中和區自強路62巷12號","121.519545","24.9945466666667","6500300","中和區"
"235013","186-VK","2017/10/31 13:49:09","新北市中和區明義街28號","121.50411","24.9950966666667","6500300","中和區"
"235031","255-BX","2017/10/31 13:49:22","新北市中和區新生街220巷4號","121.482908333333","24.9985233333333","6500300","中和區"
"235008","293-VK","2017/10/31 13:49:15","新北市中和區復興路280巷3弄1號","121.502308333333","24.9908283333333","6500300","中和區"
"235036","301-VK","2017/10/31 13:49:08","新北市中和區中山路二段152-2號","121.501583333333","25.0031383333333","6500300","中和區"
"235007","352-BY","2017/10/31 13:49:03","新北市中和區成功路139號","121.525916666667","24.9902583333333","6500300","中和區"
"235032","377-QA","2017/10/31 13:47:30","新北市中和區中正路167巷17號","121.498523333333","24.9928083333333","6500300","中和區"
"235025","378-QA","2017/10/31 13:49:20","新北市中和區民享街49巷1號","121.474298333333","25.0028833333333","6500300","中和區"
"235035","269-TV","2017/10/31 13:49:14","新北市中和區立德街28號","121.489753333333","25.0067683333333","6500300","中和區"
"235014","4979-A6","2017/10/31 13:48:58","新北市中和區忠孝街58巷28號","121.512591666667","24.9826716666667","6500300","中和區"
"235033","4980-A6","2017/10/31 13:49:11","新北市中和區圓通路109巷1弄2號","121.49993","24.9963616666667","6500300","中和區"
"235006","551-UM","2017/10/31 13:49:15","新北市中和區秀朗路三段70巷16號","121.525806666667","24.9945816666667","6500300","中和區"
"235034","558-UM","2017/10/31 13:49:22","新北市中和區景平路598號","121.500873333333","24.9962616666667","6500300","中和區"
"235009","565-BX","2017/10/31 13:49:02","新北市中和區復興路22號","121.505395","24.9898933333333","6500300","中和區"
"235018","640-BX","2017/10/31 13:49:15","新北市中和區民享街68巷16號","121.473361666667","25.00178","6500300","中和區"
"235011","732-UM","2017/10/31 13:49:19","新北市中和區興南路二段34巷26弄1號","121.50533","24.986475","6500300","中和區"
"235010","733-UM","2017/10/31 13:49:03","新北市中和區仁愛街36巷28號","121.51107","24.986985","6500300","中和區"
"235026","800-TS","2017/10/31 13:49:15","新北市中和區中山路二段340巷36號","121.493371666667","25.0038266666667","6500300","中和區"
"235021","801-TS","2017/10/31 13:49:05","新北市中和區員山路327巷28號","121.480671666667","25.0015516666667","6500300","中和區"
"235005","802-TS","2017/10/31 13:49:15","新北市中和區永貞路229號","121.513251666667","25.0037366666667","6500300","中和區"
"235016","805-TS","2017/10/31 13:49:02","","121.49869","24.979435","6500300","中和區"
"235012","896-TW","2017/10/31 13:49:09","新北市中和區南山路479號","121.507921666667","24.98822","6500300","中和區"
"235017","900-TW","2017/10/31 13:49:06","新北市中和區華福街42巷4號","121.466358333333","24.99632","6500300","中和區"
"235030","911-UM","2017/10/31 13:49:09","新北市中和區中山路三段204號","121.471686666667","25.0066583333333","6500300","中和區"
"235001","157-BY","2017/10/31 13:49:01","新北市中和區華新街143巷106弄20號","121.505988333333","24.9789233333333","6500300","中和區"
"235001","AAC-213","2017/10/31 13:49:09","新北市中和區秀朗路三段175巷10號","121.525006666667","24.9913766666667","6500300","中和區"
"235023","AAC-215","2017/10/31 13:49:11","新北市中和區錦和路408號","121.49109","24.9898016666667","6500300","中和區"
"220016","013-TV","2017/10/31 13:49:08","新北市板橋區太和街6巷1號","121.473675","25.02023","6500100","板橋區"
"220013","072-UY","2017/10/31 13:49:10","新北市板橋區漢生東路153號","121.468383333333","25.0135533333333","6500100","板橋區"
"220034","073-UY","2017/10/31 13:49:02","新北市板橋區大智街71巷28弄2號","121.453078333333","25.0146333333333","6500100","板橋區"
"220105","075-UY","2017/10/31 00:30:28","新北市板橋區民生路二段161巷5號","121.470136666667","25.0196583333333","6500100","板橋區"
"220017","AAD-861","2017/10/31 13:49:15","新北市板橋區館前西路60號","121.458125","25.0069516666667","6500100","板橋區"
"247007","341-TH","2017/10/31 13:49:06","新北市蘆洲區重陽街95號","121.482531666667","25.0854216666667","6501400","蘆洲區"
"247009","339-TH","2017/10/31 13:48:59","新北市三重區環河北路三段526號","121.48896","25.0907483333333","6501400","蘆洲區"
"247003","336-TH","2017/10/31 13:49:14","新北市蘆洲區中原路5巷19號","121.461853333333","25.0830766666667","6501400","蘆洲區"
"247015","057-VK","2017/10/31 13:49:01","新北市蘆洲區中正路301號","121.466486666667","25.088375","6501400","蘆洲區"
"247005","056-VK","2017/10/31 13:49:03","新北市蘆洲區和平路77號","121.469256666667","25.0790833333333","6501400","蘆洲區"
"247017","001-UY","2017/10/31 13:49:03","新北市蘆洲區民族路408巷3號","121.474703333333","25.09183","6501400","蘆洲區"
"223004","437-BY","2017/10/31 10:52:56","新北市石碇區小粗坑(潭邊里)9-2號","121.678828333333","24.985775","6501900","石碇區"
"228005","097-TW","2017/10/31 13:49:18","新北市貢寮區美豐里土地公嶺10號","121.890663333333","25.0568716666667","6502600","貢寮區"
"228004","212-TW","2017/10/31 13:39:07","新北市貢寮區龍崗里嵩陽街17號","121.907761666667","25.009615","6502600","貢寮區"
"224009","285-BY","2017/10/31 10:04:35","新北市瑞芳區大寮路356-1號","121.784948333333","25.1031083333333","6501200","瑞芳區"
"208004","AAC-292","2017/10/31 13:49:10","新北市金山區重和里三重橋13號","121.592016666667","25.1900716666667","6502700","金山區"
"207002","749-BX","2017/10/31 13:49:12","新北市萬里區崁腳里崁腳路166號","121.64518","25.1560866666667","6502800","萬里區"
"207001","662-BX","2017/10/31 13:49:04","新北市萬里區磺潭里公館崙25號","121.632475","25.2126416666667","6502800","萬里區"
"252005","AAC-283","2017/10/31 13:49:09","新北市三芝區圓山里二坪頂78號","121.541961666667","25.2460633333333","6502100","三芝區"
"236065","105-UM","2017/10/31 13:49:15","新北市土城區和平路42號","121.445003333333","24.9708116666667","6501300","土城區"
"236075","166-UM","2017/10/31 13:49:12","新北市土城區中央路三段118號","121.435311666667","24.9661333333333","6501300","土城區"
"236029","253-BX","2017/10/31 13:49:16","新北市土城區城林路6巷80號","121.438521666667","24.9797916666667","6501300","土城區"
"236025","269-VK","2017/10/31 13:49:11","新北市土城區承天路67號","121.439521666667","24.963565","6501300","土城區"
"236013","270-VK","2017/10/31 13:49:17","新北市土城區城林路6巷80號","121.438343333333","24.9798083333333","6501300","土城區"
"236034","271-VK","2017/10/31 13:49:02","新北市土城區城林路6巷80號","121.438473333333","24.9797833333333","6501300","土城區"
"236017","401-BY","2017/10/31 13:49:08","新北市土城區城林路6巷80號","121.438531666667","24.979665","6501300","土城區"
"236006","498-BY","2017/10/31 13:49:19","新北市土城區學府路二段151-1號","121.44673","24.9791983333333","6501300","土城區"
"236057","912-UM","2017/10/31 13:49:18","新北市土城區中華路二段2號","121.439451666667","24.9795616666667","6501300","土城區"
"236045","913-UM","2017/10/31 13:49:04","新北市土城區城林路6巷80號","121.438368333333","24.9798516666667","6501300","土城區"
"236061","915-UM","2017/10/31 13:49:14","新北市土城區城林路6巷80號","121.438335","24.9798083333333","6501300","土城區"
"236054","AAC-216","2017/10/31 13:49:20","新北市土城區城林路6巷80號","121.438446666667","24.9799266666667","6501300","土城區"
"221012","276-VK","2017/10/31 13:23:45","新北市汐止區汐萬路一段256巷3號","121.653438333333","25.0746","6501100","汐止區"
"220027","145-BY","2017/10/31 13:49:05","新北市板橋區中正路48號","121.456486666667","25.014115","6500100","板橋區"
"220028","200-UY","2017/10/31 13:49:06","新北市板橋區大觀路二段265巷72弄1號","121.44248","24.9967716666667","6500100","板橋區"
"220030","610-BX","2017/10/31 13:49:17","新北市板橋區篤行路二段149號","121.429648333333","24.9881133333333","6500100","板橋區"
"220050","245-BX","2017/10/31 02:39:02","新北市板橋區民生路二段161巷1號","121.470086666667","25.019825","6500100","板橋區"
"220004","276-BY","2017/10/31 13:49:03","新北市板橋區四川路二段52號","121.45345","24.9953566666667","6500100","板橋區"
"220020","277-BY","2017/10/31 13:49:18","新北市板橋區金門街25巷2號","121.433698333333","24.9943833333333","6500100","板橋區"
"220043","283-UM","2017/10/31 13:49:14","新北市板橋區民生路二段161巷1號","121.470045","25.0199916666667","6500100","板橋區"
"220019","283-VK","2017/10/31 13:49:21","新北市板橋區忠孝路176巷5弄2號","121.464763333333","25.0020416666667","6500100","板橋區"
"220001","285-VK","2017/10/31 13:49:11","新北市板橋區民生路二段56-6號","121.470795","25.018675","6500100","板橋區"
"220031","286-VK","2017/10/31 13:49:09","新北市板橋區僑中二街98號","121.446126666667","25.0084633333333","6500100","板橋區"
"220029","287-VK","2017/10/31 13:49:11","新北市板橋區南雅西路二段179號","121.451908333333","25.0126633333333","6500100","板橋區"
"220039","288-VK","2017/10/31 13:49:08","新北市板橋區民生路二段120號","121.470486666667","25.0198333333333","6500100","板橋區"
"220009","293-UM","2017/10/31 13:49:16","新北市板橋區太和街6巷1號","121.473613333333","25.0201833333333","6500100","板橋區"
"220032","296-UM","2017/10/31 13:49:18","新北市板橋區大觀路二段150巷24號","121.441656666667","24.999565","6500100","板橋區"
"220023","297-UM","2017/10/31 13:49:17","新北市板橋區大觀路一段26號","121.45003","25.0085783333333","6500100","板橋區"
"220010","305-R5","2017/10/31 13:49:04","新北市板橋區中山路二段25號","121.472445","25.0152833333333","6500100","板橋區"
"220047","317-R6","2017/10/31 13:49:18","新北市板橋區民生路二段161巷9號","121.470191666667","25.0195666666667","6500100","板橋區"
"220012","486-VK","2017/10/31 13:49:18","新北市板橋區民生路二段89-4號","121.471063333333","25.018325","6500100","板橋區"
"220038","487-VK","2017/10/31 13:49:03","新北市板橋區民生路二段161巷1號","121.470186666667","25.0200816666667","6500100","板橋區"
"220037","491-VK","2017/10/31 13:49:10","新北市板橋區民生路二段171號","121.469871666667","25.0201816666667","6500100","板橋區"
"220104","560-BX","2017/10/31 13:49:04","新北市板橋區中正路275巷62弄4-3號","121.453","25.0180266666667","6500100","板橋區"
"220052","561-BX","2017/10/31 13:49:19","新北市板橋區民生路二段161巷1號","121.470165","25.02003","6500100","板橋區"
"220011","609-BX","2017/10/31 13:49:20","新北市板橋區民生路二段123號","121.470671666667","25.01861","6500100","板橋區"
"220040","637-BX","2017/10/31 13:49:06","新北市板橋區民生路二段188號","121.470055","25.0203016666667","6500100","板橋區"
"220005","686-BX","2017/10/31 13:49:03","新北市板橋區華東街330號","121.452903333333","25.00358","6500100","板橋區"
"220025","687-BX","2017/10/31 13:49:02","新北市板橋區篤行路二段107號","121.431638333333","24.991125","6500100","板橋區"
"220042","689-BX","2017/10/31 13:49:14","新北市板橋區民生路二段161巷1號","121.470036666667","25.0201416666667","6500100","板橋區"
"220002","741-BX","2017/10/31 13:49:11","新北市板橋區館前西路53號","121.457685","25.006595","6500100","板橋區"
"220003","827-TW","2017/10/31 13:49:16","新北市板橋區縣民大道一段193號","121.459265","25.0083016666667","6500100","板橋區"
"220014","829-TW","2017/10/31 13:49:05","新北市板橋區三民路二段正隆巷75號","121.475896666667","25.0129383333333","6500100","板橋區"
"220051","830-TW","2017/10/31 13:20:53","新北市板橋區民生路二段161巷5號","121.470278333333","25.01973","6500100","板橋區"
"220045","831-TW","2017/10/31 01:16:34","新北市板橋區民生路二段161巷9號","121.470258333333","25.019685","6500100","板橋區"
"220022","895-R6","2017/10/31 13:49:02","新北市板橋區府中路30號","121.459068333333","25.009455","6500100","板橋區"
"220021","985-R7","2017/10/31 13:49:02","新北市板橋區館前西路109號","121.456881666667","25.0073483333333","6500100","板橋區"
"220046","AAC-210","2017/10/31 13:49:18","新北市板橋區民生路二段161巷3號","121.470211666667","25.0198216666667","6500100","板橋區"
"220018","AAC-253","2017/10/31 13:49:16","新北市板橋區貴興路5號","121.457731666667","25.0045033333333","6500100","板橋區"
