"lineid","car","time","location","longitude","latitude","cityid","cityname"
"234044","148-BY","2017/10/31 14:19:12","新北市永和區林森路99號","121.523471666667","25.003685","6500400","永和區"
"234005","207-UY","2017/10/31 14:19:07","新北市永和區安樂路166號","121.51452","25.000925","6500400","永和區"
"234078","298-R6","2017/10/31 14:19:13","新北市永和區國中路148號","121.522961666667","25.0070166666667","6500400","永和區"
"234036","336-UY","2017/10/31 14:19:01","新北市永和區成功路一段26號","121.5271","25.00482","6500400","永和區"
"234062","337-UY","2017/10/31 14:19:17","新北市永和區得和路211號","121.519185","25.0001816666667","6500400","永和區"
"234084","338-UY","2017/10/31 14:19:05","新北市永和區永和路二段61號","121.514706666667","25.0111866666667","6500400","永和區"
"234068","552-UM","2017/10/31 14:19:19","新北市永和區福和路263巷7弄1號","121.51786","25.0070633333333","6500400","永和區"
"234052","553-UM","2017/10/31 14:19:15","新北市永和區光復街2巷26弄1號","121.517625","25.01655","6500400","永和區"
"234028","746-BX","2017/10/31 14:19:01","新北市永和區民權路51號","121.519985","24.9970066666667","6500400","永和區"
"234060","AAD-866","2017/10/31 14:19:17","新北市永和區秀安街5號","121.515306666667","25.002715","6500400","永和區"
"234040","862-TW","2017/10/31 14:19:02","新北市中和區中安街196號","121.511513333333","24.9992516666667","6500400","永和區"
"234048","863-TW","2017/10/31 14:19:20","新北市永和區文化路230號","121.509816666667","25.016955","6500400","永和區"
"234025","9371-KE","2017/10/31 14:19:18","新北市永和區安樂路144巷25號","121.515031666667","24.9998933333333","6500400","永和區"
"249005","172-UM","2017/10/31 14:07:07","新北市八里區挖子尾街10號","121.415441666667","25.1642666666667","6502300","八里區"
"248017","225-UY","2017/10/31 14:17:43","新北市五股區壟路16號","121.415173333333","25.085495","6501500","五股區"
"234022","9380-KE","2017/10/31 14:19:12","新北市永和區竹林路25巷9弄2號","121.51762","25.0149433333333","6500400","永和區"
"234076","969-R7","2017/10/31 14:19:15","新北市永和區民族街81巷58號","121.520016666667","24.9964466666667","6500400","永和區"
"234072","AAC-211","2017/10/31 14:19:03","新北市永和區福和路82-1號","121.522753333333","25.00807","6500400","永和區"
"234066","AAC-212","2017/10/31 14:19:22","新北市永和區保平路268巷51弄4號","121.506965","25.0062283333333","6500400","永和區"
"244002","657-BX","2017/10/31 14:19:17","新北市林口區竹林路266號","121.389711666667","25.0807433333333","6501700","林口區"
"231002","002-UM","2017/10/31 14:19:09","新北市新店區中央路155號","121.529733333333","24.9728316666667","6500600","新店區"
"231028","046-UY","2017/10/31 14:19:02","新北市新店區安和路一段15號","121.516926666667","24.9643483333333","6500600","新店區"
"231030","047-UY","2017/10/31 14:19:05","新北市新店區安民街14號","121.515346666667","24.9645116666667","6500600","新店區"
"231029","106-UY","2017/10/31 14:19:15","新北市新店區安康路二段161號","121.510136666667","24.9594416666667","6500600","新店區"
"231012","108-UY","2017/10/31 14:19:13","新北市新店區五峰路57-1號","121.54718","24.970675","6500600","新店區"
"231015","KEA-2219","2017/10/31 14:19:13","新北市新店區中生路165號","121.573981666667","24.9487933333333","6500600","新店區"
"231023","AAD-862","2017/10/31 14:19:01","新北市新店區光明街29號","121.538516666667","24.95966","6500600","新店區"
"231027","3712-VJ","2017/10/31 14:19:03","新北市新店區光明街286巷11號","121.540611666667","24.9643483333333","6500600","新店區"
"231025","4716-K9","2017/10/31 14:19:17","新北市新店區二十張路105巷15-1號","121.536986666667","24.979265","6500600","新店區"
"231038","4715-K9","2017/10/31 14:19:21","新北市新店區溪洲路6巷88號","121.533165","24.9637766666667","6500600","新店區"
"231036","512-UM","2017/10/31 14:19:21","新北市新店區安祥路109巷121號","121.476436666667","24.9579883333333","6500600","新店區"
"231020","513-UM","2017/10/31 14:19:01","新北市新店區桂山路51巷6-1號","121.56214","24.90161","6500600","新店區"
"231035","515-UM","2017/10/31 14:19:08","新北市新店區碧安街6巷4號","121.517163333333","24.96773","6500600","新店區"
"231006","617-UM","2017/10/31 14:19:04","新北市新店區北宜路二段599號","121.568138333333","24.95567","6500600","新店區"
"231001","619-UM","2017/10/31 14:19:15","新北市新店區北新路一段90號","121.541883333333","24.96865","6500600","新店區"
"231003","641-BX","2017/10/31 14:19:17","新北市新店區中興路一段222號","121.543965","24.9659283333333","6500600","新店區"
"231034","645-TV","2017/10/31 14:19:11","新北市新店區黎明路3號","121.503496666667","24.9524883333333","6500600","新店區"
"231013","719-UM","2017/10/31 14:19:05","新北市新店區建國路150號","121.538806666667","24.97918","6500600","新店區"
"231018","719-UY","2017/10/31 14:19:16","新北市新店區中央四街7號","121.529731666667","24.9739366666667","6500600","新店區"
"231032","720-UM","2017/10/31 14:19:05","新北市新店區碧潭路33號","121.533621666667","24.9552533333333","6500600","新店區"
"231005","897-TW","2017/10/31 14:19:17","新北市新店區中興路三段216號","121.543545","24.982475","6500600","新店區"
"231004","899-TW","2017/10/31 14:19:18","新北市新店區中正路147號","121.541426666667","24.9717316666667","6500600","新店區"
"231037","AKT-0513","2017/10/31 14:19:13","新北市新店區車子路30號","121.504251666667","24.95218","6500600","新店區"
"235030","003-UY","2017/10/31 14:19:10","新北市中和區中和路132號","121.503723333333","24.9993616666667","6500300","中和區"
"235028","005-UY","2017/10/31 14:19:13","新北市中和區連城路2號","121.499256666667","25.0025533333333","6500300","中和區"
"235027","006-UY","2017/10/31 14:19:05","新北市中和區連勝街149號","121.494435","24.9963333333333","6500300","中和區"
"235020","096-UM","2017/10/31 14:19:18","新北市中和區員山路460號","121.479955","25.0062916666667","6500300","中和區"
"235003","097-UM","2017/10/31 14:19:17","新北市中和區秀峰街103巷8弄2號","121.520148333333","24.9895166666667","6500300","中和區"
"235029","098-UM","2017/10/31 14:19:07","新北市中和區莊敬路49巷14號","121.501568333333","25.00587","6500300","中和區"
"235004","150-BY","2017/10/31 14:19:04","新北市中和區安平路68-1號","121.510653333333","24.9961966666667","6500300","中和區"
"235022","151-BY","2017/10/31 14:19:04","新北市中和區中正路637巷60弄61號","121.485461666667","24.9933083333333","6500300","中和區"
"235019","183-VK","2017/10/31 14:19:16","新北市中和區中山路三段193號","121.472343333333","25.0062016666667","6500300","中和區"
"235002","185-VK","2017/10/31 14:19:09","新北市中和區大仁街20巷27號","121.518643333333","24.9932933333333","6500300","中和區"
"235013","186-VK","2017/10/31 14:19:09","新北市中和區景新街228-6號","121.508135","24.9941916666667","6500300","中和區"
"235031","255-BX","2017/10/31 14:19:22","新北市中和區新生街191號","121.48373","25.0002333333333","6500300","中和區"
"235008","293-VK","2017/10/31 14:19:08","新北市中和區中興街214號","121.499483333333","24.9899816666667","6500300","中和區"
"235036","301-VK","2017/10/31 14:19:08","新北市中和區中山路二段2巷13弄37號","121.502316666667","25.0062066666667","6500300","中和區"
"235007","352-BY","2017/10/31 14:19:03","新北市中和區景平路300號","121.512736666667","24.9928383333333","6500300","中和區"
"235032","377-QA","2017/10/31 14:16:30","新北市中和區景平路634-9號","121.498716666667","24.9994616666667","6500300","中和區"
"235025","378-QA","2017/10/31 14:19:20","新北市中和區員山路145號","121.48091","24.9962533333333","6500300","中和區"
"235035","269-TV","2017/10/31 14:19:02","新北市中和區連城路517號","121.482153333333","24.99535","6500300","中和區"
"235014","4979-A6","2017/10/31 14:18:58","新北市中和區中正路149號","121.499128333333","24.9932533333333","6500300","中和區"
"235033","4980-A6","2017/10/31 14:19:11","新北市中和區連城路134巷18-1號","121.495243333333","25.0001916666667","6500300","中和區"
"235006","551-UM","2017/10/31 14:19:15","新北市中和區安樂路189-1號","121.51477","24.9982433333333","6500300","中和區"
"235034","558-UM","2017/10/31 14:19:02","新北市中和區連城路67號","121.497571666667","25.00142","6500300","中和區"
"235009","565-BX","2017/10/31 14:19:06","新北市中和區景新街437巷29號","121.514568333333","24.9894916666667","6500300","中和區"
"235018","640-BX","2017/10/31 14:19:15","新北市中和區民德路136號","121.468715","25.000625","6500300","中和區"
"235011","732-UM","2017/10/31 14:19:17","新北市中和區景平路239巷36號","121.508336666667","24.99219","6500300","中和區"
"235010","733-UM","2017/10/31 14:19:03","新北市中和區忠孝街2巷9弄2號","121.510405","24.982095","6500300","中和區"
"235026","800-TS","2017/10/31 14:19:15","新北市中和區中山路二段488-1號","121.487483333333","25.0048683333333","6500300","中和區"
"235021","801-TS","2017/10/31 14:19:05","新北市中和區民利街51號","121.47945","24.9987283333333","6500300","中和區"
"235005","802-TS","2017/10/31 14:19:15","新北市中和區宜安路176號","121.508671666667","24.9991883333333","6500300","中和區"
"235016","805-TS","2017/10/31 14:19:22","新北市中和區興南路二段142巷8號","121.503551666667","24.98352","6500300","中和區"
"235012","896-TW","2017/10/31 14:19:09","新北市中和區華新街109巷1-2號","121.509098333333","24.9823583333333","6500300","中和區"
"235017","900-TW","2017/10/31 14:19:06","新北市中和區華安街17巷17號","121.467051666667","24.9982766666667","6500300","中和區"
"235030","911-UM","2017/10/31 14:19:09","新北市中和區員山路314巷12號","121.482178333333","25.0026233333333","6500300","中和區"
"235001","157-BY","2017/10/31 14:19:20","新北市中和區興南路一段20-3號","121.511041666667","24.9911183333333","6500300","中和區"
"235001","AAC-213","2017/10/31 14:19:09","新北市中和區秀朗路三段10巷37弄4號","121.524055","24.99589","6500300","中和區"
"235023","AAC-215","2017/10/31 14:19:11","新北市中和區圓通路252巷18弄1號","121.492308333333","24.9924783333333","6500300","中和區"
"220016","013-TV","2017/10/31 14:19:08","新北市板橋區翠華街10巷1號","121.482728333333","25.0250016666667","6500100","板橋區"
"220013","072-UY","2017/10/31 14:19:10","新北市板橋區民族路129巷1號","121.467443333333","25.0081316666667","6500100","板橋區"
"220034","073-UY","2017/10/31 14:19:02","新北市板橋區中正路216巷115號","121.459478333333","25.0193566666667","6500100","板橋區"
"220105","075-UY","2017/10/31 14:19:06","新北市板橋區雙十路三段66巷1號","121.470578333333","25.031965","6500100","板橋區"
"220017","AAD-861","2017/10/31 14:19:15","新北市板橋區華興街21巷18號","121.45867","25.0036883333333","6500100","板橋區"
"247021","893-R6","2017/10/31 14:19:17","新北市蘆洲區仁愛街212巷15-59號","121.464438333333","25.094","6501400","蘆洲區"
"247011","546-UM","2017/10/31 14:19:10","新北市蘆洲區民權路36號","121.476221666667","25.086335","6501400","蘆洲區"
"247019","500-BY","2017/10/31 14:19:06","新北市蘆洲區仁愛街41號","121.472055","25.0931533333333","6501400","蘆洲區"
"247007","341-TH","2017/10/31 14:19:06","新北市蘆洲區中山一路234號","121.472785","25.0802816666667","6501400","蘆洲區"
"247009","339-TH","2017/10/31 14:19:19","新北市蘆洲區鷺江街69號","121.477185","25.082855","6501400","蘆洲區"
"247001","337-TH","2017/10/31 14:19:15","新北市蘆洲區永樂街90號","121.456693333333","25.08863","6501400","蘆洲區"
"247003","336-TH","2017/10/31 14:19:19","新北市蘆洲區中原路85號","121.45797","25.0817233333333","6501400","蘆洲區"
"247015","057-VK","2017/10/31 14:19:01","新北市蘆洲區中正路185巷31弄18號","121.466591666667","25.0837516666667","6501400","蘆洲區"
"247005","056-VK","2017/10/31 14:19:04","新北市蘆洲區長安街16號","121.464081666667","25.079205","6501400","蘆洲區"
"247013","007-UY","2017/10/31 14:19:02","新北市蘆洲區中山一路186號","121.47384","25.0810316666667","6501400","蘆洲區"
"247023","002-UY","2017/10/31 14:19:13","新北市蘆洲區長榮路709號","121.461066666667","25.0929366666667","6501400","蘆洲區"
"247017","001-UY","2017/10/31 14:19:03","新北市蘆洲區民權路146號","121.472765","25.0892566666667","6501400","蘆洲區"
"223004","437-BY","2017/10/31 10:52:56","新北市石碇區小粗坑(潭邊里)9-2號","121.678828333333","24.985775","6501900","石碇區"
"228005","097-TW","2017/10/31 14:19:20","新北市貢寮區美豐里雞母嶺街67號","121.896626666667","25.064375","6502600","貢寮區"
"228004","212-TW","2017/10/31 14:19:07","新北市貢寮區雙玉里田寮洋街39號","121.924866666667","25.0138983333333","6502600","貢寮區"
"224009","285-BY","2017/10/31 10:04:35","新北市瑞芳區大寮路356-1號","121.784948333333","25.1031083333333","6501200","瑞芳區"
"208004","AAC-292","2017/10/31 14:19:16","新北市金山區六股里頂六股6-8號","121.611098333333","25.2207383333333","6502700","金山區"
"207002","749-BX","2017/10/31 14:19:11","新北市萬里區溪底里瑞泉路4-1號","121.608761666667","25.1465783333333","6502800","萬里區"
"207001","662-BX","2017/10/31 14:19:04","新北市萬里區磺潭里清水18號","121.63781","25.19773","6502800","萬里區"
"252005","AAC-283","2017/10/31 14:19:09","新北市三芝區橫山里大坑98-2號","121.5261","25.2605983333333","6502100","三芝區"
"236065","105-UM","2017/10/31 14:19:15","新北市土城區明德路一段174號","121.462601666667","24.978325","6501300","土城區"
"236041","107-UM","2017/10/31 14:19:18","新北市土城區裕生路21巷1弄2號","121.448771666667","24.9872083333333","6501300","土城區"
"236075","166-UM","2017/10/31 14:19:12","新北市土城區中央路三段281巷15弄2號","121.425996666667","24.9626666666667","6501300","土城區"
"236029","253-BX","2017/10/31 14:19:16","新北市土城區順風路30號","121.440115","24.9771316666667","6501300","土城區"
"236025","269-VK","2017/10/31 14:19:11","新北市土城區承天路18號","121.439471666667","24.96333","6501300","土城區"
"236013","270-VK","2017/10/31 14:19:17","新北市土城區青雲路39巷7號","121.460406666667","24.9876183333333","6501300","土城區"
"236034","271-VK","2017/10/31 14:19:09","新北市土城區青雲路451巷8弄2號","121.459546666667","24.97444","6501300","土城區"
"236017","401-BY","2017/10/31 14:19:08","新北市土城區清水路36號","121.455311666667","24.98094","6501300","土城區"
"236006","498-BY","2017/10/31 14:19:19","新北市土城區中華路一段85號","121.444841666667","24.9876633333333","6501300","土城區"
"236057","912-UM","2017/10/31 14:19:18","新北市土城區中央路四段276號","121.414501666667","24.956605","6501300","土城區"
"236045","913-UM","2017/10/31 14:19:09","新北市土城區明德路一段369號","121.45605","24.9778333333333","6501300","土城區"
"236061","915-UM","2017/10/31 14:19:14","新北市土城區延壽路44巷15號","121.471466666667","24.9929716666667","6501300","土城區"
"236054","AAC-216","2017/10/31 14:19:00","新北市土城區中華路二段98號","121.438063333333","24.9744483333333","6501300","土城區"
"221012","276-VK","2017/10/31 13:23:45","新北市汐止區汐萬路一段256巷3號","121.653438333333","25.0746","6501100","汐止區"
"220027","145-BY","2017/10/31 14:19:04","新北市板橋區民權路202巷17弄26號","121.459785","25.0167066666667","6500100","板橋區"
"220028","200-UY","2017/10/31 14:17:46","新北市板橋區大觀路二段19巷124號","121.450313333333","25.0026466666667","6500100","板橋區"
"220030","610-BX","2017/10/31 14:19:17","新北市板橋區篤行路三段88號","121.426306666667","24.98489","6500100","板橋區"
"220050","245-BX","2017/10/31 14:18:53","新北市板橋區莊敬路25巷13-1號","121.474453333333","25.0274916666667","6500100","板橋區"
"220004","276-BY","2017/10/31 14:19:05","新北市板橋區國慶路8號","121.458083333333","24.9944166666667","6500100","板橋區"
"220020","277-BY","2017/10/31 14:19:18","新北市板橋區篤行路三段79-6號","121.427501666667","24.98505","6500100","板橋區"
"220043","283-UM","2017/10/31 14:19:14","新北市板橋區吳鳳路82號","121.466935","25.03131","6500100","板橋區"
"220019","283-VK","2017/10/31 14:19:21","新北市板橋區大豐街91號","121.462055","25.0005016666667","6500100","板橋區"
"220001","285-VK","2017/10/31 14:19:11","新北市板橋區縣民大道三段270巷8號","121.478236666667","25.023075","6500100","板橋區"
"220031","286-VK","2017/10/31 14:19:09","新北市板橋區龍興街69號","121.443625","25.0015716666667","6500100","板橋區"
"220029","287-VK","2017/10/31 14:19:15","新北市板橋區南雅西路一段10巷7弄1號","121.454571666667","25.0045166666667","6500100","板橋區"
"220039","288-VK","2017/10/31 14:19:17","新北市板橋區長江路一段106巷13弄29號","121.461148333333","25.02975","6500100","板橋區"
"220009","293-UM","2017/10/31 14:19:16","新北市板橋區成功路6巷19號","121.476096666667","25.0172033333333","6500100","板橋區"
"220032","296-UM","2017/10/31 14:19:18","新北市板橋區溪北路97號","121.428713333333","24.9893333333333","6500100","板橋區"
"220023","297-UM","2017/10/31 14:19:17","新北市板橋區南雅南路一段5巷3號","121.455971666667","25.005595","6500100","板橋區"
"220010","305-R5","2017/10/31 14:19:04","新北市板橋區三民路二段153巷4號","121.479626666667","25.0148816666667","6500100","板橋區"
"220041","307-R5","2017/10/31 14:19:10","新北市板橋區光武街48巷49號","121.468298333333","25.0272466666667","6500100","板橋區"
"220047","317-R6","2017/10/31 14:19:18","新北市板橋區四維路116號","121.465491666667","25.0248316666667","6500100","板橋區"
"220012","486-VK","2017/10/31 14:19:18","新北市板橋區中山路一段30號","121.460496666667","25.008475","6500100","板橋區"
"220038","487-VK","2017/10/31 14:19:20","新北市板橋區文化路二段22號","121.468951666667","25.024365","6500100","板橋區"
"220037","491-VK","2017/10/31 14:18:50","新北市板橋區文化路二段182巷3弄28號","121.472076666667","25.028145","6500100","板橋區"
"220104","560-BX","2017/10/31 14:19:03","新北市板橋區中正路413巷2弄2號","121.453946666667","25.022645","6500100","板橋區"
"220052","561-BX","2017/10/31 14:18:59","新北市板橋區介壽街17號","121.467663333333","25.02013","6500100","板橋區"
"220011","609-BX","2017/10/31 14:19:20","新北市板橋區三民路二段204-3號","121.478941666667","25.01238","6500100","板橋區"
"220040","637-BX","2017/10/31 14:19:06","新北市板橋區松柏街66號","121.476335","25.0305083333333","6500100","板橋區"
"220005","686-BX","2017/10/31 14:19:03","新北市板橋區和平路153號","121.463475","24.99571","6500100","板橋區"
"220025","687-BX","2017/10/31 14:19:02","新北市板橋區大觀路二段71號","121.44649","25.0023533333333","6500100","板橋區"
"220042","689-BX","2017/10/31 14:19:14","新北市板橋區文化路一段134號","121.46517","25.0188816666667","6500100","板橋區"
"220002","741-BX","2017/10/31 14:19:11","新北市板橋區實踐路181-2號","121.464406666667","25.0035083333333","6500100","板橋區"
"220003","827-TW","2017/10/31 14:19:16","新北市板橋區民族路57號","121.464675","25.0088583333333","6500100","板橋區"
"220014","829-TW","2017/10/31 14:19:10","新北市板橋區漢生東路313巷2弄58號","121.472846666667","25.00791","6500100","板橋區"
"220051","830-TW","2017/10/31 14:19:14","新北市板橋區松柏街75號","121.476421666667","25.0306166666667","6500100","板橋區"
"220045","831-TW","2017/10/31 14:19:19","新北市板橋區大同街35巷5號","121.477693333333","25.02755","6500100","板橋區"
"220022","895-R6","2017/10/31 14:19:11","新北市板橋區府中路42號","121.457451666667","25.0095883333333","6500100","板橋區"
"220021","985-R7","2017/10/31 14:19:22","新北市板橋區中正路360巷21號","121.455436666667","25.0238433333333","6500100","板橋區"
"220046","AAC-210","2017/10/31 14:19:15","新北市板橋區幸福路49號","121.461241666667","25.01994","6500100","板橋區"
"220018","AAC-253","2017/10/31 14:19:16","新北市板橋區忠孝路136號","121.463598333333","25.0024116666667","6500100","板橋區"
