"lineid","car","time","location","longitude","latitude","cityid","cityname"
"234036","336-UY","2017/10/31 15:00:39","新北市永和區福和路1號","121.526708333333","25.01022","6500400","永和區"
"249005","172-UM","2017/10/31 14:07:07","新北市八里區挖子尾街10號","121.415441666667","25.1642666666667","6502300","八里區"
"234066","AAC-212","2017/10/31 15:49:02","新北市板橋區萬安街20巷4弄11號","121.485258333333","25.0230366666667","6500400","永和區"
"231030","047-UY","2017/10/31 15:49:05","新北市新店區永安街28-2號","121.517468333333","24.9865566666667","6500600","新店區"
"231012","108-UY","2017/10/31 15:49:13","新北市新店區文化路22-1號","121.543588333333","24.979685","6500600","新店區"
"231015","KEA-2219","2017/10/31 15:49:13","新北市新店區中華路83巷2弄5號","121.53891","24.9685733333333","6500600","新店區"
"231026","256-BX","2017/10/31 15:49:04","新北市新店區中正路374號","121.535115","24.9762783333333","6500600","新店區"
"231046","278-BY","2017/10/31 14:03:53","新北市新店區安華路28-1號","121.519543333333","24.9611933333333","6500600","新店區"
"231023","AAD-862","2017/10/31 15:49:01","新北市新店區大新街5巷2號","121.543343333333","24.9686916666667","6500600","新店區"
"231038","4715-K9","2017/10/31 15:49:21","新北市新店區安康路二段242巷8號","121.508866666667","24.9596416666667","6500600","新店區"
"231020","513-UM","2017/10/31 15:49:01","新北市新店區新烏路一段85巷6-6號","121.549705","24.94275","6500600","新店區"
"231035","515-UM","2017/10/31 15:49:07","新北市新店區安興路102號","121.515181666667","24.976725","6500600","新店區"
"231003","641-BX","2017/10/31 15:49:17","新北市新店區寶興路60巷4號","121.549803333333","24.9718883333333","6500600","新店區"
"231034","645-TV","2017/10/31 15:49:11","新北市新店區玫瑰路62巷2號","121.495728333333","24.94614","6500600","新店區"
"231013","719-UM","2017/10/31 15:49:08","新北市新店區永業路81巷9弄4號","121.531065","24.9504966666667","6500600","新店區"
"231018","719-UY","2017/10/31 15:49:16","新北市新店區復興路106-1號","121.531596666667","24.9890216666667","6500600","新店區"
"231037","AKT-0513","2017/10/31 15:49:13","新北市新店區安興路105-1號","121.514666666667","24.977725","6500600","新店區"
"241011","013-R5","2017/10/31 15:49:16","新北市三重區文化北路248號","121.497426666667","25.06991","6500200","三重區"
"241028","022-UY","2017/10/31 15:49:10","新北市三重區中正南路40號","121.4939","25.0601366666667","6500200","三重區"
"241015","062-VK","2017/10/31 15:49:13","新北市三重區重新路四段121號","121.485153333333","25.0520633333333","6500200","三重區"
"241017","063-VK","2017/10/31 15:49:10","新北市三重區大仁街44號","121.491733333333","25.06439","6500200","三重區"
"241024","065-VK","2017/10/31 15:49:16","新北市三重區新北大道一段250號","121.479855","25.0614016666667","6500200","三重區"
"241003","091-VK","2017/10/31 15:49:10","新北市三重區河邊北街313號","121.50277","25.0749433333333","6500200","三重區"
"241005","262-UM","2017/10/31 15:49:13","新北市三重區河邊北街355號","121.502495","25.075855","6500200","三重區"
"241032","265-UM","2017/10/31 15:49:13","新北市三重區名源街29巷2號","121.479888333333","25.0609033333333","6500200","三重區"
"241016","266-UM","2017/10/31 15:49:06","新北市三重區重新路四段121號","121.485171666667","25.0520833333333","6500200","三重區"
"241022","267-UM","2017/10/31 15:49:08","新北市三重區重新路四段121號","121.485158333333","25.050755","6500200","三重區"
"241018","268-UM","2017/10/31 15:49:04","新北市三重區重新路四段132號","121.486796666667","25.0566366666667","6500200","三重區"
"241013","270-UM","2017/10/31 15:49:09","新北市三重區六張街25號","121.495181666667","25.0706333333333","6500200","三重區"
"241007","398-BY","2017/10/31 15:49:02","新北市三重區重新路四段121號","121.485171666667","25.0520283333333","6500200","三重區"
"241014","543-UM","2017/10/31 15:49:12","新北市三重區重新路四段121號","121.485058333333","25.052145","6500200","三重區"
"241023","545-UM","2017/10/31 15:49:08","新北市三重區名源街61巷17號","121.480611666667","25.0595616666667","6500200","三重區"
"241006","AAD-863","2017/10/31 15:49:14","新北市三重區重新路四段121號","121.484708333333","25.0521866666667","6500200","三重區"
"241012","941-UM","2017/10/31 15:49:17","新北市三重區自強路一段40號","121.497903333333","25.0672366666667","6500200","三重區"
"241029","942-UM","2017/10/31 15:49:01","新北市三重區大同南路242號","121.496933333333","25.0558383333333","6500200","三重區"
"241033","AAC-255","2017/10/31 15:49:16","新北市三重區興德路82號","121.474201666667","25.0534083333333","6500200","三重區"
"235003","097-UM","2017/10/31 15:49:17","新北市八里區中山路三段409號","121.368728333333","25.1340033333333","6500300","中和區"
"235026","800-TS","2017/10/31 15:49:14","新北市中和區永和路191巷9號","121.491358333333","25.00682","6500300","中和區"
"235023","AAC-215","2017/10/31 15:49:11","新北市中和區員山路49-5號","121.480371666667","24.991395","6500300","中和區"
"247004","336-TH","2017/10/31 14:50:58","新北市五股區中興路三段163號","121.449201666667","25.0806366666667","6501400","蘆洲區"
"223004","437-BY","2017/10/31 10:52:56","新北市石碇區小粗坑(潭邊里)9-2號","121.678828333333","24.985775","6501900","石碇區"
"224009","285-BY","2017/10/31 10:04:35","新北市瑞芳區大寮路356-1號","121.784948333333","25.1031083333333","6501200","瑞芳區"
"224007","273-VK","2017/10/31 09:54:49","新北市瑞芳區大寮路356-1號","121.7845","25.1034466666667","6501200","瑞芳區"
"227003","642-TC","2017/10/31 15:48:58","新北市雙溪區平林里外平林44號","121.852915","25.03637","6502500","雙溪區"
"227009","400-TW","2017/10/31 15:49:05","新北市雙溪區牡丹里中正路56號","121.865561666667","25.0405716666667","6502500","雙溪區"
"236065","105-UM","2017/10/31 15:49:15","新北市土城區金安街48巷16號","121.420766666667","24.965505","6501300","土城區"
"236075","166-UM","2017/10/31 15:49:14","新北市土城區三民路61巷1號","121.41955","24.9643683333333","6501300","土城區"
"236025","269-VK","2017/10/31 15:49:11","新北市土城區裕生路88號","121.447031666667","24.9851266666667","6501300","土城區"
"236017","401-BY","2017/10/31 15:49:08","新北市土城區延吉街23巷61-1號","121.473071666667","24.9879233333333","6501300","土城區"
"236057","912-UM","2017/10/31 15:48:58","新北市土城區中央路一段279號","121.444568333333","24.98473","6501300","土城區"
"236045","913-UM","2017/10/31 15:49:03","新北市土城區清水路330號","121.463938333333","24.9854916666667","6501300","土城區"
"236054","AAC-216","2017/10/31 15:49:20","新北市土城區中華路一段100號","121.444278333333","24.98702","6501300","土城區"
"221012","276-VK","2017/10/31 13:23:45","新北市汐止區汐萬路一段256巷3號","121.653438333333","25.0746","6501100","汐止區"
"221025","623-UM","2017/10/31 15:49:10","新北市汐止區大同路二段175號","121.651625","25.0642466666667","6501100","汐止區"
