"lineid","car","time","location","longitude","latitude","cityid","cityname"
"234036","336-UY","2017/10/31 17:29:14","新北市永和區福和路1號","121.526618333333","25.0101533333333","6500400","永和區"
"249005","172-UM","2017/10/31 17:29:11","新北市八里區荖阡坑路69-2號","121.407578333333","25.12613","6502300","八里區"
"249001","173-UM","2017/10/31 17:29:03","新北市八里區大崁腳47-2號","121.424238333333","25.1589533333333","6502300","八里區"
"249004","303-UY","2017/10/31 17:29:12","新北市八里區民有街34號","121.415371666667","25.1566383333333","6502300","八里區"
"249002","305-UY","2017/10/31 17:28:59","新北市八里區龍形五街37巷8-3號","121.446575","25.1348783333333","6502300","八里區"
"249003","593-UM","2017/10/31 17:29:00","新北市八里區中山路二段390號","121.400611666667","25.14796","6502300","八里區"
"244013","069-UM","2017/10/31 17:29:00","新北市林口區中山路68-1號","121.39342","25.07862","6501700","林口區"
"244007","080-UY","2017/10/31 17:29:10","新北市林口區湖子17-5號","121.385766666667","25.0909133333333","6501700","林口區"
"244019","403-UM","2017/10/31 17:29:17","新北市林口區公園路233-4號","121.37592","25.0754283333333","6501700","林口區"
"244025","742-UY","2017/10/31 17:29:15","新北市林口區民族路151號","121.366681666667","25.0761116666667","6501700","林口區"
"244009","410-SL","2017/10/31 17:29:05","新北市林口區中湖40-9號","121.38324","25.0912016666667","6501700","林口區"
"244023","483-VK","2017/10/31 17:29:00","新北市林口區東湖路2號","121.389653333333","25.0738466666667","6501700","林口區"
"244017","485-VK","2017/10/31 17:29:12","新北市林口區粉寮路二段14號","121.401943333333","25.0856566666667","6501700","林口區"
"244021","838-TS","2017/10/31 17:29:16","新北市林口區粉寮路15-3號","121.398326666667","25.0806733333333","6501700","林口區"
"231046","278-BY","2017/10/31 17:29:00","新北市新店區直潭路92號","121.530911666667","24.9376683333333","6500600","新店區"
"241011","013-R5","2017/10/31 17:29:16","新北市三重區河邊北街100巷1號","121.503828333333","25.070595","6500200","三重區"
"241028","022-UY","2017/10/31 17:29:10","新北市三重區忠孝路三段127巷5號","121.47857","25.0616416666667","6500200","三重區"
"241015","062-VK","2017/10/31 17:29:13","新北市三重區長元街65巷16弄15號","121.503558333333","25.0662033333333","6500200","三重區"
"241017","063-VK","2017/10/31 17:29:10","新北市三重區重新路三段45-6號","121.49347","25.061895","6500200","三重區"
"241024","065-VK","2017/10/31 17:29:16","新北市三重區大勇街82巷15弄1號","121.479761666667","25.0718166666667","6500200","三重區"
"241026","066-VK","2017/10/31 17:29:10","新北市三重區正義南路60-6號","121.498566666667","25.0601733333333","6500200","三重區"
"241003","091-VK","2017/10/31 17:29:10","新北市三重區進安街196號","121.49369","25.0863233333333","6500200","三重區"
"241005","262-UM","2017/10/31 17:29:13","新北市三重區永安北路二段5巷40號","121.483015","25.08138","6500200","三重區"
"241032","265-UM","2017/10/31 17:29:13","新北市三重區名源街28巷1號","121.482316666667","25.060085","6500200","三重區"
"241016","266-UM","2017/10/31 17:29:06","新北市三重區信義西街43號","121.495238333333","25.0639816666667","6500200","三重區"
"241018","268-UM","2017/10/31 17:29:04","新北市三重區國隆路7號","121.493368333333","25.0637916666667","6500200","三重區"
"241013","270-UM","2017/10/31 17:29:06","新北市三重區仁愛街92巷5號","121.49511","25.0738083333333","6500200","三重區"
"241025","271-UM","2017/10/31 17:29:00","新北市三重區中正北路392-1號","121.476101666667","25.0701766666667","6500200","三重區"
"241007","398-BY","2017/10/31 17:29:02","新北市三重區慈愛街82號","121.488213333333","25.0798833333333","6500200","三重區"
"241009","KEA-2210","2017/10/31 17:29:15","新北市三重區力行路二段182-3號","121.483505","25.07759","6500200","三重區"
"241020","413-TH","2017/10/31 17:29:04","新北市三重區忠孝路二段51號","121.485676666667","25.071065","6500200","三重區"
"241019","478-VK","2017/10/31 17:29:08","新北市三重區六張街177號","121.489225","25.068835","6500200","三重區"
"241030","480-VK","2017/10/31 17:29:11","新北市三重區環河南路220-8號","121.493371666667","25.05274","6500200","三重區"
"241014","543-UM","2017/10/31 17:29:12","新北市三重區長壽街60號","121.500883333333","25.0683416666667","6500200","三重區"
"241023","545-UM","2017/10/31 17:29:08","新北市三重區忠孝路三段84巷26號","121.481415","25.06447","6500200","三重區"
"241012","941-UM","2017/10/31 17:29:17","新北市三重區仁興街24巷5號","121.499118333333","25.0752","6500200","三重區"
"241033","AAC-255","2017/10/31 17:29:16","新北市三重區興德路133號","121.470215","25.0528733333333","6500200","三重區"
"235061","378-QA","2017/10/31 14:51:54","新北市中和區員山路36巷13號","121.48423","24.99129","6500300","中和區"
"235026","800-TS","2017/10/31 17:11:02","新北市中和區員山路36巷16-3號","121.484865","24.9914916666667","6500300","中和區"
"247022","893-R6","2017/10/31 17:29:04","新北市蘆洲區三民路247號","121.468793333333","25.089015","6501400","蘆洲區"
"247012","546-UM","2017/10/31 17:29:00","新北市蘆洲區信義路296號","121.477616666667","25.087535","6501400","蘆洲區"
"247020","500-BY","2017/10/31 17:28:59","新北市蘆洲區仁愛街92號","121.470583333333","25.0945033333333","6501400","蘆洲區"
"247008","341-TH","2017/10/31 17:29:15","新北市蘆洲區民生街105號","121.473456666667","25.0787166666667","6501400","蘆洲區"
"247010","339-TH","2017/10/31 17:28:57","新北市蘆洲區集賢路406號","121.47989","25.0819333333333","6501400","蘆洲區"
"247002","337-TH","2017/10/31 17:29:17","新北市蘆洲區永樂街38巷40號","121.458456666667","25.0901016666667","6501400","蘆洲區"
"247004","336-TH","2017/10/31 17:29:12","新北市蘆洲區長安街233巷34號","121.45814","25.0823433333333","6501400","蘆洲區"
"247016","057-VK","2017/10/31 17:29:07","新北市蘆洲區光華路22巷18號","121.469006666667","25.0841616666667","6501400","蘆洲區"
"247006","056-VK","2017/10/31 17:29:14","新北市蘆洲區長安街22巷46號","121.46522","25.0804466666667","6501400","蘆洲區"
"247014","007-UY","2017/10/31 17:29:06","新北市蘆洲區三民路33號","121.47543","25.0830433333333","6501400","蘆洲區"
"247024","002-UY","2017/10/31 17:29:20","新北市蘆洲區長興路345號","121.460668333333","25.0907216666667","6501400","蘆洲區"
"247018","001-UY","2017/10/31 17:29:05","新北市蘆洲區民權路113號","121.472315","25.08948","6501400","蘆洲區"
"223004","437-BY","2017/10/31 10:52:56","新北市石碇區小粗坑(潭邊里)9-2號","121.678828333333","24.985775","6501900","石碇區"
"228003","097-TW","2017/10/31 17:29:11","新北市貢寮區仁理村尖山腳街20號","121.924393333333","25.0475266666667","6502600","貢寮區"
"228002","585-TW","2017/10/31 17:29:18","新北市貢寮區福隆里福隆街18號","121.944921666667","25.0164766666667","6502600","貢寮區"
"228001","670-TC","2017/10/31 17:28:56","新北市貢寮區仁理村仁愛路43號","121.925465","25.0533883333333","6502600","貢寮區"
"224010","AGQ-8101","2017/10/31 17:29:04","新北市瑞芳區明燈路二段2巷14號","121.814405","25.1088516666667","6501200","瑞芳區"
"224006","676-BX","2017/10/31 17:29:00","新北市瑞芳區傑魚坑路169號","121.789693333333","25.1093483333333","6501200","瑞芳區"
"224009","285-BY","2017/10/31 17:29:06","新北市瑞芳區汽車路10號","121.846435","25.1106133333333","6501200","瑞芳區"
"224008","275-VK","2017/10/31 17:29:03","新北市瑞芳區九芎橋路17號","121.832776666667","25.0927366666667","6501200","瑞芳區"
"224005","271-BY","2017/10/31 17:29:03","新北市瑞芳區海濱路8-6號","121.831716666667","25.1261533333333","6501200","瑞芳區"
"227003","642-TC","2017/10/31 17:28:58","新北市雙溪區上林里新寮子6號","121.838683333333","25.0309783333333","6502500","雙溪區"
"227009","400-TW","2017/10/31 17:29:05","新北市雙溪區三貂里十三層5-3號","121.853108333333","25.07739","6502500","雙溪區"
"251009","008-UM","2017/10/31 17:29:13","新北市淡水區新生街90巷3號","121.43954","25.1745216666667","6501000","淡水區"
"251004","009-UM","2017/10/31 17:11:15","新北市淡水區中正東路二段88巷15號","121.459105","25.1504933333333","6501000","淡水區"
"251005","010-UM","2017/10/31 17:29:12","新北市淡水區鄧公路31巷1號","121.451273333333","25.170865","6501000","淡水區"
"251002","012-UM","2017/10/31 17:29:13","新北市淡水區中正路261號","121.431621666667","25.1748783333333","6501000","淡水區"
"251014","180-VK","2017/10/31 17:29:12","新北市淡水區公埔子20-2號","121.469876666667","25.2291116666667","6501000","淡水區"
"251008","181-VK","2017/10/31 17:29:14","新北市淡水區大同路120巷16號","121.463125","25.1397216666667","6501000","淡水區"
"251016","182-VK","2017/10/31 17:29:10","新北市淡水區埤島75號","121.454618333333","25.194495","6501000","淡水區"
"251010","413-VK","2017/10/31 17:29:01","新北市淡水區中正路二段211號","121.426235","25.1891583333333","6501000","淡水區"
"251012","441-VK","2017/10/31 17:29:13","新北市淡水區北新路98號","121.447183333333","25.1784683333333","6501000","淡水區"
"251006","561-UM","2017/10/31 17:29:15","新北市淡水區大仁街1號","121.441921666667","25.1747466666667","6501000","淡水區"
"251007","577-R6","2017/10/31 17:29:09","新北市淡水區民生路47-4號","121.462061666667","25.1380216666667","6501000","淡水區"
"251011","650-BX","2017/10/31 17:29:06","新北市淡水區坪頂路712號","121.482535","25.1585466666667","6501000","淡水區"
"251003","766-UM","2017/10/31 17:29:03","新北市淡水區中山路157號","121.440715","25.1728833333333","6501000","淡水區"
"207003","550-UM","2017/10/31 17:29:15","新北市萬里區龜吼里翡翠路17號","121.683443333333","25.1868166666667","6502800","萬里區"
"207004","225-TW","2017/10/31 17:29:09","新北市萬里區萬里里景美路11-2號","121.685638333333","25.1728333333333","6502800","萬里區"
"252002","178-VK","2017/10/31 17:29:17","新北市三芝區忠孝街1-14號","121.505346666667","25.254","6502100","三芝區"
"252001","292-VK","2017/10/31 17:29:15","新北市三芝區淡金路一段4-5號","121.498101666667","25.2596916666667","6502100","三芝區"
"237016","649-BX","2017/10/31 17:29:11","新北市三峽區中山路459巷163-3號","121.348681666667","24.9329433333333","6500900","三峽區"
"242032","AAC-296","2017/10/31 17:29:04","新北市新莊區新泰路413巷20號","121.442578333333","25.0444333333333","6500500","新莊區"
"242029","986-R7","2017/10/31 17:29:14","新北市新莊區復興路二段188號","121.459111666667","25.04439","6500500","新莊區"
"242051","751-BX","2017/10/31 17:28:59","新北市新莊區新樹路449巷5號","121.433065","25.0136633333333","6500500","新莊區"
"242025","615-BX","2017/10/31 17:29:06","新北市新莊區中港路281號","121.453221666667","25.043835","6500500","新莊區"
"242023","613-BX","2017/10/31 17:29:18","新北市新莊區公園路37號","121.45311","25.0401483333333","6500500","新莊區"
"242027","612-BX","2017/10/31 17:29:08","新北市新莊區復興路二段189號","121.459151666667","25.044575","6500500","新莊區"
"242039","566-BX","2017/10/31 17:29:11","新北市新莊區民安路270號","121.427563333333","25.0214","6500500","新莊區"
"242044","497-BY","2017/10/31 17:29:03","新北市新莊區富國路61號","121.419651666667","25.026095","6500500","新莊區"
"242048","441-UM","2017/10/31 17:29:06","新北市新莊區龍安路287號","121.420691666667","25.0198133333333","6500500","新莊區"
"242054","440-UM","2017/10/31 17:29:20","新北市新莊區瓊林南路305巷18號","121.435228333333","25.0051066666667","6500500","新莊區"
"242034","415-TV","2017/10/31 17:29:01","新北市新莊區新莊路457號","121.449491666667","25.0333633333333","6500500","新莊區"
"242005","413-TV","2017/10/31 17:29:04","新北市新莊區復興路一段216號","121.452941666667","25.04383","6500500","新莊區"
"242042","400-BY","2017/10/31 17:29:21","新北市新莊區建國一路100號","121.434748333333","25.0294816666667","6500500","新莊區"
"242061","362-BY","2017/10/31 17:29:09","新北市新莊區瓊林路190-2號","121.439506666667","25.0209766666667","6500500","新莊區"
"242058","353-BY","2017/10/31 17:29:16","新北市新莊區中正路516-37號","121.432596666667","25.03215","6500500","新莊區"
"242007","132-UY","2017/10/31 17:29:11","新北市新莊區自強街1號","121.454701666667","25.0454933333333","6500500","新莊區"
"242037","133-UY","2017/10/31 17:29:00","新北市新莊區民安路429巷3號","121.433885","25.023235","6500500","新莊區"
"242021","135-UY","2017/10/31 17:29:05","新北市新莊區中港路3號","121.454931666667","25.0369033333333","6500500","新莊區"
"242046","172-VK","2017/10/31 17:29:06","新北市新莊區新樹路65-5號","121.439413333333","25.0309066666667","6500500","新莊區"
"242009","173-VK","2017/10/31 17:29:05","新北市新莊區中原路240號","121.452563333333","25.0545066666667","6500500","新莊區"
"242015","175-VK","2017/10/31 17:29:07","新北市新莊區新泰路182號","121.44732","25.03798","6500500","新莊區"
"242002","176-VK","2017/10/31 17:29:10","新北市新莊區新莊路154號","121.455255","25.0354966666667","6500500","新莊區"
"242013","347-TH","2017/10/31 17:29:16","新北市新莊區中誠街28號","121.451633333333","25.048175","6500500","新莊區"
"242019","348-TH","2017/10/31 17:28:59","新北市新莊區明中街6號","121.458753333333","25.0383383333333","6500500","新莊區"
"242056","349-TH","2017/10/31 17:29:02","新北市新莊區新泰路20號","121.449653333333","25.03366","6500500","新莊區"
"242017","350-TH","2017/10/31 17:29:09","新北市新莊區復興路一段201號","121.452101666667","25.0436183333333","6500500","新莊區"
"242011","351-TH","2017/10/31 17:29:20","新北市新莊區中港路491號","121.45207","25.05009","6500500","新莊區"
"238015","755-BX","2017/10/31 17:29:05","新北市樹林區大安路267號","121.41904","24.9937266666667","6500700","樹林區"
"238023","601-UM","2017/10/31 17:29:12","新北市樹林區中正路433號","121.415008333333","25.0085866666667","6500700","樹林區"
"238019","599-UM","2017/10/31 17:29:07","新北市樹林區八德街37-3號","121.419176666667","24.9830916666667","6500700","樹林區"
"238018","571-TV","2017/10/31 17:29:12","新北市樹林區鎮前街273-2號","121.419558333333","24.9858366666667","6500700","樹林區"
"238024","5061-A6","2017/10/31 17:29:15","新北市樹林區樹新路51巷2號","121.42697","24.9950133333333","6500700","樹林區"
"238021","KEA-2217","2017/10/31 17:29:13","新北市樹林區西圳街一段29號","121.401483333333","24.96184","6500700","樹林區"
"238022","KEA-2213","2017/10/31 17:29:07","新北市樹林區和平街25號","121.422365","24.9815683333333","6500700","樹林區"
"238016","308-TH","2017/10/31 17:29:03","新北市樹林區中山路一段201號","121.4212","24.9875433333333","6500700","樹林區"
"238025","303-VK","2017/10/31 17:29:07","新北市樹林區保安二街84巷1號","121.423096666667","24.9955416666667","6500700","樹林區"
"238017","283-BY","2017/10/31 17:29:05","新北市樹林區保安街二段179-4號","121.415241666667","25.0032266666667","6500700","樹林區"
"238014","282-BY","2017/10/31 17:29:05","新北市樹林區長壽街70巷35弄2號","121.421393333333","24.99491","6500700","樹林區"
"238020","268-VK","2017/10/31 17:29:10","新北市樹林區俊英街90號","121.427763333333","25.0049383333333","6500700","樹林區"
"238026","172-UY","2017/10/31 17:29:08","新北市樹林區味王街46巷30號","121.403096666667","24.9737633333333","6500700","樹林區"
"239007","AAC-297","2017/10/31 17:29:14","新北市鶯歌區永明街135號","121.342851666667","24.9558683333333","6500800","鶯歌區"
"239006","891-R6","2017/10/31 17:29:14","新北市鶯歌區鶯桃路472巷25號","121.333141666667","24.9660166666667","6500800","鶯歌區"
"239008","527-UM","2017/10/31 17:29:01","桃園市龜山區宏德司法新村164號","121.332291666667","24.979135","6500800","鶯歌區"
"239005","526-UM","2017/10/31 17:29:12","桃園市桃園區大仁路101巷1號","121.323641666667","24.97121","6500800","鶯歌區"
"239001","417-VK","2017/10/31 17:29:01","新北市鶯歌區高職西街19號","121.337378333333","24.9423916666667","6500800","鶯歌區"
"239002","359-BY","2017/10/31 17:29:12","新北市鶯歌區育才街96號","121.34698","24.9546516666667","6500800","鶯歌區"
"239004","193-VK","2017/10/31 17:28:58","新北市鶯歌區三鶯路29巷34號","121.353585","24.939225","6500800","鶯歌區"
"221012","276-VK","2017/10/31 13:23:45","新北市汐止區汐萬路一段256巷3號","121.653438333333","25.0746","6501100","汐止區"
"221033","647-BX","2017/10/31 17:29:04","新北市汐止區汐萬路一段333巷15號","121.64922","25.0759916666667","6501100","汐止區"
