"lineid","car","time","location","longitude","latitude","cityid","cityname"
"234017","745-BX","2017/10/31 20:56:52","新北市新店區安康路二段269號","121.504208333333","24.9577283333333","6500400","永和區"
"249004","303-UY","2017/10/31 20:59:02","新北市八里區商港路105巷15號","121.391045","25.1489716666667","6502300","八里區"
"244019","403-UM","2017/10/31 20:44:48","新北市林口區粉寮69號","121.405096666667","25.0907983333333","6501700","林口區"
"231059","046-UY","2017/10/31 20:58:37","新北市新店區僑信路88號","121.499796666667","24.9479533333333","6500600","新店區"
"231061","047-UY","2017/10/31 20:59:11","新北市新店區永安街73號","121.519536666667","24.9868916666667","6500600","新店區"
"231060","106-UY","2017/10/31 20:59:04","新北市新店區安康路三段525巷37號","121.481695","24.944485","6500600","新店區"
"231048","108-UY","2017/10/31 20:59:00","新北市新店區文化路92號","121.54493","24.98251","6500600","新店區"
"231050","KEA-2219","2017/10/31 20:59:11","新北市新店區三民路117巷8弄2號","121.533981666667","24.9709716666667","6500600","新店區"
"231054","AAD-862","2017/10/31 20:59:16","新北市新店區北新路一段126巷25號","121.543448333333","24.9696066666667","6500600","新店區"
"231067","4772-VM","2017/10/31 20:59:14","新北市新店區安忠路205巷8號","121.508793333333","24.9547783333333","6500600","新店區"
"231065","512-UM","2017/10/31 20:59:11","新北市新店區安祥路69巷85號","121.483315","24.9589633333333","6500600","新店區"
"231053","513-UM","2017/10/31 20:59:04","新北市新店區光明街26號","121.538033333333","24.9588916666667","6500600","新店區"
"231064","515-UM","2017/10/31 20:59:06","新北市新店區安民街365巷8號","121.516138333333","24.9757033333333","6500600","新店區"
"231040","619-UM","2017/10/31 20:59:05","新北市新店區北新路一段128-3號","121.542081666667","24.969825","6500600","新店區"
"231042","641-BX","2017/10/31 20:59:11","新北市新店區中興路二段239號","121.547386666667","24.9754516666667","6500600","新店區"
"231063","645-TV","2017/10/31 20:59:11","新北市新店區富貴街8巷1號","121.494275","24.9497766666667","6500600","新店區"
"231068","718-UY","2017/10/31 20:59:16","新北市新店區寶中路79號","121.547665","24.980725","6500600","新店區"
"231049","719-UM","2017/10/31 20:59:14","新北市新店區薏仁坑路自強巷1號","121.496825","24.9581166666667","6500600","新店區"
"231051","719-UY","2017/10/31 20:59:02","新北市新店區民生路156巷117號","121.526833333333","24.9825516666667","6500600","新店區"
"231062","720-UM","2017/10/31 20:59:06","新北市新店區裕合街74號","121.490343333333","24.9485233333333","6500600","新店區"
"231043","899-TW","2017/10/31 20:58:57","新北市新店區民族路192號","121.536116666667","24.975375","6500600","新店區"
"231066","AKT-0513","2017/10/31 20:59:17","新北市新店區吉安街14號","121.516728333333","24.9658016666667","6500600","新店區"
"241011","013-R5","2017/10/31 20:58:56","新北市三重區秀江街119號","121.499715","25.07222","6500200","三重區"
"241028","022-UY","2017/10/31 20:58:59","新北市三重區新北大道一段1號","121.491466666667","25.0612916666667","6500200","三重區"
"241008","059-VK","2017/10/31 20:59:11","新北市三重區力行路二段162巷53號","121.481158333333","25.076385","6500200","三重區"
"241031","061-VK","2017/10/31 20:59:08","新北市三重區重陽路一段113巷2弄2號","121.487496666667","25.0598966666667","6500200","三重區"
"241015","062-VK","2017/10/31 20:59:02","新北市三重區福德北路67號","121.502086666667","25.0655966666667","6500200","三重區"
"241017","063-VK","2017/10/31 20:59:10","新北市三重區大仁街23號","121.492076666667","25.0645283333333","6500200","三重區"
"241024","065-VK","2017/10/31 20:59:16","新北市三重區國道路一段58巷20號","121.481318333333","25.0721283333333","6500200","三重區"
"241026","066-VK","2017/10/31 20:58:58","新北市三重區文化南路45號","121.500208333333","25.06142","6500200","三重區"
"241002","090-VK","2017/10/31 20:59:02","新北市三重區五華街1巷29號","121.496425","25.0800633333333","6500200","三重區"
"241005","262-UM","2017/10/31 20:59:13","新北市三重區五華街189號","121.4899","25.0853466666667","6500200","三重區"
"241032","265-UM","2017/10/31 20:59:11","新北市三重區三陽路133號","121.483178333333","25.05885","6500200","三重區"
"241016","266-UM","2017/10/31 20:59:05","新北市三重區正義北路120號","121.496883333333","25.0654","6500200","三重區"
"241022","267-UM","2017/10/31 20:59:03","新北市三重區過圳街27-5號","121.487921666667","25.0624183333333","6500200","三重區"
"241018","268-UM","2017/10/31 20:59:13","新北市三重區自強路一段157號","121.49342","25.0671183333333","6500200","三重區"
"241013","270-UM","2017/10/31 20:58:57","新北市三重區仁賢街6號","121.495651666667","25.0748133333333","6500200","三重區"
"241025","271-UM","2017/10/31 20:59:11","新北市三重區貴陽街18號","121.484143333333","25.0618683333333","6500200","三重區"
"241007","398-BY","2017/10/31 20:59:01","新北市三重區三和路四段143-1號","121.484421666667","25.07827","6500200","三重區"
"241009","KEA-2210","2017/10/31 20:58:54","新北市三重區三和路四段322號","121.4839","25.078055","6500200","三重區"
"241020","413-TH","2017/10/31 20:59:05","新北市三重區忠孝路二段34號","121.485843333333","25.0709883333333","6500200","三重區"
"241004","475-VK","2017/10/31 20:59:03","新北市三重區仁愛街423-1號","121.490395","25.0814433333333","6500200","三重區"
"241019","478-VK","2017/10/31 20:59:08","新北市三重區三張街104號","121.487911666667","25.0698983333333","6500200","三重區"
"241030","480-VK","2017/10/31 20:59:10","新北市三重區中正南路252巷5號","121.493438333333","25.0527083333333","6500200","三重區"
"241014","543-UM","2017/10/31 20:59:12","新北市三重區長榮路75號","121.502631666667","25.0690666666667","6500200","三重區"
"241023","545-UM","2017/10/31 20:59:06","新北市三重區忠孝路三段50巷41弄64號","121.482371666667","25.06374","6500200","三重區"
"241001","547-UM","2017/10/31 20:59:00","新北市三重區自強路三段87巷11號","121.487861666667","25.0748533333333","6500200","三重區"
"241006","AAD-863","2017/10/31 20:59:11","新北市三重區永福街46-3號","121.48191","25.0780966666667","6500200","三重區"
"241012","941-UM","2017/10/31 20:58:57","新北市三重區龍門路274巷45號","121.501196666667","25.0755866666667","6500200","三重區"
"241029","942-UM","2017/10/31 20:59:08","新北市三重區正義南路107號","121.498266666667","25.0585666666667","6500200","三重區"
"241033","AAC-255","2017/10/31 20:59:09","新北市三重區光復路二段1號","121.472266666667","25.0532833333333","6500200","三重區"
"235026","800-TS","2017/10/31 20:33:24","新北市中和區員山路36巷16-3號","121.485023333333","24.9914666666667","6500300","中和區"
"220069","AAD-861","2017/10/31 20:59:04","新北市八里區下罟子30-35號","121.36791","25.1351433333333","6500100","板橋區"
"247022","893-R6","2017/10/31 20:59:11","新北市蘆洲區民族路492號","121.470031666667","25.0906233333333","6501400","蘆洲區"
"247012","546-UM","2017/10/31 20:59:01","新北市蘆洲區民權路6號","121.476996666667","25.0855033333333","6501400","蘆洲區"
"247020","500-BY","2017/10/31 20:59:11","新北市蘆洲區民族路371號","121.471078333333","25.09126","6501400","蘆洲區"
"247010","339-TH","2017/10/31 20:59:17","新北市蘆洲區鷺江街93號","121.476871666667","25.083805","6501400","蘆洲區"
"247002","337-TH","2017/10/31 20:59:04","新北市蘆洲區永樂街38巷41號","121.458335","25.089585","6501400","蘆洲區"
"247004","336-TH","2017/10/31 20:59:12","新北市蘆洲區永安南路二段268號","121.458578333333","25.08077","6501400","蘆洲區"
"247016","057-VK","2017/10/31 20:58:56","新北市蘆洲區正和街61號","121.468801666667","25.0811266666667","6501400","蘆洲區"
"247006","056-VK","2017/10/31 20:59:13","新北市蘆洲區永安南路二段16巷16號","121.467951666667","25.0777416666667","6501400","蘆洲區"
"247008","053-VK","2017/10/31 20:59:11","新北市蘆洲區中山一路293-1號","121.471555","25.0791933333333","6501400","蘆洲區"
"247014","007-UY","2017/10/31 20:59:15","新北市蘆洲區中山二路36巷19號","121.474216666667","25.0829033333333","6501400","蘆洲區"
"247024","002-UY","2017/10/31 20:59:06","新北市蘆洲區光榮路60號","121.461695","25.08842","6501400","蘆洲區"
"247018","001-UY","2017/10/31 20:59:11","新北市蘆洲區民權路138-2號","121.473001666667","25.0889266666667","6501400","蘆洲區"
"223004","437-BY","2017/10/31 10:52:56","新北市石碇區小粗坑(潭邊里)9-2號","121.678828333333","24.985775","6501900","石碇區"
"251005","010-UM","2017/10/31 20:59:12","新北市淡水區學府路77號","121.44855","25.1699583333333","6501000","淡水區"
"251002","012-UM","2017/10/31 20:59:02","新北市淡水區中正東路6號","121.447011666667","25.167095","6501000","淡水區"
"251014","180-VK","2017/10/31 20:59:12","新北市淡水區淡金路五段72號","121.4558","25.233275","6501000","淡水區"
"251016","182-VK","2017/10/31 20:58:50","新北市淡水區牛埔子11-1號","121.450261666667","25.21846","6501000","淡水區"
"251010","413-VK","2017/10/31 20:59:00","新北市淡水區中正路一段118-3號","121.423853333333","25.1789116666667","6501000","淡水區"
"251012","441-VK","2017/10/31 20:59:13","新北市三芝區後厝里大片頭109號","121.458296666667","25.242895","6501000","淡水區"
"251001","559-UM","2017/10/31 20:59:13","新北市淡水區淡金路二段147號","121.449738333333","25.1829066666667","6501000","淡水區"
"251007","577-R6","2017/10/31 20:59:04","新北市淡水區水源街一段135號","121.446941666667","25.1719283333333","6501000","淡水區"
"251011","650-BX","2017/10/31 20:59:06","新北市淡水區新民街322巷1號","121.435323333333","25.1837516666667","6501000","淡水區"
"251003","766-UM","2017/10/31 20:59:03","新北市淡水區新春街174號","121.443211666667","25.1810583333333","6501000","淡水區"
"252002","178-VK","2017/10/31 20:59:17","新北市三芝區淡金路二段89-1號","121.504045","25.2608316666667","6502100","三芝區"
"242051","751-BX","2017/10/31 20:58:59","新北市新莊區新樹路39號","121.440323333333","25.0322266666667","6500500","新莊區"
"242048","441-UM","2017/10/31 20:59:06","新北市新莊區新樹路6號","121.440581666667","25.0326966666667","6500500","新莊區"
"242061","362-BY","2017/10/31 20:58:59","新北市五股區新五路二段143號","121.440021666667","25.0814016666667","6500500","新莊區"
"242046","172-VK","2017/10/31 20:59:13","新北市五股區成泰路三段362號","121.451811666667","25.09883","6500500","新莊區"
"242011","351-TH","2017/10/31 20:58:59","新北市五股區中直路13-7號","121.424791666667","25.110475","6500500","新莊區"
"221012","276-VK","2017/10/31 13:23:45","新北市汐止區汐萬路一段256巷3號","121.653438333333","25.0746","6501100","汐止區"
"221027","281-BY","2017/10/31 20:59:03","新北市汐止區汐萬路一段256巷3號","121.653086666667","25.0744116666667","6501100","汐止區"
"221029","298-VK","2017/10/31 20:59:04","新北市汐止區康寧街901號","121.651628333333","25.0749116666667","6501100","汐止區"
"221031","353-TW","2017/10/31 20:58:59","新北市汐止區康寧街901號","121.651735","25.0749216666667","6501100","汐止區"
"221002","358-BY","2017/10/31 20:58:59","新北市汐止區翠峰街21巷3弄16號","121.644141666667","25.0757383333333","6501100","汐止區"
"221018","753-BX","2017/10/31 20:58:56","新北市汐止區汐萬路一段256巷1號","121.651953333333","25.0748383333333","6501100","汐止區"
"220080","200-UY","2017/10/31 20:59:11","新北市八里區下罟子8-10號","121.384661666667","25.144915","6500100","板橋區"
"220101","245-BX","2017/10/31 20:59:15","新北市林口區汕頭32號","121.366431666667","25.1348","6500100","板橋區"
"220062","305-R5","2017/10/31 20:59:01","新北市板橋區民生路二段56-6號","121.471025","25.0187866666667","6500100","板橋區"
"220070","AAC-253","2017/10/31 20:59:06","新北市林口區太平里180號","121.368303333333","25.1344366666667","6500100","板橋區"
