"lineid","car","time","location","longitude","latitude","cityid","cityname"
"231007","189-VK","2017/06/13 10:49:18","新北市新店區新潭路三段43-1號","121.508393333333","24.913405","6500600","新店區"
"231009","192-VK","2017/06/13 10:46:03","新北市新店區小坑一路35巷2號","121.52755","24.9084183333333","6500600","新店區"
"247002","402-BY","2017/06/13 10:26:27","新北市五股區中興路三段3-6號","121.449778333333","25.0787583333333","6501400","蘆洲區"
"223002","198-BX","2017/06/13 09:45:17","新北市石碇區小粗坑(潭邊里)9-2號","121.678681666667","24.9857566666667","6501900","石碇區"
"227006","282-VK","2017/06/13 10:49:23","新北市雙溪區魚行里坤溪14號","121.873065","25.0236833333333","6502500","雙溪區"
"252007","AAC-283","2017/06/13 10:38:43","新北市三芝區埔坪里埔頭坑41號","121.50399","25.265345","6502100","三芝區"
"239001","661-UM","2017/06/13 10:49:17","新北市鶯歌區中正一路阿南巷2號","121.377393333333","24.9626166666667","6500800","鶯歌區"
