"lineid","car","time","location","longitude","latitude","cityid","cityname"
"234044","148-BY","2017/06/13 13:59:31","新北市永和區成功路一段18巷20號","121.526141666667","25.005185","6500400","永和區"
"234012","149-BY","2017/06/13 13:59:30","新北市永和區仁愛路295號","121.505276666667","25.0093","6500400","永和區"
"234005","207-UY","2017/06/13 13:59:27","新北市中和區中和路232號","121.50677","24.999505","6500400","永和區"
"234078","298-R6","2017/06/13 13:59:24","新北市永和區林森路112巷9弄1號","121.522316666667","25.00427","6500400","永和區"
"234036","336-UY","2017/06/13 13:59:23","新北市永和區成功路一段130號","121.526781666667","25.0021116666667","6500400","永和區"
"234062","337-UY","2017/06/13 13:59:25","新北市永和區中正路412巷2弄11號","121.518496666667","25.0019583333333","6500400","永和區"
"234084","338-UY","2017/06/13 13:59:33","新北市永和區福和路170號","121.521175","25.0079116666667","6500400","永和區"
"234068","552-UM","2017/06/13 13:59:26","新北市永和區永貞路16號","121.520851666667","25.0071316666667","6500400","永和區"
"234052","553-UM","2017/06/13 13:59:25","新北市永和區竹林路39巷42弄1號","121.520198333333","25.015215","6500400","永和區"
"234015","745-BX","2017/06/13 13:59:31","新北市永和區文化路28號","121.51511","25.0150866666667","6500400","永和區"
"234028","746-BX","2017/06/13 13:59:30","新北市永和區民權路49巷5弄33號","121.521583333333","24.99784","6500400","永和區"
"234060","AAD-866","2017/06/13 13:59:25","新北市永和區中正路151巷8弄2號","121.516035","24.9986033333333","6500400","永和區"
"234040","862-TW","2017/06/13 13:59:25","新北市永和區雙和街50號","121.508885","25.0030916666667","6500400","永和區"
"234048","863-TW","2017/06/13 13:59:31","新北市永和區保安路264號","121.505823333333","25.0124083333333","6500400","永和區"
"234025","9371-KE","2017/06/13 13:59:24","新北市永和區安樂路481號","121.514158333333","25.0059083333333","6500400","永和區"
"234010","9373-KE","2017/06/13 13:59:26","新北市永和區仁愛路352巷124號","121.50025","25.0085566666667","6500400","永和區"
"248017","225-UY","2017/06/13 13:59:28","新北市五股區民義路一段220巷14號","121.428566666667","25.0924483333333","6501500","五股區"
"234022","9380-KE","2017/06/13 13:59:30","新北市永和區永和路二段274號","121.516366666667","25.0152466666667","6500400","永和區"
"234076","969-R7","2017/06/13 13:59:32","新北市永和區民族街81巷62號","121.520171666667","24.9964583333333","6500400","永和區"
"234072","AAC-211","2017/06/13 13:59:34","新北市永和區竹林路203號","121.520898333333","25.0091483333333","6500400","永和區"
"234066","AAC-212","2017/06/13 13:59:19","新北市永和區中山路一段202號","121.508853333333","25.0087483333333","6500400","永和區"
"234001","AAC-295","2017/06/13 13:57:22","新北市永和區福和路328號","121.515481666667","25.0072466666667","6500400","永和區"
"244002","248-BX","2017/06/13 13:59:34","新北市林口區竹林路265號","121.389646666667","25.0807333333333","6501700","林口區"
"231002","002-UM","2017/06/13 13:59:34","新北市新店區中正路669號","121.533935","24.9898383333333","6500600","新店區"
"231025","0291-UT","2017/06/13 13:59:21","新北市新店區中正路275巷18號","121.537145","24.9735216666667","6500600","新店區"
"231028","046-UY","2017/06/13 13:59:34","新北市新店區安和路三段33-1號","121.516856666667","24.980105","6500600","新店區"
"231030","047-UY","2017/06/13 13:59:23","新北市新店區安民街65巷21-2號","121.515148333333","24.9674816666667","6500600","新店區"
"231018","107-UY","2017/06/13 13:59:35","新北市新店區中央路116號","121.53119","24.97518","6500600","新店區"
"231012","108-UY","2017/06/13 13:59:23","新北市新店區中興路一段282-5號","121.54618","24.968195","6500600","新店區"
"231020","187-VK","2017/06/13 13:59:27","新北市新店區屈尺路87巷2號","121.545523333333","24.9227083333333","6500600","新店區"
"231026","256-BX","2017/06/13 13:59:21","新北市新店區安康路一段35-1號","121.532118333333","24.96068","6500600","新店區"
"231034","268-BY","2017/06/13 13:59:26","新北市新店區達觀路24號","121.501836666667","24.9407333333333","6500600","新店區"
"231010","278-BY","2017/06/13 13:59:27","新北市新店區安康路一段35-5號","121.53192","24.9605566666667","6500600","新店區"
"231015","AAD-862","2017/06/13 13:59:33","新北市新店區郵政路1巷6號","121.557406666667","24.9521383333333","6500600","新店區"
"231029","355-BY","2017/06/13 13:59:17","新北市新店區安和路一段7號","121.516788333333","24.9639916666667","6500600","新店區"
"231027","3712-VJ","2017/06/13 13:59:19","新北市新店區中興路一段24-2號","121.538551666667","24.9583266666667","6500600","新店區"
"231024","3713-VJ","2017/06/13 13:59:27","新北市新店區力行路12號","121.53936","24.9646433333333","6500600","新店區"
"231038","4715-K9","2017/06/13 13:59:30","新北市新店區溪洲路121號","121.531406666667","24.96274","6500600","新店區"
"231036","512-UM","2017/06/13 13:59:22","新北市新店區安祥路109巷1弄59號","121.478063333333","24.9608733333333","6500600","新店區"
"231023","513-UM","2017/06/13 13:59:27","新北市新店區文中路40號","121.539728333333","24.9565333333333","6500600","新店區"
"231035","515-UM","2017/06/13 13:59:26","新北市新店區安康路二段1-5號","121.517018333333","24.963895","6500600","新店區"
"231006","617-UM","2017/06/13 13:59:23","新北市新店區北宜路二段209號","121.553161666667","24.953355","6500600","新店區"
"231001","619-UM","2017/06/13 13:59:18","新北市新店區三民路24號","121.537096666667","24.9709816666667","6500600","新店區"
"231003","641-BX","2017/06/13 13:59:36","新北市新店區北宜路一段7號","121.538335","24.9583133333333","6500600","新店區"
"231013","719-UM","2017/06/13 13:59:25","新北市新店區明德路111號","121.541535","24.9793816666667","6500600","新店區"
"231032","720-UM","2017/06/13 13:59:34","新北市新店區華城路6號","121.530091666667","24.9603983333333","6500600","新店區"
"231005","897-TW","2017/06/13 13:59:35","新北市新店區中興路三段170號","121.544283333333","24.98095","6500600","新店區"
"231004","899-TW","2017/06/13 13:59:25","新北市新店區北新路二段137號","121.542916666667","24.9755416666667","6500600","新店區"
"231037","AKT-0513","2017/06/13 13:59:26","新北市新店區安康路三段355巷1號","121.484291666667","24.95077","6500600","新店區"
"235030","003-UY","2017/06/13 13:59:20","新北市中和區廣福路56巷1弄19號","121.502818333333","25.0017033333333","6500300","中和區"
"235028","005-UY","2017/06/13 13:59:26","新北市中和區泰和街27號","121.499348333333","25.0000016666667","6500300","中和區"
"235027","006-UY","2017/06/13 13:59:26","新北市中和區錦和路99號","121.490068333333","24.9954983333333","6500300","中和區"
"235020","096-UM","2017/06/13 13:59:28","新北市中和區中正路1206巷1號","121.480216666667","25.010825","6500300","中和區"
"235003","097-UM","2017/06/13 13:59:22","新北市中和區景平路64巷13弄22號","121.521551666667","24.9914516666667","6500300","中和區"
"235029","098-UM","2017/06/13 13:59:27","新北市中和區福祥路131號","121.498558333333","25.0072516666667","6500300","中和區"
"235004","150-BY","2017/06/13 13:59:31","新北市中和區保健路46巷24弄2號","121.5087","24.9956833333333","6500300","中和區"
"235022","151-BY","2017/06/13 13:59:25","新北市中和區連城路526-1號","121.475945","24.9916666666667","6500300","中和區"
"235019","183-VK","2017/06/13 13:59:36","新北市中和區民生街28巷13號","121.469626666667","25.0058316666667","6500300","中和區"
"235002","185-VK","2017/06/13 13:59:33","新北市中和區大勇街43巷7號","121.517356666667","24.9946816666667","6500300","中和區"
"235013","186-VK","2017/06/13 13:59:25","新北市中和區景安路167巷15號","121.506255","24.9948316666667","6500300","中和區"
"235031","255-BX","2017/06/13 13:59:33","新北市中和區新生街158號","121.483645","25.0004033333333","6500300","中和區"
"235008","293-VK","2017/06/13 13:59:31","新北市中和區中興街131號","121.500025","24.9915466666667","6500300","中和區"
"235036","301-VK","2017/06/13 13:59:18","新北市中和區中山路二段152號","121.501593333333","25.002835","6500300","中和區"
"235007","352-BY","2017/06/13 13:59:28","新北市中和區秀朗路三段93號","121.526516666667","24.9954416666667","6500300","中和區"
"235015","376-QA","2017/06/13 13:59:20","新北市中和區忠孝街19巷14號","121.5101","24.9832783333333","6500300","中和區"
"235032","377-QA","2017/06/13 13:59:25","新北市中和區圓通路208號","121.49603","24.9939366666667","6500300","中和區"
"235025","378-QA","2017/06/13 13:59:26","新北市中和區民享街57號","121.474118333333","25.0024583333333","6500300","中和區"
"235014","4979-A6","2017/06/13 13:59:18","新北市中和區南山路417號","121.507333333333","24.9895383333333","6500300","中和區"
"235033","4980-A6","2017/06/13 13:59:30","新北市中和區景平路624號","121.500555","24.99746","6500300","中和區"
"235006","551-UM","2017/06/13 13:59:31","新北市永和區成功路二段195號","121.526563333333","24.996345","6500300","中和區"
"235034","558-UM","2017/06/13 13:59:29","新北市中和區中和路171號","121.50312","24.999865","6500300","中和區"
"235009","565-BX","2017/06/13 13:59:25","新北市中和區景新街461號","121.51326","24.988245","6500300","中和區"
"235018","640-BX","2017/06/13 13:59:30","新北市中和區民享街29-1號","121.474036666667","25.004255","6500300","中和區"
"235024","647-TV","2017/06/13 13:59:29","新北市中和區民治街9巷2號","121.475143333333","25.0044866666667","6500300","中和區"
"235011","732-UM","2017/06/13 13:59:35","新北市中和區興南路二段74巷1號","121.505266666667","24.9850916666667","6500300","中和區"
"235010","733-UM","2017/06/13 13:59:36","新北市中和區興南路一段135巷22弄18號","121.508883333333","24.98659","6500300","中和區"
"235035","783-BX","2017/06/13 13:59:32","新北市中和區立德街23號","121.488473333333","25.0073366666667","6500300","中和區"
"235026","800-TS","2017/06/13 13:59:24","新北市中和區中山路二段340巷27號","121.493345","25.0034716666667","6500300","中和區"
"235021","801-TS","2017/06/13 13:59:20","新北市中和區民利街14巷5弄20號","121.479783333333","24.99936","6500300","中和區"
"235016","805-TS","2017/06/13 13:59:18","新北市中和區興南路二段131-10號","121.504063333333","24.9808033333333","6500300","中和區"
"235012","896-TW","2017/06/13 13:59:15","新北市中和區華新街57號","121.507923333333","24.9843133333333","6500300","中和區"
"235017","900-TW","2017/06/13 13:59:32","新北市中和區民德路306號","121.46738","24.9952083333333","6500300","中和區"
"235005","157-BY","2017/06/13 13:59:34","新北市中和區新興街17巷2號","121.512438333333","25.0025233333333","6500300","中和區"
"235001","AAC-213","2017/06/13 13:59:31","新北市中和區自立路187-1號","121.523871666667","24.9914083333333","6500300","中和區"
"235023","AAC-215","2017/06/13 13:59:20","新北市中和區圓通路367巷20弄21號","121.491531666667","24.9884066666667","6500300","中和區"
"220016","013-TV","2017/06/13 13:59:24","新北市板橋區中山路二段443巷2號","121.48101","25.0205016666667","6500100","板橋區"
"220013","072-UY","2017/06/13 13:59:28","新北市板橋區民族路247巷9弄6號","121.471226666667","25.008005","6500100","板橋區"
"220034","073-UY","2017/06/13 13:59:35","新北市板橋區中正路80巷15號","121.457388333333","25.0146416666667","6500100","板橋區"
"220105","075-UY","2017/06/13 13:59:21","新北市板橋區文化路二段124巷22號","121.471088333333","25.025715","6500100","板橋區"
"220045","120-SR","2017/06/13 13:59:36","新北市板橋區莒光路74號","121.471438333333","25.02415","6500100","板橋區"
"247019","893-R6","2017/06/13 13:59:14","新北市蘆洲區民族路422巷82弄1號","121.473628333333","25.094075","6501400","蘆洲區"
"247009","546-UM","2017/06/13 13:59:20","新北市蘆洲區集賢路222-6號","121.482451666667","25.0866333333333","6501400","蘆洲區"
"247017","500-BY","2017/06/13 13:59:30","新北市蘆洲區民族路327巷112弄1號","121.475195","25.0898483333333","6501400","蘆洲區"
"247002","402-BY","2017/06/13 13:59:22","新北市蘆洲區集賢路224巷2號","121.482295","25.0867833333333","6501400","蘆洲區"
"247005","341-TH","2017/06/13 13:59:35","新北市蘆洲區永安南路二段50號","121.465971666667","25.0776683333333","6501400","蘆洲區"
"247008","339-TH","2017/06/13 13:59:31","新北市三重區三和路四段396巷40號","121.479498333333","25.078755","6501400","蘆洲區"
"247023","337-TH","2017/06/13 13:59:27","新北市蘆洲區光榮路120巷9號","121.46521","25.088785","6501400","蘆洲區"
"247001","336-TH","2017/06/13 13:59:24","新北市蘆洲區三民路603號","121.460663333333","25.09362","6501400","蘆洲區"
"247013","057-VK","2017/06/13 13:59:30","新北市蘆洲區保和街50-1號","121.469523333333","25.08617","6501400","蘆洲區"
"247003","056-VK","2017/06/13 13:59:22","新北市蘆洲區長榮路50號","121.46283","25.0832783333333","6501400","蘆洲區"
"247011","007-UY","2017/06/13 13:59:22","新北市蘆洲區民族路87號","121.479456666667","25.0861333333333","6501400","蘆洲區"
"247021","002-UY","2017/06/13 13:59:17","新北市蘆洲區中正路263巷2號","121.467336666667","25.0873566666667","6501400","蘆洲區"
"247015","001-UY","2017/06/13 13:59:22","新北市蘆洲區光華路20號","121.46952","25.0833816666667","6501400","蘆洲區"
"223002","198-BX","2017/06/13 09:45:17","新北市石碇區小粗坑(潭邊里)9-2號","121.678681666667","24.9857566666667","6501900","石碇區"
"228005","097-TW","2017/06/13 13:55:49","新北市貢寮區美豐里雞母嶺街52號","121.889768333333","25.0679516666667","6502600","貢寮區"
"228004","212-TW","2017/06/13 13:59:29","新北市貢寮區龍崗里嵩陽街35-1號","121.906728333333","25.01759","6502600","貢寮區"
"227009","400-TW","2017/06/13 12:08:10","新北市雙溪區三貂里政光路3-1號","121.850921666667","25.06305","6502500","雙溪區"
"208004","AAC-292","2017/06/13 13:59:30","新北市金山區重和里六股林口75號","121.601323333333","25.2168616666667","6502700","金山區"
"207002","749-BX","2017/06/13 13:59:28","新北市萬里區溪底里溪底路9-1號","121.620336666667","25.1489566666667","6502800","萬里區"
"207001","463-BY","2017/06/13 13:59:23","新北市萬里區磺潭里磺溪12-1號","121.63224","25.2025533333333","6502800","萬里區"
"252005","073-UM","2017/06/13 13:58:06","新北市三芝區圓山里二坪頂47號","121.539531666667","25.2441516666667","6502100","三芝區"
"252007","AAC-283","2017/06/13 10:38:43","新北市三芝區埔坪里埔頭坑41號","121.50399","25.265345","6502100","三芝區"
"236065","105-UM","2017/06/13 13:59:33","新北市土城區中華路二段2號","121.43938","24.9796166666667","6501300","土城區"
"236041","107-UM","2017/06/13 13:59:34","新北市土城區裕生路64號","121.447608333333","24.9862116666667","6501300","土城區"
"236075","166-UM","2017/06/13 13:59:31","新北市土城區永寧路32巷10弄1號","121.428908333333","24.9609783333333","6501300","土城區"
"236025","269-VK","2017/06/13 13:59:33","新北市土城區承天路67號","121.43952","24.9635666666667","6501300","土城區"
"236013","270-VK","2017/06/13 13:59:29","新北市土城區員福街62號","121.440133333333","24.9793116666667","6501300","土城區"
"236034","271-VK","2017/06/13 13:59:19","新北市土城區中華路一段301號","121.439748333333","24.979425","6501300","土城區"
"236017","401-BY","2017/06/13 13:59:29","新北市土城區城林路6巷80號","121.438585","24.97981","6501300","土城區"
"236006","498-BY","2017/06/13 13:59:31","新北市土城區中央路一段96號","121.447031666667","24.9886316666667","6501300","土城區"
"236029","752-BX","2017/06/13 13:59:20","新北市土城區城林路6巷80號","121.438716666667","24.9796366666667","6501300","土城區"
"236057","912-UM","2017/06/13 13:59:14","新北市土城區永寧路1號","121.430585","24.9646966666667","6501300","土城區"
"236045","913-UM","2017/06/13 13:59:24","新北市土城區城林路6巷80號","121.438328333333","24.979815","6501300","土城區"
"236061","915-UM","2017/06/13 13:59:23","新北市土城區城林路6巷80號","121.438435","24.9798466666667","6501300","土城區"
"236054","AAC-216","2017/06/13 13:59:28","新北市土城區城林路6巷80號","121.438115","24.979665","6501300","土城區"
"239007","AAC-297","2017/06/13 11:27:01","新北市鶯歌區二甲路13-16號","121.34497","24.9353233333333","6500800","鶯歌區"
"221002","753-BX","2017/06/13 13:59:16","新北市汐止區汐萬路一段191號","121.652425","25.0716966666667","6501100","汐止區"
"220027","145-BY","2017/06/13 13:59:33","新北市板橋區民權路202巷12弄1號","121.460646666667","25.0157033333333","6500100","板橋區"
"220030","610-BX","2017/06/13 13:59:22","新北市板橋區篤行路三段77號","121.427055","24.9853033333333","6500100","板橋區"
"220050","245-BX","2017/06/13 13:59:19","新北市板橋區文化路二段16-2號","121.468788333333","25.0243766666667","6500100","板橋區"
"220039","257-TC","2017/06/13 13:59:25","新北市板橋區四維路177巷1弄2號","121.464035","25.0262116666667","6500100","板橋區"
"220017","258-TC","2017/06/13 13:59:26","新北市板橋區大華街20號","121.458913333333","25.00615","6500100","板橋區"
"220020","277-BY","2017/06/13 13:59:13","新北市板橋區大觀路三段36巷5-2號","121.433326666667","24.995875","6500100","板橋區"
"220012","280-UM","2017/06/13 13:59:18","新北市板橋區中山路一段273號","121.469038333333","25.0135416666667","6500100","板橋區"
"220043","283-UM","2017/06/13 13:59:17","新北市板橋區文化路二段76號","121.469426666667","25.0250516666667","6500100","板橋區"
"220019","283-VK","2017/06/13 13:59:18","新北市板橋區忠孝路176巷21號","121.465126666667","25.0017433333333","6500100","板橋區"
"220040","285-UM","2017/06/13 13:59:30","新北市板橋區莒光路165巷28號","121.474121666667","25.0247116666667","6500100","板橋區"
"220001","285-VK","2017/06/13 13:59:35","新北市板橋區中山路二段89巷66號","121.473671666667","25.0176466666667","6500100","板橋區"
"220031","286-VK","2017/06/13 13:59:33","新北市板橋區大觀路一段38巷156弄36-1號","121.442631666667","25.00583","6500100","板橋區"
"220029","287-VK","2017/06/13 13:59:24","新北市板橋區光華街15巷1號","121.454008333333","25.011835","6500100","板橋區"
"220009","293-UM","2017/06/13 13:59:33","新北市板橋區富山街102號","121.476183333333","25.0219333333333","6500100","板橋區"
"220032","296-UM","2017/06/13 13:59:33","新北市板橋區龍興街63巷7號","121.442668333333","25.0012883333333","6500100","板橋區"
"220023","297-UM","2017/06/13 13:59:18","新北市板橋區館前西路213巷27號","121.454188333333","25.0078483333333","6500100","板橋區"
"220046","299-UM","2017/06/13 13:59:18","新北市板橋區陽明街162號","121.463403333333","25.0244533333333","6500100","板橋區"
"220004","303-R5","2017/06/13 13:59:28","新北市板橋區信義路161號","121.458523333333","24.9924016666667","6500100","板橋區"
"220010","305-R5","2017/06/13 13:59:25","新北市板橋區三民路二段245巷4弄2號","121.480956666667","25.0121883333333","6500100","板橋區"
"220041","307-R5","2017/06/13 13:59:34","新北市板橋區文化路一段98-2號","121.464743333333","25.0177616666667","6500100","板橋區"
"220047","317-R6","2017/06/13 13:59:33","新北市板橋區民有街18號","121.466221666667","25.0249866666667","6500100","板橋區"
"220028","461-BY","2017/06/13 13:59:31","新北市板橋區大觀路二段文和巷92號","121.444728333333","24.9981316666667","6500100","板橋區"
"220038","487-VK","2017/06/13 13:59:31","新北市板橋區文化路二段315號","121.472203333333","25.0296866666667","6500100","板橋區"
"220037","491-VK","2017/06/13 13:58:10","新北市板橋區民生路二段234巷9號","121.46852","25.0229033333333","6500100","板橋區"
"220104","560-BX","2017/06/13 13:59:36","新北市板橋區中正路325巷8號","121.45443","25.0198416666667","6500100","板橋區"
"220052","561-BX","2017/06/13 13:59:27","新北市板橋區縣民大道二段279號","121.470075","25.0178283333333","6500100","板橋區"
"220011","609-BX","2017/06/13 13:59:30","新北市板橋區中山路二段125號","121.475025","25.0163583333333","6500100","板橋區"
"220005","686-BX","2017/06/13 13:59:36","新北市板橋區館前西路4-1號","121.45912","25.0070633333333","6500100","板橋區"
"220025","687-BX","2017/06/13 13:59:22","新北市板橋區大觀路二段174巷149號","121.44149","25.0026816666667","6500100","板橋區"
"220002","741-BX","2017/06/13 13:59:21","新北市板橋區後埔街24號","121.460473333333","25.0063933333333","6500100","板橋區"
"220003","827-TW","2017/06/13 13:59:29","新北市板橋區民安街18號","121.466868333333","25.01157","6500100","板橋區"
"220014","829-TW","2017/06/13 13:59:30","新北市板橋區三民路二段正隆巷12弄24號","121.477378333333","25.01383","6500100","板橋區"
"220051","830-TW","2017/06/13 13:59:30","新北市板橋區萬板路706號","121.481586666667","25.0274833333333","6500100","板橋區"
"220022","895-R6","2017/06/13 13:59:24","新北市板橋區南雅東路120號","121.453325","25.0084116666667","6500100","板橋區"
"220021","985-R7","2017/06/13 13:59:14","新北市板橋區館前西路154號","121.455263333333","25.0084933333333","6500100","板橋區"
"220018","AAC-253","2017/06/13 13:59:17","新北市板橋區四川路一段75號","121.459708333333","25.0058483333333","6500100","板橋區"
