"lineid","car","time","location","longitude","latitude","cityid","cityname"
"234028","746-BX","2017/06/13 14:39:28","新北市五股區中興路三段5號","121.44958","25.07923","6500400","永和區"
"234040","862-TW","2017/06/13 14:39:20","新北市中和區永和路356巷67-2號","121.48712","25.0154216666667","6500400","永和區"
"234025","9371-KE","2017/06/13 14:39:24","新北市永和區中和路499號","121.510598333333","25.00234","6500400","永和區"
"248017","225-UY","2017/06/13 14:27:48","新北市五股區外寮路6-1號","121.425181666667","25.0752066666667","6501500","五股區"
"234022","9380-KE","2017/06/13 14:32:45","新北市永和區保生路55-1號","121.504465","25.0109","6500400","永和區"
"234066","AAC-212","2017/06/13 14:39:19","新北市永和區保平路268巷14號","121.507956666667","25.0060116666667","6500400","永和區"
"244002","248-BX","2017/06/13 14:39:30","新北市林口區竹林路265號","121.389623333333","25.08069","6501700","林口區"
"231002","002-UM","2017/06/13 14:39:34","新北市新店區中正路460號","121.534025","24.97939","6500600","新店區"
"231025","0291-UT","2017/06/13 14:39:21","新北市新店區民族路163號","121.53764","24.9766833333333","6500600","新店區"
"231028","046-UY","2017/06/13 14:39:34","新北市新店區安德街60巷26號","121.511271666667","24.963705","6500600","新店區"
"231030","047-UY","2017/06/13 14:39:23","新北市新店區安民街252號","121.517648333333","24.9732066666667","6500600","新店區"
"231018","107-UY","2017/06/13 14:39:15","新北市新店區中央二街14號","121.528961666667","24.9732416666667","6500600","新店區"
"231012","108-UY","2017/06/13 14:39:23","新北市新店區寶橋路78巷1-1號","121.5468","24.97513","6500600","新店區"
"231020","187-VK","2017/06/13 14:39:27","新北市新店區新烏路三段69號","121.554453333333","24.903655","6500600","新店區"
"231034","268-BY","2017/06/13 14:39:26","新北市新店區黎明路52巷1號","121.502256666667","24.94873","6500600","新店區"
"231015","AAD-862","2017/06/13 14:39:13","新北市新店區北宜路三段221號","121.592366666667","24.9532666666667","6500600","新店區"
"231029","355-BY","2017/06/13 14:39:17","新北市新店區安康路三段263號","121.486646666667","24.95186","6500600","新店區"
"231027","3712-VJ","2017/06/13 14:39:19","新北市新店區中正路76巷11弄11號","121.543961666667","24.971345","6500600","新店區"
"231024","3713-VJ","2017/06/13 14:39:27","新北市新店區力行路42號","121.538878333333","24.9651366666667","6500600","新店區"
"231038","4715-K9","2017/06/13 14:39:30","新北市新店區溪洲路182號","121.528748333333","24.9658466666667","6500600","新店區"
"231036","512-UM","2017/06/13 14:39:22","新北市新店區安祥路106巷36號","121.47739","24.9619083333333","6500600","新店區"
"231023","513-UM","2017/06/13 14:39:30","新北市新店區檳榔路45號","121.543166666667","24.96302","6500600","新店區"
"231035","515-UM","2017/06/13 14:39:26","新北市新店區安民街3巷1號","121.514593333333","24.9642283333333","6500600","新店區"
"231006","617-UM","2017/06/13 14:39:31","新北市新店區北宜路二段82-10號","121.554415","24.9534733333333","6500600","新店區"
"231001","619-UM","2017/06/13 14:39:18","新北市新店區中正路74號","121.543945","24.970145","6500600","新店區"
"231003","641-BX","2017/06/13 14:39:16","新北市新店區中興路二段192號","121.548346666667","24.9733716666667","6500600","新店區"
"231013","719-UM","2017/06/13 14:39:32","新北市新店區明德路25號","121.541936666667","24.9771433333333","6500600","新店區"
"231005","897-TW","2017/06/13 14:39:21","新北市新店區復興路107號","121.534348333333","24.98796","6500600","新店區"
"231004","899-TW","2017/06/13 14:39:25","新北市新店區中正路263-1號","121.538516666667","24.9737766666667","6500600","新店區"
"231037","AKT-0513","2017/06/13 14:39:26","新北市新店區車子路57號","121.503951666667","24.9515566666667","6500600","新店區"
"235030","003-UY","2017/06/13 14:39:20","新北市中和區景新街107號","121.5057","24.9976733333333","6500300","中和區"
"235028","005-UY","2017/06/13 14:39:26","新北市中和區南山路127巷35號","121.503813333333","24.9975866666667","6500300","中和區"
"235027","006-UY","2017/06/13 14:39:26","新北市中和區連城路237-1號","121.493868333333","24.9974516666667","6500300","中和區"
"235020","096-UM","2017/06/13 14:39:28","新北市中和區員山路514巷2號","121.479351666667","25.0095716666667","6500300","中和區"
"235003","097-UM","2017/06/13 14:39:22","新北市中和區景德街1號","121.519146666667","24.9913533333333","6500300","中和區"
"235029","098-UM","2017/06/13 14:39:21","新北市中和區福祥路90巷5號","121.499561666667","25.00585","6500300","中和區"
"235004","150-BY","2017/06/13 14:39:31","新北市中和區安平路38號","121.509975","24.99493","6500300","中和區"
"235022","151-BY","2017/06/13 14:39:25","新北市中和區員山路124巷4號","121.481606666667","24.9959333333333","6500300","中和區"
"235019","183-VK","2017/06/13 14:39:36","新北市中和區民生街12巷2號","121.470735","25.0056166666667","6500300","中和區"
"235002","185-VK","2017/06/13 14:39:33","新北市中和區立人街15號","121.521516666667","24.9940666666667","6500300","中和區"
"235013","186-VK","2017/06/13 14:39:25","新北市中和區景新街273巷18號","121.51026","24.9939033333333","6500300","中和區"
"235031","255-BX","2017/06/13 14:39:33","新北市中和區新生街186巷1弄2號","121.483276666667","24.9996333333333","6500300","中和區"
"235008","293-VK","2017/06/13 14:39:26","新北市中和區景安路192號","121.504366666667","24.991735","6500300","中和區"
"235036","301-VK","2017/06/13 14:39:18","新北市中和區廣福路81號","121.502346666667","25.00108","6500300","中和區"
"235007","352-BY","2017/06/13 14:39:28","新北市中和區景平路480號","121.505111666667","24.9936166666667","6500300","中和區"
"235015","376-QA","2017/06/13 14:39:20","新北市中和區中興街180巷52弄3號","121.498515","24.9883666666667","6500300","中和區"
"235032","377-QA","2017/06/13 14:39:25","新北市中和區中山路二段136巷3弄8-2號","121.50137","25.0038783333333","6500300","中和區"
"235025","378-QA","2017/06/13 14:39:26","新北市中和區民樂路10號","121.482126666667","25.001135","6500300","中和區"
"235033","4980-A6","2017/06/13 14:39:30","新北市中和區員山路36巷16-2號","121.485435","24.991485","6500300","中和區"
"235006","551-UM","2017/06/13 14:39:31","新北市中和區保健路2巷6號","121.507606666667","24.99821","6500300","中和區"
"235034","558-UM","2017/06/13 14:39:09","新北市中和區景平路581號","121.49761","25.0001416666667","6500300","中和區"
"235009","565-BX","2017/06/13 14:39:25","新北市中和區景新街416號","121.512953333333","24.9890233333333","6500300","中和區"
"235018","640-BX","2017/06/13 14:39:30","新北市中和區國光街112巷20弄5號","121.470601666667","25.001835","6500300","中和區"
"235024","647-TV","2017/06/13 14:39:29","新北市中和區中山路二段523巷7號","121.481743333333","25.0042583333333","6500300","中和區"
"235011","732-UM","2017/06/13 14:38:34","新北市中和區南山路152號","121.50416","24.9920183333333","6500300","中和區"
"235010","733-UM","2017/06/13 14:39:16","新北市中和區忠孝街57號","121.511628333333","24.9845466666667","6500300","中和區"
"235035","783-BX","2017/06/13 14:39:31","新北市中和區建一路243號","121.488183333333","24.9972516666667","6500300","中和區"
"235026","800-TS","2017/06/13 14:39:24","新北市中和區中山路二段526巷29號","121.485773333333","25.0058616666667","6500300","中和區"
"235021","801-TS","2017/06/13 14:39:23","新北市中和區員山路376號","121.48073","25.0041933333333","6500300","中和區"
"235016","805-TS","2017/06/13 14:39:18","新北市中和區華新街143巷63弄2號","121.506423333333","24.9792316666667","6500300","中和區"
"235012","896-TW","2017/06/13 14:39:15","新北市中和區景新街493號","121.513863333333","24.9871016666667","6500300","中和區"
"235017","900-TW","2017/06/13 14:39:20","新北市中和區民德路197-2號","121.468905","24.9987783333333","6500300","中和區"
"235001","AAC-213","2017/06/13 14:39:31","新北市中和區秀朗路三段50巷10弄1號","121.524453333333","24.9951216666667","6500300","中和區"
"235023","AAC-215","2017/06/13 14:39:20","新北市中和區圓通路305巷5弄20號","121.49412","24.9898933333333","6500300","中和區"
"220016","013-TV","2017/06/13 14:39:32","新北市板橋區中山路二段412巷29弄30號","121.484875","25.0199466666667","6500100","板橋區"
"220013","072-UY","2017/06/13 14:39:19","新北市板橋區國泰街106號","121.466591666667","25.0064716666667","6500100","板橋區"
"220034","073-UY","2017/06/13 14:39:34","新北市板橋區國光路189-3號","121.46123","25.0185833333333","6500100","板橋區"
"220105","075-UY","2017/06/13 14:39:21","新北市板橋區文化路二段319號","121.472085","25.0300766666667","6500100","板橋區"
"220045","120-SR","2017/06/13 14:39:27","新北市板橋區民生路二段226巷15號","121.470535","25.0219983333333","6500100","板橋區"
"247009","546-UM","2017/06/13 14:39:20","新北市蘆洲區信義路222巷59號","121.481183333333","25.0853666666667","6501400","蘆洲區"
"247017","500-BY","2017/06/13 14:39:30","新北市蘆洲區民族路494號","121.46984","25.0905233333333","6501400","蘆洲區"
"247002","402-BY","2017/06/13 14:39:22","新北市蘆洲區復興路58號","121.473708333333","25.08615","6501400","蘆洲區"
"247005","341-TH","2017/06/13 14:39:16","新北市蘆洲區中華街40號","121.462408333333","25.0809933333333","6501400","蘆洲區"
"247008","339-TH","2017/06/13 14:39:31","新北市蘆洲區中山一路283號","121.47216","25.0795966666667","6501400","蘆洲區"
"247023","337-TH","2017/06/13 14:39:27","新北市蘆洲區中山二路222巷20號","121.469373333333","25.0804366666667","6501400","蘆洲區"
"247001","336-TH","2017/06/13 14:39:23","新北市蘆洲區長安街377號","121.457201666667","25.0878833333333","6501400","蘆洲區"
"247013","057-VK","2017/06/13 14:39:30","新北市蘆洲區中央路28號","121.473533333333","25.08286","6501400","蘆洲區"
"247003","056-VK","2017/06/13 14:39:22","新北市蘆洲區長安街295號","121.458165","25.0846533333333","6501400","蘆洲區"
"247015","001-UY","2017/06/13 14:39:22","新北市蘆洲區和平路172號","121.466513333333","25.0813016666667","6501400","蘆洲區"
"223002","198-BX","2017/06/13 09:45:17","新北市石碇區小粗坑(潭邊里)9-2號","121.678681666667","24.9857566666667","6501900","石碇區"
"228005","097-TW","2017/06/13 14:39:30","新北市貢寮區美豐里雞母嶺街6-6號","121.902115","25.0641933333333","6502600","貢寮區"
"228004","212-TW","2017/06/13 14:39:32","新北市貢寮區福隆里龜壽谷街38號","121.946635","25.0144416666667","6502600","貢寮區"
"227009","400-TW","2017/06/13 14:39:20","新北市雙溪區三貂里政光路3-1號","121.850933333333","25.0631116666667","6502500","雙溪區"
"208004","AAC-292","2017/06/13 14:39:33","新北市金山區重和里六股林口38-1號","121.603235","25.2187416666667","6502700","金山區"
"207002","749-BX","2017/06/13 14:39:28","新北市萬里區崁腳里崁腳路106-4號","121.645991666667","25.1587233333333","6502800","萬里區"
"207001","463-BY","2017/06/13 14:39:23","新北市萬里區雙興里豐稟路26號","121.641343333333","25.1873116666667","6502800","萬里區"
"252005","073-UM","2017/06/13 14:39:26","新北市三芝區茂長里陳厝坑12-2號","121.515143333333","25.2553483333333","6502100","三芝區"
"252007","AAC-283","2017/06/13 10:38:43","新北市三芝區埔坪里埔頭坑41號","121.50399","25.265345","6502100","三芝區"
"236065","105-UM","2017/06/13 14:39:33","新北市土城區永豐路255巷12號","121.475423333333","24.9730733333333","6501300","土城區"
"236041","107-UM","2017/06/13 14:39:15","新北市土城區裕民路55巷10號","121.449361666667","24.9882933333333","6501300","土城區"
"236075","166-UM","2017/06/13 14:39:31","新北市土城區中央路四段52巷48號","121.418648333333","24.960195","6501300","土城區"
"236025","269-VK","2017/06/13 14:39:33","新北市土城區忠義路47-1號","121.440816666667","24.9695183333333","6501300","土城區"
"236013","270-VK","2017/06/13 14:39:29","新北市土城區清水路222號","121.46082","24.9822916666667","6501300","土城區"
"236034","271-VK","2017/06/13 14:39:23","新北市土城區明德路一段313巷9號","121.459805","24.97588","6501300","土城區"
"236017","401-BY","2017/06/13 14:39:29","新北市土城區延吉街327-1號","121.465466666667","24.9842316666667","6501300","土城區"
"236029","752-BX","2017/06/13 14:39:20","新北市土城區福仁街79號","121.439295","24.9741116666667","6501300","土城區"
"236057","912-UM","2017/06/13 14:39:15","新北市土城區中央路四段20號","121.4211","24.9609366666667","6501300","土城區"
"236045","913-UM","2017/06/13 14:39:24","新北市土城區明德路一段61號","121.465308333333","24.98446","6501300","土城區"
"236061","915-UM","2017/06/13 14:39:23","新北市土城區延壽路13巷18號","121.4706","24.9908466666667","6501300","土城區"
"236054","AAC-216","2017/06/13 14:39:28","新北市土城區中華路一段119號","121.44445","24.98683","6501300","土城區"
"239007","AAC-297","2017/06/13 11:27:01","新北市鶯歌區二甲路13-16號","121.34497","24.9353233333333","6500800","鶯歌區"
"221032","280-BY","2017/06/13 14:38:02","新北市深坑區北深路三段286巷39號","121.596343333333","25.0071116666667","6501100","汐止區"
"221002","753-BX","2017/06/13 14:39:16","新北市汐止區大同路二段423號","121.65872","25.0672483333333","6501100","汐止區"
"220027","145-BY","2017/06/13 14:39:33","新北市板橋區幸福路68號","121.460826666667","25.0200866666667","6500100","板橋區"
"220030","610-BX","2017/06/13 14:39:22","新北市板橋區大觀路三段131號","121.432496666667","24.9940616666667","6500100","板橋區"
"220050","245-BX","2017/06/13 14:39:19","新北市板橋區莊敬路220巷29弄2號","121.472738333333","25.02052","6500100","板橋區"
"220039","257-TC","2017/06/13 14:39:25","新北市板橋區龍泉街54巷8弄14號","121.457461666667","25.0269316666667","6500100","板橋區"
"220017","258-TC","2017/06/13 14:39:26","新北市板橋區稚暉街35號","121.457106666667","25.004095","6500100","板橋區"
"220020","277-BY","2017/06/13 14:39:33","新北市板橋區篤行路二段137號","121.429905","24.988335","6500100","板橋區"
"220012","280-UM","2017/06/13 14:39:31","新北市板橋區公園街50-3號","121.462231666667","25.0081433333333","6500100","板橋區"
"220043","283-UM","2017/06/13 14:39:17","新北市板橋區宏國路93號","121.469738333333","25.032365","6500100","板橋區"
"220019","283-VK","2017/06/13 14:39:18","新北市板橋區四川路一段325巷1弄2號","121.459243333333","25.0003166666667","6500100","板橋區"
"220040","285-UM","2017/06/13 14:39:30","新北市板橋區懷德街139巷20弄10號","121.480226666667","25.0305566666667","6500100","板橋區"
"220001","285-VK","2017/06/13 14:39:15","新北市板橋區民享街97號","121.477153333333","25.0160483333333","6500100","板橋區"
"220031","286-VK","2017/06/13 14:39:36","新北市板橋區大觀路二段174巷135-1號","121.441296666667","25.0022916666667","6500100","板橋區"
"220029","287-VK","2017/06/13 14:39:23","新北市板橋區大觀路一段29巷137弄1號","121.45019","25.0054616666667","6500100","板橋區"
"220009","293-UM","2017/06/13 14:39:33","新北市板橋區中山路一段283巷2弄12號","121.47038","25.01476","6500100","板橋區"
"220032","296-UM","2017/06/13 14:39:29","新北市板橋區滿平二街40號","121.42514","24.9877383333333","6500100","板橋區"
"220023","297-UM","2017/06/13 14:39:21","新北市板橋區中正路253巷58號","121.453538333333","25.0175033333333","6500100","板橋區"
"220046","299-UM","2017/06/13 14:39:18","新北市板橋區幸福路32巷6號","121.461581666667","25.0205733333333","6500100","板橋區"
"220004","303-R5","2017/06/13 14:39:34","新北市板橋區四川路二段47巷3弄1號","121.454215","24.9948666666667","6500100","板橋區"
"220010","305-R5","2017/06/13 14:39:25","新北市板橋區三民路二段21巷41號","121.480443333333","25.0183566666667","6500100","板橋區"
"220041","307-R5","2017/06/13 14:39:25","新北市板橋區文化路一段387巷9號","121.466486666667","25.0220316666667","6500100","板橋區"
"220047","317-R6","2017/06/13 14:39:34","新北市板橋區四維路279巷60號","121.46058","25.0275716666667","6500100","板橋區"
"220028","461-BY","2017/06/13 14:39:32","新北市板橋區大觀路二段37巷330號","121.449945","25.002405","6500100","板橋區"
"220038","487-VK","2017/06/13 14:39:31","新北市板橋區新海路135巷1號","121.46061","25.0234033333333","6500100","板橋區"
"220037","491-VK","2017/06/13 14:38:30","新北市板橋區文化路二段426號","121.474366666667","25.0320783333333","6500100","板橋區"
"220104","560-BX","2017/06/13 14:39:16","新北市板橋區金華街21巷4號","121.456178333333","25.0206983333333","6500100","板橋區"
"220052","561-BX","2017/06/13 14:39:23","新北市板橋區陽明街27巷12號","121.465483333333","25.0212716666667","6500100","板橋區"
"220011","609-BX","2017/06/13 14:39:30","新北市板橋區萬安街92號","121.483878333333","25.0240183333333","6500100","板橋區"
"220005","686-BX","2017/06/13 14:39:34","新北市板橋區國慶路49巷3號","121.459721666667","24.9958283333333","6500100","板橋區"
"220025","687-BX","2017/06/13 14:39:22","新北市板橋區僑中二街124巷2號","121.445371666667","25.00536","6500100","板橋區"
"220002","741-BX","2017/06/13 14:39:22","新北市板橋區忠孝路283號","121.467655","25.0031133333333","6500100","板橋區"
"220003","827-TW","2017/06/13 14:39:30","新北市板橋區國慶路149巷2弄2號","121.461346666667","24.9964116666667","6500100","板橋區"
"220014","829-TW","2017/06/13 14:39:30","新北市板橋區長安街210-1號","121.47456","25.0119933333333","6500100","板橋區"
"220051","830-TW","2017/06/13 14:39:30","新北市板橋區松柏街57-4號","121.475686666667","25.030405","6500100","板橋區"
"220022","895-R6","2017/06/13 14:39:24","新北市板橋區東門街1-2號","121.458018333333","25.0090483333333","6500100","板橋區"
"220021","985-R7","2017/06/13 14:39:34","新北市板橋區國光路3號","121.45639","25.01742","6500100","板橋區"
"220018","AAC-253","2017/06/13 14:39:37","新北市板橋區四川路一段78號","121.459693333333","25.0052433333333","6500100","板橋區"
