"lineid","car","time","location","longitude","latitude","cityid","cityname"
"248017","225-UY","2017/06/13 15:19:29","新北市五股區登林路79-7號","121.427396666667","25.0705016666667","6501500","五股區"
"234022","9380-KE","2017/06/13 14:32:45","新北市永和區保生路55-1號","121.504465","25.0109","6500400","永和區"
"231002","002-UM","2017/06/13 15:19:34","新北市新店區中正路700巷3號","121.533453333333","24.9917583333333","6500600","新店區"
"231025","0291-UT","2017/06/13 15:19:21","新北市新店區中正路504號","121.533743333333","24.9825966666667","6500600","新店區"
"231028","046-UY","2017/06/13 15:19:34","新北市新店區僑信路90巷46號","121.498523333333","24.94738","6500600","新店區"
"231030","047-UY","2017/06/13 15:19:23","新北市新店區安和路三段46號","121.517961666667","24.9820316666667","6500600","新店區"
"231018","107-UY","2017/06/13 15:19:35","新北市新店區中央七街57號","121.528251666667","24.97613","6500600","新店區"
"231012","108-UY","2017/06/13 15:19:31","新北市新店區北新路三段227號","121.539891666667","24.9866233333333","6500600","新店區"
"231020","187-VK","2017/06/13 15:19:27","新北市新店區永福路90號","121.561065","24.9284866666667","6500600","新店區"
"231026","256-BX","2017/06/13 15:19:20","新北市新店區中正路263巷2號","121.538481666667","24.9734983333333","6500600","新店區"
"231034","268-BY","2017/06/13 15:19:26","新北市新店區如意街2巷2號","121.49586","24.949685","6500600","新店區"
"231015","AAD-862","2017/06/13 15:19:33","新北市新店區明山路45號","121.563851666667","24.955935","6500600","新店區"
"231029","355-BY","2017/06/13 15:19:17","新北市新店區安康路三段738號","121.473843333333","24.9420316666667","6500600","新店區"
"231024","3713-VJ","2017/06/13 15:19:27","新北市新店區新明街10號","121.541056666667","24.9681983333333","6500600","新店區"
"231036","512-UM","2017/06/13 15:19:36","新北市新店區安祥路67巷26號","121.484403333333","24.95982","6500600","新店區"
"231023","513-UM","2017/06/13 15:19:26","新北市新店區中正路75巷61號","121.543266666667","24.9693383333333","6500600","新店區"
"231035","515-UM","2017/06/13 15:19:26","新北市新店區安和路三段60-1號","121.518075","24.98268","6500600","新店區"
"231001","619-UM","2017/06/13 15:19:18","新北市新店區北新路一段60號","121.541053333333","24.9665116666667","6500600","新店區"
"231003","641-BX","2017/06/13 15:19:36","新北市新店區寶高路120巷1-1號","121.554666666667","24.97596","6500600","新店區"
"231039","718-UY","2017/06/13 15:19:28","新北市新店區中興路三段324號","121.542176666667","24.9861966666667","6500600","新店區"
"231032","720-UM","2017/06/13 15:19:34","新北市新店區安泰路100號","121.48684","24.9425583333333","6500600","新店區"
"231005","897-TW","2017/06/13 15:19:34","新北市新店區建國路215號","121.537615","24.9805533333333","6500600","新店區"
"231004","899-TW","2017/06/13 15:19:25","新北市新店區博愛街13巷24號","121.540281666667","24.9740483333333","6500600","新店區"
"235030","003-UY","2017/06/13 15:19:20","新北市中和區保平路247號","121.507268333333","25.00421","6500300","中和區"
"235003","097-UM","2017/06/13 15:19:25","新北市中和區安樂路217巷11號","121.513846666667","24.9985166666667","6500300","中和區"
"235033","4980-A6","2017/06/13 15:19:30","新北市中和區連城路347巷18弄16號","121.487925","24.9948133333333","6500300","中和區"
"235034","558-UM","2017/06/13 15:19:29","新北市中和區中正路292號","121.494531666667","24.9941733333333","6500300","中和區"
"235035","783-BX","2017/06/13 15:19:31","新北市中和區立德街32號","121.48895","25.007165","6500300","中和區"
"235012","896-TW","2017/06/13 15:19:35","新北市中和區興南路一段1號","121.511613333333","24.9911833333333","6500300","中和區"
"235001","AAC-213","2017/06/13 15:19:31","新北市中和區秀朗路三段132號","121.524578333333","24.9918683333333","6500300","中和區"
"235023","AAC-215","2017/06/13 15:19:20","新北市中和區圓通路320-3號","121.48575","24.9880233333333","6500300","中和區"
"220016","013-TV","2017/06/13 15:19:18","新北市五股區五工一路114號","121.455605","25.0718233333333","6500100","板橋區"
"220013","072-UY","2017/06/13 15:19:19","新北市板橋區民生路二段15-1號","121.472808333333","25.016445","6500100","板橋區"
"220034","073-UY","2017/06/13 15:19:34","新北市樹林區中山路三段210-2號","121.380896666667","24.9661016666667","6500100","板橋區"
"247002","402-BY","2017/06/13 15:19:22","新北市蘆洲區光榮路122號","121.464563333333","25.08949","6501400","蘆洲區"
"223002","198-BX","2017/06/13 09:45:17","新北市石碇區小粗坑(潭邊里)9-2號","121.678681666667","24.9857566666667","6501900","石碇區"
"227009","400-TW","2017/06/13 14:46:55","新北市雙溪區三貂里政光路3-1號","121.85092","25.063075","6502500","雙溪區"
"208004","AAC-292","2017/06/13 15:19:29","新北市金山區六股里下六股33號","121.62148","25.221615","6502700","金山區"
"207001","463-BY","2017/06/13 15:19:23","新北市萬里區大鵬里萬里加投9號","121.652125","25.20792","6502800","萬里區"
"252005","073-UM","2017/06/13 15:19:26","新北市三芝區錫板里小坑子20號","121.498931666667","25.2352833333333","6502100","三芝區"
"252007","AAC-283","2017/06/13 10:38:43","新北市三芝區埔坪里埔頭坑41號","121.50399","25.265345","6502100","三芝區"
"236065","105-UM","2017/06/13 15:19:33","新北市土城區裕民路185巷36弄10號","121.454373333333","24.9844983333333","6501300","土城區"
"236041","107-UM","2017/06/13 15:19:34","新北市土城區學府路一段143巷37號","121.454405","24.98521","6501300","土城區"
"236075","166-UM","2017/06/13 15:19:31","新北市土城區中州路27巷81號","121.412728333333","24.9563316666667","6501300","土城區"
"236025","269-VK","2017/06/13 15:19:33","新北市土城區中央路二段125號","121.442043333333","24.9774083333333","6501300","土城區"
"236013","270-VK","2017/06/13 15:19:29","新北市土城區學府路一段23巷23號","121.457696666667","24.987065","6501300","土城區"
"236034","271-VK","2017/06/13 15:19:25","新北市土城區國際路139巷52號","121.468346666667","24.9775366666667","6501300","土城區"
"236017","401-BY","2017/06/13 15:19:29","新北市土城區峰廷街3號","121.469155","24.9874533333333","6501300","土城區"
"236029","752-BX","2017/06/13 15:19:20","新北市土城區中央路一段262巷28號","121.442848333333","24.9843433333333","6501300","土城區"
"236057","912-UM","2017/06/13 15:19:35","新北市土城區金城路一段25-1號","121.439876666667","24.9691883333333","6501300","土城區"
"236045","913-UM","2017/06/13 15:19:24","新北市土城區清水路336號","121.464241666667","24.9855266666667","6501300","土城區"
"236061","915-UM","2017/06/13 15:19:30","新北市土城區延平街33巷11號","121.467406666667","24.9916016666667","6501300","土城區"
"236054","AAC-216","2017/06/13 15:19:27","新北市土城區學府路一段237號","121.450878333333","24.9837983333333","6501300","土城區"
"239007","AAC-297","2017/06/13 11:27:01","新北市鶯歌區二甲路13-16號","121.34497","24.9353233333333","6500800","鶯歌區"
"220050","245-BX","2017/06/13 15:19:18","新北市板橋區莊敬路160號","121.471471666667","25.0227233333333","6500100","板橋區"
"220017","258-TC","2017/06/13 15:19:26","新北市板橋區貴興路69號","121.457066666667","25.0030916666667","6500100","板橋區"
"220031","286-VK","2017/06/13 15:19:16","新北市板橋區僑中二街102巷48號","121.444308333333","25.0085416666667","6500100","板橋區"
"220029","287-VK","2017/06/13 15:19:23","新北市板橋區僑中三街39號","121.445071666667","25.004665","6500100","板橋區"
"220046","299-UM","2017/06/13 15:19:38","新北市板橋區大觀路一段13號","121.450396666667","25.008515","6500100","板橋區"
"220004","303-R5","2017/06/13 15:16:24","新北市樹林區中山路三段210-2號","121.380738333333","24.9662983333333","6500100","板橋區"
"220041","307-R5","2017/06/13 15:19:25","新北市板橋區民權路182號","121.459475","25.0134316666667","6500100","板橋區"
"220038","487-VK","2017/06/13 15:19:31","新北市板橋區四維路152號","121.464923333333","25.02582","6500100","板橋區"
"220052","561-BX","2017/06/13 15:19:23","新北市板橋區文化路一段239號","121.464013333333","25.0178233333333","6500100","板橋區"
"220051","830-TW","2017/06/13 15:19:30","新北市板橋區民生路二段249-1號","121.468526666667","25.02183","6500100","板橋區"
"220022","895-R6","2017/06/13 15:19:24","新北市新莊區新泰路415-1號","121.442301666667","25.0444433333333","6500100","板橋區"
"220018","AAC-253","2017/06/13 15:19:17","新北市板橋區德興街36號","121.453471666667","24.9936883333333","6500100","板橋區"
