"lineid","car","time","location","longitude","latitude","cityid","cityname"
"234022","9380-KE","2017/06/13 14:32:45","新北市永和區保生路55-1號","121.504465","25.0109","6500400","永和區"
"231002","002-UM","2017/06/13 15:29:14","新北市新店區環河路150-8號","121.534461666667","24.96792","6500600","新店區"
"231028","046-UY","2017/06/13 15:29:14","新北市新店區僑信路25號","121.49944","24.95108","6500600","新店區"
"231030","047-UY","2017/06/13 15:29:15","新北市新店區新和街73號","121.520398333333","24.9859466666667","6500600","新店區"
"231018","107-UY","2017/06/13 15:29:15","新北市新店區中央八街88號","121.526976666667","24.9774016666667","6500600","新店區"
"231012","108-UY","2017/06/13 15:29:03","新北市新店區寶元路一段85巷6弄22號","121.544008333333","24.98577","6500600","新店區"
"231020","187-VK","2017/06/13 15:29:07","新北市新店區湖興路103-1號","121.564183333333","24.9325933333333","6500600","新店區"
"231026","256-BX","2017/06/13 15:29:20","新北市新店區三民路48號","121.535723333333","24.9718633333333","6500600","新店區"
"231034","268-BY","2017/06/13 15:29:05","新北市新店區富貴街9巷2號","121.494116666667","24.949085","6500600","新店區"
"231015","AAD-862","2017/06/13 15:29:13","新北市新店區明山路45號","121.563836666667","24.9559616666667","6500600","新店區"
"231029","355-BY","2017/06/13 15:29:17","新北市新店區安康路三段525巷50號","121.482113333333","24.94558","6500600","新店區"
"231038","4715-K9","2017/06/13 15:29:10","新北市新店區安華路1-1號","121.519495","24.9604616666667","6500600","新店區"
"231036","512-UM","2017/06/13 15:29:01","新北市新店區安祥路69巷89弄19號","121.482778333333","24.9601833333333","6500600","新店區"
"231023","513-UM","2017/06/13 15:29:06","新北市新店區北新路一段88巷1號","121.541735","24.9678383333333","6500600","新店區"
"231035","515-UM","2017/06/13 15:29:07","新北市新店區安興路92號","121.51524","24.9761233333333","6500600","新店區"
"231003","641-BX","2017/06/13 15:29:16","新北市新店區寶高路116號","121.5545","24.9760283333333","6500600","新店區"
"231039","718-UY","2017/06/13 15:29:08","新北市新店區寶元路一段74巷1號","121.544175","24.984155","6500600","新店區"
"231032","720-UM","2017/06/13 15:29:14","新北市新店區和成街16巷31號","121.488771666667","24.946865","6500600","新店區"
"231005","897-TW","2017/06/13 15:29:14","新北市新店區建國路291巷2號","121.536596666667","24.986055","6500600","新店區"
"231004","899-TW","2017/06/13 15:29:09","新北市新店區民族路201號","121.537105","24.976145","6500600","新店區"
"231037","AKT-0513","2017/06/13 15:29:06","新北市新店區安民街121巷12號","121.515466666667","24.9692066666667","6500600","新店區"
"235003","097-UM","2017/06/13 15:29:02","新北市中和區景平路404號","121.509028333333","24.993155","6500300","中和區"
"235033","4980-A6","2017/06/13 15:29:13","新北市中和區中正路799號","121.484735","25.000735","6500300","中和區"
"235035","783-BX","2017/06/13 15:29:11","新北市中和區中正路637巷52弄1號","121.485576666667","24.99409","6500300","中和區"
"235012","896-TW","2017/06/13 15:29:15","新北市中和區四維街37巷3號","121.51252","24.9867383333333","6500300","中和區"
"235001","AAC-213","2017/06/13 15:29:11","新北市中和區自立路26號","121.522501666667","24.9930066666667","6500300","中和區"
"235023","AAC-215","2017/06/13 15:29:00","新北市中和區員山路24-1號","121.484023333333","24.98535","6500300","中和區"
"220016","013-TV","2017/06/13 15:29:18","新北市八里區荖阡坑路15-66號","121.39869","25.140305","6500100","板橋區"
"220034","073-UY","2017/06/13 15:29:14","新北市樹林區中山路三段204號","121.387243333333","24.9682116666667","6500100","板橋區"
"247002","402-BY","2017/06/13 15:29:02","新北市五股區成泰路三段590-3號","121.453435","25.1057966666667","6501400","蘆洲區"
"223002","198-BX","2017/06/13 09:45:17","新北市石碇區小粗坑(潭邊里)9-2號","121.678681666667","24.9857566666667","6501900","石碇區"
"227009","400-TW","2017/06/13 14:46:55","新北市雙溪區三貂里政光路3-1號","121.85092","25.063075","6502500","雙溪區"
"208004","AAC-292","2017/06/13 15:29:10","新北市金山區南勢30-1號","121.626775","25.2190233333333","6502700","金山區"
"252005","073-UM","2017/06/13 15:29:06","新北市三芝區淡金路一段57號","121.500011666667","25.2589883333333","6502100","三芝區"
"252007","AAC-283","2017/06/13 10:38:43","新北市三芝區埔坪里埔頭坑41號","121.50399","25.265345","6502100","三芝區"
"236065","105-UM","2017/06/13 15:29:13","新北市土城區學士路377號","121.445338333333","24.9766166666667","6501300","土城區"
"236041","107-UM","2017/06/13 15:29:14","新北市土城區學府路一段164巷21號","121.453476666667","24.9874133333333","6501300","土城區"
"236075","166-UM","2017/06/13 15:29:14","新北市土城區溪頭路45號","121.412063333333","24.954945","6501300","土城區"
"236025","269-VK","2017/06/13 15:29:13","新北市土城區中央路一段343號","121.443215","24.9814366666667","6501300","土城區"
"236013","270-VK","2017/06/13 15:29:08","新北市土城區廣明街26號","121.455741666667","24.9925","6501300","土城區"
"236034","271-VK","2017/06/13 15:29:19","新北市土城區延吉街296巷14號","121.464448333333","24.9847","6501300","土城區"
"236017","401-BY","2017/06/13 15:29:09","新北市土城區峰廷街14號","121.468753333333","24.9875566666667","6501300","土城區"
"236029","752-BX","2017/06/13 15:29:20","新北市土城區日新街8巷9號","121.445435","24.9873783333333","6501300","土城區"
"236057","912-UM","2017/06/13 15:29:16","新北市土城區中央路二段63號","121.442428333333","24.9788983333333","6501300","土城區"
"236045","913-UM","2017/06/13 15:29:04","新北市土城區青雲路316號","121.458976666667","24.97786","6501300","土城區"
"236061","915-UM","2017/06/13 15:29:23","新北市土城區延和路66號","121.465853333333","24.9891366666667","6501300","土城區"
"236054","AAC-216","2017/06/13 15:29:08","新北市土城區立德路28號","121.46319","24.9876383333333","6501300","土城區"
"239007","AAC-297","2017/06/13 11:27:01","新北市鶯歌區二甲路13-16號","121.34497","24.9353233333333","6500800","鶯歌區"
"220050","245-BX","2017/06/13 15:29:18","新北市板橋區漢生東路83巷1號","121.466363333333","25.015885","6500100","板橋區"
"220031","286-VK","2017/06/13 15:29:16","新北市板橋區僑中二街108巷17號","121.445","25.00723","6500100","板橋區"
"220046","299-UM","2017/06/13 15:29:18","新北市板橋區金門街337巷9弄2-1號","121.432123333333","24.98311","6500100","板橋區"
"220038","487-VK","2017/06/13 15:29:11","新北市板橋區四維路286號","121.462951666667","25.0289883333333","6500100","板橋區"
"220052","561-BX","2017/06/13 15:29:10","新北市板橋區漢生東路23巷56弄12號","121.466298333333","25.0179583333333","6500100","板橋區"
