"lineid","car","time","location","longitude","latitude","cityid","cityname"
"234046","148-BY","2017/06/13 18:39:21","新北市永和區林森路101巷4號","121.523163333333","25.0034983333333","6500400","永和區"
"234013","149-BY","2017/06/13 18:39:20","新北市永和區保福路二段92號","121.510353333333","25.0135016666667","6500400","永和區"
"234007","207-UY","2017/06/13 18:39:16","新北市永和區仁愛路295號","121.504863333333","25.0093983333333","6500400","永和區"
"234081","298-R6","2017/06/13 18:39:22","新北市永和區林森路77號","121.523955","25.0038833333333","6500400","永和區"
"234038","336-UY","2017/06/13 18:39:18","新北市永和區福和路1號","121.526638333333","25.0101016666667","6500400","永和區"
"234064","337-UY","2017/06/13 18:39:29","新北市永和區福和路1號","121.526518333333","25.0099766666667","6500400","永和區"
"234086","338-UY","2017/06/13 18:39:33","新北市永和區永貞路189號","121.514851666667","25.003785","6500400","永和區"
"234070","552-UM","2017/06/13 18:39:15","新北市永和區豫溪街191巷3弄1號","121.523376666667","25.0104416666667","6500400","永和區"
"234017","745-BX","2017/06/13 18:39:28","新北市永和區福和路1號","121.526353333333","25.0098566666667","6500400","永和區"
"234030","746-BX","2017/06/13 18:39:27","新北市永和區秀朗路二段181巷25號","121.526713333333","25.00148","6500400","永和區"
"234061","AAD-866","2017/06/13 18:39:29","新北市永和區福和路8巷1號","121.52503","25.0090583333333","6500400","永和區"
"234042","862-TW","2017/06/13 18:39:18","新北市永和區永和路一段6號","121.512781666667","25.0046116666667","6500400","永和區"
"234050","863-TW","2017/06/13 18:39:13","新北市永和區環河東路二段90號","121.524228333333","25.0108133333333","6500400","永和區"
"234026","9371-KE","2017/06/13 18:39:29","新北市永和區自由街54號","121.513691666667","25.0059783333333","6500400","永和區"
"234011","9373-KE","2017/06/13 18:39:22","新北市永和區文化路9巷22弄44號","121.514135","25.0145783333333","6500400","永和區"
"249005","172-UM","2017/06/13 18:39:27","新北市八里區中華路三段34-2號","121.388736666667","25.125455","6502300","八里區"
"249001","173-UM","2017/06/13 18:39:27","新北市八里區龍米路一段219號","121.45144","25.1317683333333","6502300","八里區"
"249004","303-UY","2017/06/13 18:39:19","新北市八里區觀海大道37號","121.429705","25.1610666666667","6502300","八里區"
"249002","305-UY","2017/06/13 18:39:24","新北市八里區龍形一街33巷6-2號","121.449265","25.1294566666667","6502300","八里區"
"248014","025-BX","2017/06/13 18:39:30","新北市五股區明德路7巷27號","121.434865","25.0708033333333","6501500","五股區"
"248008","095-VK","2017/06/13 18:39:25","新北市五股區中興路一段154號","121.464556666667","25.0740683333333","6501500","五股區"
"248020","225-UY","2017/06/13 18:35:26","新北市五股區孝義路73-1號","121.445428333333","25.1195716666667","6501500","五股區"
"248012","247-BX","2017/06/13 18:36:24","新北市五股區御史路92巷2弄2號","121.440128333333","25.0955483333333","6501500","五股區"
"248016","261-SL","2017/06/13 18:39:16","新北市五股區凌雲路一段149號","121.44923","25.1024","6501500","五股區"
"248010","272-BY","2017/06/13 18:39:30","新北市五股區水碓七路168號","121.430898333333","25.0740583333333","6501500","五股區"
"248004","677-BX","2017/06/13 18:39:30","新北市五股區民義路一段242號","121.426666666667","25.0919183333333","6501500","五股區"
"248002","678-BX","2017/06/13 18:39:31","新北市五股區西雲路207號","121.448583333333","25.0966166666667","6501500","五股區"
"234023","9380-KE","2017/06/13 18:39:28","新北市永和區福和路76巷5弄14號","121.522361666667","25.0084116666667","6500400","永和區"
"234077","969-R7","2017/06/13 18:39:29","新北市永和區中正路226號","121.515918333333","24.9976566666667","6500400","永和區"
"234074","AAC-211","2017/06/13 18:39:22","新北市永和區福和路1號","121.526521666667","25.0100333333333","6500400","永和區"
"234067","AAC-212","2017/06/13 18:39:18","新北市永和區永貞路176號","121.51655","25.00435","6500400","永和區"
"232011","375-UM","2017/06/13 18:20:17","新北市坪林區坪雙路一段43號","121.711825","24.94252","6502000","坪林區"
"244013","069-UM","2017/06/13 18:39:19","新北市林口區文化一路二段194號","121.382848333333","25.0803583333333","6501700","林口區"
"244007","080-UY","2017/06/13 18:39:17","新北市林口區後湖40-2號","121.386475","25.09982","6501700","林口區"
"244019","403-UM","2017/06/13 18:39:17","新北市林口區忠孝路581巷8號","121.37504","25.069","6501700","林口區"
"244023","483-VK","2017/06/13 18:39:16","新北市林口區信義路128號","121.380448333333","25.0794833333333","6501700","林口區"
"244017","485-VK","2017/06/13 18:39:24","新北市林口區文化二路一段68巷2號","121.366138333333","25.0687383333333","6501700","林口區"
"244009","656-BX","2017/06/13 18:39:12","新北市林口區民生路139號","121.377935","25.088285","6501700","林口區"
"244011","701-TV","2017/06/13 18:39:21","新北市林口區興林路17巷3弄2號","121.390228333333","25.0769683333333","6501700","林口區"
"244025","837-TS","2017/06/13 18:39:23","新北市林口區過崙街88號","121.356061666667","25.0742566666667","6501700","林口區"
"244021","838-TS","2017/06/13 18:39:20","新北市林口區自強二街23號","121.398381666667","25.07793","6501700","林口區"
"243013","AAD-798","2017/06/13 18:39:17","新北市泰山區明志路三段206巷3號","121.423306666667","25.0379733333333","6501600","泰山區"
"243015","380-SR","2017/06/13 18:34:39","新北市泰山區犁頭窠3-1號","121.422271666667","25.0604783333333","6501600","泰山區"
"243016","680-BX","2017/06/13 18:39:19","新北市泰山區泰林路二段482號","121.424745","25.0640333333333","6501600","泰山區"
"222003","436-BY","2017/06/13 18:39:20","新北市深坑區翠谷街81巷10號","121.627993333333","25.00933","6501800","深坑區"
"222002","659-BX","2017/06/13 18:39:12","新北市深坑區雲鄉路2號","121.620936666667","24.99966","6501800","深坑區"
"222001","696-SL","2017/06/13 18:39:21","新北市深坑區北深路一段100號","121.6357","25.01073","6501800","深坑區"
"231041","002-UM","2017/06/13 18:39:19","新北市新店區安華路28-1號","121.519816666667","24.9607833333333","6500600","新店區"
"231056","0291-UT","2017/06/13 18:39:18","新北市新店區自立街80號","121.537316666667","24.97981","6500600","新店區"
"231059","046-UY","2017/06/13 18:39:15","新北市新店區安華路28-1號","121.519565","24.96064","6500600","新店區"
"231061","047-UY","2017/06/13 18:39:16","新北市新店區安華路28-1號","121.519088333333","24.9608383333333","6500600","新店區"
"231051","107-UY","2017/06/13 18:39:29","新北市新店區安康路一段355-10號","121.520736666667","24.9638483333333","6500600","新店區"
"231048","108-UY","2017/06/13 18:39:14","新北市新店區環河路1-1號","121.53792","24.9615116666667","6500600","新店區"
"231053","187-VK","2017/06/13 18:39:27","新北市新店區新烏路一段107號","121.54572","24.9404383333333","6500600","新店區"
"231057","256-BX","2017/06/13 18:39:13","新北市新店區花園一路四段43號","121.551001666667","24.9320116666667","6500600","新店區"
"231063","268-BY","2017/06/13 18:39:31","新北市新店區安華路1-1號","121.519361666667","24.9605116666667","6500600","新店區"
"231046","278-BY","2017/06/13 18:39:19","新北市新店區直潭二街1號","121.535553333333","24.9432366666667","6500600","新店區"
"231050","AAD-862","2017/06/13 18:39:24","新北市新店區安華路28-1號","121.519843333333","24.9611916666667","6500600","新店區"
"231060","355-BY","2017/06/13 18:39:25","新北市新店區安華路28-1號","121.519023333333","24.960975","6500600","新店區"
"231058","3712-VJ","2017/06/13 18:39:15","新北市新店區國校路76-1號","121.538633333333","24.953105","6500600","新店區"
"231055","3713-VJ","2017/06/13 18:39:29","新北市新店區華興街31號","121.537355","24.9688583333333","6500600","新店區"
"231067","4772-VM","2017/06/13 18:39:29","新北市新店區安華路28-1號","121.519286666667","24.9606383333333","6500600","新店區"
"231065","512-UM","2017/06/13 18:39:21","新北市新店區安華路28-1號","121.519275","24.9612083333333","6500600","新店區"
"231054","513-UM","2017/06/13 18:39:18","新北市新店區安華路28-1號","121.51966","24.9610966666667","6500600","新店區"
"231064","515-UM","2017/06/13 18:39:19","新北市新店區安華路28-1號","121.51957","24.96096","6500600","新店區"
"231045","617-UM","2017/06/13 18:39:27","新北市新店區安華路28-1號","121.519428333333","24.961","6500600","新店區"
"231040","619-UM","2017/06/13 18:39:26","新北市新店區安華路28-1號","121.519633333333","24.9608466666667","6500600","新店區"
"231042","641-BX","2017/06/13 18:39:14","新北市新店區中正路71號","121.543485","24.9698583333333","6500600","新店區"
"231049","719-UM","2017/06/13 18:39:24","新北市新店區環河路114巷2號","121.537056666667","24.9643983333333","6500600","新店區"
"231062","720-UM","2017/06/13 18:39:15","新北市新店區安華路28-1號","121.519276666667","24.961225","6500600","新店區"
"231044","897-TW","2017/06/13 18:39:25","新北市新店區安康路一段17號","121.533116666667","24.96041","6500600","新店區"
"231043","899-TW","2017/06/13 18:39:18","新北市新店區安華路28-1號","121.519148333333","24.9608833333333","6500600","新店區"
"231066","AKT-0513","2017/06/13 18:39:28","新北市新店區車子路115-11號","121.508025","24.954695","6500600","新店區"
"235066","003-UY","2017/06/13 18:39:14","新北市中和區水源路24號","121.504371666667","25.00354","6500300","中和區"
"235064","005-UY","2017/06/13 18:39:31","新北市中和區連城路139巷56號","121.496721666667","24.9972216666667","6500300","中和區"
"235063","006-UY","2017/06/13 18:39:23","新北市中和區連城路268-6號","121.486365","24.9965283333333","6500300","中和區"
"235056","096-UM","2017/06/13 18:39:28","新北市中和區員山路611巷1號","121.477956666667","25.0113483333333","6500300","中和區"
"235039","097-UM","2017/06/13 18:39:27","新北市中和區安平路157號","121.512365","24.99829","6500300","中和區"
"235065","098-UM","2017/06/13 18:39:28","新北市中和區中山路二段64巷8號","121.503453333333","25.0050833333333","6500300","中和區"
"235040","150-BY","2017/06/13 18:39:19","新北市中和區安平路38號","121.509821666667","24.9950266666667","6500300","中和區"
"235058","151-BY","2017/06/13 18:39:11","新北市中和區圓通路369巷39-28號","121.489706666667","24.9854","6500300","中和區"
"235055","183-VK","2017/06/13 18:39:17","新北市中和區民生街6-1號","121.47131","25.00622","6500300","中和區"
"235038","185-VK","2017/06/13 18:39:24","新北市中和區自強路6-1號","121.519948333333","24.9960266666667","6500300","中和區"
"235049","186-VK","2017/06/13 18:39:21","新北市中和區景安路128號","121.505215","24.9946316666667","6500300","中和區"
"235067","255-BX","2017/06/13 18:39:19","新北市中和區新生街30巷2號","121.483015","25.0039066666667","6500300","中和區"
"235044","293-VK","2017/06/13 18:39:33","新北市中和區復興路301巷16號","121.501396666667","24.98974","6500300","中和區"
"235072","301-VK","2017/06/13 18:39:21","新北市中和區連城路130號","121.495833333333","24.999075","6500300","中和區"
"235043","352-BY","2017/06/13 18:39:15","新北市中和區景平路135號","121.5147","24.992195","6500300","中和區"
"235051","376-QA","2017/06/13 18:39:21","新北市中和區興南路二段114巷16弄4號","121.503796666667","24.9847383333333","6500300","中和區"
"235068","377-QA","2017/06/13 18:39:30","新北市中和區中正路90號","121.499781666667","24.9937283333333","6500300","中和區"
"235061","378-QA","2017/06/13 18:39:20","新北市中和區民享街93號","121.47465","25.000645","6500300","中和區"
"235050","4979-A6","2017/06/13 18:29:21","新北市中和區興南路一段25號","121.511246666667","24.990895","6500300","中和區"
"235069","4980-A6","2017/06/13 18:39:24","新北市中和區連城路67號","121.497578333333","25.00135","6500300","中和區"
"235042","551-UM","2017/06/13 18:39:30","新北市中和區成功路97巷18弄5號","121.526855","24.9915266666667","6500300","中和區"
"235070","558-UM","2017/06/13 18:39:31","新北市中和區南華路8號","121.502331666667","24.9953283333333","6500300","中和區"
"235045","565-BX","2017/06/13 18:39:19","新北市中和區復興路49巷2號","121.504568333333","24.9898466666667","6500300","中和區"
"235054","640-BX","2017/06/13 18:39:21","新北市中和區民享街93巷12號","121.475268333333","25.0008833333333","6500300","中和區"
"235060","647-TV","2017/06/13 18:39:16","新北市中和區員山路455巷1號","121.480256666667","25.0042416666667","6500300","中和區"
"235047","732-UM","2017/06/13 18:39:22","新北市中和區南山路290號","121.507896666667","24.9874433333333","6500300","中和區"
"235071","783-BX","2017/06/13 18:39:31","新北市中和區員山路36巷16-3號","121.485246666667","24.9911733333333","6500300","中和區"
"235062","800-TS","2017/06/13 18:39:25","新北市中和區中山路二段312巷12號","121.495393333333","25.0036466666667","6500300","中和區"
"235057","801-TS","2017/06/13 18:39:16","新北市中和區民安街39號","121.47995","25.000335","6500300","中和區"
"235052","805-TS","2017/06/13 18:39:21","新北市中和區興南路三段20巷4號","121.496941666667","24.9795733333333","6500300","中和區"
"235048","896-TW","2017/06/13 18:39:15","新北市中和區南山路231號","121.503543333333","24.9932016666667","6500300","中和區"
"235053","900-TW","2017/06/13 18:39:28","新北市中和區民享街457號","121.470368333333","24.9931716666667","6500300","中和區"
"235041","157-BY","2017/06/13 18:39:14","新北市中和區景安路76號","121.505745","24.996515","6500300","中和區"
"235037","AAC-213","2017/06/13 18:39:16","新北市中和區景新街383巷66號","121.514688333333","24.9903016666667","6500300","中和區"
"235059","AAC-215","2017/06/13 18:39:19","新北市中和區錦和路350-1號","121.490556666667","24.9935233333333","6500300","中和區"
"220068","013-TV","2017/06/13 18:39:16","新北市板橋區民生路二段17號","121.47264","25.0164883333333","6500100","板橋區"
"220065","072-UY","2017/06/13 15:23:30","新北市板橋區民生路二段15-1號","121.473086666667","25.0162366666667","6500100","板橋區"
"220086","073-UY","2017/06/13 18:39:16","新北市板橋區南雅西路二段173號","121.451795","25.01251","6500100","板橋區"
"247006","341-TH","2017/06/13 18:36:53","新北市八里區荖阡坑路34-2號","121.401335","25.1299516666667","6501400","蘆洲區"
"247008","339-TH","2017/06/13 18:39:10","新北市八里區荖阡坑路32號","121.40344","25.1273116666667","6501400","蘆洲區"
"247002","336-TH","2017/06/13 18:39:32","新北市八里區中華路三段88巷10號","121.392423333333","25.1409933333333","6501400","蘆洲區"
"247014","057-VK","2017/06/13 18:39:19","新北市五股區成泰路一段98巷77號","121.450721666667","25.07848","6501400","蘆洲區"
"247022","002-UY","2017/06/13 18:39:15","新北市五股區中興路三段163號","121.449373333333","25.0806183333333","6501400","蘆洲區"
"226004","312-R5","2017/06/13 18:39:13","新北市平溪區平溪里三坑路32號","121.736756666667","25.030335","6502400","平溪區"
"223002","198-BX","2017/06/13 09:45:17","新北市石碇區小粗坑(潭邊里)9-2號","121.678681666667","24.9857566666667","6501900","石碇區"
"228003","097-TW","2017/06/13 18:39:19","新北市貢寮區和美里龍洞街46號","121.913406666667","25.1124883333333","6502600","貢寮區"
"228001","212-TW","2017/06/13 18:39:17","新北市貢寮區仁理村研海街12-1號","121.923795","25.0516716666667","6502600","貢寮區"
"228002","663-BX","2017/06/13 18:39:21","新北市貢寮區福隆里東興街6-11號","121.950758333333","25.0210816666667","6502600","貢寮區"
"224010","AGQ-8101","2017/06/13 18:39:12","新北市瑞芳區烏勢巷124號","121.846488333333","25.1084133333333","6501200","瑞芳區"
"224006","676-BX","2017/06/13 18:39:28","新北市瑞芳區明燈路三段86號","121.805628333333","25.1083183333333","6501200","瑞芳區"
"224002","639-TC","2017/06/13 18:39:31","新北市瑞芳區傑魚坑路307-2號","121.79367","25.1091666666667","6501200","瑞芳區"
"224009","285-BY","2017/06/13 18:39:11","新北市瑞芳區祈堂路137號","121.859025","25.1093666666667","6501200","瑞芳區"
"224008","275-VK","2017/06/13 18:39:22","新北市瑞芳區逢甲路282巷5弄4號","121.803706666667","25.1113933333333","6501200","瑞芳區"
"224007","273-VK","2017/06/13 18:39:15","新北市瑞芳區大埔路台北新城6號","121.764501666667","25.1004883333333","6501200","瑞芳區"
"224005","271-BY","2017/06/13 18:39:14","新北市瑞芳區永龍新村34號","121.818796666667","25.11932","6501200","瑞芳區"
"224011","201-TW","2017/06/13 18:28:23","新北市瑞芳區崙頂路3-1號","121.846995","25.1046783333333","6501200","瑞芳區"
"227003","642-TC","2017/06/13 18:39:22","新北市雙溪區魚行里坤溪3-5號","121.876176666667","25.0208216666667","6502500","雙溪區"
"227009","400-TW","2017/06/13 18:39:16","新北市雙溪區牡丹里下坑11號","121.851021666667","25.05618","6502500","雙溪區"
"253006","032-BX","2017/06/13 18:39:19","新北市石門區崁子腳1號","121.532611666667","25.28827","6502200","石門區"
"253005","295-VK","2017/06/13 18:39:16","新北市石門區中山路33號","121.567113333333","25.290945","6502200","石門區"
"208001","742-BX","2017/06/13 18:39:14","新北市金山區文化三路7號","121.635113333333","25.22504","6502700","金山區"
"208003","665-BX","2017/06/13 18:39:33","新北市金山區中山路332號","121.633871666667","25.225085","6502700","金山區"
"251001","011-UM","2017/06/13 18:39:20","新北市淡水區自強路108-17號","121.461656666667","25.1309133333333","6501000","淡水區"
"251014","180-VK","2017/06/13 18:39:19","新北市淡水區崙頂12-8號","121.49559","25.2172366666667","6501000","淡水區"
"251008","181-VK","2017/06/13 18:39:19","新北市淡水區北投子78-8號","121.457541666667","25.179115","6501000","淡水區"
"251010","413-VK","2017/06/13 18:39:28","新北市淡水區沙崙路120號","121.423331666667","25.182665","6501000","淡水區"
"251012","441-VK","2017/06/13 18:39:29","新北市淡水區北新路161號","121.450088333333","25.1790933333333","6501000","淡水區"
"251016","442-VK","2017/06/13 18:39:12","新北市淡水區下圭柔山73號","121.442586666667","25.2075866666667","6501000","淡水區"
"251011","650-BX","2017/06/13 18:39:26","新北市淡水區鄧公路46號","121.458915","25.1688083333333","6501000","淡水區"
"251002","672-BX","2017/06/13 18:39:29","新北市淡水區中正東路21號","121.448125","25.166425","6501000","淡水區"
"251003","766-UM","2017/06/13 18:39:31","新北市淡水區中山北路一段212巷38號","121.446026666667","25.1790216666667","6501000","淡水區"
"207003","550-UM","2017/06/13 18:39:15","新北市萬里區大鵬里頂社2-1號","121.660328333333","25.2072016666667","6502800","萬里區"
"207004","225-TW","2017/06/13 18:39:20","新北市萬里區萬里里獅頭路12號","121.692176666667","25.1789666666667","6502800","萬里區"
"252002","178-VK","2017/06/13 18:39:19","新北市三芝區民生街54巷14號","121.50403","25.2554633333333","6502100","三芝區"
"252003","249-BX","2017/06/13 18:39:19","新北市三芝區後厝里大片頭74號","121.459281666667","25.246435","6502100","三芝區"
"252001","702-TV","2017/06/13 18:39:28","新北市三芝區中興街二段50號","121.499596666667","25.25502","6502100","三芝區"
"252007","AAC-283","2017/06/13 10:38:43","新北市三芝區埔坪里埔頭坑41號","121.50399","25.265345","6502100","三芝區"
"208002","170-UY","2017/06/13 18:39:20","新北市金山區忠孝一路19巷17號","121.637421666667","25.2178","6502700","金山區"
"237004","078-UY","2017/06/13 18:39:27","新北市三峽區插角234號","121.412375","24.868765","6500900","三峽區"
"237007","153-BY","2017/06/13 18:39:17","新北市三峽區中正路三段72號","121.35663","24.9039833333333","6500900","三峽區"
"237009","210-TH","2017/06/13 18:39:30","新北市三峽區大同路276號","121.365106666667","24.9252533333333","6500900","三峽區"
"237013","252-BX","2017/06/13 18:39:33","新北市三峽區光明路69巷25號","121.376735","24.9291816666667","6500900","三峽區"
"237012","275-BY","2017/06/13 18:39:17","新北市三峽區三樹路340號","121.383971666667","24.94333","6500900","三峽區"
"237008","302-VK","2017/06/13 18:39:29","新北市三峽區白雞115-8號","121.400798333333","24.9066683333333","6500900","三峽區"
"237014","433-BY","2017/06/13 18:39:19","新北市三峽區隆恩街177巷16-1號","121.362843333333","24.9409266666667","6500900","三峽區"
"237006","5529-G3","2017/06/13 18:39:32","新北市三峽區溪東路211巷31弄1號","121.405541666667","24.9341166666667","6500900","三峽區"
"237011","572-TV","2017/06/13 18:39:16","新北市三峽區介壽路三段138號","121.400578333333","24.9429066666667","6500900","三峽區"
"237016","649-BX","2017/06/13 18:39:18","新北市三峽區竹崙路158號","121.438015","24.90435","6500900","三峽區"
"237010","706-TV","2017/06/13 18:38:46","新北市三峽區復興路321號","121.364843333333","24.9387516666667","6500900","三峽區"
"237005","AKY-6261","2017/06/13 18:39:22","新北市三峽區民生街104巷2-8號","121.373793333333","24.9361583333333","6500900","三峽區"
"236070","105-UM","2017/06/13 18:39:12","新北市土城區永豐路185號","121.470126666667","24.9782216666667","6501300","土城區"
"236043","107-UM","2017/06/13 18:39:20","新北市土城區學成路108巷6號","121.450116666667","24.9895166666667","6501300","土城區"
"236079","166-UM","2017/06/13 18:39:28","新北市土城區中央路四段54巷1號","121.419763333333","24.9606383333333","6501300","土城區"
"236031","253-BX","2017/06/13 18:39:28","新北市土城區福仁街52號","121.439631666667","24.974915","6501300","土城區"
"236027","269-VK","2017/06/13 18:39:16","新北市土城區忠義路53號","121.440515","24.9688683333333","6501300","土城區"
"236015","270-VK","2017/06/13 18:39:26","新北市土城區清水路207巷16號","121.46004","24.9824216666667","6501300","土城區"
"236038","271-VK","2017/06/13 18:39:21","新北市土城區青山路12號","121.462505","24.9757366666667","6501300","土城區"
"236023","401-BY","2017/06/13 18:39:15","新北市土城區延吉街258號","121.466238333333","24.9845183333333","6501300","土城區"
"236059","912-UM","2017/06/13 18:39:17","新北市土城區中央路四段146號","121.41736","24.9583833333333","6501300","土城區"
"236049","913-UM","2017/06/13 18:39:20","新北市土城區明德路一段137-4號","121.465233333333","24.980605","6501300","土城區"
"236063","915-UM","2017/06/13 18:39:23","新北市土城區延壽路55巷9弄3號","121.469893333333","24.99157","6501300","土城區"
"236055","AAC-216","2017/06/13 18:39:22","新北市土城區中華路一段119號","121.444485","24.98687","6501300","土城區"
"242034","413-TV","2017/06/13 18:39:17","新北市樹林區八德街435號","121.406143333333","24.969455","6500500","新莊區"
"242061","362-BY","2017/06/13 18:39:24","新北市新莊區新樹路69號","121.43898","25.0301","6500500","新莊區"
"242058","353-BY","2017/06/13 18:39:23","新北市新莊區中正路879-6號","121.417645","25.026205","6500500","新莊區"
"242044","172-VK","2017/06/13 18:39:28","新北市泰山區中山路二段699號","121.429133333333","25.03957","6500500","新莊區"
"242007","173-VK","2017/06/13 18:39:25","新北市新莊區中正路150號","121.45166","25.0359666666667","6500500","新莊區"
"242054","349-TH","2017/06/13 18:39:19","新北市新莊區樹新路120巷41號","121.430136666667","24.99607","6500500","新莊區"
"238015","755-BX","2017/06/13 18:39:29","新北市樹林區備內街142號","121.409006666667","24.9895233333333","6500700","樹林區"
"238023","601-UM","2017/06/13 18:39:25","新北市樹林區三福街114號","121.406501666667","25.0163316666667","6500700","樹林區"
"238019","599-UM","2017/06/13 18:39:15","新北市樹林區中華路190-16號","121.411743333333","24.9806533333333","6500700","樹林區"
"238018","571-TV","2017/06/13 18:39:16","新北市樹林區樹新路89號","121.427938333333","24.9953666666667","6500700","樹林區"
"238024","5061-A6","2017/06/13 18:39:13","新北市樹林區中山路二段110號","121.41418","24.9833483333333","6500700","樹林區"
"238025","303-VK","2017/06/13 18:39:29","新北市樹林區中山路三段22號","121.395645","24.9729716666667","6500700","樹林區"
"238017","283-BY","2017/06/13 18:39:31","新北市樹林區光興街11巷2號","121.412251666667","25.0029033333333","6500700","樹林區"
"238014","282-BY","2017/06/13 18:39:29","新北市樹林區大安路111巷2號","121.422923333333","24.9975083333333","6500700","樹林區"
"238020","268-VK","2017/06/13 18:39:32","新北市樹林區俊興街232號","121.417881666667","25.0154766666667","6500700","樹林區"
"238026","172-UY","2017/06/13 18:39:28","新北市樹林區八德街1050號","121.390946666667","24.968775","6500700","樹林區"
"238016","169-UY","2017/06/13 18:39:29","新北市樹林區文化街27號","121.419131666667","24.98765","6500700","樹林區"
"239007","AAC-297","2017/06/13 18:39:25","新北市鶯歌區中正一路建德巷38號","121.364491666667","24.95783","6500800","鶯歌區"
"239006","891-R6","2017/06/13 18:39:26","新北市鶯歌區鶯桃路296巷46號","121.335658333333","24.9613033333333","6500800","鶯歌區"
"239008","527-UM","2017/06/13 18:39:28","新北市鶯歌區國際一路179號","121.336246666667","24.9765533333333","6500800","鶯歌區"
"239005","526-UM","2017/06/13 18:39:29","新北市鶯歌區鳳吉二街18號","121.325721666667","24.973165","6500800","鶯歌區"
"239001","417-VK","2017/06/13 18:39:28","新北市鶯歌區高職南街13號","121.337438333333","24.939225","6500800","鶯歌區"
"239003","360-BY","2017/06/13 18:39:15","新北市鶯歌區鶯桃路466號","121.332555","24.9652916666667","6500800","鶯歌區"
"239002","359-BY","2017/06/13 18:39:25","新北市鶯歌區中正一路411號","121.36004","24.957025","6500800","鶯歌區"
"239004","193-VK","2017/06/13 18:39:24","新北市鶯歌區尖山路173巷31號","121.345386666667","24.9468766666667","6500800","鶯歌區"
"221036","130-UY","2017/06/13 18:39:33","新北市汐止區南昌街31號","121.663151666667","25.0691216666667","6501100","汐止區"
"221015","131-UY","2017/06/13 18:39:15","新北市汐止區吉祥街12巷23號","121.668783333333","25.0807133333333","6501100","汐止區"
"221010","269-BY","2017/06/13 18:39:26","新北市汐止區汐萬路二段216巷1號","121.647183333333","25.0870516666667","6501100","汐止區"
"221012","278-VK","2017/06/13 18:39:25","新北市汐止區長江街256巷3號","121.66545","25.0803716666667","6501100","汐止區"
"221023","279-VK","2017/06/13 02:16:26","新北市汐止區汐萬路一段256巷1號","121.651668333333","25.074855","6501100","汐止區"
"221032","280-BY","2017/06/13 18:39:28","新北市汐止區民權街二段70號","121.619161666667","25.0481933333333","6501100","汐止區"
"221027","281-BY","2017/06/13 18:39:24","新北市汐止區和平街86號","121.661285","25.0707466666667","6501100","汐止區"
"221038","297-VK","2017/06/13 18:39:15","新北市汐止區秀峰路6巷2號","121.65915","25.0668216666667","6501100","汐止區"
"221029","298-VK","2017/06/13 18:39:30","新北市汐止區樟樹一路142號","121.642286666667","25.0649816666667","6501100","汐止區"
"221021","299-VK","2017/06/13 18:37:33","新北市汐止區新興路71號","121.658206666667","25.0626233333333","6501100","汐止區"
"221035","622-UM","2017/06/13 18:39:17","新北市汐止區中正路301號","121.656185","25.06788","6501100","汐止區"
"221025","623-UM","2017/06/13 18:39:28","新北市汐止區福安街20巷20號","121.662023333333","25.064665","6501100","汐止區"
"221033","647-BX","2017/06/13 18:39:23","新北市汐止區南勢街3號","121.627135","25.037325","6501100","汐止區"
"221002","707-TV","2017/06/13 18:39:19","新北市汐止區大同路一段283號","121.636813333333","25.058545","6501100","汐止區"
"221018","753-BX","2017/06/13 18:39:24","新北市汐止區茄苳路250巷7號","121.671451666667","25.068","6501100","汐止區"
"220079","145-BY","2017/06/13 18:39:17","新北市板橋區大觀路一段39巷2號","121.448456666667","25.00813","6500100","板橋區"
"220082","610-BX","2017/06/13 18:39:18","新北市板橋區華東街1-10號","121.448286666667","24.99493","6500100","板橋區"
"220101","245-BX","2017/06/13 15:47:33","新北市板橋區民生路二段120號","121.470521666667","25.0196183333333","6500100","板橋區"
"220090","257-TC","2017/06/13 18:39:15","新北市板橋區民生路二段120號","121.470493333333","25.0199416666667","6500100","板橋區"
"220069","258-TC","2017/06/13 18:39:14","新北市板橋區民生路二段36-1號","121.472493333333","25.0167283333333","6500100","板橋區"
"220072","277-BY","2017/06/13 18:39:16","新北市板橋區華東街1-10號","121.448298333333","24.9950466666667","6500100","板橋區"
"220064","280-UM","2017/06/13 18:39:19","新北市板橋區民生路二段36-1號","121.472631666667","25.0165316666667","6500100","板橋區"
"220094","283-UM","2017/06/13 18:39:13","新北市板橋區民生路二段188號","121.470406666667","25.0202616666667","6500100","板橋區"
"220071","283-VK","2017/06/13 18:39:30","新北市板橋區民生路二段36-1號","121.472671666667","25.0166383333333","6500100","板橋區"
"220091","285-UM","2017/06/13 18:39:30","新北市板橋區民生路二段161巷1號","121.470201666667","25.0201183333333","6500100","板橋區"
"220053","285-VK","2017/06/13 18:39:29","新北市板橋區民生路二段15-1號","121.472786666667","25.01647","6500100","板橋區"
"220083","286-VK","2017/06/13 18:39:25","新北市板橋區華東街1-9號","121.448255","24.9948566666667","6500100","板橋區"
"220081","287-VK","2017/06/13 18:39:16","新北市板橋區華東街1-10號","121.448316666667","24.9949866666667","6500100","板橋區"
"220061","293-UM","2017/06/13 18:39:25","新北市板橋區民生路二段22號","121.472718333333","25.01668","6500100","板橋區"
"220084","296-UM","2017/06/13 18:39:27","新北市板橋區華東街1-9號","121.448151666667","24.9949266666667","6500100","板橋區"
"220075","297-UM","2017/06/13 18:39:23","新北市板橋區華東街1-9號","121.44819","24.9949566666667","6500100","板橋區"
"220056","303-R5","2017/06/13 18:39:30","新北市板橋區中山路一段23號","121.460366666667","25.008535","6500100","板橋區"
"220062","305-R5","2017/06/13 15:11:45","新北市板橋區民生路二段15-1號","121.473161666667","25.01605","6500100","板橋區"
"220080","461-BY","2017/06/13 18:39:29","新北市板橋區華東街1-9號","121.448241666667","24.9948583333333","6500100","板橋區"
"220035","560-BX","2017/06/13 18:39:23","新北市板橋區華東街328號","121.452806666667","25.0034033333333","6500100","板橋區"
"220103","561-BX","2017/06/13 18:39:27","新北市板橋區民生路二段120號","121.470413333333","25.019705","6500100","板橋區"
"220057","686-BX","2017/06/13 18:39:33","新北市板橋區民生路二段36-1號","121.47257","25.016515","6500100","板橋區"
"220077","687-BX","2017/06/13 18:39:22","新北市板橋區華東街1-10號","121.448343333333","24.9949866666667","6500100","板橋區"
"220102","830-TW","2017/06/13 15:35:13","新北市板橋區民生路二段120號","121.470353333333","25.0196866666667","6500100","板橋區"
"220074","895-R6","2017/06/13 18:39:29","新北市板橋區華東街1-10號","121.448203333333","24.9950116666667","6500100","板橋區"
"220073","985-R7","2017/06/13 18:39:29","新北市板橋區華東街1-10號","121.448328333333","24.9949566666667","6500100","板橋區"
"220070","AAC-253","2017/06/13 18:39:15","新北市板橋區民生路二段36-1號","121.472636666667","25.01674","6500100","板橋區"
