"lineid","car","time","location","longitude","latitude","cityid","cityname"
"234013","149-BY","2017/06/13 20:29:20","新北市永和區環河西路二段29號","121.507445","25.0157683333333","6500400","永和區"
"234081","298-R6","2017/06/13 20:29:22","新北市永和區國中路104巷10號","121.524663333333","25.007025","6500400","永和區"
"234038","336-UY","2017/06/13 20:29:18","新北市永和區環河東路四段38號","121.528826666667","24.998935","6500400","永和區"
"234064","337-UY","2017/06/13 20:29:29","新北市永和區中正路393號","121.517201666667","25.0040133333333","6500400","永和區"
"234086","338-UY","2017/06/13 20:29:32","新北市永和區永和路二段237-1號","121.515541666667","25.0144483333333","6500400","永和區"
"234054","553-UM","2017/06/13 20:29:33","新北市永和區光復街31-1號","121.516663333333","25.0179483333333","6500400","永和區"
"234030","746-BX","2017/06/13 20:29:27","新北市中和區景平路71-3號","121.519226666667","24.991585","6500400","永和區"
"234061","AAD-866","2017/06/13 20:29:29","新北市永和區安樂路154巷1弄3號","121.514721666667","25.0006183333333","6500400","永和區"
"234042","862-TW","2017/06/13 20:29:18","新北市永和區安樂路248-2號","121.514665","25.00338","6500400","永和區"
"234050","863-TW","2017/06/13 20:29:33","新北市永和區環河西路二段85號","121.50672","25.0149966666667","6500400","永和區"
"249001","173-UM","2017/06/13 20:29:18","新北市八里區下罟子5-11號","121.38666","25.14224","6502300","八里區"
"249004","303-UY","2017/06/13 20:29:26","新北市八里區中山路一段129巷27號","121.414091666667","25.1586016666667","6502300","八里區"
"249002","305-UY","2017/06/13 20:29:27","新北市八里區龍米路二段125巷23號","121.445618333333","25.1454983333333","6502300","八里區"
"249003","593-UM","2017/06/13 20:29:16","新北市八里區華峰一街42號","121.398568333333","25.1463516666667","6502300","八里區"
"248016","261-SL","2017/06/13 20:29:16","新北市五股區天乙路34號","121.448466666667","25.1034716666667","6501500","五股區"
"248002","678-BX","2017/06/13 20:29:11","新北市五股區成泰路三段51號","121.442805","25.089305","6501500","五股區"
"234023","9380-KE","2017/06/13 20:29:28","新北市永和區博愛街32巷29號","121.51876","25.0150016666667","6500400","永和區"
"234074","AAC-211","2017/06/13 20:29:22","新北市永和區竹林路119巷30弄2號","121.522043333333","25.0115266666667","6500400","永和區"
"234067","AAC-212","2017/06/13 20:29:18","新北市永和區保平路214巷11弄1號","121.508801666667","25.0065433333333","6500400","永和區"
"234003","AAC-295","2017/06/13 20:26:56","新北市永和區大新街12號","121.514941666667","25.0085566666667","6500400","永和區"
"243013","AAD-798","2017/06/13 20:29:17","新北市泰山區民國街52號","121.425915","25.0436666666667","6501600","泰山區"
"243009","297-R6","2017/06/13 20:29:25","新北市泰山區忠孝街40巷1號","121.428575","25.0654266666667","6501600","泰山區"
"243015","380-SR","2017/06/13 20:29:20","新北市泰山區仁愛路70號","121.432483333333","25.0549333333333","6501600","泰山區"
"243014","421-VK","2017/06/13 20:29:27","新北市泰山區泰林路二段589號","121.421873333333","25.0635166666667","6501600","泰山區"
"243010","548-UM","2017/06/13 20:29:19","新北市泰山區明志路二段273巷16弄22號","121.427751666667","25.0463883333333","6501600","泰山區"
"243011","549-UM","2017/06/13 20:29:26","新北市泰山區台麗街26號","121.427095","25.0369133333333","6501600","泰山區"
"243016","680-BX","2017/06/13 20:29:19","新北市泰山區文程路111號","121.430715","25.048125","6501600","泰山區"
"222003","436-BY","2017/06/13 20:29:20","新北市深坑區深坑街26號","121.615368333333","25.0018883333333","6501800","深坑區"
"222002","659-BX","2017/06/13 20:26:56","新北市深坑區萬福路16巷45號","121.60995","25.0087633333333","6501800","深坑區"
"222001","696-SL","2017/06/13 20:29:21","新北市深坑區北深路三段345號","121.597195","25.005075","6501800","深坑區"
"231041","002-UM","2017/06/13 20:29:19","新北市新店區中正路501-4號","121.533635","24.9838316666667","6500600","新店區"
"231056","0291-UT","2017/06/13 20:29:30","新北市新店區中正路336號","121.53672","24.97504","6500600","新店區"
"231059","046-UY","2017/06/13 20:29:15","新北市新店區安豐路46號","121.50013","24.9549366666667","6500600","新店區"
"231061","047-UY","2017/06/13 20:29:15","新北市新店區新和街34號","121.519135","24.9847633333333","6500600","新店區"
"231051","107-UY","2017/06/13 20:29:29","新北市新店區中央七街108號","121.525785","24.977505","6500600","新店區"
"231048","108-UY","2017/06/13 20:29:14","新北市新店區寶慶街58巷12號","121.542061666667","24.9872333333333","6500600","新店區"
"231053","187-VK","2017/06/13 20:29:27","新北市新店區松林路36號","121.5462","24.91028","6500600","新店區"
"231057","256-BX","2017/06/13 20:29:23","新北市新店區花園五路二段3號","121.553576666667","24.9341883333333","6500600","新店區"
"231063","268-BY","2017/06/13 20:29:31","新北市新店區玫瑰路4-1號","121.493576666667","24.9513966666667","6500600","新店區"
"231050","AAD-862","2017/06/13 20:29:24","新北市新店區博愛街11巷2號","121.540941666667","24.9731633333333","6500600","新店區"
"231060","355-BY","2017/06/13 20:29:25","新北市新店區錦秀路72巷2號","121.478816666667","24.9420783333333","6500600","新店區"
"231058","3712-VJ","2017/06/13 20:29:14","新北市新店區中央一街22號","121.527825","24.972895","6500600","新店區"
"231067","4772-VM","2017/06/13 20:29:29","新北市新店區溪洲路101-1號","121.532335","24.9621566666667","6500600","新店區"
"231065","512-UM","2017/06/13 20:29:21","新北市新店區安祥路102巷46弄75號","121.486941666667","24.9633516666667","6500600","新店區"
"231054","513-UM","2017/06/13 20:29:18","新北市新店區檳榔路109號","121.54443","24.9616766666667","6500600","新店區"
"231064","515-UM","2017/06/13 20:29:18","新北市新店區永安街74巷20號","121.519243333333","24.9860433333333","6500600","新店區"
"231045","617-UM","2017/06/13 20:29:27","新北市新店區新坡一街46號","121.54951","24.962735","6500600","新店區"
"231040","619-UM","2017/06/13 20:29:26","新北市新店區三民路24號","121.536965","24.9709983333333","6500600","新店區"
"231042","641-BX","2017/06/13 20:29:14","新北市新店區寶橋路230號","121.551493333333","24.9788933333333","6500600","新店區"
"231068","718-UY","2017/06/13 20:29:26","新北市新店區寶元路一段65號","121.542221666667","24.9858166666667","6500600","新店區"
"231049","719-UM","2017/06/13 20:29:24","新北市新店區華潭街31號","121.529413333333","24.9551233333333","6500600","新店區"
"231062","720-UM","2017/06/13 20:29:14","新北市新店區安泰路60巷43號","121.483795","24.9460333333333","6500600","新店區"
"231044","897-TW","2017/06/13 20:29:25","新北市新店區民族路63號","121.539801666667","24.9783316666667","6500600","新店區"
"231043","899-TW","2017/06/13 20:29:17","新北市新店區民族路14-1號","121.541325","24.9788183333333","6500600","新店區"
"241011","013-R5","2017/06/13 20:29:21","新北市三重區龍門路50號","121.496473333333","25.0725033333333","6500200","三重區"
"241008","059-VK","2017/06/13 20:29:18","新北市三重區車路頭街135-1號","121.484308333333","25.0761383333333","6500200","三重區"
"241009","060-VK","2017/06/13 20:29:29","新北市三重區永福街64-1號","121.48066","25.0778533333333","6500200","三重區"
"241031","061-VK","2017/06/13 20:29:24","新北市三重區三寧街15號","121.48944","25.0597933333333","6500200","三重區"
"241015","062-VK","2017/06/13 20:29:22","新北市三重區文化北路41-1號","121.498941666667","25.0652566666667","6500200","三重區"
"241017","063-VK","2017/06/13 20:29:22","新北市三重區自強路一段288號","121.491653333333","25.0682383333333","6500200","三重區"
"241024","065-VK","2017/06/13 20:29:31","新北市三重區三民街270號","121.479098333333","25.0680616666667","6500200","三重區"
"241026","066-VK","2017/06/13 20:29:34","新北市三重區福德南路8巷22號","121.503791666667","25.0637283333333","6500200","三重區"
"241002","090-VK","2017/06/13 20:29:25","新北市三重區仁義街211巷23號","121.4977","25.08233","6500200","三重區"
"241003","091-VK","2017/06/13 20:29:29","新北市三重區富華街134號","121.492055","25.0841883333333","6500200","三重區"
"241005","262-UM","2017/06/13 20:29:18","新北市三重區碧華街209號","121.48835","25.0828816666667","6500200","三重區"
"241028","265-UM","2017/06/13 20:29:27","新北市三重區光興街93號","121.497338333333","25.0599016666667","6500200","三重區"
"241016","266-UM","2017/06/13 20:29:18","新北市三重區正義北路190巷1號","121.496153333333","25.0669033333333","6500200","三重區"
"241022","267-UM","2017/06/13 20:29:18","新北市三重區重陽路二段19巷6號","121.48749","25.0626266666667","6500200","三重區"
"241018","268-UM","2017/06/13 20:29:18","新北市三重區正義北路204號","121.49635","25.067235","6500200","三重區"
"241013","270-UM","2017/06/13 20:29:30","新北市三重區溪尾街5巷44號","121.493006666667","25.074815","6500200","三重區"
"241025","271-UM","2017/06/13 20:29:15","新北市三重區頂崁街210巷27號","121.475806666667","25.06821","6500200","三重區"
"241007","398-BY","2017/06/13 20:29:31","新北市三重區自強路四段46號","121.48954","25.0777016666667","6500200","三重區"
"241020","412-TH","2017/06/13 20:29:16","新北市三重區三和路三段170巷27號","121.491796666667","25.07285","6500200","三重區"
"241004","475-VK","2017/06/13 20:29:24","新北市三重區溪尾街191號","121.488701666667","25.0805916666667","6500200","三重區"
"241019","478-VK","2017/06/13 20:29:31","新北市三重區重陽路四段126巷39號","121.491573333333","25.070995","6500200","三重區"
"241030","480-VK","2017/06/13 20:29:29","新北市三重區成功路75號","121.488571666667","25.0511366666667","6500200","三重區"
"241014","543-UM","2017/06/13 20:29:28","新北市三重區長壽街120巷23號","121.502355","25.0692516666667","6500200","三重區"
"241023","545-UM","2017/06/13 20:29:15","新北市三重區自由街19號","121.479778333333","25.06656","6500200","三重區"
"241001","547-UM","2017/06/13 20:29:24","新北市三重區自強路四段39號","121.489303333333","25.0771966666667","6500200","三重區"
"241006","AAD-863","2017/06/13 20:29:23","新北市三重區車路頭街139巷12號","121.484261666667","25.0762183333333","6500200","三重區"
"241035","743-BX","2017/06/13 20:29:20","新北市三重區正義北路388號","121.493253333333","25.0716016666667","6500200","三重區"
"241012","887-TS","2017/06/13 20:29:22","新北市三重區龍濱路172號","121.501401666667","25.0727733333333","6500200","三重區"
"241029","942-UM","2017/06/13 20:29:30","新北市三重區集美街227號","121.492138333333","25.0551433333333","6500200","三重區"
"241033","AAC-255","2017/06/13 20:29:29","新北市三重區五谷王北街86號","121.476536666667","25.05408","6500200","三重區"
"235066","003-UY","2017/06/13 20:29:14","新北市中和區中山路二段3巷22弄19號","121.505983333333","25.004445","6500300","中和區"
"235039","097-UM","2017/06/13 20:29:27","新北市中和區立人街16號","121.519231666667","24.994225","6500300","中和區"
"235065","098-UM","2017/06/13 20:29:28","新北市中和區橋和路320號","121.497431666667","25.0071483333333","6500300","中和區"
"235050","4979-A6","2017/06/13 20:29:20","新北市中和區景新街162號","121.505721666667","24.9971066666667","6500300","中和區"
"235069","4980-A6","2017/06/13 20:29:24","新北市中和區中正路432巷22號","121.490978333333","24.9954233333333","6500300","中和區"
"235026","800-TS","2017/06/13 20:29:25","新北市中和區員山路36巷16-3號","121.485113333333","24.9913966666667","6500300","中和區"
"235037","AAC-213","2017/06/13 20:29:16","新北市中和區自立路163號","121.52301","24.9925983333333","6500300","中和區"
"235059","AAC-215","2017/06/13 20:29:19","新北市中和區員山路26號","121.481658333333","24.9859683333333","6500300","中和區"
"220065","072-UY","2017/06/13 20:29:10","新北市五股區中直路13-7號","121.42444","25.1105933333333","6500100","板橋區"
"247020","893-R6","2017/06/13 20:29:19","新北市蘆洲區民族路424-1號","121.473918333333","25.0918783333333","6501400","蘆洲區"
"247010","546-UM","2017/06/13 20:29:15","新北市蘆洲區信義路220號","121.479191666667","25.0852966666667","6501400","蘆洲區"
"247018","500-BY","2017/06/13 20:29:15","新北市蘆洲區民族路406號","121.474706666667","25.091455","6501400","蘆洲區"
"247006","341-TH","2017/06/13 20:29:26","新北市蘆洲區光華路175巷56號","121.465648333333","25.08088","6501400","蘆洲區"
"247008","339-TH","2017/06/13 20:29:33","新北市蘆洲區重陽街91號","121.482351666667","25.0853083333333","6501400","蘆洲區"
"247024","337-TH","2017/06/13 20:29:12","新北市蘆洲區長興路50巷31號","121.464316666667","25.084465","6501400","蘆洲區"
"247002","336-TH","2017/06/13 20:29:13","新北市蘆洲區長安街361巷34號","121.455715","25.08764","6501400","蘆洲區"
"247014","057-VK","2017/06/13 20:29:12","新北市蘆洲區中山二路126號","121.471926666667","25.0816883333333","6501400","蘆洲區"
"247004","056-VK","2017/06/13 20:29:19","新北市蘆洲區長安街299巷29號","121.456685","25.084485","6501400","蘆洲區"
"247012","007-UY","2017/06/13 20:29:28","新北市蘆洲區中興街117-2號","121.4822","25.0892683333333","6501400","蘆洲區"
"247022","002-UY","2017/06/13 20:29:26","新北市蘆洲區中正路259號","121.467566666667","25.08718","6501400","蘆洲區"
"247016","001-UY","2017/06/13 20:29:17","新北市蘆洲區成功路131巷8-1號","121.471646666667","25.0818016666667","6501400","蘆洲區"
"223002","198-BX","2017/06/13 09:45:17","新北市石碇區小粗坑(潭邊里)9-2號","121.678681666667","24.9857566666667","6501900","石碇區"
"224011","201-TW","2017/06/13 20:25:32","新北市瑞芳區明燈路二段66號","121.809396666667","25.1075716666667","6501200","瑞芳區"
"251001","011-UM","2017/06/13 20:29:19","新北市淡水區淡金路二段30號","121.452526666667","25.1808333333333","6501000","淡水區"
"251014","180-VK","2017/06/13 20:29:19","新北市淡水區石頭厝8-6號","121.459081666667","25.2371583333333","6501000","淡水區"
"251008","181-VK","2017/06/13 20:29:19","新北市淡水區淡海路171號","121.419715","25.1838716666667","6501000","淡水區"
"251010","413-VK","2017/06/13 20:29:28","新北市淡水區沙崙路181巷15號","121.423991666667","25.1843516666667","6501000","淡水區"
"251012","441-VK","2017/06/13 20:29:29","新北市淡水區興仁路108號","121.451688333333","25.21814","6501000","淡水區"
"251016","442-VK","2017/06/13 20:29:31","新北市淡水區淡金路四段507號","121.450898333333","25.228395","6501000","淡水區"
"251006","561-UM","2017/06/13 20:29:16","新北市淡水區商工路296號","121.4602","25.1859633333333","6501000","淡水區"
"251011","650-BX","2017/06/13 20:29:26","新北市淡水區濱海路一段221號","121.4379","25.189765","6501000","淡水區"
"251002","672-BX","2017/06/13 20:29:13","新北市淡水區中正路27號","121.442498333333","25.1696016666667","6501000","淡水區"
"251003","766-UM","2017/06/13 20:29:31","新北市淡水區新民街62號","121.438883333333","25.17609","6501000","淡水區"
"207004","225-TW","2017/06/13 20:29:19","新北市萬里區北基里忠三街18號","121.684766666667","25.1756716666667","6502800","萬里區"
"252002","178-VK","2017/06/13 20:29:18","新北市三芝區淡金路二段15號","121.502625","25.2591783333333","6502100","三芝區"
"252001","702-TV","2017/06/13 20:29:28","新北市三芝區中山路一段14號","121.500698333333","25.2579766666667","6502100","三芝區"
"252007","AAC-283","2017/06/13 10:38:43","新北市三芝區埔坪里埔頭坑41號","121.50399","25.265345","6502100","三芝區"
"236070","105-UM","2017/06/13 20:29:11","新北市土城區福安街100-9號","121.417508333333","24.964475","6501300","土城區"
"236027","269-VK","2017/06/13 20:29:15","新北市土城區中央路一段211巷4號","121.446146666667","24.9864166666667","6501300","土城區"
"242021","AAC-296","2017/06/13 20:29:27","新北市新莊區和興街7號","121.44752","25.0390833333333","6500500","新莊區"
"242029","986-R7","2017/06/13 20:29:28","新北市新莊區昌平街31巷9號","121.454255","25.051405","6500500","新莊區"
"242048","751-BX","2017/06/13 20:29:23","新北市樹林區三俊街199巷22號","121.421005","25.0181166666667","6500500","新莊區"
"242025","615-BX","2017/06/13 20:29:28","新北市新莊區五工三路62巷30號","121.460348333333","25.065365","6500500","新莊區"
"242023","613-BX","2017/06/13 20:29:33","新北市新莊區化成路968號","121.465103333333","25.0635166666667","6500500","新莊區"
"242037","566-BX","2017/06/13 20:29:21","新北市新莊區後港一路56巷5弄1號","121.426666666667","25.0259133333333","6500500","新莊區"
"242042","497-BY","2017/06/13 20:29:24","新北市新莊區天祥街54巷3弄2號","121.41692","25.0295483333333","6500500","新莊區"
"242005","442-UM","2017/06/13 20:29:28","新北市新莊區頭前路15巷2號","121.467916666667","25.0523266666667","6500500","新莊區"
"242046","441-UM","2017/06/13 20:29:29","新北市新莊區裕民街98號","121.418298333333","25.0233383333333","6500500","新莊區"
"242051","440-UM","2017/06/13 20:29:25","新北市新莊區西盛街280巷18號","121.427363333333","25.0153533333333","6500500","新莊區"
"242032","415-TV","2017/06/13 20:29:30","新北市新莊區三泰路56號","121.437035","25.0357566666667","6500500","新莊區"
"242034","413-TV","2017/06/13 20:29:17","新北市新莊區新泰路183號","121.447433333333","25.0375666666667","6500500","新莊區"
"242039","400-BY","2017/06/13 20:29:33","新北市新莊區民安路294號","121.428113333333","25.021715","6500500","新莊區"
"242061","362-BY","2017/06/13 20:29:26","新北市新莊區新樹路244巷44號","121.431356666667","25.0191266666667","6500500","新莊區"
"242058","353-BY","2017/06/13 20:29:15","新北市新莊區四維路181號","121.422228333333","25.0212316666667","6500500","新莊區"
"242011","132-UY","2017/06/13 20:29:17","新北市新莊區中義街40號","121.449801666667","25.0511716666667","6500500","新莊區"
"242019","135-UY","2017/06/13 20:29:28","新北市新莊區長青街6-1號","121.457813333333","25.0427466666667","6500500","新莊區"
"242044","172-VK","2017/06/13 20:29:24","新北市新莊區中正路新建巷17號","121.414156666667","25.0223216666667","6500500","新莊區"
"242007","173-VK","2017/06/13 20:29:25","新北市新莊區思源路331號","121.459953333333","25.0496283333333","6500500","新莊區"
"242013","175-VK","2017/06/13 20:29:17","新北市新莊區中平路268號","121.444895","25.0501816666667","6500500","新莊區"
"242056","176-VK","2017/06/13 20:29:15","新北市新莊區新莊路751巷49號","121.442751666667","25.0315016666667","6500500","新莊區"
"242002","347-TH","2017/06/13 20:29:33","新北市新莊區明中街11號","121.458716666667","25.0382683333333","6500500","新莊區"
"242017","348-TH","2017/06/13 20:29:26","新北市新莊區中港二街43號","121.450573333333","25.0458416666667","6500500","新莊區"
"242054","349-TH","2017/06/13 20:29:19","新北市新莊區民安西路240號","121.425963333333","25.014095","6500500","新莊區"
"242015","350-TH","2017/06/13 20:29:28","新北市新莊區中平路36巷29號","121.446048333333","25.0436616666667","6500500","新莊區"
"242009","351-TH","2017/06/13 20:29:33","新北市新莊區昌隆街65號","121.456808333333","25.0509366666667","6500500","新莊區"
"238023","601-UM","2017/06/13 20:29:25","新北市樹林區育德街78-1號","121.387618333333","24.9682816666667","6500700","樹林區"
"221036","130-UY","2017/06/13 20:29:32","新北市汐止區仁愛路151巷46號","121.663576666667","25.0656666666667","6501100","汐止區"
"221015","131-UY","2017/06/13 20:29:15","新北市汐止區建成路160巷16號","121.661855","25.0740016666667","6501100","汐止區"
"221010","269-BY","2017/06/13 20:29:34","新北市汐止區八連路二段450號","121.628418333333","25.1042483333333","6501100","汐止區"
"221012","278-VK","2017/06/13 20:29:25","新北市汐止區大同路三段292號","121.678216666667","25.0712783333333","6501100","汐止區"
"221023","279-VK","2017/06/13 20:29:28","新北市汐止區湖東街60號","121.634708333333","25.0726766666667","6501100","汐止區"
"221032","280-BY","2017/06/13 20:29:28","新北市汐止區弘道街53巷24號","121.6188","25.0496233333333","6501100","汐止區"
"221027","281-BY","2017/06/13 20:29:24","新北市汐止區中正路191號","121.658783333333","25.0690133333333","6501100","汐止區"
"221029","298-VK","2017/06/13 20:29:30","新北市汐止區樟樹一路129巷28號","121.640708333333","25.0651683333333","6501100","汐止區"
"221021","299-VK","2017/06/13 20:26:33","新北市汐止區水源路一段291巷1號","121.654326666667","25.0584633333333","6501100","汐止區"
"221035","622-UM","2017/06/13 20:29:17","新北市汐止區長江街101-5號","121.658783333333","25.0731433333333","6501100","汐止區"
"221025","623-UM","2017/06/13 20:29:29","新北市汐止區水源路二段110巷1號","121.65666","25.05542","6501100","汐止區"
"221033","647-BX","2017/06/13 20:29:23","新北市汐止區林森街73巷3號","121.62357","25.0408783333333","6501100","汐止區"
"221002","707-TV","2017/06/13 20:29:19","新北市汐止區福德二路31號","121.634903333333","25.0677166666667","6501100","汐止區"
"221018","753-BX","2017/06/13 20:29:24","新北市汐止區茄苳路225巷11弄17號","121.670878333333","25.0697483333333","6501100","汐止區"
"220069","258-TC","2017/06/13 20:29:14","新北市板橋區貴興路92號","121.455885","25.0026333333333","6500100","板橋區"
"220083","286-VK","2017/06/13 20:29:25","新北市板橋區僑中二街102巷18號","121.445396666667","25.0085366666667","6500100","板橋區"
"220081","287-VK","2017/06/13 20:29:15","新北市板橋區僑中三街40號","121.445211666667","25.005055","6500100","板橋區"
"220089","487-VK","2017/06/13 20:29:28","新北市板橋區四維路137巷23號","121.46403","25.02478","6500100","板橋區"
"220103","561-BX","2017/06/13 20:29:27","新北市板橋區漢生東路23巷39號","121.465773333333","25.0178966666667","6500100","板橋區"
"220074","895-R6","2017/06/13 20:29:29","新北市板橋區館前西路86號","121.45757","25.00706","6500100","板橋區"
"220070","AAC-253","2017/06/13 20:29:15","新北市板橋區四川路二段245巷22號","121.451236666667","24.9928833333333","6500100","板橋區"
