"lineid","car","time","location","longitude","latitude","cityid","cityname"
"243004","646-TV","2017/06/13 21:02:34","新北市泰山區黎明路25號","121.422035","25.0606816666667","6501600","泰山區"
"247001","336-TH","2017/06/13 22:17:50","新北市五股區中興路三段2巷10號","121.448801666667","25.0817","6501400","蘆洲區"
"223002","198-BX","2017/06/13 09:45:17","新北市石碇區小粗坑(潭邊里)9-2號","121.678681666667","24.9857566666667","6501900","石碇區"
"251008","181-VK","2017/06/13 22:49:18","新北市淡水區下圭柔山90-8號","121.431946666667","25.211475","6501000","淡水區"
"252007","AAC-283","2017/06/13 10:38:43","新北市三芝區埔坪里埔頭坑41號","121.50399","25.265345","6502100","三芝區"
