"lineid","car","time","location","longitude","latitude","cityid","cityname"
"248005","653-BX","2017/06/24 07:49:20","新北市五股區明德路12巷6號","121.433551666667","25.0718016666667","6501500","五股區"
"244005","248-BX","2017/06/24 08:00:00","新北市林口區下福里15鄰74號","121.309571666667","25.115025","6501700","林口區"
"243002","548-UM","2017/06/24 07:45:11","新北市泰山區泰林路二段21-3號","121.43704","25.055305","6501600","泰山區"
"222004","289-BY","2017/06/24 07:25:53","新北市深坑區昇高坑路72號","121.631093333333","24.9876566666667","6501800","深坑區"
"231008","188-VK","2017/06/24 07:59:59","新北市新店區安康路一段355-3號","121.519728333333","24.9618183333333","6500600","新店區"
"247002","402-BY","2017/06/24 07:59:53","新北市蘆洲區三民路120號","121.471183333333","25.0872833333333","6501400","蘆洲區"
"226005","5620-A6","2017/06/24 07:59:52","新北市平溪區靜安路三段52巷16號","121.763576666667","25.0334733333333","6502400","平溪區"
"226002","7418-A5","2017/06/24 07:59:57","新北市平溪區十分里姜仔坑12號","121.769036666667","25.0378683333333","6502400","平溪區"
"226003","AGD-0702","2017/06/24 07:53:10","新北市平溪區嶺腳里嶺腳寮83-2號","121.750341666667","25.0349566666667","6502400","平溪區"
"223006","022-BY","2017/06/24 07:59:45","新北市石碇區蓬菜寮2號","121.651351666667","24.9730216666667","6501900","石碇區"
"223002","198-BX","2017/06/24 07:59:46","新北市石碇區溪邊寮2-2號","121.657651666667","24.9760716666667","6501900","石碇區"
"223003","205-TH","2017/06/24 07:59:57","新北市石碇區橫坪9號","121.66242","24.9704833333333","6501900","石碇區"
"223001","251-BX","2017/06/24 07:59:58","新北市石碇區橫坪5號","121.663275","24.9703433333333","6501900","石碇區"
"223008","406-TH","2017/06/24 07:59:52","新北市石碇區靜安路一段337號","121.698878333333","25.0145866666667","6501900","石碇區"
"223004","660-BX","2017/06/24 07:59:51","新北市石碇區八分寮47號","121.642421666667","25.013905","6501900","石碇區"
"223007","661-BX","2017/06/24 07:59:44","新北市石碇區靜安路一段337號","121.698895","25.0145233333333","6501900","石碇區"
"223005","677-TV","2017/06/24 07:59:55","新北市石碇區八分寮47-1號","121.642493333333","25.0138666666667","6501900","石碇區"
"227006","282-VK","2017/06/24 07:59:56","新北市雙溪區牡丹里中正路69號","121.863938333333","25.0438033333333","6502500","雙溪區"
"253003","6232-TK","2017/06/24 07:59:55","新北市石門區中山路32-3號","121.565978333333","25.2899333333333","6502200","石門區"
"253001","6251-TK","2017/06/24 07:59:42","新北市石門區中央路3-1號","121.565923333333","25.29144","6502200","石門區"
"253002","637-UY","2017/06/24 07:59:46","新北市石門區中山路64-1號","121.567351666667","25.2902616666667","6502200","石門區"
"253004","8270-PC","2017/06/24 07:59:53","新北市石門區中山路64-1號","121.56756","25.2904716666667","6502200","石門區"
"251001","155-BY","2017/06/24 07:59:50","新北市淡水區中山路8號","121.445193333333","25.16897","6501000","淡水區"
"252004","249-BX","2017/06/24 07:59:47","新北市三芝區興華里車埕18-2號","121.501968333333","25.196635","6502100","三芝區"
"252007","AAC-283","2017/06/24 00:37:35","新北市三芝區埔坪里埔頭坑41號","121.504513333333","25.264475","6502100","三芝區"
"237001","159-UY","2017/06/24 07:59:55","新北市三峽區學成路287號","121.3762","24.943495","6500900","三峽區"
"236011","165-UM","2017/06/24 07:59:54","新北市土城區青雲路322巷28號","121.457501666667","24.9753066666667","6501300","土城區"
"236002","339-SR","2017/06/24 07:59:54","新北市土城區龍泉路79-1號","121.430288333333","24.9425266666667","6501300","土城區"
