"lineid","car","time","location","longitude","latitude","cityid","cityname"
"248005","653-BX","2017/06/24 10:29:40","新北市五股區中興路二段37巷24號","121.46063","25.0750133333333","6501500","五股區"
"244005","657-BX","2017/06/24 10:29:56","新北市林口區公園路52號","121.368755","25.0694266666667","6501700","林口區"
"231008","188-VK","2017/06/24 10:29:59","新北市新店區平廣路一段125-1號","121.526663333333","24.8936916666667","6500600","新店區"
"247002","402-BY","2017/06/24 10:29:51","新北市五股區中興路三段5號","121.449233333333","25.078885","6501400","蘆洲區"
"227006","282-VK","2017/06/24 10:29:56","新北市雙溪區上林里大瀨75-1號","121.830236666667","25.028675","6502500","雙溪區"
"253001","6251-TK","2017/06/24 10:29:42","新北市石門區小坑9號","121.594383333333","25.2884266666667","6502200","石門區"
"253004","8270-PC","2017/06/24 10:20:12","新北市石門區小坑24-2號","121.594818333333","25.2772233333333","6502200","石門區"
"252004","249-BX","2017/06/24 10:29:53","新北市三芝區埔坪里埔頭坑41號","121.50458","25.26458","6502100","三芝區"
"252007","AAC-283","2017/06/24 00:37:35","新北市三芝區埔坪里埔頭坑41號","121.504513333333","25.264475","6502100","三芝區"
"236002","339-SR","2017/06/24 09:49:32","新北市土城區永平街51號","121.427698333333","24.9591316666667","6501300","土城區"
