"lineid","car","time","location","longitude","latitude","cityid","cityname"
"248005","653-BX","2017/06/24 10:40:00","新北市五股區中興路二段63巷17號","121.460195","25.0754616666667","6501500","五股區"
"244005","657-BX","2017/06/24 10:39:56","新北市林口區公園路52號","121.368726666667","25.06938","6501700","林口區"
"231008","188-VK","2017/06/24 10:39:39","新北市新店區小坑一路22號","121.53235","24.914095","6500600","新店區"
"247002","402-BY","2017/06/24 10:34:32","新北市五股區中興路三段5號","121.449785","25.078965","6501400","蘆洲區"
"227006","282-VK","2017/06/24 10:37:16","新北市雙溪區新基里新基東街15號","121.871403333333","25.041655","6502500","雙溪區"
"252007","AAC-283","2017/06/24 00:37:35","新北市三芝區埔坪里埔頭坑41號","121.504513333333","25.264475","6502100","三芝區"
"236002","339-SR","2017/06/24 09:49:32","新北市土城區永平街51號","121.427698333333","24.9591316666667","6501300","土城區"
