"lineid","car","time","location","longitude","latitude","cityid","cityname"
"244005","657-BX","2017/06/24 10:49:56","新北市林口區文化一路一段15巷8-1號","121.368775","25.0693133333333","6501700","林口區"
"231008","188-VK","2017/06/24 10:45:20","新北市新店區小坑一路35巷1號","121.529083333333","24.909605","6500600","新店區"
"247002","402-BY","2017/06/24 10:34:32","新北市五股區中興路三段5號","121.449785","25.078965","6501400","蘆洲區"
"227006","282-VK","2017/06/24 10:49:56","新北市雙溪區新基里新基東街15-2號","121.872486666667","25.0419983333333","6502500","雙溪區"
"236002","339-SR","2017/06/24 09:49:32","新北市土城區永平街51號","121.427698333333","24.9591316666667","6501300","土城區"
