"lineid","car","time","location","longitude","latitude","cityid","cityname"
"234012","149-BY","2017/06/24 12:29:43","新北市永和區福和路1號","121.52632","25.0098116666667","6500400","永和區"
"234005","207-UY","2017/06/24 12:29:52","新北市永和區福和路1號","121.526741666667","25.01036","6500400","永和區"
"234078","298-R6","2017/06/24 12:29:46","新北市永和區林森路48巷1號","121.524731666667","25.0046233333333","6500400","永和區"
"234036","336-UY","2017/06/24 12:29:51","新北市永和區福和路1號","121.526566666667","25.0100616666667","6500400","永和區"
"234068","552-UM","2017/06/24 12:29:54","新北市永和區福和路1號","121.52634","25.00972","6500400","永和區"
"234015","745-BX","2017/06/24 12:29:54","新北市永和區福和路1號","121.526645","25.01032","6500400","永和區"
"234060","AAD-866","2017/06/24 12:11:43","新北市永和區福和路1號","121.525798333333","25.0096533333333","6500400","永和區"
"234040","862-TW","2017/06/24 12:29:49","新北市永和區福和路1號","121.52635","25.0096866666667","6500400","永和區"
"244005","657-BX","2017/06/24 11:23:15","新北市林口區粉寮69號","121.404793333333","25.0908383333333","6501700","林口區"
"235031","255-BX","2017/06/24 11:48:19","新北市中和區和城路一段271巷1號","121.485583333333","24.991935","6500300","中和區"
"247002","402-BY","2017/06/24 10:34:32","新北市五股區中興路三段5號","121.449785","25.078965","6501400","蘆洲區"
"228005","097-TW","2017/06/24 12:29:43","新北市貢寮區福連里蓬萊街17號","121.976018333333","24.9916016666667","6502600","貢寮區"
"228004","212-TW","2017/06/24 12:28:52","新北市貢寮區龍崗里嵩陽街33號","121.903995","25.017915","6502600","貢寮區"
"207002","749-BX","2017/06/24 12:29:43","新北市萬里區雙興里太和路7-2號","121.658528333333","25.1740066666667","6502800","萬里區"
"207003","550-UM","2017/06/24 12:29:53","新北市五股區五工二路134號","121.45357","25.073365","6502800","萬里區"
"236002","339-SR","2017/06/24 12:29:44","新北市樹林區八德街668號","121.395623333333","24.9688833333333","6501300","土城區"
"221010","276-VK","2017/06/24 12:29:38","新北市汐止區中正路203號","121.658475","25.0689883333333","6501100","汐止區"
"221002","753-BX","2017/06/24 12:29:47","新北市汐止區康寧街753巷1-1號","121.638815","25.073715","6501100","汐止區"
