"lineid","car","time","location","longitude","latitude","cityid","cityname"
"234044","148-BY","2017/06/24 13:49:55","新北市永和區永利路183號","121.526123333333","25.003405","6500400","永和區"
"234012","149-BY","2017/06/24 13:49:42","新北市永和區保安路292號","121.50502","25.0117983333333","6500400","永和區"
"234005","207-UY","2017/06/24 13:49:52","新北市中和區中和路378巷2-1號","121.510831666667","25.0020233333333","6500400","永和區"
"234078","298-R6","2017/06/24 13:49:46","新北市永和區永亨路98號","121.52304","25.0048583333333","6500400","永和區"
"234036","336-UY","2017/06/24 13:49:51","新北市永和區成功路二段152-1號","121.526428333333","24.996745","6500400","永和區"
"234062","337-UY","2017/06/24 13:49:52","新北市永和區中正路368巷44號","121.519163333333","25.0006333333333","6500400","永和區"
"234084","338-UY","2017/06/24 13:49:44","新北市永和區永亨路104號","121.523448333333","25.00464","6500400","永和區"
"234068","552-UM","2017/06/24 13:49:54","新北市永和區竹林路86號","121.519335","25.0126","6500400","永和區"
"234052","553-UM","2017/06/24 13:49:40","新北市永和區竹林路39巷28弄3號","121.51943","25.0148333333333","6500400","永和區"
"234015","745-BX","2017/06/24 13:49:54","新北市永和區永和路二段297號","121.516023333333","25.01605","6500400","永和區"
"234028","746-BX","2017/06/24 13:49:43","新北市永和區民生路47巷56號","121.525503333333","24.9978283333333","6500400","永和區"
"234060","AAD-866","2017/06/24 13:49:54","新北市永和區中正路192號","121.515388333333","24.9971516666667","6500400","永和區"
"234040","862-TW","2017/06/24 13:49:49","新北市永和區中和路335巷14號","121.507523333333","25.0002833333333","6500400","永和區"
"234048","863-TW","2017/06/24 13:49:53","新北市永和區保安路77號","121.508646666667","25.014855","6500400","永和區"
"234010","9373-KE","2017/06/24 13:49:40","新北市永和區保福路二段163巷12號","121.50888","25.01467","6500400","永和區"
"248017","225-UY","2017/06/24 13:49:51","新北市五股區民義路二段22巷30-1號","121.42405","25.0995316666667","6501500","五股區"
"234022","9380-KE","2017/06/24 13:49:53","新北市永和區復興街2巷4號","121.515721666667","25.01258","6500400","永和區"
"234076","969-R7","2017/06/24 13:49:47","新北市永和區民權路17號","121.520015","24.9980466666667","6500400","永和區"
"234072","AAC-211","2017/06/24 13:49:43","新北市永和區豫溪街162巷1號","121.523738333333","25.00953","6500400","永和區"
"234066","AAC-212","2017/06/24 13:49:55","新北市永和區中山路一段148號","121.509775","25.0094583333333","6500400","永和區"
"234001","AAC-295","2017/06/24 13:47:59","新北市永和區永和路一段118號","121.513975","25.0078316666667","6500400","永和區"
"244005","657-BX","2017/06/24 11:23:15","新北市林口區粉寮69號","121.404793333333","25.0908383333333","6501700","林口區"
"231002","002-UM","2017/06/24 13:49:41","新北市新店區溪園路245-6號","121.525201666667","24.9831333333333","6500600","新店區"
"231025","0291-UT","2017/06/24 13:49:47","新北市新店區中央六街56號","121.527836666667","24.975725","6500600","新店區"
"231028","046-UY","2017/06/24 13:49:36","新北市新店區安和路三段61號","121.518021666667","24.983215","6500600","新店區"
"231030","047-UY","2017/06/24 13:49:49","新北市新店區安康路一段266巷4號","121.520126666667","24.9640233333333","6500600","新店區"
"231029","106-UY","2017/06/24 13:50:00","新北市新店區安康路二段125-1號","121.512381666667","24.960875","6500600","新店區"
"231018","107-UY","2017/06/24 13:49:51","新北市新店區中正路400巷10號","121.534965","24.977825","6500600","新店區"
"231012","108-UY","2017/06/24 13:49:55","新北市新店區德正街27巷26號","121.545433333333","24.97112","6500600","新店區"
"231020","187-VK","2017/06/24 13:49:54","新北市新店區新烏路二段50巷22號","121.547303333333","24.92693","6500600","新店區"
"231026","256-BX","2017/06/24 13:49:53","新北市新店區三民路96號","121.534138333333","24.9729383333333","6500600","新店區"
"231034","268-BY","2017/06/24 13:49:37","新北市新店區達觀路16號","121.503226666667","24.9406216666667","6500600","新店區"
"231010","278-BY","2017/06/24 13:49:48","新北市新店區三民路60巷18號","121.535751666667","24.972925","6500600","新店區"
"231017","AAD-862","2017/06/24 13:49:47","新北市新店區竹林路82號","121.554418333333","24.950465","6500600","新店區"
"231027","3712-VJ","2017/06/24 13:49:45","新北市新店區北宜路一段105巷18號","121.540513333333","24.9558666666667","6500600","新店區"
"231024","3713-VJ","2017/06/24 13:49:49","新北市新店區北新路一段271巷35號","121.539436666667","24.9669316666667","6500600","新店區"
"231038","4715-K9","2017/06/24 13:49:58","新北市新店區安華路30巷1號","121.519541666667","24.9592783333333","6500600","新店區"
"231036","512-UM","2017/06/24 13:49:52","新北市新店區安祥路110巷61號","121.473766666667","24.95687","6500600","新店區"
"231023","513-UM","2017/06/24 13:49:56","新北市新店區國校路6-2號","121.537906666667","24.9562616666667","6500600","新店區"
"231035","515-UM","2017/06/24 13:49:41","新北市新店區安忠路57巷7弄2號","121.513365","24.9584916666667","6500600","新店區"
"231003","616-UM","2017/06/24 13:49:58","新北市新店區中興路一段115號","121.541448333333","24.9628033333333","6500600","新店區"
"231006","617-UM","2017/06/24 13:49:51","新北市新店區北宜路一段256號","121.54563","24.9527883333333","6500600","新店區"
"231001","619-UM","2017/06/24 13:49:56","新北市新店區三民路42-1號","121.5361","24.9716516666667","6500600","新店區"
"231013","719-UM","2017/06/24 13:49:39","新北市新店區二十張路25巷16號","121.539191666667","24.9820533333333","6500600","新店區"
"231033","720-UM","2017/06/24 13:49:57","新北市新店區莒光路87巷15號","121.525293333333","24.953135","6500600","新店區"
"231005","897-TW","2017/06/24 13:49:52","新北市新店區寶中路121-1號","121.549671666667","24.9794133333333","6500600","新店區"
"231004","899-TW","2017/06/24 13:49:46","新北市新店區寶橋路98號","121.546775","24.9759883333333","6500600","新店區"
"231037","AKT-0513","2017/06/24 13:49:40","新北市新店區安康路三段207巷19號","121.488436666667","24.9508","6500600","新店區"
"235030","003-UY","2017/06/24 13:49:55","新北市中和區水源路43號","121.504711666667","25.0035833333333","6500300","中和區"
"235028","005-UY","2017/06/24 13:49:55","新北市中和區連城路89巷5號","121.497113333333","24.9995933333333","6500300","中和區"
"235027","006-UY","2017/06/24 13:49:58","新北市中和區中正路700號","121.486133333333","24.9962816666667","6500300","中和區"
"235026","031-BX","2017/06/24 13:49:41","新北市中和區中山路二段340巷15號","121.493595","25.00305","6500300","中和區"
"235020","096-UM","2017/06/24 13:49:54","新北市中和區立德街329號","121.481481666667","25.0104433333333","6500300","中和區"
"235003","097-UM","2017/06/24 13:49:49","新北市中和區大勇街25巷15弄1號","121.515898333333","24.9936433333333","6500300","中和區"
"235004","150-BY","2017/06/24 13:49:43","新北市中和區保健路63號","121.50958","24.997275","6500300","中和區"
"235022","151-BY","2017/06/24 13:49:51","新北市中和區連城路573-1號","121.479006666667","24.9944466666667","6500300","中和區"
"235019","183-VK","2017/06/24 13:49:55","新北市中和區民德路25巷12號","121.469475","25.0028883333333","6500300","中和區"
"235002","185-VK","2017/06/24 13:49:47","新北市中和區秀朗路三段128巷17弄5號","121.524285","24.9934716666667","6500300","中和區"
"235031","255-BX","2017/06/24 13:49:56","新北市中和區新生街220巷4號","121.482946666667","24.9985183333333","6500300","中和區"
"235008","293-VK","2017/06/24 13:49:40","新北市中和區復興路280巷13號","121.502291666667","24.99128","6500300","中和區"
"235036","301-VK","2017/06/24 13:49:44","新北市中和區中山路二段133號","121.502263333333","25.0031383333333","6500300","中和區"
"235007","352-BY","2017/06/24 13:49:40","新北市中和區景平路1號","121.525775","24.9900783333333","6500300","中和區"
"235015","376-QA","2017/06/24 13:49:52","新北市中和區忠孝街106巷27號","121.513145","24.984385","6500300","中和區"
"235032","377-QA","2017/06/24 13:49:52","新北市中和區中正路167巷15號","121.49846","24.9928016666667","6500300","中和區"
"235025","378-QA","2017/06/24 13:49:57","新北市中和區民享街91-1號","121.47437","25.0013633333333","6500300","中和區"
"235014","4979-A6","2017/06/24 13:49:57","新北市中和區忠孝街58巷30弄5號","121.512188333333","24.98261","6500300","中和區"
"235033","4980-A6","2017/06/24 13:49:47","新北市中和區圓通路61號","121.5005","24.9971983333333","6500300","中和區"
"235006","551-UM","2017/06/24 13:49:42","新北市中和區秀朗路三段128巷31號","121.524661666667","24.9943583333333","6500300","中和區"
"235034","558-UM","2017/06/24 13:49:50","新北市中和區南華路52號","121.504296666667","24.9968066666667","6500300","中和區"
"235009","565-BX","2017/06/24 13:49:59","新北市中和區南山路397號","121.506685","24.990115","6500300","中和區"
"235018","640-BX","2017/06/24 13:49:43","新北市中和區莒光路129巷1弄10號","121.473045","25.0023333333333","6500300","中和區"
"235024","647-TV","2017/06/24 13:49:43","新北市中和區中山路三段32號","121.478985","25.0059816666667","6500300","中和區"
"235011","732-UM","2017/06/24 13:49:46","新北市中和區興南路二段34巷57弄2號","121.504925","24.985715","6500300","中和區"
"235010","733-UM","2017/06/24 13:49:43","新北市中和區忠孝街103-1號","121.511791666667","24.9862266666667","6500300","中和區"
"235035","783-BX","2017/06/24 13:49:37","新北市中和區立德街98巷101號","121.488761666667","25.00858","6500300","中和區"
"235021","801-TS","2017/06/24 13:49:52","新北市中和區員山路327巷96號","121.479318333333","25.0023933333333","6500300","中和區"
"235005","802-TS","2017/06/24 13:49:56","新北市中和區永貞路244號","121.514443333333","25.0037466666667","6500300","中和區"
"235016","805-TS","2017/06/24 13:49:42","新北市中和區興南路二段399巷86號","121.500066666667","24.9783883333333","6500300","中和區"
"235012","896-TW","2017/06/24 13:49:55","新北市中和區南山路415號","121.507153333333","24.989655","6500300","中和區"
"235017","900-TW","2017/06/24 13:49:58","新北市中和區華安街16-1號","121.466088333333","24.9981966666667","6500300","中和區"
"235001","AAC-213","2017/06/24 13:49:54","新北市中和區景平路111巷75號","121.514868333333","24.9902166666667","6500300","中和區"
"235023","AAC-215","2017/06/24 13:49:58","新北市中和區圓通路385號","121.490236666667","24.9892566666667","6500300","中和區"
"220013","072-UY","2017/06/24 13:49:50","新北市板橋區民生路二段56-1號","121.472355","25.0169816666667","6500100","板橋區"
"220034","073-UY","2017/06/24 13:49:55","新北市板橋區大智街69號","121.453706666667","25.0155633333333","6500100","板橋區"
"220105","075-UY","2017/06/24 13:49:54","新北市板橋區民生路二段161巷9號","121.470316666667","25.0196283333333","6500100","板橋區"
"220017","AAD-861","2017/06/24 13:49:30","新北市板橋區民生路二段56-2號","121.472053333333","25.0169766666667","6500100","板橋區"
"247002","402-BY","2017/06/24 13:49:39","新北市蘆洲區民權路5號","121.476423333333","25.0857666666667","6501400","蘆洲區"
"247007","339-TH","2017/06/24 13:49:55","新北市蘆洲區重陽街72-2號","121.482126666667","25.0840466666667","6501400","蘆洲區"
"247005","335-TH","2017/06/24 13:49:45","新北市蘆洲區和平路77號","121.469291666667","25.0790816666667","6501400","蘆洲區"
"247013","057-VK","2017/06/24 13:49:41","新北市蘆洲區中正路100號","121.469741666667","25.0843133333333","6501400","蘆洲區"
"247003","056-VK","2017/06/24 13:49:41","新北市蘆洲區中原路23號","121.460465","25.0828933333333","6501400","蘆洲區"
"247021","002-UY","2017/06/24 13:49:50","新北市蘆洲區中正路263巷2號","121.467318333333","25.087425","6501400","蘆洲區"
"247015","001-UY","2017/06/24 13:49:54","新北市蘆洲區光華路29號","121.469198333333","25.0831816666667","6501400","蘆洲區"
"228005","097-TW","2017/06/24 13:49:43","新北市雙溪區三港里雙澳路100號","121.888553333333","25.0561466666667","6502600","貢寮區"
"228004","212-TW","2017/06/24 13:41:12","新北市貢寮區龍崗里嵩陽街41號","121.905135","25.01309","6502600","貢寮區"
"208004","742-BX","2017/06/24 13:49:48","新北市金山區重和里三重橋17號","121.589595","25.189005","6502700","金山區"
"251001","155-BY","2017/06/24 13:49:53","新北市淡水區英專路46號","121.445711666667","25.17049","6501000","淡水區"
"207002","749-BX","2017/06/24 13:49:43","新北市萬里區崁腳里崁腳路173-1號","121.646373333333","25.1547466666667","6502800","萬里區"
"207001","463-BY","2017/06/24 13:49:40","新北市萬里區磺潭里清水2號","121.634928333333","25.202065","6502800","萬里區"
"207003","550-UM","2017/06/24 13:48:33","基隆市七堵區華新一路122號","121.674756666667","25.0993766666667","6502800","萬里區"
"252005","AAC-283","2017/06/24 00:37:35","新北市三芝區埔坪里埔頭坑41號","121.504513333333","25.264475","6502100","三芝區"
"236068","105-UM","2017/06/24 13:49:55","新北市土城區金城路一段86號","121.444903333333","24.9734183333333","6501300","土城區"
"236075","166-UM","2017/06/24 13:49:42","新北市土城區中華路二段221號","121.437588333333","24.9728766666667","6501300","土城區"
"236029","253-BX","2017/06/24 13:49:56","新北市土城區城林路6巷80號","121.43837","24.979815","6501300","土城區"
"236025","269-VK","2017/06/24 13:49:59","新北市土城區中華路二段196號","121.437536666667","24.970335","6501300","土城區"
"236013","270-VK","2017/06/24 13:49:48","新北市土城區城林路6巷80號","121.438613333333","24.979835","6501300","土城區"
"236035","271-VK","2017/06/24 13:49:55","新北市土城區城林路6巷80號","121.43849","24.97979","6501300","土城區"
"236002","339-SR","2017/06/24 13:17:06","新北市土城區永平街51號","121.427631666667","24.9591933333333","6501300","土城區"
"236017","401-BY","2017/06/24 13:49:42","新北市土城區城林路6巷80號","121.438563333333","24.9797716666667","6501300","土城區"
"236006","498-BY","2017/06/24 13:49:56","新北市土城區中央路一段65號","121.44779","24.990005","6501300","土城區"
"236057","912-UM","2017/06/24 13:49:53","新北市土城區城林路6巷80號","121.438376666667","24.9798516666667","6501300","土城區"
"236045","913-UM","2017/06/23 21:04:26","新北市土城區城林路6巷80號","121.438626666667","24.97973","6501300","土城區"
"236061","915-UM","2017/06/24 13:49:49","新北市土城區城林路6巷80號","121.43834","24.979805","6501300","土城區"
"236054","AAC-216","2017/06/24 13:49:49","新北市土城區城林路6巷80號","121.438308333333","24.9797783333333","6501300","土城區"
"242044","172-VK","2017/06/24 13:49:39","新北市新莊區成德街62號","121.424018333333","25.0224166666667","6500500","新莊區"
"221010","276-VK","2017/06/24 13:21:50","新北市汐止區汐萬路一段256巷3號","121.653466666667","25.0746083333333","6501100","汐止區"
"220027","145-BY","2017/06/24 13:49:53","新北市板橋區中正路自強新村36號","121.456346666667","25.0135383333333","6500100","板橋區"
"220030","610-BX","2017/06/24 13:49:57","新北市板橋區篤行路三段24號","121.428626666667","24.986995","6500100","板橋區"
"220004","276-BY","2017/06/24 13:49:48","新北市板橋區四川路二段53號","121.453713333333","24.9952","6500100","板橋區"
"220020","277-BY","2017/06/24 13:49:55","新北市板橋區大觀路三段95號","121.432861666667","24.9946733333333","6500100","板橋區"
"220012","280-UM","2017/06/24 13:49:53","新北市板橋區民生路二段36-1號","121.472228333333","25.01674","6500100","板橋區"
"220043","283-UM","2017/06/24 13:49:52","新北市板橋區民生路二段120號","121.470306666667","25.02012","6500100","板橋區"
"220019","283-VK","2017/06/24 13:49:51","新北市板橋區觀光街4號","121.472216666667","25.0157616666667","6500100","板橋區"
"220001","285-VK","2017/06/24 13:49:52","新北市板橋區民生路二段56號","121.47217","25.0177933333333","6500100","板橋區"
"220031","286-VK","2017/06/24 13:49:38","新北市板橋區大觀路二段22巷32號","121.445051666667","25.0036683333333","6500100","板橋區"
"220029","287-VK","2017/06/24 13:49:54","新北市板橋區大觀路一段28巷106-3號","121.451351666667","25.0107333333333","6500100","板橋區"
"220039","288-VK","2017/06/24 13:49:53","新北市板橋區民生路二段120號","121.470308333333","25.0197816666667","6500100","板橋區"
"220009","293-UM","2017/06/24 13:49:51","新北市板橋區民生路二段48號","121.472303333333","25.0176983333333","6500100","板橋區"
"220032","296-UM","2017/06/24 13:49:48","新北市板橋區大觀路二段174巷102弄19號","121.441645","25.0012216666667","6500100","板橋區"
"220023","297-UM","2017/06/24 13:49:39","新北市板橋區大觀路一段28巷106號","121.450323333333","25.0110766666667","6500100","板橋區"
"220046","299-UM","2017/06/24 13:49:46","新北市板橋區民生路二段120號","121.470443333333","25.0198616666667","6500100","板橋區"
"220010","305-R5","2017/06/24 03:30:45","新北市板橋區中山路二段89巷5弄12號","121.472736666667","25.016775","6500100","板橋區"
"220041","307-R5","2017/06/24 13:49:58","新北市板橋區民生路二段161巷9號","121.470236666667","25.0196266666667","6500100","板橋區"
"220047","317-R6","2017/06/24 13:49:50","新北市板橋區民生路二段120號","121.470376666667","25.0198416666667","6500100","板橋區"
"220038","487-VK","2017/06/24 13:49:46","新北市板橋區民生路二段120號","121.470446666667","25.019625","6500100","板橋區"
"220002","491-VK","2017/06/24 13:49:35","新北市板橋區民生路二段161巷3號","121.47001","25.01974","6500100","板橋區"
"220104","560-BX","2017/06/24 13:49:51","新北市板橋區中正路275巷71弄12號","121.452356666667","25.017515","6500100","板橋區"
"220052","561-BX","2017/06/24 13:49:53","新北市板橋區民生路二段120號","121.47035","25.0199416666667","6500100","板橋區"
"220016","568-UM","2017/06/24 13:49:41","新北市板橋區民生路二段56-2號","121.472285","25.0171883333333","6500100","板橋區"
"220011","609-BX","2017/06/24 13:49:58","新北市板橋區民生路二段36-1號","121.47249","25.0167666666667","6500100","板橋區"
"220040","637-BX","2017/06/24 13:49:43","新北市板橋區民生路二段188號","121.470211666667","25.0202716666667","6500100","板橋區"
"220005","686-BX","2017/06/24 13:49:42","新北市板橋區民生路二段36-1號","121.472608333333","25.0166266666667","6500100","板橋區"
"220025","687-BX","2017/06/24 13:49:46","新北市板橋區金門街54號","121.433153333333","24.99295","6500100","板橋區"
"220042","689-BX","2017/06/24 13:49:42","新北市板橋區民生路二段120號","121.47033","25.0199133333333","6500100","板橋區"
"220002","741-BX","2017/06/24 13:49:42","新北市板橋區民生路二段17號","121.472468333333","25.016385","6500100","板橋區"
"220003","827-TW","2017/06/24 13:49:41","新北市板橋區民生路二段22號","121.47268","25.0165433333333","6500100","板橋區"
"220014","829-TW","2017/06/24 13:49:44","新北市板橋區民生路二段17號","121.472491666667","25.0163966666667","6500100","板橋區"
"220051","830-TW","2017/06/24 13:49:52","新北市板橋區莊敬路208巷8弄9號","121.47066","25.0203033333333","6500100","板橋區"
"220045","831-TW","2017/06/24 01:26:05","新北市板橋區民生路二段161巷5號","121.470145","25.01972","6500100","板橋區"
"220022","895-R6","2017/06/24 13:49:54","新北市板橋區南門街73號","121.457005","25.0080116666667","6500100","板橋區"
"220021","985-R7","2017/06/24 13:49:52","新北市板橋區館前西路114號","121.456878333333","25.007525","6500100","板橋區"
"220018","AAC-253","2017/06/24 13:49:54","新北市板橋區民生路二段17號","121.472383333333","25.0164716666667","6500100","板橋區"
