"lineid","car","time","location","longitude","latitude","cityid","cityname"
"234044","148-BY","2017/06/24 14:09:56","新北市永和區成功路一段25號","121.527081666667","25.0046583333333","6500400","永和區"
"234012","149-BY","2017/06/24 14:09:42","新北市永和區永貞路424號","121.508293333333","25.00867","6500400","永和區"
"234005","207-UY","2017/06/24 14:09:52","新北市永和區永貞路372號","121.509923333333","25.006835","6500400","永和區"
"234078","298-R6","2017/06/24 14:09:48","新北市永和區國中路109巷3弄1號","121.523905","25.0055933333333","6500400","永和區"
"234036","336-UY","2017/06/24 14:09:51","新北市永和區成功路一段93巷20弄6號","121.527981666667","25.002675","6500400","永和區"
"234062","337-UY","2017/06/24 14:09:52","新北市永和區永利路152號","121.522448333333","25.002755","6500400","永和區"
"234084","338-UY","2017/06/24 14:09:44","新北市永和區福和路217號","121.51906","25.0074916666667","6500400","永和區"
"234068","552-UM","2017/06/24 14:09:54","新北市永和區福和路222號","121.519266666667","25.0076433333333","6500400","永和區"
"234052","553-UM","2017/06/24 14:09:40","新北市永和區博愛街29號","121.51833","25.0158516666667","6500400","永和區"
"234015","745-BX","2017/06/24 14:09:55","新北市永和區文化路28號","121.51515","25.0150833333333","6500400","永和區"
"234028","746-BX","2017/06/24 14:09:43","新北市永和區民權路82號","121.519703333333","24.997145","6500400","永和區"
"234060","AAD-866","2017/06/24 14:09:54","新北市永和區安樂路100巷21弄1號","121.514755","24.9990366666667","6500400","永和區"
"234040","862-TW","2017/06/24 14:09:49","新北市永和區雙和街2號","121.509911666667","25.001775","6500400","永和區"
"234048","863-TW","2017/06/24 14:09:53","新北市永和區環河西路二段87號","121.506645","25.0149783333333","6500400","永和區"
"234025","9371-KE","2017/06/24 14:09:51","新北市永和區安樂路272巷9弄7號","121.515088333333","25.0046133333333","6500400","永和區"
"234010","9373-KE","2017/06/24 14:09:40","新北市永和區仁愛路352巷112弄13號","121.501006666667","25.008625","6500400","永和區"
"248017","225-UY","2017/06/24 14:09:51","新北市五股區壟路1-6號","121.419098333333","25.0957966666667","6501500","五股區"
"234022","9380-KE","2017/06/24 14:09:52","新北市永和區竹林路25巷21號","121.518151666667","25.0149866666667","6500400","永和區"
"234076","969-R7","2017/06/24 14:09:46","新北市永和區民權路100號","121.5199","24.9965716666667","6500400","永和區"
"234072","AAC-211","2017/06/24 14:09:59","新北市永和區竹林路211號","121.520628333333","25.00889","6500400","永和區"
"234066","AAC-212","2017/06/24 14:09:55","新北市永和區永貞路358號","121.510266666667","25.006605","6500400","永和區"
"234001","AAC-295","2017/06/24 14:07:59","新北市永和區永和路二段8號","121.514488333333","25.01025","6500400","永和區"
"244005","657-BX","2017/06/24 11:23:15","新北市林口區粉寮69號","121.404793333333","25.0908383333333","6501700","林口區"
"231002","002-UM","2017/06/24 14:09:41","新北市新店區中正路485號","121.533788333333","24.981905","6500600","新店區"
"231025","0291-UT","2017/06/24 14:09:47","新北市新店區中正路328巷40號","121.538096666667","24.9763716666667","6500600","新店區"
"231028","046-UY","2017/06/24 14:09:56","新北市新店區安和路二段51號","121.518183333333","24.968145","6500600","新店區"
"231030","047-UY","2017/06/24 14:09:49","新北市新店區安民街65巷21-2號","121.51516","24.9674883333333","6500600","新店區"
"231029","106-UY","2017/06/24 14:10:00","新北市新店區安康路二段186號","121.511396666667","24.960135","6500600","新店區"
"231018","107-UY","2017/06/24 14:09:51","新北市新店區中央五街22號","121.529311666667","24.9745366666667","6500600","新店區"
"231012","108-UY","2017/06/24 14:09:55","新北市新店區五峰路63巷8弄72號","121.547968333333","24.968545","6500600","新店區"
"231020","187-VK","2017/06/24 14:09:54","新北市新店區新烏路二段212-1號","121.547395","24.91551","6500600","新店區"
"231034","268-BY","2017/06/24 14:09:56","新北市新店區黎明路3號","121.503791666667","24.9525766666667","6500600","新店區"
"231017","AAD-862","2017/06/24 14:09:47","新北市新店區中生路148號","121.569305","24.9487483333333","6500600","新店區"
"231027","3712-VJ","2017/06/24 14:09:45","新北市新店區北宜路一段3號","121.538463333333","24.9584583333333","6500600","新店區"
"231024","3713-VJ","2017/06/24 14:09:49","新北市新店區中央三街117號","121.524453333333","24.97617","6500600","新店區"
"231038","4715-K9","2017/06/24 14:09:38","新北市新店區溪洲路121號","121.531356666667","24.9626833333333","6500600","新店區"
"231036","512-UM","2017/06/24 14:09:52","新北市新店區安祥路109巷6弄47號","121.475573333333","24.9573383333333","6500600","新店區"
"231023","513-UM","2017/06/24 14:09:56","新北市新店區文中路40號","121.539771666667","24.9565316666667","6500600","新店區"
"231035","515-UM","2017/06/24 14:09:41","新北市新店區安和路一段53號","121.517553333333","24.9660566666667","6500600","新店區"
"231003","616-UM","2017/06/24 14:09:53","新北市新店區中興路一段113號","121.541425","24.9626316666667","6500600","新店區"
"231006","617-UM","2017/06/24 14:09:51","新北市新店區北宜路二段126號","121.556843333333","24.9538633333333","6500600","新店區"
"231001","619-UM","2017/06/24 14:09:36","新北市新店區中華路52號","121.539641666667","24.96858","6500600","新店區"
"231013","719-UM","2017/06/24 14:09:58","新北市新店區北新路3段65巷34弄29-1號","121.54002","24.9820966666667","6500600","新店區"
"231033","720-UM","2017/06/24 14:09:57","新北市新店區溪洲路56號","121.532708333333","24.9615416666667","6500600","新店區"
"231005","897-TW","2017/06/24 14:09:52","新北市新店區中興路三段293號","121.54227","24.9848983333333","6500600","新店區"
"231004","899-TW","2017/06/24 14:09:46","新北市新店區北新路二段156-1號","121.542981666667","24.9755583333333","6500600","新店區"
"231037","AKT-0513","2017/06/24 14:09:40","新北市新店區安豐路3號","121.501898333333","24.9573416666667","6500600","新店區"
"235030","003-UY","2017/06/24 14:09:55","新北市中和區中山路二段131號","121.50244","25.0033633333333","6500300","中和區"
"235028","005-UY","2017/06/24 14:09:57","新北市中和區泰和街30巷22號","121.498998333333","25.0012133333333","6500300","中和區"
"235027","006-UY","2017/06/24 14:09:58","新北市中和區連城路260號","121.486296666667","24.9965783333333","6500300","中和區"
"235026","031-BX","2017/06/24 14:09:41","新北市中和區橋安街8號","121.492711666667","25.0041816666667","6500300","中和區"
"235020","096-UM","2017/06/24 14:09:54","新北市中和區中正路1171號","121.481361666667","25.0094083333333","6500300","中和區"
"235003","097-UM","2017/06/24 14:09:49","新北市中和區景平路3號","121.523668333333","24.990235","6500300","中和區"
"235004","150-BY","2017/06/24 14:09:38","新北市中和區宜安路119巷16號","121.509831666667","24.9976366666667","6500300","中和區"
"235022","151-BY","2017/06/24 14:09:51","新北市中和區員山路143巷8號","121.480578333333","24.9961583333333","6500300","中和區"
"235019","183-VK","2017/06/24 14:09:55","新北市中和區德光路94號","121.468703333333","25.0035216666667","6500300","中和區"
"235002","185-VK","2017/06/24 14:09:47","新北市中和區立人街14巷41號","121.519208333333","24.9954933333333","6500300","中和區"
"235031","255-BX","2017/06/24 14:09:56","新北市中和區新生街214號","121.483818333333","24.998785","6500300","中和區"
"235008","293-VK","2017/06/24 14:09:40","新北市中和區中興街178號","121.499601666667","24.990905","6500300","中和區"
"235036","301-VK","2017/06/24 14:09:56","新北市中和區中山路二段276號","121.496616666667","25.0026183333333","6500300","中和區"
"235007","352-BY","2017/06/24 14:09:40","新北市中和區景平路8號","121.5241","24.9905666666667","6500300","中和區"
"235015","376-QA","2017/06/24 14:09:52","新北市中和區興南路一段20-3號","121.511115","24.9911016666667","6500300","中和區"
"235032","377-QA","2017/06/24 14:09:52","新北市中和區圓通路158巷1弄9號","121.497231666667","24.9960616666667","6500300","中和區"
"235025","378-QA","2017/06/24 14:09:57","新北市中和區自治街1號","121.474593333333","25.0032233333333","6500300","中和區"
"235014","4979-A6","2017/06/24 14:09:57","新北市中和區復興路280巷18弄20號","121.501763333333","24.99235","6500300","中和區"
"235033","4980-A6","2017/06/24 14:09:46","新北市中和區中山路二段178巷1號","121.500446666667","25.00282","6500300","中和區"
"235006","551-UM","2017/06/24 14:09:42","新北市中和區自立路115號","121.521976666667","24.994505","6500300","中和區"
"235034","558-UM","2017/06/24 14:09:50","新北市中和區安和路201號","121.50607","24.998615","6500300","中和區"
"235009","565-BX","2017/06/24 14:09:39","新北市中和區景新街467巷20弄86號","121.514413333333","24.9876683333333","6500300","中和區"
"235018","640-BX","2017/06/24 14:09:43","新北市中和區國光街8巷1號","121.471623333333","25.000255","6500300","中和區"
"235024","647-TV","2017/06/24 14:09:43","新北市中和區民享街86巷1號","121.474486666667","25.0009516666667","6500300","中和區"
"235011","732-UM","2017/06/24 14:09:46","新北市中和區興南路一段56巷1弄2號","121.51072","24.9908033333333","6500300","中和區"
"235010","733-UM","2017/06/24 14:09:43","新北市中和區忠孝街1巷82號","121.50822","24.984925","6500300","中和區"
"235035","783-BX","2017/06/24 14:09:57","新北市中和區中正路748號","121.48551","24.998515","6500300","中和區"
"235021","801-TS","2017/06/24 14:09:52","新北市中和區民利街66號","121.478675","24.9983716666667","6500300","中和區"
"235005","802-TS","2017/06/24 14:09:56","新北市中和區中安街104-1號","121.511668333333","25.0011816666667","6500300","中和區"
"235016","805-TS","2017/06/24 14:09:42","新北市中和區興南路二段261巷3號","121.502868333333","24.9806883333333","6500300","中和區"
"235012","896-TW","2017/06/24 14:09:55","新北市中和區華新街109巷11弄3-1號","121.508713333333","24.9794016666667","6500300","中和區"
"235017","900-TW","2017/06/24 14:09:38","新北市中和區和平路200巷23號","121.464786666667","24.9948483333333","6500300","中和區"
"235001","AAC-213","2017/06/24 14:09:54","新北市中和區自立路99巷20號","121.523211666667","24.9946566666667","6500300","中和區"
"235023","AAC-215","2017/06/24 14:09:58","新北市中和區圓通路294巷17-5號","121.48861","24.9904566666667","6500300","中和區"
"220013","072-UY","2017/06/24 14:09:59","新北市板橋區民族路219巷20號","121.469348333333","25.008055","6500100","板橋區"
"220034","073-UY","2017/06/24 14:09:55","新北市板橋區中正路236巷61號","121.458378333333","25.0194916666667","6500100","板橋區"
"220105","075-UY","2017/06/24 14:09:54","新北市板橋區雙十路三段9號","121.47166","25.0303166666667","6500100","板橋區"
"220017","AAD-861","2017/06/24 14:09:50","新北市板橋區大華街44號","121.4586","25.0057566666667","6500100","板橋區"
"247019","893-R6","2017/06/24 14:09:39","新北市蘆洲區民族路426巷40弄3號","121.47315","25.0932583333333","6501400","蘆洲區"
"247009","546-UM","2017/06/24 14:09:48","新北市蘆洲區三民路52號","121.47543","25.0835116666667","6501400","蘆洲區"
"247017","500-BY","2017/06/24 14:09:50","新北市蘆洲區民族路203-2號","121.477873333333","25.08918","6501400","蘆洲區"
"247002","402-BY","2017/06/24 14:09:39","新北市蘆洲區集賢路269巷3號","121.48157","25.0837283333333","6501400","蘆洲區"
"247007","339-TH","2017/06/24 14:09:55","新北市蘆洲區中山一路264號","121.471816666667","25.079735","6501400","蘆洲區"
"247023","337-TH","2017/06/24 14:09:55","新北市蘆洲區光榮路51號","121.460631666667","25.088415","6501400","蘆洲區"
"247001","336-TH","2017/06/24 14:09:46","新北市蘆洲區永平街62號","121.457381666667","25.0916","6501400","蘆洲區"
"247005","335-TH","2017/06/24 14:09:45","新北市蘆洲區永安南路二段16巷17弄18號","121.467563333333","25.07795","6501400","蘆洲區"
"247013","057-VK","2017/06/24 14:09:41","新北市蘆洲區三民路123號","121.472393333333","25.086245","6501400","蘆洲區"
"247003","056-VK","2017/06/24 14:09:41","新北市蘆洲區中華街6巷5號","121.46241","25.08253","6501400","蘆洲區"
"247011","007-UY","2017/06/24 14:09:44","新北市蘆洲區信義路268號","121.478068333333","25.08694","6501400","蘆洲區"
"247021","002-UY","2017/06/24 14:09:56","新北市蘆洲區三民路165號","121.471366666667","25.0870516666667","6501400","蘆洲區"
"247015","001-UY","2017/06/24 14:09:54","新北市蘆洲區光華路46巷8號","121.468585","25.0833916666667","6501400","蘆洲區"
"228005","097-TW","2017/06/24 14:09:23","新北市貢寮區美豐里雞母嶺街52號","121.890086666667","25.0677216666667","6502600","貢寮區"
"228004","212-TW","2017/06/24 14:09:52","新北市貢寮區雙玉里下雙溪街7號","121.914318333333","25.01549","6502600","貢寮區"
"208004","742-BX","2017/06/24 14:09:48","新北市金山區重和里六股林口75號","121.600725","25.21655","6502700","金山區"
"251001","155-BY","2017/06/24 14:09:53","新北市淡水區淡金路三段33號","121.446655","25.19777","6501000","淡水區"
"207002","749-BX","2017/06/24 14:09:42","新北市萬里區溪底里瑞泉路9號","121.603416666667","25.144285","6502800","萬里區"
"207001","463-BY","2017/06/24 14:09:40","新北市萬里區磺潭里清水18號","121.637706666667","25.1978633333333","6502800","萬里區"
"207003","550-UM","2017/06/24 14:09:53","新北市萬里區萬里里瑪鋉路30巷36號","121.69135","25.176495","6502800","萬里區"
"252005","AAC-283","2017/06/24 00:37:35","新北市三芝區埔坪里埔頭坑41號","121.504513333333","25.264475","6502100","三芝區"
"236068","105-UM","2017/06/24 14:09:55","新北市土城區明德路一段226號","121.460703333333","24.97746","6501300","土城區"
"236041","107-UM","2017/06/24 14:09:53","新北市土城區裕生路61號","121.447613333333","24.986075","6501300","土城區"
"236075","166-UM","2017/06/24 14:09:48","新北市土城區永寧路32巷42弄8號","121.428131666667","24.9611466666667","6501300","土城區"
"236029","253-BX","2017/06/24 14:09:56","新北市土城區城林路6巷80號","121.438396666667","24.979815","6501300","土城區"
"236025","269-VK","2017/06/24 14:09:59","新北市土城區承天路18號","121.439456666667","24.9634166666667","6501300","土城區"
"236013","270-VK","2017/06/24 14:09:48","新北市土城區學府路一段202號","121.452746666667","24.985675","6501300","土城區"
"236035","271-VK","2017/06/24 14:09:55","新北市土城區青雲路449號","121.4588","24.9748216666667","6501300","土城區"
"236002","339-SR","2017/06/24 13:17:06","新北市土城區永平街51號","121.427631666667","24.9591933333333","6501300","土城區"
"236017","401-BY","2017/06/24 14:09:42","新北市土城區城林路6巷80號","121.438575","24.9797683333333","6501300","土城區"
"236006","498-BY","2017/06/24 14:09:54","新北市土城區中華路一段116號","121.4438","24.9862833333333","6501300","土城區"
"236057","912-UM","2017/06/24 14:09:53","新北市土城區中央路四段38號","121.420783333333","24.9607683333333","6501300","土城區"
"236045","913-UM","2017/06/24 14:09:15","新北市土城區清水路1號","121.452708333333","24.98006","6501300","土城區"
"236061","915-UM","2017/06/24 14:09:49","新北市土城區金城路三段202-3號","121.469473333333","24.98854","6501300","土城區"
"236054","AAC-216","2017/06/24 14:09:49","新北市土城區中華路二段98號","121.438081666667","24.97444","6501300","土城區"
"242044","172-VK","2017/06/24 14:09:39","新北市新莊區四維路205-2號","121.42178","25.02029","6500500","新莊區"
"221010","276-VK","2017/06/24 13:21:50","新北市汐止區汐萬路一段256巷3號","121.653466666667","25.0746083333333","6501100","汐止區"
"220027","145-BY","2017/06/24 14:09:53","新北市板橋區民權路260巷16號","121.458368333333","25.015335","6500100","板橋區"
"220030","610-BX","2017/06/24 14:09:45","新北市板橋區溪崑二街29號","121.428573333333","24.9912216666667","6500100","板橋區"
"220004","276-BY","2017/06/24 14:09:54","新北市板橋區信義路110巷2弄6號","121.457861666667","24.9925033333333","6500100","板橋區"
"220020","277-BY","2017/06/24 14:09:48","新北市板橋區溪北路111號","121.430075","24.988735","6500100","板橋區"
"220012","280-UM","2017/06/24 14:09:53","新北市板橋區中山路二段18號","121.472268333333","25.0149033333333","6500100","板橋區"
"220043","283-UM","2017/06/24 14:09:52","新北市板橋區光武街157號","121.46547","25.0296533333333","6500100","板橋區"
"220019","283-VK","2017/06/24 14:09:51","新北市板橋區忠孝路136號","121.463593333333","25.0023533333333","6500100","板橋區"
"220001","285-VK","2017/06/24 14:09:52","新北市板橋區懷仁街33號","121.476636666667","25.0195466666667","6500100","板橋區"
"220031","286-VK","2017/06/24 14:09:58","新北市板橋區大觀路二段174巷176弄16號","121.44281","25.0031916666667","6500100","板橋區"
"220029","287-VK","2017/06/24 14:09:54","新北市板橋區南雅西路二段156巷53號","121.452396666667","25.012705","6500100","板橋區"
"220039","288-VK","2017/06/24 14:09:53","新北市板橋區裕民街45巷4號","121.461543333333","25.0283366666667","6500100","板橋區"
"220009","293-UM","2017/06/24 14:09:51","新北市板橋區三民路二段21巷45號","121.480565","25.0183033333333","6500100","板橋區"
"220032","296-UM","2017/06/24 14:09:49","新北市板橋區篤行路一段30號","121.431933333333","24.9940816666667","6500100","板橋區"
"220023","297-UM","2017/06/24 14:09:38","新北市板橋區大智街71巷3弄3號","121.453561666667","25.015205","6500100","板橋區"
"220046","299-UM","2017/06/24 14:09:46","新北市板橋區新海路135巷4號","121.459908333333","25.022895","6500100","板橋區"
"220010","305-R5","2017/06/24 14:09:42","新北市板橋區三民路二段居仁巷2弄25號","121.480016666667","25.0129633333333","6500100","板橋區"
"220041","307-R5","2017/06/24 14:09:38","新北市板橋區文化路二段225巷35號","121.469423333333","25.0283616666667","6500100","板橋區"
"220047","317-R6","2017/06/24 14:09:50","新北市板橋區民有街47號","121.465611666667","25.025985","6500100","板橋區"
"220038","487-VK","2017/06/24 14:09:47","新北市板橋區文化路二段443號","121.475155","25.0332","6500100","板橋區"
"220002","491-VK","2017/06/24 14:09:35","新北市板橋區莊敬路56-1號","121.47265","25.0268916666667","6500100","板橋區"
"220104","560-BX","2017/06/24 14:09:51","新北市板橋區中正路381號","121.454191666667","25.02157","6500100","板橋區"
"220052","561-BX","2017/06/24 14:09:58","新北市板橋區介壽街84巷48號","121.468856666667","25.0185133333333","6500100","板橋區"
"220016","568-UM","2017/06/24 14:09:53","新北市板橋區萬安街155號","121.483346666667","25.0257716666667","6500100","板橋區"
"220011","609-BX","2017/06/24 14:09:58","新北市板橋區三民路二段93號","121.479323333333","25.0163833333333","6500100","板橋區"
"220040","637-BX","2017/06/24 14:09:43","新北市板橋區縣民大道三段247巷6號","121.481676666667","25.0262283333333","6500100","板橋區"
"220005","686-BX","2017/06/24 14:09:42","新北市板橋區重慶路98號","121.461996666667","25.0059733333333","6500100","板橋區"
"220025","687-BX","2017/06/24 14:09:44","新北市板橋區龍興街65巷2號","121.443583333333","25.0015166666667","6500100","板橋區"
"220042","689-BX","2017/06/24 14:09:42","新北市板橋區民生路三段119號","121.46643","25.0257933333333","6500100","板橋區"
"220002","741-BX","2017/06/24 14:09:54","新北市板橋區重慶路89巷6號","121.462686666667","25.0064466666667","6500100","板橋區"
"220003","827-TW","2017/06/24 14:09:41","新北市板橋區新民街7巷8號","121.463615","25.0101816666667","6500100","板橋區"
"220014","829-TW","2017/06/24 14:09:44","新北市板橋區長安街222-2號","121.474995","25.0123566666667","6500100","板橋區"
"220051","830-TW","2017/06/24 14:09:53","新北市板橋區萬板路810-1號","121.482771666667","25.0275616666667","6500100","板橋區"
"220045","831-TW","2017/06/24 14:09:49","新北市板橋區大同街4號","121.476901666667","25.02679","6500100","板橋區"
"220022","895-R6","2017/06/24 14:09:54","新北市板橋區林園街41號","121.45376","25.009985","6500100","板橋區"
"220021","985-R7","2017/06/24 14:09:52","新北市板橋區民權路259號","121.457085","25.0159766666667","6500100","板橋區"
"220018","AAC-253","2017/06/24 14:09:54","新北市板橋區四川路一段489號","121.457131666667","24.9971766666667","6500100","板橋區"
