"lineid","car","time","location","longitude","latitude","cityid","cityname"
"234052","553-UM","2017/06/24 14:59:20","新北市五股區中直路31號","121.420151666667","25.1124233333333","6500400","永和區"
"234028","746-BX","2017/06/24 14:59:43","新北市林口區太平里180號","121.367708333333","25.133905","6500400","永和區"
"234048","863-TW","2017/06/24 14:59:53","新北市八里區商港路88-1號","121.393028333333","25.1498966666667","6500400","永和區"
"248017","225-UY","2017/06/24 14:59:51","新北市五股區登林路83-1號","121.42536","25.0704983333333","6501500","五股區"
"244005","657-BX","2017/06/24 11:23:15","新北市林口區粉寮69號","121.404793333333","25.0908383333333","6501700","林口區"
"231002","002-UM","2017/06/24 14:59:41","新北市新店區中正路520號","121.533851666667","24.9837016666667","6500600","新店區"
"231025","0291-UT","2017/06/24 14:59:47","新北市新店區大同街12號","121.539601666667","24.979875","6500600","新店區"
"231028","046-UY","2017/06/24 14:59:56","新北市新店區安豐路49號","121.500018333333","24.9549066666667","6500600","新店區"
"231030","047-UY","2017/06/24 14:59:49","新北市新店區安民街339號","121.516968333333","24.9748383333333","6500600","新店區"
"231029","106-UY","2017/06/24 14:59:41","新北市新店區錦秀路61號","121.479033333333","24.9431466666667","6500600","新店區"
"231018","107-UY","2017/06/24 14:59:51","新北市新店區中央二街5巷1號","121.529188333333","24.9728166666667","6500600","新店區"
"231012","108-UY","2017/06/24 14:59:54","新北市新店區中興路三段205巷8弄2號","121.543225","24.9815966666667","6500600","新店區"
"231020","187-VK","2017/06/24 14:59:54","新北市新店區永福路90號","121.561043333333","24.9284283333333","6500600","新店區"
"231026","256-BX","2017/06/24 14:59:49","新北市新店區中正路111號","121.542513333333","24.9707466666667","6500600","新店區"
"231039","260-TV","2017/06/24 14:59:50","新北市新店區寶安街36號","121.54205","24.9824516666667","6500600","新店區"
"231034","268-BY","2017/06/24 14:59:56","新北市新店區玫瑰路4-1號","121.493588333333","24.9514","6500600","新店區"
"231017","AAD-862","2017/06/24 14:59:47","新北市新店區銀河路75號","121.57896","24.9585883333333","6500600","新店區"
"231024","3713-VJ","2017/06/24 14:59:49","新北市新店區中華路83巷67號","121.538338333333","24.9672716666667","6500600","新店區"
"231036","512-UM","2017/06/24 14:59:52","新北市新店區安祥路102巷42弄99號","121.48683","24.96292","6500600","新店區"
"231023","513-UM","2017/06/24 14:59:55","新北市新店區檳榔路109號","121.544425","24.961685","6500600","新店區"
"231035","515-UM","2017/06/24 14:59:40","新北市新店區永安街74巷17號","121.519231666667","24.98591","6500600","新店區"
"231003","616-UM","2017/06/24 14:59:53","新北市新店區中興路二段231-2號","121.547661666667","24.9748616666667","6500600","新店區"
"231006","617-UM","2017/06/24 14:59:51","新北市新店區中興路一段202號","121.54358","24.9653683333333","6500600","新店區"
"231001","619-UM","2017/06/24 14:59:56","新北市新店區中正路274號","121.53889","24.97367","6500600","新店區"
"231033","720-UM","2017/06/24 14:59:37","新北市新店區安泰路60巷53-5號","121.484041666667","24.9454083333333","6500600","新店區"
"231005","897-TW","2017/06/24 14:59:52","新北市新店區復興路66號","121.537798333333","24.9867983333333","6500600","新店區"
"231004","899-TW","2017/06/24 14:59:46","新北市新店區民族路28號","121.540665","24.9788133333333","6500600","新店區"
"231037","AKT-0513","2017/06/24 14:59:40","新北市新店區安民街317號","121.517523333333","24.9743166666667","6500600","新店區"
"235030","003-UY","2017/06/24 14:59:55","新北市中和區中山路二段47號","121.504361666667","25.004955","6500300","中和區"
"235026","031-BX","2017/06/24 14:59:41","新北市中和區永和路191巷6-1號","121.491276666667","25.0069933333333","6500300","中和區"
"235020","096-UM","2017/06/24 14:59:54","新北市中和區中山路三段148號","121.47364","25.0062516666667","6500300","中和區"
"235003","097-UM","2017/06/24 14:59:48","新北市永和區中正路97號","121.51496","24.9974866666667","6500300","中和區"
"235004","150-BY","2017/06/24 14:59:58","新北市中和區保健路19巷9號","121.508291666667","24.998455","6500300","中和區"
"235022","151-BY","2017/06/24 14:59:51","新北市中和區員山路148巷19號","121.48208","24.99717","6500300","中和區"
"235019","183-VK","2017/06/24 14:59:54","新北市中和區莒光路2號","121.471596666667","25.0046283333333","6500300","中和區"
"235002","185-VK","2017/06/24 14:59:47","新北市中和區自立路115號","121.521948333333","24.994445","6500300","中和區"
"235031","255-BX","2017/06/24 14:59:56","新北市中和區新生街186巷1弄31號","121.483435","24.99857","6500300","中和區"
"235008","293-VK","2017/06/24 14:59:40","新北市中和區南山路176-19號","121.505378333333","24.990865","6500300","中和區"
"235036","301-VK","2017/06/24 14:59:44","新北市中和區安邦街8號","121.495563333333","24.9981616666667","6500300","中和區"
"235007","352-BY","2017/06/24 14:59:40","新北市中和區興南路一段57號","121.51063","24.9899416666667","6500300","中和區"
"235015","376-QA","2017/06/24 14:59:52","新北市中和區景安路225號","121.504291666667","24.9913416666667","6500300","中和區"
"235032","377-QA","2017/06/24 14:59:52","新北市中和區景平路722-2號","121.49664","25.0030633333333","6500300","中和區"
"235014","4979-A6","2017/06/24 14:59:57","新北市中和區安樂路58號","121.512143333333","24.9931483333333","6500300","中和區"
"235033","4980-A6","2017/06/24 14:59:46","新北市中和區南山路127巷27弄30號","121.503453333333","24.9980366666667","6500300","中和區"
"235034","558-UM","2017/06/24 14:59:49","新北市中和區連城路127巷35號","121.497593333333","24.997185","6500300","中和區"
"235018","640-BX","2017/06/24 14:59:43","新北市中和區莒光路258號","121.468061666667","24.993945","6500300","中和區"
"235024","647-TV","2017/06/24 14:59:42","新北市中和區新生街44號","121.48327","25.0033283333333","6500300","中和區"
"235010","733-UM","2017/06/24 14:59:42","新北市中和區興南路一段93巷63號","121.51027","24.98703","6500300","中和區"
"235035","783-BX","2017/06/24 14:59:53","新北市中和區中正路637巷16號","121.484648333333","24.99511","6500300","中和區"
"235016","805-TS","2017/06/24 14:59:42","新北市中和區華新街134號","121.508198333333","24.9826233333333","6500300","中和區"
"235012","896-TW","2017/06/24 14:59:55","新北市中和區忠孝街3巷2弄2號","121.50921","24.9831966666667","6500300","中和區"
"235017","900-TW","2017/06/24 14:59:58","新北市中和區國光街215巷22-3號","121.467083333333","25.0004866666667","6500300","中和區"
"235001","AAC-213","2017/06/24 14:59:54","新北市永和區民族街81巷62號","121.52039","24.9963366666667","6500300","中和區"
"235023","AAC-215","2017/06/24 14:59:38","新北市中和區圓通路335巷4弄10號","121.49195","24.989495","6500300","中和區"
"220013","072-UY","2017/06/24 14:59:53","新北市板橋區區運路70號","121.466343333333","25.0100116666667","6500100","板橋區"
"220105","075-UY","2017/06/24 14:59:54","新北市板橋區文化路二段548巷8弄15號","121.476298333333","25.0331866666667","6500100","板橋區"
"220017","AAD-861","2017/06/24 14:59:50","新北市板橋區貴興路117號","121.455696666667","25.0023283333333","6500100","板橋區"
"247002","402-BY","2017/06/24 14:59:39","新北市八里區中山路三段216號","121.377985","25.1417216666667","6501400","蘆洲區"
"247007","339-TH","2017/06/24 14:59:55","新北市五股區中興路三段2巷10號","121.44887","25.0815","6501400","蘆洲區"
"228004","212-TW","2017/06/24 14:59:52","新北市貢寮區福隆里興隆街21-2號","121.933236666667","25.0189883333333","6502600","貢寮區"
"208004","742-BX","2017/06/24 14:59:48","新北市金山區法鼓路555號","121.614408333333","25.239655","6502700","金山區"
"251001","155-BY","2017/06/24 14:59:53","新北市淡水區下圭柔山90-8號","121.431231666667","25.210265","6501000","淡水區"
"207002","749-BX","2017/06/24 14:59:54","新北市萬里區崁腳里崁腳路23-3號","121.652893333333","25.1617133333333","6502800","萬里區"
"207001","463-BY","2017/06/24 14:59:40","新北市萬里區雙興里二坪路1-1號","121.651581666667","25.1767633333333","6502800","萬里區"
"252005","AAC-283","2017/06/24 00:37:35","新北市三芝區埔坪里埔頭坑41號","121.504513333333","25.264475","6502100","三芝區"
"236068","105-UM","2017/06/24 14:59:55","新北市土城區中央路一段291巷14號","121.445013333333","24.9837183333333","6501300","土城區"
"236041","107-UM","2017/06/24 14:59:53","新北市土城區學府路一段231號","121.451135","24.9841016666667","6501300","土城區"
"236075","166-UM","2017/06/24 14:59:42","新北市土城區中央路四段67巷2弄2號","121.417531666667","24.957825","6501300","土城區"
"236029","253-BX","2017/06/24 14:59:55","新北市土城區慶利街9號","121.439601666667","24.97364","6501300","土城區"
"236025","269-VK","2017/06/24 14:59:39","新北市土城區中正路74巷1弄1號","121.444683333333","24.9751983333333","6501300","土城區"
"236013","270-VK","2017/06/24 14:59:48","新北市土城區永豐路29巷6號","121.463398333333","24.98831","6501300","土城區"
"236035","271-VK","2017/06/24 14:59:58","新北市土城區仁愛路20-2號","121.46099","24.980085","6501300","土城區"
"236002","339-SR","2017/06/24 13:17:06","新北市土城區永平街51號","121.427631666667","24.9591933333333","6501300","土城區"
"236017","401-BY","2017/06/24 14:59:51","新北市土城區延吉街168巷18號","121.467898333333","24.9862683333333","6501300","土城區"
"236057","912-UM","2017/06/24 14:59:53","新北市土城區金城路二段39巷2-1號","121.450081666667","24.9779416666667","6501300","土城區"
"236045","913-UM","2017/06/24 14:59:38","新北市土城區青雲路309號","121.459041666667","24.9791616666667","6501300","土城區"
"236061","915-UM","2017/06/24 14:59:49","新北市土城區延和路41巷6弄4號","121.466123333333","24.9900083333333","6501300","土城區"
"236054","AAC-216","2017/06/24 14:59:48","新北市土城區學成路162號","121.448075","24.9891733333333","6501300","土城區"
"242044","172-VK","2017/06/24 14:59:38","新北市樹林區八德街437-1號","121.405868333333","24.9693883333333","6500500","新莊區"
"221010","276-VK","2017/06/24 13:21:50","新北市汐止區汐萬路一段256巷3號","121.653466666667","25.0746083333333","6501100","汐止區"
"221023","279-VK","2017/06/24 14:38:55","新北市汐止區汐萬路一段256巷1號","121.651718333333","25.0748883333333","6501100","汐止區"
"221002","707-TV","2017/06/24 14:59:39","新北市汐止區新興路116號","121.657933333333","25.06114","6501100","汐止區"
"220030","610-BX","2017/06/24 14:59:51","新北市板橋區金門街153號","121.432685","24.9905533333333","6500100","板橋區"
"220020","277-BY","2017/06/24 14:59:48","新北市板橋區金門街151巷3弄2號","121.433108333333","24.990485","6500100","板橋區"
"220012","280-UM","2017/06/24 14:59:57","新北市板橋區民族路219巷67號","121.468483333333","25.0091066666667","6500100","板橋區"
"220043","283-UM","2017/06/24 14:59:54","新北市板橋區文德路26號","121.462536666667","25.0245033333333","6500100","板橋區"
"220019","283-VK","2017/06/24 14:59:50","新北市板橋區和平路178號","121.463478333333","24.995495","6500100","板橋區"
"220001","285-VK","2017/06/24 14:59:52","新北市板橋區永豐街155號","121.475366666667","25.0202816666667","6500100","板橋區"
"220031","286-VK","2017/06/24 14:56:38","新北市板橋區僑中二街26號","121.445828333333","25.0107366666667","6500100","板橋區"
"220029","287-VK","2017/06/24 14:59:54","新北市板橋區僑中一街124巷20弄22號","121.4471","25.0139216666667","6500100","板橋區"
"220039","288-VK","2017/06/24 14:59:53","新北市板橋區龍泉街108巷6號","121.456081666667","25.02433","6500100","板橋區"
"220009","293-UM","2017/06/24 14:59:51","新北市板橋區中山路一段156-2號","121.465558333333","25.011825","6500100","板橋區"
"220032","296-UM","2017/06/24 14:59:57","新北市板橋區板林路208號","121.424616666667","24.98856","6500100","板橋區"
"220023","297-UM","2017/06/24 14:59:58","新北市板橋區金華街10巷48弄44-3號","121.45849","25.0200633333333","6500100","板橋區"
"220046","299-UM","2017/06/24 14:59:53","新北市板橋區民權路202巷22號","121.461","25.0167233333333","6500100","板橋區"
"220010","305-R5","2017/06/24 14:59:42","新北市板橋區萬安街85巷1弄12號","121.484438333333","25.0251083333333","6500100","板橋區"
"220041","307-R5","2017/06/24 14:59:58","新北市板橋區裕民街131號","121.459121666667","25.0273066666667","6500100","板橋區"
"220047","317-R6","2017/06/24 14:59:50","新北市板橋區漢生西路165巷34號","121.462266666667","25.02353","6500100","板橋區"
"220038","487-VK","2017/06/24 14:59:46","新北市板橋區龍泉街108巷168號","121.456576666667","25.0236733333333","6500100","板橋區"
"220002","491-VK","2017/06/24 14:59:34","新北市板橋區文聖街155號","121.478726666667","25.0277766666667","6500100","板橋區"
"220052","561-BX","2017/06/24 14:59:53","新北市板橋區文化路一段435巷31弄11號","121.46684","25.0229266666667","6500100","板橋區"
"220016","568-UM","2017/06/24 14:59:40","新北市板橋區光復街230號","121.484755","25.02132","6500100","板橋區"
"220011","609-BX","2017/06/24 14:59:58","新北市板橋區中山路二段497號","121.482688333333","25.0208633333333","6500100","板橋區"
"220040","637-BX","2017/06/24 14:59:43","新北市板橋區文聖街101巷12號","121.478313333333","25.02969","6500100","板橋區"
"220005","686-BX","2017/06/24 14:59:42","新北市板橋區廣和街136號","121.462611666667","24.991985","6500100","板橋區"
"220025","687-BX","2017/06/24 14:59:47","新北市板橋區僑中一街124巷20弄2號","121.446156666667","25.0140116666667","6500100","板橋區"
"220042","689-BX","2017/06/24 14:59:42","新北市板橋區民治街57巷32-1號","121.48127","25.0356183333333","6500100","板橋區"
"220002","741-BX","2017/06/24 14:59:42","新北市板橋區忠孝路201巷53號","121.464835","25.003925","6500100","板橋區"
"220003","827-TW","2017/06/24 14:59:41","新北市板橋區國慶路213巷13號","121.462966666667","24.9971466666667","6500100","板橋區"
"220014","829-TW","2017/06/24 14:59:44","新北市板橋區中山路一段206巷4弄2號","121.470205","25.0131516666667","6500100","板橋區"
"220051","830-TW","2017/06/24 14:59:52","新北市板橋區懷德街66巷36號","121.476268333333","25.031635","6500100","板橋區"
"220045","831-TW","2017/06/24 14:59:49","新北市板橋區莒光路133巷7弄2號","121.472628333333","25.0244683333333","6500100","板橋區"
"220022","895-R6","2017/06/24 14:59:57","新北市板橋區文化路一段32巷15號","121.459935","25.011135","6500100","板橋區"
"220021","985-R7","2017/06/24 14:59:52","新北市板橋區館前西路168-1號","121.452166666667","25.0085816666667","6500100","板橋區"
"220018","AAC-253","2017/06/24 14:59:54","新北市板橋區成都街22號","121.460866666667","25.0048083333333","6500100","板橋區"
