"lineid","car","time","location","longitude","latitude","cityid","cityname"
"234013","149-BY","2017/06/24 18:19:49","新北市永和區福和路1號","121.526425","25.010135","6500400","永和區"
"234007","207-UY","2017/06/24 18:19:46","新北市永和區環河西路二段229巷5號","121.501473333333","25.009855","6500400","永和區"
"234086","338-UY","2017/06/24 18:19:57","新北市永和區福和路1號","121.52661","25.0100066666667","6500400","永和區"
"234017","745-BX","2017/06/24 18:19:54","新北市永和區福和路1號","121.526515","25.01021","6500400","永和區"
"234030","746-BX","2017/06/24 18:19:49","新北市永和區福和路1號","121.52642","25.0095366666667","6500400","永和區"
"234042","862-TW","2017/06/24 18:19:46","新北市永和區福和路1號","121.526333333333","25.0096966666667","6500400","永和區"
"234026","9371-KE","2017/06/24 18:19:44","新北市永和區豫溪街42巷7號","121.515508333333","25.0094316666667","6500400","永和區"
"234011","9373-KE","2017/06/24 18:19:39","新北市永和區保安路86號","121.509708333333","25.0162033333333","6500400","永和區"
"249005","172-UM","2017/06/24 18:18:40","新北市八里區荖阡坑路15-40號","121.401751666667","25.1402133333333","6502300","八里區"
"249001","173-UM","2017/06/24 18:19:50","新北市八里區龍米路一段172號","121.45225","25.1267616666667","6502300","八里區"
"249004","303-UY","2017/06/24 18:19:47","新北市八里區龍米路二段200巷5號","121.433745","25.1588416666667","6502300","八里區"
"249002","305-UY","2017/06/24 18:19:55","新北市八里區龍形二街58號","121.450336666667","25.1333416666667","6502300","八里區"
"249003","593-UM","2017/06/24 18:19:45","新北市八里區松子腳3-2號","121.402978333333","25.1443033333333","6502300","八里區"
"248016","026-BX","2017/06/24 18:19:41","新北市五股區凌雲路一段133巷29號","121.449","25.1003816666667","6501500","五股區"
"248006","077-UY","2017/06/24 18:19:48","新北市五股區中興路一段152號","121.464573333333","25.0738166666667","6501500","五股區"
"248008","095-VK","2017/06/24 18:19:56","新北市五股區更洲路32巷8弄14號","121.459255","25.0796566666667","6501500","五股區"
"248020","225-UY","2017/06/24 18:19:35","新北市五股區孝義路47巷10號","121.453543333333","25.1100933333333","6501500","五股區"
"248014","261-SL","2017/06/24 18:19:49","新北市五股區成泰路一段171巷13號","121.43442","25.0744166666667","6501500","五股區"
"248004","677-BX","2017/06/24 18:19:53","新北市五股區成泰路二段149號","121.439038333333","25.0855216666667","6501500","五股區"
"248010","682-TV","2017/06/24 18:19:48","新北市五股區成泰路一段139巷2弄4號","121.435061666667","25.073025","6501500","五股區"
"232011","375-UM","2017/06/24 18:19:37","新北市坪林區坪雙路一段43號","121.711845","24.9423783333333","6502000","坪林區"
"244013","069-UM","2017/06/24 18:19:50","新北市林口區林口路68巷18弄7號","121.39176","25.07981","6501700","林口區"
"244007","080-UY","2017/06/24 18:19:36","新北市林口區林口路113巷57號","121.387753333333","25.079635","6501700","林口區"
"244019","403-UM","2017/06/24 18:19:43","新北市林口區文化一路一段124號","121.374898333333","25.0722216666667","6501700","林口區"
"244009","410-SL","2017/06/24 18:19:44","新北市林口區中山路492號","121.379901666667","25.08263","6501700","林口區"
"244023","483-VK","2017/06/24 18:19:37","新北市林口區東湖路153巷135號","121.382268333333","25.0735416666667","6501700","林口區"
"244017","485-VK","2017/06/24 18:19:45","新北市林口區忠孝路502號","121.37077","25.0701","6501700","林口區"
"244021","657-BX","2017/06/24 18:19:47","新北市林口區自強一街32號","121.398853333333","25.0778166666667","6501700","林口區"
"244011","701-TV","2017/06/24 18:19:39","新北市林口區中正路74巷5弄2號","121.39458","25.0780833333333","6501700","林口區"
"244025","837-TS","2017/06/24 18:19:47","新北市林口區南勢四街82巷38號","121.355623333333","25.0699183333333","6501700","林口區"
"243013","AAD-798","2017/06/24 18:19:50","新北市泰山區南林路99巷1-1號","121.415391666667","25.051165","6501600","泰山區"
"222003","436-BY","2017/06/24 18:19:52","新北市深坑區文山路一段64號","121.623543333333","25.0005216666667","6501800","深坑區"
"222002","659-BX","2017/06/24 18:19:56","新北市深坑區雲鄉路33號","121.622233333333","24.99962","6501800","深坑區"
"222001","696-SL","2017/06/24 18:19:51","新北市深坑區北深路二段51-1號","121.619031666667","25.0041366666667","6501800","深坑區"
"231041","002-UM","2017/06/24 18:19:46","新北市新店區安華路28-1號","121.519635","24.9609366666667","6500600","新店區"
"231056","0291-UT","2017/06/24 18:19:45","新北市新店區環河路18-1號","121.537123333333","24.96178","6500600","新店區"
"231059","046-UY","2017/06/24 18:19:46","新北市新店區安華路28-1號","121.519595","24.9608016666667","6500600","新店區"
"231061","047-UY","2017/06/24 18:19:40","新北市新店區安華路28-1號","121.519285","24.9610216666667","6500600","新店區"
"231060","106-UY","2017/06/24 18:19:51","新北市新店區安華路28-1號","121.51974","24.9607683333333","6500600","新店區"
"231051","107-UY","2017/06/24 18:19:42","新北市新店區安華路28-1號","121.519416666667","24.9613933333333","6500600","新店區"
"231048","108-UY","2017/06/24 18:19:50","新北市新店區安華路28-1號","121.519495","24.9609666666667","6500600","新店區"
"231052","187-VK","2017/06/24 18:19:50","新北市新店區安康路一段165號","121.52735","24.9623533333333","6500600","新店區"
"231057","256-BX","2017/06/24 18:19:54","新北市新店區安華路28-1號","121.519645","24.9611216666667","6500600","新店區"
"231068","260-TV","2017/06/24 16:21:26","新北市新店區安華路28-1號","121.519683333333","24.9607","6500600","新店區"
"231063","268-BY","2017/06/24 18:19:44","新北市新店區安華路28-1號","121.519386666667","24.9606","6500600","新店區"
"231046","278-BY","2017/06/24 18:19:52","新北市新店區直潭七街60號","121.53223","24.9398533333333","6500600","新店區"
"231050","AAD-862","2017/06/24 18:19:36","新北市新店區安華路28-1號","121.519913333333","24.9611433333333","6500600","新店區"
"231058","3712-VJ","2017/06/24 18:19:56","新北市新店區環河路15-1號","121.537831666667","24.96134","6500600","新店區"
"231055","3713-VJ","2017/06/24 18:19:48","新北市新店區安康路一段77號","121.52999","24.96119","6500600","新店區"
"231067","4772-VM","2017/06/24 18:19:47","新北市新店區安華路28-1號","121.519155","24.96065","6500600","新店區"
"231065","512-UM","2017/06/24 16:11:19","新北市新店區安華路28-1號","121.519426666667","24.9612366666667","6500600","新店區"
"231054","513-UM","2017/06/24 18:19:50","新北市新店區安華路28-1號","121.519621666667","24.961265","6500600","新店區"
"231064","515-UM","2017/06/24 18:19:48","新北市新店區安華路28-1號","121.519928333333","24.96129","6500600","新店區"
"231042","616-UM","2017/06/24 18:19:47","新北市新店區安華路28-1號","121.51948","24.9606333333333","6500600","新店區"
"231045","617-UM","2017/06/24 18:19:54","新北市新店區安華路28-1號","121.519413333333","24.9609816666667","6500600","新店區"
"231040","619-UM","2017/06/24 18:19:52","新北市新店區安華路28-1號","121.519653333333","24.9607116666667","6500600","新店區"
"231049","719-UM","2017/06/24 18:19:56","新北市新店區安華路28-1號","121.519493333333","24.9611716666667","6500600","新店區"
"231044","897-TW","2017/06/24 18:19:39","新北市新店區安華路28-1號","121.519585","24.960785","6500600","新店區"
"231043","899-TW","2017/06/24 15:47:47","新北市新店區安華路28-1號","121.519213333333","24.9608333333333","6500600","新店區"
"231066","AKT-0513","2017/06/24 18:19:57","新北市新店區安華路28-1號","121.51948","24.9605883333333","6500600","新店區"
"235066","003-UY","2017/06/24 18:19:56","新北市中和區中山路二段201號","121.499795","25.0025616666667","6500300","中和區"
"235064","005-UY","2017/06/24 18:19:55","新北市中和區中正路78號","121.500491666667","24.9937583333333","6500300","中和區"
"235063","006-UY","2017/06/24 18:19:41","新北市中和區員山路36巷16-8號","121.48545","24.9924116666667","6500300","中和區"
"235062","031-BX","2017/06/24 18:19:39","新北市中和區中山路二段478號","121.488021666667","25.0048283333333","6500300","中和區"
"235056","096-UM","2017/06/24 18:19:49","新北市板橋區民生路一段1-2號","121.477121666667","25.0119533333333","6500300","中和區"
"235039","097-UM","2017/06/24 18:19:51","新北市中和區中正路271號","121.495773333333","24.9936916666667","6500300","中和區"
"235040","150-BY","2017/06/24 18:19:49","新北市中和區景平路500巷7號","121.504436666667","24.9937483333333","6500300","中和區"
"235058","151-BY","2017/06/24 18:19:38","新北市中和區圓通路367巷29號","121.492313333333","24.985085","6500300","中和區"
"235038","185-VK","2017/06/24 18:19:40","新北市中和區大智街57號","121.521196666667","24.9920516666667","6500300","中和區"
"235049","186-VK","2017/06/24 18:19:42","新北市中和區和城路一段271巷1號","121.485445","24.991955","6500300","中和區"
"235067","255-BX","2017/06/24 18:19:54","新北市中和區和城路一段271巷1號","121.485501666667","24.9918183333333","6500300","中和區"
"235043","352-BY","2017/06/24 18:19:40","新北市中和區錦和路350-1號","121.49054","24.9935516666667","6500300","中和區"
"235051","376-QA","2017/06/24 18:19:36","新北市中和區興南路二段130號","121.504333333333","24.983455","6500300","中和區"
"235061","378-QA","2017/06/24 18:19:49","新北市中和區莒光路158號","121.472513333333","25.0002433333333","6500300","中和區"
"235050","4979-A6","2017/06/24 18:19:41","新北市中和區和平街3-2號","121.509631666667","24.9899733333333","6500300","中和區"
"235069","4980-A6","2017/06/24 18:19:52","新北市中和區連城路127巷9-2號","121.496623333333","24.9987116666667","6500300","中和區"
"235042","551-UM","2017/06/24 18:19:57","新北市中和區大仁街48號","121.51863","24.9936583333333","6500300","中和區"
"235070","558-UM","2017/06/24 18:19:55","新北市中和區中正路305號","121.49255","24.9940083333333","6500300","中和區"
"235045","565-BX","2017/06/24 18:19:40","新北市中和區中正路13號","121.503098333333","24.9933216666667","6500300","中和區"
"235054","640-BX","2017/06/24 18:19:38","新北市中和區莒光路185號","121.472651666667","24.999005","6500300","中和區"
"235060","647-TV","2017/06/24 18:19:42","新北市中和區員山路36巷16-3號","121.485121666667","24.9914866666667","6500300","中和區"
"235047","732-UM","2017/06/24 18:19:57","新北市中和區建八路130號","121.488816666667","24.998505","6500300","中和區"
"235057","801-TS","2017/06/24 18:19:41","新北市中和區員山路36巷16-2號","121.485135","24.9915766666667","6500300","中和區"
"235052","805-TS","2017/06/24 18:19:47","新北市中和區南山路214號","121.506233333333","24.990315","6500300","中和區"
"235037","AAC-213","2017/06/24 18:19:46","新北市中和區景平路149號","121.513958333333","24.992225","6500300","中和區"
"235059","AAC-215","2017/06/24 18:19:55","新北市中和區員山路36巷16-3號","121.484985","24.9912133333333","6500300","中和區"
"247006","335-TH","2017/06/24 18:19:47","新北市八里區下罟子8-10號","121.383771666667","25.1446483333333","6501400","蘆洲區"
"247014","057-VK","2017/06/24 18:19:39","新北市八里區荖阡坑路34-1號","121.400433333333","25.1313216666667","6501400","蘆洲區"
"247022","002-UY","2017/06/24 18:07:39","新北市五股區中興路三段163號","121.44936","25.0806433333333","6501400","蘆洲區"
"226004","312-R5","2017/06/24 18:19:48","新北市平溪區薯榔里一坑路26號","121.713555","25.0218616666667","6502400","平溪區"
"228003","097-TW","2017/06/24 18:19:34","新北市貢寮區真理里美艷山街64-2號","121.920185","25.0722683333333","6502600","貢寮區"
"228001","212-TW","2017/06/24 18:19:51","新北市貢寮區真理里新港街26巷55弄2-1號","121.927385","25.05286","6502600","貢寮區"
"228002","585-TW","2017/06/24 18:19:56","新北市貢寮區福連里馬崗街1號","121.995941666667","25.0162916666667","6502600","貢寮區"
"224006","676-BX","2017/06/24 18:19:50","新北市瑞芳區民權街3-2號","121.808231666667","25.107485","6501200","瑞芳區"
"224002","639-TC","2017/06/24 18:19:51","新北市瑞芳區三爪子坑路153號","121.810693333333","25.1062166666667","6501200","瑞芳區"
"224009","285-BY","2017/06/24 18:19:48","新北市瑞芳區金光路240號","121.854233333333","25.1066483333333","6501200","瑞芳區"
"224008","275-VK","2017/06/24 18:19:55","新北市瑞芳區逢甲路15號","121.809791666667","25.1086983333333","6501200","瑞芳區"
"224007","273-VK","2017/06/24 18:19:56","新北市瑞芳區頂埔巷1弄1號","121.766126666667","25.102485","6501200","瑞芳區"
"224005","271-BY","2017/06/24 18:19:43","新北市瑞芳區建基路二段109號","121.805615","25.1341","6501200","瑞芳區"
"227002","642-TC","2017/06/24 18:19:42","新北市雙溪區共和里中山路2號","121.863833333333","25.0338","6502500","雙溪區"
"227010","400-TW","2017/06/24 18:19:55","新北市雙溪區牡丹里牡丹73號","121.85177","25.059385","6502500","雙溪區"
"253006","032-BX","2017/06/24 18:19:58","新北市石門區老梅路59號","121.545726666667","25.2891916666667","6502200","石門區"
"253005","295-VK","2017/06/24 18:19:52","新北市石門區中央路5號","121.566341666667","25.2915883333333","6502200","石門區"
"208003","665-BX","2017/06/24 18:19:52","新北市金山區民生路124號","121.647563333333","25.2237383333333","6502700","金山區"
"208001","761-BX","2017/06/24 18:19:45","新北市金山區自強路11號","121.640406666667","25.2165883333333","6502700","金山區"
"251004","009-UM","2017/06/24 18:19:27","新北市淡水區民族路33巷16-21號","121.462386666667","25.136","6501000","淡水區"
"251005","010-UM","2017/06/24 18:19:54","新北市淡水區博愛街47號","121.446766666667","25.1691233333333","6501000","淡水區"
"251001","011-UM","2017/06/24 18:19:51","新北市淡水區自強路112號","121.462861666667","25.1320316666667","6501000","淡水區"
"251014","180-VK","2017/06/24 18:19:40","新北市淡水區崙頂13號","121.492173333333","25.2196466666667","6501000","淡水區"
"251008","181-VK","2017/06/24 18:19:37","新北市淡水區淡金路8-1號","121.45725","25.15978","6501000","淡水區"
"251010","413-VK","2017/06/24 18:19:41","新北市淡水區淡海路180巷12-3號","121.420466666667","25.1844633333333","6501000","淡水區"
"251012","441-VK","2017/06/24 18:19:53","新北市淡水區北新路二段76號","121.479863333333","25.1856483333333","6501000","淡水區"
"251016","442-VK","2017/06/24 18:19:50","新北市淡水區淡金路三段228巷22-6號","121.449775","25.2048616666667","6501000","淡水區"
"251006","561-UM","2017/06/24 18:19:16","新北市淡水區新民街62號","121.439036666667","25.1760533333333","6501000","淡水區"
"251009","575-R6","2017/06/24 18:19:46","新北市淡水區崁頂61號","121.440513333333","25.2002666666667","6501000","淡水區"
"251011","650-BX","2017/06/24 18:19:37","新北市淡水區坪頂路40號","121.457568333333","25.1623266666667","6501000","淡水區"
"251002","672-BX","2017/06/24 18:19:37","新北市淡水區中正東路一段61-5號","121.453138333333","25.1626616666667","6501000","淡水區"
"251003","673-BX","2017/06/24 18:19:51","新北市淡水區北新路180號","121.449436666667","25.1787966666667","6501000","淡水區"
"207003","550-UM","2017/06/24 18:19:45","新北市萬里區野柳里港東路24號","121.687516666667","25.2037333333333","6502800","萬里區"
"207004","225-TW","2017/06/24 18:19:45","新北市萬里區中幅里中福路39-2號","121.676906666667","25.1658416666667","6502800","萬里區"
"252002","178-VK","2017/06/24 18:19:53","新北市三芝區中山路二段39號","121.502953333333","25.25511","6502100","三芝區"
"252003","249-BX","2017/06/24 18:19:51","新北市三芝區錫板里海尾14-33號","121.477863333333","25.2597733333333","6502100","三芝區"
"252001","702-TV","2017/06/24 18:19:47","新北市三芝區中興街二段2號","121.498418333333","25.2566766666667","6502100","三芝區"
"208002","170-UY","2017/06/24 18:19:58","新北市金山區磺港里社寮28號","121.636938333333","25.229345","6502700","金山區"
"237004","078-UY","2017/06/24 18:19:47","新北市三峽區五寮12號","121.375421666667","24.8708066666667","6500900","三峽區"
"237007","153-BY","2017/06/24 18:19:49","新北市三峽區中正路二段534號","121.360681666667","24.906475","6500900","三峽區"
"237009","210-TH","2017/06/24 18:19:58","新北市三峽區大勇路36巷31號","121.365068333333","24.9368883333333","6500900","三峽區"
"237013","252-BX","2017/06/24 18:19:42","新北市三峽區永安街3號","121.377938333333","24.9299566666667","6500900","三峽區"
"237012","275-BY","2017/06/24 18:19:38","新北市三峽區民生街19巷7弄16號","121.376835","24.9356516666667","6500900","三峽區"
"237008","302-VK","2017/06/24 18:19:51","新北市三峽區白雞64-7號","121.385113333333","24.9126483333333","6500900","三峽區"
"237014","433-BY","2017/06/24 18:19:41","新北市三峽區復興路59號","121.373033333333","24.9371666666667","6500900","三峽區"
"237006","5529-G3","2017/06/24 18:19:50","新北市三峽區溪東路240號","121.408381666667","24.931685","6500900","三峽區"
"237011","572-TV","2017/06/24 18:19:39","新北市三峽區溪東路218巷8號","121.407056666667","24.9323733333333","6500900","三峽區"
"237016","649-BX","2017/06/24 18:19:48","新北市三峽區紫新路21號","121.423181666667","24.9209483333333","6500900","三峽區"
"237010","706-TV","2017/06/24 18:19:54","新北市三峽區中山路139號","121.365025","24.9359816666667","6500900","三峽區"
"237005","AKY-6261","2017/06/24 18:19:50","新北市三峽區民族街6號","121.369031666667","24.9313883333333","6500900","三峽區"
"236073","105-UM","2017/06/24 18:19:55","新北市土城區明德路一段109號","121.465568333333","24.9818733333333","6501300","土城區"
"236043","107-UM","2017/06/24 18:19:50","新北市土城區裕生路21巷6弄18號","121.448631666667","24.98671","6501300","土城區"
"236079","166-UM","2017/06/24 18:19:47","新北市土城區永安街118號","121.430006666667","24.9643716666667","6501300","土城區"
"236031","253-BX","2017/06/24 18:19:55","新北市土城區順風路44號","121.440475","24.9769666666667","6501300","土城區"
"236027","269-VK","2017/06/24 18:19:49","新北市土城區承天路67號","121.439521666667","24.9635116666667","6501300","土城區"
"236015","270-VK","2017/06/24 18:19:55","新北市土城區青雲路39巷7號","121.460275","24.987525","6501300","土城區"
"236038","271-VK","2017/06/24 18:19:40","新北市土城區青雲路483巷10弄20號","121.459328333333","24.97297","6501300","土城區"
"236002","339-SR","2017/06/24 13:17:06","新北市土城區永平街51號","121.427631666667","24.9591933333333","6501300","土城區"
"236023","401-BY","2017/06/24 18:19:36","新北市土城區學士路123號","121.446578333333","24.9758333333333","6501300","土城區"
"236059","912-UM","2017/06/24 18:19:48","新北市土城區中央路四段163號","121.415195","24.9566933333333","6501300","土城區"
"236049","913-UM","2017/06/24 18:19:52","新北市土城區明德路一段288-1號","121.456845","24.9776433333333","6501300","土城區"
"236063","915-UM","2017/06/24 18:19:58","新北市土城區金城路三段195號","121.470103333333","24.9889383333333","6501300","土城區"
"236055","AAC-216","2017/06/24 18:19:46","新北市土城區中華路二段92號","121.438185","24.9745416666667","6501300","土城區"
"242021","AAC-296","2017/06/24 18:19:47","新北市新莊區新興街52號","121.4508","25.037445","6500500","新莊區"
"242029","986-R7","2017/06/24 18:19:38","新北市新莊區幸福路856號","121.443903333333","25.0490466666667","6500500","新莊區"
"242025","615-BX","2017/06/24 18:19:44","新北市新莊區五工路93-1號","121.45814","25.0632716666667","6500500","新莊區"
"242027","612-BX","2017/06/24 18:19:46","新北市新莊區幸福路870號","121.443308333333","25.0489816666667","6500500","新莊區"
"242042","497-BY","2017/06/24 18:19:45","新北市新莊區天祥街69號","121.41591","25.029055","6500500","新莊區"
"242004","442-UM","2017/06/24 18:19:48","新北市新莊區中華路二段17號","121.453796666667","25.04573","6500500","新莊區"
"242046","441-UM","2017/06/24 18:19:43","新北市新莊區福營路336號","121.421595","25.026915","6500500","新莊區"
"242051","440-UM","2017/06/24 18:19:48","新北市新莊區民安東路37號","121.428931666667","25.020905","6500500","新莊區"
"242031","415-TV","2017/06/24 18:19:45","新北市新莊區新泰路277巷57弄13號","121.443088333333","25.0397766666667","6500500","新莊區"
"242002","413-TV","2017/06/24 18:19:49","新北市新莊區新莊路124號","121.455836666667","25.0358616666667","6500500","新莊區"
"242061","362-BY","2017/06/24 18:19:39","新北市新莊區四維路11號","121.423983333333","25.0241016666667","6500500","新莊區"
"242058","353-BY","2017/06/24 18:19:51","桃園市龜山區萬壽路一段36號","121.409386666667","25.0198833333333","6500500","新莊區"
"242011","132-UY","2017/06/24 18:19:46","新北市新莊區中港路591巷31號","121.449638333333","25.05232","6500500","新莊區"
"242034","133-UY","2017/06/24 18:19:47","新北市新莊區瓊林路59-66號","121.44137","25.0226433333333","6500500","新莊區"
"242044","172-VK","2017/06/24 18:19:38","新北市新莊區雙鳳路53號","121.415683333333","25.0272783333333","6500500","新莊區"
"242007","173-VK","2017/06/24 18:19:53","新北市新莊區自強街21號","121.454561666667","25.0462433333333","6500500","新莊區"
"242056","176-VK","2017/06/24 18:19:38","新北市新莊區瓊林路13-3號","121.448813333333","25.030935","6500500","新莊區"
"242019","347-TH","2017/06/24 18:19:46","新北市新莊區中港路132巷12號","121.455885","25.0407066666667","6500500","新莊區"
"242053","349-TH","2017/06/24 18:19:41","新北市新莊區民安西路410巷8弄1號","121.4284","25.0095533333333","6500500","新莊區"
"242015","350-TH","2017/06/24 18:19:49","新北市新莊區中平路198巷9號","121.445543333333","25.048555","6500500","新莊區"
"238015","755-BX","2017/06/24 18:19:37","新北市樹林區啟智街82-1號","121.419018333333","24.9906733333333","6500700","樹林區"
"238023","601-UM","2017/06/24 18:19:53","新北市樹林區龍興街59巷2弄2號","121.403396666667","25.0152016666667","6500700","樹林區"
"238019","599-UM","2017/06/24 18:19:51","新北市樹林區國凱街136巷33號","121.423845","24.9794766666667","6500700","樹林區"
"238018","571-TV","2017/06/24 18:19:45","新北市樹林區樹新路99號","121.42792","24.9955683333333","6500700","樹林區"
"238024","5061-A6","2017/06/24 18:19:50","新北市樹林區保安街一段220號","121.421073333333","24.9963416666667","6500700","樹林區"
"238021","311-TH","2017/06/24 13:13:33","新北市樹林區八德街487-1號","121.403411666667","24.97034","6500700","樹林區"
"238025","303-VK","2017/06/24 18:19:47","新北市樹林區保安街二段191號","121.414438333333","25.0036216666667","6500700","樹林區"
"238017","283-BY","2017/06/24 18:19:53","新北市樹林區保安街二段337巷4號","121.411778333333","25.0078983333333","6500700","樹林區"
"238014","282-BY","2017/06/24 18:19:44","新北市樹林區潭興街93號","121.424756666667","24.998595","6500700","樹林區"
"238020","268-VK","2017/06/24 18:19:38","新北市樹林區三俊街34號","121.411838333333","25.0154783333333","6500700","樹林區"
"238026","172-UY","2017/06/24 18:19:40","新北市樹林區佳園路一段90號","121.393451666667","24.969325","6500700","樹林區"
"238016","169-UY","2017/06/24 18:19:55","新北市樹林區文化街28號","121.419245","24.987705","6500700","樹林區"
"239007","AAC-297","2017/06/24 18:19:53","新北市鶯歌區育英街67號","121.347313333333","24.9522083333333","6500800","鶯歌區"
"239006","891-R6","2017/06/24 18:19:52","新北市鶯歌區鶯桃路296巷53號","121.335833333333","24.961355","6500800","鶯歌區"
"239008","527-UM","2017/06/24 18:19:37","新北市鶯歌區國際一路179號","121.3362","24.9765233333333","6500800","鶯歌區"
"239005","526-UM","2017/06/24 18:19:45","新北市鶯歌區鶯桃路668巷52弄21號","121.329745","24.9703083333333","6500800","鶯歌區"
"239001","417-VK","2017/06/24 18:19:46","新北市鶯歌區國中街197號","121.33821","24.9391466666667","6500800","鶯歌區"
"239003","360-BY","2017/06/24 18:19:41","新北市鶯歌區鶯桃路213-1號","121.337076666667","24.959005","6500800","鶯歌區"
"239004","193-VK","2017/06/24 18:19:40","新北市鶯歌區尖山路240巷30號","121.34254","24.9475916666667","6500800","鶯歌區"
"221008","489-VK","2017/06/24 18:19:49","新北市汐止區康寧街901號","121.651495","25.075035","6501100","汐止區"
"221036","130-UY","2017/06/24 18:19:46","新北市汐止區長興街一段37號","121.66998","25.0790783333333","6501100","汐止區"
"221015","131-UY","2017/06/24 18:19:47","新北市汐止區鄉長路二段23巷19號","121.667935","25.0828116666667","6501100","汐止區"
"221010","269-BY","2017/06/24 18:19:49","新北市汐止區汐萬路35號","121.644201666667","25.0915816666667","6501100","汐止區"
"221010","276-VK","2017/06/24 13:21:50","新北市汐止區汐萬路一段256巷3號","121.653466666667","25.0746083333333","6501100","汐止區"
"221031","277-VK","2017/06/24 00:09:42","新北市汐止區汐萬路一段256巷3號","121.652516666667","25.07455","6501100","汐止區"
"221012","278-VK","2017/06/24 18:19:36","新北市汐止區保長路27巷13號","121.672971666667","25.08016","6501100","汐止區"
"221002","279-VK","2017/06/24 14:38:55","新北市汐止區汐萬路一段256巷1號","121.651718333333","25.0748883333333","6501100","汐止區"
"221032","280-BY","2017/06/24 18:19:50","新北市汐止區民權街二段108號","121.618631666667","25.0465733333333","6501100","汐止區"
"221027","281-BY","2017/06/24 18:19:54","新北市汐止區和平街21號","121.66276","25.0707516666667","6501100","汐止區"
"221029","298-VK","2017/06/24 18:19:40","新北市汐止區樟樹二路330巷72-1號","121.642993333333","25.0698783333333","6501100","汐止區"
"221021","299-VK","2017/06/24 17:44:00","新北市汐止區汐萬路一段160號","121.652743333333","25.0715116666667","6501100","汐止區"
"221035","622-UM","2017/06/24 18:19:38","新北市汐止區大同路二段175號","121.651455","25.0642383333333","6501100","汐止區"
"221025","623-UM","2017/06/24 18:19:39","新北市汐止區勤進路12巷46號","121.659083333333","25.0629633333333","6501100","汐止區"
"221038","646-BX","2017/06/24 18:19:38","新北市汐止區仁愛路180號","121.664811666667","25.0657783333333","6501100","汐止區"
"221033","647-BX","2017/06/24 18:18:56","新北市汐止區宜興街30巷14號","121.622178333333","25.0412983333333","6501100","汐止區"
"221002","707-TV","2017/06/24 18:19:48","新北市汐止區福德一路201巷15號","121.636025","25.065075","6501100","汐止區"
"221018","753-BX","2017/06/24 18:19:56","新北市汐止區茄苳路83號","121.667121666667","25.0705566666667","6501100","汐止區"
"220068","568-UM","2017/06/24 18:19:41","新北市板橋區民生路二段36-1號","121.472523333333","25.01678","6500100","板橋區"
