"lineid","car","time","location","longitude","latitude","cityid","cityname"
"234046","148-BY","2017/06/24 18:59:56","新北市永和區得和路373巷16弄1號","121.525105","25.000315","6500400","永和區"
"234013","149-BY","2017/06/24 18:59:49","新北市永和區信義路10-1號","121.514576666667","25.01202","6500400","永和區"
"234007","207-UY","2017/06/24 18:59:46","新北市永和區中山路一段129號","121.51061","25.010015","6500400","永和區"
"234081","298-R6","2017/06/24 18:59:37","新北市永和區永亨路83號","121.52199","25.0056983333333","6500400","永和區"
"234038","336-UY","2017/06/24 18:59:45","新北市永和區民樂街75巷1號","121.527378333333","24.99705","6500400","永和區"
"234064","337-UY","2017/06/24 18:59:44","新北市永和區秀朗路一段198號","121.519343333333","25.0031583333333","6500400","永和區"
"234086","338-UY","2017/06/24 18:59:38","新北市永和區永利路20號","121.518068333333","25.0057583333333","6500400","永和區"
"234070","552-UM","2017/06/24 18:59:39","新北市永和區豫溪街57巷22號","121.517123333333","25.0108783333333","6500400","永和區"
"234054","553-UM","2017/06/24 18:59:53","新北市永和區竹林路66巷15-5號","121.518115","25.0130616666667","6500400","永和區"
"234017","745-BX","2017/06/24 18:59:55","新北市永和區永和路二段310號","121.51619","25.0160416666667","6500400","永和區"
"234030","746-BX","2017/06/24 18:59:49","新北市永和區四維街40號","121.525371666667","24.9980616666667","6500400","永和區"
"234061","AAD-866","2017/06/24 18:59:52","新北市永和區中正路465巷12弄7號","121.516366666667","25.00626","6500400","永和區"
"234042","862-TW","2017/06/24 18:59:46","新北市永和區永貞路308號","121.511838333333","25.0048866666667","6500400","永和區"
"234050","863-TW","2017/06/24 18:59:41","新北市永和區文化路208號","121.510318333333","25.016535","6500400","永和區"
"234026","9371-KE","2017/06/24 18:59:44","新北市永和區安樂路453號","121.514293333333","25.0050233333333","6500400","永和區"
"234011","9373-KE","2017/06/24 18:59:39","新北市永和區忠孝街34巷16號","121.514528333333","25.016785","6500400","永和區"
"249005","172-UM","2017/06/24 18:59:40","新北市八里區長道坑6號","121.39733","25.1236516666667","6502300","八里區"
"249001","173-UM","2017/06/24 18:59:50","新北市八里區渡船頭街3-1號","121.434368333333","25.1583066666667","6502300","八里區"
"248016","026-BX","2017/06/24 18:59:55","新北市五股區成泰路三段543巷5號","121.450888333333","25.102195","6501500","五股區"
"248006","077-UY","2017/06/24 18:59:48","新北市五股區中興路一段71號","121.467608333333","25.0727233333333","6501500","五股區"
"248008","095-VK","2017/06/24 18:59:36","新北市五股區中興路一段118巷6弄2號","121.466256666667","25.0738816666667","6501500","五股區"
"248020","225-UY","2017/06/24 18:59:35","新北市五股區凌雲路三段104號","121.426168333333","25.1230433333333","6501500","五股區"
"248012","247-BX","2017/06/23 21:12:17","新北市五股區中興路二段103巷14號","121.45859","25.0762383333333","6501500","五股區"
"248014","261-SL","2017/06/24 18:59:49","新北市五股區民義路一段107巷23號","121.432116666667","25.0845033333333","6501500","五股區"
"248002","655-BX","2017/06/24 18:59:53","新北市五股區凌雲路一段137號","121.449435","25.1022183333333","6501500","五股區"
"248004","677-BX","2017/06/24 18:59:53","新北市五股區民義路二段72號","121.404993333333","25.1094266666667","6501500","五股區"
"248010","682-TV","2017/06/24 18:59:48","新北市五股區水碓七路30號","121.428945","25.0715933333333","6501500","五股區"
"234023","9380-KE","2017/06/24 18:59:46","新北市永和區竹林路75巷33弄1號","121.520548333333","25.0142433333333","6500400","永和區"
"234077","969-R7","2017/06/24 18:59:40","新北市永和區中正路312號","121.517825","24.99929","6500400","永和區"
"234074","AAC-211","2017/06/24 18:59:50","新北市永和區環河東路二段100號","121.524126666667","25.0102716666667","6500400","永和區"
"234067","AAC-212","2017/06/24 18:59:39","新北市永和區永和路一段22號","121.51303","25.00486","6500400","永和區"
"234003","AAC-295","2017/06/24 18:57:57","新北市永和區和平街32號","121.51322","25.00997","6500400","永和區"
"244013","069-UM","2017/06/24 18:59:50","新北市林口區文化一路一段120號","121.374523333333","25.0716666666667","6501700","林口區"
"244007","080-UY","2017/06/24 18:59:36","新北市林口區太平里16-1號","121.37758","25.11491","6501700","林口區"
"244019","403-UM","2017/06/24 18:59:43","新北市林口區麗園二街23巷19號","121.380188333333","25.0704516666667","6501700","林口區"
"244009","410-SL","2017/06/24 18:59:44","新北市林口區竹林路358巷6號","121.392071666667","25.0841516666667","6501700","林口區"
"244023","483-VK","2017/06/24 18:59:37","新北市林口區民權路12巷5號","121.371658333333","25.0798433333333","6501700","林口區"
"244017","485-VK","2017/06/24 18:59:45","新北市林口區文化二路一段20巷19號","121.365525","25.0675816666667","6501700","林口區"
"244011","701-TV","2017/06/24 18:59:39","新北市林口區粉寮路一段41號","121.396593333333","25.0773466666667","6501700","林口區"
"244025","837-TS","2017/06/24 18:59:47","新北市林口區民族路77號","121.365706666667","25.0758166666667","6501700","林口區"
"243013","AAD-798","2017/06/24 18:59:50","新北市泰山區明志路三段206巷11號","121.423273333333","25.0376383333333","6501600","泰山區"
"243009","297-R6","2017/06/24 18:59:51","新北市泰山區泰林路二段365號","121.427908333333","25.0636916666667","6501600","泰山區"
"243015","380-SR","2017/06/24 18:59:49","新北市泰山區明志路一段203號","121.432696666667","25.0614","6501600","泰山區"
"243014","421-VK","2017/06/24 18:59:46","新北市泰山區黎明路17號","121.420846666667","25.06295","6501600","泰山區"
"243010","548-UM","2017/06/24 18:59:44","新北市泰山區明志路一段352巷15弄30號","121.42931","25.0587633333333","6501600","泰山區"
"243011","549-UM","2017/06/24 18:59:46","新北市泰山區明志路二段320巷6弄5號","121.425633333333","25.0466566666667","6501600","泰山區"
"243012","646-TV","2017/06/24 18:59:53","新北市泰山區仁德路110號","121.43271","25.05683","6501600","泰山區"
"243016","680-BX","2017/06/24 18:59:38","新北市泰山區明志路二段233號","121.427385","25.0483266666667","6501600","泰山區"
"222003","436-BY","2017/06/24 18:59:52","新北市深坑區深南路51-1號","121.621335","25.0101216666667","6501800","深坑區"
"222002","659-BX","2017/06/24 18:59:36","新北市深坑區文山路一段33號","121.62955","25.00394","6501800","深坑區"
"222001","696-SL","2017/06/24 18:59:51","新北市深坑區北深路一段170號","121.63407","25.0107316666667","6501800","深坑區"
"231041","002-UM","2017/06/24 18:59:46","新北市新店區環河路64號","121.53693","24.9626966666667","6500600","新店區"
"231056","0291-UT","2017/06/24 18:59:45","新北市新店區大同街8巷2號","121.539758333333","24.9801233333333","6500600","新店區"
"231059","046-UY","2017/06/24 18:59:47","新北市新店區安和路一段39號","121.51724","24.9653783333333","6500600","新店區"
"231061","047-UY","2017/06/24 18:59:40","新北市新店區安康路一段351-1號","121.519586666667","24.96392","6500600","新店區"
"231060","106-UY","2017/06/24 18:59:51","新北市新店區車子路10-4號","121.505048333333","24.9545666666667","6500600","新店區"
"231051","107-UY","2017/06/24 18:59:42","新北市新店區百忍街14號","121.534646666667","24.975615","6500600","新店區"
"231048","108-UY","2017/06/24 18:59:50","新北市新店區德正街27巷14號","121.5452","24.9715066666667","6500600","新店區"
"231052","187-VK","2017/06/24 18:59:50","新北市新店區屈尺路46-1號","121.548026666667","24.9226633333333","6500600","新店區"
"231039","260-TV","2017/06/24 18:59:41","新北市新店區建國路92號","121.540335","24.977535","6500600","新店區"
"231063","268-BY","2017/06/24 18:59:44","新北市新店區車子路109號","121.505236666667","24.9521033333333","6500600","新店區"
"231046","278-BY","2017/06/24 18:59:52","新北市新店區直潭五街28號","121.534105","24.9416083333333","6500600","新店區"
"231050","AAD-862","2017/06/24 18:59:36","新北市新店區新烏路一段11巷7號","121.547315","24.9513266666667","6500600","新店區"
"231058","3712-VJ","2017/06/24 18:59:55","新北市新店區中興路一段187號","121.543205","24.9649283333333","6500600","新店區"
"231055","3713-VJ","2017/06/24 18:59:48","新北市新店區新生街13巷13號","121.539485","24.96592","6500600","新店區"
"231067","4772-VM","2017/06/24 18:59:47","新北市新店區安康路一段281巷29號","121.523821666667","24.96227","6500600","新店區"
"231065","512-UM","2017/06/24 18:59:42","新北市新店區安祥路147巷84號","121.475586666667","24.9553916666667","6500600","新店區"
"231054","513-UM","2017/06/24 18:59:50","新北市新店區新店路12號","121.538188333333","24.9524966666667","6500600","新店區"
"231064","515-UM","2017/06/24 18:59:48","新北市新店區安忠路8-1號","121.51481","24.9631566666667","6500600","新店區"
"231042","616-UM","2017/06/24 18:59:47","新北市新店區中興路一段282號","121.54574","24.968515","6500600","新店區"
"231045","617-UM","2017/06/24 18:59:54","新北市新店區光明街55號","121.538666666667","24.96025","6500600","新店區"
"231040","619-UM","2017/06/24 18:59:52","新北市新店區三民路185號","121.535368333333","24.9753816666667","6500600","新店區"
"231049","719-UM","2017/06/24 18:59:42","新北市新店區二十張路143-2號","121.534966666667","24.9788116666667","6500600","新店區"
"231062","720-UM","2017/06/24 18:59:38","新北市新店區安和路一段43號","121.517153333333","24.9655283333333","6500600","新店區"
"231044","897-TW","2017/06/24 18:59:43","新北市新店區寶中路78號","121.548336666667","24.98065","6500600","新店區"
"231043","899-TW","2017/06/24 18:59:56","新北市新店區北新路二段1號","121.542711666667","24.9712683333333","6500600","新店區"
"231066","AKT-0513","2017/06/24 18:59:37","新北市新店區安康路三段450號","121.48452","24.9512883333333","6500600","新店區"
"241020","413-TH","2017/06/24 18:59:47","新北市三重區忠孝路二段51號","121.485653333333","25.0710633333333","6500200","三重區"
"241035","462-BY","2017/06/24 18:59:37","新北市三重區重新路四段121號","121.484808333333","25.052005","6500200","三重區"
"235066","003-UY","2017/06/24 18:59:56","新北市中和區水源路7巷9號","121.503825","25.00365","6500300","中和區"
"235064","005-UY","2017/06/24 18:59:34","新北市中和區景平路634-3號","121.499396666667","24.9990016666667","6500300","中和區"
"235063","006-UY","2017/06/24 18:59:41","新北市中和區中正路466號","121.49007","24.994295","6500300","中和區"
"235062","031-BX","2017/06/24 18:59:49","新北市中和區中山路二段330號","121.494876666667","25.0023183333333","6500300","中和區"
"235056","096-UM","2017/06/24 18:59:49","新北市中和區中山路二段568巷26號","121.482465","25.0064533333333","6500300","中和區"
"235039","097-UM","2017/06/24 18:59:51","新北市中和區安樂路217巷56號","121.512995","24.9975983333333","6500300","中和區"
"235040","150-BY","2017/06/24 18:59:49","新北市中和區安樂路101-2號","121.513273333333","24.9951383333333","6500300","中和區"
"235058","151-BY","2017/06/24 18:59:38","新北市中和區員山路111號","121.480846666667","24.9947566666667","6500300","中和區"
"235055","183-VK","2017/06/24 18:59:39","新北市中和區民德路2號","121.468791666667","25.0033333333333","6500300","中和區"
"235038","185-VK","2017/06/24 18:59:40","新北市中和區大勇街76號","121.518256666667","24.9947766666667","6500300","中和區"
"235049","186-VK","2017/06/24 18:59:42","新北市中和區景安路177巷36號","121.506921666667","24.9945033333333","6500300","中和區"
"235067","255-BX","2017/06/24 18:59:54","新北市中和區中正路839巷17號","121.483873333333","25.0023383333333","6500300","中和區"
"235044","293-VK","2017/06/24 18:59:56","新北市中和區中興街152號","121.499806666667","24.9919666666667","6500300","中和區"
"235072","301-VK","2017/06/24 18:59:46","新北市中和區中山路二段172號","121.501056666667","25.00286","6500300","中和區"
"235043","352-BY","2017/06/24 18:59:40","新北市中和區成功路56號","121.526071666667","24.9923266666667","6500300","中和區"
"235051","376-QA","2017/06/24 18:59:56","新北市中和區忠孝街64號","121.51189","24.9839183333333","6500300","中和區"
"235068","377-QA","2017/06/24 18:59:51","新北市中和區圓通路265巷36號","121.496016666667","24.9924333333333","6500300","中和區"
"235061","378-QA","2017/06/24 18:59:49","新北市中和區民享街47號","121.474061666667","25.0028133333333","6500300","中和區"
"235050","4979-A6","2017/06/24 18:59:56","新北市中和區華新街50巷7號","121.507676666667","24.9838233333333","6500300","中和區"
"235069","4980-A6","2017/06/24 18:59:52","新北市中和區中和路217巷18弄1號","121.50476","25.0003216666667","6500300","中和區"
"235042","551-UM","2017/06/24 18:59:40","新北市中和區秀朗路三段78巷2弄1號","121.525741666667","24.99408","6500300","中和區"
"235070","558-UM","2017/06/24 18:59:56","新北市中和區南山路75號","121.50205","24.9980066666667","6500300","中和區"
"235045","565-BX","2017/06/24 18:59:40","新北市中和區興南路一段4號","121.511616666667","24.99145","6500300","中和區"
"235054","640-BX","2017/06/24 18:59:38","新北市中和區民享街35巷1號","121.474225","25.0038716666667","6500300","中和區"
"235060","647-TV","2017/06/24 18:59:56","新北市中和區中山路三段127號","121.474321666667","25.0060966666667","6500300","中和區"
"235047","732-UM","2017/06/24 18:59:37","新北市中和區興南路二段36號","121.50684","24.985525","6500300","中和區"
"235046","733-UM","2017/06/24 18:59:56","新北市中和區興南路一段143號","121.508806666667","24.9874466666667","6500300","中和區"
"235071","783-BX","2017/06/24 18:59:45","新北市中和區員山路36巷16-2號","121.485393333333","24.9911283333333","6500300","中和區"
"235057","801-TS","2017/06/24 18:59:52","新北市中和區民利街14巷3-3號","121.480621666667","24.9995616666667","6500300","中和區"
"235041","802-TS","2017/06/24 18:59:46","新北市中和區中安街178巷3弄2號","121.510646666667","24.99912","6500300","中和區"
"235052","805-TS","2017/06/24 18:59:47","新北市中和區興南路二段347號","121.500121666667","24.9800883333333","6500300","中和區"
"235048","896-TW","2017/06/24 18:59:40","新北市中和區華新街75號","121.508281666667","24.9838","6500300","中和區"
"235053","900-TW","2017/06/24 18:59:39","新北市中和區民德路294號","121.467513333333","24.99552","6500300","中和區"
"235037","AAC-213","2017/06/24 18:59:46","新北市中和區秀朗路三段175巷10號","121.525018333333","24.9913266666667","6500300","中和區"
"235059","AAC-215","2017/06/24 18:59:55","新北市中和區圓通路369巷14弄8號","121.490446666667","24.9878333333333","6500300","中和區"
"220065","072-UY","2017/06/24 18:59:39","新北市板橋區漢生東路326巷2弄2號","121.471536666667","25.0078633333333","6500100","板橋區"
"220086","073-UY","2017/06/24 18:59:51","新北市板橋區中正路80巷5號","121.456953333333","25.0146066666667","6500100","板橋區"
"220106","075-UY","2017/06/24 18:59:45","新北市板橋區文化路二段124巷28-2號","121.47125","25.0256483333333","6500100","板橋區"
"247002","336-TH","2017/06/24 18:59:35","新北市五股區中興路三段163號","121.44925","25.0809233333333","6501400","蘆洲區"
"247006","335-TH","2017/06/24 18:58:00","新北市五股區中興路三段2巷10號","121.449215","25.0810366666667","6501400","蘆洲區"
"247014","057-VK","2017/06/24 18:31:49","新北市五股區中興路三段163號","121.449283333333","25.0809266666667","6501400","蘆洲區"
"247022","002-UY","2017/06/24 18:07:39","新北市五股區中興路三段163號","121.44936","25.0806433333333","6501400","蘆洲區"
"226004","312-R5","2017/06/24 18:59:48","新北市平溪區靜安路二段561號","121.748431666667","25.024795","6502400","平溪區"
"228003","097-TW","2017/06/24 18:59:34","新北市貢寮區和美里龍洞街26號","121.916391666667","25.1097083333333","6502600","貢寮區"
"228001","212-TW","2017/06/24 18:59:51","新北市貢寮區仁理村仁和路106巷16號","121.923918333333","25.0516833333333","6502600","貢寮區"
"228002","585-TW","2017/06/24 18:59:56","新北市貢寮區福隆里東興街106巷21弄2號","121.946123333333","25.017955","6502600","貢寮區"
"224010","AGQ-8101","2017/06/24 18:58:44","新北市瑞芳區基山街29號","121.845481666667","25.1092883333333","6501200","瑞芳區"
"224006","676-BX","2017/06/24 18:59:50","新北市瑞芳區中正路20號","121.808496666667","25.1070583333333","6501200","瑞芳區"
"224009","285-BY","2017/06/24 18:59:48","新北市瑞芳區祈堂路8號","121.858995","25.1123766666667","6501200","瑞芳區"
"224008","275-VK","2017/06/24 18:59:55","新北市瑞芳區逢甲路357-1號","121.798245","25.11262","6501200","瑞芳區"
"224007","273-VK","2017/06/24 18:59:36","新北市瑞芳區中央路48巷180號","121.75851","25.10271","6501200","瑞芳區"
"224005","271-BY","2017/06/24 18:59:43","新北市瑞芳區海濱路147號","121.83033","25.1222283333333","6501200","瑞芳區"
"227002","642-TC","2017/06/24 18:59:42","新北市雙溪區平林里康福家園10號","121.8588","25.0373316666667","6502500","雙溪區"
"227010","400-TW","2017/06/24 18:59:55","新北市雙溪區牡丹里中正路58巷23號","121.86645","25.0416533333333","6502500","雙溪區"
"253006","032-BX","2017/06/24 18:59:38","新北市石門區下員坑33-6號","121.518146666667","25.2828633333333","6502200","石門區"
"253005","295-VK","2017/06/24 18:59:52","新北市石門區中央路37-2號","121.568623333333","25.2952516666667","6502200","石門區"
"208003","665-BX","2017/06/24 18:59:52","新北市金山區中正路39號","121.634978333333","25.2219783333333","6502700","金山區"
"208001","761-BX","2017/06/24 18:59:45","新北市金山區中山路93號","121.640103333333","25.2188816666667","6502700","金山區"
"251005","010-UM","2017/06/24 18:59:54","新北市淡水區中正路18巷6號","121.437578333333","25.1728066666667","6501000","淡水區"
"251001","011-UM","2017/06/24 18:59:51","新北市淡水區自強路58號","121.463203333333","25.1274866666667","6501000","淡水區"
"251014","180-VK","2017/06/24 18:59:43","新北市淡水區小中寮30號","121.490045","25.2277983333333","6501000","淡水區"
"251010","413-VK","2017/06/24 18:59:41","新北市淡水區淡海路111號","121.421971666667","25.1825083333333","6501000","淡水區"
"251012","441-VK","2017/06/24 18:59:53","新北市淡水區新春街126巷15弄1號","121.440471666667","25.180905","6501000","淡水區"
"251016","442-VK","2017/06/24 18:59:50","新北市淡水區淡金路三段230號","121.448871666667","25.2051833333333","6501000","淡水區"
"251009","575-R6","2017/06/24 18:59:46","新北市淡水區重建街38號","121.439915","25.1712783333333","6501000","淡水區"
"251011","650-BX","2017/06/24 18:59:44","新北市淡水區中正東路二段129號","121.459515","25.1487283333333","6501000","淡水區"
"251002","672-BX","2017/06/24 18:59:37","新北市淡水區中正東路55-4號","121.446793333333","25.1679166666667","6501000","淡水區"
"251003","673-BX","2017/06/24 18:59:51","新北市淡水區中山北路一段149巷24號","121.442973333333","25.1780316666667","6501000","淡水區"
"207003","550-UM","2017/06/24 18:59:45","新北市萬里區大鵬里頂社24-2號","121.657468333333","25.2103116666667","6502800","萬里區"
"207004","225-TW","2017/06/24 18:59:46","新北市萬里區萬里里獅頭路23號","121.693215","25.1782666666667","6502800","萬里區"
"252002","178-VK","2017/06/24 18:59:53","新北市三芝區中正路一段82號","121.504085","25.2572883333333","6502100","三芝區"
"252003","249-BX","2017/06/24 18:59:51","新北市三芝區後厝里北勢子7號","121.475605","25.25603","6502100","三芝區"
"252001","702-TV","2017/06/24 18:59:47","新北市三芝區中興街二段260號","121.50175","25.253015","6502100","三芝區"
"208002","170-UY","2017/06/24 18:59:37","新北市金山區信義路31巷4號","121.635703333333","25.2194283333333","6502700","金山區"
"237004","078-UY","2017/06/24 18:59:47","新北市三峽區有木183號","121.444803333333","24.8363966666667","6500900","三峽區"
"237007","153-BY","2017/06/24 18:59:49","新北市三峽區中正路122號","121.366541666667","24.906245","6500900","三峽區"
"237013","252-BX","2017/06/24 18:59:42","新北市三峽區光明路69巷25號","121.37663","24.92921","6500900","三峽區"
"237012","275-BY","2017/06/24 18:59:38","新北市三峽區三樹路222巷72-1號","121.38337","24.9422133333333","6500900","三峽區"
"237008","302-VK","2017/06/24 18:59:51","新北市三峽區正義街75號","121.369103333333","24.91848","6500900","三峽區"
"237014","433-BY","2017/06/24 18:59:41","新北市三峽區大勇路14號","121.367125","24.9381766666667","6500900","三峽區"
"237006","5529-G3","2017/06/24 18:59:55","新北市三峽區溪東路47號","121.400578333333","24.9348333333333","6500900","三峽區"
"237011","572-TV","2017/06/24 18:59:39","新北市三峽區介壽路二段153-1號","121.393488333333","24.9357966666667","6500900","三峽區"
"237016","649-BX","2017/06/24 18:59:50","新北市三峽區安坑40-2號","121.454995","24.9322433333333","6500900","三峽區"
"237010","706-TV","2017/06/24 18:59:54","新北市三峽區國光街91號","121.373471666667","24.9388166666667","6500900","三峽區"
"237005","AKY-6261","2017/06/24 18:59:48","新北市三峽區中山路459巷163-3號","121.348651666667","24.9329066666667","6500900","三峽區"
"236073","105-UM","2017/06/24 18:59:55","新北市土城區金城路二段266號","121.458378333333","24.9833766666667","6501300","土城區"
"236043","107-UM","2017/06/24 18:59:50","新北市土城區學府路一段256巷4弄1號","121.450836666667","24.9849416666667","6501300","土城區"
"236079","166-UM","2017/06/24 18:59:47","新北市土城區中央路四段125巷2弄21號","121.416313333333","24.9567566666667","6501300","土城區"
"236031","253-BX","2017/06/24 18:59:39","新北市土城區興城路75號","121.440071666667","24.9707316666667","6501300","土城區"
"236027","269-VK","2017/06/24 18:59:49","新北市土城區中央路二段195號","121.442213333333","24.9751516666667","6501300","土城區"
"236015","270-VK","2017/06/24 18:59:35","新北市土城區延和路13巷14號","121.463613333333","24.9885016666667","6501300","土城區"
"236038","271-VK","2017/06/24 18:59:40","新北市土城區仁愛路54巷12號","121.461913333333","24.978355","6501300","土城區"
"236002","339-SR","2017/06/24 13:17:06","新北市土城區永平街51號","121.427631666667","24.9591933333333","6501300","土城區"
"236023","401-BY","2017/06/24 18:59:56","新北市土城區明峰街50號","121.467755","24.98651","6501300","土城區"
"236059","912-UM","2017/06/24 18:59:48","新北市土城區金城路一段80號","121.444551666667","24.9731916666667","6501300","土城區"
"236049","913-UM","2017/06/24 18:59:52","新北市土城區青雲路239號","121.459216666667","24.981225","6501300","土城區"
"236063","915-UM","2017/06/24 18:59:38","新北市土城區延和路110號","121.467088333333","24.9898433333333","6501300","土城區"
"236055","AAC-216","2017/06/24 18:59:46","新北市土城區學成路179號","121.447826666667","24.98858","6501300","土城區"
"242046","441-UM","2017/06/24 18:59:43","新北市樹林區八德街588-1號","121.398506666667","24.9692983333333","6500500","新莊區"
"238023","601-UM","2017/06/24 18:59:53","新北市樹林區工興街18-3號","121.397748333333","25.0135183333333","6500700","樹林區"
"238019","599-UM","2017/06/24 18:59:50","新北市樹林區東榮街169號","121.414015","24.9813766666667","6500700","樹林區"
"238018","571-TV","2017/06/24 18:59:45","新北市樹林區鎮前街163號","121.422486666667","24.9874033333333","6500700","樹林區"
"238024","5061-A6","2017/06/24 18:59:50","新北市樹林區八德街592號","121.397761666667","24.970135","6500700","樹林區"
"238022","312-TH","2017/06/24 18:59:35","新北市樹林區東興街16巷1號","121.410093333333","24.9783733333333","6500700","樹林區"
"238021","311-TH","2017/06/24 13:13:33","新北市樹林區八德街487-1號","121.403411666667","24.97034","6500700","樹林區"
"238025","303-VK","2017/06/24 18:59:47","新北市樹林區中山路三段22號","121.39557","24.9728566666667","6500700","樹林區"
"238017","283-BY","2017/06/24 18:59:56","新北市樹林區光興街50號","121.409858333333","25.002775","6500700","樹林區"
"238014","282-BY","2017/06/24 18:59:44","新北市樹林區大安路111巷4號","121.42309","24.9975233333333","6500700","樹林區"
"238020","268-VK","2017/06/24 18:59:38","新北市樹林區俊英街184號","121.425993333333","25.0077","6500700","樹林區"
"238026","172-UY","2017/06/24 18:59:40","新北市樹林區中和街2號","121.391281666667","24.973255","6500700","樹林區"
"238016","169-UY","2017/06/24 18:59:55","新北市樹林區文化街28號","121.41932","24.9876983333333","6500700","樹林區"
"239007","AAC-297","2017/06/24 18:59:39","新北市鶯歌區中正一路225號","121.354073333333","24.957495","6500800","鶯歌區"
"239006","891-R6","2017/06/24 18:59:51","新北市鶯歌區鶯桃路96-1號","121.33966","24.953705","6500800","鶯歌區"
"239008","527-UM","2017/06/24 18:59:57","新北市鶯歌區國際二路18巷5號","121.337241666667","24.97503","6500800","鶯歌區"
"239005","526-UM","2017/06/24 18:59:45","新北市鶯歌區大湖路361巷24弄28號","121.329756666667","24.97762","6500800","鶯歌區"
"239001","417-VK","2017/06/24 18:59:46","新北市鶯歌區永明街15號","121.33843","24.9553016666667","6500800","鶯歌區"
"239003","360-BY","2017/06/24 18:59:42","新北市鶯歌區永和街174號","121.336125","24.97047","6500800","鶯歌區"
"239004","193-VK","2017/06/24 18:59:39","新北市鶯歌區中正三路406巷3弄1號","121.325138333333","24.935725","6500800","鶯歌區"
"221008","489-VK","2017/06/24 18:59:49","新北市汐止區康寧街753巷2弄10號","121.639411666667","25.0739483333333","6501100","汐止區"
"221036","130-UY","2017/06/24 18:59:46","新北市汐止區忠孝東路310號","121.664491666667","25.0687866666667","6501100","汐止區"
"221015","131-UY","2017/06/24 18:59:47","新北市汐止區大同路二段383號","121.657616666667","25.0672266666667","6501100","汐止區"
"221010","269-BY","2017/06/24 18:59:49","新北市汐止區康寧街901號","121.651346666667","25.0750616666667","6501100","汐止區"
"221010","276-VK","2017/06/24 13:21:50","新北市汐止區汐萬路一段256巷3號","121.653466666667","25.0746083333333","6501100","汐止區"
"221031","277-VK","2017/06/24 00:09:42","新北市汐止區汐萬路一段256巷3號","121.652516666667","25.07455","6501100","汐止區"
"221012","278-VK","2017/06/24 18:59:55","新北市汐止區康寧街901號","121.650811666667","25.0752233333333","6501100","汐止區"
"221002","279-VK","2017/06/24 18:59:55","新北市汐止區康寧街901號","121.651025","25.075185","6501100","汐止區"
"221032","280-BY","2017/06/24 18:59:43","新北市汐止區橫科路367巷26號","121.623373333333","25.048295","6501100","汐止區"
"221027","281-BY","2017/06/24 18:52:22","新北市汐止區康寧街901號","121.650881666667","25.07527","6501100","汐止區"
"221029","298-VK","2017/06/24 18:59:47","新北市汐止區樟樹一路242號","121.642321666667","25.0669483333333","6501100","汐止區"
"221021","299-VK","2017/06/24 18:30:20","新北市汐止區新台五路一段159號","121.654071666667","25.062605","6501100","汐止區"
"221025","623-UM","2017/06/24 18:59:39","新北市汐止區汐萬路一段256巷3號","121.65348","25.0746133333333","6501100","汐止區"
"221038","646-BX","2017/06/24 18:59:38","新北市汐止區康寧街901號","121.651723333333","25.0749283333333","6501100","汐止區"
"221033","647-BX","2017/06/24 18:59:56","新北市汐止區南勢街1巷1號","121.626971666667","25.037405","6501100","汐止區"
"221002","707-TV","2017/06/24 18:59:48","新北市汐止區大同路一段2號","121.621","25.05507","6501100","汐止區"
"221018","753-BX","2017/06/24 18:59:56","新北市汐止區汐萬路一段143號","121.6535","25.071135","6501100","汐止區"
"220079","145-BY","2017/06/24 18:59:45","新北市板橋區民權路202巷9弄29號","121.45937","25.0156966666667","6500100","板橋區"
"220082","610-BX","2017/06/24 18:59:48","新北市板橋區篤行路三段玉平巷28號","121.428403333333","24.9866833333333","6500100","板橋區"
"220069","258-TC","2017/06/24 18:59:54","新北市板橋區館前西路4-1號","121.459085","25.00709","6500100","板橋區"
"220056","276-BY","2017/06/24 18:59:46","新北市板橋區信義路161號","121.458676666667","24.99239","6500100","板橋區"
"220072","277-BY","2017/06/24 18:59:36","新北市板橋區大觀路三段5-4號","121.432738333333","24.9959166666667","6500100","板橋區"
"220064","280-UM","2017/06/24 18:59:36","新北市板橋區漢生東路176號","121.466955","25.0144866666667","6500100","板橋區"
"220094","283-UM","2017/06/24 18:59:55","新北市板橋區光武街35-3號","121.467713333333","25.02525","6500100","板橋區"
"220071","283-VK","2017/06/24 18:59:55","新北市板橋區重慶路245巷61號","121.465558333333","25.0010316666667","6500100","板橋區"
"220053","285-VK","2017/06/24 18:59:50","新北市板橋區中山路二段89巷41號","121.473683333333","25.0171633333333","6500100","板橋區"
"220083","286-VK","2017/06/24 18:59:38","新北市板橋區大觀路一段38巷156弄105號","121.443271666667","25.007685","6500100","板橋區"
"220081","287-VK","2017/06/24 18:59:54","新北市板橋區光華街15巷17號","121.453396666667","25.0116583333333","6500100","板橋區"
"220090","288-VK","2017/06/24 18:59:45","新北市板橋區四維路177巷3弄1號","121.463976666667","25.02618","6500100","板橋區"
"220061","293-UM","2017/06/24 18:59:47","新北市板橋區富山街102號","121.47622","25.021905","6500100","板橋區"
"220084","296-UM","2017/06/24 18:59:47","新北市板橋區大觀路二段156巷40號","121.441305","25.0001433333333","6500100","板橋區"
"220075","297-UM","2017/06/24 18:59:54","新北市板橋區館前西路213巷7號","121.454473333333","25.0083416666667","6500100","板橋區"
"220097","299-UM","2017/06/24 18:59:38","新北市板橋區陽明街166號","121.463631666667","25.0245666666667","6500100","板橋區"
"220062","305-R5","2017/06/24 18:59:45","新北市板橋區民享街135號","121.47765","25.0167866666667","6500100","板橋區"
"220092","307-R5","2017/06/24 18:59:55","新北市板橋區文化路一段104巷19號","121.46511","25.0179416666667","6500100","板橋區"
"220098","317-R6","2017/06/24 18:59:51","新北市板橋區民有街16號","121.466275","25.0249316666667","6500100","板橋區"
"220089","487-VK","2017/06/24 18:59:48","新北市板橋區仁化街8號","121.474338333333","25.0315866666667","6500100","板橋區"
"220088","491-VK","2017/06/24 18:59:51","新北市板橋區民生路二段188號","121.469931666667","25.020685","6500100","板橋區"
"220035","560-BX","2017/06/24 18:59:56","新北市板橋區中正路258號","121.455405","25.0194083333333","6500100","板橋區"
"220103","561-BX","2017/06/24 18:59:57","新北市板橋區民生路二段121號","121.470631666667","25.0182566666667","6500100","板橋區"
"220068","568-UM","2017/06/24 18:59:50","新北市板橋區中山路二段467號","121.481908333333","25.0204666666667","6500100","板橋區"
"220063","609-BX","2017/06/24 18:59:43","新北市板橋區中山路二段132號","121.476356666667","25.0169266666667","6500100","板橋區"
"220091","637-BX","2017/06/24 18:59:44","新北市板橋區雙十路二段47巷44號","121.475081666667","25.0255233333333","6500100","板橋區"
"220057","686-BX","2017/06/24 18:59:42","新北市板橋區民權路33號","121.462355","25.0111433333333","6500100","板橋區"
"220077","687-BX","2017/06/24 18:59:41","新北市板橋區龍興街71巷2-1號","121.443946666667","25.0019933333333","6500100","板橋區"
"220093","689-BX","2017/06/24 18:59:51","新北市板橋區民生路三段120-2號","121.466381666667","25.02666","6500100","板橋區"
"220054","741-BX","2017/06/24 18:59:51","新北市板橋區後埔街37號","121.460578333333","25.0061583333333","6500100","板橋區"
"220055","827-TW","2017/06/24 18:59:48","新北市板橋區民安街11號","121.46685","25.0119316666667","6500100","板橋區"
"220067","829-TW","2017/06/24 18:59:43","新北市板橋區三民路二段正隆巷12弄19號","121.477521666667","25.01363","6500100","板橋區"
"220102","830-TW","2017/06/24 18:59:55","新北市板橋區田單街2巷30號","121.481448333333","25.027695","6500100","板橋區"
"220096","831-TW","2017/06/24 18:59:54","新北市板橋區莒光路103號","121.47265","25.0240733333333","6500100","板橋區"
"220074","895-R6","2017/06/24 18:59:53","新北市板橋區林園街40號","121.453806666667","25.0102716666667","6500100","板橋區"
"220073","985-R7","2017/06/24 18:59:50","新北市板橋區中正路153號","121.456553333333","25.01586","6500100","板橋區"
"220070","AAC-253","2017/06/24 18:59:39","新北市板橋區中山路一段1號","121.45956","25.0075266666667","6500100","板橋區"
