"lineid","car","time","location","longitude","latitude","cityid","cityname"
"234046","148-BY","2017/06/24 20:19:36","新北市永和區永元路71號","121.522211666667","25.0010916666667","6500400","永和區"
"234013","149-BY","2017/06/24 20:19:49","新北市永和區仁愛路295號","121.50524","25.0091133333333","6500400","永和區"
"234007","207-UY","2017/06/24 20:19:46","新北市永和區仁愛路307號","121.503676666667","25.0079866666667","6500400","永和區"
"234081","298-R6","2017/06/24 20:19:36","新北市永和區永亨路100號","121.523103333333","25.0048","6500400","永和區"
"234038","336-UY","2017/06/24 20:19:52","新北市永和區成功路一段19號","121.527123333333","25.004795","6500400","永和區"
"234064","337-UY","2017/06/24 20:19:44","新北市永和區得和路101號","121.51802","25.0002216666667","6500400","永和區"
"234086","338-UY","2017/06/24 20:19:57","新北市永和區永和路二段85號","121.514831666667","25.0113666666667","6500400","永和區"
"234070","552-UM","2017/06/24 20:19:39","新北市永和區福和路237巷1-1號","121.518535","25.0072533333333","6500400","永和區"
"234054","553-UM","2017/06/24 20:19:53","新北市永和區光復街2巷16弄24號","121.517525","25.0162933333333","6500400","永和區"
"234017","745-BX","2017/06/24 20:19:53","新北市永和區仁愛路54號","121.51368","25.0133516666667","6500400","永和區"
"234030","746-BX","2017/06/24 20:19:49","新北市永和區民族街81巷3號","121.518875","24.9966316666667","6500400","永和區"
"234061","AAD-866","2017/06/24 20:19:52","新北市永和區安樂路100巷11號","121.514418333333","24.9992266666667","6500400","永和區"
"234042","862-TW","2017/06/24 20:19:46","新北市永和區雙和街2號","121.50985","25.0017666666667","6500400","永和區"
"234050","863-TW","2017/06/24 20:19:41","新北市永和區保安路14號","121.510495","25.0173233333333","6500400","永和區"
"234011","9373-KE","2017/06/24 20:19:39","新北市永和區仁愛路352巷92弄16號","121.501416666667","25.0081883333333","6500400","永和區"
"249005","172-UM","2017/06/24 20:19:20","新北市八里區下罟子8-1號","121.385506666667","25.1396233333333","6502300","八里區"
"249001","173-UM","2017/06/24 20:19:36","新北市八里區中華路二段538-1號","121.399031666667","25.145035","6502300","八里區"
"249004","303-UY","2017/06/24 20:19:42","新北市八里區中山路一段336號","121.412598333333","25.159025","6502300","八里區"
"249002","305-UY","2017/06/24 20:19:51","新北市八里區龍米路二段32巷17號","121.448878333333","25.1407266666667","6502300","八里區"
"249003","593-UM","2017/06/24 20:19:39","新北市八里區訊埔路20號","121.397481666667","25.1453333333333","6502300","八里區"
"248016","026-BX","2017/06/24 20:19:35","新北市五股區凌雲路一段158巷39弄2號","121.446833333333","25.1037733333333","6501500","五股區"
"248012","247-BX","2017/06/23 21:12:17","新北市五股區中興路二段103巷14號","121.45859","25.0762383333333","6501500","五股區"
"248002","655-BX","2017/06/24 20:19:53","新北市五股區成泰路三段101-1號","121.443998333333","25.0901783333333","6501500","五股區"
"248004","677-BX","2017/06/24 20:19:53","新北市五股區成泰路一段237-9號","121.436545","25.08014","6501500","五股區"
"248010","682-TV","2017/06/24 20:19:48","新北市五股區新五路二段24號","121.437821666667","25.06572","6501500","五股區"
"234023","9380-KE","2017/06/24 20:19:46","新北市永和區永和路二段298號","121.51613","25.0159183333333","6500400","永和區"
"234074","AAC-211","2017/06/24 20:19:50","新北市永和區竹林路201巷17號","121.521546666667","25.0092966666667","6500400","永和區"
"234067","AAC-212","2017/06/24 20:19:39","新北市永和區保平路214巷3弄2號","121.509301666667","25.006345","6500400","永和區"
"234003","AAC-295","2017/06/24 20:17:57","新北市永和區自強街16號","121.515005","25.0080266666667","6500400","永和區"
"243013","AAD-798","2017/06/24 20:19:50","新北市泰山區新民路14巷1號","121.426511666667","25.0446716666667","6501600","泰山區"
"243009","297-R6","2017/06/24 20:19:51","新北市泰山區福泰街20號","121.432915","25.0600666666667","6501600","泰山區"
"243015","380-SR","2017/06/24 20:19:49","新北市泰山區仁德路48號","121.434345","25.0569383333333","6501600","泰山區"
"243014","421-VK","2017/06/24 20:19:46","新北市泰山區泰林路二段395號","121.427166666667","25.06428","6501600","泰山區"
"243010","548-UM","2017/06/24 20:19:44","新北市泰山區明志路二段214巷15號","121.426555","25.0490416666667","6501600","泰山區"
"243011","549-UM","2017/06/24 20:19:34","新北市泰山區貴陽街36巷3號","121.423016666667","25.0320666666667","6501600","泰山區"
"243012","646-TV","2017/06/24 20:19:52","新北市泰山區楓江路67-1號","121.436475","25.0630866666667","6501600","泰山區"
"243016","680-BX","2017/06/24 20:19:38","新北市泰山區新生路28號","121.429271666667","25.04453","6501600","泰山區"
"222003","436-BY","2017/06/24 20:19:52","新北市深坑區文化街86號","121.617605","25.0019583333333","6501800","深坑區"
"222002","659-BX","2017/06/24 20:19:36","新北市深坑區萬福路83號","121.601508333333","25.0094766666667","6501800","深坑區"
"222001","696-SL","2017/06/24 20:19:51","新北市深坑區北深路三段223號","121.600246666667","25.0040883333333","6501800","深坑區"
"231041","002-UM","2017/06/24 20:19:46","新北市新店區民權路42-1號","121.540365","24.9828966666667","6500600","新店區"
"231056","0291-UT","2017/06/24 20:19:45","新北市新店區中正路275巷27號","121.536986666667","24.9731033333333","6500600","新店區"
"231059","046-UY","2017/06/24 20:19:47","新北市新店區安德街139號","121.508653333333","24.96025","6500600","新店區"
"231061","047-UY","2017/06/24 20:19:40","新北市新店區安民街133巷26號","121.515298333333","24.969435","6500600","新店區"
"231060","106-UY","2017/06/24 20:19:51","新北市新店區錦秀路1-3號","121.479045","24.945465","6500600","新店區"
"231051","107-UY","2017/06/24 20:19:56","新北市新店區中央六街33號","121.528955","24.975285","6500600","新店區"
"231048","108-UY","2017/06/24 20:19:50","新北市新店區寶元路一段65號","121.54218","24.9858066666667","6500600","新店區"
"231052","187-VK","2017/06/24 20:19:50","新北市新店區松林路6-6號","121.54678","24.9111566666667","6500600","新店區"
"231057","256-BX","2017/06/24 20:19:50","新北市新店區花園五路二段11號","121.554051666667","24.9343266666667","6500600","新店區"
"231068","260-TV","2017/06/24 20:19:51","新北市新店區寶安街30-1號","121.54218","24.9823133333333","6500600","新店區"
"231063","268-BY","2017/06/24 20:19:43","新北市新店區安康路二段362號","121.501756666667","24.95744","6500600","新店區"
"231050","AAD-862","2017/06/24 20:19:36","新北市新店區北宜路一段57號","121.538426666667","24.9567816666667","6500600","新店區"
"231058","3712-VJ","2017/06/24 20:19:35","新北市新店區安德街60巷21號","121.510488333333","24.9632533333333","6500600","新店區"
"231055","3713-VJ","2017/06/24 20:19:48","新北市新店區新明街26巷6號","121.541236666667","24.9687583333333","6500600","新店區"
"231067","4772-VM","2017/06/24 20:19:47","新北市新店區溪洲路6巷12號","121.533978333333","24.9617933333333","6500600","新店區"
"231065","512-UM","2017/06/24 20:19:42","新北市新店區安祥路104-2號","121.48031","24.9623516666667","6500600","新店區"
"231054","513-UM","2017/06/24 20:19:49","新北市新店區檳榔路109號","121.544286666667","24.96164","6500600","新店區"
"231064","515-UM","2017/06/24 20:19:48","新北市新店區安利街26號","121.519191666667","24.9746183333333","6500600","新店區"
"231042","616-UM","2017/06/24 20:19:47","新北市新店區中興路二段222號","121.547976666667","24.9750433333333","6500600","新店區"
"231045","617-UM","2017/06/24 20:19:54","新北市新店區中興路一段202號","121.543658333333","24.9653133333333","6500600","新店區"
"231040","619-UM","2017/06/24 20:19:52","新北市新店區三民路13號","121.539776666667","24.97229","6500600","新店區"
"231049","719-UM","2017/06/24 20:19:36","新北市新店區中正路114號","121.542671666667","24.9710183333333","6500600","新店區"
"231062","720-UM","2017/06/24 20:19:38","新北市新店區安泰路7巷11號","121.485801666667","24.951065","6500600","新店區"
"231044","897-TW","2017/06/24 20:19:38","新北市新店區北新路三段87號","121.541561666667","24.98163","6500600","新店區"
"231043","899-TW","2017/06/24 20:19:48","新北市新店區建國路133號","121.53931","24.978235","6500600","新店區"
"231066","AKT-0513","2017/06/24 20:19:37","新北市新店區安興路112號","121.514653333333","24.9776783333333","6500600","新店區"
"241011","013-R5","2017/06/24 20:19:55","新北市三重區龍門路108號","121.497658333333","25.0728533333333","6500200","三重區"
"241028","022-UY","2017/06/24 20:19:46","新北市三重區大同南路131號","121.49646","25.057895","6500200","三重區"
"241008","059-VK","2017/06/24 20:19:50","新北市三重區永福街211巷11號","121.479456666667","25.0741283333333","6500200","三重區"
"241009","060-VK","2017/06/24 20:19:40","新北市三重區三和路四段382巷40弄2號","121.481488333333","25.0784233333333","6500200","三重區"
"241031","061-VK","2017/06/24 20:19:48","新北市三重區三寧街15號","121.489498333333","25.059825","6500200","三重區"
"241017","063-VK","2017/06/24 20:19:42","新北市三重區新北大道一段9號","121.48924","25.0614383333333","6500200","三重區"
"241024","065-VK","2017/06/24 20:19:38","新北市三重區忠孝路三段13號","121.481658333333","25.0673016666667","6500200","三重區"
"241026","066-VK","2017/06/24 20:19:51","新北市三重區重新路一段50號","121.50283","25.06381","6500200","三重區"
"241003","091-VK","2017/06/24 20:19:40","新北市三重區富華街29號","121.490523333333","25.083075","6500200","三重區"
"241015","156-TC","2017/06/24 20:19:45","新北市三重區重新路一段83號","121.501435","25.0635116666667","6500200","三重區"
"241005","262-UM","2017/06/24 20:19:55","新北市三重區分子尾街85號","121.48883","25.08257","6500200","三重區"
"241029","265-UM","2017/06/24 20:19:47","新北市三重區重安街98號","121.492686666667","25.056115","6500200","三重區"
"241016","266-UM","2017/06/24 20:19:51","新北市三重區重新路三段45-1號","121.493088333333","25.0612066666667","6500200","三重區"
"241022","267-UM","2017/06/24 20:19:56","新北市三重區市前街2號","121.488936666667","25.0618316666667","6500200","三重區"
"241018","268-UM","2017/06/24 20:19:53","新北市三重區雙園街99號","121.49379","25.0672866666667","6500200","三重區"
"241032","269-UM","2017/06/24 20:19:53","新北市三重區捷運路19巷8弄19號","121.484153333333","25.0571666666667","6500200","三重區"
"241013","270-UM","2017/06/24 20:19:43","新北市三重區三和路三段151巷20號","121.492745","25.0740766666667","6500200","三重區"
"241025","271-UM","2017/06/24 20:19:48","新北市三重區三民街271號","121.479301666667","25.06805","6500200","三重區"
"241007","398-BY","2017/06/24 20:19:51","新北市三重區溪尾街108巷38號","121.487995","25.0782616666667","6500200","三重區"
"241020","413-TH","2017/06/24 20:19:47","新北市三重區三和路三段170巷9號","121.492283333333","25.0730333333333","6500200","三重區"
"241035","462-BY","2017/06/24 20:19:37","新北市三重區正義北路33巷52號","121.499081666667","25.06394","6500200","三重區"
"241004","475-VK","2017/06/24 20:19:36","新北市三重區仁政街205號","121.490558333333","25.0805966666667","6500200","三重區"
"241019","478-VK","2017/06/24 20:19:43","新北市三重區忠孝路一段30巷58號","121.490543333333","25.0711933333333","6500200","三重區"
"241030","480-VK","2017/06/24 20:19:38","新北市三重區環河南路254巷53號","121.488143333333","25.0523166666667","6500200","三重區"
"241014","543-UM","2017/06/24 20:19:35","新北市三重區龍濱路165號","121.502446666667","25.0697066666667","6500200","三重區"
"241023","545-UM","2017/06/24 20:19:55","新北市三重區忠孝路三段56號","121.48066","25.0654716666667","6500200","三重區"
"241001","547-UM","2017/06/24 20:19:44","新北市三重區三和路四段89巷38號","121.490621666667","25.076465","6500200","三重區"
"241006","AAD-863","2017/06/24 20:19:38","新北市三重區車路頭街135-1號","121.484273333333","25.0761033333333","6500200","三重區"
"241012","941-UM","2017/06/24 20:19:51","新北市三重區河邊北街262號","121.50168","25.0764266666667","6500200","三重區"
"241033","AAC-255","2017/06/24 20:19:38","新北市三重區五谷王北街50巷40號","121.475151666667","25.0513966666667","6500200","三重區"
"235066","003-UY","2017/06/24 20:19:55","新北市中和區光華街33號","121.505006666667","25.003935","6500300","中和區"
"235026","031-BX","2017/06/24 20:11:51","新北市中和區和城路一段271巷1號","121.485401666667","24.991635","6500300","中和區"
"235039","097-UM","2017/06/24 20:19:51","新北市中和區大勇街25巷11弄1號","121.516443333333","24.9934016666667","6500300","中和區"
"235058","151-BY","2017/06/24 20:19:37","新北市板橋區民生路二段236號","121.468201666667","25.022785","6500300","中和區"
"235044","293-VK","2017/06/24 20:19:44","新北市中和區復興路286號","121.501943333333","24.9903833333333","6500300","中和區"
"235072","301-VK","2017/06/24 20:19:46","新北市林口區太平里180號","121.368411666667","25.1343833333333","6500300","中和區"
"235051","376-QA","2017/06/24 20:19:56","新北市中和區捷運路30號","121.50836","24.9902766666667","6500300","中和區"
"235068","377-QA","2017/06/24 20:19:51","新北市中和區勝利路35巷1弄15號","121.499491666667","25.0077283333333","6500300","中和區"
"235050","4979-A6","2017/06/24 20:19:50","新北市中和區景安路177巷12號","121.505855","24.9941216666667","6500300","中和區"
"235069","4980-A6","2017/06/24 20:19:35","新北市中和區圓通路198巷2弄2號","121.496171666667","24.9947683333333","6500300","中和區"
"235042","551-UM","2017/06/24 20:19:57","新北市新店區安康路二段320巷15弄2號","121.5042","24.959615","6500300","中和區"
"235070","558-UM","2017/06/24 20:19:35","新北市中和區中正路250號","121.495733333333","24.9939016666667","6500300","中和區"
"235041","802-TS","2017/06/24 20:19:46","新北市中和區中安街104-1號","121.511718333333","25.00114","6500300","中和區"
"235037","AAC-213","2017/06/24 20:19:46","新北市中和區秀朗路三段177號","121.52441","24.9910933333333","6500300","中和區"
"235059","AAC-215","2017/06/24 20:19:35","新北市中和區圓通路367巷13弄81號","121.49365","24.98769","6500300","中和區"
"220065","072-UY","2017/06/24 20:19:39","新北市板橋區板城路271號","121.449906666667","24.997795","6500100","板橋區"
"247020","893-R6","2017/06/24 20:19:45","新北市蘆洲區仁愛街161巷33-1號","121.468725","25.094285","6501400","蘆洲區"
"247010","546-UM","2017/06/24 20:19:53","新北市蘆洲區信義路267號","121.47897","25.084945","6501400","蘆洲區"
"247018","500-BY","2017/06/24 20:19:47","新北市蘆洲區民族路255巷8號","121.476366666667","25.0899816666667","6501400","蘆洲區"
"247008","339-TH","2017/06/24 20:19:43","新北市蘆洲區集賢路209號","121.483566666667","25.087045","6501400","蘆洲區"
"247024","337-TH","2017/06/24 20:19:47","新北市蘆洲區光復路37號","121.462685","25.0846733333333","6501400","蘆洲區"
"247002","336-TH","2017/06/24 20:19:48","新北市蘆洲區長安街345號","121.457235","25.08704","6501400","蘆洲區"
"247006","335-TH","2017/06/24 20:19:39","新北市蘆洲區九芎街167巷10號","121.465118333333","25.0784066666667","6501400","蘆洲區"
"247014","057-VK","2017/06/24 20:19:52","新北市蘆洲區成功路60號","121.472433333333","25.0804533333333","6501400","蘆洲區"
"247004","056-VK","2017/06/24 20:19:55","新北市蘆洲區長榮路269巷32號","121.459335","25.0859716666667","6501400","蘆洲區"
"247012","007-UY","2017/06/24 20:19:49","新北市蘆洲區中興街5號","121.480176666667","25.0870783333333","6501400","蘆洲區"
"247022","002-UY","2017/06/24 20:19:38","新北市蘆洲區中正路192巷2弄2號","121.467586666667","25.0883216666667","6501400","蘆洲區"
"247016","001-UY","2017/06/24 20:19:35","新北市蘆洲區光華路160號","121.465543333333","25.0821916666667","6501400","蘆洲區"
"251001","011-UM","2017/06/24 20:19:51","新北市淡水區新市二路四段265號","121.445823333333","25.19248","6501000","淡水區"
"251014","180-VK","2017/06/24 20:19:40","新北市淡水區石頭厝1號","121.458725","25.2355266666667","6501000","淡水區"
"251008","181-VK","2017/06/24 20:19:37","新北市淡水區淡海路180巷13號","121.421045","25.1845966666667","6501000","淡水區"
"251010","413-VK","2017/06/24 20:19:41","新北市淡水區新民街一段127號","121.427808333333","25.188325","6501000","淡水區"
"251012","441-VK","2017/06/24 20:19:53","新北市淡水區淡金路三段340號","121.449166666667","25.2086816666667","6501000","淡水區"
"251016","442-VK","2017/06/24 20:19:50","新北市淡水區新埔子11-5號","121.448096666667","25.2285866666667","6501000","淡水區"
"251006","561-UM","2017/06/24 20:19:42","新北市淡水區北新路169巷61號","121.448435","25.18077","6501000","淡水區"
"251009","575-R6","2017/06/24 20:19:46","新北市淡水區新市一路一段99巷37號","121.429766666667","25.18823","6501000","淡水區"
"251002","672-BX","2017/06/24 20:19:39","新北市淡水區中正路224號","121.43929","25.1704616666667","6501000","淡水區"
"251003","673-BX","2017/06/24 20:19:51","新北市淡水區中山北路一段160號","121.444166666667","25.1783433333333","6501000","淡水區"
"207004","225-TW","2017/06/24 20:19:56","新北市萬里區北基里大仁路4號","121.682033333333","25.175265","6502800","萬里區"
"252002","178-VK","2017/06/24 20:19:52","新北市三芝區淡金路二段18-1號","121.502661666667","25.259545","6502100","三芝區"
"252001","702-TV","2017/06/24 20:19:47","新北市三芝區中山路一段14號","121.500718333333","25.2580516666667","6502100","三芝區"
"237007","153-BY","2017/06/24 20:19:49","新北市三峽區二鬮路134號","121.359913333333","24.9080133333333","6500900","三峽區"
"236073","105-UM","2017/06/24 20:19:55","新北市土城區中山路34號","121.424715","24.9637416666667","6501300","土城區"
"236043","107-UM","2017/06/24 20:19:50","新北市土城區裕民路97號","121.45081","24.9871166666667","6501300","土城區"
"236079","166-UM","2017/06/24 20:19:47","新北市土城區金安街8號","121.42125","24.9643566666667","6501300","土城區"
"236031","253-BX","2017/06/24 20:19:48","新北市土城區學成路128巷9號","121.449411666667","24.9899016666667","6501300","土城區"
"236027","269-VK","2017/06/24 20:19:49","新北市土城區中央路一段249巷10弄14號","121.445761666667","24.9853133333333","6501300","土城區"
"236015","270-VK","2017/06/24 20:19:35","新北市土城區廣明街90巷21號","121.455388333333","24.9945116666667","6501300","土城區"
"236038","271-VK","2017/06/24 20:19:40","新北市土城區明德路一段137-4號","121.465436666667","24.9814166666667","6501300","土城區"
"236002","339-SR","2017/06/24 13:17:06","新北市土城區永平街51號","121.427631666667","24.9591933333333","6501300","土城區"
"236023","401-BY","2017/06/24 20:19:36","新北市土城區和城路二段133-2號","121.47527","24.9876166666667","6501300","土城區"
"236059","912-UM","2017/06/24 20:19:48","新北市土城區中央路二段392-1號","121.439703333333","24.9708333333333","6501300","土城區"
"236049","913-UM","2017/06/24 20:18:32","新北市土城區明德路一段398-1號","121.453658333333","24.9793783333333","6501300","土城區"
"236055","AAC-216","2017/06/24 20:19:46","新北市土城區亞洲路2號","121.437121666667","24.975475","6501300","土城區"
"242021","AAC-296","2017/06/24 20:19:56","新北市新莊區新泰路276號","121.445838333333","25.040375","6500500","新莊區"
"242029","986-R7","2017/06/24 20:19:50","新北市新莊區中原路301號","121.447425","25.0543583333333","6500500","新莊區"
"242048","751-BX","2017/06/24 20:19:41","新北市新莊區龍安路232號","121.42052","25.019685","6500500","新莊區"
"242025","615-BX","2017/06/24 20:19:49","新北市新莊區五工二路70巷21號","121.46089","25.0664816666667","6500500","新莊區"
"242023","613-BX","2017/06/24 20:19:56","新北市新莊區化成路776號","121.465195","25.058975","6500500","新莊區"
"242027","612-BX","2017/06/24 20:19:52","新北市新莊區幸福路566號","121.454356666667","25.04933","6500500","新莊區"
"242036","566-BX","2017/06/24 20:19:47","新北市新莊區建安街62巷1弄12號","121.426458333333","25.024595","6500500","新莊區"
"242042","497-BY","2017/06/24 20:19:44","新北市新莊區壽山路61號","121.410591666667","25.032745","6500500","新莊區"
"242004","442-UM","2017/06/24 20:19:39","新北市新莊區頭前路16號","121.46806","25.0524216666667","6500500","新莊區"
"242046","441-UM","2017/06/24 20:19:42","新北市新莊區裕民街122號","121.41812","25.022645","6500500","新莊區"
"242051","440-UM","2017/06/24 20:19:35","新北市新莊區民安西路214號","121.42595","25.01481","6500500","新莊區"
"242031","415-TV","2017/06/24 20:19:49","新北市新莊區三和路20-6號","121.439258333333","25.03759","6500500","新莊區"
"242002","413-TV","2017/06/24 20:19:53","新北市新莊區化成路17號","121.465045","25.043415","6500500","新莊區"
"242039","400-BY","2017/06/24 20:19:52","新北市新莊區成功街43號","121.425211666667","25.02084","6500500","新莊區"
"242061","362-BY","2017/06/24 20:19:39","新北市新莊區瓊林路206-6號","121.435558333333","25.0221983333333","6500500","新莊區"
"242058","353-BY","2017/06/24 20:19:54","新北市新莊區龍安路266巷11號","121.421506666667","25.0187283333333","6500500","新莊區"
"242011","132-UY","2017/06/24 20:19:46","新北市新莊區中信街21號","121.451033333333","25.0506283333333","6500500","新莊區"
"242034","133-UY","2017/06/24 20:19:56","新北市新莊區新泰路207號","121.446981666667","25.0383716666667","6500500","新莊區"
"242044","172-VK","2017/06/24 20:19:38","新北市新莊區中正路新建巷28弄69號","121.413835","25.0209416666667","6500500","新莊區"
"242007","173-VK","2017/06/24 20:18:42","新北市新莊區福壽街124巷28號","121.458875","25.051165","6500500","新莊區"
"242013","175-VK","2017/06/24 20:19:52","新北市新莊區中和街186巷25號","121.448511666667","25.0498383333333","6500500","新莊區"
"242056","176-VK","2017/06/24 20:19:50","新北市新莊區豐年街28巷14號","121.445668333333","25.0323733333333","6500500","新莊區"
"242019","347-TH","2017/06/24 20:19:45","新北市新莊區博愛路10巷1號","121.456101666667","25.044025","6500500","新莊區"
"242017","348-TH","2017/06/24 20:19:47","新北市新莊區中港一街46號","121.450551666667","25.0455416666667","6500500","新莊區"
"242053","349-TH","2017/06/24 20:19:40","新北市新莊區西盛街382巷6號","121.427621666667","25.01303","6500500","新莊區"
"242015","350-TH","2017/06/24 20:19:49","新北市新莊區永樂街194號","121.447595","25.0445633333333","6500500","新莊區"
"242009","351-TH","2017/06/24 20:19:46","新北市新莊區昌盛街81巷2弄1號","121.455495","25.0503066666667","6500500","新莊區"
"238023","601-UM","2017/06/24 20:19:53","新北市樹林區中山路三段210-2號","121.380841666667","24.9661566666667","6500700","樹林區"
"238021","311-TH","2017/06/24 20:19:18","新北市樹林區田尾街266-2號","121.396473333333","24.9492016666667","6500700","樹林區"
"221008","489-VK","2017/06/24 20:19:49","新北市汐止區康寧街397號","121.629556666667","25.0678933333333","6501100","汐止區"
"221036","130-UY","2017/06/24 20:19:46","新北市汐止區福安街61巷18號","121.664985","25.0635833333333","6501100","汐止區"
"221015","131-UY","2017/06/24 20:19:47","新北市汐止區建成路160巷26號","121.66199","25.0743116666667","6501100","汐止區"
"221010","269-BY","2017/06/24 20:19:49","新北市汐止區八連路二段280號","121.630756666667","25.0979783333333","6501100","汐止區"
"221010","276-VK","2017/06/24 13:21:50","新北市汐止區汐萬路一段256巷3號","121.653466666667","25.0746083333333","6501100","汐止區"
"221031","277-VK","2017/06/24 00:09:42","新北市汐止區汐萬路一段256巷3號","121.652516666667","25.07455","6501100","汐止區"
"221012","278-VK","2017/06/24 20:19:35","新北市汐止區保新街267號","121.690828333333","25.0681333333333","6501100","汐止區"
"221023","279-VK","2017/06/24 20:19:35","新北市汐止區湖東街5巷4號","121.633671666667","25.07269","6501100","汐止區"
"221032","280-BY","2017/06/24 20:19:43","新北市汐止區民權街二段46號","121.61937","25.049175","6501100","汐止區"
"221027","281-BY","2017/06/24 20:19:38","新北市汐止區禮門街7號","121.656633333333","25.06745","6501100","汐止區"
"221029","298-VK","2017/06/24 20:19:40","新北市汐止區樟樹一路99巷7弄5號","121.641148333333","25.0634733333333","6501100","汐止區"
"221021","299-VK","2017/06/24 19:38:00","新北市汐止區大同路二段187巷10弄1號","121.652738333333","25.0659916666667","6501100","汐止區"
"221035","622-UM","2017/06/24 20:19:38","新北市汐止區長江街101-5號","121.658676666667","25.0731766666667","6501100","汐止區"
"221025","623-UM","2017/06/24 20:19:39","新北市汐止區水源路二段72巷6弄5號","121.65562","25.0556233333333","6501100","汐止區"
"221038","646-BX","2017/06/24 20:19:38","新北市汐止區大同路三段66-3號","121.66816","25.0772166666667","6501100","汐止區"
"221033","647-BX","2017/06/24 20:19:56","新北市汐止區東勢街201巷98號","121.633678333333","25.0431633333333","6501100","汐止區"
"221018","753-BX","2017/06/24 20:19:50","新北市汐止區茄安路18號","121.673318333333","25.0679966666667","6501100","汐止區"
"220101","245-BX","2017/06/24 20:19:16","新北市板橋區莊敬路36-2號","121.473241666667","25.0272333333333","6500100","板橋區"
"220069","258-TC","2017/06/24 20:19:54","新北市板橋區大明街25巷4弄2號","121.45789","25.0021066666667","6500100","板橋區"
"220083","286-VK","2017/06/24 20:19:38","新北市板橋區僑中二街90巷6號","121.446076666667","25.009225","6500100","板橋區"
"220081","287-VK","2017/06/24 20:19:54","新北市板橋區僑中一街124巷18弄45號","121.447923333333","25.01356","6500100","板橋區"
"220061","293-UM","2017/06/24 20:19:47","新北市板橋區中山路一段10號","121.460005","25.0078816666667","6500100","板橋區"
"220097","299-UM","2017/06/24 20:19:52","新北市板橋區光正街45巷6弄7號","121.461413333333","25.0170016666667","6500100","板橋區"
"220089","487-VK","2017/06/24 20:19:50","新北市板橋區四維路171號","121.464615","25.026155","6500100","板橋區"
"220088","491-VK","2017/06/24 20:19:27","新北市板橋區懷德街127巷23弄7號","121.479256666667","25.0317133333333","6500100","板橋區"
"220103","561-BX","2017/06/24 20:19:37","新北市板橋區陽明街261號","121.462488333333","25.0255883333333","6500100","板橋區"
"220057","686-BX","2017/06/24 20:19:42","新北市板橋區大觀路二段265巷7-7號","121.444495","24.9943683333333","6500100","板橋區"
"220055","827-TW","2017/06/24 20:19:48","新北市板橋區忠孝路48巷11弄17-2號","121.46212","24.99994","6500100","板橋區"
"220102","830-TW","2017/06/24 20:19:54","新北市板橋區民生路二段119號","121.470525","25.0183133333333","6500100","板橋區"
"220074","895-R6","2017/06/24 20:19:53","新北市板橋區府中路67號","121.458018333333","25.0094416666667","6500100","板橋區"
"220070","AAC-253","2017/06/24 20:19:39","新北市板橋區德興街16號","121.453398333333","24.9943516666667","6500100","板橋區"
