"lineid","car","time","location","longitude","latitude","cityid","cityname"
"234007","207-UY","2017/06/24 20:29:46","新北市永和區環河西路二段219號","121.501191666667","25.010395","6500400","永和區"
"234081","298-R6","2017/06/24 20:29:38","新北市永和區國中路130號","121.523511666667","25.0068466666667","6500400","永和區"
"234038","336-UY","2017/06/24 20:29:40","新北市永和區民樂街39巷23號","121.528898333333","25.0006","6500400","永和區"
"234064","337-UY","2017/06/24 20:29:44","新北市永和區中正路419號","121.517131666667","25.0050083333333","6500400","永和區"
"234086","338-UY","2017/06/24 20:29:37","新北市永和區光復街13號","121.51653","25.01731","6500400","永和區"
"234070","552-UM","2017/06/24 20:29:39","新北市永和區永亨路6-1號","121.519466666667","25.0056283333333","6500400","永和區"
"234054","553-UM","2017/06/24 20:29:53","新北市永和區環河東路一段34號","121.518363333333","25.0172433333333","6500400","永和區"
"234030","746-BX","2017/06/24 20:29:49","新北市中和區景平路59-10號","121.521328333333","24.9907683333333","6500400","永和區"
"234061","AAD-866","2017/06/24 20:29:52","新北市永和區得和路20號","121.51535","25.0004366666667","6500400","永和區"
"234042","862-TW","2017/06/24 20:29:46","新北市永和區安樂路248-2號","121.51464","25.0034183333333","6500400","永和區"
"234050","863-TW","2017/06/24 20:29:41","新北市永和區新生路40巷1弄23號","121.507605","25.0153166666667","6500400","永和區"
"234011","9373-KE","2017/06/24 20:29:39","新北市永和區仁愛路352巷122弄4號","121.500486666667","25.0086","6500400","永和區"
"249005","172-UM","2017/06/24 20:29:40","新北市八里區下罟子15-9號","121.38007","25.13945","6502300","八里區"
"249001","173-UM","2017/06/24 20:29:57","新北市八里區下罟子5-11號","121.386808333333","25.1422866666667","6502300","八里區"
"249004","303-UY","2017/06/24 20:29:42","新北市八里區中山路一段129巷17號","121.413963333333","25.1588333333333","6502300","八里區"
"249002","305-UY","2017/06/24 20:29:51","新北市八里區龍米路二段125巷1號","121.44664","25.1449983333333","6502300","八里區"
"249003","593-UM","2017/06/24 20:29:40","新北市八里區華峰一街32號","121.398821666667","25.1465266666667","6502300","八里區"
"234023","9380-KE","2017/06/24 20:29:49","新北市永和區竹林路39巷19弄2號","121.518728333333","25.0148783333333","6500400","永和區"
"234074","AAC-211","2017/06/24 20:29:50","新北市永和區豫溪街191巷7弄24號","121.523168333333","25.01111","6500400","永和區"
"234067","AAC-212","2017/06/24 20:29:39","新北市永和區保平路266號","121.50879","25.0051283333333","6500400","永和區"
"234003","AAC-295","2017/06/24 20:27:37","新北市永和區大新街43號","121.515526666667","25.0084833333333","6500400","永和區"
"243013","AAD-798","2017/06/24 20:29:50","新北市泰山區民國街24號","121.425721666667","25.043065","6501600","泰山區"
"243009","297-R6","2017/06/24 20:29:51","新北市泰山區忠孝街41巷1號","121.428475","25.0654183333333","6501600","泰山區"
"243015","380-SR","2017/06/24 20:29:49","新北市泰山區仁德路86號","121.433163333333","25.056405","6501600","泰山區"
"243014","421-VK","2017/06/24 20:29:46","新北市泰山區泰林路二段598號","121.421771666667","25.0635633333333","6501600","泰山區"
"243010","548-UM","2017/06/24 20:29:44","新北市泰山區明志路二段273巷5弄2號","121.42808","25.0472566666667","6501600","泰山區"
"243011","549-UM","2017/06/24 20:29:46","新北市泰山區明志路三段50號","121.42445","25.0422966666667","6501600","泰山區"
"243012","646-TV","2017/06/24 20:29:52","新北市泰山區忠孝街17巷2號","121.42757","25.0653933333333","6501600","泰山區"
"243016","680-BX","2017/06/24 20:29:38","新北市泰山區文程路111號","121.430673333333","25.0480766666667","6501600","泰山區"
"222003","436-BY","2017/06/24 20:29:52","新北市深坑區深坑街49號","121.6153","25.0017783333333","6501800","深坑區"
"222002","659-BX","2017/06/24 20:28:56","新北市深坑區萬福路16巷49號","121.610356666667","25.008675","6501800","深坑區"
"222001","696-SL","2017/06/24 20:29:51","新北市深坑區北深路三段329號","121.597183333333","25.0050033333333","6501800","深坑區"
"231041","002-UM","2017/06/24 20:29:46","新北市新店區中正路501-4號","121.533673333333","24.9838033333333","6500600","新店區"
"231056","0291-UT","2017/06/24 20:29:45","新北市新店區中正路302巷5弄2號","121.538275","24.9754583333333","6500600","新店區"
"231059","046-UY","2017/06/24 20:29:47","新北市新店區安豐路46號","121.500081666667","24.9549","6500600","新店區"
"231061","047-UY","2017/06/24 20:29:40","新北市新店區新和街36號","121.519286666667","24.9848966666667","6500600","新店區"
"231060","106-UY","2017/06/24 20:29:51","新北市新店區錦秀路74巷1號","121.47881","24.94165","6500600","新店區"
"231051","107-UY","2017/06/24 20:29:42","新北市新店區中央七街119號","121.525333333333","24.9780183333333","6500600","新店區"
"231048","108-UY","2017/06/24 20:29:50","新北市新店區寶慶街58巷10號","121.542056666667","24.9872266666667","6500600","新店區"
"231052","187-VK","2017/06/24 20:29:50","新北市新店區松林路36號","121.546205","24.9102366666667","6500600","新店區"
"231057","256-BX","2017/06/24 20:29:49","新北市新店區花園五路二段3號","121.55358","24.9341483333333","6500600","新店區"
"231068","260-TV","2017/06/24 20:29:51","新北市新店區中興路三段240號","121.543218333333","24.9836816666667","6500600","新店區"
"231063","268-BY","2017/06/24 20:29:44","新北市新店區安康路二段311號","121.499936666667","24.9568766666667","6500600","新店區"
"231050","AAD-862","2017/06/24 20:29:36","新北市新店區博愛街27巷1號","121.541495","24.973965","6500600","新店區"
"231058","3712-VJ","2017/06/24 20:29:55","新北市新店區自由街2-1號","121.535668333333","24.9755466666667","6500600","新店區"
"231067","4772-VM","2017/06/24 20:29:47","新北市新店區溪洲路101號","121.532645","24.9616216666667","6500600","新店區"
"231065","512-UM","2017/06/24 20:29:42","新北市新店區安祥路102巷42弄43號","121.48549","24.9633466666667","6500600","新店區"
"231054","513-UM","2017/06/24 20:29:49","新北市新店區檳榔路109號","121.544435","24.96168","6500600","新店區"
"231064","515-UM","2017/06/24 20:29:48","新北市新店區永安街74巷24號","121.519176666667","24.985995","6500600","新店區"
"231042","616-UM","2017/06/24 20:29:47","新北市新店區寶橋路178號","121.549306666667","24.9774666666667","6500600","新店區"
"231045","617-UM","2017/06/24 20:29:54","新北市新店區新坡一街36號","121.54929","24.9624","6500600","新店區"
"231040","619-UM","2017/06/24 20:29:52","新北市新店區中正路352號","121.535826666667","24.9755133333333","6500600","新店區"
"231049","719-UM","2017/06/24 20:29:56","新北市新店區永業路81巷16號","121.531055","24.94819","6500600","新店區"
"231062","720-UM","2017/06/24 20:29:58","新北市新店區安泰路60巷55-7號","121.484041666667","24.9453533333333","6500600","新店區"
"231044","897-TW","2017/06/24 20:29:39","新北市新店區建國路166號","121.538436666667","24.9795633333333","6500600","新店區"
"231043","899-TW","2017/06/24 20:29:48","新北市新店區建國路106號","121.539778333333","24.9779633333333","6500600","新店區"
"231066","AKT-0513","2017/06/24 20:29:37","新北市新店區安興路112號","121.514655","24.9776783333333","6500600","新店區"
"241011","013-R5","2017/06/24 20:29:55","新北市三重區龍門路118號","121.49785","25.072955","6500200","三重區"
"241028","022-UY","2017/06/24 20:29:46","新北市三重區光興街87巷7號","121.497453333333","25.060335","6500200","三重區"
"241008","059-VK","2017/06/24 20:29:50","新北市三重區車路頭街135號","121.483998333333","25.0759266666667","6500200","三重區"
"241009","060-VK","2017/06/24 20:29:40","新北市三重區永福街62-3號","121.48088","25.0778016666667","6500200","三重區"
"241031","061-VK","2017/06/24 20:29:48","新北市三重區三寧街25號","121.489671666667","25.0598583333333","6500200","三重區"
"241017","063-VK","2017/06/24 20:29:42","新北市三重區自強路一段199號","121.491671666667","25.0683283333333","6500200","三重區"
"241024","065-VK","2017/06/24 20:29:38","新北市三重區三民街270號","121.478891666667","25.0680533333333","6500200","三重區"
"241026","066-VK","2017/06/24 20:29:43","新北市三重區福德南路56號","121.50336","25.0619616666667","6500200","三重區"
"241003","091-VK","2017/06/24 20:29:40","新北市三重區富華街129號","121.492685","25.0845233333333","6500200","三重區"
"241015","156-TC","2017/06/24 20:29:45","新北市三重區文化北路22-2號","121.499205","25.0643533333333","6500200","三重區"
"241005","262-UM","2017/06/24 20:29:55","新北市三重區碧華街313號","121.49087","25.0842116666667","6500200","三重區"
"241029","265-UM","2017/06/24 20:29:42","新北市三重區集美街227號","121.492201666667","25.0550766666667","6500200","三重區"
"241016","266-UM","2017/06/24 20:29:51","新北市三重區正義北路188號","121.496491666667","25.0668716666667","6500200","三重區"
"241022","267-UM","2017/06/24 20:29:36","新北市三重區重陽路二段19巷6號","121.48754","25.0624916666667","6500200","三重區"
"241018","268-UM","2017/06/24 20:29:53","新北市三重區正義北路220號","121.496098333333","25.0675466666667","6500200","三重區"
"241032","269-UM","2017/06/24 20:29:53","新北市三重區重陽路一段120巷35號","121.485076666667","25.0601866666667","6500200","三重區"
"241013","270-UM","2017/06/24 20:29:43","新北市三重區三和路三段167巷45號","121.493531666667","25.0745333333333","6500200","三重區"
"241025","271-UM","2017/06/24 20:29:48","新北市三重區頂崁街210巷23弄1號","121.475855","25.0682133333333","6500200","三重區"
"241007","398-BY","2017/06/24 20:29:51","新北市三重區自強路四段32-2號","121.489025","25.0770566666667","6500200","三重區"
"241020","413-TH","2017/06/24 20:29:47","新北市三重區三和路三段142號","121.493356666667","25.072605","6500200","三重區"
"241035","462-BY","2017/06/24 20:29:37","新北市三重區正義北路96號","121.497026666667","25.0648583333333","6500200","三重區"
"241004","475-VK","2017/06/24 20:29:36","新北市三重區溪尾街203號","121.488553333333","25.080725","6500200","三重區"
"241019","478-VK","2017/06/24 20:29:43","新北市三重區重陽路四段77號","121.492506666667","25.0709966666667","6500200","三重區"
"241030","480-VK","2017/06/24 20:29:38","新北市三重區成功路62號","121.488595","25.0508416666667","6500200","三重區"
"241014","543-UM","2017/06/24 20:29:55","新北市三重區長興街88號","121.501583333333","25.06912","6500200","三重區"
"241023","545-UM","2017/06/24 20:29:55","新北市三重區自由街17巷1號","121.479841666667","25.0666066666667","6500200","三重區"
"241001","547-UM","2017/06/24 20:29:44","新北市三重區福隆路2號","121.489465","25.0774283333333","6500200","三重區"
"241006","AAD-863","2017/06/24 20:29:38","新北市三重區車路頭街135-1號","121.48429","25.0760816666667","6500200","三重區"
"241012","941-UM","2017/06/24 20:29:54","新北市三重區龍濱路269號","121.501395","25.0730766666667","6500200","三重區"
"241033","AAC-255","2017/06/24 20:29:38","新北市三重區五谷王北街80巷52號","121.474941666667","25.0526566666667","6500200","三重區"
"235066","003-UY","2017/06/24 20:29:35","新北市中和區保平路259號","121.507991666667","25.0040083333333","6500300","中和區"
"235026","031-BX","2017/06/24 20:11:51","新北市中和區和城路一段271巷1號","121.485401666667","24.991635","6500300","中和區"
"235039","097-UM","2017/06/24 20:29:51","新北市永和區民生路46巷56號","121.520555","24.9964016666667","6500300","中和區"
"235058","151-BY","2017/06/24 20:29:38","新北市五股區成泰路四段22巷6-4號","121.454178333333","25.1049383333333","6500300","中和區"
"235072","301-VK","2017/06/24 20:29:26","新北市八里區荖阡坑路32號","121.402761666667","25.1280583333333","6500300","中和區"
"235050","4979-A6","2017/06/24 20:29:56","新北市中和區景平路542號","121.502551666667","24.9947083333333","6500300","中和區"
"235069","4980-A6","2017/06/24 20:29:36","新北市中和區中正路442巷6號","121.491161666667","24.9946583333333","6500300","中和區"
"235042","551-UM","2017/06/24 20:29:57","新北市中和區中正路561號","121.486996666667","24.9943883333333","6500300","中和區"
"235037","AAC-213","2017/06/24 20:29:56","新北市中和區自立路125號","121.521938333333","24.9942083333333","6500300","中和區"
"235059","AAC-215","2017/06/24 20:29:35","新北市中和區員山路24-1號","121.483933333333","24.9851866666667","6500300","中和區"
"247020","893-R6","2017/06/24 20:29:45","新北市蘆洲區民族路426巷2號","121.473875","25.0919666666667","6501400","蘆洲區"
"247010","546-UM","2017/06/24 20:29:57","新北市蘆洲區民族路83號","121.479403333333","25.0860733333333","6501400","蘆洲區"
"247018","500-BY","2017/06/24 20:29:47","新北市蘆洲區民族路336巷14號","121.477338333333","25.0908533333333","6501400","蘆洲區"
"247008","339-TH","2017/06/24 20:29:43","新北市蘆洲區永安北路二段46-1號","121.482706666667","25.083075","6501400","蘆洲區"
"247024","337-TH","2017/06/24 20:29:47","新北市蘆洲區中正路185巷88號","121.465378333333","25.0841716666667","6501400","蘆洲區"
"247002","336-TH","2017/06/24 20:29:43","新北市蘆洲區長安街361巷10號","121.456668333333","25.08755","6501400","蘆洲區"
"247006","335-TH","2017/06/24 20:29:41","新北市蘆洲區光華路173號","121.464903333333","25.081685","6501400","蘆洲區"
"247014","057-VK","2017/06/24 20:29:52","新北市蘆洲區中山一路158號","121.474931666667","25.0815233333333","6501400","蘆洲區"
"247004","056-VK","2017/06/24 20:29:55","新北市蘆洲區長安街222號","121.458268333333","25.0851016666667","6501400","蘆洲區"
"247012","007-UY","2017/06/24 20:29:49","新北市蘆洲區中興街163號","121.482043333333","25.089615","6501400","蘆洲區"
"247022","002-UY","2017/06/24 20:29:38","新北市蘆洲區中正路325號","121.466116666667","25.0888766666667","6501400","蘆洲區"
"247016","001-UY","2017/06/24 20:29:15","新北市蘆洲區成功路131巷8-1號","121.471558333333","25.0818416666667","6501400","蘆洲區"
"251001","011-UM","2017/06/24 20:29:51","新北市淡水區中山北路二段3號","121.444423333333","25.1832266666667","6501000","淡水區"
"251014","180-VK","2017/06/24 20:29:40","新北市淡水區石頭厝9-1號","121.458685","25.2369566666667","6501000","淡水區"
"251008","181-VK","2017/06/24 20:29:37","新北市淡水區淡海路189巷10號","121.419796666667","25.1844533333333","6501000","淡水區"
"251010","413-VK","2017/06/24 20:29:41","新北市淡水區沙崙路181巷1號","121.424015","25.184385","6501000","淡水區"
"251012","441-VK","2017/06/24 20:29:53","新北市淡水區頂田寮路37號","121.455468333333","25.216295","6501000","淡水區"
"251016","442-VK","2017/06/24 20:29:50","新北市淡水區後洲子8-2號","121.449505","25.22402","6501000","淡水區"
"251006","561-UM","2017/06/24 20:29:42","新北市淡水區商工路386號","121.470333333333","25.1849916666667","6501000","淡水區"
"251009","575-R6","2017/06/24 20:29:46","新北市淡水區下圭柔山90-8號","121.432021666667","25.2116266666667","6501000","淡水區"
"251011","650-BX","2017/06/24 20:29:44","新北市淡水區義山路一段222號","121.438148333333","25.19119","6501000","淡水區"
"251002","672-BX","2017/06/24 20:29:39","新北市淡水區中正路96號","121.442195","25.1696383333333","6501000","淡水區"
"251003","673-BX","2017/06/24 20:29:51","新北市淡水區新民街62號","121.438843333333","25.1760183333333","6501000","淡水區"
"207004","225-TW","2017/06/24 20:29:46","新北市萬里區北基里忠四街19號","121.684533333333","25.1759366666667","6502800","萬里區"
"252002","178-VK","2017/06/24 20:29:52","新北市三芝區中正路一段50號","121.503471666667","25.2581016666667","6502100","三芝區"
"252001","702-TV","2017/06/24 20:29:47","新北市三芝區中山路一段14號","121.500735","25.25803","6502100","三芝區"
"237007","153-BY","2017/06/24 20:29:48","新北市三峽區麻園46號","121.363866666667","24.9212983333333","6500900","三峽區"
"236015","270-VK","2017/06/24 20:29:55","新北市土城區廣明街63巷2弄2號","121.454843333333","24.99361","6501300","土城區"
"236002","339-SR","2017/06/24 13:17:06","新北市土城區永平街51號","121.427631666667","24.9591933333333","6501300","土城區"
"242021","AAC-296","2017/06/24 20:29:56","新北市新莊區公園路10巷2號","121.447813333333","25.0387766666667","6500500","新莊區"
"242029","986-R7","2017/06/24 20:29:50","新北市新莊區中華路二段201號","121.452321666667","25.0526466666667","6500500","新莊區"
"242048","751-BX","2017/06/24 20:29:41","新北市新莊區龍安路252-5號","121.421135","25.0192616666667","6500500","新莊區"
"242025","615-BX","2017/06/24 20:29:46","新北市新莊區五工三路62巷1號","121.459758333333","25.0646116666667","6500500","新莊區"
"242023","613-BX","2017/06/24 20:29:50","新北市新莊區化成路968號","121.465066666667","25.06354","6500500","新莊區"
"242027","612-BX","2017/06/24 20:29:52","新北市新莊區思源路309號","121.459793333333","25.04897","6500500","新莊區"
"242036","566-BX","2017/06/24 20:29:45","新北市新莊區後港一路76巷3弄1號","121.427253333333","25.0260183333333","6500500","新莊區"
"242042","497-BY","2017/06/24 20:29:44","新北市新莊區壽山路55-7號","121.412335","25.0315783333333","6500500","新莊區"
"242004","442-UM","2017/06/24 20:29:39","新北市新莊區化成路746巷37號","121.466896666667","25.05797","6500500","新莊區"
"242046","441-UM","2017/06/24 20:29:42","新北市新莊區裕民街90巷3號","121.418075","25.0236916666667","6500500","新莊區"
"242051","440-UM","2017/06/24 20:29:35","新北市新莊區民安西路189巷22號","121.426993333333","25.01533","6500500","新莊區"
"242031","415-TV","2017/06/24 20:29:44","新北市新莊區三泰路24-2號","121.439948333333","25.0342833333333","6500500","新莊區"
"242002","413-TV","2017/06/24 20:29:49","新北市新莊區中正路147-7號","121.457568333333","25.0372566666667","6500500","新莊區"
"242039","400-BY","2017/06/24 20:29:50","新北市新莊區民安路281-1號","121.428586666667","25.0221933333333","6500500","新莊區"
"242061","362-BY","2017/06/24 20:29:39","新北市新莊區民安東路37號","121.428913333333","25.021015","6500500","新莊區"
"242058","353-BY","2017/06/24 20:29:54","新北市新莊區四維路201-1號","121.421853333333","25.02055","6500500","新莊區"
"242011","132-UY","2017/06/24 20:29:46","新北市新莊區中義街38號","121.449938333333","25.0513","6500500","新莊區"
"242034","133-UY","2017/06/24 20:29:47","新北市新莊區中正路334巷16號","121.44576","25.035605","6500500","新莊區"
"242044","172-VK","2017/06/24 20:29:42","新北市新莊區中正路新建巷12號","121.413945","25.022415","6500500","新莊區"
"242007","173-VK","2017/06/24 20:29:53","新北市新莊區思源路331號","121.45982","25.0496716666667","6500500","新莊區"
"242013","175-VK","2017/06/24 20:29:52","新北市新莊區中平路270巷7弄35號","121.44627","25.0510366666667","6500500","新莊區"
"242056","176-VK","2017/06/24 20:29:38","新北市新莊區瓊泰路140號","121.443365","25.0320666666667","6500500","新莊區"
"242019","347-TH","2017/06/24 20:29:45","新北市新莊區民樂街76號","121.457921666667","25.0435783333333","6500500","新莊區"
"242017","348-TH","2017/06/24 20:29:54","新北市新莊區中港二街114號","121.448788333333","25.0457266666667","6500500","新莊區"
"242053","349-TH","2017/06/24 20:29:40","新北市新莊區民安西路229巷10號","121.426718333333","25.0141233333333","6500500","新莊區"
"242015","350-TH","2017/06/24 20:29:49","新北市新莊區中和街31巷22號","121.447188333333","25.04387","6500500","新莊區"
"242009","351-TH","2017/06/24 20:29:46","新北市新莊區福壽街99巷8弄4號","121.456905","25.0506766666667","6500500","新莊區"
"238023","601-UM","2017/06/24 20:29:53","新北市樹林區八德街1012號","121.391386666667","24.9684766666667","6500700","樹林區"
"221008","489-VK","2017/06/24 20:29:49","新北市汐止區康寧街706號","121.637686666667","25.0723933333333","6501100","汐止區"
"221036","130-UY","2017/06/24 20:29:26","新北市汐止區新台五路二段168號","121.66459","25.06677","6501100","汐止區"
"221015","131-UY","2017/06/24 20:29:47","新北市汐止區建成路142巷19弄12號","121.662033333333","25.0740316666667","6501100","汐止區"
"221010","269-BY","2017/06/24 20:29:49","新北市汐止區八連路二段610巷11-1號","121.626578333333","25.1094666666667","6501100","汐止區"
"221010","276-VK","2017/06/24 13:21:50","新北市汐止區汐萬路一段256巷3號","121.653466666667","25.0746083333333","6501100","汐止區"
"221031","277-VK","2017/06/24 00:09:42","新北市汐止區汐萬路一段256巷3號","121.652516666667","25.07455","6501100","汐止區"
"221012","278-VK","2017/06/24 20:29:55","新北市汐止區大同路三段279號","121.674153333333","25.0751","6501100","汐止區"
"221023","279-VK","2017/06/24 20:29:55","新北市汐止區湖東街47號","121.635621666667","25.0734166666667","6501100","汐止區"
"221032","280-BY","2017/06/24 20:29:43","新北市汐止區弘道街53巷28號","121.618793333333","25.04991","6501100","汐止區"
"221027","281-BY","2017/06/24 20:29:38","新北市汐止區中正路173號","121.659156666667","25.0690916666667","6501100","汐止區"
"221029","298-VK","2017/06/24 20:29:40","新北市汐止區樟樹一路129巷31號","121.640491666667","25.0650383333333","6501100","汐止區"
"221021","299-VK","2017/06/24 19:38:00","新北市汐止區大同路二段187巷10弄1號","121.652738333333","25.0659916666667","6501100","汐止區"
"221035","622-UM","2017/06/24 20:29:38","新北市汐止區長江街101-5號","121.658658333333","25.0731366666667","6501100","汐止區"
"221025","623-UM","2017/06/24 20:29:39","新北市汐止區水源路二段108號","121.656661666667","25.0554533333333","6501100","汐止區"
"221038","646-BX","2017/06/24 20:29:38","新北市汐止區忠孝東路478號","121.666336666667","25.0736616666667","6501100","汐止區"
"221033","647-BX","2017/06/24 20:29:36","新北市汐止區林森街73巷5號","121.623578333333","25.0409416666667","6501100","汐止區"
"221018","753-BX","2017/06/24 20:29:35","新北市汐止區茄苳路225巷8號","121.671291666667","25.0690216666667","6501100","汐止區"
"220083","286-VK","2017/06/24 20:29:38","新北市板橋區僑中二街102巷34號","121.444815","25.0085016666667","6500100","板橋區"
"220081","287-VK","2017/06/24 20:29:54","新北市板橋區僑中一街80巷1弄14號","121.446958333333","25.0120833333333","6500100","板橋區"
"220061","293-UM","2017/06/24 20:29:47","新北市板橋區四川路一段326號","121.457681666667","25.00036","6500100","板橋區"
"220089","487-VK","2017/06/24 20:29:48","新北市板橋區四維路268號","121.46322","25.0284983333333","6500100","板橋區"
"220103","561-BX","2017/06/24 20:29:37","新北市板橋區漢生東路33巷13號","121.465733333333","25.0173633333333","6500100","板橋區"
"220057","686-BX","2017/06/24 20:29:42","新北市樹林區環河路10-1號","121.424113333333","24.975925","6500100","板橋區"
"220102","830-TW","2017/06/24 20:29:54","新北市板橋區民生路二段179號","121.469608333333","25.0203183333333","6500100","板橋區"
"220070","AAC-253","2017/06/24 20:29:41","新北市板橋區四川路二段245巷28號","121.451298333333","24.9928166666667","6500100","板橋區"
