"lineid","car","time","location","longitude","latitude","cityid","cityname"
"244018","403-UM","2017/10/23 10:53:03","新北市林口區粉寮69號","121.40507","25.0908183333333","6501700","林口區"
"244024","742-UY","2017/10/23 09:30:57","新北市林口區粉寮69號","121.40513","25.0908533333333","6501700","林口區"
"244011","701-TV","2017/10/23 10:48:32","新北市林口區粉寮路二段160巷28號","121.405178333333","25.0907433333333","6501700","林口區"
"231007","189-VK","2017/10/23 11:06:03","新北市新店區新潭路一段160巷17號","121.529626666667","24.9320016666667","6500600","新店區"
"231008","192-VK","2017/10/23 11:04:51","新北市新店區成功路45-1號","121.53926","24.8994233333333","6500600","新店區"
"227005","282-VK","2017/10/23 10:59:33","新北市雙溪區泰平里泰平54號","121.829798333333","24.97667","6502500","雙溪區"
"252006","AAC-283","2017/10/23 10:46:36","新北市三芝區埔坪里埔頭坑41號","121.504453333333","25.26442","6502100","三芝區"
"242001","233-RS","2017/10/23 09:11:45","新北市新莊區環河路48-7號","121.436903333333","25.0097833333333","6500500","新莊區"
