"lineid","car","time","location","longitude","latitude","cityid","cityname"
"234044","148-BY","2017/10/23 13:39:47","新北市永和區秀朗路二段97號","121.523391666667","25.001875","6500400","永和區"
"234012","149-BY","2017/10/23 13:39:48","新北市永和區永平路234號","121.50879","25.01092","6500400","永和區"
"234005","207-UY","2017/10/23 13:39:44","新北市永和區永和路一段84號","121.512953333333","25.00671","6500400","永和區"
"234078","298-R6","2017/10/23 13:39:49","新北市永和區林森路20巷7號","121.525861666667","25.0057616666667","6500400","永和區"
"234036","336-UY","2017/10/23 13:39:40","新北市永和區民樂街29號","121.527758333333","25.00153","6500400","永和區"
"234062","337-UY","2017/10/23 13:39:52","新北市永和區中正路428巷30弄17號","121.518903333333","25.002275","6500400","永和區"
"234084","338-UY","2017/10/23 13:39:34","新北市永和區林森路41巷31號","121.526205","25.0042883333333","6500400","永和區"
"234068","552-UM","2017/10/23 13:39:33","新北市永和區永和路二段241號","121.515733333333","25.014545","6500400","永和區"
"234052","553-UM","2017/10/23 13:39:49","新北市永和區竹林路39巷26號","121.519055","25.0148133333333","6500400","永和區"
"234015","745-BX","2017/10/23 13:39:34","新北市永和區環河西路一段3號","121.515058333333","25.017825","6500400","永和區"
"234028","746-BX","2017/10/23 13:39:55","新北市永和區民權路17號","121.52003","24.9980283333333","6500400","永和區"
"234060","AAD-866","2017/10/23 13:39:40","新北市永和區中正路458號","121.51751","25.0029966666667","6500400","永和區"
"234040","862-TW","2017/10/23 13:39:49","新北市永和區永貞路300號","121.512163333333","25.0046416666667","6500400","永和區"
"234048","863-TW","2017/10/23 13:39:37","新北市永和區保安路132號","121.508978333333","25.0153516666667","6500400","永和區"
"234025","9371-KE","2017/10/23 13:39:46","新北市永和區和平街95巷15號","121.511203333333","25.0093383333333","6500400","永和區"
"234010","9373-KE","2017/10/23 13:39:46","新北市永和區保福路二段133巷2號","121.509496666667","25.0138966666667","6500400","永和區"
"248013","025-BX","2017/10/23 13:39:46","新北市五股區民義路一段65號","121.435918333333","25.0849983333333","6501500","五股區"
"248015","026-BX","2017/10/23 13:39:43","新北市五股區凌雲路一段149巷42號","121.44859","25.1009","6501500","五股區"
"248005","077-UY","2017/10/23 13:39:43","新北市五股區中興路一段52號","121.468008333333","25.0726283333333","6501500","五股區"
"248007","095-VK","2017/10/23 13:39:41","新北市五股區中興路一段153號","121.465076666667","25.0735616666667","6501500","五股區"
"248019","225-UY","2017/10/23 13:39:13","新北市五股區凌雲路三段田埔巷35-1號","121.440105","25.1224716666667","6501500","五股區"
"248011","247-BX","2017/10/23 13:39:53","新北市五股區成泰路三段2巷1-20號","121.441233333333","25.0866783333333","6501500","五股區"
"248009","272-BY","2017/10/23 13:39:44","新北市五股區水碓七路170號","121.431081666667","25.074015","6501500","五股區"
"248003","677-BX","2017/10/23 13:39:50","新北市五股區民義路一段277號","121.425931666667","25.0927266666667","6501500","五股區"
"248001","678-BX","2017/10/23 13:39:53","新北市五股區西雲路217號","121.448688333333","25.0969016666667","6501500","五股區"
"234022","9380-KE","2017/10/23 13:39:37","新北市永和區福和路1號","121.525536666667","25.0093866666667","6500400","永和區"
"234076","969-R7","2017/10/23 13:39:46","新北市永和區民權路3號","121.520228333333","24.9985866666667","6500400","永和區"
"234072","AAC-211","2017/10/23 13:39:49","新北市永和區福和路76巷4號","121.523041666667","25.0083583333333","6500400","永和區"
"234066","AAC-212","2017/10/23 13:39:39","新北市永和區中山路一段191巷7弄2號","121.509515","25.0082766666667","6500400","永和區"
"234001","AAC-295","2017/10/23 13:39:36","新北市永和區永和路一段105號","121.51382","25.0078116666667","6500400","永和區"
"244018","403-UM","2017/10/23 10:53:03","新北市林口區粉寮69號","121.40507","25.0908183333333","6501700","林口區"
"244024","742-UY","2017/10/23 09:30:57","新北市林口區粉寮69號","121.40513","25.0908533333333","6501700","林口區"
"244001","657-BX","2017/10/23 13:39:37","新北市林口區瑞平里66號","121.346055","25.1274916666667","6501700","林口區"
"244011","701-TV","2017/10/23 10:48:32","新北市林口區粉寮路二段160巷28號","121.405178333333","25.0907433333333","6501700","林口區"
"243005","AAD-798","2017/10/23 13:39:50","新北市泰山區明志路三段206巷3號","121.4233","25.0379816666667","6501600","泰山區"
"243004","646-TV","2017/10/23 13:39:51","新北市泰山區泰林路二段152號","121.434101666667","25.060065","6501600","泰山區"
"231002","002-UM","2017/10/23 13:39:51","新北市新店區溪園路509號","121.52404","24.9769716666667","6500600","新店區"
"231028","046-UY","2017/10/23 13:39:51","新北市新店區安和路二段138號","121.519531666667","24.97248","6500600","新店區"
"231030","047-UY","2017/10/23 13:39:33","新北市新店區安康路一段94-1號","121.527671666667","24.9621133333333","6500600","新店區"
"231029","106-UY","2017/10/23 13:39:50","新北市新店區安康路二段216號","121.50981","24.9594266666667","6500600","新店區"
"231011","108-UY","2017/10/23 13:39:46","新北市新店區德正街27巷29弄46-1號","121.545796666667","24.9725483333333","6500600","新店區"
"231019","187-VK","2017/10/23 13:39:53","新北市新店區永興路132-3號","121.544541666667","24.931555","6500600","新店區"
"231014","KEA-2219","2017/10/23 13:39:35","新北市新店區竹林路2巷27弄1號","121.550186666667","24.950835","6500600","新店區"
"231026","256-BX","2017/10/23 13:39:42","新北市新店區中正路265-1號","121.537986666667","24.9740816666667","6500600","新店區"
"231034","268-BY","2017/10/23 13:39:38","新北市新店區車子路109號","121.505246666667","24.9521666666667","6500600","新店區"
"231010","278-BY","2017/10/23 13:39:42","新北市新店區中正路307巷2號","121.536481666667","24.974625","6500600","新店區"
"231027","3712-VJ","2017/10/23 13:39:36","新北市新店區新店路59號","121.539138333333","24.9524266666667","6500600","新店區"
"231024","3713-VJ","2017/10/23 13:39:36","新北市新店區華興街38巷5號","121.537145","24.9692666666667","6500600","新店區"
"231025","4716-K9","2017/10/23 13:39:48","新北市新店區中央六街58號","121.527856666667","24.97579","6500600","新店區"
"231038","4715-K9","2017/10/23 13:39:50","新北市新店區安華路30巷1號","121.519596666667","24.9592966666667","6500600","新店區"
"231036","512-UM","2017/10/23 13:39:44","新北市新店區安祥路147巷74號","121.475883333333","24.9557533333333","6500600","新店區"
"231023","513-UM","2017/10/23 13:39:40","新北市新店區新店路126號","121.537115","24.9549983333333","6500600","新店區"
"231035","515-UM","2017/10/23 13:39:43","新北市新店區安忠路59號","121.512103333333","24.9586583333333","6500600","新店區"
"231001","619-UM","2017/10/23 13:39:35","新北市新店區中正路376號","121.534815","24.9768216666667","6500600","新店區"
"231003","641-BX","2017/10/23 13:39:53","新北市新店區中興路一段280號","121.545546666667","24.968555","6500600","新店區"
"231013","719-UM","2017/10/23 13:39:46","新北市新店區二十張路94號","121.536233333333","24.9797833333333","6500600","新店區"
"231018","719-UY","2017/10/23 13:39:50","新北市新店區三民路189號","121.535331666667","24.9756016666667","6500600","新店區"
"231031","720-UM","2017/10/23 13:39:50","新北市新店區莒光路44巷21弄11-6號","121.518568333333","24.9521633333333","6500600","新店區"
"231005","897-TW","2017/10/23 13:39:40","新北市新店區寶中路72號","121.547918333333","24.98065","6500600","新店區"
"231006","898-TW","2017/10/23 13:39:45","新北市新店區北宜路一段49號","121.53831","24.9568766666667","6500600","新店區"
"231004","899-TW","2017/10/23 13:39:42","新北市新店區北新路二段7號","121.542658333333","24.9713233333333","6500600","新店區"
"231037","AKT-0513","2017/10/23 13:39:42","新北市新店區安康路二段317號","121.499588333333","24.956845","6500600","新店區"
"235030","003-UY","2017/10/23 13:39:46","新北市中和區水源路7巷4號","121.50404","25.00355","6500300","中和區"
"235028","005-UY","2017/10/23 13:39:43","新北市中和區連城路89巷1-3號","121.49695","24.9997083333333","6500300","中和區"
"235027","006-UY","2017/10/23 13:39:42","新北市中和區連城路347巷4弄37號","121.486625","24.9955383333333","6500300","中和區"
"235020","096-UM","2017/10/23 13:39:41","新北市中和區員山路466巷17弄6號","121.480565","25.0072066666667","6500300","中和區"
"235003","097-UM","2017/10/23 13:39:45","新北市中和區大勇街25巷15弄21-3號","121.515043333333","24.9935566666667","6500300","中和區"
"235029","098-UM","2017/10/23 13:39:39","新北市中和區莊敬路31巷2號","121.500416666667","25.0047966666667","6500300","中和區"
"235004","150-BY","2017/10/23 13:39:40","新北市中和區保健路61巷5弄2號","121.50967","24.9975466666667","6500300","中和區"
"235022","151-BY","2017/10/23 13:39:55","新北市中和區圓通路369巷55弄10號","121.49107","24.9835016666667","6500300","中和區"
"235019","183-VK","2017/10/23 13:39:36","新北市中和區民德路25巷18號","121.46963","25.0029666666667","6500300","中和區"
"235002","185-VK","2017/10/23 13:39:47","新北市中和區立人街14巷36號","121.519306666667","24.9956","6500300","中和區"
"235013","186-VK","2017/10/23 13:39:50","新北市中和區景平路510號","121.503795","24.993915","6500300","中和區"
"235031","255-BX","2017/10/23 13:39:42","新北市中和區新生街226號","121.483905","24.998335","6500300","中和區"
"235008","293-VK","2017/10/23 13:39:48","新北市中和區復興路280巷17號","121.502298333333","24.9914466666667","6500300","中和區"
"235036","301-VK","2017/10/23 13:39:54","新北市中和區連城路191巷6號","121.495593333333","24.9977333333333","6500300","中和區"
"235007","352-BY","2017/10/23 13:39:54","新北市中和區景平路111巷2號","121.516521666667","24.9919383333333","6500300","中和區"
"235015","376-QA","2017/10/23 13:39:34","新北市中和區華新街143巷106弄19號","121.506521666667","24.9786483333333","6500300","中和區"
"235032","377-QA","2017/10/23 13:39:55","新北市中和區中正路209號","121.497078333333","24.9934183333333","6500300","中和區"
"235025","378-QA","2017/10/23 13:39:51","新北市中和區民享街114巷6號","121.474216666667","24.9993633333333","6500300","中和區"
"235035","269-TV","2017/10/23 13:39:36","新北市中和區立德街98巷65號","121.48747","25.0098533333333","6500300","中和區"
"235014","4979-A6","2017/10/23 13:39:45","新北市中和區景新街496巷32弄24號","121.512628333333","24.9854033333333","6500300","中和區"
"235033","4980-A6","2017/10/23 13:39:47","新北市中和區泰和街2號","121.499978333333","25.0011666666667","6500300","中和區"
"235006","551-UM","2017/10/23 13:39:52","新北市中和區成功路131號","121.526386666667","24.990735","6500300","中和區"
"235034","558-UM","2017/10/23 13:39:44","新北市中和區南華路61號","121.504421666667","24.997045","6500300","中和區"
"235009","565-BX","2017/10/23 13:39:48","新北市中和區復興路49巷2號","121.504626666667","24.98988","6500300","中和區"
"235018","640-BX","2017/10/23 13:39:46","新北市中和區民享街88巷2號","121.474525","25.0008283333333","6500300","中和區"
"235024","647-TV","2017/10/23 13:39:48","新北市中和區員山路437-3號","121.480658333333","25.0040416666667","6500300","中和區"
"235011","732-UM","2017/10/23 13:39:49","新北市中和區興南路二段2號","121.507948333333","24.9862233333333","6500300","中和區"
"235010","733-UM","2017/10/23 13:39:37","新北市中和區興南路一段85巷33號","121.51041","24.9881733333333","6500300","中和區"
"235026","800-TS","2017/10/23 13:39:47","新北市中和區中山路二段312巷12號","121.495383333333","25.0037","6500300","中和區"
"235021","801-TS","2017/10/23 13:39:45","新北市中和區民安街42巷36號","121.47896","25.00124","6500300","中和區"
"235016","805-TS","2017/10/23 13:39:43","新北市中和區興南路三段52-1號","121.494023333333","24.9756716666667","6500300","中和區"
"235012","896-TW","2017/10/23 13:39:35","新北市中和區中正路83號","121.500601666667","24.993445","6500300","中和區"
"235017","900-TW","2017/10/23 13:39:35","新北市中和區民享街469-1號","121.469823333333","24.99221","6500300","中和區"
"235001","AAC-213","2017/10/23 13:39:39","新北市中和區景德街91號","121.516135","24.9913833333333","6500300","中和區"
"235023","AAC-215","2017/10/23 13:39:50","新北市中和區中正路637巷60弄61號","121.48542","24.9926233333333","6500300","中和區"
"220016","013-TV","2017/10/23 13:39:42","新北市板橋區民生路二段161巷3號","121.470201666667","25.0197766666667","6500100","板橋區"
"220013","072-UY","2017/10/23 13:39:40","新北市板橋區華興街91巷4號","121.456408333333","25.0051016666667","6500100","板橋區"
"220034","073-UY","2017/10/23 13:39:50","新北市板橋區南雅西路二段184號","121.451596666667","25.0142016666667","6500100","板橋區"
"247009","339-TH","2017/10/23 13:39:28","新北市五股區成洲五路38號","121.453741666667","25.1012583333333","6501400","蘆洲區"
"247003","336-TH","2017/10/23 13:39:41","新北市五股區中興路四段17號","121.4404","25.0821866666667","6501400","蘆洲區"
"247019","335-TH","2017/10/23 13:39:44","新北市五股區成泰路三段544-1號","121.453965","25.10134","6501400","蘆洲區"
"247015","057-VK","2017/10/23 13:39:50","新北市五股區成泰路三段544-1號","121.45406","25.10149","6501400","蘆洲區"
"247005","056-VK","2017/10/23 13:39:36","新北市蘆洲區中山一路417號","121.468498333333","25.0764933333333","6501400","蘆洲區"
"247007","053-VK","2017/10/23 13:39:54","新北市蘆洲區復興路355巷11-5號","121.480675","25.0957533333333","6501400","蘆洲區"
"247017","001-UY","2017/10/23 13:39:39","新北市蘆洲區民族路422巷82弄17-2號","121.47417","25.09572","6501400","蘆洲區"
"208004","AAC-292","2017/10/23 13:39:38","新北市金山區重和里三重橋4號","121.594745","25.1965","6502700","金山區"
"208002","742-BX","2017/10/23 13:38:13","台北市南港區研究院路四段299號","121.604805","25.0264016666667","6502700","金山區"
"207002","291-VK","2017/10/23 13:39:48","新北市萬里區崁腳里崁腳路166號","121.645066666667","25.1558816666667","6502800","萬里區"
"207001","662-BX","2017/10/23 13:39:48","新北市萬里區磺潭里公館崙35號","121.631826666667","25.2108883333333","6502800","萬里區"
"252005","702-TV","2017/10/23 13:39:53","新北市三芝區圓山里木屐寮40號","121.531953333333","25.2232816666667","6502100","三芝區"
"236064","105-UM","2017/10/23 13:39:36","新北市土城區城林路6巷80號","121.438318333333","24.9797683333333","6501300","土城區"
"236074","166-UM","2017/10/23 13:39:41","新北市土城區中華路二段196號","121.437553333333","24.9704883333333","6501300","土城區"
"236012","270-VK","2017/10/23 13:39:43","新北市土城區城林路6巷80號","121.438353333333","24.9798083333333","6501300","土城區"
"236032","271-VK","2017/10/23 13:39:48","新北市土城區城林路6巷80號","121.438453333333","24.979895","6501300","土城區"
"236016","401-BY","2017/10/23 13:39:49","新北市土城區城林路6巷80號","121.438541666667","24.9798166666667","6501300","土城區"
"236005","498-BY","2017/10/23 13:39:43","新北市土城區大安路138巷40號","121.434815","24.9718766666667","6501300","土城區"
"236052","AAC-216","2017/10/23 13:39:40","新北市土城區城林路6巷80號","121.438306666667","24.979865","6501300","土城區"
"242001","233-RS","2017/10/23 09:11:45","新北市新莊區環河路48-7號","121.436903333333","25.0097833333333","6500500","新莊區"
"221032","280-BY","2017/10/23 13:39:35","新北市汐止區仁愛路10號","121.65932","25.06368","6501100","汐止區"
"221018","753-BX","2017/10/23 13:39:47","新北市汐止區福德二路77-2號","121.633183333333","25.065925","6501100","汐止區"
"220027","145-BY","2017/10/23 13:39:39","新北市板橋區南雅西路二段118號","121.452083333333","25.0123266666667","6500100","板橋區"
"220030","610-BX","2017/10/23 13:39:50","新北市板橋區大觀路二段435-10號","121.444705","24.99435","6500100","板橋區"
"220004","276-BY","2017/10/23 13:39:49","新北市板橋區四川路二段247號","121.450043333333","24.9931283333333","6500100","板橋區"
"220020","277-BY","2017/10/23 13:39:42","新北市板橋區大觀路二段265巷7-7號","121.443883333333","24.9944816666667","6500100","板橋區"
"220043","280-UM","2017/10/23 13:39:40","新北市板橋區民生路二段188號","121.47026","25.0202883333333","6500100","板橋區"
"220019","283-VK","2017/10/23 13:39:48","新北市板橋區華東街1-9號","121.44805","24.9949783333333","6500100","板橋區"
"220001","285-VK","2017/10/23 13:39:51","新北市板橋區民生路二段161巷1號","121.470246666667","25.0199633333333","6500100","板橋區"
"220031","286-VK","2017/10/23 13:39:48","新北市板橋區板城路421號","121.448075","24.99571","6500100","板橋區"
"220029","287-VK","2017/10/23 13:38:20","新北市板橋區華東街1-10號","121.448275","24.99502","6500100","板橋區"
"220009","293-UM","2017/10/23 13:39:52","新北市板橋區民生路二段120號","121.470376666667","25.01967","6500100","板橋區"
"220032","296-UM","2017/10/23 13:39:50","新北市板橋區板城路421號","121.448013333333","24.99565","6500100","板橋區"
"242001","281-VK","2017/10/23 13:39:42","新北市新莊區中港路312號","121.452448333333","25.04529","6500500","新莊區"
"220010","305-R5","2017/10/23 13:39:43","新北市板橋區民生路二段120號","121.470426666667","25.0196666666667","6500100","板橋區"
"220041","307-R5","2017/10/23 13:39:38","新北市板橋區民生路二段161巷9號","121.470088333333","25.01958","6500100","板橋區"
"220047","317-R6","2017/10/23 13:39:38","新北市板橋區民生路二段120號","121.470403333333","25.019575","6500100","板橋區"
"220012","486-VK","2017/10/23 13:39:52","新北市板橋區民生路二段36-1號","121.472083333333","25.01681","6500100","板橋區"
"220037","491-VK","2017/10/23 13:39:34","新北市板橋區民生路二段171號","121.469876666667","25.0201866666667","6500100","板橋區"
"220104","560-BX","2017/10/23 13:39:39","新北市板橋區中正路1巷14號","121.455195","25.011635","6500100","板橋區"
"220052","561-BX","2017/10/23 13:39:35","新北市板橋區民生路二段161巷9號","121.470188333333","25.0196316666667","6500100","板橋區"
"220005","686-BX","2017/10/23 13:39:44","新北市板橋區華東街1-9號","121.448198333333","24.9948666666667","6500100","板橋區"
"220025","687-BX","2017/10/23 13:39:45","新北市板橋區大觀路三段212巷70號","121.429806666667","24.9935116666667","6500100","板橋區"
"220002","741-BX","2017/10/23 13:39:34","新北市板橋區華東街1-9號","121.44805","24.9949783333333","6500100","板橋區"
"220003","827-TW","2017/10/23 13:39:47","新北市板橋區華東街1-9號","121.448166666667","24.9949733333333","6500100","板橋區"
"220014","829-TW","2017/10/23 13:39:47","新北市板橋區民生路二段161巷3號","121.470228333333","25.0198016666667","6500100","板橋區"
"220045","831-TW","2017/10/21 21:13:37","新北市板橋區民生路二段161巷9號","121.470235","25.01962","6500100","板橋區"
"220022","895-R6","2017/10/23 13:39:44","新北市板橋區南雅南路一段8號","121.45578","25.006245","6500100","板橋區"
"220021","985-R7","2017/10/23 13:39:37","新北市板橋區南雅南路二段144巷6號","121.45128","24.9960416666667","6500100","板橋區"
"220046","AAC-210","2017/10/23 13:39:50","新北市板橋區民生路二段161巷5號","121.46993","25.0196033333333","6500100","板橋區"
"220018","AAC-253","2017/10/23 13:39:54","新北市板橋區華東街1-9號","121.448131666667","24.9950116666667","6500100","板橋區"
