"lineid","car","time","location","longitude","latitude","cityid","cityname"
"234044","148-BY","2017/10/23 13:49:42","新北市永和區成功路一段80號","121.52623","25.003","6500400","永和區"
"234012","149-BY","2017/10/23 13:49:46","新北市永和區仁愛路200號","121.509456666667","25.0123783333333","6500400","永和區"
"234005","207-UY","2017/10/23 13:49:44","新北市中和區中和路380號","121.51063","25.002135","6500400","永和區"
"234078","298-R6","2017/10/23 13:49:49","新北市永和區林森路101巷4號","121.523268333333","25.003535","6500400","永和區"
"234036","336-UY","2017/10/23 13:49:40","新北市永和區環河東路四段20號","121.528576666667","24.9996616666667","6500400","永和區"
"234062","337-UY","2017/10/23 13:49:53","新北市永和區中正路368巷35號","121.518998333333","25.0007816666667","6500400","永和區"
"234084","338-UY","2017/10/23 13:49:34","新北市永和區永利路40號","121.518716666667","25.0055033333333","6500400","永和區"
"234068","552-UM","2017/10/23 13:49:33","新北市永和區竹林路95號","121.519888333333","25.0121883333333","6500400","永和區"
"234052","553-UM","2017/10/23 13:49:49","新北市永和區竹林路39巷28弄13號","121.51968","25.01444","6500400","永和區"
"234015","745-BX","2017/10/23 13:49:54","新北市永和區文化路42號","121.514833333333","25.0150983333333","6500400","永和區"
"234028","746-BX","2017/10/23 13:49:34","新北市永和區民生路47巷3號","121.523065","24.9978866666667","6500400","永和區"
"234060","AAD-866","2017/10/23 13:49:40","新北市中和區安樂路125號","121.514045","24.996075","6500400","永和區"
"234040","862-TW","2017/10/23 13:49:41","新北市永和區中和路389巷26號","121.508155","25.0013783333333","6500400","永和區"
"234048","863-TW","2017/10/23 13:49:37","新北市永和區保安路53號","121.509483333333","25.0157933333333","6500400","永和區"
"234010","9373-KE","2017/10/23 13:49:37","新北市永和區保順路11號","121.50474","25.0096633333333","6500400","永和區"
"248015","026-BX","2017/10/23 13:49:43","新北市五股區成泰路三段543巷52號","121.450005","25.1029116666667","6501500","五股區"
"248007","095-VK","2017/10/23 13:49:41","新北市五股區中興路一段132號","121.465186666667","25.0736283333333","6501500","五股區"
"248019","225-UY","2017/10/23 13:49:33","新北市五股區凌雲路三段92號","121.428241666667","25.1195833333333","6501500","五股區"
"248011","247-BX","2017/10/23 13:49:33","新北市五股區成泰路二段195巷1號","121.440386666667","25.0874183333333","6501500","五股區"
"248009","272-BY","2017/10/23 13:49:40","新北市五股區水碓九路20號","121.427873333333","25.071735","6501500","五股區"
"248003","677-BX","2017/10/23 13:49:40","新北市五股區民義路二段41號","121.413931666667","25.1014433333333","6501500","五股區"
"248001","678-BX","2017/10/23 13:47:53","新北市五股區成泰路三段460號","121.451455","25.10047","6501500","五股區"
"234076","969-R7","2017/10/23 13:49:46","新北市永和區民族街42號","121.518436666667","24.9987883333333","6500400","永和區"
"234072","AAC-211","2017/10/23 13:49:42","新北市永和區竹林路179巷35號","121.52217","25.01024","6500400","永和區"
"234066","AAC-212","2017/10/23 13:49:39","新北市永和區中山路一段255巷20號","121.508386666667","25.0071166666667","6500400","永和區"
"234001","AAC-295","2017/10/23 13:49:36","新北市永和區永和路一段107號","121.513746666667","25.0079583333333","6500400","永和區"
"244018","403-UM","2017/10/23 10:53:03","新北市林口區粉寮69號","121.40507","25.0908183333333","6501700","林口區"
"244024","742-UY","2017/10/23 09:30:57","新北市林口區粉寮69號","121.40513","25.0908533333333","6501700","林口區"
"244011","701-TV","2017/10/23 10:48:32","新北市林口區粉寮路二段160巷28號","121.405178333333","25.0907433333333","6501700","林口區"
"243005","AAD-798","2017/10/23 13:49:50","新北市泰山區明志路三段206巷3號","121.423305","25.0379833333333","6501600","泰山區"
"243007","380-SR","2017/10/23 13:49:47","新北市泰山區美寧街58號","121.43055","25.0646566666667","6501600","泰山區"
"243006","421-VK","2017/10/23 13:49:44","新北市泰山區黎明路25號","121.422108333333","25.0607083333333","6501600","泰山區"
"243003","KEA-2216","2017/10/23 13:49:37","新北市泰山區明志路二段1號","121.430188333333","25.0538783333333","6501600","泰山區"
"243004","646-TV","2017/10/23 13:49:32","新北市泰山區福興三街13號","121.434425","25.0577966666667","6501600","泰山區"
"243008","680-BX","2017/10/23 13:49:34","新北市泰山區明志路一段507-1號","121.430621666667","25.05454","6501600","泰山區"
"231002","002-UM","2017/10/23 13:49:51","新北市新店區溪園路393號","121.524208333333","24.9790716666667","6500600","新店區"
"231028","046-UY","2017/10/23 13:49:44","新北市新店區安和路三段23號","121.517931666667","24.981065","6500600","新店區"
"231030","047-UY","2017/10/23 13:49:33","新北市新店區安康路一段222號","121.523703333333","24.9635783333333","6500600","新店區"
"231029","106-UY","2017/10/23 13:49:50","新北市新店區安康路二段156號","121.512326666667","24.9609333333333","6500600","新店區"
"231011","108-UY","2017/10/23 13:49:49","新北市新店區中興路二段67巷4號","121.546423333333","24.9709816666667","6500600","新店區"
"231019","187-VK","2017/10/23 13:49:44","新北市新店區新烏路一段193號","121.54803","24.9313033333333","6500600","新店區"
"231014","KEA-2219","2017/10/23 13:49:49","新北市新店區竹林路71號","121.553751666667","24.9511666666667","6500600","新店區"
"231026","256-BX","2017/10/23 13:49:42","新北市新店區福園街8巷16號","121.532501666667","24.973645","6500600","新店區"
"231034","268-BY","2017/10/23 13:49:38","新北市新店區達觀路14巷3號","121.503218333333","24.941905","6500600","新店區"
"231010","278-BY","2017/10/23 13:49:42","新北市新店區三民路60巷2號","121.535453333333","24.9724633333333","6500600","新店區"
"231027","3712-VJ","2017/10/23 13:49:36","新北市新店區北宜路一段105巷44號","121.540603333333","24.95587","6500600","新店區"
"231024","3713-VJ","2017/10/23 13:49:36","新北市新店區新生街16號","121.540065","24.9662366666667","6500600","新店區"
"231025","4716-K9","2017/10/23 13:49:48","新北市新店區中央六街56號","121.52785","24.97569","6500600","新店區"
"231038","4715-K9","2017/10/23 13:49:42","新北市新店區安康路一段321巷5-1號","121.52211","24.9626133333333","6500600","新店區"
"231036","512-UM","2017/10/23 13:49:44","新北市新店區安祥路140號","121.47445","24.9559066666667","6500600","新店區"
"231023","513-UM","2017/10/23 13:49:40","新北市新店區國校路59號","121.538301666667","24.954295","6500600","新店區"
"231035","515-UM","2017/10/23 13:49:43","新北市新店區安忠路57巷5-6號","121.513181666667","24.9587266666667","6500600","新店區"
"231001","619-UM","2017/10/23 13:49:35","新北市新店區三民路64號","121.535071666667","24.9722483333333","6500600","新店區"
"231003","641-BX","2017/10/23 13:49:53","新北市新店區中興路一段115號","121.541398333333","24.9627683333333","6500600","新店區"
"231013","719-UM","2017/10/23 13:49:38","新北市新店區二十張路25巷18弄35號","121.53933","24.9810516666667","6500600","新店區"
"231018","719-UY","2017/10/23 13:49:43","新北市新店區中正路397號","121.53453","24.9774166666667","6500600","新店區"
"231031","720-UM","2017/10/23 13:49:30","新北市新店區華城路36巷35號","121.526481666667","24.9536616666667","6500600","新店區"
"231005","897-TW","2017/10/23 13:49:40","新北市新店區寶中路121號","121.549658333333","24.979505","6500600","新店區"
"231006","898-TW","2017/10/23 13:49:45","新北市新店區北宜路一段206號","121.543795","24.95313","6500600","新店區"
"231004","899-TW","2017/10/23 13:49:42","新北市新店區寶橋路97號","121.547113333333","24.9761633333333","6500600","新店區"
"231037","AKT-0513","2017/10/23 13:49:42","新北市新店區安康路三段355巷1號","121.484343333333","24.9510316666667","6500600","新店區"
"235030","003-UY","2017/10/23 13:49:46","新北市中和區水源路7巷4號","121.504096666667","25.003605","6500300","中和區"
"235028","005-UY","2017/10/23 13:49:43","新北市中和區連城路111號","121.496478333333","24.99933","6500300","中和區"
"235027","006-UY","2017/10/23 13:49:47","新北市中和區錦和路194號","121.489991666667","24.995005","6500300","中和區"
"235020","096-UM","2017/10/23 13:49:41","新北市中和區中正路1184號","121.481128333333","25.0103333333333","6500300","中和區"
"235003","097-UM","2017/10/23 13:49:45","新北市中和區大勇街25巷13弄1號","121.516146666667","24.9935266666667","6500300","中和區"
"235029","098-UM","2017/10/23 13:49:39","新北市中和區中山路二段2巷57號","121.50186","25.0073366666667","6500300","中和區"
"235004","150-BY","2017/10/23 13:49:46","新北市中和區保健路61巷3號","121.509593333333","24.997425","6500300","中和區"
"235022","151-BY","2017/10/23 13:49:34","新北市中和區連城路378號","121.480996666667","24.995115","6500300","中和區"
"235019","183-VK","2017/10/23 13:49:36","新北市板橋區民族路276巷40號","121.469518333333","25.0058966666667","6500300","中和區"
"235002","185-VK","2017/10/23 13:49:42","新北市中和區立人街24-5號","121.518821666667","24.9942166666667","6500300","中和區"
"235013","186-VK","2017/10/23 13:49:50","新北市中和區景安路177巷9號","121.505771666667","24.9942866666667","6500300","中和區"
"235031","255-BX","2017/10/23 13:49:42","新北市中和區新生街186巷1弄28號","121.48335","24.9985416666667","6500300","中和區"
"235008","293-VK","2017/10/23 13:49:48","新北市中和區復興路348號","121.499911666667","24.9903866666667","6500300","中和區"
"235036","301-VK","2017/10/23 13:49:34","新北市中和區中山路二段146號","121.501808333333","25.003145","6500300","中和區"
"235007","352-BY","2017/10/23 13:49:34","新北市中和區成功路139號","121.525803333333","24.9900566666667","6500300","中和區"
"235015","376-QA","2017/10/23 13:48:54","新北市中和區忠孝街106巷43號","121.513646666667","24.9843966666667","6500300","中和區"
"235032","377-QA","2017/10/23 13:49:35","新北市中和區中正路211巷38號","121.497698333333","24.9926983333333","6500300","中和區"
"235025","378-QA","2017/10/23 13:49:33","新北市中和區民治街128巷11號","121.474693333333","25.0027816666667","6500300","中和區"
"235035","269-TV","2017/10/23 13:49:36","新北市中和區立德街9號","121.490321666667","25.0061716666667","6500300","中和區"
"235014","4979-A6","2017/10/23 13:49:45","新北市中和區忠孝街58巷26號","121.512411666667","24.9826983333333","6500300","中和區"
"235033","4980-A6","2017/10/23 13:49:47","新北市中和區景平路459巷1弄2號","121.500241666667","24.996345","6500300","中和區"
"235006","551-UM","2017/10/23 13:49:52","新北市中和區秀朗路三段100巷4號","121.525605","24.9932833333333","6500300","中和區"
"235034","558-UM","2017/10/23 13:49:24","新北市中和區景平路566號","121.502016666667","24.9953233333333","6500300","中和區"
"235009","565-BX","2017/10/23 13:49:50","新北市中和區復興路1號","121.506291666667","24.9896316666667","6500300","中和區"
"235018","640-BX","2017/10/23 13:49:46","新北市中和區民享街54巷8號","121.47356","25.0024833333333","6500300","中和區"
"235024","647-TV","2017/10/23 13:49:40","新北市中和區中山路二段618號","121.481476666667","25.005495","6500300","中和區"
"235011","732-UM","2017/10/23 13:49:49","新北市中和區興南路二段34巷28弄2號","121.505011666667","24.986505","6500300","中和區"
"235010","733-UM","2017/10/23 13:49:37","新北市中和區仁愛街36巷29號","121.511061666667","24.9871916666667","6500300","中和區"
"235026","800-TS","2017/10/23 13:49:47","新北市中和區中山路二段340巷15號","121.49358","25.0030233333333","6500300","中和區"
"235021","801-TS","2017/10/23 13:49:45","新北市中和區民安街22巷8-1號","121.480205","25.00102","6500300","中和區"
"235016","805-TS","2017/10/23 13:49:52","新北市中和區興南路二段399巷130-1號","121.501171666667","24.975225","6500300","中和區"
"235012","896-TW","2017/10/23 13:49:35","新北市中和區南山路216號","121.506265","24.9903683333333","6500300","中和區"
"235017","900-TW","2017/10/23 13:49:35","新北市中和區華福街6號","121.465406666667","24.996825","6500300","中和區"
"235001","AAC-213","2017/10/23 13:49:34","新北市中和區秀朗路三段128巷1弄2號","121.524621666667","24.99243","6500300","中和區"
"235023","AAC-215","2017/10/23 13:49:50","新北市中和區圓通路383號","121.490381666667","24.9892466666667","6500300","中和區"
"220016","013-TV","2017/10/23 13:49:42","新北市板橋區富山街109巷28弄8號","121.475721666667","25.0215866666667","6500100","板橋區"
"220013","072-UY","2017/10/23 13:49:40","新北市板橋區漢生東路282號","121.471225","25.009045","6500100","板橋區"
"220034","073-UY","2017/10/23 13:49:50","新北市板橋區大智街71巷18號","121.453268333333","25.0150316666667","6500100","板橋區"
"220105","075-UY","2017/10/23 13:49:35","新北市板橋區民生路二段120號","121.47052","25.0195933333333","6500100","板橋區"
"220017","AAD-861","2017/10/23 13:49:42","新北市板橋區稚暉街1號","121.455978333333","25.0046633333333","6500100","板橋區"
"247009","339-TH","2017/10/23 13:49:48","新北市蘆洲區集賢路177-1號","121.486891666667","25.0893983333333","6501400","蘆洲區"
"247003","336-TH","2017/10/23 13:49:41","新北市蘆洲區長安街102巷5弄12號","121.461506666667","25.0820466666667","6501400","蘆洲區"
"247019","335-TH","2017/10/23 13:49:44","新北市蘆洲區民族路422巷48弄24號","121.47468","25.0932016666667","6501400","蘆洲區"
"247015","057-VK","2017/10/23 13:49:30","新北市蘆洲區中正路114號","121.469581666667","25.0847133333333","6501400","蘆洲區"
"247005","056-VK","2017/10/23 13:49:32","新北市蘆洲區和平路77號","121.469305","25.0790583333333","6501400","蘆洲區"
"247007","053-VK","2017/10/23 13:49:33","新北市蘆洲區重陽街95號","121.482458333333","25.0854366666667","6501400","蘆洲區"
"247017","001-UY","2017/10/23 13:49:39","新北市蘆洲區民族路323號","121.474213333333","25.091345","6501400","蘆洲區"
"208004","AAC-292","2017/10/23 13:49:38","新北市金山區重和里三重橋14號","121.59087","25.1894483333333","6502700","金山區"
"208002","742-BX","2017/10/23 13:49:33","新北市新店區安華路30巷12-1號","121.518103333333","24.9577133333333","6502700","金山區"
"207002","291-VK","2017/10/23 13:49:48","新北市萬里區崁腳里崁腳路173號","121.645613333333","25.1546083333333","6502800","萬里區"
"207001","662-BX","2017/10/23 13:49:48","新北市萬里區磺潭里磺溪12-1號","121.634146666667","25.2018083333333","6502800","萬里區"
"252005","702-TV","2017/10/23 13:49:53","新北市三芝區圓山里內柑宅25-2號","121.537746666667","25.2246166666667","6502100","三芝區"
"236064","105-UM","2017/10/23 13:49:36","新北市土城區城林路6巷80號","121.438288333333","24.9797866666667","6501300","土城區"
"236040","107-UM","2017/10/23 13:49:34","新北市土城區中央路二段252號","121.441881666667","24.9747166666667","6501300","土城區"
"236074","166-UM","2017/10/23 13:49:41","新北市土城區永寧路36-1號","121.428768333333","24.959245","6501300","土城區"
"236028","253-BX","2017/10/23 13:49:50","新北市土城區城林路6巷80號","121.438555","24.9798066666667","6501300","土城區"
"236024","269-VK","2017/10/23 13:49:49","新北市土城區承天路1號","121.435693333333","24.96635","6501300","土城區"
"236012","270-VK","2017/10/23 13:49:42","新北市土城區城林路6巷80號","121.438363333333","24.9798166666667","6501300","土城區"
"236032","271-VK","2017/10/23 13:49:48","新北市土城區城林路6巷80號","121.438525","24.9798666666667","6501300","土城區"
"236016","401-BY","2017/10/23 13:49:49","新北市土城區城林路6巷80號","121.438546666667","24.9798166666667","6501300","土城區"
"236005","498-BY","2017/10/23 13:49:43","新北市土城區中華路二段90號","121.438313333333","24.974915","6501300","土城區"
"236056","912-UM","2017/10/23 13:49:43","新北市土城區城林路6巷80號","121.438496666667","24.979855","6501300","土城區"
"236044","913-UM","2017/10/23 00:17:50","新北市土城區城林路6巷80號","121.438396666667","24.9798216666667","6501300","土城區"
"236060","915-UM","2017/10/23 13:49:43","新北市土城區城林路6巷80號","121.438373333333","24.97978","6501300","土城區"
"236052","AAC-216","2017/10/23 13:49:40","新北市土城區城林路6巷80號","121.438378333333","24.97978","6501300","土城區"
"242001","233-RS","2017/10/23 09:11:45","新北市新莊區環河路48-7號","121.436903333333","25.0097833333333","6500500","新莊區"
"221032","280-BY","2017/10/23 13:49:35","新北市汐止區光復街7巷26號","121.64024","25.0591783333333","6501100","汐止區"
"221018","753-BX","2017/10/23 13:49:47","新北市汐止區汐萬路一段256巷3號","121.652533333333","25.0745416666667","6501100","汐止區"
"220027","145-BY","2017/10/23 13:49:48","新北市板橋區國光路189號","121.461136666667","25.0185966666667","6500100","板橋區"
"220028","200-UY","2017/10/23 13:49:51","新北市板橋區大觀路二段265巷70號","121.44252","24.9969233333333","6500100","板橋區"
"220030","610-BX","2017/10/23 13:49:31","新北市板橋區篤行路三段玉平巷16號","121.428956666667","24.9873033333333","6500100","板橋區"
"220050","245-BX","2017/10/23 13:49:33","新北市板橋區民生路二段161巷9號","121.470133333333","25.0194416666667","6500100","板橋區"
"220004","276-BY","2017/10/23 13:49:50","新北市板橋區四川路二段35號","121.454253333333","24.9954283333333","6500100","板橋區"
"220020","277-BY","2017/10/23 13:49:43","新北市板橋區金門街23號","121.433448333333","24.9945683333333","6500100","板橋區"
"220043","280-UM","2017/10/23 13:49:40","新北市板橋區民生路二段161巷1號","121.470195","25.0201583333333","6500100","板橋區"
"220019","283-VK","2017/10/23 13:49:48","新北市板橋區忠孝路176巷3號","121.464728333333","25.0021016666667","6500100","板橋區"
"220001","285-VK","2017/10/23 13:49:51","新北市板橋區民生路二段89-6號","121.470558333333","25.0188433333333","6500100","板橋區"
"220031","286-VK","2017/10/23 13:49:48","新北市板橋區僑中二街126巷2號","121.44517","25.0051066666667","6500100","板橋區"
"220029","287-VK","2017/10/23 13:38:20","新北市板橋區華東街1-10號","121.448275","24.99502","6500100","板橋區"
"220039","288-VK","2017/10/23 13:49:52","新北市板橋區民生路二段120號","121.470405","25.0196216666667","6500100","板橋區"
"220009","293-UM","2017/10/23 13:49:32","新北市板橋區民生路二段56-6號","121.470801666667","25.0186516666667","6500100","板橋區"
"220032","296-UM","2017/10/23 13:49:50","新北市板橋區大觀路二段148巷29號","121.441856666667","25.0003266666667","6500100","板橋區"
"220023","297-UM","2017/10/23 13:49:44","新北市板橋區大觀路一段28巷106號","121.450226666667","25.0111133333333","6500100","板橋區"
"242001","281-VK","2017/10/23 13:49:42","新北市新莊區中港路170號","121.454963333333","25.0417316666667","6500500","新莊區"
"220010","305-R5","2017/10/23 13:49:43","新北市板橋區觀光街2號","121.472441666667","25.0153366666667","6500100","板橋區"
"220041","307-R5","2017/10/23 13:49:38","新北市板橋區民生路二段120號","121.470291666667","25.0198216666667","6500100","板橋區"
"220047","317-R6","2017/10/23 13:49:38","新北市板橋區民生路二段120號","121.470528333333","25.0196483333333","6500100","板橋區"
"220012","486-VK","2017/10/23 13:49:36","新北市板橋區民生路二段5號","121.472768333333","25.0158533333333","6500100","板橋區"
"220038","487-VK","2017/10/23 13:49:53","新北市板橋區民生路二段161巷1號","121.469936666667","25.02016","6500100","板橋區"
"220037","491-VK","2017/10/23 13:49:34","新北市板橋區民生路二段175號","121.470006666667","25.020255","6500100","板橋區"
"220104","560-BX","2017/10/23 13:49:39","新北市板橋區南雅西路二段301巷48號","121.451998333333","25.0171583333333","6500100","板橋區"
"220052","561-BX","2017/10/23 13:49:35","新北市板橋區民生路二段120號","121.470448333333","25.01977","6500100","板橋區"
"220001","568-UM","2017/10/23 13:41:18","新北市板橋區華東街1-9號","121.448118333333","24.9948433333333","6500100","板橋區"
"220011","609-BX","2017/10/23 13:49:32","新北市板橋區民生路二段56-6號","121.470781666667","25.0187283333333","6500100","板橋區"
"220040","637-BX","2017/10/23 13:49:36","新北市板橋區民生路二段171號","121.469746666667","25.020085","6500100","板橋區"
"220005","686-BX","2017/10/23 13:49:44","新北市板橋區南雅南路二段116號","121.452443333333","25.0004666666667","6500100","板橋區"
"220025","687-BX","2017/10/23 13:49:45","新北市板橋區金門街86-2號","121.433173333333","24.9927566666667","6500100","板橋區"
"220002","741-BX","2017/10/23 13:49:34","新北市板橋區南雅南路二段120-2號","121.452335","24.9997383333333","6500100","板橋區"
"220003","827-TW","2017/10/23 13:49:46","新北市板橋區華東街330號","121.452856666667","25.0035","6500100","板橋區"
"220014","829-TW","2017/10/23 13:49:47","新北市板橋區民生路二段7號","121.472735","25.0158966666667","6500100","板橋區"
"220045","831-TW","2017/10/21 21:13:37","新北市板橋區民生路二段161巷9號","121.470235","25.01962","6500100","板橋區"
"220022","895-R6","2017/10/23 13:49:44","新北市板橋區南門街1號","121.457906666667","25.0095183333333","6500100","板橋區"
"220021","985-R7","2017/10/23 13:49:47","新北市板橋區府中路79號","121.4575","25.00939","6500100","板橋區"
"220046","AAC-210","2017/10/23 13:49:30","新北市板橋區民生路二段120號","121.470591666667","25.01963","6500100","板橋區"
"220018","AAC-253","2017/10/23 13:49:34","新北市板橋區四川路一段75號","121.45966","25.00584","6500100","板橋區"
