"lineid","car","time","location","longitude","latitude","cityid","cityname"
"234084","338-UY","2017/10/23 14:59:34","新北市八里區商港路120號","121.392961666667","25.1499716666667","6500400","永和區"
"234028","746-BX","2017/10/23 14:59:32","新北市板橋區文化路二段656號","121.480915","25.04053","6500400","永和區"
"234025","9371-KE","2017/10/23 14:59:46","新北市永和區水源街21巷1號","121.511451666667","25.0045116666667","6500400","永和區"
"248013","025-BX","2017/10/23 14:59:36","新北市五股區成泰路三段17-1號","121.441485","25.08793","6501500","五股區"
"248007","095-VK","2017/10/23 14:59:41","新北市五股區四維路155巷36弄4號","121.466878333333","25.0746416666667","6501500","五股區"
"248019","225-UY","2017/10/23 14:59:33","新北市五股區中直路20-3號","121.42554","25.11169","6501500","五股區"
"248011","247-BX","2017/10/23 14:59:33","新北市五股區六合街102號","121.430878333333","25.091015","6501500","五股區"
"248003","677-BX","2017/10/23 14:59:40","新北市五股區成泰路一段32巷62號","121.434958333333","25.0669316666667","6501500","五股區"
"244018","403-UM","2017/10/23 10:53:03","新北市林口區粉寮69號","121.40507","25.0908183333333","6501700","林口區"
"244024","742-UY","2017/10/23 09:30:57","新北市林口區粉寮69號","121.40513","25.0908533333333","6501700","林口區"
"244001","657-BX","2017/10/23 14:18:10","新北市林口區林口路76號","121.389688333333","25.0807116666667","6501700","林口區"
"244011","701-TV","2017/10/23 10:48:32","新北市林口區粉寮路二段160巷28號","121.405178333333","25.0907433333333","6501700","林口區"
"243005","AAD-798","2017/10/23 14:59:30","新北市泰山區中央路5巷17弄34號","121.427396666667","25.0441983333333","6501600","泰山區"
"243001","297-R6","2017/10/23 14:59:32","新北市泰山區泰林路二段306巷10號","121.431135","25.0634783333333","6501600","泰山區"
"243007","380-SR","2017/10/23 14:59:47","新北市泰山區仁德路125號","121.43263","25.056075","6501600","泰山區"
"243006","421-VK","2017/10/23 14:59:44","新北市泰山區明志路一段78號","121.433515","25.0644333333333","6501600","泰山區"
"243002","KEA-2215","2017/10/23 14:59:27","新北市泰山區文程路18巷32號","121.428105","25.0482516666667","6501600","泰山區"
"243003","KEA-2216","2017/10/23 14:59:37","新北市泰山區新北大道七段37號","121.41965","25.0320866666667","6501600","泰山區"
"243004","646-TV","2017/10/23 14:59:31","新北市泰山區文化街29號","121.434956666667","25.06367","6501600","泰山區"
"243008","680-BX","2017/10/23 14:59:34","新北市泰山區明志路二段341號","121.425501666667","25.044615","6501600","泰山區"
"231002","002-UM","2017/10/23 14:59:44","新北市新店區民權路133號","121.535161666667","24.9827333333333","6500600","新店區"
"231028","046-UY","2017/10/23 14:59:44","新北市新店區安豐路49號","121.500011666667","24.95494","6500600","新店區"
"231030","047-UY","2017/10/23 14:59:33","新北市新店區安民街339號","121.517013333333","24.9749","6500600","新店區"
"231029","106-UY","2017/10/23 14:59:30","新北市新店區錦秀路66號","121.47897","24.9428466666667","6500600","新店區"
"231011","108-UY","2017/10/23 14:59:36","新北市新店區中興路三段205巷8弄2號","121.543203333333","24.9816366666667","6500600","新店區"
"231019","187-VK","2017/10/23 14:59:44","新北市新店區新烏路二段42號","121.545486666667","24.9293633333333","6500600","新店區"
"231014","KEA-2219","2017/10/23 14:59:35","新北市新店區銀河路86-1號","121.580701666667","24.9587416666667","6500600","新店區"
"231026","256-BX","2017/10/23 14:59:39","新北市新店區中正路162號","121.541383333333","24.9719116666667","6500600","新店區"
"231034","268-BY","2017/10/23 14:59:38","新北市新店區玫瑰路4-1號","121.493521666667","24.9515116666667","6500600","新店區"
"231024","3713-VJ","2017/10/23 14:59:36","新北市新店區中華路83巷67號","121.538323333333","24.9673116666667","6500600","新店區"
"231025","4716-K9","2017/10/23 14:59:28","新北市新店區二十張路33巷8號","121.538516666667","24.9811266666667","6500600","新店區"
"231036","512-UM","2017/10/23 14:59:44","新北市新店區安祥路106巷66號","121.475458333333","24.96075","6500600","新店區"
"231023","513-UM","2017/10/23 14:59:39","新北市新店區檳榔路109號","121.544531666667","24.961675","6500600","新店區"
"231035","515-UM","2017/10/23 14:59:43","新北市新店區永安街74巷13號","121.519466666667","24.9860483333333","6500600","新店區"
"231001","619-UM","2017/10/23 14:59:35","新北市新店區中正路278號","121.538808333333","24.973865","6500600","新店區"
"231003","641-BX","2017/10/23 14:59:33","新北市新店區中興路二段196號","121.548435","24.9736533333333","6500600","新店區"
"231039","718-UY","2017/10/23 14:59:36","新北市新店區民權路21號","121.541965","24.98269","6500600","新店區"
"231018","719-UY","2017/10/23 14:59:43","新北市新店區中央二街5巷3號","121.529088333333","24.972805","6500600","新店區"
"231031","720-UM","2017/10/23 14:59:30","新北市新店區安泰路60巷134弄8號","121.484168333333","24.9440966666667","6500600","新店區"
"231005","897-TW","2017/10/23 14:59:40","新北市新店區復興路43號","121.537128333333","24.9870916666667","6500600","新店區"
"231006","898-TW","2017/10/23 14:59:45","新北市新店區新坡一街113號","121.54736","24.9640016666667","6500600","新店區"
"231004","899-TW","2017/10/23 14:59:42","新北市新店區民族路30號","121.540623333333","24.97877","6500600","新店區"
"231037","AKT-0513","2017/10/23 14:59:42","新北市新店區安興路69-1號","121.515578333333","24.975155","6500600","新店區"
"235030","003-UY","2017/10/23 14:59:46","新北市中和區中山路二段3巷34號","121.507288333333","25.0050833333333","6500300","中和區"
"235020","096-UM","2017/10/23 14:59:41","新北市中和區漢民路401號","121.472165","25.0071916666667","6500300","中和區"
"235003","097-UM","2017/10/23 14:59:45","新北市中和區宜安路18巷14號","121.513816666667","24.99627","6500300","中和區"
"235029","098-UM","2017/10/23 14:59:39","新北市中和區永和路55號","121.497143333333","25.00537","6500300","中和區"
"235004","150-BY","2017/10/23 14:59:40","新北市中和區景安路2號","121.507768333333","24.9991166666667","6500300","中和區"
"235022","151-BY","2017/10/23 14:59:34","新北市中和區員山路150巷2弄41號","121.481865","24.9974283333333","6500300","中和區"
"235002","185-VK","2017/10/23 14:59:43","新北市中和區自立路6號","121.52248","24.9965","6500300","中和區"
"235013","186-VK","2017/10/23 14:59:29","新北市中和區南華路9號","121.502196666667","24.9955866666667","6500300","中和區"
"235031","255-BX","2017/10/23 14:59:42","新北市中和區新生街219號","121.483875","24.9994866666667","6500300","中和區"
"235008","293-VK","2017/10/23 14:59:48","新北市中和區板南路152號","121.501898333333","24.99268","6500300","中和區"
"235036","301-VK","2017/10/23 14:59:34","新北市新店區安忠路102-1號","121.510275","24.9555983333333","6500300","中和區"
"235007","352-BY","2017/10/23 14:59:34","新北市中和區華新街228號","121.5061","24.9817466666667","6500300","中和區"
"235015","376-QA","2017/10/23 14:59:34","新北市中和區復興路280巷5號","121.502151666667","24.9909633333333","6500300","中和區"
"235032","377-QA","2017/10/23 14:59:35","新北市中和區景平路712號","121.496796666667","25.002735","6500300","中和區"
"235035","269-TV","2017/10/23 14:59:36","新北市中和區建一路148號","121.488101666667","24.9989033333333","6500300","中和區"
"235014","4979-A6","2017/10/23 14:59:45","新北市中和區景平路310號","121.512463333333","24.992845","6500300","中和區"
"235033","4980-A6","2017/10/23 14:59:27","新北市中和區廣福路93號","121.501865","25.0008233333333","6500300","中和區"
"235034","558-UM","2017/10/23 14:59:44","新北市中和區連勝街32號","121.498183333333","24.9978716666667","6500300","中和區"
"235018","640-BX","2017/10/23 14:59:27","新北市中和區莒光路131號","121.472635","25.00183","6500300","中和區"
"235024","647-TV","2017/10/23 14:59:40","新北市中和區新生街42號","121.483235","25.0034283333333","6500300","中和區"
"235010","733-UM","2017/10/23 14:59:37","新北市中和區興南路一段105巷20弄6號","121.510361666667","24.985525","6500300","中和區"
"235026","800-TS","2017/10/23 14:59:47","新北市中和區建康路148號","121.489326666667","25.0003266666667","6500300","中和區"
"235012","896-TW","2017/10/23 14:59:35","新北市中和區忠孝街1巷2-1號","121.509213333333","24.9830683333333","6500300","中和區"
"235017","900-TW","2017/10/23 14:59:35","新北市中和區國光街152號","121.468086666667","25.0015166666667","6500300","中和區"
"235001","AAC-213","2017/10/23 14:59:34","新北市中和區自立路101號","121.522083333333","24.9947583333333","6500300","中和區"
"235023","AAC-215","2017/10/23 14:59:31","新北市中和區圓通路365號","121.49141","24.9897016666667","6500300","中和區"
"220016","013-TV","2017/10/23 14:59:41","新北市板橋區光復街192巷20號","121.48148","25.01896","6500100","板橋區"
"220013","072-UY","2017/10/23 14:59:40","新北市板橋區區運路60號","121.466068333333","25.01015","6500100","板橋區"
"220105","075-UY","2017/10/23 14:59:35","新北市板橋區民治街44巷16號","121.478513333333","25.0330616666667","6500100","板橋區"
"220017","AAD-861","2017/10/23 14:59:42","新北市板橋區大明街20巷21號","121.458675","25.0033083333333","6500100","板橋區"
"247021","893-R6","2017/10/23 14:59:35","新北市蘆洲區中正路512-1號","121.461611666667","25.0972466666667","6501400","蘆洲區"
"247007","053-VK","2017/10/23 14:59:33","新北市蘆洲區中山一路214號","121.47315","25.0806433333333","6501400","蘆洲區"
"208004","AAC-292","2017/10/23 14:59:38","新北市金山區兩湖里倒照湖20-1號","121.598255","25.2355516666667","6502700","金山區"
"208002","742-BX","2017/10/23 14:59:33","基隆市安樂區基金一路214-11號","121.708873333333","25.142295","6502700","金山區"
"207002","291-VK","2017/10/23 14:59:28","新北市萬里區崁腳里崁腳路73號","121.647663333333","25.1596766666667","6502800","萬里區"
"207001","662-BX","2017/10/23 14:59:41","新北市萬里區雙興里豐稟路6-1號","121.649375","25.1852883333333","6502800","萬里區"
"236064","105-UM","2017/10/23 14:59:36","新北市土城區明德路二段72-3號","121.446848333333","24.98362","6501300","土城區"
"236040","107-UM","2017/10/23 14:59:34","新北市土城區學府路一段227號","121.451301666667","24.9839983333333","6501300","土城區"
"236074","166-UM","2017/10/23 14:59:41","新北市土城區中州路3巷43號","121.413365","24.9563816666667","6501300","土城區"
"236028","253-BX","2017/10/23 14:59:29","新北市土城區中華路二段185號","121.438565","24.9746383333333","6501300","土城區"
"236024","269-VK","2017/10/23 14:59:45","新北市土城區中正路74巷1弄2號","121.444711666667","24.9750216666667","6501300","土城區"
"236012","270-VK","2017/10/23 14:59:42","新北市土城區延和路13巷12號","121.463733333333","24.98842","6501300","土城區"
"236032","271-VK","2017/10/23 14:59:48","新北市土城區仁愛路30號","121.461355","24.9798566666667","6501300","土城區"
"236016","401-BY","2017/10/23 14:59:49","新北市土城區明峰街50號","121.467766666667","24.9865416666667","6501300","土城區"
"236056","912-UM","2017/10/23 14:59:43","新北市土城區金城路二段12號","121.44924","24.97731","6501300","土城區"
"236044","913-UM","2017/10/23 14:59:43","新北市土城區青雲路322巷2弄2號","121.458498333333","24.9772383333333","6501300","土城區"
"236060","915-UM","2017/10/23 14:59:43","新北市土城區金城路三段93巷19號","121.46677","24.9883366666667","6501300","土城區"
"236052","AAC-216","2017/10/23 14:59:40","新北市土城區學成路179號","121.447946666667","24.9885616666667","6501300","土城區"
"242001","233-RS","2017/10/23 09:11:45","新北市新莊區環河路48-7號","121.436903333333","25.0097833333333","6500500","新莊區"
"238018","571-TV","2017/10/23 14:59:38","新北市樹林區育德街78-1號","121.387836666667","24.968235","6500700","樹林區"
"238008","KEA-2217","2017/10/23 14:59:40","新北市樹林區育德街78-1號","121.387863333333","24.968175","6500700","樹林區"
"238012","303-VK","2017/10/23 14:59:41","新北市樹林區育德街78號","121.38789","24.968305","6500700","樹林區"
"238004","283-BY","2017/10/23 14:59:44","新北市樹林區育德街78-1號","121.387731666667","24.9681583333333","6500700","樹林區"
"238001","282-BY","2017/10/23 14:59:41","新北市樹林區中山路三段204號","121.386735","24.9682616666667","6500700","樹林區"
"238007","268-VK","2017/10/23 14:59:36","新北市樹林區八德街824號","121.394493333333","24.9687483333333","6500700","樹林區"
"238013","172-UY","2017/10/23 02:11:41","新北市樹林區育德街78-1號","121.387736666667","24.9681283333333","6500700","樹林區"
"221018","753-BX","2017/10/23 14:59:47","新北市汐止區大同路三段85號","121.667723333333","25.077335","6501100","汐止區"
"220027","145-BY","2017/10/23 14:59:39","新北市板橋區大智街62號","121.454171666667","25.01544","6500100","板橋區"
"220028","200-UY","2017/10/23 14:59:49","新北市板橋區大觀路二段37巷21號","121.447926666667","25.0027666666667","6500100","板橋區"
"220030","610-BX","2017/10/23 14:59:38","新北市板橋區溪崑一街46號","121.429781666667","24.99056","6500100","板橋區"
"220050","245-BX","2017/10/23 14:59:33","新北市板橋區莒光路200巷28號","121.473063333333","25.0222166666667","6500100","板橋區"
"220020","277-BY","2017/10/23 14:59:42","新北市板橋區金門街127巷17號","121.433791666667","24.99115","6500100","板橋區"
"220043","280-UM","2017/10/23 14:59:40","新北市板橋區雨農路17巷1號","121.462136666667","25.0247183333333","6500100","板橋區"
"220019","283-VK","2017/10/23 14:59:42","新北市板橋區和平路174巷1弄2號","121.464218333333","24.9950616666667","6500100","板橋區"
"220001","285-VK","2017/10/23 14:59:31","新北市板橋區永豐街28號","121.474623333333","25.0171583333333","6500100","板橋區"
"220031","286-VK","2017/10/23 14:59:27","新北市板橋區僑中二街92巷2號","121.446198333333","25.00893","6500100","板橋區"
"220029","287-VK","2017/10/23 14:59:40","新北市板橋區僑中一街70號","121.447725","25.0115366666667","6500100","板橋區"
"220039","288-VK","2017/10/23 14:59:31","新北市板橋區龍泉街140號","121.456881666667","25.0237383333333","6500100","板橋區"
"220009","293-UM","2017/10/23 14:59:32","新北市板橋區縣民大道二段200巷33號","121.4707","25.017835","6500100","板橋區"
"220032","296-UM","2017/10/23 14:59:50","新北市板橋區溪崑二街112巷30號","121.425781666667","24.9892966666667","6500100","板橋區"
"220023","297-UM","2017/10/23 14:59:44","新北市板橋區大勇街71號","121.453068333333","25.0166416666667","6500100","板橋區"
"242001","281-VK","2017/10/23 14:59:30","新北市新莊區環河路636-7號","121.437361666667","25.0113566666667","6500500","新莊區"
"220010","305-R5","2017/10/23 14:59:43","新北市板橋區萬安街85巷1弄11號","121.484445","25.0250533333333","6500100","板橋區"
"220041","307-R5","2017/10/23 14:59:38","新北市板橋區裕民街133巷1號","121.459125","25.0270483333333","6500100","板橋區"
"220047","317-R6","2017/10/23 14:59:38","新北市板橋區新海路72巷30號","121.462465","25.0224416666667","6500100","板橋區"
"220012","486-VK","2017/10/23 14:59:48","新北市板橋區區運路8號","121.465063333333","25.0090816666667","6500100","板橋區"
"220038","487-VK","2017/10/23 14:59:45","新北市板橋區綠堤街41-1號","121.455261666667","25.0259916666667","6500100","板橋區"
"220037","491-VK","2017/10/23 14:59:34","新北市板橋區文聖街72-6號","121.47709","25.03059","6500100","板橋區"
"220104","560-BX","2017/10/23 14:59:39","新北市板橋區金華街21巷17號","121.456028333333","25.020755","6500100","板橋區"
"220052","561-BX","2017/10/23 14:59:35","新北市板橋區自由路46號","121.46569","25.0233166666667","6500100","板橋區"
"220001","568-UM","2017/10/23 13:41:18","新北市板橋區華東街1-9號","121.448118333333","24.9948433333333","6500100","板橋區"
"220011","609-BX","2017/10/23 14:59:32","新北市板橋區林森街3巷1弄6號","121.482645","25.0236133333333","6500100","板橋區"
"220040","637-BX","2017/10/23 14:59:36","新北市板橋區懷德街127巷26-1號","121.479756666667","25.03116","6500100","板橋區"
"220005","686-BX","2017/10/23 14:59:44","新北市板橋區信義路127號","121.457695","24.99335","6500100","板橋區"
"220025","687-BX","2017/10/23 14:59:45","新北市板橋區僑中一街150號","121.444841666667","25.0119783333333","6500100","板橋區"
"220042","689-BX","2017/10/23 14:59:41","新北市板橋區長江路三段122號","121.475225","25.0344833333333","6500100","板橋區"
"220002","741-BX","2017/10/23 14:59:34","新北市板橋區國泰街75巷28弄90號","121.467258333333","25.0040633333333","6500100","板橋區"
"220003","827-TW","2017/10/23 14:59:46","新北市板橋區忠孝路48巷11弄17-2號","121.462171666667","24.9999066666667","6500100","板橋區"
"220014","829-TW","2017/10/23 14:59:47","新北市板橋區中山路一段206巷89號","121.47193","25.0132733333333","6500100","板橋區"
"220051","830-TW","2017/10/23 14:59:48","新北市板橋區民治街135號","121.477748333333","25.03069","6500100","板橋區"
"220045","831-TW","2017/10/23 14:59:35","新北市板橋區莒光路39巷17號","121.470888333333","25.025385","6500100","板橋區"
"220022","895-R6","2017/10/23 14:59:44","新北市板橋區南雅南路一段3巷25-1號","121.457021666667","25.0059416666667","6500100","板橋區"
"220021","985-R7","2017/10/23 14:59:37","新北市板橋區南雅西路二段136號","121.452011666667","25.0128283333333","6500100","板橋區"
"220046","AAC-210","2017/10/23 14:59:43","新北市板橋區文化路一段221巷10號","121.463255","25.0178016666667","6500100","板橋區"
"220018","AAC-253","2017/10/23 14:59:34","新北市板橋區館前東路63-3號","121.463791666667","25.0078583333333","6500100","板橋區"
