"lineid","car","time","location","longitude","latitude","cityid","cityname"
"248010","272-BY","2017/10/23 15:15:18","新北市五股區中興路二段83巷26-6號","121.459956666667","25.0751383333333","6501500","五股區"
"244018","403-UM","2017/10/23 10:53:03","新北市林口區粉寮69號","121.40507","25.0908183333333","6501700","林口區"
"244024","742-UY","2017/10/23 09:30:57","新北市林口區粉寮69號","121.40513","25.0908533333333","6501700","林口區"
"244011","701-TV","2017/10/23 10:48:32","新北市林口區粉寮路二段160巷28號","121.405178333333","25.0907433333333","6501700","林口區"
"243009","297-R6","2017/10/23 15:50:39","新北市泰山區黎明路25號","121.421936666667","25.0609916666667","6501600","泰山區"
"243016","680-BX","2017/10/23 16:07:00","新北市泰山區黎明路25號","121.422225","25.0606783333333","6501600","泰山區"
"231046","278-BY","2017/10/23 16:19:38","新北市新店區灣潭路3-3號","121.53822","24.9508216666667","6500600","新店區"
"231018","719-UY","2017/10/23 16:19:43","新北市新店區中正路700巷79號","121.536026666667","24.9934316666667","6500600","新店區"
"241011","013-R5","2017/10/23 16:19:24","新北市三重區龍濱路285號","121.501046666667","25.073475","6500200","三重區"
"241028","022-UY","2017/10/23 16:19:39","新北市三重區正義南路165-1號","121.498873333333","25.0575316666667","6500200","三重區"
"241008","059-VK","2017/10/23 16:19:28","新北市三重區永福街112號","121.478966666667","25.0754133333333","6500200","三重區"
"241009","060-VK","2017/10/23 16:19:28","新北市三重區仁愛街510號","121.487535","25.082175","6500200","三重區"
"241031","061-VK","2017/10/23 16:19:21","新北市三重區捷運路4號","121.485636666667","25.056155","6500200","三重區"
"241017","063-VK","2017/10/23 16:19:43","新北市三重區大同北路91號","121.494658333333","25.063665","6500200","三重區"
"241024","065-VK","2017/10/23 16:19:41","新北市三重區中正北路169號","121.478498333333","25.0693133333333","6500200","三重區"
"241026","066-VK","2017/10/23 16:19:31","新北市三重區正義南路29號","121.498053333333","25.0609833333333","6500200","三重區"
"241002","090-VK","2017/10/23 16:19:30","新北市三重區仁義街101巷6號","121.498455","25.0796833333333","6500200","三重區"
"241003","091-VK","2017/10/23 16:19:32","新北市三重區仁義街220巷31號","121.494175","25.0835283333333","6500200","三重區"
"241005","262-UM","2017/10/23 16:19:34","新北市三重區溪尾街300-2號","121.487306666667","25.0837366666667","6500200","三重區"
"241015","265-UM","2017/10/23 16:19:28","新北市三重區福德北路83號","121.501866666667","25.0658833333333","6500200","三重區"
"241016","266-UM","2017/10/23 16:19:34","新北市三重區大仁街88號","121.492831666667","25.0655166666667","6500200","三重區"
"241022","267-UM","2017/10/23 16:19:39","新北市三重區新北大道一段7號","121.48974","25.0616883333333","6500200","三重區"
"241018","268-UM","2017/10/23 16:19:29","新北市三重區重陽路三段43號","121.489505","25.067125","6500200","三重區"
"241013","270-UM","2017/10/23 16:19:44","新北市三重區仁愛街63號","121.496153333333","25.07265","6500200","三重區"
"241025","271-UM","2017/10/23 16:19:26","新北市三重區中正北路560巷100弄2號","121.47258","25.0682933333333","6500200","三重區"
"241007","398-BY","2017/10/23 16:19:36","新北市三重區仁美街83號","121.486171666667","25.0795583333333","6500200","三重區"
"241020","413-TH","2017/10/23 16:19:36","新北市三重區後竹圍街211號","121.484811666667","25.0714983333333","6500200","三重區"
"241004","475-VK","2017/10/23 16:19:28","新北市三重區自強路五段69號","121.494906666667","25.082045","6500200","三重區"
"241019","478-VK","2017/10/23 16:19:26","新北市三重區重陽路三段99號","121.4905","25.0679816666667","6500200","三重區"
"241014","543-UM","2017/10/23 16:19:32","新北市三重區河邊北街100巷1號","121.50389","25.0705","6500200","三重區"
"241023","545-UM","2017/10/23 16:19:41","新北市三重區忠孝路二段138號","121.482465","25.06834","6500200","三重區"
"241001","547-UM","2017/10/23 16:19:31","新北市三重區自強路四段87號","121.49097","25.0792866666667","6500200","三重區"
"241006","AAD-863","2017/10/23 16:19:38","新北市三重區永福街46巷37號","121.48227","25.0774716666667","6500200","三重區"
"241012","941-UM","2017/10/23 16:19:38","新北市三重區秀江街231號","121.49703","25.07156","6500200","三重區"
"241029","942-UM","2017/10/23 16:19:36","新北市三重區重安街141號","121.495611666667","25.0546816666667","6500200","三重區"
"241033","AAC-255","2017/10/23 16:19:32","新北市三重區重新路五段416號","121.475416666667","25.0476233333333","6500200","三重區"
"235026","800-TS","2017/10/23 16:19:27","新北市中和區建八路130號","121.488766666667","24.9985766666667","6500300","中和區"
"224008","275-VK","2017/10/23 16:19:30","新北市瑞芳區傑魚坑路322號","121.786306666667","25.1046683333333","6501200","瑞芳區"
"224007","273-VK","2017/10/23 16:19:26","新北市瑞芳區大埔路220號","121.760835","25.10231","6501200","瑞芳區"
"224005","271-BY","2017/10/23 16:19:29","新北市瑞芳區岳王路94號","121.811185","25.1113683333333","6501200","瑞芳區"
"227001","642-TC","2017/10/23 16:19:35","新北市雙溪區上林里內平林80號","121.828305","25.0279716666667","6502500","雙溪區"
"227008","400-TW","2017/10/23 16:19:32","新北市雙溪區三港里雙澳路95號","121.886191666667","25.0565116666667","6502500","雙溪區"
"208002","742-BX","2017/10/23 15:50:23","新北市金山區磺清路135號","121.639371666667","25.227785","6502700","金山區"
"251008","181-VK","2017/10/23 16:19:32","新北市淡水區中正東路二段48巷20號","121.457125","25.1586233333333","6501000","淡水區"
"251013","182-VK","2017/10/23 16:19:41","新北市淡水區中山北路三段163號","121.445313333333","25.1966383333333","6501000","淡水區"
"251002","672-BX","2017/10/23 16:19:28","新北市淡水區中正路二段31號","121.41924","25.1816166666667","6501000","淡水區"
"242001","233-RS","2017/10/23 09:11:45","新北市新莊區環河路48-7號","121.436903333333","25.0097833333333","6500500","新莊區"
"238002","755-BX","2017/10/23 16:18:34","新北市樹林區大安路588號","121.411505","24.9832133333333","6500700","樹林區"
"238010","601-UM","2017/10/23 16:19:24","新北市樹林區三福街85巷10號","121.406936666667","25.015615","6500700","樹林區"
"238006","599-UM","2017/10/23 16:19:38","新北市樹林區東榮街147巷27弄3號","121.41476","24.9807933333333","6500700","樹林區"
"238005","571-TV","2017/10/23 16:19:37","新北市樹林區八德街369-1號","121.416331666667","24.97169","6500700","樹林區"
"238011","5061-A6","2017/10/23 16:19:36","新北市樹林區育德街78-1號","121.388315","24.9681066666667","6500700","樹林區"
"238009","KEA-2213","2017/10/23 16:19:24","新北市樹林區八德街321-1號","121.419471666667","24.9736983333333","6500700","樹林區"
"238004","283-BY","2017/10/23 16:19:24","新北市樹林區中正路433-2號","121.414903333333","25.0082633333333","6500700","樹林區"
"238001","282-BY","2017/10/23 16:19:41","新北市樹林區千歲街92巷7弄17號","121.427391666667","24.9979566666667","6500700","樹林區"
"238007","268-VK","2017/10/23 16:19:36","新北市樹林區三俊街135巷52號","121.418713333333","25.0172316666667","6500700","樹林區"
"238013","172-UY","2017/10/23 16:19:39","新北市樹林區地政街8巷10弄2號","121.393753333333","24.9711466666667","6500700","樹林區"
"220020","277-BY","2017/10/23 16:17:42","新北市八里區荖阡坑路34號","121.401785","25.1293783333333","6500100","板橋區"
"242001","281-VK","2017/10/23 14:59:30","新北市新莊區環河路636-7號","121.437361666667","25.0113566666667","6500500","新莊區"
"220010","305-R5","2017/10/23 16:16:12","新北市板橋區民生路二段120號","121.47046","25.0197416666667","6500100","板橋區"
"220001","568-UM","2017/10/23 13:41:18","新北市板橋區華東街1-9號","121.448118333333","24.9948433333333","6500100","板橋區"
