"lineid","car","time","location","longitude","latitude","cityid","cityname"
"249005","172-UM","2017/10/23 16:49:34","新北市八里區忠孝路246號","121.421495","25.16106","6502300","八里區"
"249001","173-UM","2017/10/23 16:49:45","新北市八里區博物館路15號","121.415215","25.1637216666667","6502300","八里區"
"249004","303-UY","2017/10/23 16:49:50","新北市八里區仁愛路16號","121.412726666667","25.1620266666667","6502300","八里區"
"249002","305-UY","2017/10/23 16:49:38","新北市八里區牛寮埔31號","121.429865","25.1458116666667","6502300","八里區"
"249003","759-BX","2017/10/23 16:49:45","新北市八里區中山路二段277號","121.401848333333","25.148805","6502300","八里區"
"248010","272-BY","2017/10/23 15:15:18","新北市五股區中興路二段83巷26-6號","121.459956666667","25.0751383333333","6501500","五股區"
"244018","403-UM","2017/10/23 10:53:03","新北市林口區粉寮69號","121.40507","25.0908183333333","6501700","林口區"
"244011","701-TV","2017/10/23 16:49:41","新北市林口區粉寮路二段160巷28號","121.405141666667","25.0907733333333","6501700","林口區"
"243009","297-R6","2017/10/23 15:50:39","新北市泰山區黎明路25號","121.421936666667","25.0609916666667","6501600","泰山區"
"243016","680-BX","2017/10/23 16:07:00","新北市泰山區黎明路25號","121.422225","25.0606783333333","6501600","泰山區"
"231046","278-BY","2017/10/23 16:49:38","新北市新店區灣潭路15-12號","121.542298333333","24.9419216666667","6500600","新店區"
"241011","013-R5","2017/10/23 16:49:44","新北市三重區仁愛街53巷120號","121.498948333333","25.0726016666667","6500200","三重區"
"241028","022-UY","2017/10/23 16:49:38","新北市三重區光興街91號","121.497363333333","25.0599933333333","6500200","三重區"
"241008","059-VK","2017/10/23 16:49:48","新北市三重區永福街179巷27號","121.477941666667","25.0749433333333","6500200","三重區"
"241009","060-VK","2017/10/23 16:49:48","新北市三重區三和路四段203巷227號","121.486898333333","25.0808133333333","6500200","三重區"
"241031","061-VK","2017/10/23 16:49:41","新北市三重區新北大道一段15巷2號","121.487986666667","25.060545","6500200","三重區"
"241017","063-VK","2017/10/23 16:49:43","新北市三重區國隆路8巷19號","121.492938333333","25.0636066666667","6500200","三重區"
"241024","065-VK","2017/10/23 16:49:41","新北市三重區中正北路317巷16-1號","121.47518","25.0729833333333","6500200","三重區"
"241026","066-VK","2017/10/23 16:49:31","新北市三重區文化南路8號","121.500165","25.062535","6500200","三重區"
"241002","090-VK","2017/10/23 16:49:50","新北市三重區仁義街215號","121.49675","25.08192","6500200","三重區"
"241003","091-VK","2017/10/23 16:49:52","新北市三重區五華街87巷8號","121.492351666667","25.0836066666667","6500200","三重區"
"241005","262-UM","2017/10/23 16:49:34","新北市三重區仁華街80巷24號","121.484336666667","25.0838716666667","6500200","三重區"
"241015","265-UM","2017/10/23 16:49:28","新北市三重區文化北路43巷10號","121.49922","25.0655933333333","6500200","三重區"
"241016","266-UM","2017/10/23 16:49:33","新北市三重區大同北路111號","121.49419","25.0642783333333","6500200","三重區"
"241022","267-UM","2017/10/23 16:49:38","新北市三重區貴陽街72號","121.484086666667","25.0634683333333","6500200","三重區"
"241018","268-UM","2017/10/23 16:49:49","新北市三重區正義北路302巷38號","121.494235","25.0693716666667","6500200","三重區"
"241032","269-UM","2017/10/23 16:49:37","新北市三重區重陽路一段120巷9號","121.486173333333","25.0601183333333","6500200","三重區"
"241013","270-UM","2017/10/23 16:49:44","新北市三重區仁壽街79號","121.497911666667","25.07359","6500200","三重區"
"241025","271-UM","2017/10/23 16:49:46","新北市三重區中正北路530巷27號","121.471961666667","25.07027","6500200","三重區"
"241007","398-BY","2017/10/23 16:49:36","新北市三重區三和路四段181巷56號","121.483855","25.0794083333333","6500200","三重區"
"241020","413-TH","2017/10/23 16:49:34","新北市三重區忠孝路二段34號","121.485728333333","25.0709633333333","6500200","三重區"
"241004","475-VK","2017/10/23 16:49:48","新北市三重區仁愛街397巷12號","121.491443333333","25.0811516666667","6500200","三重區"
"241019","478-VK","2017/10/23 16:49:46","新北市三重區力行路一段177號","121.484431666667","25.0695116666667","6500200","三重區"
"241030","480-VK","2017/10/23 16:49:41","新北市三重區新興路3號","121.4928","25.0531016666667","6500200","三重區"
"241014","543-UM","2017/10/23 16:49:38","新北市三重區長壽街120巷11號","121.502433333333","25.06906","6500200","三重區"
"241023","545-UM","2017/10/23 16:49:41","新北市三重區新北大道一段206巷15號","121.482216666667","25.0626166666667","6500200","三重區"
"241001","547-UM","2017/10/23 16:49:51","新北市三重區仁政街54巷19號","121.49242","25.0768483333333","6500200","三重區"
"241006","AAD-863","2017/10/23 16:49:38","新北市三重區力行路二段182-3號","121.483448333333","25.077545","6500200","三重區"
"241012","941-UM","2017/10/23 16:49:38","新北市三重區仁興街11巷22號","121.500363333333","25.0743366666667","6500200","三重區"
"241029","942-UM","2017/10/23 16:49:46","新北市三重區集美街213號","121.491861666667","25.0545783333333","6500200","三重區"
"241033","AAC-255","2017/10/23 16:49:32","新北市新莊區新北大道二段143號","121.465796666667","25.0613883333333","6500200","三重區"
"235062","800-TS","2017/10/23 16:47:13","新北市中和區員山路36巷16-3號","121.485003333333","24.9915916666667","6500300","中和區"
"247020","500-BY","2017/10/23 16:49:45","新北市蘆洲區民族路422巷14號","121.474138333333","25.09221","6501400","蘆洲區"
"247010","339-TH","2017/10/23 16:49:37","新北市蘆洲區信義路176號","121.479298333333","25.0839983333333","6501400","蘆洲區"
"247004","336-TH","2017/10/23 16:49:36","新北市蘆洲區長榮路106號","121.461788333333","25.0841133333333","6501400","蘆洲區"
"247016","057-VK","2017/10/23 16:49:51","新北市蘆洲區中正路100號","121.469928333333","25.08415","6501400","蘆洲區"
"247006","056-VK","2017/10/23 16:49:44","新北市蘆洲區永安南路二段166號","121.461178333333","25.07895","6501400","蘆洲區"
"247014","007-UY","2017/10/23 16:49:39","新北市蘆洲區三民路89號","121.474253333333","25.0846866666667","6501400","蘆洲區"
"247018","001-UY","2017/10/23 16:49:45","新北市蘆洲區民族路422巷82弄37號","121.474178333333","25.0959033333333","6501400","蘆洲區"
"228002","585-TW","2017/10/23 16:49:38","新北市貢寮區貢寮里朝陽街142號","121.906266666667","25.023","6502600","貢寮區"
"224009","285-BY","2017/10/23 16:49:32","新北市瑞芳區明燈路一段163號","121.819456666667","25.10753","6501200","瑞芳區"
"224008","275-VK","2017/10/23 16:49:30","新北市瑞芳區民權街3-1號","121.809308333333","25.108395","6501200","瑞芳區"
"224007","273-VK","2017/10/23 16:49:46","新北市瑞芳區中央路48巷吉祥園8號","121.759413333333","25.1035783333333","6501200","瑞芳區"
"224005","271-BY","2017/10/23 16:49:29","新北市瑞芳區洞頂路8-1號","121.862288333333","25.1211283333333","6501200","瑞芳區"
"227001","642-TC","2017/10/23 16:49:35","新北市雙溪區外柑里外柑腳76號","121.807145","25.0177016666667","6502500","雙溪區"
"227008","400-TW","2017/10/23 16:49:31","新北市雙溪區牡丹里石5號","121.866163333333","25.0532783333333","6502500","雙溪區"
"208002","742-BX","2017/10/23 15:50:23","新北市金山區磺清路135號","121.639371666667","25.227785","6502700","金山區"
"251009","008-UM","2017/10/23 16:49:32","新北市淡水區中正路二段31號","121.419421666667","25.181745","6501000","淡水區"
"251007","179-VK","2017/10/23 16:49:34","新北市淡水區中正路二段31號","121.419523333333","25.181635","6501000","淡水區"
"251008","181-VK","2017/10/23 16:49:32","台北市北投區中央北路四段30巷156號","121.474761666667","25.141545","6501000","淡水區"
"251013","182-VK","2017/10/23 16:49:43","新北市淡水區大溪6-1號","121.494838333333","25.1913233333333","6501000","淡水區"
"251010","413-VK","2017/10/23 16:49:33","新北市淡水區中正路二段31號","121.419443333333","25.1814883333333","6501000","淡水區"
"251012","441-VK","2017/10/23 16:49:29","新北市淡水區中正路二段31號","121.419636666667","25.1815516666667","6501000","淡水區"
"251015","442-VK","2017/10/23 16:49:48","新北市淡水區忠愛街5-2號","121.460623333333","25.1716566666667","6501000","淡水區"
"251011","650-BX","2017/10/23 16:49:45","新北市淡水區中正路二段31號","121.419325","25.1818366666667","6501000","淡水區"
"251002","672-BX","2017/10/23 16:49:48","新北市淡水區中正路二段31號","121.419376666667","25.1817016666667","6501000","淡水區"
"252002","178-VK","2017/10/23 16:49:45","新北市三芝區忠孝街122-1號","121.505985","25.2575983333333","6502100","三芝區"
"252001","292-VK","2017/10/23 16:49:35","新北市三芝區淡金路二段89-1號","121.504033333333","25.2609066666667","6502100","三芝區"
"242039","566-BX","2017/10/23 15:14:00","新北市新莊區新泰路357巷3弄57號","121.442068333333","25.0391383333333","6500500","新莊區"
"242060","362-BY","2017/10/23 16:49:31","新北市新莊區新泰路255巷83號","121.442385","25.03877","6500500","新莊區"
"242046","172-VK","2017/10/23 14:28:56","新北市新莊區三和路12-21號","121.442018333333","25.03876","6500500","新莊區"
"242001","233-RS","2017/10/23 09:11:45","新北市新莊區環河路48-7號","121.436903333333","25.0097833333333","6500500","新莊區"
"242013","346-TH","2017/10/23 10:56:05","新北市新莊區三和路12-18號","121.441803333333","25.0375916666667","6500500","新莊區"
"242011","351-TH","2017/10/23 16:49:45","新北市新莊區新泰路357巷3弄57號","121.442228333333","25.0395966666667","6500500","新莊區"
"238011","5061-A6","2017/10/23 16:49:36","新北市樹林區中山路二段219號","121.40256","24.976315","6500700","樹林區"
"238004","283-BY","2017/10/23 16:49:44","新北市樹林區光武街28號","121.415848333333","25.0055816666667","6500700","樹林區"
"238001","282-BY","2017/10/23 16:49:41","新北市樹林區大慶街99-1號","121.42778","24.9998466666667","6500700","樹林區"
"239007","AAC-297","2017/10/23 04:51:26","新北市鶯歌區二甲路13-16號","121.345088333333","24.935105","6500800","鶯歌區"
"239005","526-UM","2017/10/23 10:52:42","新北市鶯歌區二甲路13-16號","121.345221666667","24.9350583333333","6500800","鶯歌區"
"239001","417-VK","2017/10/23 16:48:20","新北市鶯歌區二甲路13-16號","121.345476666667","24.9354916666667","6500800","鶯歌區"
"239003","360-BY","2017/10/23 16:49:38","新北市鶯歌區二甲路13-16號","121.345445","24.9351666666667","6500800","鶯歌區"
"239002","359-BY","2017/10/23 01:27:30","新北市鶯歌區二甲路171-1號","121.343673333333","24.935615","6500800","鶯歌區"
"242001","281-VK","2017/10/23 14:59:30","新北市新莊區環河路636-7號","121.437361666667","25.0113566666667","6500500","新莊區"
"220010","305-R5","2017/10/23 16:16:12","新北市板橋區民生路二段120號","121.47046","25.0197416666667","6500100","板橋區"
"220001","568-UM","2017/10/23 13:41:18","新北市板橋區華東街1-9號","121.448118333333","24.9948433333333","6500100","板橋區"
