"lineid","car","time","location","longitude","latitude","cityid","cityname"
"249005","172-UM","2017/10/23 17:19:35","新北市五股區民義路二段132號","121.408058333333","25.1213516666667","6502300","八里區"
"249001","173-UM","2017/10/23 17:19:25","新北市八里區中華路二段165巷3號","121.407648333333","25.1508816666667","6502300","八里區"
"249004","303-UY","2017/10/23 17:19:30","新北市八里區文化街28號","121.423608333333","25.159905","6502300","八里區"
"249002","305-UY","2017/10/23 17:19:38","新北市八里區龍米路二段117巷16號","121.445333333333","25.14305","6502300","八里區"
"249003","759-BX","2017/10/23 17:19:25","新北市八里區商港路82號","121.39549","25.1464433333333","6502300","八里區"
"248010","272-BY","2017/10/23 15:15:18","新北市五股區中興路二段83巷26-6號","121.459956666667","25.0751383333333","6501500","五股區"
"244013","069-UM","2017/10/23 17:19:38","新北市林口區粉寮69號","121.40506","25.0909","6501700","林口區"
"244007","080-UY","2017/10/23 17:19:35","新北市林口區菁埔48-20號","121.378851666667","25.094685","6501700","林口區"
"244018","403-UM","2017/10/23 17:19:39","新北市林口區文化一路一段190巷7弄3號","121.380211666667","25.0749683333333","6501700","林口區"
"244009","410-SL","2017/10/23 17:19:28","新北市林口區松柏路78號","121.37953","25.090655","6501700","林口區"
"244023","483-VK","2017/10/23 17:19:33","新北市林口區仁愛路一段647號","121.388388333333","25.0766283333333","6501700","林口區"
"244017","485-VK","2017/10/23 17:19:31","新北市林口區粉寮69號","121.405001666667","25.0909133333333","6501700","林口區"
"244011","701-TV","2017/10/23 17:19:41","新北市林口區仁愛路一段246號","121.395576666667","25.07585","6501700","林口區"
"244021","838-TS","2017/10/23 17:19:39","新北市林口區粉寮路160巷13號","121.405586666667","25.0929166666667","6501700","林口區"
"243009","297-R6","2017/10/23 15:50:39","新北市泰山區黎明路25號","121.421936666667","25.0609916666667","6501600","泰山區"
"243016","680-BX","2017/10/23 16:07:00","新北市泰山區黎明路25號","121.422225","25.0606783333333","6501600","泰山區"
"231046","278-BY","2017/10/23 17:19:38","新北市新店區直潭路92號","121.530911666667","24.9375983333333","6500600","新店區"
"241011","013-R5","2017/10/23 17:19:43","新北市三重區河邊北街100巷19號","121.503118333333","25.0702516666667","6500200","三重區"
"241028","022-UY","2017/10/23 17:19:38","新北市三重區仁化商場15號","121.493763333333","25.0591933333333","6500200","三重區"
"241008","059-VK","2017/10/23 17:19:28","新北市三重區下竹圍街14號","121.481001666667","25.0757866666667","6500200","三重區"
"241009","060-VK","2017/10/23 17:19:28","新北市三重區仁愛街610號","121.483786666667","25.0807116666667","6500200","三重區"
"241017","063-VK","2017/10/23 17:19:23","新北市三重區大同北路52號","121.495021666667","25.06307","6500200","三重區"
"241024","065-VK","2017/10/23 17:19:41","新北市三重區中正北路205號","121.476758333333","25.0701216666667","6500200","三重區"
"241026","066-VK","2017/10/23 17:19:43","新北市三重區中央南路20號","121.501368333333","25.0625983333333","6500200","三重區"
"241002","090-VK","2017/10/23 17:19:30","新北市三重區自強路五段11-1號","121.49266","25.0805216666667","6500200","三重區"
"241003","091-VK","2017/10/23 17:19:32","新北市三重區富福街56號","121.491765","25.0845","6500200","三重區"
"241005","262-UM","2017/10/23 17:19:34","新北市三重區永安北路二段25巷2號","121.482331666667","25.0818183333333","6500200","三重區"
"241015","265-UM","2017/10/23 17:19:28","新北市三重區福德北路82-1號","121.501778333333","25.0662516666667","6500200","三重區"
"241016","266-UM","2017/10/23 17:19:33","新北市三重區大同北路54巷2號","121.494066666667","25.0636516666667","6500200","三重區"
"241022","267-UM","2017/10/23 17:19:38","新北市三重區中正北路64巷24號","121.486086666667","25.0636783333333","6500200","三重區"
"241018","268-UM","2017/10/23 17:19:29","新北市三重區安慶街130號","121.494813333333","25.0688966666667","6500200","三重區"
"241032","269-UM","2017/10/23 17:19:37","新北市三重區興華街122號","121.483373333333","25.05979","6500200","三重區"
"241013","270-UM","2017/10/23 17:19:44","新北市三重區仁福街31號","121.496445","25.0744683333333","6500200","三重區"
"241025","271-UM","2017/10/23 17:19:38","新北市三重區中正北路416號","121.475281666667","25.070715","6500200","三重區"
"241007","398-BY","2017/10/23 17:19:36","新北市三重區慈愛街9號","121.485031666667","25.0786983333333","6500200","三重區"
"241020","413-TH","2017/10/23 17:19:34","新北市三重區後竹圍街124號","121.488315","25.07241","6500200","三重區"
"241004","475-VK","2017/10/23 17:19:28","新北市三重區五華街110巷3號","121.491878333333","25.0828716666667","6500200","三重區"
"241019","478-VK","2017/10/23 17:19:26","新北市三重區三張街169號","121.485743333333","25.0693483333333","6500200","三重區"
"241030","480-VK","2017/10/23 17:19:41","新北市三重區成功路73巷11號","121.489475","25.051875","6500200","三重區"
"241014","543-UM","2017/10/23 17:19:32","新北市三重區長榮路6號","121.500031666667","25.0685183333333","6500200","三重區"
"241023","545-UM","2017/10/23 17:19:21","新北市三重區三民街195號","121.482093333333","25.06562","6500200","三重區"
"241001","547-UM","2017/10/23 17:19:31","新北市三重區集賢路87-1號","121.493666666667","25.0868816666667","6500200","三重區"
"241012","941-UM","2017/10/23 17:19:38","新北市三重區河邊北街256巷7號","121.501413333333","25.0761483333333","6500200","三重區"
"241029","942-UM","2017/10/23 17:19:36","新北市三重區重新路四段86號","121.48802","25.0574233333333","6500200","三重區"
"241033","AAC-255","2017/10/23 17:19:32","新北市三重區中興北街136巷27號","121.467946666667","25.0559566666667","6500200","三重區"
"235062","800-TS","2017/10/23 16:47:13","新北市中和區員山路36巷16-3號","121.485003333333","24.9915916666667","6500300","中和區"
"247022","893-R6","2017/10/23 17:19:34","新北市蘆洲區三民路128巷37號","121.469853333333","25.08978","6501400","蘆洲區"
"247012","546-UM","2017/10/23 17:19:33","新北市蘆洲區信義路319巷4號","121.478023333333","25.0863366666667","6501400","蘆洲區"
"247020","500-BY","2017/10/23 17:19:25","新北市蘆洲區仁愛街21號","121.47244","25.09246","6501400","蘆洲區"
"247010","339-TH","2017/10/23 17:19:37","新北市蘆洲區三民路26巷9號","121.476475","25.0828266666667","6501400","蘆洲區"
"247002","337-TH","2017/10/23 17:19:33","新北市蘆洲區永樂街38巷33弄16號","121.457413333333","25.0896766666667","6501400","蘆洲區"
"247004","336-TH","2017/10/23 17:19:36","新北市蘆洲區中原路22號","121.460266666667","25.0830233333333","6501400","蘆洲區"
"247016","057-VK","2017/10/23 17:19:31","新北市蘆洲區正和街110號","121.467756666667","25.0806383333333","6501400","蘆洲區"
"247006","056-VK","2017/10/23 17:19:25","新北市蘆洲區長安街49巷11號","121.462955","25.07911","6501400","蘆洲區"
"247008","053-VK","2017/10/23 17:19:28","新北市蘆洲區永安北路一段72巷22號","121.476623333333","25.0770933333333","6501400","蘆洲區"
"247014","007-UY","2017/10/23 17:19:39","新北市蘆洲區中正路90號","121.470158333333","25.0836716666667","6501400","蘆洲區"
"247024","002-UY","2017/10/23 17:19:28","新北市蘆洲區長榮路211巷1號","121.460973333333","25.0849633333333","6501400","蘆洲區"
"247018","001-UY","2017/10/23 17:19:25","新北市蘆洲區民權路70號","121.475018333333","25.08734","6501400","蘆洲區"
"228003","097-TW","2017/10/23 17:19:30","新北市貢寮區福隆里興隆街24-1號","121.944346666667","25.0166933333333","6502600","貢寮區"
"228002","585-TW","2017/10/23 17:19:38","新北市貢寮區雙玉里下雙溪街26號","121.924203333333","25.01043","6502600","貢寮區"
"228001","670-TC","2017/10/23 17:19:28","新北市貢寮區仁理村尖山腳街18-3號","121.92549","25.0483983333333","6502600","貢寮區"
"224010","AGQ-8101","2017/10/23 09:05:45","新北市瑞芳區明燈路二段46號","121.809476666667","25.10821","6501200","瑞芳區"
"224006","676-BX","2017/10/23 17:19:42","新北市瑞芳區大寮路55號","121.781806666667","25.0981216666667","6501200","瑞芳區"
"224009","285-BY","2017/10/23 17:19:36","新北市瑞芳區汽車路106-2號","121.840611666667","25.109125","6501200","瑞芳區"
"224008","275-VK","2017/10/23 17:19:30","新北市瑞芳區侯硐路48號","121.825743333333","25.0830216666667","6501200","瑞芳區"
"224005","271-BY","2017/10/23 17:19:28","新北市瑞芳區鼻頭路131號","121.91617","25.1224516666667","6501200","瑞芳區"
"227001","642-TC","2017/10/23 17:19:35","新北市雙溪區上林里內平林90號","121.82758","25.027545","6502500","雙溪區"
"227008","400-TW","2017/10/23 17:14:31","新北市雙溪區三貂里定福路1-2號","121.850743333333","25.06344","6502500","雙溪區"
"208002","742-BX","2017/10/23 15:50:23","新北市金山區磺清路135號","121.639371666667","25.227785","6502700","金山區"
"251009","008-UM","2017/10/23 17:19:32","新北市淡水區三民街19號","121.439031666667","25.1718383333333","6501000","淡水區"
"251004","009-UM","2017/10/23 17:19:26","新北市淡水區中正東路二段88巷15號","121.45915","25.1505483333333","6501000","淡水區"
"251007","179-VK","2017/10/23 17:19:34","新北市淡水區民生路47-4號","121.462055","25.138055","6501000","淡水區"
"251008","181-VK","2017/10/23 17:19:33","新北市淡水區大同路285號","121.46798","25.14247","6501000","淡水區"
"251013","182-VK","2017/10/23 17:19:40","新北市淡水區大竹圍1-3號","121.471181666667","25.1966","6501000","淡水區"
"251010","413-VK","2017/10/23 17:19:33","新北市淡水區中正路二段211號","121.42622","25.1891716666667","6501000","淡水區"
"251012","441-VK","2017/10/23 17:19:43","新北市淡水區中山北路一段158號","121.444296666667","25.1778866666667","6501000","淡水區"
"251015","442-VK","2017/10/23 17:19:28","新北市淡水區三空泉16-10號","121.472465","25.1650166666667","6501000","淡水區"
"251005","443-VK","2017/10/23 17:19:24","新北市淡水區鄧公路19-1號","121.450316666667","25.1699283333333","6501000","淡水區"
"251006","561-UM","2017/10/23 17:19:31","新北市淡水區重建街204號","121.441108333333","25.174585","6501000","淡水區"
"251011","650-BX","2017/10/23 17:19:25","新北市淡水區坪頂路128號","121.464858333333","25.1614016666667","6501000","淡水區"
"251002","672-BX","2017/10/23 17:19:28","新北市淡水區中正路二段31號","121.419413333333","25.1818066666667","6501000","淡水區"
"251003","766-UM","2017/10/23 17:19:31","新北市淡水區中山路151號","121.440463333333","25.1724033333333","6501000","淡水區"
"207003","550-UM","2017/10/23 17:19:44","新北市萬里區龜吼里美崙路53-1號","121.687491666667","25.1836133333333","6502800","萬里區"
"252002","178-VK","2017/10/23 17:19:25","新北市三芝區忠孝街1-14號","121.505506666667","25.2539316666667","6502100","三芝區"
"252001","292-VK","2017/10/23 17:19:35","新北市三芝區長安街119號","121.498056666667","25.2597233333333","6502100","三芝區"
"242031","AAC-296","2017/10/23 17:19:35","新北市新莊區中環路二段392-1號","121.442375","25.0453","6500500","新莊區"
"242029","986-R7","2017/10/23 17:19:27","新北市新莊區幸福路874號","121.443173333333","25.04902","6500500","新莊區"
"242050","751-BX","2017/10/23 17:19:21","新北市新莊區瓊林路190-2號","121.439473333333","25.021035","6500500","新莊區"
"242025","705-TV","2017/10/23 17:19:24","新北市新莊區中和街14號","121.448358333333","25.043275","6500500","新莊區"
"242023","613-BX","2017/10/23 17:19:31","新北市新莊區中平路82巷29號","121.445965","25.0449616666667","6500500","新莊區"
"242027","612-BX","2017/10/23 17:19:32","新北市新莊區中港路338號","121.45206","25.0459116666667","6500500","新莊區"
"242039","566-BX","2017/10/23 17:19:29","新北市新莊區新樹路132號","121.435715","25.0237083333333","6500500","新莊區"
"242044","497-BY","2017/10/23 17:17:33","新北市新莊區中正路692-8號","121.419746666667","25.028315","6500500","新莊區"
"242034","442-UM","2017/10/23 17:19:38","新北市新莊區中正路473-1號","121.442071666667","25.0330933333333","6500500","新莊區"
"242048","441-UM","2017/10/23 17:19:33","新北市新莊區龍安路116號","121.418986666667","25.0203866666667","6500500","新莊區"
"242053","440-UM","2017/10/23 17:19:24","新北市新莊區環河路462號","121.440136666667","25.0198116666667","6500500","新莊區"
"242004","413-TV","2017/10/23 17:19:34","新北市新莊區中環路二段392-1號","121.44234","25.0455733333333","6500500","新莊區"
"242042","400-BY","2017/10/23 17:19:19","新北市新莊區新樹路52-26號","121.437403333333","25.026815","6500500","新莊區"
"242060","362-BY","2017/10/23 17:19:31","新北市新莊區三和路12-16號","121.441951666667","25.0374433333333","6500500","新莊區"
"242058","353-BY","2017/10/23 17:19:31","新北市新莊區新泰路357巷3弄57號","121.441951666667","25.0390016666667","6500500","新莊區"
"242007","132-UY","2017/10/23 17:19:21","新北市新莊區中環路二段392-1號","121.442306666667","25.0452416666667","6500500","新莊區"
"242036","133-UY","2017/10/23 17:19:40","新北市新莊區新樹路181-2號","121.436078333333","25.02434","6500500","新莊區"
"242021","135-UY","2017/10/23 17:19:43","新北市新莊區中港路254號","121.453713333333","25.0434633333333","6500500","新莊區"
"242046","172-VK","2017/10/23 17:19:37","新北市新莊區中正路406號","121.441353333333","25.03387","6500500","新莊區"
"242017","173-VK","2017/10/23 17:18:53","新北市新莊區中平路67號","121.444695","25.044775","6500500","新莊區"
"242015","175-VK","2017/10/23 17:19:28","新北市新莊區中環路二段392-1號","121.442398333333","25.0454083333333","6500500","新莊區"
"242002","176-VK","2017/10/23 17:19:41","新北市新莊區瓊林路50-12號","121.446026666667","25.02877","6500500","新莊區"
"242001","233-RS","2017/10/23 09:11:45","新北市新莊區環河路48-7號","121.436903333333","25.0097833333333","6500500","新莊區"
"242013","346-TH","2017/10/23 17:19:40","新北市新莊區中環路二段392-1號","121.442236666667","25.0454616666667","6500500","新莊區"
"242019","348-TH","2017/10/23 17:19:44","新北市新莊區中港路244號","121.453913333333","25.0432566666667","6500500","新莊區"
"242056","349-TH","2017/10/23 17:19:30","新北市新莊區三和路12-19號","121.441906666667","25.037765","6500500","新莊區"
"242011","351-TH","2017/10/23 17:19:25","新北市新莊區中港路351號","121.451995","25.0458483333333","6500500","新莊區"
"238015","755-BX","2017/10/23 17:19:24","新北市樹林區東興街3號","121.409345","24.9803766666667","6500700","樹林區"
"238023","601-UM","2017/10/23 17:19:24","新北市樹林區中正路433號","121.415013333333","25.008515","6500700","樹林區"
"238019","599-UM","2017/10/23 17:19:38","新北市樹林區八德街108號","121.421018333333","24.9798733333333","6500700","樹林區"
"238018","571-TV","2017/10/23 17:19:37","新北市板橋區篤行路三段98號","121.425901666667","24.9847683333333","6500700","樹林區"
"238024","5061-A6","2017/10/23 17:19:36","新北市樹林區鎮前街18號","121.426075","24.9930733333333","6500700","樹林區"
"238021","KEA-2217","2017/10/23 17:19:39","新北市樹林區西圳街一段165巷20弄2-1號","121.395283333333","24.961045","6500700","樹林區"
"238022","KEA-2213","2017/10/23 17:19:44","新北市樹林區和平街55號","121.424035","24.982385","6500700","樹林區"
"238025","303-VK","2017/10/23 17:19:41","新北市樹林區保安二街67號","121.424665","24.99482","6500700","樹林區"
"238017","283-BY","2017/10/23 17:19:24","新北市樹林區光武街28號","121.415903333333","25.0056083333333","6500700","樹林區"
"238001","282-BY","2017/10/23 17:19:41","新北市樹林區大慶街99-1號","121.427806666667","24.99974","6500700","樹林區"
"238026","172-UY","2017/10/23 17:19:44","新北市樹林區東順街79巷2號","121.409681666667","24.9765516666667","6500700","樹林區"
"238016","169-UY","2017/10/23 17:19:42","新北市樹林區中山路二段10號","121.417545","24.985085","6500700","樹林區"
"239007","AAC-297","2017/10/23 17:19:41","新北市鶯歌區國慶街115巷21號","121.351206666667","24.9544833333333","6500800","鶯歌區"
"239006","891-R6","2017/10/23 17:19:24","新北市鶯歌區福昌街32號","121.332716666667","24.961035","6500800","鶯歌區"
"239008","527-UM","2017/10/23 17:19:26","新北市鶯歌區西湖街243巷25號","121.339233333333","24.96518","6500800","鶯歌區"
"239005","526-UM","2017/10/23 17:19:26","新北市鶯歌區鶯桃路545號","121.33036","24.9677883333333","6500800","鶯歌區"
"239001","417-VK","2017/10/23 17:19:40","新北市鶯歌區尖山路246號","121.342698333333","24.946655","6500800","鶯歌區"
"239003","360-BY","2017/10/23 17:19:38","新北市鶯歌區德昌街98號","121.33238","24.9602366666667","6500800","鶯歌區"
"239002","359-BY","2017/10/23 17:19:33","新北市鶯歌區南雅路396號","121.348041666667","24.9540466666667","6500800","鶯歌區"
"239004","193-VK","2017/10/23 17:19:43","新北市鶯歌區文化路417-17號","121.353685","24.9492966666667","6500800","鶯歌區"
"221008","489-VK","2017/10/23 17:19:30","新北市汐止區康寧街901號","121.65142","25.0749533333333","6501100","汐止區"
"242001","281-VK","2017/10/23 14:59:30","新北市新莊區環河路636-7號","121.437361666667","25.0113566666667","6500500","新莊區"
"220010","305-R5","2017/10/23 16:16:12","新北市板橋區民生路二段120號","121.47046","25.0197416666667","6500100","板橋區"
"242009","280-VK","2017/10/23 17:19:38","新北市新莊區公園一路75巷3號","121.442396666667","25.0372883333333","6500500","新莊區"
"220001","568-UM","2017/10/23 13:41:18","新北市板橋區華東街1-9號","121.448118333333","24.9948433333333","6500100","板橋區"
