"lineid","car","time","location","longitude","latitude","cityid","cityname"
"249005","172-UM","2017/10/23 17:29:55","新北市八里區荖阡坑路28-1號","121.404291666667","25.1305433333333","6502300","八里區"
"249001","173-UM","2017/10/23 17:29:44","新北市八里區大崁腳41-2號","121.425813333333","25.15936","6502300","八里區"
"249004","303-UY","2017/10/23 17:29:50","新北市八里區大崁三街15-5號","121.416498333333","25.157115","6502300","八里區"
"249002","305-UY","2017/10/23 17:29:38","新北市八里區龍米路二段65巷15弄1號","121.447115","25.1408683333333","6502300","八里區"
"249003","759-BX","2017/10/23 17:29:45","新北市八里區中山路二段398號","121.400601666667","25.1478583333333","6502300","八里區"
"248010","272-BY","2017/10/23 15:15:18","新北市五股區中興路二段83巷26-6號","121.459956666667","25.0751383333333","6501500","五股區"
"232011","375-UM","2017/10/23 17:29:51","新北市坪林區北宜路八段558號","121.718243333333","24.9092066666667","6502000","坪林區"
"244013","069-UM","2017/10/23 17:29:57","新北市林口區中山路164號","121.390363333333","25.0788533333333","6501700","林口區"
"244007","080-UY","2017/10/23 17:29:55","新北市林口區建國路2號","121.387378333333","25.092875","6501700","林口區"
"244019","403-UM","2017/10/23 17:29:40","新北市林口區文化二路一段356-1號","121.373301666667","25.0755666666667","6501700","林口區"
"244025","742-UY","2017/10/23 17:29:56","新北市林口區民族路151號","121.366523333333","25.0759916666667","6501700","林口區"
"244009","410-SL","2017/10/23 17:29:51","新北市林口區中北一街49巷2號","121.385906666667","25.0882483333333","6501700","林口區"
"244023","483-VK","2017/10/23 17:29:53","新北市林口區東明一街76號","121.391496666667","25.0715316666667","6501700","林口區"
"244017","485-VK","2017/10/23 17:29:51","新北市林口區粉寮路二段46-1號","121.403548333333","25.0870316666667","6501700","林口區"
"244011","701-TV","2017/10/23 17:29:41","新北市林口區佳林路148號","121.384163333333","25.0771316666667","6501700","林口區"
"244021","838-TS","2017/10/23 17:29:39","新北市林口區粉寮路二段167-1號","121.404458333333","25.0884433333333","6501700","林口區"
"243009","297-R6","2017/10/23 15:50:39","新北市泰山區黎明路25號","121.421936666667","25.0609916666667","6501600","泰山區"
"243016","680-BX","2017/10/23 16:07:00","新北市泰山區黎明路25號","121.422225","25.0606783333333","6501600","泰山區"
"231046","278-BY","2017/10/23 17:29:38","新北市新店區直潭路92號","121.5309","24.9375933333333","6500600","新店區"
"241011","013-R5","2017/10/23 17:29:45","新北市三重區河邊北街110巷45號","121.502963333333","25.070645","6500200","三重區"
"241009","060-VK","2017/10/23 17:29:48","新北市三重區車路頭街135-1號","121.484235","25.0760583333333","6500200","三重區"
"241017","063-VK","2017/10/23 17:29:43","新北市三重區重新路三段49號","121.493031666667","25.061635","6500200","三重區"
"241024","065-VK","2017/10/23 17:29:41","新北市三重區中正北路191巷8號","121.477511666667","25.06992","6500200","三重區"
"241003","091-VK","2017/10/23 17:29:52","新北市三重區碧華街386號","121.491371666667","25.0846783333333","6500200","三重區"
"241005","262-UM","2017/10/23 17:29:54","新北市三重區永安北路二段25巷1號","121.482073333333","25.0816466666667","6500200","三重區"
"241015","265-UM","2017/10/23 17:29:48","新北市三重區長元街65巷16弄15號","121.503553333333","25.0661966666667","6500200","三重區"
"241016","266-UM","2017/10/23 17:29:54","新北市三重區信義西街41號","121.49527","25.06396","6500200","三重區"
"241022","267-UM","2017/10/23 17:29:38","新北市三重區新北大道一段7號","121.489696666667","25.0613333333333","6500200","三重區"
"241018","268-UM","2017/10/23 17:29:49","新北市三重區大仁街94號","121.492903333333","25.0655516666667","6500200","三重區"
"241032","269-UM","2017/10/23 17:29:37","新北市三重區名源街31號","121.481746666667","25.0604566666667","6500200","三重區"
"241013","270-UM","2017/10/23 17:29:44","新北市三重區仁愛街82巷7號","121.495006666667","25.0735416666667","6500200","三重區"
"241025","271-UM","2017/10/23 17:29:46","新北市三重區中正北路380號","121.476513333333","25.06994","6500200","三重區"
"241007","398-BY","2017/10/23 17:29:56","新北市三重區三和路四段145巷136號","121.48772","25.0793233333333","6500200","三重區"
"241020","413-TH","2017/10/23 17:29:54","新北市三重區忠孝路二段4-1號","121.48668","25.0712633333333","6500200","三重區"
"241019","478-VK","2017/10/23 17:29:46","新北市三重區自強路二段50巷31號","121.488005","25.0696216666667","6500200","三重區"
"241030","480-VK","2017/10/23 17:29:41","新北市三重區集美街173號","121.491006666667","25.0536966666667","6500200","三重區"
"241014","543-UM","2017/10/23 17:29:52","新北市三重區長壽街78號","121.501526666667","25.0685833333333","6500200","三重區"
"241023","545-UM","2017/10/23 17:29:41","新北市三重區三民街146巷3弄1號","121.481738333333","25.064695","6500200","三重區"
"241012","941-UM","2017/10/23 17:29:38","新北市三重區仁福街64巷2號","121.4978","25.0747316666667","6500200","三重區"
"241033","AAC-255","2017/10/23 17:29:52","新北市三重區興德路133號","121.47012","25.0527933333333","6500200","三重區"
"235061","378-QA","2017/10/23 17:22:55","新北市中和區員山路36巷16-2號","121.48528","24.9917583333333","6500300","中和區"
"235062","800-TS","2017/10/23 16:47:13","新北市中和區員山路36巷16-3號","121.485003333333","24.9915916666667","6500300","中和區"
"247022","893-R6","2017/10/23 17:29:54","新北市蘆洲區三民路224號","121.468795","25.08943","6501400","蘆洲區"
"247012","546-UM","2017/10/23 17:29:53","新北市蘆洲區民族路33巷2號","121.477991666667","25.0851516666667","6501400","蘆洲區"
"247020","500-BY","2017/10/23 17:29:48","新北市蘆洲區水湳街150號","121.47003","25.0937483333333","6501400","蘆洲區"
"247010","339-TH","2017/10/23 17:29:57","新北市蘆洲區信義路163號","121.479775","25.08199","6501400","蘆洲區"
"247002","337-TH","2017/10/23 17:29:52","新北市蘆洲區永樂街38巷40號","121.458505","25.09015","6501400","蘆洲區"
"247004","336-TH","2017/10/23 17:29:36","新北市蘆洲區長安街233巷32號","121.458216666667","25.0823483333333","6501400","蘆洲區"
"247016","057-VK","2017/10/23 17:29:51","新北市蘆洲區光華路22巷39號","121.468295","25.084615","6501400","蘆洲區"
"247006","056-VK","2017/10/23 17:29:44","新北市蘆洲區九芎街90巷16-1號","121.465335","25.080585","6501400","蘆洲區"
"247008","053-VK","2017/10/23 17:29:48","新北市蘆洲區民生街95號","121.473868333333","25.0786416666667","6501400","蘆洲區"
"247014","007-UY","2017/10/23 17:29:39","新北市蘆洲區三民路33號","121.475431666667","25.0830433333333","6501400","蘆洲區"
"247024","002-UY","2017/10/23 17:29:48","新北市蘆洲區長興路413號","121.461791666667","25.0924966666667","6501400","蘆洲區"
"247018","001-UY","2017/10/23 17:29:48","新北市蘆洲區民權路148號","121.472675","25.0893833333333","6501400","蘆洲區"
"228003","097-TW","2017/10/23 17:29:49","新北市貢寮區仁理村研海街62-2號","121.925515","25.045735","6502600","貢寮區"
"228002","585-TW","2017/10/23 17:29:38","新北市貢寮區福隆里興隆街21-1號","121.943396666667","25.01653","6502600","貢寮區"
"228001","670-TC","2017/10/23 17:29:48","新北市貢寮區仁理村仁愛路42號","121.925155","25.053325","6502600","貢寮區"
"224010","AGQ-8101","2017/10/23 17:28:45","新北市瑞芳區逢甲路6號","121.81186","25.1082016666667","6501200","瑞芳區"
"224006","676-BX","2017/10/23 17:29:53","新北市瑞芳區傑魚坑路169號","121.789658333333","25.1094483333333","6501200","瑞芳區"
"224009","285-BY","2017/10/23 17:29:52","新北市瑞芳區汽車路18號","121.845266666667","25.1100733333333","6501200","瑞芳區"
"224008","275-VK","2017/10/23 17:29:50","新北市瑞芳區侯硐路204號","121.83046","25.08822","6501200","瑞芳區"
"224005","271-BY","2017/10/23 17:29:49","新北市瑞芳區海濱路3巷2-11號","121.849795","25.126065","6501200","瑞芳區"
"227001","642-TC","2017/10/23 17:29:35","新北市雙溪區平林里外平林59號","121.846228333333","25.03483","6502500","雙溪區"
"227008","400-TW","2017/10/23 17:14:31","新北市雙溪區三貂里定福路1-2號","121.850743333333","25.06344","6502500","雙溪區"
"208002","742-BX","2017/10/23 15:50:23","新北市金山區磺清路135號","121.639371666667","25.227785","6502700","金山區"
"251009","008-UM","2017/10/23 17:29:52","新北市淡水區新生街84號","121.43933","25.1748133333333","6501000","淡水區"
"251004","009-UM","2017/10/23 17:29:46","新北市淡水區中正東路二段88巷15號","121.45913","25.150515","6501000","淡水區"
"251007","179-VK","2017/10/23 17:29:54","新北市淡水區民生路47-4號","121.462031666667","25.138075","6501000","淡水區"
"251008","181-VK","2017/10/23 17:29:52","新北市淡水區大同路120巷16號","121.463143333333","25.13974","6501000","淡水區"
"251013","182-VK","2017/10/23 17:29:40","新北市淡水區大竹圍5號","121.466566666667","25.1952233333333","6501000","淡水區"
"251010","413-VK","2017/10/23 17:29:53","新北市淡水區中正路二段211號","121.426235","25.18916","6501000","淡水區"
"251012","441-VK","2017/10/23 17:29:43","新北市淡水區北新路114號","121.447775","25.1785083333333","6501000","淡水區"
"251015","442-VK","2017/10/23 17:29:48","新北市淡水區樹林口7-1號","121.4791","25.1671733333333","6501000","淡水區"
"251005","443-VK","2017/10/23 17:29:44","新北市淡水區鄧公路31巷2號","121.45118","25.1706433333333","6501000","淡水區"
"251006","561-UM","2017/10/23 17:29:51","新北市淡水區大仁街23號","121.44248","25.1752183333333","6501000","淡水區"
"251011","650-BX","2017/10/23 17:29:45","新北市淡水區坪頂路718號","121.482585","25.1585","6501000","淡水區"
"251002","672-BX","2017/10/23 17:29:48","新北市淡水區中正路259號","121.432555","25.17468","6501000","淡水區"
"251003","766-UM","2017/10/23 17:29:51","新北市淡水區中山路157號","121.440755","25.1728583333333","6501000","淡水區"
"207003","550-UM","2017/10/23 17:29:44","新北市萬里區龜吼里翡翠路17號","121.683393333333","25.1872566666667","6502800","萬里區"
"207004","225-TW","2017/10/23 17:29:50","新北市萬里區萬里里景美路9號","121.68466","25.1729983333333","6502800","萬里區"
"252002","178-VK","2017/10/23 17:29:45","新北市三芝區忠孝街1-14號","121.50545","25.2539983333333","6502100","三芝區"
"252001","292-VK","2017/10/23 17:29:55","新北市三芝區長安街119號","121.498035","25.2597033333333","6502100","三芝區"
"237011","572-TV","2017/10/23 17:22:39","新北市三峽區中山路459巷163-3號","121.348728333333","24.93297","6500900","三峽區"
"237015","649-BX","2017/10/23 17:29:42","新北市三峽區中山路110號","121.365755","24.935755","6500900","三峽區"
"236014","270-VK","2017/10/23 17:29:44","新北市土城區城林路6巷80號","121.438506666667","24.9797016666667","6501300","土城區"
"242031","AAC-296","2017/10/23 17:29:55","新北市新莊區新泰路417-7號","121.442731666667","25.0446883333333","6500500","新莊區"
"242029","986-R7","2017/10/23 17:29:47","新北市新莊區幸福路1號","121.459716666667","25.04945","6500500","新莊區"
"242050","751-BX","2017/10/23 17:29:41","新北市新莊區新樹路449巷5號","121.433111666667","25.0136466666667","6500500","新莊區"
"242025","705-TV","2017/10/23 17:29:45","新北市新莊區中港路268號","121.45321","25.0439033333333","6500500","新莊區"
"242023","613-BX","2017/10/23 17:29:52","新北市新莊區公園路37號","121.45311","25.0401683333333","6500500","新莊區"
"242027","612-BX","2017/10/23 17:29:52","新北市新莊區思源路32號","121.460295","25.040565","6500500","新莊區"
"242039","566-BX","2017/10/23 17:29:49","新北市新莊區民安東路2號","121.42782","25.0209733333333","6500500","新莊區"
"242044","497-BY","2017/10/23 17:29:40","新北市新莊區富國路87號","121.42046","25.0257733333333","6500500","新莊區"
"242034","442-UM","2017/10/23 17:29:39","新北市新莊區新莊路471號","121.449148333333","25.0333283333333","6500500","新莊區"
"242048","441-UM","2017/10/23 17:29:53","新北市新莊區四維路210號","121.421376666667","25.0200183333333","6500500","新莊區"
"242053","440-UM","2017/10/23 17:29:44","新北市新莊區瓊林南路305巷3號","121.434911666667","25.005495","6500500","新莊區"
"242004","413-TV","2017/10/23 17:29:54","新北市新莊區中港路288巷22號","121.453676666667","25.04468","6500500","新莊區"
"242042","400-BY","2017/10/23 17:29:39","新北市新莊區建國一路52號","121.434105","25.03104","6500500","新莊區"
"242060","362-BY","2017/10/23 17:29:51","新北市新莊區瓊林路204號","121.438463333333","25.0208116666667","6500500","新莊區"
"242058","353-BY","2017/10/23 17:29:51","新北市新莊區中正路615號","121.432356666667","25.0319933333333","6500500","新莊區"
"242007","132-UY","2017/10/23 17:29:41","新北市新莊區自強街19號","121.454605","25.04613","6500500","新莊區"
"242036","133-UY","2017/10/23 17:29:40","新北市新莊區建國二路11號","121.434296666667","25.0239816666667","6500500","新莊區"
"242021","135-UY","2017/10/23 17:29:43","新北市新莊區中華路一段18號","121.452","25.0370883333333","6500500","新莊區"
"242046","172-VK","2017/10/23 17:29:57","新北市新莊區新樹路65-4號","121.439456666667","25.0309366666667","6500500","新莊區"
"242017","173-VK","2017/10/23 17:29:53","新北市新莊區德豐街4號","121.451656666667","25.043945","6500500","新莊區"
"242015","175-VK","2017/10/23 17:29:48","新北市新莊區新泰路188號","121.447261666667","25.0381766666667","6500500","新莊區"
"242002","176-VK","2017/10/23 17:29:41","新北市新莊區新莊路154號","121.455256666667","25.03546","6500500","新莊區"
"242001","233-RS","2017/10/23 09:11:45","新北市新莊區環河路48-7號","121.436903333333","25.0097833333333","6500500","新莊區"
"242013","346-TH","2017/10/23 17:29:40","新北市新莊區中誠街14號","121.451973333333","25.04825","6500500","新莊區"
"242019","348-TH","2017/10/23 17:29:51","新北市新莊區中港路78號","121.455473333333","25.039075","6500500","新莊區"
"242056","349-TH","2017/10/23 17:29:50","新北市新莊區新莊路453號","121.44966","25.0332283333333","6500500","新莊區"
"242011","351-TH","2017/10/23 17:29:45","新北市新莊區中港路491號","121.452078333333","25.05009","6500500","新莊區"
"238015","755-BX","2017/10/23 17:29:44","新北市樹林區大安路267號","121.419046666667","24.9937083333333","6500700","樹林區"
"238023","601-UM","2017/10/23 17:29:44","新北市樹林區中正路433號","121.415016666667","25.008535","6500700","樹林區"
"238019","599-UM","2017/10/23 17:29:38","新北市樹林區太平路59號","121.41906","24.9818716666667","6500700","樹林區"
"238018","571-TV","2017/10/23 17:29:58","新北市樹林區鎮前街269巷46號","121.418975","24.9848083333333","6500700","樹林區"
"238024","5061-A6","2017/10/23 17:29:36","新北市樹林區鎮前街86巷8號","121.425201666667","24.9921416666667","6500700","樹林區"
"238021","KEA-2217","2017/10/23 17:29:38","新北市樹林區民權街46號","121.3993","24.9601033333333","6500700","樹林區"
"238022","KEA-2213","2017/10/23 17:29:44","新北市樹林區信義街17號","121.422811666667","24.9820283333333","6500700","樹林區"
"238025","303-VK","2017/10/23 17:29:41","新北市樹林區保安二街二段6-11號","121.415753333333","25.0014366666667","6500700","樹林區"
"238017","283-BY","2017/10/23 17:29:44","新北市樹林區光武街32巷12號","121.416813333333","25.0054533333333","6500700","樹林區"
"238014","282-BY","2017/10/23 17:29:41","新北市樹林區長壽街70巷35弄2號","121.421393333333","24.994965","6500700","樹林區"
"238020","268-VK","2017/10/23 17:29:55","新北市樹林區保安街一段193-1號","121.420733333333","24.9958216666667","6500700","樹林區"
"238026","172-UY","2017/10/23 17:29:53","新北市樹林區中山路二段237號","121.402095","24.9759333333333","6500700","樹林區"
"238016","169-UY","2017/10/23 17:29:42","新北市樹林區長壽街4號","121.423751666667","24.9933116666667","6500700","樹林區"
"239007","AAC-297","2017/10/23 17:29:41","新北市鶯歌區中山路300號","121.342861666667","24.957225","6500800","鶯歌區"
"239006","891-R6","2017/10/23 17:29:44","新北市鶯歌區鶯桃路472巷25號","121.333121666667","24.9660166666667","6500800","鶯歌區"
"239008","527-UM","2017/10/23 17:29:46","新北市鶯歌區大湖路730號","121.332313333333","24.9769216666667","6500800","鶯歌區"
"239005","526-UM","2017/10/23 17:29:46","桃園市八德區仁安街59號","121.324333333333","24.9709866666667","6500800","鶯歌區"
"239001","417-VK","2017/10/23 17:29:43","新北市鶯歌區高職西街109號","121.336168333333","24.9402766666667","6500800","鶯歌區"
"239003","360-BY","2017/10/23 17:29:38","新北市鶯歌區永吉街27巷27弄4號","121.337075","24.9568366666667","6500800","鶯歌區"
"239002","359-BY","2017/10/23 17:29:53","新北市鶯歌區育才街96號","121.34681","24.9550033333333","6500800","鶯歌區"
"239004","193-VK","2017/10/23 17:29:43","新北市鶯歌區三鶯路29巷34號","121.35386","24.9395383333333","6500800","鶯歌區"
"221008","489-VK","2017/10/23 17:29:50","新北市汐止區康寧街901號","121.651388333333","25.07507","6501100","汐止區"
"221033","647-BX","2017/10/23 17:29:47","新北市汐止區汐萬路一段39-3號","121.654741666667","25.0691883333333","6501100","汐止區"
"221018","753-BX","2017/10/23 17:29:57","新北市汐止區汐萬路一段266號","121.651025","25.0738633333333","6501100","汐止區"
"242001","281-VK","2017/10/23 14:59:30","新北市新莊區環河路636-7號","121.437361666667","25.0113566666667","6500500","新莊區"
"220010","305-R5","2017/10/23 16:16:12","新北市板橋區民生路二段120號","121.47046","25.0197416666667","6500100","板橋區"
"242009","280-VK","2017/10/23 17:29:58","新北市新莊區中原路189號","121.45267","25.0543833333333","6500500","新莊區"
"220001","568-UM","2017/10/23 13:41:18","新北市板橋區華東街1-9號","121.448118333333","24.9948433333333","6500100","板橋區"
